{"last_updated":1712873222,"ttl":30,"version":"2.2","data":{"bikes":[{"bike_id":"bca1f056-6bf2-459f-b9a7-7a1ac842966b","system_id":"levelo_inurba_marseille","lat":43.313391,"lon":5.36706,"is_reserved":false,"is_disabled":false,"rental_uris":{"android":"levelo://app?vid=bca1f056-6bf2-459f-b9a7-7a1ac842966b","ios":"levelo://app?vid=bca1f056-6bf2-459f-b9a7-7a1ac842966b"},"vehicle_type_id":"4","last_reported":1712873222,"current_range_meters":25200,"station_id":"ce4bgr92rcd13ifvqc6g","pricing_plan_id":"cebpf4jnsgd1na2vs0mg"},{"bike_id":"3955bec1-1476-4d93-9867-a98f58215b1e","system_id":"levelo_inurba_marseille","lat":43.313391,"lon":5.36706,"is_reserved":false,"is_disabled":false,"rental_uris":{"android":"levelo://app?vid=3955bec1-1476-4d93-9867-a98f58215b1e","ios":"levelo://app?vid=3955bec1-1476-4d93-9867-a98f58215b1e"},"vehicle_type_id":"4","last_reported":1712873222,"current_range_meters":19200,"station_id":"ce4bgr92rcd13ifvqc6g","pricing_plan_id":"cebpf4jnsgd1na2vs0mg"},{"bike_id":"b8a59ad0-a7eb-4303-b5ff-2e730ee565b8","system_id":"levelo_inurba_marseille","lat":43.313391,"lon":5.36706,"is_reserved":false,"is_disabled":false,"rental_uris":{"android":"levelo://app?vid=b8a59ad0-a7eb-4303-b5ff-2e730ee565b8","ios":"levelo://app?vid=b8a59ad0-a7eb-4303-b5ff-2e730ee565b8"},"vehicle_type_id":"4","last_reported":1712873222,"current_range_meters":14400,"station_id":"ce4bgr92rcd13ifvqc6g","pricing_plan_id":"cebpf4jnsgd1na2vs0mg"},{"bike_id":"cd40a2a7-6d97-4be1-89f0-3f93a707a9c6","system_id":"levelo_inurba_marseille","lat":43.313391,"lon":5.36706,"is_reserved":false,"is_disabled":false,"rental_uris":{"android":"levelo://app?vid=cd40a2a7-6d97-4be1-89f0-3f93a707a9c6","ios":"levelo://app?vid=cd40a2a7-6d97-4be1-89f0-3f93a707a9c6"},"vehicle_type_id":"4","last_reported":1712873222,"current_range_meters":16400,"station_id":"ce4bgr92rcd13ifvqc6g","pricing_plan_id":"cebpf4jnsgd1na2vs0mg"},{"bike_id":"dbef3019-2bc4-4536-84fe-22626c2c3c52","system_id":"levelo_inurba_marseille","lat":43.312239,"lon":5.368562,"is_reserved":false,"is_disabled":false,"rental_uris":{"android":"levelo://app?vid=dbef3019-2bc4-4536-84fe-22626c2c3c52","ios":"levelo://app?vid=dbef3019-2bc4-4536-84fe-22626c2c3c52"},"vehicle_type_id":"4","last_reported":1712873222,"current_range_meters":0,"station_id":"ce4bgl92rcd13ifvqbq0","pricing_plan_id":"cebpf4jnsgd1na2vs0mg"},{"bike_id":"7e63b10c-3c76-4753-a57a-a34350cfca4f","system_id":"levelo_inurba_marseille","lat":43.312243,"lon":5.36864,"is_reserved":false,"is_disabled":false,"rental_uris":{"android":"levelo://app?vid=7e63b10c-3c76-4753-a57a-a34350cfca4f","ios":"levelo://app?vid=7e63b10c-3c76-4753-a57a-a34350cfca4f"},"vehicle_type_id":"4","last_reported":1712873222,"current_range_meters":4400,"station_id":"ce4bgl92rcd13ifvqbq0","pricing_plan_id":"cebpf4jnsgd1na2vs0mg"},{"bike_id":"074900de-e605-458e-85ed-26dd1af25a10","system_id":"levelo_inurba_marseille","lat":43.310763,"lon":5.368997,"is_reserved":false,"is_disabled":false,"rental_uris":{"android":"levelo://app?vid=074900de-e605-458e-85ed-26dd1af25a10","ios":"levelo://app?vid=074900de-e605-458e-85ed-26dd1af25a10"},"vehicle_type_id":"4","last_reported":1712873222,"current_range_meters":21200,"station_id":"","pricing_plan_id":"cebpf4jnsgd1na2vs0mg"},{"bike_id":"c8e5b2de-028d-4e39-a7b5-64a33a106630","system_id":"levelo_inurba_marseille","lat":43.309076,"lon":5.368465,"is_reserved":false,"is_disabled":false,"rental_uris":{"android":"levelo://app?vid=c8e5b2de-028d-4e39-a7b5-64a33a106630","ios":"levelo://app?vid=c8e5b2de-028d-4e39-a7b5-64a33a106630"},"vehicle_type_id":"4","last_reported":1712873222,"current_range_meters":10000,"station_id":"ce4bgn92rcd13ifvqbvg","pricing_plan_id":"cebpf4jnsgd1na2vs0mg"},{"bike_id":"4970f656-f811-4f82-add5-e8bca54909ab","system_id":"levelo_inurba_marseille","lat":43.309076,"lon":5.368465,"is_reserved":false,"is_disabled":false,"rental_uris":{"android":"levelo://app?vid=4970f656-f811-4f82-add5-e8bca54909ab","ios":"levelo://app?vid=4970f656-f811-4f82-add5-e8bca54909ab"},"vehicle_type_id":"4","last_reported":1712873222,"current_range_meters":26400,"station_id":"ce4bgn92rcd13ifvqbvg","pricing_plan_id":"cebpf4jnsgd1na2vs0mg"},{"bike_id":"97c305c5-8435-4b15-ae4a-fad64f5206a4","system_id":"levelo_inurba_marseille","lat":43.309076,"lon":5.368465,"is_reserved":false,"is_disabled":false,"rental_uris":{"android":"levelo://app?vid=97c305c5-8435-4b15-ae4a-fad64f5206a4","ios":"levelo://app?vid=97c305c5-8435-4b15-ae4a-fad64f5206a4"},"vehicle_type_id":"4","last_reported":1712873222,"current_range_meters":0,"station_id":"ce4bgn92rcd13ifvqbvg","pricing_plan_id":"cebpf4jnsgd1na2vs0mg"},{"bike_id":"35637b8a-256a-4ced-9363-6878f2304db5","system_id":"levelo_inurba_marseille","lat":43.314811,"lon":5.373103,"is_reserved":false,"is_disabled":false,"rental_uris":{"android":"levelo://app?vid=35637b8a-256a-4ced-9363-6878f2304db5","ios":"levelo://app?vid=35637b8a-256a-4ced-9363-6878f2304db5"},"vehicle_type_id":"4","last_reported":1712873222,"current_range_meters":0,"station_id":"ce4bgt12rcd13ifvqcd0","pricing_plan_id":"cebpf4jnsgd1na2vs0mg"},{"bike_id":"8fc1d66a-85a2-45d6-b7ca-76bba3016fbc","system_id":"levelo_inurba_marseille","lat":43.314811,"lon":5.373103,"is_reserved":false,"is_disabled":false,"rental_uris":{"android":"levelo://app?vid=8fc1d66a-85a2-45d6-b7ca-76bba3016fbc","ios":"levelo://app?vid=8fc1d66a-85a2-45d6-b7ca-76bba3016fbc"},"vehicle_type_id":"4","last_reported":1712873222,"current_range_meters":11600,"station_id":"ce4bgt12rcd13ifvqcd0","pricing_plan_id":"cebpf4jnsgd1na2vs0mg"},{"bike_id":"2f2d0939-cb75-4dad-baf0-0f1b5a342d2f","system_id":"levelo_inurba_marseille","lat":43.314811,"lon":5.373103,"is_reserved":false,"is_disabled":false,"rental_uris":{"android":"levelo://app?vid=2f2d0939-cb75-4dad-baf0-0f1b5a342d2f","ios":"levelo://app?vid=2f2d0939-cb75-4dad-baf0-0f1b5a342d2f"},"vehicle_type_id":"4","last_reported":1712873222,"current_range_meters":11600,"station_id":"ce4bgt12rcd13ifvqcd0","pricing_plan_id":"cebpf4jnsgd1na2vs0mg"},{"bike_id":"f06aed80-3bc9-4595-ac89-0591140d28ec","system_id":"levelo_inurba_marseille","lat":43.314811,"lon":5.373103,"is_reserved":false,"is_disabled":false,"rental_uris":{"android":"levelo://app?vid=f06aed80-3bc9-4595-ac89-0591140d28ec","ios":"levelo://app?vid=f06aed80-3bc9-4595-ac89-0591140d28ec"},"vehicle_type_id":"4","last_reported":1712873222,"current_range_meters":6000,"station_id":"ce4bgt12rcd13ifvqcd0","pricing_plan_id":"cebpf4jnsgd1na2vs0mg"},{"bike_id":"acd0d2d1-1eef-4fa9-a63f-72bf20ad299d","system_id":"levelo_inurba_marseille","lat":43.310804,"lon":5.38359,"is_reserved":false,"is_disabled":false,"rental_uris":{"android":"levelo://app?vid=acd0d2d1-1eef-4fa9-a63f-72bf20ad299d","ios":"levelo://app?vid=acd0d2d1-1eef-4fa9-a63f-72bf20ad299d"},"vehicle_type_id":"4","last_reported":1712873222,"current_range_meters":9600,"station_id":"ce4bgv92rcd13ifvqcr0","pricing_plan_id":"cebpf4jnsgd1na2vs0mg"},{"bike_id":"ba505c9b-f8ce-41cc-b4ff-3ef21e355fb1","system_id":"levelo_inurba_marseille","lat":43.314811,"lon":5.373103,"is_reserved":false,"is_disabled":false,"rental_uris":{"android":"levelo://app?vid=ba505c9b-f8ce-41cc-b4ff-3ef21e355fb1","ios":"levelo://app?vid=ba505c9b-f8ce-41cc-b4ff-3ef21e355fb1"},"vehicle_type_id":"4","last_reported":1712873222,"current_range_meters":2000,"station_id":"ce4bgt12rcd13ifvqcd0","pricing_plan_id":"cebpf4jnsgd1na2vs0mg"},{"bike_id":"f450bf39-0692-4619-a3fc-b7070910ea12","system_id":"levelo_inurba_marseille","lat":43.314811,"lon":5.373103,"is_reserved":false,"is_disabled":false,"rental_uris":{"android":"levelo://app?vid=f450bf39-0692-4619-a3fc-b7070910ea12","ios":"levelo://app?vid=f450bf39-0692-4619-a3fc-b7070910ea12"},"vehicle_type_id":"4","last_reported":1712873222,"current_range_meters":0,"station_id":"ce4bgt12rcd13ifvqcd0","pricing_plan_id":"cebpf4jnsgd1na2vs0mg"},{"bike_id":"14181a96-a381-46a3-bf8e-9275e5d5f84a","system_id":"levelo_inurba_marseille","lat":43.314811,"lon":5.373103,"is_reserved":false,"is_disabled":false,"rental_uris":{"android":"levelo://app?vid=14181a96-a381-46a3-bf8e-9275e5d5f84a","ios":"levelo://app?vid=14181a96-a381-46a3-bf8e-9275e5d5f84a"},"vehicle_type_id":"4","last_reported":1712873222,"current_range_meters":21200,"station_id":"ce4bgt12rcd13ifvqcd0","pricing_plan_id":"cebpf4jnsgd1na2vs0mg"},{"bike_id":"0a419148-4e6c-4dd0-ae49-3a015a83a9c1","system_id":"levelo_inurba_marseille","lat":43.314811,"lon":5.373104,"is_reserved":false,"is_disabled":false,"rental_uris":{"android":"levelo://app?vid=0a419148-4e6c-4dd0-ae49-3a015a83a9c1","ios":"levelo://app?vid=0a419148-4e6c-4dd0-ae49-3a015a83a9c1"},"vehicle_type_id":"4","last_reported":1712873222,"current_range_meters":12400,"station_id":"ce4bgt12rcd13ifvqcd0","pricing_plan_id":"cebpf4jnsgd1na2vs0mg"},{"bike_id":"a83dcc58-a733-46da-b8eb-106f9ee720c3","system_id":"levelo_inurba_marseille","lat":43.309039,"lon":5.371797,"is_reserved":false,"is_disabled":false,"rental_uris":{"android":"levelo://app?vid=a83dcc58-a733-46da-b8eb-106f9ee720c3","ios":"levelo://app?vid=a83dcc58-a733-46da-b8eb-106f9ee720c3"},"vehicle_type_id":"4","last_reported":1712873222,"current_range_meters":21600,"station_id":"ce4bguh2rcd13ifvqckg","pricing_plan_id":"cebpf4jnsgd1na2vs0mg"},{"bike_id":"f10c6db4-8b4c-4bde-a856-91d604ac88c2","system_id":"levelo_inurba_marseille","lat":43.309039,"lon":5.371797,"is_reserved":false,"is_disabled":false,"rental_uris":{"android":"levelo://app?vid=f10c6db4-8b4c-4bde-a856-91d604ac88c2","ios":"levelo://app?vid=f10c6db4-8b4c-4bde-a856-91d604ac88c2"},"vehicle_type_id":"4","last_reported":1712873222,"current_range_meters":7200,"station_id":"ce4bguh2rcd13ifvqckg","pricing_plan_id":"cebpf4jnsgd1na2vs0mg"},{"bike_id":"7a5ffa6b-3b12-4ea1-b394-58bf35d37ae3","system_id":"levelo_inurba_marseille","lat":43.309034,"lon":5.371783,"is_reserved":false,"is_disabled":false,"rental_uris":{"android":"levelo://app?vid=7a5ffa6b-3b12-4ea1-b394-58bf35d37ae3","ios":"levelo://app?vid=7a5ffa6b-3b12-4ea1-b394-58bf35d37ae3"},"vehicle_type_id":"4","last_reported":1712873222,"current_range_meters":4400,"station_id":"ce4bguh2rcd13ifvqckg","pricing_plan_id":"cebpf4jnsgd1na2vs0mg"},{"bike_id":"025c8789-a6e2-4f6c-a169-5f9aac1f8f47","system_id":"levelo_inurba_marseille","lat":43.309039,"lon":5.371797,"is_reserved":false,"is_disabled":false,"rental_uris":{"android":"levelo://app?vid=025c8789-a6e2-4f6c-a169-5f9aac1f8f47","ios":"levelo://app?vid=025c8789-a6e2-4f6c-a169-5f9aac1f8f47"},"vehicle_type_id":"4","last_reported":1712873222,"current_range_meters":400,"station_id":"ce4bguh2rcd13ifvqckg","pricing_plan_id":"cebpf4jnsgd1na2vs0mg"},{"bike_id":"b256c11d-4620-40d5-9fa7-dafc355e14b8","system_id":"levelo_inurba_marseille","lat":43.309039,"lon":5.371797,"is_reserved":false,"is_disabled":false,"rental_uris":{"android":"levelo://app?vid=b256c11d-4620-40d5-9fa7-dafc355e14b8","ios":"levelo://app?vid=b256c11d-4620-40d5-9fa7-dafc355e14b8"},"vehicle_type_id":"4","last_reported":1712873222,"current_range_meters":0,"station_id":"ce4bguh2rcd13ifvqckg","pricing_plan_id":"cebpf4jnsgd1na2vs0mg"},{"bike_id":"8eeb49ca-d219-4aba-bba3-82b8dfb1c94f","system_id":"levelo_inurba_marseille","lat":43.309039,"lon":5.371797,"is_reserved":false,"is_disabled":false,"rental_uris":{"android":"levelo://app?vid=8eeb49ca-d219-4aba-bba3-82b8dfb1c94f","ios":"levelo://app?vid=8eeb49ca-d219-4aba-bba3-82b8dfb1c94f"},"vehicle_type_id":"4","last_reported":1712873222,"current_range_meters":15600,"station_id":"ce4bguh2rcd13ifvqckg","pricing_plan_id":"cebpf4jnsgd1na2vs0mg"},{"bike_id":"7b5b7a45-13ed-425e-bc19-41a4e8b9a72a","system_id":"levelo_inurba_marseille","lat":43.309034,"lon":5.371783,"is_reserved":false,"is_disabled":false,"rental_uris":{"android":"levelo://app?vid=7b5b7a45-13ed-425e-bc19-41a4e8b9a72a","ios":"levelo://app?vid=7b5b7a45-13ed-425e-bc19-41a4e8b9a72a"},"vehicle_type_id":"4","last_reported":1712873222,"current_range_meters":18400,"station_id":"ce4bguh2rcd13ifvqckg","pricing_plan_id":"cebpf4jnsgd1na2vs0mg"},{"bike_id":"4a68316f-aac6-41db-8dab-2d80923e834c","system_id":"levelo_inurba_marseille","lat":43.309039,"lon":5.371797,"is_reserved":false,"is_disabled":false,"rental_uris":{"android":"levelo://app?vid=4a68316f-aac6-41db-8dab-2d80923e834c","ios":"levelo://app?vid=4a68316f-aac6-41db-8dab-2d80923e834c"},"vehicle_type_id":"4","last_reported":1712873222,"current_range_meters":400,"station_id":"ce4bguh2rcd13ifvqckg","pricing_plan_id":"cebpf4jnsgd1na2vs0mg"},{"bike_id":"a7cf2af1-e361-4ff0-ba76-d833644e7de4","system_id":"levelo_inurba_marseille","lat":43.309039,"lon":5.371797,"is_reserved":false,"is_disabled":false,"rental_uris":{"android":"levelo://app?vid=a7cf2af1-e361-4ff0-ba76-d833644e7de4","ios":"levelo://app?vid=a7cf2af1-e361-4ff0-ba76-d833644e7de4"},"vehicle_type_id":"4","last_reported":1712873222,"current_range_meters":9600,"station_id":"ce4bguh2rcd13ifvqckg","pricing_plan_id":"cebpf4jnsgd1na2vs0mg"},{"bike_id":"150a577b-d3eb-4be1-b3d6-278f581c7d71","system_id":"levelo_inurba_marseille","lat":43.305453,"lon":5.365519,"is_reserved":false,"is_disabled":false,"rental_uris":{"android":"levelo://app?vid=150a577b-d3eb-4be1-b3d6-278f581c7d71","ios":"levelo://app?vid=150a577b-d3eb-4be1-b3d6-278f581c7d71"},"vehicle_type_id":"4","last_reported":1712873222,"current_range_meters":0,"station_id":"ce4bgs12rcd13ifvqcag","pricing_plan_id":"cebpf4jnsgd1na2vs0mg"},{"bike_id":"1706376d-5de7-422a-956e-8fcdbec7abe9","system_id":"levelo_inurba_marseille","lat":43.307137,"lon":5.37371,"is_reserved":false,"is_disabled":false,"rental_uris":{"android":"levelo://app?vid=1706376d-5de7-422a-956e-8fcdbec7abe9","ios":"levelo://app?vid=1706376d-5de7-422a-956e-8fcdbec7abe9"},"vehicle_type_id":"4","last_reported":1712873222,"current_range_meters":0,"station_id":"","pricing_plan_id":"cebpf4jnsgd1na2vs0mg"},{"bike_id":"67dbdbad-258f-4475-b1cf-aa9577eb9f84","system_id":"levelo_inurba_marseille","lat":43.305989,"lon":5.37225,"is_reserved":false,"is_disabled":false,"rental_uris":{"android":"levelo://app?vid=67dbdbad-258f-4475-b1cf-aa9577eb9f84","ios":"levelo://app?vid=67dbdbad-258f-4475-b1cf-aa9577eb9f84"},"vehicle_type_id":"4","last_reported":1712873222,"current_range_meters":2800,"station_id":"ce4bgqh2rcd13ifvqc4g","pricing_plan_id":"cebpf4jnsgd1na2vs0mg"},{"bike_id":"3cf2ac9e-1215-4b28-9020-9b6a569f82f9","system_id":"levelo_inurba_marseille","lat":43.305989,"lon":5.37225,"is_reserved":false,"is_disabled":false,"rental_uris":{"android":"levelo://app?vid=3cf2ac9e-1215-4b28-9020-9b6a569f82f9","ios":"levelo://app?vid=3cf2ac9e-1215-4b28-9020-9b6a569f82f9"},"vehicle_type_id":"4","last_reported":1712873222,"current_range_meters":9200,"station_id":"ce4bgqh2rcd13ifvqc4g","pricing_plan_id":"cebpf4jnsgd1na2vs0mg"},{"bike_id":"d86c5d88-8f1e-42f6-acf2-5ef0166d00df","system_id":"levelo_inurba_marseille","lat":43.30595,"lon":5.372232,"is_reserved":false,"is_disabled":false,"rental_uris":{"android":"levelo://app?vid=d86c5d88-8f1e-42f6-acf2-5ef0166d00df","ios":"levelo://app?vid=d86c5d88-8f1e-42f6-acf2-5ef0166d00df"},"vehicle_type_id":"4","last_reported":1712873222,"current_range_meters":0,"station_id":"ce4bgqh2rcd13ifvqc4g","pricing_plan_id":"cebpf4jnsgd1na2vs0mg"},{"bike_id":"eb8fc73a-9513-4067-b2de-da49c632f990","system_id":"levelo_inurba_marseille","lat":43.305989,"lon":5.37225,"is_reserved":false,"is_disabled":false,"rental_uris":{"android":"levelo://app?vid=eb8fc73a-9513-4067-b2de-da49c632f990","ios":"levelo://app?vid=eb8fc73a-9513-4067-b2de-da49c632f990"},"vehicle_type_id":"4","last_reported":1712873222,"current_range_meters":16000,"station_id":"ce4bgqh2rcd13ifvqc4g","pricing_plan_id":"cebpf4jnsgd1na2vs0mg"},{"bike_id":"840781e2-2a61-4053-801a-e1a661de2aee","system_id":"levelo_inurba_marseille","lat":43.311125,"lon":5.377624,"is_reserved":false,"is_disabled":false,"rental_uris":{"android":"levelo://app?vid=840781e2-2a61-4053-801a-e1a661de2aee","ios":"levelo://app?vid=840781e2-2a61-4053-801a-e1a661de2aee"},"vehicle_type_id":"4","last_reported":1712873222,"current_range_meters":10000,"station_id":"ce4bgt92rcd13ifvqcg0","pricing_plan_id":"cebpf4jnsgd1na2vs0mg"},{"bike_id":"da73679f-fd94-432c-be40-eb5e0a47f05f","system_id":"levelo_inurba_marseille","lat":43.305989,"lon":5.37225,"is_reserved":false,"is_disabled":false,"rental_uris":{"android":"levelo://app?vid=da73679f-fd94-432c-be40-eb5e0a47f05f","ios":"levelo://app?vid=da73679f-fd94-432c-be40-eb5e0a47f05f"},"vehicle_type_id":"4","last_reported":1712873222,"current_range_meters":0,"station_id":"ce4bgqh2rcd13ifvqc4g","pricing_plan_id":"cebpf4jnsgd1na2vs0mg"},{"bike_id":"1eb69a2c-9f72-488f-9b04-13cf7149fd6d","system_id":"levelo_inurba_marseille","lat":43.311125,"lon":5.377624,"is_reserved":false,"is_disabled":false,"rental_uris":{"android":"levelo://app?vid=1eb69a2c-9f72-488f-9b04-13cf7149fd6d","ios":"levelo://app?vid=1eb69a2c-9f72-488f-9b04-13cf7149fd6d"},"vehicle_type_id":"4","last_reported":1712873222,"current_range_meters":4400,"station_id":"ce4bgt92rcd13ifvqcg0","pricing_plan_id":"cebpf4jnsgd1na2vs0mg"},{"bike_id":"832727c6-368a-41be-94f9-f8fb31e888af","system_id":"levelo_inurba_marseille","lat":43.31116,"lon":5.37762,"is_reserved":false,"is_disabled":false,"rental_uris":{"android":"levelo://app?vid=832727c6-368a-41be-94f9-f8fb31e888af","ios":"levelo://app?vid=832727c6-368a-41be-94f9-f8fb31e888af"},"vehicle_type_id":"4","last_reported":1712873222,"current_range_meters":3200,"station_id":"ce4bgt92rcd13ifvqcg0","pricing_plan_id":"cebpf4jnsgd1na2vs0mg"},{"bike_id":"18731238-b391-48b0-9b16-e663b4c530ea","system_id":"levelo_inurba_marseille","lat":43.31107,"lon":5.37766,"is_reserved":false,"is_disabled":false,"rental_uris":{"android":"levelo://app?vid=18731238-b391-48b0-9b16-e663b4c530ea","ios":"levelo://app?vid=18731238-b391-48b0-9b16-e663b4c530ea"},"vehicle_type_id":"4","last_reported":1712873222,"current_range_meters":6800,"station_id":"ce4bgt92rcd13ifvqcg0","pricing_plan_id":"cebpf4jnsgd1na2vs0mg"},{"bike_id":"80997a93-3259-41f2-8f36-a2e08a9b4bda","system_id":"levelo_inurba_marseille","lat":43.31121,"lon":5.3777,"is_reserved":false,"is_disabled":false,"rental_uris":{"android":"levelo://app?vid=80997a93-3259-41f2-8f36-a2e08a9b4bda","ios":"levelo://app?vid=80997a93-3259-41f2-8f36-a2e08a9b4bda"},"vehicle_type_id":"4","last_reported":1712873222,"current_range_meters":24400,"station_id":"ce4bgt92rcd13ifvqcg0","pricing_plan_id":"cebpf4jnsgd1na2vs0mg"},{"bike_id":"46116053-1e4f-4b0e-bf60-bdf47e69bbc5","system_id":"levelo_inurba_marseille","lat":43.31108,"lon":5.37777,"is_reserved":false,"is_disabled":false,"rental_uris":{"android":"levelo://app?vid=46116053-1e4f-4b0e-bf60-bdf47e69bbc5","ios":"levelo://app?vid=46116053-1e4f-4b0e-bf60-bdf47e69bbc5"},"vehicle_type_id":"4","last_reported":1712873222,"current_range_meters":1200,"station_id":"ce4bgt92rcd13ifvqcg0","pricing_plan_id":"cebpf4jnsgd1na2vs0mg"},{"bike_id":"ec8380f4-0a0f-4b12-b36b-9774aa3dcaa6","system_id":"levelo_inurba_marseille","lat":43.307945,"lon":5.376487,"is_reserved":false,"is_disabled":false,"rental_uris":{"android":"levelo://app?vid=ec8380f4-0a0f-4b12-b36b-9774aa3dcaa6","ios":"levelo://app?vid=ec8380f4-0a0f-4b12-b36b-9774aa3dcaa6"},"vehicle_type_id":"4","last_reported":1712873222,"current_range_meters":5200,"station_id":"ce4bgv92rcd13ifvqcq0","pricing_plan_id":"cebpf4jnsgd1na2vs0mg"},{"bike_id":"e0e62251-90ff-4014-b33e-4ab0f51b8199","system_id":"levelo_inurba_marseille","lat":43.307945,"lon":5.376487,"is_reserved":false,"is_disabled":false,"rental_uris":{"android":"levelo://app?vid=e0e62251-90ff-4014-b33e-4ab0f51b8199","ios":"levelo://app?vid=e0e62251-90ff-4014-b33e-4ab0f51b8199"},"vehicle_type_id":"4","last_reported":1712873222,"current_range_meters":3200,"station_id":"ce4bgv92rcd13ifvqcq0","pricing_plan_id":"cebpf4jnsgd1na2vs0mg"},{"bike_id":"b464a47c-be07-4068-b9bd-bcbb93a43e5f","system_id":"levelo_inurba_marseille","lat":43.307945,"lon":5.376487,"is_reserved":false,"is_disabled":false,"rental_uris":{"android":"levelo://app?vid=b464a47c-be07-4068-b9bd-bcbb93a43e5f","ios":"levelo://app?vid=b464a47c-be07-4068-b9bd-bcbb93a43e5f"},"vehicle_type_id":"4","last_reported":1712873222,"current_range_meters":8400,"station_id":"ce4bgv92rcd13ifvqcq0","pricing_plan_id":"cebpf4jnsgd1na2vs0mg"},{"bike_id":"13d78e9d-2ec2-49f6-966a-c876fb74f3f1","system_id":"levelo_inurba_marseille","lat":43.307945,"lon":5.376487,"is_reserved":false,"is_disabled":false,"rental_uris":{"android":"levelo://app?vid=13d78e9d-2ec2-49f6-966a-c876fb74f3f1","ios":"levelo://app?vid=13d78e9d-2ec2-49f6-966a-c876fb74f3f1"},"vehicle_type_id":"4","last_reported":1712873222,"current_range_meters":12000,"station_id":"ce4bgv92rcd13ifvqcq0","pricing_plan_id":"cebpf4jnsgd1na2vs0mg"},{"bike_id":"e5e98c28-af59-480d-8c15-be13119a53e1","system_id":"levelo_inurba_marseille","lat":43.307945,"lon":5.376487,"is_reserved":false,"is_disabled":false,"rental_uris":{"android":"levelo://app?vid=e5e98c28-af59-480d-8c15-be13119a53e1","ios":"levelo://app?vid=e5e98c28-af59-480d-8c15-be13119a53e1"},"vehicle_type_id":"4","last_reported":1712873222,"current_range_meters":3200,"station_id":"ce4bgv92rcd13ifvqcq0","pricing_plan_id":"cebpf4jnsgd1na2vs0mg"},{"bike_id":"18b6f759-3cb1-41ed-b872-2d4c06bb4be3","system_id":"levelo_inurba_marseille","lat":43.307945,"lon":5.376487,"is_reserved":false,"is_disabled":false,"rental_uris":{"android":"levelo://app?vid=18b6f759-3cb1-41ed-b872-2d4c06bb4be3","ios":"levelo://app?vid=18b6f759-3cb1-41ed-b872-2d4c06bb4be3"},"vehicle_type_id":"4","last_reported":1712873222,"current_range_meters":17200,"station_id":"ce4bgv92rcd13ifvqcq0","pricing_plan_id":"cebpf4jnsgd1na2vs0mg"},{"bike_id":"a23d0065-845d-4eea-b407-01a5985dab9b","system_id":"levelo_inurba_marseille","lat":43.307945,"lon":5.376487,"is_reserved":false,"is_disabled":false,"rental_uris":{"android":"levelo://app?vid=a23d0065-845d-4eea-b407-01a5985dab9b","ios":"levelo://app?vid=a23d0065-845d-4eea-b407-01a5985dab9b"},"vehicle_type_id":"4","last_reported":1712873222,"current_range_meters":5600,"station_id":"ce4bgv92rcd13ifvqcq0","pricing_plan_id":"cebpf4jnsgd1na2vs0mg"},{"bike_id":"ad45ad38-9d8c-42c1-8c70-7e1d707e8351","system_id":"levelo_inurba_marseille","lat":43.307945,"lon":5.376487,"is_reserved":false,"is_disabled":false,"rental_uris":{"android":"levelo://app?vid=ad45ad38-9d8c-42c1-8c70-7e1d707e8351","ios":"levelo://app?vid=ad45ad38-9d8c-42c1-8c70-7e1d707e8351"},"vehicle_type_id":"4","last_reported":1712873222,"current_range_meters":2400,"station_id":"ce4bgv92rcd13ifvqcq0","pricing_plan_id":"cebpf4jnsgd1na2vs0mg"},{"bike_id":"5466d766-c505-42ec-bbe1-d68f5bff0ef5","system_id":"levelo_inurba_marseille","lat":43.317075,"lon":5.377367,"is_reserved":false,"is_disabled":false,"rental_uris":{"android":"levelo://app?vid=5466d766-c505-42ec-bbe1-d68f5bff0ef5","ios":"levelo://app?vid=5466d766-c505-42ec-bbe1-d68f5bff0ef5"},"vehicle_type_id":"4","last_reported":1712873222,"current_range_meters":14400,"station_id":"ce4bgth2rcd13ifvqch0","pricing_plan_id":"cebpf4jnsgd1na2vs0mg"},{"bike_id":"5c541ef6-f3ba-4ab1-a9ce-e5e468299e64","system_id":"levelo_inurba_marseille","lat":43.30302,"lon":5.36913,"is_reserved":false,"is_disabled":false,"rental_uris":{"android":"levelo://app?vid=5c541ef6-f3ba-4ab1-a9ce-e5e468299e64","ios":"levelo://app?vid=5c541ef6-f3ba-4ab1-a9ce-e5e468299e64"},"vehicle_type_id":"4","last_reported":1712873222,"current_range_meters":29600,"station_id":"ce4bgqh2rcd13ifvqc5g","pricing_plan_id":"cebpf4jnsgd1na2vs0mg"},{"bike_id":"d4a84b86-ab3c-427c-beb1-ac9a45890467","system_id":"levelo_inurba_marseille","lat":43.315293,"lon":5.380349,"is_reserved":false,"is_disabled":false,"rental_uris":{"android":"levelo://app?vid=d4a84b86-ab3c-427c-beb1-ac9a45890467","ios":"levelo://app?vid=d4a84b86-ab3c-427c-beb1-ac9a45890467"},"vehicle_type_id":"4","last_reported":1712873222,"current_range_meters":22000,"station_id":"ce4bhsp2rcd13ifvqi50","pricing_plan_id":"cebpf4jnsgd1na2vs0mg"},{"bike_id":"ce62469d-08a8-463e-ac9c-61aa6dc490b2","system_id":"levelo_inurba_marseille","lat":43.315293,"lon":5.380349,"is_reserved":false,"is_disabled":false,"rental_uris":{"android":"levelo://app?vid=ce62469d-08a8-463e-ac9c-61aa6dc490b2","ios":"levelo://app?vid=ce62469d-08a8-463e-ac9c-61aa6dc490b2"},"vehicle_type_id":"4","last_reported":1712873222,"current_range_meters":17600,"station_id":"ce4bhsp2rcd13ifvqi50","pricing_plan_id":"cebpf4jnsgd1na2vs0mg"},{"bike_id":"d5e44ba8-702d-444f-9298-014442af7870","system_id":"levelo_inurba_marseille","lat":43.315293,"lon":5.380349,"is_reserved":false,"is_disabled":false,"rental_uris":{"android":"levelo://app?vid=d5e44ba8-702d-444f-9298-014442af7870","ios":"levelo://app?vid=d5e44ba8-702d-444f-9298-014442af7870"},"vehicle_type_id":"4","last_reported":1712873222,"current_range_meters":24000,"station_id":"ce4bhsp2rcd13ifvqi50","pricing_plan_id":"cebpf4jnsgd1na2vs0mg"},{"bike_id":"4bf3e8e1-ad0e-4232-97ee-7ec98c8f7b1a","system_id":"levelo_inurba_marseille","lat":43.315281,"lon":5.380368,"is_reserved":false,"is_disabled":false,"rental_uris":{"android":"levelo://app?vid=4bf3e8e1-ad0e-4232-97ee-7ec98c8f7b1a","ios":"levelo://app?vid=4bf3e8e1-ad0e-4232-97ee-7ec98c8f7b1a"},"vehicle_type_id":"4","last_reported":1712873222,"current_range_meters":0,"station_id":"ce4bhsp2rcd13ifvqi50","pricing_plan_id":"cebpf4jnsgd1na2vs0mg"},{"bike_id":"0c6181ff-efc1-4761-9e29-fd4425a7cd5f","system_id":"levelo_inurba_marseille","lat":43.308012,"lon":5.381511,"is_reserved":false,"is_disabled":false,"rental_uris":{"android":"levelo://app?vid=0c6181ff-efc1-4761-9e29-fd4425a7cd5f","ios":"levelo://app?vid=0c6181ff-efc1-4761-9e29-fd4425a7cd5f"},"vehicle_type_id":"4","last_reported":1712873222,"current_range_meters":26800,"station_id":"ce4bgt12rcd13ifvqce0","pricing_plan_id":"cebpf4jnsgd1na2vs0mg"},{"bike_id":"f82df90a-66d3-4f17-935f-ee09989e1d14","system_id":"levelo_inurba_marseille","lat":43.301939,"lon":5.366286,"is_reserved":false,"is_disabled":false,"rental_uris":{"android":"levelo://app?vid=f82df90a-66d3-4f17-935f-ee09989e1d14","ios":"levelo://app?vid=f82df90a-66d3-4f17-935f-ee09989e1d14"},"vehicle_type_id":"4","last_reported":1712873222,"current_range_meters":26400,"station_id":"ce4bgrh2rcd13ifvqc8g","pricing_plan_id":"cebpf4jnsgd1na2vs0mg"},{"bike_id":"27e1de5e-5ed7-4772-bf00-1cdf17500280","system_id":"levelo_inurba_marseille","lat":43.32478,"lon":5.3656,"is_reserved":false,"is_disabled":false,"rental_uris":{"android":"levelo://app?vid=27e1de5e-5ed7-4772-bf00-1cdf17500280","ios":"levelo://app?vid=27e1de5e-5ed7-4772-bf00-1cdf17500280"},"vehicle_type_id":"4","last_reported":1712873222,"current_range_meters":0,"station_id":"ce4bhs12rcd13ifvqhvg","pricing_plan_id":"cebpf4jnsgd1na2vs0mg"},{"bike_id":"7ea15f11-66b1-4740-b919-2db35eefb34d","system_id":"levelo_inurba_marseille","lat":43.32479,"lon":5.36571,"is_reserved":false,"is_disabled":false,"rental_uris":{"android":"levelo://app?vid=7ea15f11-66b1-4740-b919-2db35eefb34d","ios":"levelo://app?vid=7ea15f11-66b1-4740-b919-2db35eefb34d"},"vehicle_type_id":"4","last_reported":1712873222,"current_range_meters":20000,"station_id":"ce4bhs12rcd13ifvqhvg","pricing_plan_id":"cebpf4jnsgd1na2vs0mg"},{"bike_id":"bbd00ad1-8f33-41d2-8982-061070b68544","system_id":"levelo_inurba_marseille","lat":43.32478,"lon":5.36551,"is_reserved":false,"is_disabled":false,"rental_uris":{"android":"levelo://app?vid=bbd00ad1-8f33-41d2-8982-061070b68544","ios":"levelo://app?vid=bbd00ad1-8f33-41d2-8982-061070b68544"},"vehicle_type_id":"4","last_reported":1712873222,"current_range_meters":3200,"station_id":"ce4bhs12rcd13ifvqhvg","pricing_plan_id":"cebpf4jnsgd1na2vs0mg"},{"bike_id":"87724692-6a69-4499-9485-a3bab4478b91","system_id":"levelo_inurba_marseille","lat":43.324771,"lon":5.36557,"is_reserved":false,"is_disabled":false,"rental_uris":{"android":"levelo://app?vid=87724692-6a69-4499-9485-a3bab4478b91","ios":"levelo://app?vid=87724692-6a69-4499-9485-a3bab4478b91"},"vehicle_type_id":"4","last_reported":1712873222,"current_range_meters":28000,"station_id":"ce4bhs12rcd13ifvqhvg","pricing_plan_id":"cebpf4jnsgd1na2vs0mg"},{"bike_id":"4001667e-2a4e-43ce-84d2-2dd044675a28","system_id":"levelo_inurba_marseille","lat":43.324771,"lon":5.36557,"is_reserved":false,"is_disabled":false,"rental_uris":{"android":"levelo://app?vid=4001667e-2a4e-43ce-84d2-2dd044675a28","ios":"levelo://app?vid=4001667e-2a4e-43ce-84d2-2dd044675a28"},"vehicle_type_id":"4","last_reported":1712873222,"current_range_meters":0,"station_id":"ce4bhs12rcd13ifvqhvg","pricing_plan_id":"cebpf4jnsgd1na2vs0mg"},{"bike_id":"8add5efb-e2fe-424b-921d-fa20783f2226","system_id":"levelo_inurba_marseille","lat":43.324771,"lon":5.36557,"is_reserved":false,"is_disabled":false,"rental_uris":{"android":"levelo://app?vid=8add5efb-e2fe-424b-921d-fa20783f2226","ios":"levelo://app?vid=8add5efb-e2fe-424b-921d-fa20783f2226"},"vehicle_type_id":"4","last_reported":1712873222,"current_range_meters":7200,"station_id":"ce4bhs12rcd13ifvqhvg","pricing_plan_id":"cebpf4jnsgd1na2vs0mg"},{"bike_id":"93fe2d9f-72ef-4ef4-84a0-48f0815dab7c","system_id":"levelo_inurba_marseille","lat":43.324771,"lon":5.36557,"is_reserved":false,"is_disabled":false,"rental_uris":{"android":"levelo://app?vid=93fe2d9f-72ef-4ef4-84a0-48f0815dab7c","ios":"levelo://app?vid=93fe2d9f-72ef-4ef4-84a0-48f0815dab7c"},"vehicle_type_id":"4","last_reported":1712873222,"current_range_meters":26000,"station_id":"ce4bhs12rcd13ifvqhvg","pricing_plan_id":"cebpf4jnsgd1na2vs0mg"},{"bike_id":"c014f927-f627-416c-8914-1a68c4addea5","system_id":"levelo_inurba_marseille","lat":43.302784,"lon":5.377158,"is_reserved":false,"is_disabled":false,"rental_uris":{"android":"levelo://app?vid=c014f927-f627-416c-8914-1a68c4addea5","ios":"levelo://app?vid=c014f927-f627-416c-8914-1a68c4addea5"},"vehicle_type_id":"4","last_reported":1712873222,"current_range_meters":29200,"station_id":"ce4bguh2rcd13ifvqcj0","pricing_plan_id":"cebpf4jnsgd1na2vs0mg"},{"bike_id":"86c1a056-492d-47b3-b546-0868b352d77f","system_id":"levelo_inurba_marseille","lat":43.302784,"lon":5.377158,"is_reserved":false,"is_disabled":false,"rental_uris":{"android":"levelo://app?vid=86c1a056-492d-47b3-b546-0868b352d77f","ios":"levelo://app?vid=86c1a056-492d-47b3-b546-0868b352d77f"},"vehicle_type_id":"4","last_reported":1712873222,"current_range_meters":21600,"station_id":"ce4bguh2rcd13ifvqcj0","pricing_plan_id":"cebpf4jnsgd1na2vs0mg"},{"bike_id":"689804b0-6821-4d98-9685-9f55e6cbf693","system_id":"levelo_inurba_marseille","lat":43.30144,"lon":5.374108,"is_reserved":false,"is_disabled":false,"rental_uris":{"android":"levelo://app?vid=689804b0-6821-4d98-9685-9f55e6cbf693","ios":"levelo://app?vid=689804b0-6821-4d98-9685-9f55e6cbf693"},"vehicle_type_id":"4","last_reported":1712873222,"current_range_meters":0,"station_id":"ce4bgs92rcd13ifvqcc0","pricing_plan_id":"cebpf4jnsgd1na2vs0mg"},{"bike_id":"0353eeb9-ab99-444b-89b1-127978c70357","system_id":"levelo_inurba_marseille","lat":43.301297,"lon":5.374251,"is_reserved":false,"is_disabled":false,"rental_uris":{"android":"levelo://app?vid=0353eeb9-ab99-444b-89b1-127978c70357","ios":"levelo://app?vid=0353eeb9-ab99-444b-89b1-127978c70357"},"vehicle_type_id":"4","last_reported":1712873222,"current_range_meters":4400,"station_id":"ce4bgs92rcd13ifvqcc0","pricing_plan_id":"cebpf4jnsgd1na2vs0mg"},{"bike_id":"9a5eb2ac-783c-43c2-b41b-3e0b8b30b517","system_id":"levelo_inurba_marseille","lat":43.30049,"lon":5.37119,"is_reserved":false,"is_disabled":false,"rental_uris":{"android":"levelo://app?vid=9a5eb2ac-783c-43c2-b41b-3e0b8b30b517","ios":"levelo://app?vid=9a5eb2ac-783c-43c2-b41b-3e0b8b30b517"},"vehicle_type_id":"4","last_reported":1712873222,"current_range_meters":14400,"station_id":"","pricing_plan_id":"cebpf4jnsgd1na2vs0mg"},{"bike_id":"2cff9093-d1ab-4d1e-816e-36d18748eeac","system_id":"levelo_inurba_marseille","lat":43.319935,"lon":5.381699,"is_reserved":false,"is_disabled":false,"rental_uris":{"android":"levelo://app?vid=2cff9093-d1ab-4d1e-816e-36d18748eeac","ios":"levelo://app?vid=2cff9093-d1ab-4d1e-816e-36d18748eeac"},"vehicle_type_id":"4","last_reported":1712873222,"current_range_meters":0,"station_id":"ce4bhr12rcd13ifvqhpg","pricing_plan_id":"cebpf4jnsgd1na2vs0mg"},{"bike_id":"55e39ee5-ccc8-4659-b011-2a6fa20dfadf","system_id":"levelo_inurba_marseille","lat":43.319935,"lon":5.381699,"is_reserved":false,"is_disabled":false,"rental_uris":{"android":"levelo://app?vid=55e39ee5-ccc8-4659-b011-2a6fa20dfadf","ios":"levelo://app?vid=55e39ee5-ccc8-4659-b011-2a6fa20dfadf"},"vehicle_type_id":"4","last_reported":1712873222,"current_range_meters":0,"station_id":"ce4bhr12rcd13ifvqhpg","pricing_plan_id":"cebpf4jnsgd1na2vs0mg"},{"bike_id":"80ab6cf7-96f3-46e9-9871-152d4a3876f6","system_id":"levelo_inurba_marseille","lat":43.313571,"lon":5.384829,"is_reserved":false,"is_disabled":false,"rental_uris":{"android":"levelo://app?vid=80ab6cf7-96f3-46e9-9871-152d4a3876f6","ios":"levelo://app?vid=80ab6cf7-96f3-46e9-9871-152d4a3876f6"},"vehicle_type_id":"4","last_reported":1712873222,"current_range_meters":2000,"station_id":"ce4bgt92rcd13ifvqcf0","pricing_plan_id":"cebpf4jnsgd1na2vs0mg"},{"bike_id":"55f9fc8c-90fb-451c-8c29-bfd69431f7a7","system_id":"levelo_inurba_marseille","lat":43.313571,"lon":5.384829,"is_reserved":false,"is_disabled":false,"rental_uris":{"android":"levelo://app?vid=55f9fc8c-90fb-451c-8c29-bfd69431f7a7","ios":"levelo://app?vid=55f9fc8c-90fb-451c-8c29-bfd69431f7a7"},"vehicle_type_id":"4","last_reported":1712873222,"current_range_meters":400,"station_id":"ce4bgt92rcd13ifvqcf0","pricing_plan_id":"cebpf4jnsgd1na2vs0mg"},{"bike_id":"abdc1997-c52f-4925-9cb9-fb3306c0fb51","system_id":"levelo_inurba_marseille","lat":43.313571,"lon":5.384829,"is_reserved":false,"is_disabled":false,"rental_uris":{"android":"levelo://app?vid=abdc1997-c52f-4925-9cb9-fb3306c0fb51","ios":"levelo://app?vid=abdc1997-c52f-4925-9cb9-fb3306c0fb51"},"vehicle_type_id":"4","last_reported":1712873222,"current_range_meters":6000,"station_id":"ce4bgt92rcd13ifvqcf0","pricing_plan_id":"cebpf4jnsgd1na2vs0mg"},{"bike_id":"e5d54efa-5818-4a93-9972-dcc9cb763d07","system_id":"levelo_inurba_marseille","lat":43.313571,"lon":5.384829,"is_reserved":false,"is_disabled":false,"rental_uris":{"android":"levelo://app?vid=e5d54efa-5818-4a93-9972-dcc9cb763d07","ios":"levelo://app?vid=e5d54efa-5818-4a93-9972-dcc9cb763d07"},"vehicle_type_id":"4","last_reported":1712873222,"current_range_meters":2800,"station_id":"ce4bgt92rcd13ifvqcf0","pricing_plan_id":"cebpf4jnsgd1na2vs0mg"},{"bike_id":"faf44d73-4f46-4897-ae9f-607c4b618285","system_id":"levelo_inurba_marseille","lat":43.313571,"lon":5.384829,"is_reserved":false,"is_disabled":false,"rental_uris":{"android":"levelo://app?vid=faf44d73-4f46-4897-ae9f-607c4b618285","ios":"levelo://app?vid=faf44d73-4f46-4897-ae9f-607c4b618285"},"vehicle_type_id":"4","last_reported":1712873222,"current_range_meters":6800,"station_id":"ce4bgt92rcd13ifvqcf0","pricing_plan_id":"cebpf4jnsgd1na2vs0mg"},{"bike_id":"460512c6-ab27-49d1-a87a-f5a605116a1e","system_id":"levelo_inurba_marseille","lat":43.31367,"lon":5.3849,"is_reserved":false,"is_disabled":false,"rental_uris":{"android":"levelo://app?vid=460512c6-ab27-49d1-a87a-f5a605116a1e","ios":"levelo://app?vid=460512c6-ab27-49d1-a87a-f5a605116a1e"},"vehicle_type_id":"4","last_reported":1712873222,"current_range_meters":0,"station_id":"ce4bgt92rcd13ifvqcf0","pricing_plan_id":"cebpf4jnsgd1na2vs0mg"},{"bike_id":"7374c659-6a6b-4b6a-a5a6-6f981efb050c","system_id":"levelo_inurba_marseille","lat":43.313571,"lon":5.384829,"is_reserved":false,"is_disabled":false,"rental_uris":{"android":"levelo://app?vid=7374c659-6a6b-4b6a-a5a6-6f981efb050c","ios":"levelo://app?vid=7374c659-6a6b-4b6a-a5a6-6f981efb050c"},"vehicle_type_id":"4","last_reported":1712873222,"current_range_meters":13600,"station_id":"ce4bgt92rcd13ifvqcf0","pricing_plan_id":"cebpf4jnsgd1na2vs0mg"},{"bike_id":"166189c5-5050-425b-aa18-fbf0f8034fdc","system_id":"levelo_inurba_marseille","lat":43.31371,"lon":5.38494,"is_reserved":false,"is_disabled":false,"rental_uris":{"android":"levelo://app?vid=166189c5-5050-425b-aa18-fbf0f8034fdc","ios":"levelo://app?vid=166189c5-5050-425b-aa18-fbf0f8034fdc"},"vehicle_type_id":"4","last_reported":1712873222,"current_range_meters":11200,"station_id":"ce4bgt92rcd13ifvqcf0","pricing_plan_id":"cebpf4jnsgd1na2vs0mg"},{"bike_id":"61070cdd-412c-4075-b15e-3c42430c64c4","system_id":"levelo_inurba_marseille","lat":43.29946,"lon":5.3653,"is_reserved":false,"is_disabled":false,"rental_uris":{"android":"levelo://app?vid=61070cdd-412c-4075-b15e-3c42430c64c4","ios":"levelo://app?vid=61070cdd-412c-4075-b15e-3c42430c64c4"},"vehicle_type_id":"4","last_reported":1712873222,"current_range_meters":0,"station_id":"","pricing_plan_id":"cebpf4jnsgd1na2vs0mg"},{"bike_id":"66197c38-c8df-457a-98b4-35665970eca2","system_id":"levelo_inurba_marseille","lat":43.299724,"lon":5.371829,"is_reserved":false,"is_disabled":false,"rental_uris":{"android":"levelo://app?vid=66197c38-c8df-457a-98b4-35665970eca2","ios":"levelo://app?vid=66197c38-c8df-457a-98b4-35665970eca2"},"vehicle_type_id":"4","last_reported":1712873222,"current_range_meters":4000,"station_id":"ce4bgr92rcd13ifvqc7g","pricing_plan_id":"cebpf4jnsgd1na2vs0mg"},{"bike_id":"4c950486-5289-4e0a-9066-60c00d120359","system_id":"levelo_inurba_marseille","lat":43.29963,"lon":5.37137,"is_reserved":false,"is_disabled":false,"rental_uris":{"android":"levelo://app?vid=4c950486-5289-4e0a-9066-60c00d120359","ios":"levelo://app?vid=4c950486-5289-4e0a-9066-60c00d120359"},"vehicle_type_id":"4","last_reported":1712873222,"current_range_meters":0,"station_id":"ce4bgr92rcd13ifvqc7g","pricing_plan_id":"cebpf4jnsgd1na2vs0mg"},{"bike_id":"ffa76c4d-ed08-44f8-9e30-31d39f4fa199","system_id":"levelo_inurba_marseille","lat":43.309039,"lon":5.371797,"is_reserved":false,"is_disabled":false,"rental_uris":{"android":"levelo://app?vid=ffa76c4d-ed08-44f8-9e30-31d39f4fa199","ios":"levelo://app?vid=ffa76c4d-ed08-44f8-9e30-31d39f4fa199"},"vehicle_type_id":"4","last_reported":1712873222,"current_range_meters":0,"station_id":"ce4bguh2rcd13ifvqckg","pricing_plan_id":"cebpf4jnsgd1na2vs0mg"},{"bike_id":"39169df1-cda6-481f-8fd5-5d77b81f6f45","system_id":"levelo_inurba_marseille","lat":43.299724,"lon":5.371829,"is_reserved":false,"is_disabled":false,"rental_uris":{"android":"levelo://app?vid=39169df1-cda6-481f-8fd5-5d77b81f6f45","ios":"levelo://app?vid=39169df1-cda6-481f-8fd5-5d77b81f6f45"},"vehicle_type_id":"4","last_reported":1712873222,"current_range_meters":0,"station_id":"ce4bgr92rcd13ifvqc7g","pricing_plan_id":"cebpf4jnsgd1na2vs0mg"},{"bike_id":"462c37b6-89a3-472c-b7fe-509d52c14d03","system_id":"levelo_inurba_marseille","lat":43.305364,"lon":5.384119,"is_reserved":false,"is_disabled":false,"rental_uris":{"android":"levelo://app?vid=462c37b6-89a3-472c-b7fe-509d52c14d03","ios":"levelo://app?vid=462c37b6-89a3-472c-b7fe-509d52c14d03"},"vehicle_type_id":"4","last_reported":1712873222,"current_range_meters":21600,"station_id":"ce4bgg92rcd13ifvqb30","pricing_plan_id":"cebpf4jnsgd1na2vs0mg"},{"bike_id":"20269622-7e10-4032-b5f5-19e7e04b0bd9","system_id":"levelo_inurba_marseille","lat":43.298433,"lon":5.362774,"is_reserved":false,"is_disabled":false,"rental_uris":{"android":"levelo://app?vid=20269622-7e10-4032-b5f5-19e7e04b0bd9","ios":"levelo://app?vid=20269622-7e10-4032-b5f5-19e7e04b0bd9"},"vehicle_type_id":"4","last_reported":1712873222,"current_range_meters":14400,"station_id":"ce4bgpp2rcd13ifvqc3g","pricing_plan_id":"cebpf4jnsgd1na2vs0mg"},{"bike_id":"d9712621-3f1d-486b-ba10-d043c77afebe","system_id":"levelo_inurba_marseille","lat":43.305364,"lon":5.384119,"is_reserved":false,"is_disabled":false,"rental_uris":{"android":"levelo://app?vid=d9712621-3f1d-486b-ba10-d043c77afebe","ios":"levelo://app?vid=d9712621-3f1d-486b-ba10-d043c77afebe"},"vehicle_type_id":"4","last_reported":1712873222,"current_range_meters":0,"station_id":"ce4bgg92rcd13ifvqb30","pricing_plan_id":"cebpf4jnsgd1na2vs0mg"},{"bike_id":"9c1ccbdd-0d7a-463b-8cf8-5f3759fbcdda","system_id":"levelo_inurba_marseille","lat":43.305364,"lon":5.384119,"is_reserved":false,"is_disabled":false,"rental_uris":{"android":"levelo://app?vid=9c1ccbdd-0d7a-463b-8cf8-5f3759fbcdda","ios":"levelo://app?vid=9c1ccbdd-0d7a-463b-8cf8-5f3759fbcdda"},"vehicle_type_id":"4","last_reported":1712873222,"current_range_meters":7200,"station_id":"ce4bgg92rcd13ifvqb30","pricing_plan_id":"cebpf4jnsgd1na2vs0mg"},{"bike_id":"4d118390-d1a9-495f-85d1-94970a1d73fe","system_id":"levelo_inurba_marseille","lat":43.305364,"lon":5.384119,"is_reserved":false,"is_disabled":false,"rental_uris":{"android":"levelo://app?vid=4d118390-d1a9-495f-85d1-94970a1d73fe","ios":"levelo://app?vid=4d118390-d1a9-495f-85d1-94970a1d73fe"},"vehicle_type_id":"4","last_reported":1712873222,"current_range_meters":1200,"station_id":"ce4bgg92rcd13ifvqb30","pricing_plan_id":"cebpf4jnsgd1na2vs0mg"},{"bike_id":"902351cd-616b-487e-a065-a34f8ba0e215","system_id":"levelo_inurba_marseille","lat":43.311722,"lon":5.387247,"is_reserved":false,"is_disabled":false,"rental_uris":{"android":"levelo://app?vid=902351cd-616b-487e-a065-a34f8ba0e215","ios":"levelo://app?vid=902351cd-616b-487e-a065-a34f8ba0e215"},"vehicle_type_id":"4","last_reported":1712873222,"current_range_meters":17600,"station_id":"ce4bgv12rcd13ifvqcp0","pricing_plan_id":"cebpf4jnsgd1na2vs0mg"},{"bike_id":"da8d8d04-18af-4cbd-aa2e-04047a913958","system_id":"levelo_inurba_marseille","lat":43.309371,"lon":5.401449,"is_reserved":false,"is_disabled":false,"rental_uris":{"android":"levelo://app?vid=da8d8d04-18af-4cbd-aa2e-04047a913958","ios":"levelo://app?vid=da8d8d04-18af-4cbd-aa2e-04047a913958"},"vehicle_type_id":"4","last_reported":1712873222,"current_range_meters":20000,"station_id":"ce4bgvp2rcd13ifvqct0","pricing_plan_id":"cebpf4jnsgd1na2vs0mg"},{"bike_id":"124fef73-bff0-405a-8341-6700b36a03a2","system_id":"levelo_inurba_marseille","lat":43.299176,"lon":5.37482,"is_reserved":false,"is_disabled":false,"rental_uris":{"android":"levelo://app?vid=124fef73-bff0-405a-8341-6700b36a03a2","ios":"levelo://app?vid=124fef73-bff0-405a-8341-6700b36a03a2"},"vehicle_type_id":"4","last_reported":1712873222,"current_range_meters":0,"station_id":"ce4bgjh2rcd13ifvqbg0","pricing_plan_id":"cebpf4jnsgd1na2vs0mg"},{"bike_id":"d2f09489-43c6-4b2a-aa84-3aca98841309","system_id":"levelo_inurba_marseille","lat":43.299083,"lon":5.37474,"is_reserved":false,"is_disabled":false,"rental_uris":{"android":"levelo://app?vid=d2f09489-43c6-4b2a-aa84-3aca98841309","ios":"levelo://app?vid=d2f09489-43c6-4b2a-aa84-3aca98841309"},"vehicle_type_id":"4","last_reported":1712873222,"current_range_meters":0,"station_id":"ce4bgjh2rcd13ifvqbg0","pricing_plan_id":"cebpf4jnsgd1na2vs0mg"},{"bike_id":"cc725ee2-45e1-425f-bad9-db829cd860d2","system_id":"levelo_inurba_marseille","lat":43.311722,"lon":5.387247,"is_reserved":false,"is_disabled":false,"rental_uris":{"android":"levelo://app?vid=cc725ee2-45e1-425f-bad9-db829cd860d2","ios":"levelo://app?vid=cc725ee2-45e1-425f-bad9-db829cd860d2"},"vehicle_type_id":"4","last_reported":1712873222,"current_range_meters":4800,"station_id":"ce4bgv12rcd13ifvqcp0","pricing_plan_id":"cebpf4jnsgd1na2vs0mg"},{"bike_id":"24f052bf-cdc9-42f3-9714-7ec94cc13d34","system_id":"levelo_inurba_marseille","lat":43.29906,"lon":5.37474,"is_reserved":false,"is_disabled":false,"rental_uris":{"android":"levelo://app?vid=24f052bf-cdc9-42f3-9714-7ec94cc13d34","ios":"levelo://app?vid=24f052bf-cdc9-42f3-9714-7ec94cc13d34"},"vehicle_type_id":"4","last_reported":1712873222,"current_range_meters":6400,"station_id":"ce4bgjh2rcd13ifvqbg0","pricing_plan_id":"cebpf4jnsgd1na2vs0mg"},{"bike_id":"22cda53f-70f2-40a7-ae8d-233ce7d710a1","system_id":"levelo_inurba_marseille","lat":43.299047,"lon":5.374854,"is_reserved":false,"is_disabled":false,"rental_uris":{"android":"levelo://app?vid=22cda53f-70f2-40a7-ae8d-233ce7d710a1","ios":"levelo://app?vid=22cda53f-70f2-40a7-ae8d-233ce7d710a1"},"vehicle_type_id":"4","last_reported":1712873222,"current_range_meters":1200,"station_id":"ce4bgjh2rcd13ifvqbg0","pricing_plan_id":"cebpf4jnsgd1na2vs0mg"},{"bike_id":"419ecc75-d9b1-411a-8326-108c7f7dc838","system_id":"levelo_inurba_marseille","lat":43.322832,"lon":5.382678,"is_reserved":false,"is_disabled":false,"rental_uris":{"android":"levelo://app?vid=419ecc75-d9b1-411a-8326-108c7f7dc838","ios":"levelo://app?vid=419ecc75-d9b1-411a-8326-108c7f7dc838"},"vehicle_type_id":"4","last_reported":1712873222,"current_range_meters":27200,"station_id":"ce4bhr12rcd13ifvqhqg","pricing_plan_id":"cebpf4jnsgd1na2vs0mg"},{"bike_id":"d0797568-160f-4103-bc8b-b49425a45daa","system_id":"levelo_inurba_marseille","lat":43.322872,"lon":5.382756,"is_reserved":false,"is_disabled":false,"rental_uris":{"android":"levelo://app?vid=d0797568-160f-4103-bc8b-b49425a45daa","ios":"levelo://app?vid=d0797568-160f-4103-bc8b-b49425a45daa"},"vehicle_type_id":"4","last_reported":1712873222,"current_range_meters":26800,"station_id":"ce4bhr12rcd13ifvqhqg","pricing_plan_id":"cebpf4jnsgd1na2vs0mg"},{"bike_id":"622889ea-8ffc-4dcb-8d4f-a257ac52e57c","system_id":"levelo_inurba_marseille","lat":43.322872,"lon":5.382756,"is_reserved":false,"is_disabled":false,"rental_uris":{"android":"levelo://app?vid=622889ea-8ffc-4dcb-8d4f-a257ac52e57c","ios":"levelo://app?vid=622889ea-8ffc-4dcb-8d4f-a257ac52e57c"},"vehicle_type_id":"4","last_reported":1712873222,"current_range_meters":6400,"station_id":"ce4bhr12rcd13ifvqhqg","pricing_plan_id":"cebpf4jnsgd1na2vs0mg"},{"bike_id":"df83776a-bfc5-47e7-9b22-6f070ff90bc4","system_id":"levelo_inurba_marseille","lat":43.322872,"lon":5.382756,"is_reserved":false,"is_disabled":false,"rental_uris":{"android":"levelo://app?vid=df83776a-bfc5-47e7-9b22-6f070ff90bc4","ios":"levelo://app?vid=df83776a-bfc5-47e7-9b22-6f070ff90bc4"},"vehicle_type_id":"4","last_reported":1712873222,"current_range_meters":31600,"station_id":"ce4bhr12rcd13ifvqhqg","pricing_plan_id":"cebpf4jnsgd1na2vs0mg"},{"bike_id":"0e73c717-7d72-4151-8b9a-6405cfc2f068","system_id":"levelo_inurba_marseille","lat":43.322872,"lon":5.382756,"is_reserved":false,"is_disabled":false,"rental_uris":{"android":"levelo://app?vid=0e73c717-7d72-4151-8b9a-6405cfc2f068","ios":"levelo://app?vid=0e73c717-7d72-4151-8b9a-6405cfc2f068"},"vehicle_type_id":"4","last_reported":1712873222,"current_range_meters":31200,"station_id":"ce4bhr12rcd13ifvqhqg","pricing_plan_id":"cebpf4jnsgd1na2vs0mg"},{"bike_id":"17834694-f56a-4fa8-bd9d-b85365d042f8","system_id":"levelo_inurba_marseille","lat":43.29717,"lon":5.36602,"is_reserved":false,"is_disabled":false,"rental_uris":{"android":"levelo://app?vid=17834694-f56a-4fa8-bd9d-b85365d042f8","ios":"levelo://app?vid=17834694-f56a-4fa8-bd9d-b85365d042f8"},"vehicle_type_id":"4","last_reported":1712873222,"current_range_meters":31200,"station_id":"ce4bgn12rcd13ifvqbt0","pricing_plan_id":"cebpf4jnsgd1na2vs0mg"},{"bike_id":"da119ec7-534c-4cfe-9135-7663bcb06155","system_id":"levelo_inurba_marseille","lat":43.297163,"lon":5.365866,"is_reserved":false,"is_disabled":false,"rental_uris":{"android":"levelo://app?vid=da119ec7-534c-4cfe-9135-7663bcb06155","ios":"levelo://app?vid=da119ec7-534c-4cfe-9135-7663bcb06155"},"vehicle_type_id":"4","last_reported":1712873222,"current_range_meters":2800,"station_id":"ce4bgn12rcd13ifvqbt0","pricing_plan_id":"cebpf4jnsgd1na2vs0mg"},{"bike_id":"81ecc9ae-6cf9-418a-b7b8-6dc2525b3835","system_id":"levelo_inurba_marseille","lat":43.29703,"lon":5.36598,"is_reserved":false,"is_disabled":false,"rental_uris":{"android":"levelo://app?vid=81ecc9ae-6cf9-418a-b7b8-6dc2525b3835","ios":"levelo://app?vid=81ecc9ae-6cf9-418a-b7b8-6dc2525b3835"},"vehicle_type_id":"4","last_reported":1712873222,"current_range_meters":20400,"station_id":"","pricing_plan_id":"cebpf4jnsgd1na2vs0mg"},{"bike_id":"9424f6dd-ede3-47a3-af09-99d281b159c7","system_id":"levelo_inurba_marseille","lat":43.31753,"lon":5.388225,"is_reserved":false,"is_disabled":false,"rental_uris":{"android":"levelo://app?vid=9424f6dd-ede3-47a3-af09-99d281b159c7","ios":"levelo://app?vid=9424f6dd-ede3-47a3-af09-99d281b159c7"},"vehicle_type_id":"4","last_reported":1712873222,"current_range_meters":29600,"station_id":"","pricing_plan_id":"cebpf4jnsgd1na2vs0mg"},{"bike_id":"c1cedd02-a4b9-4d67-a4c9-3f381e3d22a1","system_id":"levelo_inurba_marseille","lat":43.317566,"lon":5.389402,"is_reserved":false,"is_disabled":false,"rental_uris":{"android":"levelo://app?vid=c1cedd02-a4b9-4d67-a4c9-3f381e3d22a1","ios":"levelo://app?vid=c1cedd02-a4b9-4d67-a4c9-3f381e3d22a1"},"vehicle_type_id":"4","last_reported":1712873222,"current_range_meters":5600,"station_id":"ce4bhqp2rcd13ifvqhng","pricing_plan_id":"cebpf4jnsgd1na2vs0mg"},{"bike_id":"b736ca42-ce56-4adc-996d-4c4f1e0f8a7c","system_id":"levelo_inurba_marseille","lat":43.309509,"lon":5.390244,"is_reserved":false,"is_disabled":false,"rental_uris":{"android":"levelo://app?vid=b736ca42-ce56-4adc-996d-4c4f1e0f8a7c","ios":"levelo://app?vid=b736ca42-ce56-4adc-996d-4c4f1e0f8a7c"},"vehicle_type_id":"4","last_reported":1712873222,"current_range_meters":0,"station_id":"ce4bgup2rcd13ifvqco0","pricing_plan_id":"cebpf4jnsgd1na2vs0mg"},{"bike_id":"4151ec00-ddad-4827-9109-6d75e376dd75","system_id":"levelo_inurba_marseille","lat":43.309589,"lon":5.390258,"is_reserved":false,"is_disabled":false,"rental_uris":{"android":"levelo://app?vid=4151ec00-ddad-4827-9109-6d75e376dd75","ios":"levelo://app?vid=4151ec00-ddad-4827-9109-6d75e376dd75"},"vehicle_type_id":"4","last_reported":1712873222,"current_range_meters":0,"station_id":"ce4bgup2rcd13ifvqco0","pricing_plan_id":"cebpf4jnsgd1na2vs0mg"},{"bike_id":"3fd569a1-8265-4167-9fae-54740e0aaf89","system_id":"levelo_inurba_marseille","lat":43.296921,"lon":5.376579,"is_reserved":false,"is_disabled":false,"rental_uris":{"android":"levelo://app?vid=3fd569a1-8265-4167-9fae-54740e0aaf89","ios":"levelo://app?vid=3fd569a1-8265-4167-9fae-54740e0aaf89"},"vehicle_type_id":"4","last_reported":1712873222,"current_range_meters":4800,"station_id":"ce4bgkh2rcd13ifvqbl0","pricing_plan_id":"cebpf4jnsgd1na2vs0mg"},{"bike_id":"7fee823b-f451-4dd9-89d2-ef11e12aef1d","system_id":"levelo_inurba_marseille","lat":43.31752,"lon":5.39006,"is_reserved":false,"is_disabled":false,"rental_uris":{"android":"levelo://app?vid=7fee823b-f451-4dd9-89d2-ef11e12aef1d","ios":"levelo://app?vid=7fee823b-f451-4dd9-89d2-ef11e12aef1d"},"vehicle_type_id":"4","last_reported":1712873222,"current_range_meters":0,"station_id":"ce4bhqp2rcd13ifvqhng","pricing_plan_id":"cebpf4jnsgd1na2vs0mg"},{"bike_id":"bb171d16-60fe-47a4-a636-0b4cacea4cb6","system_id":"levelo_inurba_marseille","lat":43.317557,"lon":5.390144,"is_reserved":false,"is_disabled":false,"rental_uris":{"android":"levelo://app?vid=bb171d16-60fe-47a4-a636-0b4cacea4cb6","ios":"levelo://app?vid=bb171d16-60fe-47a4-a636-0b4cacea4cb6"},"vehicle_type_id":"4","last_reported":1712873222,"current_range_meters":8800,"station_id":"ce4bhqp2rcd13ifvqhng","pricing_plan_id":"cebpf4jnsgd1na2vs0mg"},{"bike_id":"c54aa2fb-88db-4ba9-94b0-dc495c9c4dc8","system_id":"levelo_inurba_marseille","lat":43.317557,"lon":5.390173,"is_reserved":false,"is_disabled":false,"rental_uris":{"android":"levelo://app?vid=c54aa2fb-88db-4ba9-94b0-dc495c9c4dc8","ios":"levelo://app?vid=c54aa2fb-88db-4ba9-94b0-dc495c9c4dc8"},"vehicle_type_id":"4","last_reported":1712873222,"current_range_meters":4000,"station_id":"ce4bhqp2rcd13ifvqhng","pricing_plan_id":"cebpf4jnsgd1na2vs0mg"},{"bike_id":"afacf0c5-4af7-40a4-8d4c-407ea4549057","system_id":"levelo_inurba_marseille","lat":43.317557,"lon":5.390173,"is_reserved":false,"is_disabled":false,"rental_uris":{"android":"levelo://app?vid=afacf0c5-4af7-40a4-8d4c-407ea4549057","ios":"levelo://app?vid=afacf0c5-4af7-40a4-8d4c-407ea4549057"},"vehicle_type_id":"4","last_reported":1712873222,"current_range_meters":15600,"station_id":"ce4bhqp2rcd13ifvqhng","pricing_plan_id":"cebpf4jnsgd1na2vs0mg"},{"bike_id":"d5ec14ea-dae7-4841-96e3-230bb7d03894","system_id":"levelo_inurba_marseille","lat":43.304278,"lon":5.388868,"is_reserved":false,"is_disabled":false,"rental_uris":{"android":"levelo://app?vid=d5ec14ea-dae7-4841-96e3-230bb7d03894","ios":"levelo://app?vid=d5ec14ea-dae7-4841-96e3-230bb7d03894"},"vehicle_type_id":"4","last_reported":1712873222,"current_range_meters":8400,"station_id":"ce4bgk12rcd13ifvqbi0","pricing_plan_id":"cebpf4jnsgd1na2vs0mg"},{"bike_id":"4e15dbef-a013-4377-8d9f-549847c889f4","system_id":"levelo_inurba_marseille","lat":43.3043,"lon":5.38885,"is_reserved":false,"is_disabled":false,"rental_uris":{"android":"levelo://app?vid=4e15dbef-a013-4377-8d9f-549847c889f4","ios":"levelo://app?vid=4e15dbef-a013-4377-8d9f-549847c889f4"},"vehicle_type_id":"4","last_reported":1712873222,"current_range_meters":0,"station_id":"ce4bgk12rcd13ifvqbi0","pricing_plan_id":"cebpf4jnsgd1na2vs0mg"},{"bike_id":"84443b9a-f7fd-4719-9ae1-92b43bb59782","system_id":"levelo_inurba_marseille","lat":43.306412,"lon":5.401035,"is_reserved":false,"is_disabled":false,"rental_uris":{"android":"levelo://app?vid=84443b9a-f7fd-4719-9ae1-92b43bb59782","ios":"levelo://app?vid=84443b9a-f7fd-4719-9ae1-92b43bb59782"},"vehicle_type_id":"4","last_reported":1712873222,"current_range_meters":8800,"station_id":"ce4bh112rcd13ifvqda0","pricing_plan_id":"cebpf4jnsgd1na2vs0mg"},{"bike_id":"da4e2b45-a9ed-4507-b0bb-3cf96146af1c","system_id":"levelo_inurba_marseille","lat":43.304274,"lon":5.388873,"is_reserved":false,"is_disabled":false,"rental_uris":{"android":"levelo://app?vid=da4e2b45-a9ed-4507-b0bb-3cf96146af1c","ios":"levelo://app?vid=da4e2b45-a9ed-4507-b0bb-3cf96146af1c"},"vehicle_type_id":"4","last_reported":1712873222,"current_range_meters":8400,"station_id":"ce4bgk12rcd13ifvqbi0","pricing_plan_id":"cebpf4jnsgd1na2vs0mg"},{"bike_id":"e20c3a7e-b506-4b59-93fc-e6481e8f8d67","system_id":"levelo_inurba_marseille","lat":43.304278,"lon":5.388868,"is_reserved":false,"is_disabled":false,"rental_uris":{"android":"levelo://app?vid=e20c3a7e-b506-4b59-93fc-e6481e8f8d67","ios":"levelo://app?vid=e20c3a7e-b506-4b59-93fc-e6481e8f8d67"},"vehicle_type_id":"4","last_reported":1712873222,"current_range_meters":11200,"station_id":"ce4bgk12rcd13ifvqbi0","pricing_plan_id":"cebpf4jnsgd1na2vs0mg"},{"bike_id":"27943d4c-637d-404c-9afd-626851b7fd1b","system_id":"levelo_inurba_marseille","lat":43.304274,"lon":5.388873,"is_reserved":false,"is_disabled":false,"rental_uris":{"android":"levelo://app?vid=27943d4c-637d-404c-9afd-626851b7fd1b","ios":"levelo://app?vid=27943d4c-637d-404c-9afd-626851b7fd1b"},"vehicle_type_id":"4","last_reported":1712873222,"current_range_meters":13200,"station_id":"ce4bgk12rcd13ifvqbi0","pricing_plan_id":"cebpf4jnsgd1na2vs0mg"},{"bike_id":"d7d503aa-fda0-4abc-b846-879ef401e5e5","system_id":"levelo_inurba_marseille","lat":43.304278,"lon":5.388868,"is_reserved":false,"is_disabled":false,"rental_uris":{"android":"levelo://app?vid=d7d503aa-fda0-4abc-b846-879ef401e5e5","ios":"levelo://app?vid=d7d503aa-fda0-4abc-b846-879ef401e5e5"},"vehicle_type_id":"4","last_reported":1712873222,"current_range_meters":8000,"station_id":"ce4bgk12rcd13ifvqbi0","pricing_plan_id":"cebpf4jnsgd1na2vs0mg"},{"bike_id":"17603c4e-445a-403f-8770-7e78a4cf376f","system_id":"levelo_inurba_marseille","lat":43.304274,"lon":5.388873,"is_reserved":false,"is_disabled":false,"rental_uris":{"android":"levelo://app?vid=17603c4e-445a-403f-8770-7e78a4cf376f","ios":"levelo://app?vid=17603c4e-445a-403f-8770-7e78a4cf376f"},"vehicle_type_id":"4","last_reported":1712873222,"current_range_meters":26000,"station_id":"ce4bgk12rcd13ifvqbi0","pricing_plan_id":"cebpf4jnsgd1na2vs0mg"},{"bike_id":"23de3abb-5e8c-4ca9-ae59-048993fec289","system_id":"levelo_inurba_marseille","lat":43.304278,"lon":5.388868,"is_reserved":false,"is_disabled":false,"rental_uris":{"android":"levelo://app?vid=23de3abb-5e8c-4ca9-ae59-048993fec289","ios":"levelo://app?vid=23de3abb-5e8c-4ca9-ae59-048993fec289"},"vehicle_type_id":"4","last_reported":1712873222,"current_range_meters":13200,"station_id":"ce4bgk12rcd13ifvqbi0","pricing_plan_id":"cebpf4jnsgd1na2vs0mg"},{"bike_id":"0311b84a-c7ee-47dc-a2f1-e082e5399a50","system_id":"levelo_inurba_marseille","lat":43.299707,"lon":5.384859,"is_reserved":false,"is_disabled":false,"rental_uris":{"android":"levelo://app?vid=0311b84a-c7ee-47dc-a2f1-e082e5399a50","ios":"levelo://app?vid=0311b84a-c7ee-47dc-a2f1-e082e5399a50"},"vehicle_type_id":"4","last_reported":1712873222,"current_range_meters":1200,"station_id":"ce4bgj92rcd13ifvqbd0","pricing_plan_id":"cebpf4jnsgd1na2vs0mg"},{"bike_id":"4f70a1b9-b56a-4774-8812-fb022d9e273e","system_id":"levelo_inurba_marseille","lat":43.295279,"lon":5.375048,"is_reserved":false,"is_disabled":false,"rental_uris":{"android":"levelo://app?vid=4f70a1b9-b56a-4774-8812-fb022d9e273e","ios":"levelo://app?vid=4f70a1b9-b56a-4774-8812-fb022d9e273e"},"vehicle_type_id":"4","last_reported":1712873222,"current_range_meters":31600,"station_id":"ce4bgkp2rcd13ifvqbmg","pricing_plan_id":"cebpf4jnsgd1na2vs0mg"},{"bike_id":"ed18c7b1-9551-4bbd-aa38-b8a1968b209a","system_id":"levelo_inurba_marseille","lat":43.29528,"lon":5.37497,"is_reserved":false,"is_disabled":false,"rental_uris":{"android":"levelo://app?vid=ed18c7b1-9551-4bbd-aa38-b8a1968b209a","ios":"levelo://app?vid=ed18c7b1-9551-4bbd-aa38-b8a1968b209a"},"vehicle_type_id":"4","last_reported":1712873222,"current_range_meters":0,"station_id":"ce4bgkp2rcd13ifvqbmg","pricing_plan_id":"cebpf4jnsgd1na2vs0mg"},{"bike_id":"932917b6-430f-46d5-be25-58b94a660858","system_id":"levelo_inurba_marseille","lat":43.295164,"lon":5.374938,"is_reserved":false,"is_disabled":false,"rental_uris":{"android":"levelo://app?vid=932917b6-430f-46d5-be25-58b94a660858","ios":"levelo://app?vid=932917b6-430f-46d5-be25-58b94a660858"},"vehicle_type_id":"4","last_reported":1712873222,"current_range_meters":0,"station_id":"ce4bgkp2rcd13ifvqbmg","pricing_plan_id":"cebpf4jnsgd1na2vs0mg"},{"bike_id":"cf4af8b1-b45b-4b52-8ffc-832327fc9d4c","system_id":"levelo_inurba_marseille","lat":43.299623,"lon":5.384943,"is_reserved":false,"is_disabled":false,"rental_uris":{"android":"levelo://app?vid=cf4af8b1-b45b-4b52-8ffc-832327fc9d4c","ios":"levelo://app?vid=cf4af8b1-b45b-4b52-8ffc-832327fc9d4c"},"vehicle_type_id":"4","last_reported":1712873222,"current_range_meters":0,"station_id":"ce4bgj92rcd13ifvqbd0","pricing_plan_id":"cebpf4jnsgd1na2vs0mg"},{"bike_id":"4f69ba26-1f5a-431b-8968-04a8a032a6a0","system_id":"levelo_inurba_marseille","lat":43.299717,"lon":5.384845,"is_reserved":false,"is_disabled":false,"rental_uris":{"android":"levelo://app?vid=4f69ba26-1f5a-431b-8968-04a8a032a6a0","ios":"levelo://app?vid=4f69ba26-1f5a-431b-8968-04a8a032a6a0"},"vehicle_type_id":"4","last_reported":1712873222,"current_range_meters":0,"station_id":"ce4bgj92rcd13ifvqbd0","pricing_plan_id":"cebpf4jnsgd1na2vs0mg"},{"bike_id":"fc5cbf16-ea4c-49c2-a365-cbd103ca1040","system_id":"levelo_inurba_marseille","lat":43.3236,"lon":5.38869,"is_reserved":false,"is_disabled":false,"rental_uris":{"android":"levelo://app?vid=fc5cbf16-ea4c-49c2-a365-cbd103ca1040","ios":"levelo://app?vid=fc5cbf16-ea4c-49c2-a365-cbd103ca1040"},"vehicle_type_id":"4","last_reported":1712873222,"current_range_meters":5600,"station_id":"ce4bhqp2rcd13ifvqhog","pricing_plan_id":"cebpf4jnsgd1na2vs0mg"},{"bike_id":"1d5a3237-552f-4176-a474-2cfb55f167c7","system_id":"levelo_inurba_marseille","lat":43.32367,"lon":5.38868,"is_reserved":false,"is_disabled":false,"rental_uris":{"android":"levelo://app?vid=1d5a3237-552f-4176-a474-2cfb55f167c7","ios":"levelo://app?vid=1d5a3237-552f-4176-a474-2cfb55f167c7"},"vehicle_type_id":"4","last_reported":1712873222,"current_range_meters":0,"station_id":"ce4bhqp2rcd13ifvqhog","pricing_plan_id":"cebpf4jnsgd1na2vs0mg"},{"bike_id":"80442433-8126-474a-954b-db6709f3d1da","system_id":"levelo_inurba_marseille","lat":43.32367,"lon":5.388836,"is_reserved":false,"is_disabled":false,"rental_uris":{"android":"levelo://app?vid=80442433-8126-474a-954b-db6709f3d1da","ios":"levelo://app?vid=80442433-8126-474a-954b-db6709f3d1da"},"vehicle_type_id":"4","last_reported":1712873222,"current_range_meters":1200,"station_id":"ce4bhqp2rcd13ifvqhog","pricing_plan_id":"cebpf4jnsgd1na2vs0mg"},{"bike_id":"5628f1e9-00d6-47d8-a13a-69b7bee1a078","system_id":"levelo_inurba_marseille","lat":43.32367,"lon":5.388836,"is_reserved":false,"is_disabled":false,"rental_uris":{"android":"levelo://app?vid=5628f1e9-00d6-47d8-a13a-69b7bee1a078","ios":"levelo://app?vid=5628f1e9-00d6-47d8-a13a-69b7bee1a078"},"vehicle_type_id":"4","last_reported":1712873222,"current_range_meters":13200,"station_id":"ce4bhqp2rcd13ifvqhog","pricing_plan_id":"cebpf4jnsgd1na2vs0mg"},{"bike_id":"0031ce53-b770-4bde-b8fc-835eff80d941","system_id":"levelo_inurba_marseille","lat":43.32363,"lon":5.38886,"is_reserved":false,"is_disabled":false,"rental_uris":{"android":"levelo://app?vid=0031ce53-b770-4bde-b8fc-835eff80d941","ios":"levelo://app?vid=0031ce53-b770-4bde-b8fc-835eff80d941"},"vehicle_type_id":"4","last_reported":1712873222,"current_range_meters":7200,"station_id":"ce4bhqp2rcd13ifvqhog","pricing_plan_id":"cebpf4jnsgd1na2vs0mg"},{"bike_id":"f3499799-b16a-4f95-8194-b91c4c906a81","system_id":"levelo_inurba_marseille","lat":43.32367,"lon":5.388836,"is_reserved":false,"is_disabled":false,"rental_uris":{"android":"levelo://app?vid=f3499799-b16a-4f95-8194-b91c4c906a81","ios":"levelo://app?vid=f3499799-b16a-4f95-8194-b91c4c906a81"},"vehicle_type_id":"4","last_reported":1712873222,"current_range_meters":1200,"station_id":"ce4bhqp2rcd13ifvqhog","pricing_plan_id":"cebpf4jnsgd1na2vs0mg"},{"bike_id":"f4111c77-06a3-4494-818c-995adc7c2c3d","system_id":"levelo_inurba_marseille","lat":43.32367,"lon":5.388836,"is_reserved":false,"is_disabled":false,"rental_uris":{"android":"levelo://app?vid=f4111c77-06a3-4494-818c-995adc7c2c3d","ios":"levelo://app?vid=f4111c77-06a3-4494-818c-995adc7c2c3d"},"vehicle_type_id":"4","last_reported":1712873222,"current_range_meters":0,"station_id":"ce4bhqp2rcd13ifvqhog","pricing_plan_id":"cebpf4jnsgd1na2vs0mg"},{"bike_id":"8717c62e-cfaa-496a-87d2-0be7c8474056","system_id":"levelo_inurba_marseille","lat":43.29602,"lon":5.381084,"is_reserved":false,"is_disabled":false,"rental_uris":{"android":"levelo://app?vid=8717c62e-cfaa-496a-87d2-0be7c8474056","ios":"levelo://app?vid=8717c62e-cfaa-496a-87d2-0be7c8474056"},"vehicle_type_id":"4","last_reported":1712873222,"current_range_meters":3200,"station_id":"ce4bgl12rcd13ifvqbo0","pricing_plan_id":"cebpf4jnsgd1na2vs0mg"},{"bike_id":"7d3a21e9-bd15-42cf-8424-b5772960a59b","system_id":"levelo_inurba_marseille","lat":43.292749,"lon":5.368402,"is_reserved":false,"is_disabled":false,"rental_uris":{"android":"levelo://app?vid=7d3a21e9-bd15-42cf-8424-b5772960a59b","ios":"levelo://app?vid=7d3a21e9-bd15-42cf-8424-b5772960a59b"},"vehicle_type_id":"4","last_reported":1712873222,"current_range_meters":26400,"station_id":"ce4bhbp2rcd13ifvqesg","pricing_plan_id":"cebpf4jnsgd1na2vs0mg"},{"bike_id":"5cfe6278-1034-45a5-b462-ec08fe3a241c","system_id":"levelo_inurba_marseille","lat":43.295447,"lon":5.38145,"is_reserved":false,"is_disabled":false,"rental_uris":{"android":"levelo://app?vid=5cfe6278-1034-45a5-b462-ec08fe3a241c","ios":"levelo://app?vid=5cfe6278-1034-45a5-b462-ec08fe3a241c"},"vehicle_type_id":"4","last_reported":1712873222,"current_range_meters":0,"station_id":"","pricing_plan_id":"cebpf4jnsgd1na2vs0mg"},{"bike_id":"4436bc78-2fc7-403a-adae-3570d8de256d","system_id":"levelo_inurba_marseille","lat":43.305994,"lon":5.393687,"is_reserved":false,"is_disabled":false,"rental_uris":{"android":"levelo://app?vid=4436bc78-2fc7-403a-adae-3570d8de256d","ios":"levelo://app?vid=4436bc78-2fc7-403a-adae-3570d8de256d"},"vehicle_type_id":"4","last_reported":1712873222,"current_range_meters":0,"station_id":"ce4bh0p2rcd13ifvqd80","pricing_plan_id":"cebpf4jnsgd1na2vs0mg"},{"bike_id":"dcde0edf-2899-4bcf-b0cf-6d90c478059b","system_id":"levelo_inurba_marseille","lat":43.305994,"lon":5.393687,"is_reserved":false,"is_disabled":false,"rental_uris":{"android":"levelo://app?vid=dcde0edf-2899-4bcf-b0cf-6d90c478059b","ios":"levelo://app?vid=dcde0edf-2899-4bcf-b0cf-6d90c478059b"},"vehicle_type_id":"4","last_reported":1712873222,"current_range_meters":8000,"station_id":"ce4bh0p2rcd13ifvqd80","pricing_plan_id":"cebpf4jnsgd1na2vs0mg"},{"bike_id":"02b98a31-349b-438f-895d-f6ffec3cb370","system_id":"levelo_inurba_marseille","lat":43.300852,"lon":5.390859,"is_reserved":false,"is_disabled":false,"rental_uris":{"android":"levelo://app?vid=02b98a31-349b-438f-895d-f6ffec3cb370","ios":"levelo://app?vid=02b98a31-349b-438f-895d-f6ffec3cb370"},"vehicle_type_id":"4","last_reported":1712873222,"current_range_meters":1600,"station_id":"ce4bh192rcd13ifvqdb0","pricing_plan_id":"cebpf4jnsgd1na2vs0mg"},{"bike_id":"3998e531-d876-4965-be71-541b7d1f0deb","system_id":"levelo_inurba_marseille","lat":43.303056,"lon":5.392138,"is_reserved":false,"is_disabled":false,"rental_uris":{"android":"levelo://app?vid=3998e531-d876-4965-be71-541b7d1f0deb","ios":"levelo://app?vid=3998e531-d876-4965-be71-541b7d1f0deb"},"vehicle_type_id":"4","last_reported":1712873222,"current_range_meters":0,"station_id":"ce4bgkh2rcd13ifvqbk0","pricing_plan_id":"cebpf4jnsgd1na2vs0mg"},{"bike_id":"7073ed00-48d7-4f86-9fd5-898ea190fd54","system_id":"levelo_inurba_marseille","lat":43.30301,"lon":5.39211,"is_reserved":false,"is_disabled":false,"rental_uris":{"android":"levelo://app?vid=7073ed00-48d7-4f86-9fd5-898ea190fd54","ios":"levelo://app?vid=7073ed00-48d7-4f86-9fd5-898ea190fd54"},"vehicle_type_id":"4","last_reported":1712873222,"current_range_meters":2400,"station_id":"ce4bgkh2rcd13ifvqbk0","pricing_plan_id":"cebpf4jnsgd1na2vs0mg"},{"bike_id":"eb07bfa5-3b06-4716-83d5-30ba1b31e921","system_id":"levelo_inurba_marseille","lat":43.30299,"lon":5.39212,"is_reserved":false,"is_disabled":false,"rental_uris":{"android":"levelo://app?vid=eb07bfa5-3b06-4716-83d5-30ba1b31e921","ios":"levelo://app?vid=eb07bfa5-3b06-4716-83d5-30ba1b31e921"},"vehicle_type_id":"4","last_reported":1712873222,"current_range_meters":0,"station_id":"ce4bgkh2rcd13ifvqbk0","pricing_plan_id":"cebpf4jnsgd1na2vs0mg"},{"bike_id":"81f9fd03-b320-4037-92e0-f8d7c35fdcce","system_id":"levelo_inurba_marseille","lat":43.303002,"lon":5.392142,"is_reserved":false,"is_disabled":false,"rental_uris":{"android":"levelo://app?vid=81f9fd03-b320-4037-92e0-f8d7c35fdcce","ios":"levelo://app?vid=81f9fd03-b320-4037-92e0-f8d7c35fdcce"},"vehicle_type_id":"4","last_reported":1712873222,"current_range_meters":18000,"station_id":"ce4bgkh2rcd13ifvqbk0","pricing_plan_id":"cebpf4jnsgd1na2vs0mg"},{"bike_id":"8faf1cb7-83fa-4fd6-8b5c-b4356cc0e493","system_id":"levelo_inurba_marseille","lat":43.300852,"lon":5.390859,"is_reserved":false,"is_disabled":false,"rental_uris":{"android":"levelo://app?vid=8faf1cb7-83fa-4fd6-8b5c-b4356cc0e493","ios":"levelo://app?vid=8faf1cb7-83fa-4fd6-8b5c-b4356cc0e493"},"vehicle_type_id":"4","last_reported":1712873222,"current_range_meters":3200,"station_id":"ce4bh192rcd13ifvqdb0","pricing_plan_id":"cebpf4jnsgd1na2vs0mg"},{"bike_id":"1ba52b12-b883-4882-98f6-dfd6b6517444","system_id":"levelo_inurba_marseille","lat":43.298764,"lon":5.388973,"is_reserved":false,"is_disabled":false,"rental_uris":{"android":"levelo://app?vid=1ba52b12-b883-4882-98f6-dfd6b6517444","ios":"levelo://app?vid=1ba52b12-b883-4882-98f6-dfd6b6517444"},"vehicle_type_id":"4","last_reported":1712873222,"current_range_meters":4800,"station_id":"ce4bh392rcd13ifvqdl0","pricing_plan_id":"cebpf4jnsgd1na2vs0mg"},{"bike_id":"f73c0cff-9605-47bd-ba71-90152932f80e","system_id":"levelo_inurba_marseille","lat":43.294935,"lon":5.382865,"is_reserved":false,"is_disabled":false,"rental_uris":{"android":"levelo://app?vid=f73c0cff-9605-47bd-ba71-90152932f80e","ios":"levelo://app?vid=f73c0cff-9605-47bd-ba71-90152932f80e"},"vehicle_type_id":"4","last_reported":1712873222,"current_range_meters":24000,"station_id":"","pricing_plan_id":"cebpf4jnsgd1na2vs0mg"},{"bike_id":"d04daca3-6c27-4c76-a0cc-977f1c299305","system_id":"levelo_inurba_marseille","lat":43.298764,"lon":5.388973,"is_reserved":false,"is_disabled":false,"rental_uris":{"android":"levelo://app?vid=d04daca3-6c27-4c76-a0cc-977f1c299305","ios":"levelo://app?vid=d04daca3-6c27-4c76-a0cc-977f1c299305"},"vehicle_type_id":"4","last_reported":1712873222,"current_range_meters":8400,"station_id":"ce4bh392rcd13ifvqdl0","pricing_plan_id":"cebpf4jnsgd1na2vs0mg"},{"bike_id":"9fad211e-698f-4abd-a89b-23440d4e1b92","system_id":"levelo_inurba_marseille","lat":43.291671,"lon":5.371575,"is_reserved":false,"is_disabled":false,"rental_uris":{"android":"levelo://app?vid=9fad211e-698f-4abd-a89b-23440d4e1b92","ios":"levelo://app?vid=9fad211e-698f-4abd-a89b-23440d4e1b92"},"vehicle_type_id":"4","last_reported":1712873222,"current_range_meters":400,"station_id":"ce4bha92rcd13ifvqeh0","pricing_plan_id":"cebpf4jnsgd1na2vs0mg"},{"bike_id":"e4f57154-483e-4692-9fe3-52c400679fef","system_id":"levelo_inurba_marseille","lat":43.29868,"lon":5.38906,"is_reserved":false,"is_disabled":false,"rental_uris":{"android":"levelo://app?vid=e4f57154-483e-4692-9fe3-52c400679fef","ios":"levelo://app?vid=e4f57154-483e-4692-9fe3-52c400679fef"},"vehicle_type_id":"4","last_reported":1712873222,"current_range_meters":0,"station_id":"ce4bh392rcd13ifvqdl0","pricing_plan_id":"cebpf4jnsgd1na2vs0mg"},{"bike_id":"2024eed6-687d-4956-9d74-09bb76457a72","system_id":"levelo_inurba_marseille","lat":43.298764,"lon":5.388973,"is_reserved":false,"is_disabled":false,"rental_uris":{"android":"levelo://app?vid=2024eed6-687d-4956-9d74-09bb76457a72","ios":"levelo://app?vid=2024eed6-687d-4956-9d74-09bb76457a72"},"vehicle_type_id":"4","last_reported":1712873222,"current_range_meters":31200,"station_id":"ce4bh392rcd13ifvqdl0","pricing_plan_id":"cebpf4jnsgd1na2vs0mg"},{"bike_id":"fb4868a4-1358-45bc-b6aa-10cc91e4d5ee","system_id":"levelo_inurba_marseille","lat":43.31331,"lon":5.39686,"is_reserved":false,"is_disabled":false,"rental_uris":{"android":"levelo://app?vid=fb4868a4-1358-45bc-b6aa-10cc91e4d5ee","ios":"levelo://app?vid=fb4868a4-1358-45bc-b6aa-10cc91e4d5ee"},"vehicle_type_id":"4","last_reported":1712873222,"current_range_meters":14800,"station_id":"ce4bgvp2rcd13ifvqcu0","pricing_plan_id":"cebpf4jnsgd1na2vs0mg"},{"bike_id":"da1ab6f0-38d2-47ce-bfbe-c3a7eab7189f","system_id":"levelo_inurba_marseille","lat":43.313291,"lon":5.396838,"is_reserved":false,"is_disabled":false,"rental_uris":{"android":"levelo://app?vid=da1ab6f0-38d2-47ce-bfbe-c3a7eab7189f","ios":"levelo://app?vid=da1ab6f0-38d2-47ce-bfbe-c3a7eab7189f"},"vehicle_type_id":"4","last_reported":1712873222,"current_range_meters":6800,"station_id":"ce4bgvp2rcd13ifvqcu0","pricing_plan_id":"cebpf4jnsgd1na2vs0mg"},{"bike_id":"9e53f30a-96fd-464a-8d52-c44face562c5","system_id":"levelo_inurba_marseille","lat":43.31326,"lon":5.3969,"is_reserved":false,"is_disabled":false,"rental_uris":{"android":"levelo://app?vid=9e53f30a-96fd-464a-8d52-c44face562c5","ios":"levelo://app?vid=9e53f30a-96fd-464a-8d52-c44face562c5"},"vehicle_type_id":"4","last_reported":1712873222,"current_range_meters":26400,"station_id":"ce4bgvp2rcd13ifvqcu0","pricing_plan_id":"cebpf4jnsgd1na2vs0mg"},{"bike_id":"025580c1-4405-45a4-84e1-a36489cd0461","system_id":"levelo_inurba_marseille","lat":43.313291,"lon":5.396838,"is_reserved":false,"is_disabled":false,"rental_uris":{"android":"levelo://app?vid=025580c1-4405-45a4-84e1-a36489cd0461","ios":"levelo://app?vid=025580c1-4405-45a4-84e1-a36489cd0461"},"vehicle_type_id":"4","last_reported":1712873222,"current_range_meters":0,"station_id":"ce4bgvp2rcd13ifvqcu0","pricing_plan_id":"cebpf4jnsgd1na2vs0mg"},{"bike_id":"5fc9c94c-9182-4b1e-b158-19f7280b4025","system_id":"levelo_inurba_marseille","lat":43.313291,"lon":5.396838,"is_reserved":false,"is_disabled":false,"rental_uris":{"android":"levelo://app?vid=5fc9c94c-9182-4b1e-b158-19f7280b4025","ios":"levelo://app?vid=5fc9c94c-9182-4b1e-b158-19f7280b4025"},"vehicle_type_id":"4","last_reported":1712873222,"current_range_meters":19600,"station_id":"ce4bgvp2rcd13ifvqcu0","pricing_plan_id":"cebpf4jnsgd1na2vs0mg"},{"bike_id":"adcb1601-8cbf-4a11-b1f7-9313f45ccfb4","system_id":"levelo_inurba_marseille","lat":43.313291,"lon":5.396838,"is_reserved":false,"is_disabled":false,"rental_uris":{"android":"levelo://app?vid=adcb1601-8cbf-4a11-b1f7-9313f45ccfb4","ios":"levelo://app?vid=adcb1601-8cbf-4a11-b1f7-9313f45ccfb4"},"vehicle_type_id":"4","last_reported":1712873222,"current_range_meters":7600,"station_id":"ce4bgvp2rcd13ifvqcu0","pricing_plan_id":"cebpf4jnsgd1na2vs0mg"},{"bike_id":"8f57bc33-58f5-432d-bdb6-8980e78dcb69","system_id":"levelo_inurba_marseille","lat":43.309038,"lon":5.396546,"is_reserved":false,"is_disabled":false,"rental_uris":{"android":"levelo://app?vid=8f57bc33-58f5-432d-bdb6-8980e78dcb69","ios":"levelo://app?vid=8f57bc33-58f5-432d-bdb6-8980e78dcb69"},"vehicle_type_id":"4","last_reported":1712873222,"current_range_meters":22000,"station_id":"ce4bh012rcd13ifvqcv0","pricing_plan_id":"cebpf4jnsgd1na2vs0mg"},{"bike_id":"66bde97c-e4ca-4090-a541-b62a937fddc0","system_id":"levelo_inurba_marseille","lat":43.313291,"lon":5.396838,"is_reserved":false,"is_disabled":false,"rental_uris":{"android":"levelo://app?vid=66bde97c-e4ca-4090-a541-b62a937fddc0","ios":"levelo://app?vid=66bde97c-e4ca-4090-a541-b62a937fddc0"},"vehicle_type_id":"4","last_reported":1712873222,"current_range_meters":8800,"station_id":"ce4bgvp2rcd13ifvqcu0","pricing_plan_id":"cebpf4jnsgd1na2vs0mg"},{"bike_id":"dcee7245-af68-41e2-a823-2119b92f12d3","system_id":"levelo_inurba_marseille","lat":43.309038,"lon":5.396546,"is_reserved":false,"is_disabled":false,"rental_uris":{"android":"levelo://app?vid=dcee7245-af68-41e2-a823-2119b92f12d3","ios":"levelo://app?vid=dcee7245-af68-41e2-a823-2119b92f12d3"},"vehicle_type_id":"4","last_reported":1712873222,"current_range_meters":17600,"station_id":"ce4bh012rcd13ifvqcv0","pricing_plan_id":"cebpf4jnsgd1na2vs0mg"},{"bike_id":"4cd6f8c2-191d-4aac-a57d-ad6f57defdcb","system_id":"levelo_inurba_marseille","lat":43.3133,"lon":5.39699,"is_reserved":false,"is_disabled":false,"rental_uris":{"android":"levelo://app?vid=4cd6f8c2-191d-4aac-a57d-ad6f57defdcb","ios":"levelo://app?vid=4cd6f8c2-191d-4aac-a57d-ad6f57defdcb"},"vehicle_type_id":"4","last_reported":1712873222,"current_range_meters":0,"station_id":"ce4bgvp2rcd13ifvqcu0","pricing_plan_id":"cebpf4jnsgd1na2vs0mg"},{"bike_id":"158a5e5f-dbdd-484c-9a7f-a3af1e12f718","system_id":"levelo_inurba_marseille","lat":43.309047,"lon":5.396551,"is_reserved":false,"is_disabled":false,"rental_uris":{"android":"levelo://app?vid=158a5e5f-dbdd-484c-9a7f-a3af1e12f718","ios":"levelo://app?vid=158a5e5f-dbdd-484c-9a7f-a3af1e12f718"},"vehicle_type_id":"4","last_reported":1712873222,"current_range_meters":13600,"station_id":"ce4bh012rcd13ifvqcv0","pricing_plan_id":"cebpf4jnsgd1na2vs0mg"},{"bike_id":"3cfe3b7a-889e-4e66-afef-a40948af9839","system_id":"levelo_inurba_marseille","lat":43.309038,"lon":5.396546,"is_reserved":false,"is_disabled":false,"rental_uris":{"android":"levelo://app?vid=3cfe3b7a-889e-4e66-afef-a40948af9839","ios":"levelo://app?vid=3cfe3b7a-889e-4e66-afef-a40948af9839"},"vehicle_type_id":"4","last_reported":1712873222,"current_range_meters":4000,"station_id":"ce4bh012rcd13ifvqcv0","pricing_plan_id":"cebpf4jnsgd1na2vs0mg"},{"bike_id":"6d57387b-f652-4b2b-aa13-0e6eef2924ed","system_id":"levelo_inurba_marseille","lat":43.309038,"lon":5.396546,"is_reserved":false,"is_disabled":false,"rental_uris":{"android":"levelo://app?vid=6d57387b-f652-4b2b-aa13-0e6eef2924ed","ios":"levelo://app?vid=6d57387b-f652-4b2b-aa13-0e6eef2924ed"},"vehicle_type_id":"4","last_reported":1712873222,"current_range_meters":31200,"station_id":"ce4bh012rcd13ifvqcv0","pricing_plan_id":"cebpf4jnsgd1na2vs0mg"},{"bike_id":"4be0c24c-f1b0-4935-b292-81d263d9f708","system_id":"levelo_inurba_marseille","lat":43.303002,"lon":5.392142,"is_reserved":false,"is_disabled":false,"rental_uris":{"android":"levelo://app?vid=4be0c24c-f1b0-4935-b292-81d263d9f708","ios":"levelo://app?vid=4be0c24c-f1b0-4935-b292-81d263d9f708"},"vehicle_type_id":"4","last_reported":1712873222,"current_range_meters":24800,"station_id":"ce4bgkh2rcd13ifvqbk0","pricing_plan_id":"cebpf4jnsgd1na2vs0mg"},{"bike_id":"8d195de5-d68c-4724-858f-141c9f16deac","system_id":"levelo_inurba_marseille","lat":43.313291,"lon":5.396838,"is_reserved":false,"is_disabled":false,"rental_uris":{"android":"levelo://app?vid=8d195de5-d68c-4724-858f-141c9f16deac","ios":"levelo://app?vid=8d195de5-d68c-4724-858f-141c9f16deac"},"vehicle_type_id":"4","last_reported":1712873222,"current_range_meters":400,"station_id":"ce4bgvp2rcd13ifvqcu0","pricing_plan_id":"cebpf4jnsgd1na2vs0mg"},{"bike_id":"ce2cd59c-1650-4bbb-9701-64da50d38db3","system_id":"levelo_inurba_marseille","lat":43.292571,"lon":5.409107,"is_reserved":false,"is_disabled":false,"rental_uris":{"android":"levelo://app?vid=ce2cd59c-1650-4bbb-9701-64da50d38db3","ios":"levelo://app?vid=ce2cd59c-1650-4bbb-9701-64da50d38db3"},"vehicle_type_id":"4","last_reported":1712873222,"current_range_meters":9600,"station_id":"ce4bh192rcd13ifvqdc0","pricing_plan_id":"cebpf4jnsgd1na2vs0mg"},{"bike_id":"e576ffd2-fbe1-4096-856f-17b33d8bc600","system_id":"levelo_inurba_marseille","lat":43.293009,"lon":5.374584,"is_reserved":false,"is_disabled":false,"rental_uris":{"android":"levelo://app?vid=e576ffd2-fbe1-4096-856f-17b33d8bc600","ios":"levelo://app?vid=e576ffd2-fbe1-4096-856f-17b33d8bc600"},"vehicle_type_id":"4","last_reported":1712873222,"current_range_meters":30400,"station_id":"ce4bgi12rcd13ifvqb70","pricing_plan_id":"cebpf4jnsgd1na2vs0mg"},{"bike_id":"5bcbfd08-cc0c-4de8-a47b-21da65713304","system_id":"levelo_inurba_marseille","lat":43.273125,"lon":5.390731,"is_reserved":false,"is_disabled":false,"rental_uris":{"android":"levelo://app?vid=5bcbfd08-cc0c-4de8-a47b-21da65713304","ios":"levelo://app?vid=5bcbfd08-cc0c-4de8-a47b-21da65713304"},"vehicle_type_id":"4","last_reported":1712873222,"current_range_meters":30000,"station_id":"ce4bhgp2rcd13ifvqfe0","pricing_plan_id":"cebpf4jnsgd1na2vs0mg"},{"bike_id":"65eb8fb4-0122-42d0-98dc-6bc7085e193e","system_id":"levelo_inurba_marseille","lat":43.29069,"lon":5.37156,"is_reserved":false,"is_disabled":false,"rental_uris":{"android":"levelo://app?vid=65eb8fb4-0122-42d0-98dc-6bc7085e193e","ios":"levelo://app?vid=65eb8fb4-0122-42d0-98dc-6bc7085e193e"},"vehicle_type_id":"4","last_reported":1712873222,"current_range_meters":0,"station_id":"ce4bh5p2rcd13ifvqe4g","pricing_plan_id":"cebpf4jnsgd1na2vs0mg"},{"bike_id":"d46d89b9-7726-4c37-8efb-baacd128f4d5","system_id":"levelo_inurba_marseille","lat":43.2906,"lon":5.37145,"is_reserved":false,"is_disabled":false,"rental_uris":{"android":"levelo://app?vid=d46d89b9-7726-4c37-8efb-baacd128f4d5","ios":"levelo://app?vid=d46d89b9-7726-4c37-8efb-baacd128f4d5"},"vehicle_type_id":"4","last_reported":1712873222,"current_range_meters":0,"station_id":"ce4bh5p2rcd13ifvqe4g","pricing_plan_id":"cebpf4jnsgd1na2vs0mg"},{"bike_id":"e8791927-b800-4bb7-85fd-07c4fb0aa34a","system_id":"levelo_inurba_marseille","lat":43.29053,"lon":5.35897,"is_reserved":false,"is_disabled":false,"rental_uris":{"android":"levelo://app?vid=e8791927-b800-4bb7-85fd-07c4fb0aa34a","ios":"levelo://app?vid=e8791927-b800-4bb7-85fd-07c4fb0aa34a"},"vehicle_type_id":"4","last_reported":1712873222,"current_range_meters":6800,"station_id":"ce4bha92rcd13ifvqeg0","pricing_plan_id":"cebpf4jnsgd1na2vs0mg"},{"bike_id":"7c6b28b6-2cad-4260-95d2-8b58ad75e0be","system_id":"levelo_inurba_marseille","lat":43.294153,"lon":5.386305,"is_reserved":false,"is_disabled":false,"rental_uris":{"android":"levelo://app?vid=7c6b28b6-2cad-4260-95d2-8b58ad75e0be","ios":"levelo://app?vid=7c6b28b6-2cad-4260-95d2-8b58ad75e0be"},"vehicle_type_id":"4","last_reported":1712873222,"current_range_meters":0,"station_id":"ce4bh2h2rcd13ifvqdh0","pricing_plan_id":"cebpf4jnsgd1na2vs0mg"},{"bike_id":"bb15941b-f21a-4caf-ac15-8179bf7b1f81","system_id":"levelo_inurba_marseille","lat":43.28935,"lon":5.36631,"is_reserved":false,"is_disabled":false,"rental_uris":{"android":"levelo://app?vid=bb15941b-f21a-4caf-ac15-8179bf7b1f81","ios":"levelo://app?vid=bb15941b-f21a-4caf-ac15-8179bf7b1f81"},"vehicle_type_id":"4","last_reported":1712873222,"current_range_meters":0,"station_id":"ce4bhap2rcd13ifvqek0","pricing_plan_id":"cebpf4jnsgd1na2vs0mg"},{"bike_id":"fe683a10-edb5-47cb-aba0-c01cfc2ff694","system_id":"levelo_inurba_marseille","lat":43.28944,"lon":5.36394,"is_reserved":false,"is_disabled":false,"rental_uris":{"android":"levelo://app?vid=fe683a10-edb5-47cb-aba0-c01cfc2ff694","ios":"levelo://app?vid=fe683a10-edb5-47cb-aba0-c01cfc2ff694"},"vehicle_type_id":"4","last_reported":1712873222,"current_range_meters":0,"station_id":"ce4bhc92rcd13ifvqetg","pricing_plan_id":"cebpf4jnsgd1na2vs0mg"},{"bike_id":"8d3f7f50-27d6-4bf2-8e9f-28103c7188f0","system_id":"levelo_inurba_marseille","lat":43.289468,"lon":5.363719,"is_reserved":false,"is_disabled":false,"rental_uris":{"android":"levelo://app?vid=8d3f7f50-27d6-4bf2-8e9f-28103c7188f0","ios":"levelo://app?vid=8d3f7f50-27d6-4bf2-8e9f-28103c7188f0"},"vehicle_type_id":"4","last_reported":1712873222,"current_range_meters":8800,"station_id":"ce4bhc92rcd13ifvqetg","pricing_plan_id":"cebpf4jnsgd1na2vs0mg"},{"bike_id":"37a5b813-6f54-47c2-a547-4cd56dd7a783","system_id":"levelo_inurba_marseille","lat":43.286595,"lon":5.386795,"is_reserved":false,"is_disabled":false,"rental_uris":{"android":"levelo://app?vid=37a5b813-6f54-47c2-a547-4cd56dd7a783","ios":"levelo://app?vid=37a5b813-6f54-47c2-a547-4cd56dd7a783"},"vehicle_type_id":"4","last_reported":1712873222,"current_range_meters":18800,"station_id":"ce4bh492rcd13ifvqdug","pricing_plan_id":"cebpf4jnsgd1na2vs0mg"},{"bike_id":"edbb220f-64f3-4692-8d20-af0904cfb905","system_id":"levelo_inurba_marseille","lat":43.289468,"lon":5.363719,"is_reserved":false,"is_disabled":false,"rental_uris":{"android":"levelo://app?vid=edbb220f-64f3-4692-8d20-af0904cfb905","ios":"levelo://app?vid=edbb220f-64f3-4692-8d20-af0904cfb905"},"vehicle_type_id":"4","last_reported":1712873222,"current_range_meters":27600,"station_id":"ce4bhc92rcd13ifvqetg","pricing_plan_id":"cebpf4jnsgd1na2vs0mg"},{"bike_id":"d8800575-913d-4ed6-9270-967e1b8e6380","system_id":"levelo_inurba_marseille","lat":43.30433,"lon":5.39749,"is_reserved":false,"is_disabled":false,"rental_uris":{"android":"levelo://app?vid=d8800575-913d-4ed6-9270-967e1b8e6380","ios":"levelo://app?vid=d8800575-913d-4ed6-9270-967e1b8e6380"},"vehicle_type_id":"4","last_reported":1712873222,"current_range_meters":12800,"station_id":"ce4bh092rcd13ifvqd20","pricing_plan_id":"cebpf4jnsgd1na2vs0mg"},{"bike_id":"cefc3f8a-cd55-4c62-98f8-a7ebfa90d95a","system_id":"levelo_inurba_marseille","lat":43.30424,"lon":5.39745,"is_reserved":false,"is_disabled":false,"rental_uris":{"android":"levelo://app?vid=cefc3f8a-cd55-4c62-98f8-a7ebfa90d95a","ios":"levelo://app?vid=cefc3f8a-cd55-4c62-98f8-a7ebfa90d95a"},"vehicle_type_id":"4","last_reported":1712873222,"current_range_meters":400,"station_id":"ce4bh092rcd13ifvqd20","pricing_plan_id":"cebpf4jnsgd1na2vs0mg"},{"bike_id":"c36a69c5-bbd0-424f-b88e-03bc18240566","system_id":"levelo_inurba_marseille","lat":43.29261,"lon":5.38434,"is_reserved":false,"is_disabled":false,"rental_uris":{"android":"levelo://app?vid=c36a69c5-bbd0-424f-b88e-03bc18240566","ios":"levelo://app?vid=c36a69c5-bbd0-424f-b88e-03bc18240566"},"vehicle_type_id":"4","last_reported":1712873222,"current_range_meters":0,"station_id":"ce4bh692rcd13ifvqea0","pricing_plan_id":"cebpf4jnsgd1na2vs0mg"},{"bike_id":"7659b8b7-ea5b-4c88-ae70-96c595b4ac0f","system_id":"levelo_inurba_marseille","lat":43.304274,"lon":5.397513,"is_reserved":false,"is_disabled":false,"rental_uris":{"android":"levelo://app?vid=7659b8b7-ea5b-4c88-ae70-96c595b4ac0f","ios":"levelo://app?vid=7659b8b7-ea5b-4c88-ae70-96c595b4ac0f"},"vehicle_type_id":"4","last_reported":1712873222,"current_range_meters":5200,"station_id":"ce4bh092rcd13ifvqd20","pricing_plan_id":"cebpf4jnsgd1na2vs0mg"},{"bike_id":"d15ac054-72ce-42e6-a62a-8f704c9153b1","system_id":"levelo_inurba_marseille","lat":43.29256,"lon":5.38437,"is_reserved":false,"is_disabled":false,"rental_uris":{"android":"levelo://app?vid=d15ac054-72ce-42e6-a62a-8f704c9153b1","ios":"levelo://app?vid=d15ac054-72ce-42e6-a62a-8f704c9153b1"},"vehicle_type_id":"4","last_reported":1712873222,"current_range_meters":0,"station_id":"ce4bh692rcd13ifvqea0","pricing_plan_id":"cebpf4jnsgd1na2vs0mg"},{"bike_id":"4e7fe213-c320-4f6a-927c-676734b53de9","system_id":"levelo_inurba_marseille","lat":43.30426,"lon":5.39756,"is_reserved":false,"is_disabled":false,"rental_uris":{"android":"levelo://app?vid=4e7fe213-c320-4f6a-927c-676734b53de9","ios":"levelo://app?vid=4e7fe213-c320-4f6a-927c-676734b53de9"},"vehicle_type_id":"4","last_reported":1712873222,"current_range_meters":22000,"station_id":"ce4bh092rcd13ifvqd20","pricing_plan_id":"cebpf4jnsgd1na2vs0mg"},{"bike_id":"00b3c0a0-d3e4-4fd1-bc00-315333ecc3f9","system_id":"levelo_inurba_marseille","lat":43.29253,"lon":5.38438,"is_reserved":false,"is_disabled":false,"rental_uris":{"android":"levelo://app?vid=00b3c0a0-d3e4-4fd1-bc00-315333ecc3f9","ios":"levelo://app?vid=00b3c0a0-d3e4-4fd1-bc00-315333ecc3f9"},"vehicle_type_id":"4","last_reported":1712873222,"current_range_meters":0,"station_id":"ce4bh692rcd13ifvqea0","pricing_plan_id":"cebpf4jnsgd1na2vs0mg"},{"bike_id":"2fcae155-fc38-4b9e-b832-051094d63136","system_id":"levelo_inurba_marseille","lat":43.304274,"lon":5.397513,"is_reserved":false,"is_disabled":false,"rental_uris":{"android":"levelo://app?vid=2fcae155-fc38-4b9e-b832-051094d63136","ios":"levelo://app?vid=2fcae155-fc38-4b9e-b832-051094d63136"},"vehicle_type_id":"4","last_reported":1712873222,"current_range_meters":22400,"station_id":"ce4bh092rcd13ifvqd20","pricing_plan_id":"cebpf4jnsgd1na2vs0mg"},{"bike_id":"412fd043-fa19-4c22-a341-839912d7365e","system_id":"levelo_inurba_marseille","lat":43.290103,"lon":5.356114,"is_reserved":false,"is_disabled":false,"rental_uris":{"android":"levelo://app?vid=412fd043-fa19-4c22-a341-839912d7365e","ios":"levelo://app?vid=412fd043-fa19-4c22-a341-839912d7365e"},"vehicle_type_id":"4","last_reported":1712873222,"current_range_meters":1600,"station_id":"ce4bhb92rcd13ifvqen0","pricing_plan_id":"cebpf4jnsgd1na2vs0mg"},{"bike_id":"15e3d494-17cf-4e6a-929e-9af219056279","system_id":"levelo_inurba_marseille","lat":43.29097,"lon":5.38154,"is_reserved":false,"is_disabled":false,"rental_uris":{"android":"levelo://app?vid=15e3d494-17cf-4e6a-929e-9af219056279","ios":"levelo://app?vid=15e3d494-17cf-4e6a-929e-9af219056279"},"vehicle_type_id":"4","last_reported":1712873222,"current_range_meters":0,"station_id":"ce4bh512rcd13ifvqe2g","pricing_plan_id":"cebpf4jnsgd1na2vs0mg"},{"bike_id":"1cf5b0d8-bf81-4f2f-b731-e7de94be475a","system_id":"levelo_inurba_marseille","lat":43.290995,"lon":5.381361,"is_reserved":false,"is_disabled":false,"rental_uris":{"android":"levelo://app?vid=1cf5b0d8-bf81-4f2f-b731-e7de94be475a","ios":"levelo://app?vid=1cf5b0d8-bf81-4f2f-b731-e7de94be475a"},"vehicle_type_id":"4","last_reported":1712873222,"current_range_meters":0,"station_id":"ce4bh512rcd13ifvqe2g","pricing_plan_id":"cebpf4jnsgd1na2vs0mg"},{"bike_id":"8f4f16fb-4803-46ad-a7d6-54175d1ba5d6","system_id":"levelo_inurba_marseille","lat":43.290995,"lon":5.381361,"is_reserved":false,"is_disabled":false,"rental_uris":{"android":"levelo://app?vid=8f4f16fb-4803-46ad-a7d6-54175d1ba5d6","ios":"levelo://app?vid=8f4f16fb-4803-46ad-a7d6-54175d1ba5d6"},"vehicle_type_id":"4","last_reported":1712873222,"current_range_meters":0,"station_id":"ce4bh512rcd13ifvqe2g","pricing_plan_id":"cebpf4jnsgd1na2vs0mg"},{"bike_id":"07ce6535-cf14-4e06-b77a-33c9f0e9d57b","system_id":"levelo_inurba_marseille","lat":43.29793,"lon":5.39348,"is_reserved":false,"is_disabled":false,"rental_uris":{"android":"levelo://app?vid=07ce6535-cf14-4e06-b77a-33c9f0e9d57b","ios":"levelo://app?vid=07ce6535-cf14-4e06-b77a-33c9f0e9d57b"},"vehicle_type_id":"4","last_reported":1712873222,"current_range_meters":12800,"station_id":"chh1huq6cuj3fo74tm60","pricing_plan_id":"cebpf4jnsgd1na2vs0mg"},{"bike_id":"478ef98f-acdb-45c1-894a-d5c1a5c17d12","system_id":"levelo_inurba_marseille","lat":43.29782,"lon":5.39338,"is_reserved":false,"is_disabled":false,"rental_uris":{"android":"levelo://app?vid=478ef98f-acdb-45c1-894a-d5c1a5c17d12","ios":"levelo://app?vid=478ef98f-acdb-45c1-894a-d5c1a5c17d12"},"vehicle_type_id":"4","last_reported":1712873222,"current_range_meters":800,"station_id":"chh1huq6cuj3fo74tm60","pricing_plan_id":"cebpf4jnsgd1na2vs0mg"},{"bike_id":"8e68a9b3-25f7-4191-a586-d3ee873d531c","system_id":"levelo_inurba_marseille","lat":43.297787,"lon":5.393373,"is_reserved":false,"is_disabled":false,"rental_uris":{"android":"levelo://app?vid=8e68a9b3-25f7-4191-a586-d3ee873d531c","ios":"levelo://app?vid=8e68a9b3-25f7-4191-a586-d3ee873d531c"},"vehicle_type_id":"4","last_reported":1712873222,"current_range_meters":13200,"station_id":"chh1huq6cuj3fo74tm60","pricing_plan_id":"cebpf4jnsgd1na2vs0mg"},{"bike_id":"5e10d3fe-c1fd-435c-a75e-9525f8ee18c1","system_id":"levelo_inurba_marseille","lat":43.29784,"lon":5.39345,"is_reserved":false,"is_disabled":false,"rental_uris":{"android":"levelo://app?vid=5e10d3fe-c1fd-435c-a75e-9525f8ee18c1","ios":"levelo://app?vid=5e10d3fe-c1fd-435c-a75e-9525f8ee18c1"},"vehicle_type_id":"4","last_reported":1712873222,"current_range_meters":5600,"station_id":"chh1huq6cuj3fo74tm60","pricing_plan_id":"cebpf4jnsgd1na2vs0mg"},{"bike_id":"56a0f48c-901c-440e-8bfe-729328ef45e9","system_id":"levelo_inurba_marseille","lat":43.297815,"lon":5.393548,"is_reserved":false,"is_disabled":false,"rental_uris":{"android":"levelo://app?vid=56a0f48c-901c-440e-8bfe-729328ef45e9","ios":"levelo://app?vid=56a0f48c-901c-440e-8bfe-729328ef45e9"},"vehicle_type_id":"4","last_reported":1712873222,"current_range_meters":21200,"station_id":"chh1huq6cuj3fo74tm60","pricing_plan_id":"cebpf4jnsgd1na2vs0mg"},{"bike_id":"a8d51cca-6df4-4ebc-b198-caabfdad0383","system_id":"levelo_inurba_marseille","lat":43.297815,"lon":5.393548,"is_reserved":false,"is_disabled":false,"rental_uris":{"android":"levelo://app?vid=a8d51cca-6df4-4ebc-b198-caabfdad0383","ios":"levelo://app?vid=a8d51cca-6df4-4ebc-b198-caabfdad0383"},"vehicle_type_id":"4","last_reported":1712873222,"current_range_meters":30800,"station_id":"chh1huq6cuj3fo74tm60","pricing_plan_id":"cebpf4jnsgd1na2vs0mg"},{"bike_id":"62cb2db7-1c6b-4d95-9b75-adf036d8c9e2","system_id":"levelo_inurba_marseille","lat":43.295169,"lon":5.390426,"is_reserved":false,"is_disabled":false,"rental_uris":{"android":"levelo://app?vid=62cb2db7-1c6b-4d95-9b75-adf036d8c9e2","ios":"levelo://app?vid=62cb2db7-1c6b-4d95-9b75-adf036d8c9e2"},"vehicle_type_id":"4","last_reported":1712873222,"current_range_meters":16000,"station_id":"ce4bh3p2rcd13ifvqdp0","pricing_plan_id":"cebpf4jnsgd1na2vs0mg"},{"bike_id":"7668bba2-baf2-4c6d-8b5a-72dbf3e00b19","system_id":"levelo_inurba_marseille","lat":43.33026,"lon":5.39044,"is_reserved":false,"is_disabled":false,"rental_uris":{"android":"levelo://app?vid=7668bba2-baf2-4c6d-8b5a-72dbf3e00b19","ios":"levelo://app?vid=7668bba2-baf2-4c6d-8b5a-72dbf3e00b19"},"vehicle_type_id":"4","last_reported":1712873222,"current_range_meters":8000,"station_id":"ce4bhr92rcd13ifvqhrg","pricing_plan_id":"cebpf4jnsgd1na2vs0mg"},{"bike_id":"f757fa39-19e3-42b0-ad21-7c1903762e08","system_id":"levelo_inurba_marseille","lat":43.330442,"lon":5.389148,"is_reserved":false,"is_disabled":false,"rental_uris":{"android":"levelo://app?vid=f757fa39-19e3-42b0-ad21-7c1903762e08","ios":"levelo://app?vid=f757fa39-19e3-42b0-ad21-7c1903762e08"},"vehicle_type_id":"4","last_reported":1712873222,"current_range_meters":28400,"station_id":"ce4bhr92rcd13ifvqhrg","pricing_plan_id":"cebpf4jnsgd1na2vs0mg"},{"bike_id":"bcd20e96-5dad-44c3-91e4-4b44da0cba65","system_id":"levelo_inurba_marseille","lat":43.33026,"lon":5.39046,"is_reserved":false,"is_disabled":false,"rental_uris":{"android":"levelo://app?vid=bcd20e96-5dad-44c3-91e4-4b44da0cba65","ios":"levelo://app?vid=bcd20e96-5dad-44c3-91e4-4b44da0cba65"},"vehicle_type_id":"4","last_reported":1712873222,"current_range_meters":6000,"station_id":"ce4bhr92rcd13ifvqhrg","pricing_plan_id":"cebpf4jnsgd1na2vs0mg"},{"bike_id":"78517779-c493-4879-ada4-7b69debe33ba","system_id":"levelo_inurba_marseille","lat":43.3303,"lon":5.39043,"is_reserved":false,"is_disabled":false,"rental_uris":{"android":"levelo://app?vid=78517779-c493-4879-ada4-7b69debe33ba","ios":"levelo://app?vid=78517779-c493-4879-ada4-7b69debe33ba"},"vehicle_type_id":"4","last_reported":1712873222,"current_range_meters":14800,"station_id":"ce4bhr92rcd13ifvqhrg","pricing_plan_id":"cebpf4jnsgd1na2vs0mg"},{"bike_id":"19491149-babb-47a4-b2b9-b2a596378aa0","system_id":"levelo_inurba_marseille","lat":43.295169,"lon":5.390426,"is_reserved":false,"is_disabled":false,"rental_uris":{"android":"levelo://app?vid=19491149-babb-47a4-b2b9-b2a596378aa0","ios":"levelo://app?vid=19491149-babb-47a4-b2b9-b2a596378aa0"},"vehicle_type_id":"4","last_reported":1712873222,"current_range_meters":6400,"station_id":"ce4bh3p2rcd13ifvqdp0","pricing_plan_id":"cebpf4jnsgd1na2vs0mg"},{"bike_id":"23dd9bee-6a34-40af-b446-0a54bbf482c0","system_id":"levelo_inurba_marseille","lat":43.295169,"lon":5.390426,"is_reserved":false,"is_disabled":false,"rental_uris":{"android":"levelo://app?vid=23dd9bee-6a34-40af-b446-0a54bbf482c0","ios":"levelo://app?vid=23dd9bee-6a34-40af-b446-0a54bbf482c0"},"vehicle_type_id":"4","last_reported":1712873222,"current_range_meters":31200,"station_id":"ce4bh3p2rcd13ifvqdp0","pricing_plan_id":"cebpf4jnsgd1na2vs0mg"},{"bike_id":"a9f7d772-2120-470e-a3ab-c3f684d48057","system_id":"levelo_inurba_marseille","lat":43.28856,"lon":5.358371,"is_reserved":false,"is_disabled":false,"rental_uris":{"android":"levelo://app?vid=a9f7d772-2120-470e-a3ab-c3f684d48057","ios":"levelo://app?vid=a9f7d772-2120-470e-a3ab-c3f684d48057"},"vehicle_type_id":"4","last_reported":1712873222,"current_range_meters":10800,"station_id":"ce4bhb12rcd13ifvqem0","pricing_plan_id":"cebpf4jnsgd1na2vs0mg"},{"bike_id":"ea3e975b-8989-429d-8c91-d1e767dba3ed","system_id":"levelo_inurba_marseille","lat":43.312609,"lon":5.401662,"is_reserved":false,"is_disabled":false,"rental_uris":{"android":"levelo://app?vid=ea3e975b-8989-429d-8c91-d1e767dba3ed","ios":"levelo://app?vid=ea3e975b-8989-429d-8c91-d1e767dba3ed"},"vehicle_type_id":"4","last_reported":1712873222,"current_range_meters":28000,"station_id":"ce4bh092rcd13ifvqd30","pricing_plan_id":"cebpf4jnsgd1na2vs0mg"},{"bike_id":"b0aa8e83-a11e-48b7-91b7-1cf71ce31c7b","system_id":"levelo_inurba_marseille","lat":43.28856,"lon":5.358371,"is_reserved":false,"is_disabled":false,"rental_uris":{"android":"levelo://app?vid=b0aa8e83-a11e-48b7-91b7-1cf71ce31c7b","ios":"levelo://app?vid=b0aa8e83-a11e-48b7-91b7-1cf71ce31c7b"},"vehicle_type_id":"4","last_reported":1712873222,"current_range_meters":0,"station_id":"ce4bhb12rcd13ifvqem0","pricing_plan_id":"cebpf4jnsgd1na2vs0mg"},{"bike_id":"1a51ad53-0d5e-410d-80be-ea5432741773","system_id":"levelo_inurba_marseille","lat":43.2886,"lon":5.358243,"is_reserved":false,"is_disabled":false,"rental_uris":{"android":"levelo://app?vid=1a51ad53-0d5e-410d-80be-ea5432741773","ios":"levelo://app?vid=1a51ad53-0d5e-410d-80be-ea5432741773"},"vehicle_type_id":"4","last_reported":1712873222,"current_range_meters":30400,"station_id":"ce4bhb12rcd13ifvqem0","pricing_plan_id":"cebpf4jnsgd1na2vs0mg"},{"bike_id":"ba4cfe29-e9e0-4123-9ae7-2d7eba7fc708","system_id":"levelo_inurba_marseille","lat":43.28856,"lon":5.358371,"is_reserved":false,"is_disabled":false,"rental_uris":{"android":"levelo://app?vid=ba4cfe29-e9e0-4123-9ae7-2d7eba7fc708","ios":"levelo://app?vid=ba4cfe29-e9e0-4123-9ae7-2d7eba7fc708"},"vehicle_type_id":"4","last_reported":1712873222,"current_range_meters":31200,"station_id":"ce4bhb12rcd13ifvqem0","pricing_plan_id":"cebpf4jnsgd1na2vs0mg"},{"bike_id":"6895c2d2-a7ee-4755-a562-325aff98d9f3","system_id":"levelo_inurba_marseille","lat":43.28856,"lon":5.358263,"is_reserved":false,"is_disabled":false,"rental_uris":{"android":"levelo://app?vid=6895c2d2-a7ee-4755-a562-325aff98d9f3","ios":"levelo://app?vid=6895c2d2-a7ee-4755-a562-325aff98d9f3"},"vehicle_type_id":"4","last_reported":1712873222,"current_range_meters":23200,"station_id":"ce4bhb12rcd13ifvqem0","pricing_plan_id":"cebpf4jnsgd1na2vs0mg"},{"bike_id":"8a283394-0872-4d9f-950c-9aa9095ce84d","system_id":"levelo_inurba_marseille","lat":43.28856,"lon":5.358371,"is_reserved":false,"is_disabled":false,"rental_uris":{"android":"levelo://app?vid=8a283394-0872-4d9f-950c-9aa9095ce84d","ios":"levelo://app?vid=8a283394-0872-4d9f-950c-9aa9095ce84d"},"vehicle_type_id":"4","last_reported":1712873222,"current_range_meters":30400,"station_id":"ce4bhb12rcd13ifvqem0","pricing_plan_id":"cebpf4jnsgd1na2vs0mg"},{"bike_id":"d6edaa5e-6a18-4972-a976-f1866fafb7f8","system_id":"levelo_inurba_marseille","lat":43.28856,"lon":5.358371,"is_reserved":false,"is_disabled":false,"rental_uris":{"android":"levelo://app?vid=d6edaa5e-6a18-4972-a976-f1866fafb7f8","ios":"levelo://app?vid=d6edaa5e-6a18-4972-a976-f1866fafb7f8"},"vehicle_type_id":"4","last_reported":1712873222,"current_range_meters":6000,"station_id":"ce4bhb12rcd13ifvqem0","pricing_plan_id":"cebpf4jnsgd1na2vs0mg"},{"bike_id":"53d1676f-c95c-4007-a70d-ba90c95add99","system_id":"levelo_inurba_marseille","lat":43.28856,"lon":5.358371,"is_reserved":false,"is_disabled":false,"rental_uris":{"android":"levelo://app?vid=53d1676f-c95c-4007-a70d-ba90c95add99","ios":"levelo://app?vid=53d1676f-c95c-4007-a70d-ba90c95add99"},"vehicle_type_id":"4","last_reported":1712873222,"current_range_meters":17600,"station_id":"ce4bhb12rcd13ifvqem0","pricing_plan_id":"cebpf4jnsgd1na2vs0mg"},{"bike_id":"4972e03d-749f-43fa-bc19-5f8a15ecdcbb","system_id":"levelo_inurba_marseille","lat":43.312609,"lon":5.401662,"is_reserved":false,"is_disabled":false,"rental_uris":{"android":"levelo://app?vid=4972e03d-749f-43fa-bc19-5f8a15ecdcbb","ios":"levelo://app?vid=4972e03d-749f-43fa-bc19-5f8a15ecdcbb"},"vehicle_type_id":"4","last_reported":1712873222,"current_range_meters":16800,"station_id":"ce4bh092rcd13ifvqd30","pricing_plan_id":"cebpf4jnsgd1na2vs0mg"},{"bike_id":"8cf6ed04-a863-4d96-a95d-0f6080413e04","system_id":"levelo_inurba_marseille","lat":43.312609,"lon":5.401662,"is_reserved":false,"is_disabled":false,"rental_uris":{"android":"levelo://app?vid=8cf6ed04-a863-4d96-a95d-0f6080413e04","ios":"levelo://app?vid=8cf6ed04-a863-4d96-a95d-0f6080413e04"},"vehicle_type_id":"4","last_reported":1712873222,"current_range_meters":26000,"station_id":"ce4bh092rcd13ifvqd30","pricing_plan_id":"cebpf4jnsgd1na2vs0mg"},{"bike_id":"b9df510c-50c8-413c-b60e-c36af1f70c95","system_id":"levelo_inurba_marseille","lat":43.312609,"lon":5.401662,"is_reserved":false,"is_disabled":false,"rental_uris":{"android":"levelo://app?vid=b9df510c-50c8-413c-b60e-c36af1f70c95","ios":"levelo://app?vid=b9df510c-50c8-413c-b60e-c36af1f70c95"},"vehicle_type_id":"4","last_reported":1712873222,"current_range_meters":3200,"station_id":"ce4bh092rcd13ifvqd30","pricing_plan_id":"cebpf4jnsgd1na2vs0mg"},{"bike_id":"d9360295-1260-42a0-a413-7c6bbf09f121","system_id":"levelo_inurba_marseille","lat":43.312609,"lon":5.401662,"is_reserved":false,"is_disabled":false,"rental_uris":{"android":"levelo://app?vid=d9360295-1260-42a0-a413-7c6bbf09f121","ios":"levelo://app?vid=d9360295-1260-42a0-a413-7c6bbf09f121"},"vehicle_type_id":"4","last_reported":1712873222,"current_range_meters":9200,"station_id":"ce4bh092rcd13ifvqd30","pricing_plan_id":"cebpf4jnsgd1na2vs0mg"},{"bike_id":"80cd0540-ce29-4a1d-be32-62dc23e83b58","system_id":"levelo_inurba_marseille","lat":43.31277,"lon":5.40171,"is_reserved":false,"is_disabled":false,"rental_uris":{"android":"levelo://app?vid=80cd0540-ce29-4a1d-be32-62dc23e83b58","ios":"levelo://app?vid=80cd0540-ce29-4a1d-be32-62dc23e83b58"},"vehicle_type_id":"4","last_reported":1712873222,"current_range_meters":0,"station_id":"ce4bh092rcd13ifvqd30","pricing_plan_id":"cebpf4jnsgd1na2vs0mg"},{"bike_id":"b35db11a-3e15-4cf4-a1c4-7a67fe4d1bff","system_id":"levelo_inurba_marseille","lat":43.290723,"lon":5.384091,"is_reserved":false,"is_disabled":false,"rental_uris":{"android":"levelo://app?vid=b35db11a-3e15-4cf4-a1c4-7a67fe4d1bff","ios":"levelo://app?vid=b35db11a-3e15-4cf4-a1c4-7a67fe4d1bff"},"vehicle_type_id":"4","last_reported":1712873222,"current_range_meters":7200,"station_id":"","pricing_plan_id":"cebpf4jnsgd1na2vs0mg"},