{"last_updated":1719339083,"ttl":30,"version":"2.2","data":{"bikes":[{"bike_id":"3bb0c5ae-48f5-4370-85d8-a5b3d90d6517","system_id":"levelo_inurba_marseille","lat":43.312239,"lon":5.368562,"is_reserved":false,"is_disabled":false,"rental_uris":{"android":"levelo://app?vid=3bb0c5ae-48f5-4370-85d8-a5b3d90d6517","ios":"levelo://app?vid=3bb0c5ae-48f5-4370-85d8-a5b3d90d6517"},"vehicle_type_id":"4","last_reported":1719339083,"current_range_meters":0,"station_id":"ce4bgl92rcd13ifvqbq0","pricing_plan_id":"cebpf4jnsgd1na2vs0mg"},{"bike_id":"bcc3e4e7-49ad-4827-ad72-a8aac5cd29e6","system_id":"levelo_inurba_marseille","lat":43.31509,"lon":5.37089,"is_reserved":false,"is_disabled":false,"rental_uris":{"android":"levelo://app?vid=bcc3e4e7-49ad-4827-ad72-a8aac5cd29e6","ios":"levelo://app?vid=bcc3e4e7-49ad-4827-ad72-a8aac5cd29e6"},"vehicle_type_id":"4","last_reported":1719339083,"current_range_meters":18800,"station_id":"","pricing_plan_id":"cebpf4jnsgd1na2vs0mg"},{"bike_id":"dd910158-92dc-4008-8abe-3cc1d7f38dcd","system_id":"levelo_inurba_marseille","lat":43.314811,"lon":5.373103,"is_reserved":false,"is_disabled":false,"rental_uris":{"android":"levelo://app?vid=dd910158-92dc-4008-8abe-3cc1d7f38dcd","ios":"levelo://app?vid=dd910158-92dc-4008-8abe-3cc1d7f38dcd"},"vehicle_type_id":"4","last_reported":1719339083,"current_range_meters":8000,"station_id":"ce4bgt12rcd13ifvqcd0","pricing_plan_id":"cebpf4jnsgd1na2vs0mg"},{"bike_id":"f4700268-38a5-48bd-a0ad-ecd1e5a69876","system_id":"levelo_inurba_marseille","lat":43.314811,"lon":5.373103,"is_reserved":false,"is_disabled":false,"rental_uris":{"android":"levelo://app?vid=f4700268-38a5-48bd-a0ad-ecd1e5a69876","ios":"levelo://app?vid=f4700268-38a5-48bd-a0ad-ecd1e5a69876"},"vehicle_type_id":"4","last_reported":1719339083,"current_range_meters":28800,"station_id":"ce4bgt12rcd13ifvqcd0","pricing_plan_id":"cebpf4jnsgd1na2vs0mg"},{"bike_id":"72708ba2-7d42-4d76-93f7-8fb413f54cfe","system_id":"levelo_inurba_marseille","lat":43.309039,"lon":5.371797,"is_reserved":false,"is_disabled":false,"rental_uris":{"android":"levelo://app?vid=72708ba2-7d42-4d76-93f7-8fb413f54cfe","ios":"levelo://app?vid=72708ba2-7d42-4d76-93f7-8fb413f54cfe"},"vehicle_type_id":"4","last_reported":1719339083,"current_range_meters":0,"station_id":"ce4bguh2rcd13ifvqckg","pricing_plan_id":"cebpf4jnsgd1na2vs0mg"},{"bike_id":"ead18698-b369-4961-a1eb-ff90c633ea77","system_id":"levelo_inurba_marseille","lat":43.308055,"lon":5.373075,"is_reserved":false,"is_disabled":false,"rental_uris":{"android":"levelo://app?vid=ead18698-b369-4961-a1eb-ff90c633ea77","ios":"levelo://app?vid=ead18698-b369-4961-a1eb-ff90c633ea77"},"vehicle_type_id":"4","last_reported":1719339083,"current_range_meters":6400,"station_id":"","pricing_plan_id":"cebpf4jnsgd1na2vs0mg"},{"bike_id":"ec879245-532a-4c73-9a9e-68333e320779","system_id":"levelo_inurba_marseille","lat":43.30537,"lon":5.367345,"is_reserved":false,"is_disabled":false,"rental_uris":{"android":"levelo://app?vid=ec879245-532a-4c73-9a9e-68333e320779","ios":"levelo://app?vid=ec879245-532a-4c73-9a9e-68333e320779"},"vehicle_type_id":"4","last_reported":1719339083,"current_range_meters":20400,"station_id":"ce4bgrp2rcd13ifvqc9g","pricing_plan_id":"cebpf4jnsgd1na2vs0mg"},{"bike_id":"36c140fe-d18f-4ff5-be8f-386de33eddf0","system_id":"levelo_inurba_marseille","lat":43.311178,"lon":5.377647,"is_reserved":false,"is_disabled":false,"rental_uris":{"android":"levelo://app?vid=36c140fe-d18f-4ff5-be8f-386de33eddf0","ios":"levelo://app?vid=36c140fe-d18f-4ff5-be8f-386de33eddf0"},"vehicle_type_id":"4","last_reported":1719339083,"current_range_meters":28800,"station_id":"ce4bgt92rcd13ifvqcg0","pricing_plan_id":"cebpf4jnsgd1na2vs0mg"},{"bike_id":"53a535c7-fdb9-42cf-9da1-8b74f8bd9018","system_id":"levelo_inurba_marseille","lat":43.311125,"lon":5.377624,"is_reserved":false,"is_disabled":false,"rental_uris":{"android":"levelo://app?vid=53a535c7-fdb9-42cf-9da1-8b74f8bd9018","ios":"levelo://app?vid=53a535c7-fdb9-42cf-9da1-8b74f8bd9018"},"vehicle_type_id":"4","last_reported":1719339083,"current_range_meters":19200,"station_id":"ce4bgt92rcd13ifvqcg0","pricing_plan_id":"cebpf4jnsgd1na2vs0mg"},{"bike_id":"156fd94b-9015-48b8-8192-11cefb74f839","system_id":"levelo_inurba_marseille","lat":43.307905,"lon":5.376374,"is_reserved":false,"is_disabled":false,"rental_uris":{"android":"levelo://app?vid=156fd94b-9015-48b8-8192-11cefb74f839","ios":"levelo://app?vid=156fd94b-9015-48b8-8192-11cefb74f839"},"vehicle_type_id":"4","last_reported":1719339083,"current_range_meters":16400,"station_id":"ce4bgv92rcd13ifvqcq0","pricing_plan_id":"cebpf4jnsgd1na2vs0mg"},{"bike_id":"85980243-ad40-4fa9-a8dd-08fcfb4f8d20","system_id":"levelo_inurba_marseille","lat":43.307945,"lon":5.376487,"is_reserved":false,"is_disabled":false,"rental_uris":{"android":"levelo://app?vid=85980243-ad40-4fa9-a8dd-08fcfb4f8d20","ios":"levelo://app?vid=85980243-ad40-4fa9-a8dd-08fcfb4f8d20"},"vehicle_type_id":"4","last_reported":1719339083,"current_range_meters":12400,"station_id":"ce4bgv92rcd13ifvqcq0","pricing_plan_id":"cebpf4jnsgd1na2vs0mg"},{"bike_id":"d4096dc3-2445-4c93-89fb-c839768053b3","system_id":"levelo_inurba_marseille","lat":43.307945,"lon":5.376487,"is_reserved":false,"is_disabled":false,"rental_uris":{"android":"levelo://app?vid=d4096dc3-2445-4c93-89fb-c839768053b3","ios":"levelo://app?vid=d4096dc3-2445-4c93-89fb-c839768053b3"},"vehicle_type_id":"4","last_reported":1719339083,"current_range_meters":3200,"station_id":"ce4bgv92rcd13ifvqcq0","pricing_plan_id":"cebpf4jnsgd1na2vs0mg"},{"bike_id":"2bbb5117-c361-439e-9070-abed429f1edc","system_id":"levelo_inurba_marseille","lat":43.305281,"lon":5.37334,"is_reserved":false,"is_disabled":false,"rental_uris":{"android":"levelo://app?vid=2bbb5117-c361-439e-9070-abed429f1edc","ios":"levelo://app?vid=2bbb5117-c361-439e-9070-abed429f1edc"},"vehicle_type_id":"4","last_reported":1719339083,"current_range_meters":0,"station_id":"","pricing_plan_id":"cebpf4jnsgd1na2vs0mg"},{"bike_id":"ecda3319-64c0-4e54-81c2-0f4f51d703b1","system_id":"levelo_inurba_marseille","lat":43.31712,"lon":5.37749,"is_reserved":false,"is_disabled":false,"rental_uris":{"android":"levelo://app?vid=ecda3319-64c0-4e54-81c2-0f4f51d703b1","ios":"levelo://app?vid=ecda3319-64c0-4e54-81c2-0f4f51d703b1"},"vehicle_type_id":"4","last_reported":1719339083,"current_range_meters":22400,"station_id":"ce4bgth2rcd13ifvqch0","pricing_plan_id":"cebpf4jnsgd1na2vs0mg"},{"bike_id":"5fbf7498-6341-48b7-a882-e4f48f08448b","system_id":"levelo_inurba_marseille","lat":43.315289,"lon":5.380349,"is_reserved":false,"is_disabled":false,"rental_uris":{"android":"levelo://app?vid=5fbf7498-6341-48b7-a882-e4f48f08448b","ios":"levelo://app?vid=5fbf7498-6341-48b7-a882-e4f48f08448b"},"vehicle_type_id":"4","last_reported":1719339083,"current_range_meters":29600,"station_id":"ce4bhsp2rcd13ifvqi50","pricing_plan_id":"cebpf4jnsgd1na2vs0mg"},{"bike_id":"c9e52cb7-f3bd-4dba-8340-b239305e73de","system_id":"levelo_inurba_marseille","lat":43.315289,"lon":5.380349,"is_reserved":false,"is_disabled":false,"rental_uris":{"android":"levelo://app?vid=c9e52cb7-f3bd-4dba-8340-b239305e73de","ios":"levelo://app?vid=c9e52cb7-f3bd-4dba-8340-b239305e73de"},"vehicle_type_id":"4","last_reported":1719339083,"current_range_meters":9600,"station_id":"ce4bhsp2rcd13ifvqi50","pricing_plan_id":"cebpf4jnsgd1na2vs0mg"},{"bike_id":"05f82b5c-8a9a-4abc-ac36-39c007a170c6","system_id":"levelo_inurba_marseille","lat":43.301939,"lon":5.366286,"is_reserved":false,"is_disabled":false,"rental_uris":{"android":"levelo://app?vid=05f82b5c-8a9a-4abc-ac36-39c007a170c6","ios":"levelo://app?vid=05f82b5c-8a9a-4abc-ac36-39c007a170c6"},"vehicle_type_id":"4","last_reported":1719339083,"current_range_meters":30400,"station_id":"ce4bgrh2rcd13ifvqc8g","pricing_plan_id":"cebpf4jnsgd1na2vs0mg"},{"bike_id":"f06d95e6-72a6-4c12-a11a-e313d3e12d5a","system_id":"levelo_inurba_marseille","lat":43.304606,"lon":5.379026,"is_reserved":false,"is_disabled":false,"rental_uris":{"android":"levelo://app?vid=f06d95e6-72a6-4c12-a11a-e313d3e12d5a","ios":"levelo://app?vid=f06d95e6-72a6-4c12-a11a-e313d3e12d5a"},"vehicle_type_id":"4","last_reported":1719339083,"current_range_meters":0,"station_id":"ce4bgup2rcd13ifvqcn0","pricing_plan_id":"cebpf4jnsgd1na2vs0mg"},{"bike_id":"0de6d4f8-3265-44d7-82f6-ff968da3045d","system_id":"levelo_inurba_marseille","lat":43.302784,"lon":5.377158,"is_reserved":false,"is_disabled":false,"rental_uris":{"android":"levelo://app?vid=0de6d4f8-3265-44d7-82f6-ff968da3045d","ios":"levelo://app?vid=0de6d4f8-3265-44d7-82f6-ff968da3045d"},"vehicle_type_id":"4","last_reported":1719339083,"current_range_meters":8400,"station_id":"ce4bguh2rcd13ifvqcj0","pricing_plan_id":"cebpf4jnsgd1na2vs0mg"},{"bike_id":"1bf3ced7-4c13-411f-9c01-29d6d7e75003","system_id":"levelo_inurba_marseille","lat":43.30143,"lon":5.37413,"is_reserved":false,"is_disabled":false,"rental_uris":{"android":"levelo://app?vid=1bf3ced7-4c13-411f-9c01-29d6d7e75003","ios":"levelo://app?vid=1bf3ced7-4c13-411f-9c01-29d6d7e75003"},"vehicle_type_id":"4","last_reported":1719339083,"current_range_meters":31200,"station_id":"ce4bgs92rcd13ifvqcc0","pricing_plan_id":"cebpf4jnsgd1na2vs0mg"},{"bike_id":"7fdabcf8-c7de-4b53-bfa8-2c01b1018977","system_id":"levelo_inurba_marseille","lat":43.31992,"lon":5.38157,"is_reserved":false,"is_disabled":false,"rental_uris":{"android":"levelo://app?vid=7fdabcf8-c7de-4b53-bfa8-2c01b1018977","ios":"levelo://app?vid=7fdabcf8-c7de-4b53-bfa8-2c01b1018977"},"vehicle_type_id":"4","last_reported":1719339083,"current_range_meters":19200,"station_id":"ce4bhr12rcd13ifvqhpg","pricing_plan_id":"cebpf4jnsgd1na2vs0mg"},{"bike_id":"4377abab-0adb-42f8-a38d-b4e0c8001b86","system_id":"levelo_inurba_marseille","lat":43.319935,"lon":5.381699,"is_reserved":false,"is_disabled":false,"rental_uris":{"android":"levelo://app?vid=4377abab-0adb-42f8-a38d-b4e0c8001b86","ios":"levelo://app?vid=4377abab-0adb-42f8-a38d-b4e0c8001b86"},"vehicle_type_id":"4","last_reported":1719339083,"current_range_meters":15600,"station_id":"ce4bhr12rcd13ifvqhpg","pricing_plan_id":"cebpf4jnsgd1na2vs0mg"},{"bike_id":"b2b4c810-2b2d-4af9-aa32-350406c11854","system_id":"levelo_inurba_marseille","lat":43.313571,"lon":5.384829,"is_reserved":false,"is_disabled":false,"rental_uris":{"android":"levelo://app?vid=b2b4c810-2b2d-4af9-aa32-350406c11854","ios":"levelo://app?vid=b2b4c810-2b2d-4af9-aa32-350406c11854"},"vehicle_type_id":"4","last_reported":1719339083,"current_range_meters":8800,"station_id":"ce4bgt92rcd13ifvqcf0","pricing_plan_id":"cebpf4jnsgd1na2vs0mg"},{"bike_id":"3772f7b8-44e6-412e-91b8-f724614ac4ff","system_id":"levelo_inurba_marseille","lat":43.313571,"lon":5.384829,"is_reserved":false,"is_disabled":false,"rental_uris":{"android":"levelo://app?vid=3772f7b8-44e6-412e-91b8-f724614ac4ff","ios":"levelo://app?vid=3772f7b8-44e6-412e-91b8-f724614ac4ff"},"vehicle_type_id":"4","last_reported":1719339083,"current_range_meters":800,"station_id":"ce4bgt92rcd13ifvqcf0","pricing_plan_id":"cebpf4jnsgd1na2vs0mg"},{"bike_id":"5c29b6ae-9682-41bd-be1e-b1840a806d49","system_id":"levelo_inurba_marseille","lat":43.313571,"lon":5.384829,"is_reserved":false,"is_disabled":false,"rental_uris":{"android":"levelo://app?vid=5c29b6ae-9682-41bd-be1e-b1840a806d49","ios":"levelo://app?vid=5c29b6ae-9682-41bd-be1e-b1840a806d49"},"vehicle_type_id":"4","last_reported":1719339083,"current_range_meters":4000,"station_id":"ce4bgt92rcd13ifvqcf0","pricing_plan_id":"cebpf4jnsgd1na2vs0mg"},{"bike_id":"f1e3c460-33ce-403a-bb03-8a7f5ddb53e3","system_id":"levelo_inurba_marseille","lat":43.29892,"lon":5.364707,"is_reserved":false,"is_disabled":false,"rental_uris":{"android":"levelo://app?vid=f1e3c460-33ce-403a-bb03-8a7f5ddb53e3","ios":"levelo://app?vid=f1e3c460-33ce-403a-bb03-8a7f5ddb53e3"},"vehicle_type_id":"4","last_reported":1719339083,"current_range_meters":22400,"station_id":"","pricing_plan_id":"cebpf4jnsgd1na2vs0mg"},{"bike_id":"0ac34d10-96e1-4ac0-9782-10b118adb7b7","system_id":"levelo_inurba_marseille","lat":43.29863,"lon":5.36749,"is_reserved":false,"is_disabled":false,"rental_uris":{"android":"levelo://app?vid=0ac34d10-96e1-4ac0-9782-10b118adb7b7","ios":"levelo://app?vid=0ac34d10-96e1-4ac0-9782-10b118adb7b7"},"vehicle_type_id":"4","last_reported":1719339083,"current_range_meters":8400,"station_id":"","pricing_plan_id":"cebpf4jnsgd1na2vs0mg"},{"bike_id":"a7055bcf-2f21-437e-80dc-3c75a48ff42d","system_id":"levelo_inurba_marseille","lat":43.298433,"lon":5.362774,"is_reserved":false,"is_disabled":false,"rental_uris":{"android":"levelo://app?vid=a7055bcf-2f21-437e-80dc-3c75a48ff42d","ios":"levelo://app?vid=a7055bcf-2f21-437e-80dc-3c75a48ff42d"},"vehicle_type_id":"4","last_reported":1719339083,"current_range_meters":6000,"station_id":"ce4bgpp2rcd13ifvqc3g","pricing_plan_id":"cebpf4jnsgd1na2vs0mg"},{"bike_id":"bf25e15b-559b-4508-bd4a-54c1d38ec04a","system_id":"levelo_inurba_marseille","lat":43.299243,"lon":5.374807,"is_reserved":false,"is_disabled":false,"rental_uris":{"android":"levelo://app?vid=bf25e15b-559b-4508-bd4a-54c1d38ec04a","ios":"levelo://app?vid=bf25e15b-559b-4508-bd4a-54c1d38ec04a"},"vehicle_type_id":"4","last_reported":1719339083,"current_range_meters":30800,"station_id":"ce4bgjh2rcd13ifvqbg0","pricing_plan_id":"cebpf4jnsgd1na2vs0mg"},{"bike_id":"7846cd6b-fa4d-4efb-980b-d2e6a6e7704f","system_id":"levelo_inurba_marseille","lat":43.311722,"lon":5.387247,"is_reserved":false,"is_disabled":false,"rental_uris":{"android":"levelo://app?vid=7846cd6b-fa4d-4efb-980b-d2e6a6e7704f","ios":"levelo://app?vid=7846cd6b-fa4d-4efb-980b-d2e6a6e7704f"},"vehicle_type_id":"4","last_reported":1719339083,"current_range_meters":26400,"station_id":"ce4bgv12rcd13ifvqcp0","pricing_plan_id":"cebpf4jnsgd1na2vs0mg"},{"bike_id":"219545e9-c50f-4466-b46c-975385f7a8ea","system_id":"levelo_inurba_marseille","lat":43.311722,"lon":5.387247,"is_reserved":false,"is_disabled":false,"rental_uris":{"android":"levelo://app?vid=219545e9-c50f-4466-b46c-975385f7a8ea","ios":"levelo://app?vid=219545e9-c50f-4466-b46c-975385f7a8ea"},"vehicle_type_id":"4","last_reported":1719339083,"current_range_meters":21600,"station_id":"ce4bgv12rcd13ifvqcp0","pricing_plan_id":"cebpf4jnsgd1na2vs0mg"},{"bike_id":"864b6c27-bcb9-4cab-a86d-830cc1fd44d6","system_id":"levelo_inurba_marseille","lat":43.311722,"lon":5.387247,"is_reserved":false,"is_disabled":false,"rental_uris":{"android":"levelo://app?vid=864b6c27-bcb9-4cab-a86d-830cc1fd44d6","ios":"levelo://app?vid=864b6c27-bcb9-4cab-a86d-830cc1fd44d6"},"vehicle_type_id":"4","last_reported":1719339083,"current_range_meters":8000,"station_id":"ce4bgv12rcd13ifvqcp0","pricing_plan_id":"cebpf4jnsgd1na2vs0mg"},{"bike_id":"3c7d8cbe-d0e8-41aa-8b95-94b5e718f23c","system_id":"levelo_inurba_marseille","lat":43.311722,"lon":5.387247,"is_reserved":false,"is_disabled":false,"rental_uris":{"android":"levelo://app?vid=3c7d8cbe-d0e8-41aa-8b95-94b5e718f23c","ios":"levelo://app?vid=3c7d8cbe-d0e8-41aa-8b95-94b5e718f23c"},"vehicle_type_id":"4","last_reported":1719339083,"current_range_meters":0,"station_id":"ce4bgv12rcd13ifvqcp0","pricing_plan_id":"cebpf4jnsgd1na2vs0mg"},{"bike_id":"c832b964-5d0b-46f5-8e11-735d97946ebc","system_id":"levelo_inurba_marseille","lat":43.31185,"lon":5.38718,"is_reserved":false,"is_disabled":false,"rental_uris":{"android":"levelo://app?vid=c832b964-5d0b-46f5-8e11-735d97946ebc","ios":"levelo://app?vid=c832b964-5d0b-46f5-8e11-735d97946ebc"},"vehicle_type_id":"4","last_reported":1719339083,"current_range_meters":1600,"station_id":"ce4bgv12rcd13ifvqcp0","pricing_plan_id":"cebpf4jnsgd1na2vs0mg"},{"bike_id":"e80482a8-de3f-4fc8-b791-ce21038e8b5e","system_id":"levelo_inurba_marseille","lat":43.311703,"lon":5.387228,"is_reserved":false,"is_disabled":false,"rental_uris":{"android":"levelo://app?vid=e80482a8-de3f-4fc8-b791-ce21038e8b5e","ios":"levelo://app?vid=e80482a8-de3f-4fc8-b791-ce21038e8b5e"},"vehicle_type_id":"4","last_reported":1719339083,"current_range_meters":19200,"station_id":"ce4bgv12rcd13ifvqcp0","pricing_plan_id":"cebpf4jnsgd1na2vs0mg"},{"bike_id":"ef4e475d-5be1-4696-a4dc-64caaab9ca44","system_id":"levelo_inurba_marseille","lat":43.322872,"lon":5.382756,"is_reserved":false,"is_disabled":false,"rental_uris":{"android":"levelo://app?vid=ef4e475d-5be1-4696-a4dc-64caaab9ca44","ios":"levelo://app?vid=ef4e475d-5be1-4696-a4dc-64caaab9ca44"},"vehicle_type_id":"4","last_reported":1719339083,"current_range_meters":21200,"station_id":"ce4bhr12rcd13ifvqhqg","pricing_plan_id":"cebpf4jnsgd1na2vs0mg"},{"bike_id":"a8d2dcd1-4217-4374-b308-ea5d5dbd0f22","system_id":"levelo_inurba_marseille","lat":43.297163,"lon":5.365866,"is_reserved":false,"is_disabled":false,"rental_uris":{"android":"levelo://app?vid=a8d2dcd1-4217-4374-b308-ea5d5dbd0f22","ios":"levelo://app?vid=a8d2dcd1-4217-4374-b308-ea5d5dbd0f22"},"vehicle_type_id":"4","last_reported":1719339083,"current_range_meters":16000,"station_id":"ce4bgn12rcd13ifvqbt0","pricing_plan_id":"cebpf4jnsgd1na2vs0mg"},{"bike_id":"17db78dd-08b6-43e1-98d3-a5851899fbcf","system_id":"levelo_inurba_marseille","lat":43.297163,"lon":5.365866,"is_reserved":false,"is_disabled":false,"rental_uris":{"android":"levelo://app?vid=17db78dd-08b6-43e1-98d3-a5851899fbcf","ios":"levelo://app?vid=17db78dd-08b6-43e1-98d3-a5851899fbcf"},"vehicle_type_id":"4","last_reported":1719339083,"current_range_meters":7600,"station_id":"ce4bgn12rcd13ifvqbt0","pricing_plan_id":"cebpf4jnsgd1na2vs0mg"},{"bike_id":"e947e885-c14a-4c3e-8705-9c919dcf5cde","system_id":"levelo_inurba_marseille","lat":43.297163,"lon":5.365866,"is_reserved":false,"is_disabled":false,"rental_uris":{"android":"levelo://app?vid=e947e885-c14a-4c3e-8705-9c919dcf5cde","ios":"levelo://app?vid=e947e885-c14a-4c3e-8705-9c919dcf5cde"},"vehicle_type_id":"4","last_reported":1719339083,"current_range_meters":4800,"station_id":"ce4bgn12rcd13ifvqbt0","pricing_plan_id":"cebpf4jnsgd1na2vs0mg"},{"bike_id":"b7ba28a9-6070-4547-ab8f-587a7f08c9ba","system_id":"levelo_inurba_marseille","lat":43.297163,"lon":5.365866,"is_reserved":false,"is_disabled":false,"rental_uris":{"android":"levelo://app?vid=b7ba28a9-6070-4547-ab8f-587a7f08c9ba","ios":"levelo://app?vid=b7ba28a9-6070-4547-ab8f-587a7f08c9ba"},"vehicle_type_id":"4","last_reported":1719339083,"current_range_meters":26800,"station_id":"ce4bgn12rcd13ifvqbt0","pricing_plan_id":"cebpf4jnsgd1na2vs0mg"},{"bike_id":"8a3dee68-befb-495c-8c53-779d24084da1","system_id":"levelo_inurba_marseille","lat":43.297052,"lon":5.365448,"is_reserved":false,"is_disabled":false,"rental_uris":{"android":"levelo://app?vid=8a3dee68-befb-495c-8c53-779d24084da1","ios":"levelo://app?vid=8a3dee68-befb-495c-8c53-779d24084da1"},"vehicle_type_id":"4","last_reported":1719339083,"current_range_meters":26800,"station_id":"ce4bgn12rcd13ifvqbt0","pricing_plan_id":"cebpf4jnsgd1na2vs0mg"},{"bike_id":"4f23d447-49c0-4916-b5e2-723c6de610d4","system_id":"levelo_inurba_marseille","lat":43.297163,"lon":5.365866,"is_reserved":false,"is_disabled":false,"rental_uris":{"android":"levelo://app?vid=4f23d447-49c0-4916-b5e2-723c6de610d4","ios":"levelo://app?vid=4f23d447-49c0-4916-b5e2-723c6de610d4"},"vehicle_type_id":"4","last_reported":1719339083,"current_range_meters":14000,"station_id":"ce4bgn12rcd13ifvqbt0","pricing_plan_id":"cebpf4jnsgd1na2vs0mg"},{"bike_id":"a4766a7b-36d9-4490-9e0c-5251e8762dca","system_id":"levelo_inurba_marseille","lat":43.2968,"lon":5.37291,"is_reserved":false,"is_disabled":false,"rental_uris":{"android":"levelo://app?vid=a4766a7b-36d9-4490-9e0c-5251e8762dca","ios":"levelo://app?vid=a4766a7b-36d9-4490-9e0c-5251e8762dca"},"vehicle_type_id":"4","last_reported":1719339083,"current_range_meters":0,"station_id":"ce4bgk12rcd13ifvqbj0","pricing_plan_id":"cebpf4jnsgd1na2vs0mg"},{"bike_id":"3b2100d0-f907-40b5-81b1-2c9fa9954931","system_id":"levelo_inurba_marseille","lat":43.297163,"lon":5.365866,"is_reserved":false,"is_disabled":false,"rental_uris":{"android":"levelo://app?vid=3b2100d0-f907-40b5-81b1-2c9fa9954931","ios":"levelo://app?vid=3b2100d0-f907-40b5-81b1-2c9fa9954931"},"vehicle_type_id":"4","last_reported":1719339083,"current_range_meters":26800,"station_id":"ce4bgn12rcd13ifvqbt0","pricing_plan_id":"cebpf4jnsgd1na2vs0mg"},{"bike_id":"1025c0cd-481e-4306-ae7e-737692324fd8","system_id":"levelo_inurba_marseille","lat":43.296131,"lon":5.370773,"is_reserved":false,"is_disabled":false,"rental_uris":{"android":"levelo://app?vid=1025c0cd-481e-4306-ae7e-737692324fd8","ios":"levelo://app?vid=1025c0cd-481e-4306-ae7e-737692324fd8"},"vehicle_type_id":"4","last_reported":1719339083,"current_range_meters":29600,"station_id":"ce4bgnh2rcd13ifvqc0g","pricing_plan_id":"cebpf4jnsgd1na2vs0mg"},{"bike_id":"fc15985a-1552-4847-8b16-d3959476b912","system_id":"levelo_inurba_marseille","lat":43.296131,"lon":5.370791,"is_reserved":false,"is_disabled":false,"rental_uris":{"android":"levelo://app?vid=fc15985a-1552-4847-8b16-d3959476b912","ios":"levelo://app?vid=fc15985a-1552-4847-8b16-d3959476b912"},"vehicle_type_id":"4","last_reported":1719339083,"current_range_meters":30400,"station_id":"ce4bgnh2rcd13ifvqc0g","pricing_plan_id":"cebpf4jnsgd1na2vs0mg"},{"bike_id":"d5ce278c-68a8-4fc4-b3ad-3a8e98d8c4ca","system_id":"levelo_inurba_marseille","lat":43.296129,"lon":5.370777,"is_reserved":false,"is_disabled":false,"rental_uris":{"android":"levelo://app?vid=d5ce278c-68a8-4fc4-b3ad-3a8e98d8c4ca","ios":"levelo://app?vid=d5ce278c-68a8-4fc4-b3ad-3a8e98d8c4ca"},"vehicle_type_id":"4","last_reported":1719339083,"current_range_meters":17200,"station_id":"ce4bgnh2rcd13ifvqc0g","pricing_plan_id":"cebpf4jnsgd1na2vs0mg"},{"bike_id":"09ac5cc4-aff0-4902-b623-ae957b9d921e","system_id":"levelo_inurba_marseille","lat":43.295823,"lon":5.367427,"is_reserved":false,"is_disabled":false,"rental_uris":{"android":"levelo://app?vid=09ac5cc4-aff0-4902-b623-ae957b9d921e","ios":"levelo://app?vid=09ac5cc4-aff0-4902-b623-ae957b9d921e"},"vehicle_type_id":"4","last_reported":1719339083,"current_range_meters":21200,"station_id":"ce4bgph2rcd13ifvqc2g","pricing_plan_id":"cebpf4jnsgd1na2vs0mg"},{"bike_id":"bf010151-774e-4b47-b67a-05f4f402b84b","system_id":"levelo_inurba_marseille","lat":43.29573,"lon":5.367355,"is_reserved":false,"is_disabled":false,"rental_uris":{"android":"levelo://app?vid=bf010151-774e-4b47-b67a-05f4f402b84b","ios":"levelo://app?vid=bf010151-774e-4b47-b67a-05f4f402b84b"},"vehicle_type_id":"4","last_reported":1719339083,"current_range_meters":15200,"station_id":"ce4bgph2rcd13ifvqc2g","pricing_plan_id":"cebpf4jnsgd1na2vs0mg"},{"bike_id":"5c37d585-6772-4b11-ba1c-0c73ea331e49","system_id":"levelo_inurba_marseille","lat":43.30944,"lon":5.39005,"is_reserved":false,"is_disabled":false,"rental_uris":{"android":"levelo://app?vid=5c37d585-6772-4b11-ba1c-0c73ea331e49","ios":"levelo://app?vid=5c37d585-6772-4b11-ba1c-0c73ea331e49"},"vehicle_type_id":"4","last_reported":1719339083,"current_range_meters":20400,"station_id":"ce4bgup2rcd13ifvqco0","pricing_plan_id":"cebpf4jnsgd1na2vs0mg"},{"bike_id":"8e4324fa-1b43-473a-90db-a07f4448ac49","system_id":"levelo_inurba_marseille","lat":43.302008,"lon":5.394694,"is_reserved":false,"is_disabled":false,"rental_uris":{"android":"levelo://app?vid=8e4324fa-1b43-473a-90db-a07f4448ac49","ios":"levelo://app?vid=8e4324fa-1b43-473a-90db-a07f4448ac49"},"vehicle_type_id":"4","last_reported":1719339083,"current_range_meters":22800,"station_id":"ce4bh0p2rcd13ifvqd70","pricing_plan_id":"cebpf4jnsgd1na2vs0mg"},{"bike_id":"e2cdce92-f732-4360-b3d2-15a27ae9cba2","system_id":"levelo_inurba_marseille","lat":43.296935,"lon":5.376544,"is_reserved":false,"is_disabled":false,"rental_uris":{"android":"levelo://app?vid=e2cdce92-f732-4360-b3d2-15a27ae9cba2","ios":"levelo://app?vid=e2cdce92-f732-4360-b3d2-15a27ae9cba2"},"vehicle_type_id":"4","last_reported":1719339083,"current_range_meters":0,"station_id":"ce4bgkh2rcd13ifvqbl0","pricing_plan_id":"cebpf4jnsgd1na2vs0mg"},{"bike_id":"d0dd8aeb-0c72-4b2b-a893-1f63d44c2f4f","system_id":"levelo_inurba_marseille","lat":43.309589,"lon":5.390258,"is_reserved":false,"is_disabled":false,"rental_uris":{"android":"levelo://app?vid=d0dd8aeb-0c72-4b2b-a893-1f63d44c2f4f","ios":"levelo://app?vid=d0dd8aeb-0c72-4b2b-a893-1f63d44c2f4f"},"vehicle_type_id":"4","last_reported":1719339083,"current_range_meters":19200,"station_id":"ce4bgup2rcd13ifvqco0","pricing_plan_id":"cebpf4jnsgd1na2vs0mg"},{"bike_id":"bf63698c-ab68-4cad-ac29-05d9241a4aba","system_id":"levelo_inurba_marseille","lat":43.30948,"lon":5.39025,"is_reserved":false,"is_disabled":false,"rental_uris":{"android":"levelo://app?vid=bf63698c-ab68-4cad-ac29-05d9241a4aba","ios":"levelo://app?vid=bf63698c-ab68-4cad-ac29-05d9241a4aba"},"vehicle_type_id":"4","last_reported":1719339083,"current_range_meters":10800,"station_id":"ce4bgup2rcd13ifvqco0","pricing_plan_id":"cebpf4jnsgd1na2vs0mg"},{"bike_id":"e90502f8-fc31-4ee9-ad12-a3222ac0d641","system_id":"levelo_inurba_marseille","lat":43.309589,"lon":5.390258,"is_reserved":false,"is_disabled":false,"rental_uris":{"android":"levelo://app?vid=e90502f8-fc31-4ee9-ad12-a3222ac0d641","ios":"levelo://app?vid=e90502f8-fc31-4ee9-ad12-a3222ac0d641"},"vehicle_type_id":"4","last_reported":1719339083,"current_range_meters":28400,"station_id":"ce4bgup2rcd13ifvqco0","pricing_plan_id":"cebpf4jnsgd1na2vs0mg"},{"bike_id":"38da8490-0e99-42b2-95d6-5bffc92d256d","system_id":"levelo_inurba_marseille","lat":43.309589,"lon":5.390258,"is_reserved":false,"is_disabled":false,"rental_uris":{"android":"levelo://app?vid=38da8490-0e99-42b2-95d6-5bffc92d256d","ios":"levelo://app?vid=38da8490-0e99-42b2-95d6-5bffc92d256d"},"vehicle_type_id":"4","last_reported":1719339083,"current_range_meters":30000,"station_id":"ce4bgup2rcd13ifvqco0","pricing_plan_id":"cebpf4jnsgd1na2vs0mg"},{"bike_id":"63ec9f05-434d-4100-89b2-2e75d25c6e31","system_id":"levelo_inurba_marseille","lat":43.309567,"lon":5.39029,"is_reserved":false,"is_disabled":false,"rental_uris":{"android":"levelo://app?vid=63ec9f05-434d-4100-89b2-2e75d25c6e31","ios":"levelo://app?vid=63ec9f05-434d-4100-89b2-2e75d25c6e31"},"vehicle_type_id":"4","last_reported":1719339083,"current_range_meters":11200,"station_id":"ce4bgup2rcd13ifvqco0","pricing_plan_id":"cebpf4jnsgd1na2vs0mg"},{"bike_id":"d648ff01-7072-4e45-9aa3-3a3191a24e1d","system_id":"levelo_inurba_marseille","lat":43.3095,"lon":5.39028,"is_reserved":false,"is_disabled":false,"rental_uris":{"android":"levelo://app?vid=d648ff01-7072-4e45-9aa3-3a3191a24e1d","ios":"levelo://app?vid=d648ff01-7072-4e45-9aa3-3a3191a24e1d"},"vehicle_type_id":"4","last_reported":1719339083,"current_range_meters":22000,"station_id":"ce4bgup2rcd13ifvqco0","pricing_plan_id":"cebpf4jnsgd1na2vs0mg"},{"bike_id":"e601dee1-ff2c-4a05-a02a-c05a2f33e069","system_id":"levelo_inurba_marseille","lat":43.309589,"lon":5.390258,"is_reserved":false,"is_disabled":false,"rental_uris":{"android":"levelo://app?vid=e601dee1-ff2c-4a05-a02a-c05a2f33e069","ios":"levelo://app?vid=e601dee1-ff2c-4a05-a02a-c05a2f33e069"},"vehicle_type_id":"4","last_reported":1719339083,"current_range_meters":14800,"station_id":"ce4bgup2rcd13ifvqco0","pricing_plan_id":"cebpf4jnsgd1na2vs0mg"},{"bike_id":"32e6c6ab-498e-4051-89ac-aeffefab4107","system_id":"levelo_inurba_marseille","lat":43.309589,"lon":5.390258,"is_reserved":false,"is_disabled":false,"rental_uris":{"android":"levelo://app?vid=32e6c6ab-498e-4051-89ac-aeffefab4107","ios":"levelo://app?vid=32e6c6ab-498e-4051-89ac-aeffefab4107"},"vehicle_type_id":"4","last_reported":1719339083,"current_range_meters":0,"station_id":"ce4bgup2rcd13ifvqco0","pricing_plan_id":"cebpf4jnsgd1na2vs0mg"},{"bike_id":"ea280958-20eb-45a3-930d-28d35cfa4379","system_id":"levelo_inurba_marseille","lat":43.309589,"lon":5.390258,"is_reserved":false,"is_disabled":false,"rental_uris":{"android":"levelo://app?vid=ea280958-20eb-45a3-930d-28d35cfa4379","ios":"levelo://app?vid=ea280958-20eb-45a3-930d-28d35cfa4379"},"vehicle_type_id":"4","last_reported":1719339083,"current_range_meters":30000,"station_id":"ce4bgup2rcd13ifvqco0","pricing_plan_id":"cebpf4jnsgd1na2vs0mg"},{"bike_id":"6ee5280e-dda3-4df1-b4cf-586587564a2e","system_id":"levelo_inurba_marseille","lat":43.309589,"lon":5.390258,"is_reserved":false,"is_disabled":false,"rental_uris":{"android":"levelo://app?vid=6ee5280e-dda3-4df1-b4cf-586587564a2e","ios":"levelo://app?vid=6ee5280e-dda3-4df1-b4cf-586587564a2e"},"vehicle_type_id":"4","last_reported":1719339083,"current_range_meters":29600,"station_id":"ce4bgup2rcd13ifvqco0","pricing_plan_id":"cebpf4jnsgd1na2vs0mg"},{"bike_id":"936d2952-5276-4ec2-91f1-78d4a81cf73e","system_id":"levelo_inurba_marseille","lat":43.309589,"lon":5.390258,"is_reserved":false,"is_disabled":false,"rental_uris":{"android":"levelo://app?vid=936d2952-5276-4ec2-91f1-78d4a81cf73e","ios":"levelo://app?vid=936d2952-5276-4ec2-91f1-78d4a81cf73e"},"vehicle_type_id":"4","last_reported":1719339083,"current_range_meters":1200,"station_id":"ce4bgup2rcd13ifvqco0","pricing_plan_id":"cebpf4jnsgd1na2vs0mg"},{"bike_id":"006a7217-0976-4c53-bc55-0c05bc323491","system_id":"levelo_inurba_marseille","lat":43.309589,"lon":5.390258,"is_reserved":false,"is_disabled":false,"rental_uris":{"android":"levelo://app?vid=006a7217-0976-4c53-bc55-0c05bc323491","ios":"levelo://app?vid=006a7217-0976-4c53-bc55-0c05bc323491"},"vehicle_type_id":"4","last_reported":1719339083,"current_range_meters":16400,"station_id":"ce4bgup2rcd13ifvqco0","pricing_plan_id":"cebpf4jnsgd1na2vs0mg"},{"bike_id":"9f2339d1-a5de-437f-92f9-82f1ce64a6e9","system_id":"levelo_inurba_marseille","lat":43.30952,"lon":5.39034,"is_reserved":false,"is_disabled":false,"rental_uris":{"android":"levelo://app?vid=9f2339d1-a5de-437f-92f9-82f1ce64a6e9","ios":"levelo://app?vid=9f2339d1-a5de-437f-92f9-82f1ce64a6e9"},"vehicle_type_id":"4","last_reported":1719339083,"current_range_meters":0,"station_id":"ce4bgup2rcd13ifvqco0","pricing_plan_id":"cebpf4jnsgd1na2vs0mg"},{"bike_id":"773b1db4-8a63-4eac-8c4a-4c36ec40a63c","system_id":"levelo_inurba_marseille","lat":43.30946,"lon":5.39033,"is_reserved":false,"is_disabled":false,"rental_uris":{"android":"levelo://app?vid=773b1db4-8a63-4eac-8c4a-4c36ec40a63c","ios":"levelo://app?vid=773b1db4-8a63-4eac-8c4a-4c36ec40a63c"},"vehicle_type_id":"4","last_reported":1719339083,"current_range_meters":18400,"station_id":"ce4bgup2rcd13ifvqco0","pricing_plan_id":"cebpf4jnsgd1na2vs0mg"},{"bike_id":"c6349d02-82e6-4e78-bf00-fcbf2043e8b5","system_id":"levelo_inurba_marseille","lat":43.309589,"lon":5.390258,"is_reserved":false,"is_disabled":false,"rental_uris":{"android":"levelo://app?vid=c6349d02-82e6-4e78-bf00-fcbf2043e8b5","ios":"levelo://app?vid=c6349d02-82e6-4e78-bf00-fcbf2043e8b5"},"vehicle_type_id":"4","last_reported":1719339083,"current_range_meters":28000,"station_id":"ce4bgup2rcd13ifvqco0","pricing_plan_id":"cebpf4jnsgd1na2vs0mg"},{"bike_id":"731765dc-d9b0-4031-a13e-18cc1993c110","system_id":"levelo_inurba_marseille","lat":43.30952,"lon":5.39038,"is_reserved":false,"is_disabled":false,"rental_uris":{"android":"levelo://app?vid=731765dc-d9b0-4031-a13e-18cc1993c110","ios":"levelo://app?vid=731765dc-d9b0-4031-a13e-18cc1993c110"},"vehicle_type_id":"4","last_reported":1719339083,"current_range_meters":5600,"station_id":"ce4bgup2rcd13ifvqco0","pricing_plan_id":"cebpf4jnsgd1na2vs0mg"},{"bike_id":"d2a12e76-870e-4735-a962-e562c328809f","system_id":"levelo_inurba_marseille","lat":43.30958,"lon":5.3904,"is_reserved":false,"is_disabled":false,"rental_uris":{"android":"levelo://app?vid=d2a12e76-870e-4735-a962-e562c328809f","ios":"levelo://app?vid=d2a12e76-870e-4735-a962-e562c328809f"},"vehicle_type_id":"4","last_reported":1719339083,"current_range_meters":12400,"station_id":"ce4bgup2rcd13ifvqco0","pricing_plan_id":"cebpf4jnsgd1na2vs0mg"},{"bike_id":"eadd04b9-d727-4de6-9e9b-1cca2d35e3d8","system_id":"levelo_inurba_marseille","lat":43.30945,"lon":5.39041,"is_reserved":false,"is_disabled":false,"rental_uris":{"android":"levelo://app?vid=eadd04b9-d727-4de6-9e9b-1cca2d35e3d8","ios":"levelo://app?vid=eadd04b9-d727-4de6-9e9b-1cca2d35e3d8"},"vehicle_type_id":"4","last_reported":1719339083,"current_range_meters":28800,"station_id":"ce4bgup2rcd13ifvqco0","pricing_plan_id":"cebpf4jnsgd1na2vs0mg"},{"bike_id":"bf19a4d5-a1e4-4a52-b2f9-748a1037dfae","system_id":"levelo_inurba_marseille","lat":43.309589,"lon":5.390258,"is_reserved":false,"is_disabled":false,"rental_uris":{"android":"levelo://app?vid=bf19a4d5-a1e4-4a52-b2f9-748a1037dfae","ios":"levelo://app?vid=bf19a4d5-a1e4-4a52-b2f9-748a1037dfae"},"vehicle_type_id":"4","last_reported":1719339083,"current_range_meters":18800,"station_id":"ce4bgup2rcd13ifvqco0","pricing_plan_id":"cebpf4jnsgd1na2vs0mg"},{"bike_id":"ef26df30-5313-40fc-88e9-3c6c7a5d05ce","system_id":"levelo_inurba_marseille","lat":43.295748,"lon":5.37522,"is_reserved":false,"is_disabled":false,"rental_uris":{"android":"levelo://app?vid=ef26df30-5313-40fc-88e9-3c6c7a5d05ce","ios":"levelo://app?vid=ef26df30-5313-40fc-88e9-3c6c7a5d05ce"},"vehicle_type_id":"4","last_reported":1719339083,"current_range_meters":0,"station_id":"ce4bgh92rcd13ifvqb50","pricing_plan_id":"cebpf4jnsgd1na2vs0mg"},{"bike_id":"ab183362-5b71-4590-9041-f6ae02abe89c","system_id":"levelo_inurba_marseille","lat":43.29573,"lon":5.37504,"is_reserved":false,"is_disabled":false,"rental_uris":{"android":"levelo://app?vid=ab183362-5b71-4590-9041-f6ae02abe89c","ios":"levelo://app?vid=ab183362-5b71-4590-9041-f6ae02abe89c"},"vehicle_type_id":"4","last_reported":1719339083,"current_range_meters":23200,"station_id":"ce4bgh92rcd13ifvqb50","pricing_plan_id":"cebpf4jnsgd1na2vs0mg"},{"bike_id":"da03c480-6ef0-40a0-99eb-31c445e21cf2","system_id":"levelo_inurba_marseille","lat":43.29572,"lon":5.37516,"is_reserved":false,"is_disabled":false,"rental_uris":{"android":"levelo://app?vid=da03c480-6ef0-40a0-99eb-31c445e21cf2","ios":"levelo://app?vid=da03c480-6ef0-40a0-99eb-31c445e21cf2"},"vehicle_type_id":"4","last_reported":1719339083,"current_range_meters":0,"station_id":"ce4bgh92rcd13ifvqb50","pricing_plan_id":"cebpf4jnsgd1na2vs0mg"},{"bike_id":"586b5895-6bf0-4496-b816-32c4a36f2fd8","system_id":"levelo_inurba_marseille","lat":43.304278,"lon":5.388868,"is_reserved":false,"is_disabled":false,"rental_uris":{"android":"levelo://app?vid=586b5895-6bf0-4496-b816-32c4a36f2fd8","ios":"levelo://app?vid=586b5895-6bf0-4496-b816-32c4a36f2fd8"},"vehicle_type_id":"4","last_reported":1719339083,"current_range_meters":2800,"station_id":"ce4bgk12rcd13ifvqbi0","pricing_plan_id":"cebpf4jnsgd1na2vs0mg"},{"bike_id":"d1da9329-310f-400e-8821-b9be5674428d","system_id":"levelo_inurba_marseille","lat":43.304274,"lon":5.388873,"is_reserved":false,"is_disabled":false,"rental_uris":{"android":"levelo://app?vid=d1da9329-310f-400e-8821-b9be5674428d","ios":"levelo://app?vid=d1da9329-310f-400e-8821-b9be5674428d"},"vehicle_type_id":"4","last_reported":1719339083,"current_range_meters":31200,"station_id":"ce4bgk12rcd13ifvqbi0","pricing_plan_id":"cebpf4jnsgd1na2vs0mg"},{"bike_id":"f2d961e1-e679-4b99-975f-7574d54be9ff","system_id":"levelo_inurba_marseille","lat":43.29981,"lon":5.38487,"is_reserved":false,"is_disabled":false,"rental_uris":{"android":"levelo://app?vid=f2d961e1-e679-4b99-975f-7574d54be9ff","ios":"levelo://app?vid=f2d961e1-e679-4b99-975f-7574d54be9ff"},"vehicle_type_id":"4","last_reported":1719339083,"current_range_meters":2800,"station_id":"","pricing_plan_id":"cebpf4jnsgd1na2vs0mg"},{"bike_id":"215303b5-60f7-4d38-8e44-5dca8fe7c355","system_id":"levelo_inurba_marseille","lat":43.299717,"lon":5.384845,"is_reserved":false,"is_disabled":false,"rental_uris":{"android":"levelo://app?vid=215303b5-60f7-4d38-8e44-5dca8fe7c355","ios":"levelo://app?vid=215303b5-60f7-4d38-8e44-5dca8fe7c355"},"vehicle_type_id":"4","last_reported":1719339083,"current_range_meters":1200,"station_id":"ce4bgj92rcd13ifvqbd0","pricing_plan_id":"cebpf4jnsgd1na2vs0mg"},{"bike_id":"c72b28e0-85ba-4c1d-b3ee-23a919638130","system_id":"levelo_inurba_marseille","lat":43.299717,"lon":5.384845,"is_reserved":false,"is_disabled":false,"rental_uris":{"android":"levelo://app?vid=c72b28e0-85ba-4c1d-b3ee-23a919638130","ios":"levelo://app?vid=c72b28e0-85ba-4c1d-b3ee-23a919638130"},"vehicle_type_id":"4","last_reported":1719339083,"current_range_meters":400,"station_id":"ce4bgj92rcd13ifvqbd0","pricing_plan_id":"cebpf4jnsgd1na2vs0mg"},{"bike_id":"b26258f8-f358-4e04-ae54-19c588729909","system_id":"levelo_inurba_marseille","lat":43.299724,"lon":5.384848,"is_reserved":false,"is_disabled":false,"rental_uris":{"android":"levelo://app?vid=b26258f8-f358-4e04-ae54-19c588729909","ios":"levelo://app?vid=b26258f8-f358-4e04-ae54-19c588729909"},"vehicle_type_id":"4","last_reported":1719339083,"current_range_meters":0,"station_id":"ce4bgj92rcd13ifvqbd0","pricing_plan_id":"cebpf4jnsgd1na2vs0mg"},{"bike_id":"6232676c-e12d-4103-9147-397b1e098b99","system_id":"levelo_inurba_marseille","lat":43.29964,"lon":5.38496,"is_reserved":false,"is_disabled":false,"rental_uris":{"android":"levelo://app?vid=6232676c-e12d-4103-9147-397b1e098b99","ios":"levelo://app?vid=6232676c-e12d-4103-9147-397b1e098b99"},"vehicle_type_id":"4","last_reported":1719339083,"current_range_meters":0,"station_id":"ce4bgj92rcd13ifvqbd0","pricing_plan_id":"cebpf4jnsgd1na2vs0mg"},{"bike_id":"a298b1d4-5baa-4494-867a-8ca0d4de5a07","system_id":"levelo_inurba_marseille","lat":43.32369,"lon":5.38882,"is_reserved":false,"is_disabled":false,"rental_uris":{"android":"levelo://app?vid=a298b1d4-5baa-4494-867a-8ca0d4de5a07","ios":"levelo://app?vid=a298b1d4-5baa-4494-867a-8ca0d4de5a07"},"vehicle_type_id":"4","last_reported":1719339083,"current_range_meters":10400,"station_id":"ce4bhqp2rcd13ifvqhog","pricing_plan_id":"cebpf4jnsgd1na2vs0mg"},{"bike_id":"0d847c92-ecf9-4a86-b318-225aa8e3b2d4","system_id":"levelo_inurba_marseille","lat":43.32368,"lon":5.38883,"is_reserved":false,"is_disabled":false,"rental_uris":{"android":"levelo://app?vid=0d847c92-ecf9-4a86-b318-225aa8e3b2d4","ios":"levelo://app?vid=0d847c92-ecf9-4a86-b318-225aa8e3b2d4"},"vehicle_type_id":"4","last_reported":1719339083,"current_range_meters":2400,"station_id":"ce4bhqp2rcd13ifvqhog","pricing_plan_id":"cebpf4jnsgd1na2vs0mg"},{"bike_id":"d4a8501d-1187-4ab9-929b-92525f88b3f2","system_id":"levelo_inurba_marseille","lat":43.32368,"lon":5.38886,"is_reserved":false,"is_disabled":false,"rental_uris":{"android":"levelo://app?vid=d4a8501d-1187-4ab9-929b-92525f88b3f2","ios":"levelo://app?vid=d4a8501d-1187-4ab9-929b-92525f88b3f2"},"vehicle_type_id":"4","last_reported":1719339083,"current_range_meters":10800,"station_id":"ce4bhqp2rcd13ifvqhog","pricing_plan_id":"cebpf4jnsgd1na2vs0mg"},{"bike_id":"ae9eaaba-ed40-485a-9809-72efdd5eed36","system_id":"levelo_inurba_marseille","lat":43.32365,"lon":5.38891,"is_reserved":false,"is_disabled":false,"rental_uris":{"android":"levelo://app?vid=ae9eaaba-ed40-485a-9809-72efdd5eed36","ios":"levelo://app?vid=ae9eaaba-ed40-485a-9809-72efdd5eed36"},"vehicle_type_id":"4","last_reported":1719339083,"current_range_meters":15200,"station_id":"ce4bhqp2rcd13ifvqhog","pricing_plan_id":"cebpf4jnsgd1na2vs0mg"},{"bike_id":"ac196284-48b1-49bf-aa29-00b2a77da4d4","system_id":"levelo_inurba_marseille","lat":43.301961,"lon":5.389424,"is_reserved":false,"is_disabled":false,"rental_uris":{"android":"levelo://app?vid=ac196284-48b1-49bf-aa29-00b2a77da4d4","ios":"levelo://app?vid=ac196284-48b1-49bf-aa29-00b2a77da4d4"},"vehicle_type_id":"4","last_reported":1719339083,"current_range_meters":13200,"station_id":"","pricing_plan_id":"cebpf4jnsgd1na2vs0mg"},{"bike_id":"06cc1a3c-cbd4-4204-8911-0c5bfcd12db4","system_id":"levelo_inurba_marseille","lat":43.29601,"lon":5.381084,"is_reserved":false,"is_disabled":false,"rental_uris":{"android":"levelo://app?vid=06cc1a3c-cbd4-4204-8911-0c5bfcd12db4","ios":"levelo://app?vid=06cc1a3c-cbd4-4204-8911-0c5bfcd12db4"},"vehicle_type_id":"4","last_reported":1719339083,"current_range_meters":20000,"station_id":"ce4bgl12rcd13ifvqbo0","pricing_plan_id":"cebpf4jnsgd1na2vs0mg"},{"bike_id":"d079dbb1-6d45-4111-a2a5-a5e7a0f4f58e","system_id":"levelo_inurba_marseille","lat":43.29602,"lon":5.381084,"is_reserved":false,"is_disabled":false,"rental_uris":{"android":"levelo://app?vid=d079dbb1-6d45-4111-a2a5-a5e7a0f4f58e","ios":"levelo://app?vid=d079dbb1-6d45-4111-a2a5-a5e7a0f4f58e"},"vehicle_type_id":"4","last_reported":1719339083,"current_range_meters":8800,"station_id":"ce4bgl12rcd13ifvqbo0","pricing_plan_id":"cebpf4jnsgd1na2vs0mg"},{"bike_id":"dde9357c-fec4-4389-b868-7b13bb84e581","system_id":"levelo_inurba_marseille","lat":43.29604,"lon":5.38108,"is_reserved":false,"is_disabled":false,"rental_uris":{"android":"levelo://app?vid=dde9357c-fec4-4389-b868-7b13bb84e581","ios":"levelo://app?vid=dde9357c-fec4-4389-b868-7b13bb84e581"},"vehicle_type_id":"4","last_reported":1719339083,"current_range_meters":18400,"station_id":"ce4bgl12rcd13ifvqbo0","pricing_plan_id":"cebpf4jnsgd1na2vs0mg"},{"bike_id":"eaa15253-4bd9-4409-8dbc-024122ddb652","system_id":"levelo_inurba_marseille","lat":43.293249,"lon":5.371578,"is_reserved":false,"is_disabled":false,"rental_uris":{"android":"levelo://app?vid=eaa15253-4bd9-4409-8dbc-024122ddb652","ios":"levelo://app?vid=eaa15253-4bd9-4409-8dbc-024122ddb652"},"vehicle_type_id":"4","last_reported":1719339083,"current_range_meters":6800,"station_id":"ce4bgh92rcd13ifvqb40","pricing_plan_id":"cebpf4jnsgd1na2vs0mg"},{"bike_id":"7a63a2fd-0c73-4297-91ba-971fcf317c01","system_id":"levelo_inurba_marseille","lat":43.29312,"lon":5.37166,"is_reserved":false,"is_disabled":false,"rental_uris":{"android":"levelo://app?vid=7a63a2fd-0c73-4297-91ba-971fcf317c01","ios":"levelo://app?vid=7a63a2fd-0c73-4297-91ba-971fcf317c01"},"vehicle_type_id":"4","last_reported":1719339083,"current_range_meters":1600,"station_id":"ce4bgh92rcd13ifvqb40","pricing_plan_id":"cebpf4jnsgd1na2vs0mg"},{"bike_id":"d8ce9070-8963-4c02-aac5-66b8106c9d87","system_id":"levelo_inurba_marseille","lat":43.29279,"lon":5.3684,"is_reserved":false,"is_disabled":false,"rental_uris":{"android":"levelo://app?vid=d8ce9070-8963-4c02-aac5-66b8106c9d87","ios":"levelo://app?vid=d8ce9070-8963-4c02-aac5-66b8106c9d87"},"vehicle_type_id":"4","last_reported":1719339083,"current_range_meters":31200,"station_id":"ce4bhbp2rcd13ifvqesg","pricing_plan_id":"cebpf4jnsgd1na2vs0mg"},{"bike_id":"75fd495a-800f-45b9-b8c9-47b7f1d0d6bc","system_id":"levelo_inurba_marseille","lat":43.293259,"lon":5.371586,"is_reserved":false,"is_disabled":false,"rental_uris":{"android":"levelo://app?vid=75fd495a-800f-45b9-b8c9-47b7f1d0d6bc","ios":"levelo://app?vid=75fd495a-800f-45b9-b8c9-47b7f1d0d6bc"},"vehicle_type_id":"4","last_reported":1719339083,"current_range_meters":8400,"station_id":"ce4bgh92rcd13ifvqb40","pricing_plan_id":"cebpf4jnsgd1na2vs0mg"},{"bike_id":"0a841434-6333-48f1-94ed-3a6616a797f6","system_id":"levelo_inurba_marseille","lat":43.29275,"lon":5.36844,"is_reserved":false,"is_disabled":false,"rental_uris":{"android":"levelo://app?vid=0a841434-6333-48f1-94ed-3a6616a797f6","ios":"levelo://app?vid=0a841434-6333-48f1-94ed-3a6616a797f6"},"vehicle_type_id":"4","last_reported":1719339083,"current_range_meters":31200,"station_id":"ce4bhbp2rcd13ifvqesg","pricing_plan_id":"cebpf4jnsgd1na2vs0mg"},{"bike_id":"b498a48e-cf75-43f7-821b-fd070e4c5e13","system_id":"levelo_inurba_marseille","lat":43.29273,"lon":5.36839,"is_reserved":false,"is_disabled":false,"rental_uris":{"android":"levelo://app?vid=b498a48e-cf75-43f7-821b-fd070e4c5e13","ios":"levelo://app?vid=b498a48e-cf75-43f7-821b-fd070e4c5e13"},"vehicle_type_id":"4","last_reported":1719339083,"current_range_meters":0,"station_id":"ce4bhbp2rcd13ifvqesg","pricing_plan_id":"cebpf4jnsgd1na2vs0mg"},{"bike_id":"fc16a2e5-80a9-47de-963c-e832c15ad566","system_id":"levelo_inurba_marseille","lat":43.292749,"lon":5.368398,"is_reserved":false,"is_disabled":false,"rental_uris":{"android":"levelo://app?vid=fc16a2e5-80a9-47de-963c-e832c15ad566","ios":"levelo://app?vid=fc16a2e5-80a9-47de-963c-e832c15ad566"},"vehicle_type_id":"4","last_reported":1719339083,"current_range_meters":21600,"station_id":"ce4bhbp2rcd13ifvqesg","pricing_plan_id":"cebpf4jnsgd1na2vs0mg"},{"bike_id":"347c2272-6fa0-4bb0-ab7c-17bb4922dfc7","system_id":"levelo_inurba_marseille","lat":43.29272,"lon":5.36843,"is_reserved":false,"is_disabled":false,"rental_uris":{"android":"levelo://app?vid=347c2272-6fa0-4bb0-ab7c-17bb4922dfc7","ios":"levelo://app?vid=347c2272-6fa0-4bb0-ab7c-17bb4922dfc7"},"vehicle_type_id":"4","last_reported":1719339083,"current_range_meters":24400,"station_id":"ce4bhbp2rcd13ifvqesg","pricing_plan_id":"cebpf4jnsgd1na2vs0mg"},{"bike_id":"43adee73-7b0a-4848-87bd-63ec9b8880da","system_id":"levelo_inurba_marseille","lat":43.292749,"lon":5.368402,"is_reserved":false,"is_disabled":false,"rental_uris":{"android":"levelo://app?vid=43adee73-7b0a-4848-87bd-63ec9b8880da","ios":"levelo://app?vid=43adee73-7b0a-4848-87bd-63ec9b8880da"},"vehicle_type_id":"4","last_reported":1719339083,"current_range_meters":24400,"station_id":"ce4bhbp2rcd13ifvqesg","pricing_plan_id":"cebpf4jnsgd1na2vs0mg"},{"bike_id":"44eb21c0-39b0-48eb-a874-9260c2d4bc5e","system_id":"levelo_inurba_marseille","lat":43.2927,"lon":5.36842,"is_reserved":false,"is_disabled":false,"rental_uris":{"android":"levelo://app?vid=44eb21c0-39b0-48eb-a874-9260c2d4bc5e","ios":"levelo://app?vid=44eb21c0-39b0-48eb-a874-9260c2d4bc5e"},"vehicle_type_id":"4","last_reported":1719339083,"current_range_meters":7600,"station_id":"ce4bhbp2rcd13ifvqesg","pricing_plan_id":"cebpf4jnsgd1na2vs0mg"},{"bike_id":"ebf4e844-2240-41d8-be09-add8c6b1e6df","system_id":"levelo_inurba_marseille","lat":43.29303,"lon":5.37436,"is_reserved":false,"is_disabled":false,"rental_uris":{"android":"levelo://app?vid=ebf4e844-2240-41d8-be09-add8c6b1e6df","ios":"levelo://app?vid=ebf4e844-2240-41d8-be09-add8c6b1e6df"},"vehicle_type_id":"4","last_reported":1719339083,"current_range_meters":0,"station_id":"ce4bgi12rcd13ifvqb70","pricing_plan_id":"cebpf4jnsgd1na2vs0mg"},{"bike_id":"21a4c8cc-63ab-436e-9a6e-a8c0deaf8457","system_id":"levelo_inurba_marseille","lat":43.29303,"lon":5.37447,"is_reserved":false,"is_disabled":false,"rental_uris":{"android":"levelo://app?vid=21a4c8cc-63ab-436e-9a6e-a8c0deaf8457","ios":"levelo://app?vid=21a4c8cc-63ab-436e-9a6e-a8c0deaf8457"},"vehicle_type_id":"4","last_reported":1719339083,"current_range_meters":0,"station_id":"ce4bgi12rcd13ifvqb70","pricing_plan_id":"cebpf4jnsgd1na2vs0mg"},{"bike_id":"3c96aa73-f69e-4b74-a0e4-dbde5754248d","system_id":"levelo_inurba_marseille","lat":43.293009,"lon":5.374584,"is_reserved":false,"is_disabled":false,"rental_uris":{"android":"levelo://app?vid=3c96aa73-f69e-4b74-a0e4-dbde5754248d","ios":"levelo://app?vid=3c96aa73-f69e-4b74-a0e4-dbde5754248d"},"vehicle_type_id":"4","last_reported":1719339083,"current_range_meters":24800,"station_id":"ce4bgi12rcd13ifvqb70","pricing_plan_id":"cebpf4jnsgd1na2vs0mg"},{"bike_id":"894c13b7-5975-4162-a636-585a78833a80","system_id":"levelo_inurba_marseille","lat":43.305994,"lon":5.393687,"is_reserved":false,"is_disabled":false,"rental_uris":{"android":"levelo://app?vid=894c13b7-5975-4162-a636-585a78833a80","ios":"levelo://app?vid=894c13b7-5975-4162-a636-585a78833a80"},"vehicle_type_id":"4","last_reported":1719339083,"current_range_meters":9600,"station_id":"ce4bh0p2rcd13ifvqd80","pricing_plan_id":"cebpf4jnsgd1na2vs0mg"},{"bike_id":"c896c3af-8352-465f-abc9-30a8bb892f19","system_id":"levelo_inurba_marseille","lat":43.305994,"lon":5.393687,"is_reserved":false,"is_disabled":false,"rental_uris":{"android":"levelo://app?vid=c896c3af-8352-465f-abc9-30a8bb892f19","ios":"levelo://app?vid=c896c3af-8352-465f-abc9-30a8bb892f19"},"vehicle_type_id":"4","last_reported":1719339083,"current_range_meters":0,"station_id":"ce4bh0p2rcd13ifvqd80","pricing_plan_id":"cebpf4jnsgd1na2vs0mg"},{"bike_id":"d994e737-23e5-4829-9204-439c98139859","system_id":"levelo_inurba_marseille","lat":43.292911,"lon":5.374386,"is_reserved":false,"is_disabled":false,"rental_uris":{"android":"levelo://app?vid=d994e737-23e5-4829-9204-439c98139859","ios":"levelo://app?vid=d994e737-23e5-4829-9204-439c98139859"},"vehicle_type_id":"4","last_reported":1719339083,"current_range_meters":0,"station_id":"ce4bgi12rcd13ifvqb70","pricing_plan_id":"cebpf4jnsgd1na2vs0mg"},{"bike_id":"823d6985-b40c-480e-bcb6-4a1af5e5e8b2","system_id":"levelo_inurba_marseille","lat":43.305994,"lon":5.393687,"is_reserved":false,"is_disabled":false,"rental_uris":{"android":"levelo://app?vid=823d6985-b40c-480e-bcb6-4a1af5e5e8b2","ios":"levelo://app?vid=823d6985-b40c-480e-bcb6-4a1af5e5e8b2"},"vehicle_type_id":"4","last_reported":1719339083,"current_range_meters":10400,"station_id":"ce4bh0p2rcd13ifvqd80","pricing_plan_id":"cebpf4jnsgd1na2vs0mg"},{"bike_id":"c520072f-965b-4ec8-8b80-ab9f6f46cb7c","system_id":"levelo_inurba_marseille","lat":43.305994,"lon":5.393687,"is_reserved":false,"is_disabled":false,"rental_uris":{"android":"levelo://app?vid=c520072f-965b-4ec8-8b80-ab9f6f46cb7c","ios":"levelo://app?vid=c520072f-965b-4ec8-8b80-ab9f6f46cb7c"},"vehicle_type_id":"4","last_reported":1719339083,"current_range_meters":28800,"station_id":"ce4bh0p2rcd13ifvqd80","pricing_plan_id":"cebpf4jnsgd1na2vs0mg"},{"bike_id":"7739b43e-cde3-47bf-ac30-35927e498e60","system_id":"levelo_inurba_marseille","lat":43.30306,"lon":5.39205,"is_reserved":false,"is_disabled":false,"rental_uris":{"android":"levelo://app?vid=7739b43e-cde3-47bf-ac30-35927e498e60","ios":"levelo://app?vid=7739b43e-cde3-47bf-ac30-35927e498e60"},"vehicle_type_id":"4","last_reported":1719339083,"current_range_meters":30400,"station_id":"ce4bgkh2rcd13ifvqbk0","pricing_plan_id":"cebpf4jnsgd1na2vs0mg"},{"bike_id":"bfc49aa0-c986-45b1-a85b-c1700561d146","system_id":"levelo_inurba_marseille","lat":43.30302,"lon":5.39205,"is_reserved":false,"is_disabled":false,"rental_uris":{"android":"levelo://app?vid=bfc49aa0-c986-45b1-a85b-c1700561d146","ios":"levelo://app?vid=bfc49aa0-c986-45b1-a85b-c1700561d146"},"vehicle_type_id":"4","last_reported":1719339083,"current_range_meters":27600,"station_id":"ce4bgkh2rcd13ifvqbk0","pricing_plan_id":"cebpf4jnsgd1na2vs0mg"},{"bike_id":"f1ab1fa4-3986-44bc-af10-2f0f58c91ec5","system_id":"levelo_inurba_marseille","lat":43.303031,"lon":5.392063,"is_reserved":false,"is_disabled":false,"rental_uris":{"android":"levelo://app?vid=f1ab1fa4-3986-44bc-af10-2f0f58c91ec5","ios":"levelo://app?vid=f1ab1fa4-3986-44bc-af10-2f0f58c91ec5"},"vehicle_type_id":"4","last_reported":1719339083,"current_range_meters":18800,"station_id":"ce4bgkh2rcd13ifvqbk0","pricing_plan_id":"cebpf4jnsgd1na2vs0mg"},{"bike_id":"2ff8886f-30b2-4678-ba4b-8bb54277f2df","system_id":"levelo_inurba_marseille","lat":43.30304,"lon":5.39208,"is_reserved":false,"is_disabled":false,"rental_uris":{"android":"levelo://app?vid=2ff8886f-30b2-4678-ba4b-8bb54277f2df","ios":"levelo://app?vid=2ff8886f-30b2-4678-ba4b-8bb54277f2df"},"vehicle_type_id":"4","last_reported":1719339083,"current_range_meters":2400,"station_id":"ce4bgkh2rcd13ifvqbk0","pricing_plan_id":"cebpf4jnsgd1na2vs0mg"},{"bike_id":"bf85677a-664f-4f66-b2f3-00661ca93841","system_id":"levelo_inurba_marseille","lat":43.302992,"lon":5.392136,"is_reserved":false,"is_disabled":false,"rental_uris":{"android":"levelo://app?vid=bf85677a-664f-4f66-b2f3-00661ca93841","ios":"levelo://app?vid=bf85677a-664f-4f66-b2f3-00661ca93841"},"vehicle_type_id":"4","last_reported":1719339083,"current_range_meters":12400,"station_id":"ce4bgkh2rcd13ifvqbk0","pricing_plan_id":"cebpf4jnsgd1na2vs0mg"},{"bike_id":"9937be2c-ae11-42fd-8bde-b515f69f8789","system_id":"levelo_inurba_marseille","lat":43.303002,"lon":5.392142,"is_reserved":false,"is_disabled":false,"rental_uris":{"android":"levelo://app?vid=9937be2c-ae11-42fd-8bde-b515f69f8789","ios":"levelo://app?vid=9937be2c-ae11-42fd-8bde-b515f69f8789"},"vehicle_type_id":"4","last_reported":1719339083,"current_range_meters":1200,"station_id":"ce4bgkh2rcd13ifvqbk0","pricing_plan_id":"cebpf4jnsgd1na2vs0mg"},{"bike_id":"1f399bc3-8d74-49d2-9fc3-a4000fa819b8","system_id":"levelo_inurba_marseille","lat":43.303013,"lon":5.392093,"is_reserved":false,"is_disabled":false,"rental_uris":{"android":"levelo://app?vid=1f399bc3-8d74-49d2-9fc3-a4000fa819b8","ios":"levelo://app?vid=1f399bc3-8d74-49d2-9fc3-a4000fa819b8"},"vehicle_type_id":"4","last_reported":1719339083,"current_range_meters":0,"station_id":"ce4bgkh2rcd13ifvqbk0","pricing_plan_id":"cebpf4jnsgd1na2vs0mg"},{"bike_id":"eabd09df-1306-46f3-ae0b-45c2784b9140","system_id":"levelo_inurba_marseille","lat":43.30303,"lon":5.39213,"is_reserved":false,"is_disabled":false,"rental_uris":{"android":"levelo://app?vid=eabd09df-1306-46f3-ae0b-45c2784b9140","ios":"levelo://app?vid=eabd09df-1306-46f3-ae0b-45c2784b9140"},"vehicle_type_id":"4","last_reported":1719339083,"current_range_meters":400,"station_id":"ce4bgkh2rcd13ifvqbk0","pricing_plan_id":"cebpf4jnsgd1na2vs0mg"},{"bike_id":"06310f01-4d7b-4fcf-ae43-ac4c8b968515","system_id":"levelo_inurba_marseille","lat":43.302992,"lon":5.392136,"is_reserved":false,"is_disabled":false,"rental_uris":{"android":"levelo://app?vid=06310f01-4d7b-4fcf-ae43-ac4c8b968515","ios":"levelo://app?vid=06310f01-4d7b-4fcf-ae43-ac4c8b968515"},"vehicle_type_id":"4","last_reported":1719339083,"current_range_meters":18000,"station_id":"ce4bgkh2rcd13ifvqbk0","pricing_plan_id":"cebpf4jnsgd1na2vs0mg"},{"bike_id":"9f36be64-2a63-4d74-a5d1-6116a5a46444","system_id":"levelo_inurba_marseille","lat":43.302992,"lon":5.392136,"is_reserved":false,"is_disabled":false,"rental_uris":{"android":"levelo://app?vid=9f36be64-2a63-4d74-a5d1-6116a5a46444","ios":"levelo://app?vid=9f36be64-2a63-4d74-a5d1-6116a5a46444"},"vehicle_type_id":"4","last_reported":1719339083,"current_range_meters":28800,"station_id":"ce4bgkh2rcd13ifvqbk0","pricing_plan_id":"cebpf4jnsgd1na2vs0mg"},{"bike_id":"18626853-63cc-4a56-ac17-b2b74b79acd5","system_id":"levelo_inurba_marseille","lat":43.300852,"lon":5.390859,"is_reserved":false,"is_disabled":false,"rental_uris":{"android":"levelo://app?vid=18626853-63cc-4a56-ac17-b2b74b79acd5","ios":"levelo://app?vid=18626853-63cc-4a56-ac17-b2b74b79acd5"},"vehicle_type_id":"4","last_reported":1719339083,"current_range_meters":14400,"station_id":"ce4bh192rcd13ifvqdb0","pricing_plan_id":"cebpf4jnsgd1na2vs0mg"},{"bike_id":"56ef7f85-44b7-46dc-8aff-85bdd4a2a574","system_id":"levelo_inurba_marseille","lat":43.292296,"lon":5.360709,"is_reserved":false,"is_disabled":false,"rental_uris":{"android":"levelo://app?vid=56ef7f85-44b7-46dc-8aff-85bdd4a2a574","ios":"levelo://app?vid=56ef7f85-44b7-46dc-8aff-85bdd4a2a574"},"vehicle_type_id":"4","last_reported":1719339083,"current_range_meters":30800,"station_id":"ce4bhbh2rcd13ifvqeqg","pricing_plan_id":"cebpf4jnsgd1na2vs0mg"},{"bike_id":"95fd78b8-40e5-498c-bf72-47bbfe3b4a6c","system_id":"levelo_inurba_marseille","lat":43.292311,"lon":5.360731,"is_reserved":false,"is_disabled":false,"rental_uris":{"android":"levelo://app?vid=95fd78b8-40e5-498c-bf72-47bbfe3b4a6c","ios":"levelo://app?vid=95fd78b8-40e5-498c-bf72-47bbfe3b4a6c"},"vehicle_type_id":"4","last_reported":1719339083,"current_range_meters":28000,"station_id":"ce4bhbh2rcd13ifvqeqg","pricing_plan_id":"cebpf4jnsgd1na2vs0mg"},{"bike_id":"927ea039-aebc-41a8-b469-2415a3f39194","system_id":"levelo_inurba_marseille","lat":43.29224,"lon":5.36068,"is_reserved":false,"is_disabled":false,"rental_uris":{"android":"levelo://app?vid=927ea039-aebc-41a8-b469-2415a3f39194","ios":"levelo://app?vid=927ea039-aebc-41a8-b469-2415a3f39194"},"vehicle_type_id":"4","last_reported":1719339083,"current_range_meters":17600,"station_id":"ce4bhbh2rcd13ifvqeqg","pricing_plan_id":"cebpf4jnsgd1na2vs0mg"},{"bike_id":"ad58b7b7-aa08-4bbc-8b88-ae54cc9f2448","system_id":"levelo_inurba_marseille","lat":43.29222,"lon":5.36066,"is_reserved":false,"is_disabled":false,"rental_uris":{"android":"levelo://app?vid=ad58b7b7-aa08-4bbc-8b88-ae54cc9f2448","ios":"levelo://app?vid=ad58b7b7-aa08-4bbc-8b88-ae54cc9f2448"},"vehicle_type_id":"4","last_reported":1719339083,"current_range_meters":29600,"station_id":"ce4bhbh2rcd13ifvqeqg","pricing_plan_id":"cebpf4jnsgd1na2vs0mg"},{"bike_id":"c16226a1-53fe-417d-937d-a6eff4c66b14","system_id":"levelo_inurba_marseille","lat":43.30085,"lon":5.390856,"is_reserved":false,"is_disabled":false,"rental_uris":{"android":"levelo://app?vid=c16226a1-53fe-417d-937d-a6eff4c66b14","ios":"levelo://app?vid=c16226a1-53fe-417d-937d-a6eff4c66b14"},"vehicle_type_id":"4","last_reported":1719339083,"current_range_meters":800,"station_id":"ce4bh192rcd13ifvqdb0","pricing_plan_id":"cebpf4jnsgd1na2vs0mg"},{"bike_id":"93367a1a-c0ef-4897-9f68-e63334eb3eea","system_id":"levelo_inurba_marseille","lat":43.292311,"lon":5.360731,"is_reserved":false,"is_disabled":false,"rental_uris":{"android":"levelo://app?vid=93367a1a-c0ef-4897-9f68-e63334eb3eea","ios":"levelo://app?vid=93367a1a-c0ef-4897-9f68-e63334eb3eea"},"vehicle_type_id":"4","last_reported":1719339083,"current_range_meters":13600,"station_id":"ce4bhbh2rcd13ifvqeqg","pricing_plan_id":"cebpf4jnsgd1na2vs0mg"},{"bike_id":"ce57d8c6-51d1-4b25-84ff-a8de72390494","system_id":"levelo_inurba_marseille","lat":43.292311,"lon":5.360731,"is_reserved":false,"is_disabled":false,"rental_uris":{"android":"levelo://app?vid=ce57d8c6-51d1-4b25-84ff-a8de72390494","ios":"levelo://app?vid=ce57d8c6-51d1-4b25-84ff-a8de72390494"},"vehicle_type_id":"4","last_reported":1719339083,"current_range_meters":30800,"station_id":"ce4bhbh2rcd13ifvqeqg","pricing_plan_id":"cebpf4jnsgd1na2vs0mg"},{"bike_id":"cd218dcc-8779-412d-bccc-ac2534b488c9","system_id":"levelo_inurba_marseille","lat":43.309047,"lon":5.396551,"is_reserved":false,"is_disabled":false,"rental_uris":{"android":"levelo://app?vid=cd218dcc-8779-412d-bccc-ac2534b488c9","ios":"levelo://app?vid=cd218dcc-8779-412d-bccc-ac2534b488c9"},"vehicle_type_id":"4","last_reported":1719339083,"current_range_meters":1200,"station_id":"ce4bh012rcd13ifvqcv0","pricing_plan_id":"cebpf4jnsgd1na2vs0mg"},{"bike_id":"6ae822a7-feff-496a-adce-e451cc8a8ec5","system_id":"levelo_inurba_marseille","lat":43.29886,"lon":5.38899,"is_reserved":false,"is_disabled":false,"rental_uris":{"android":"levelo://app?vid=6ae822a7-feff-496a-adce-e451cc8a8ec5","ios":"levelo://app?vid=6ae822a7-feff-496a-adce-e451cc8a8ec5"},"vehicle_type_id":"4","last_reported":1719339083,"current_range_meters":0,"station_id":"ce4bh392rcd13ifvqdl0","pricing_plan_id":"cebpf4jnsgd1na2vs0mg"},{"bike_id":"dd771db8-7bc5-4ed0-82bc-36bfcea9c748","system_id":"levelo_inurba_marseille","lat":43.291675,"lon":5.371583,"is_reserved":false,"is_disabled":false,"rental_uris":{"android":"levelo://app?vid=dd771db8-7bc5-4ed0-82bc-36bfcea9c748","ios":"levelo://app?vid=dd771db8-7bc5-4ed0-82bc-36bfcea9c748"},"vehicle_type_id":"4","last_reported":1719339083,"current_range_meters":16400,"station_id":"ce4bha92rcd13ifvqeh0","pricing_plan_id":"cebpf4jnsgd1na2vs0mg"},{"bike_id":"e58ecb60-b258-4ff5-816e-f8174df40fe7","system_id":"levelo_inurba_marseille","lat":43.298794,"lon":5.389112,"is_reserved":false,"is_disabled":false,"rental_uris":{"android":"levelo://app?vid=e58ecb60-b258-4ff5-816e-f8174df40fe7","ios":"levelo://app?vid=e58ecb60-b258-4ff5-816e-f8174df40fe7"},"vehicle_type_id":"4","last_reported":1719339083,"current_range_meters":28000,"station_id":"ce4bh392rcd13ifvqdl0","pricing_plan_id":"cebpf4jnsgd1na2vs0mg"},{"bike_id":"d4b10d46-6dc4-4641-b4fb-de800428ef22","system_id":"levelo_inurba_marseille","lat":43.292005,"lon":5.357875,"is_reserved":false,"is_disabled":false,"rental_uris":{"android":"levelo://app?vid=d4b10d46-6dc4-4641-b4fb-de800428ef22","ios":"levelo://app?vid=d4b10d46-6dc4-4641-b4fb-de800428ef22"},"vehicle_type_id":"4","last_reported":1719339083,"current_range_meters":15200,"station_id":"ce4bhb12rcd13ifvqel0","pricing_plan_id":"cebpf4jnsgd1na2vs0mg"},{"bike_id":"1e349e8d-5810-42a9-93e5-f33392c6d20b","system_id":"levelo_inurba_marseille","lat":43.30883,"lon":5.39635,"is_reserved":false,"is_disabled":false,"rental_uris":{"android":"levelo://app?vid=1e349e8d-5810-42a9-93e5-f33392c6d20b","ios":"levelo://app?vid=1e349e8d-5810-42a9-93e5-f33392c6d20b"},"vehicle_type_id":"4","last_reported":1719339083,"current_range_meters":22400,"station_id":"ce4bh012rcd13ifvqcv0","pricing_plan_id":"cebpf4jnsgd1na2vs0mg"},{"bike_id":"fa717d8d-46d1-455b-a011-17d9188320bf","system_id":"levelo_inurba_marseille","lat":43.291994,"lon":5.357886,"is_reserved":false,"is_disabled":false,"rental_uris":{"android":"levelo://app?vid=fa717d8d-46d1-455b-a011-17d9188320bf","ios":"levelo://app?vid=fa717d8d-46d1-455b-a011-17d9188320bf"},"vehicle_type_id":"4","last_reported":1719339083,"current_range_meters":2000,"station_id":"ce4bhb12rcd13ifvqel0","pricing_plan_id":"cebpf4jnsgd1na2vs0mg"},{"bike_id":"1b67dcce-522f-433d-b386-2286fb2ad8ba","system_id":"levelo_inurba_marseille","lat":43.313291,"lon":5.396838,"is_reserved":false,"is_disabled":false,"rental_uris":{"android":"levelo://app?vid=1b67dcce-522f-433d-b386-2286fb2ad8ba","ios":"levelo://app?vid=1b67dcce-522f-433d-b386-2286fb2ad8ba"},"vehicle_type_id":"4","last_reported":1719339083,"current_range_meters":4000,"station_id":"ce4bgvp2rcd13ifvqcu0","pricing_plan_id":"cebpf4jnsgd1na2vs0mg"},{"bike_id":"f7e22713-6a1f-43b9-94f5-f99117107c0b","system_id":"levelo_inurba_marseille","lat":43.291994,"lon":5.357886,"is_reserved":false,"is_disabled":false,"rental_uris":{"android":"levelo://app?vid=f7e22713-6a1f-43b9-94f5-f99117107c0b","ios":"levelo://app?vid=f7e22713-6a1f-43b9-94f5-f99117107c0b"},"vehicle_type_id":"4","last_reported":1719339083,"current_range_meters":0,"station_id":"ce4bhb12rcd13ifvqel0","pricing_plan_id":"cebpf4jnsgd1na2vs0mg"},{"bike_id":"131c4618-0c30-43d2-afc4-61c616449de7","system_id":"levelo_inurba_marseille","lat":43.313291,"lon":5.396838,"is_reserved":false,"is_disabled":false,"rental_uris":{"android":"levelo://app?vid=131c4618-0c30-43d2-afc4-61c616449de7","ios":"levelo://app?vid=131c4618-0c30-43d2-afc4-61c616449de7"},"vehicle_type_id":"4","last_reported":1719339083,"current_range_meters":8400,"station_id":"ce4bgvp2rcd13ifvqcu0","pricing_plan_id":"cebpf4jnsgd1na2vs0mg"},{"bike_id":"f9570fcb-0417-4283-8117-895c051971da","system_id":"levelo_inurba_marseille","lat":43.313291,"lon":5.396838,"is_reserved":false,"is_disabled":false,"rental_uris":{"android":"levelo://app?vid=f9570fcb-0417-4283-8117-895c051971da","ios":"levelo://app?vid=f9570fcb-0417-4283-8117-895c051971da"},"vehicle_type_id":"4","last_reported":1719339083,"current_range_meters":0,"station_id":"ce4bgvp2rcd13ifvqcu0","pricing_plan_id":"cebpf4jnsgd1na2vs0mg"},{"bike_id":"f34346e4-ef7c-420a-af67-07668581a31a","system_id":"levelo_inurba_marseille","lat":43.313138,"lon":5.397004,"is_reserved":false,"is_disabled":false,"rental_uris":{"android":"levelo://app?vid=f34346e4-ef7c-420a-af67-07668581a31a","ios":"levelo://app?vid=f34346e4-ef7c-420a-af67-07668581a31a"},"vehicle_type_id":"4","last_reported":1719339083,"current_range_meters":0,"station_id":"ce4bgvp2rcd13ifvqcu0","pricing_plan_id":"cebpf4jnsgd1na2vs0mg"},{"bike_id":"70d31664-56a8-4a46-be08-cc9bf231f226","system_id":"levelo_inurba_marseille","lat":43.309038,"lon":5.396546,"is_reserved":false,"is_disabled":false,"rental_uris":{"android":"levelo://app?vid=70d31664-56a8-4a46-be08-cc9bf231f226","ios":"levelo://app?vid=70d31664-56a8-4a46-be08-cc9bf231f226"},"vehicle_type_id":"4","last_reported":1719339083,"current_range_meters":16800,"station_id":"ce4bh012rcd13ifvqcv0","pricing_plan_id":"cebpf4jnsgd1na2vs0mg"},{"bike_id":"9fab94a2-463f-4a54-ae35-b80838c45d03","system_id":"levelo_inurba_marseille","lat":43.309038,"lon":5.396546,"is_reserved":false,"is_disabled":false,"rental_uris":{"android":"levelo://app?vid=9fab94a2-463f-4a54-ae35-b80838c45d03","ios":"levelo://app?vid=9fab94a2-463f-4a54-ae35-b80838c45d03"},"vehicle_type_id":"4","last_reported":1719339083,"current_range_meters":5600,"station_id":"ce4bh012rcd13ifvqcv0","pricing_plan_id":"cebpf4jnsgd1na2vs0mg"},{"bike_id":"c872b8f2-b96e-496d-841b-69c5ec304ba9","system_id":"levelo_inurba_marseille","lat":43.309038,"lon":5.396546,"is_reserved":false,"is_disabled":false,"rental_uris":{"android":"levelo://app?vid=c872b8f2-b96e-496d-841b-69c5ec304ba9","ios":"levelo://app?vid=c872b8f2-b96e-496d-841b-69c5ec304ba9"},"vehicle_type_id":"4","last_reported":1719339083,"current_range_meters":17200,"station_id":"ce4bh012rcd13ifvqcv0","pricing_plan_id":"cebpf4jnsgd1na2vs0mg"},{"bike_id":"0f6d3c4c-be61-42d0-9ab7-ad6084829b7a","system_id":"levelo_inurba_marseille","lat":43.291758,"lon":5.358057,"is_reserved":false,"is_disabled":false,"rental_uris":{"android":"levelo://app?vid=0f6d3c4c-be61-42d0-9ab7-ad6084829b7a","ios":"levelo://app?vid=0f6d3c4c-be61-42d0-9ab7-ad6084829b7a"},"vehicle_type_id":"4","last_reported":1719339083,"current_range_meters":30800,"station_id":"ce4bhb12rcd13ifvqel0","pricing_plan_id":"cebpf4jnsgd1na2vs0mg"},{"bike_id":"0ba2677c-3de9-4a82-bd59-7de61211a799","system_id":"levelo_inurba_marseille","lat":43.290779,"lon":5.371482,"is_reserved":false,"is_disabled":false,"rental_uris":{"android":"levelo://app?vid=0ba2677c-3de9-4a82-bd59-7de61211a799","ios":"levelo://app?vid=0ba2677c-3de9-4a82-bd59-7de61211a799"},"vehicle_type_id":"4","last_reported":1719339083,"current_range_meters":0,"station_id":"ce4bh5p2rcd13ifvqe4g","pricing_plan_id":"cebpf4jnsgd1na2vs0mg"},{"bike_id":"17a733a8-259c-4c68-9548-616cb4da38d1","system_id":"levelo_inurba_marseille","lat":43.290779,"lon":5.371482,"is_reserved":false,"is_disabled":false,"rental_uris":{"android":"levelo://app?vid=17a733a8-259c-4c68-9548-616cb4da38d1","ios":"levelo://app?vid=17a733a8-259c-4c68-9548-616cb4da38d1"},"vehicle_type_id":"4","last_reported":1719339083,"current_range_meters":10000,"station_id":"ce4bh5p2rcd13ifvqe4g","pricing_plan_id":"cebpf4jnsgd1na2vs0mg"},{"bike_id":"50519d96-8dd4-408e-b1d8-349e362f5e54","system_id":"levelo_inurba_marseille","lat":43.302008,"lon":5.394694,"is_reserved":false,"is_disabled":false,"rental_uris":{"android":"levelo://app?vid=50519d96-8dd4-408e-b1d8-349e362f5e54","ios":"levelo://app?vid=50519d96-8dd4-408e-b1d8-349e362f5e54"},"vehicle_type_id":"4","last_reported":1719339083,"current_range_meters":25600,"station_id":"ce4bh0p2rcd13ifvqd70","pricing_plan_id":"cebpf4jnsgd1na2vs0mg"},{"bike_id":"5116ed49-d875-4abc-84a1-680c8aa3dae5","system_id":"levelo_inurba_marseille","lat":43.290631,"lon":5.359244,"is_reserved":false,"is_disabled":false,"rental_uris":{"android":"levelo://app?vid=5116ed49-d875-4abc-84a1-680c8aa3dae5","ios":"levelo://app?vid=5116ed49-d875-4abc-84a1-680c8aa3dae5"},"vehicle_type_id":"4","last_reported":1719339083,"current_range_meters":3200,"station_id":"ce4bha92rcd13ifvqeg0","pricing_plan_id":"cebpf4jnsgd1na2vs0mg"},{"bike_id":"95e2f3ff-78e6-4d9f-a534-46bf71753537","system_id":"levelo_inurba_marseille","lat":43.2895,"lon":5.36639,"is_reserved":false,"is_disabled":false,"rental_uris":{"android":"levelo://app?vid=95e2f3ff-78e6-4d9f-a534-46bf71753537","ios":"levelo://app?vid=95e2f3ff-78e6-4d9f-a534-46bf71753537"},"vehicle_type_id":"4","last_reported":1719339083,"current_range_meters":19200,"station_id":"ce4bhap2rcd13ifvqek0","pricing_plan_id":"cebpf4jnsgd1na2vs0mg"},{"bike_id":"58911086-648f-4a71-a74e-a68f584d02f6","system_id":"levelo_inurba_marseille","lat":43.290327,"lon":5.375711,"is_reserved":false,"is_disabled":false,"rental_uris":{"android":"levelo://app?vid=58911086-648f-4a71-a74e-a68f584d02f6","ios":"levelo://app?vid=58911086-648f-4a71-a74e-a68f584d02f6"},"vehicle_type_id":"4","last_reported":1719339083,"current_range_meters":0,"station_id":"ce4bh692rcd13ifvqe90","pricing_plan_id":"cebpf4jnsgd1na2vs0mg"},{"bike_id":"fba945fa-3634-47c8-9695-a91eaca2f3dc","system_id":"levelo_inurba_marseille","lat":43.2903,"lon":5.37552,"is_reserved":false,"is_disabled":false,"rental_uris":{"android":"levelo://app?vid=fba945fa-3634-47c8-9695-a91eaca2f3dc","ios":"levelo://app?vid=fba945fa-3634-47c8-9695-a91eaca2f3dc"},"vehicle_type_id":"4","last_reported":1719339083,"current_range_meters":16800,"station_id":"ce4bh692rcd13ifvqe90","pricing_plan_id":"cebpf4jnsgd1na2vs0mg"},{"bike_id":"8aec3702-d988-4d43-a9ab-826e3374d4bf","system_id":"levelo_inurba_marseille","lat":43.28942,"lon":5.36641,"is_reserved":false,"is_disabled":false,"rental_uris":{"android":"levelo://app?vid=8aec3702-d988-4d43-a9ab-826e3374d4bf","ios":"levelo://app?vid=8aec3702-d988-4d43-a9ab-826e3374d4bf"},"vehicle_type_id":"4","last_reported":1719339083,"current_range_meters":24000,"station_id":"ce4bhap2rcd13ifvqek0","pricing_plan_id":"cebpf4jnsgd1na2vs0mg"},{"bike_id":"f76342ad-911c-49b4-af8a-80d51b117525","system_id":"levelo_inurba_marseille","lat":43.28942,"lon":5.36627,"is_reserved":false,"is_disabled":false,"rental_uris":{"android":"levelo://app?vid=f76342ad-911c-49b4-af8a-80d51b117525","ios":"levelo://app?vid=f76342ad-911c-49b4-af8a-80d51b117525"},"vehicle_type_id":"4","last_reported":1719339083,"current_range_meters":0,"station_id":"ce4bhap2rcd13ifvqek0","pricing_plan_id":"cebpf4jnsgd1na2vs0mg"},{"bike_id":"fcc19bd5-093c-4556-bd71-ab66ebbd34e1","system_id":"levelo_inurba_marseille","lat":43.294153,"lon":5.386305,"is_reserved":false,"is_disabled":false,"rental_uris":{"android":"levelo://app?vid=fcc19bd5-093c-4556-bd71-ab66ebbd34e1","ios":"levelo://app?vid=fcc19bd5-093c-4556-bd71-ab66ebbd34e1"},"vehicle_type_id":"4","last_reported":1719339083,"current_range_meters":27600,"station_id":"ce4bh2h2rcd13ifvqdh0","pricing_plan_id":"cebpf4jnsgd1na2vs0mg"},{"bike_id":"de508f42-0afc-404b-921c-0fe998f408b8","system_id":"levelo_inurba_marseille","lat":43.289184,"lon":5.366408,"is_reserved":false,"is_disabled":false,"rental_uris":{"android":"levelo://app?vid=de508f42-0afc-404b-921c-0fe998f408b8","ios":"levelo://app?vid=de508f42-0afc-404b-921c-0fe998f408b8"},"vehicle_type_id":"4","last_reported":1719339083,"current_range_meters":25200,"station_id":"ce4bhap2rcd13ifvqek0","pricing_plan_id":"cebpf4jnsgd1na2vs0mg"},{"bike_id":"a844076e-188a-42aa-b6b1-3c6358805bed","system_id":"levelo_inurba_marseille","lat":43.28941,"lon":5.36629,"is_reserved":false,"is_disabled":false,"rental_uris":{"android":"levelo://app?vid=a844076e-188a-42aa-b6b1-3c6358805bed","ios":"levelo://app?vid=a844076e-188a-42aa-b6b1-3c6358805bed"},"vehicle_type_id":"4","last_reported":1719339083,"current_range_meters":0,"station_id":"ce4bhap2rcd13ifvqek0","pricing_plan_id":"cebpf4jnsgd1na2vs0mg"},{"bike_id":"f5fc72e7-46c7-46f5-831f-088ed498060f","system_id":"levelo_inurba_marseille","lat":43.289184,"lon":5.366408,"is_reserved":false,"is_disabled":false,"rental_uris":{"android":"levelo://app?vid=f5fc72e7-46c7-46f5-831f-088ed498060f","ios":"levelo://app?vid=f5fc72e7-46c7-46f5-831f-088ed498060f"},"vehicle_type_id":"4","last_reported":1719339083,"current_range_meters":11600,"station_id":"ce4bhap2rcd13ifvqek0","pricing_plan_id":"cebpf4jnsgd1na2vs0mg"},{"bike_id":"0389fde3-35d7-4ea6-878a-358a96aa8474","system_id":"levelo_inurba_marseille","lat":43.289184,"lon":5.366408,"is_reserved":false,"is_disabled":false,"rental_uris":{"android":"levelo://app?vid=0389fde3-35d7-4ea6-878a-358a96aa8474","ios":"levelo://app?vid=0389fde3-35d7-4ea6-878a-358a96aa8474"},"vehicle_type_id":"4","last_reported":1719339083,"current_range_meters":24400,"station_id":"ce4bhap2rcd13ifvqek0","pricing_plan_id":"cebpf4jnsgd1na2vs0mg"},{"bike_id":"ad6c5862-b9ef-4e6c-a4b9-5975e7f1791b","system_id":"levelo_inurba_marseille","lat":43.289184,"lon":5.366408,"is_reserved":false,"is_disabled":false,"rental_uris":{"android":"levelo://app?vid=ad6c5862-b9ef-4e6c-a4b9-5975e7f1791b","ios":"levelo://app?vid=ad6c5862-b9ef-4e6c-a4b9-5975e7f1791b"},"vehicle_type_id":"4","last_reported":1719339083,"current_range_meters":1600,"station_id":"ce4bhap2rcd13ifvqek0","pricing_plan_id":"cebpf4jnsgd1na2vs0mg"},{"bike_id":"56dd504b-0c9c-4273-9fb2-ffed5844d006","system_id":"levelo_inurba_marseille","lat":43.292644,"lon":5.384257,"is_reserved":false,"is_disabled":false,"rental_uris":{"android":"levelo://app?vid=56dd504b-0c9c-4273-9fb2-ffed5844d006","ios":"levelo://app?vid=56dd504b-0c9c-4273-9fb2-ffed5844d006"},"vehicle_type_id":"4","last_reported":1719339083,"current_range_meters":8400,"station_id":"ce4bh692rcd13ifvqea0","pricing_plan_id":"cebpf4jnsgd1na2vs0mg"},{"bike_id":"df280ebb-2dbc-40de-a87c-1611d12b68b3","system_id":"levelo_inurba_marseille","lat":43.289184,"lon":5.366408,"is_reserved":false,"is_disabled":false,"rental_uris":{"android":"levelo://app?vid=df280ebb-2dbc-40de-a87c-1611d12b68b3","ios":"levelo://app?vid=df280ebb-2dbc-40de-a87c-1611d12b68b3"},"vehicle_type_id":"4","last_reported":1719339083,"current_range_meters":0,"station_id":"ce4bhap2rcd13ifvqek0","pricing_plan_id":"cebpf4jnsgd1na2vs0mg"},{"bike_id":"d78f84ce-9a5b-49eb-a2c7-c1e547003f11","system_id":"levelo_inurba_marseille","lat":43.304296,"lon":5.397513,"is_reserved":false,"is_disabled":false,"rental_uris":{"android":"levelo://app?vid=d78f84ce-9a5b-49eb-a2c7-c1e547003f11","ios":"levelo://app?vid=d78f84ce-9a5b-49eb-a2c7-c1e547003f11"},"vehicle_type_id":"4","last_reported":1719339083,"current_range_meters":27600,"station_id":"ce4bh092rcd13ifvqd20","pricing_plan_id":"cebpf4jnsgd1na2vs0mg"},{"bike_id":"b5e13f88-1b74-4082-99b0-f1b3eae2583f","system_id":"levelo_inurba_marseille","lat":43.30425,"lon":5.3974,"is_reserved":false,"is_disabled":false,"rental_uris":{"android":"levelo://app?vid=b5e13f88-1b74-4082-99b0-f1b3eae2583f","ios":"levelo://app?vid=b5e13f88-1b74-4082-99b0-f1b3eae2583f"},"vehicle_type_id":"4","last_reported":1719339083,"current_range_meters":14800,"station_id":"ce4bh092rcd13ifvqd20","pricing_plan_id":"cebpf4jnsgd1na2vs0mg"},{"bike_id":"46d78b64-bd13-4efa-b383-71c3948a681e","system_id":"levelo_inurba_marseille","lat":43.304296,"lon":5.397513,"is_reserved":false,"is_disabled":false,"rental_uris":{"android":"levelo://app?vid=46d78b64-bd13-4efa-b383-71c3948a681e","ios":"levelo://app?vid=46d78b64-bd13-4efa-b383-71c3948a681e"},"vehicle_type_id":"4","last_reported":1719339083,"current_range_meters":2000,"station_id":"ce4bh092rcd13ifvqd20","pricing_plan_id":"cebpf4jnsgd1na2vs0mg"},{"bike_id":"52406381-88d9-4f2d-bf2f-2a16b9d036f8","system_id":"levelo_inurba_marseille","lat":43.30419,"lon":5.39741,"is_reserved":false,"is_disabled":false,"rental_uris":{"android":"levelo://app?vid=52406381-88d9-4f2d-bf2f-2a16b9d036f8","ios":"levelo://app?vid=52406381-88d9-4f2d-bf2f-2a16b9d036f8"},"vehicle_type_id":"4","last_reported":1719339083,"current_range_meters":26000,"station_id":"ce4bh092rcd13ifvqd20","pricing_plan_id":"cebpf4jnsgd1na2vs0mg"},{"bike_id":"9e72caba-6f49-4ec3-b4dc-24f33cd3041a","system_id":"levelo_inurba_marseille","lat":43.292644,"lon":5.384257,"is_reserved":false,"is_disabled":false,"rental_uris":{"android":"levelo://app?vid=9e72caba-6f49-4ec3-b4dc-24f33cd3041a","ios":"levelo://app?vid=9e72caba-6f49-4ec3-b4dc-24f33cd3041a"},"vehicle_type_id":"4","last_reported":1719339083,"current_range_meters":24400,"station_id":"ce4bh692rcd13ifvqea0","pricing_plan_id":"cebpf4jnsgd1na2vs0mg"},{"bike_id":"24fd4630-8337-4dfc-a76f-56e612b55eb0","system_id":"levelo_inurba_marseille","lat":43.304296,"lon":5.397513,"is_reserved":false,"is_disabled":false,"rental_uris":{"android":"levelo://app?vid=24fd4630-8337-4dfc-a76f-56e612b55eb0","ios":"levelo://app?vid=24fd4630-8337-4dfc-a76f-56e612b55eb0"},"vehicle_type_id":"4","last_reported":1719339083,"current_range_meters":12000,"station_id":"ce4bh092rcd13ifvqd20","pricing_plan_id":"cebpf4jnsgd1na2vs0mg"},{"bike_id":"bc6eaf76-b94b-4a24-9f05-b3f41bdeb684","system_id":"levelo_inurba_marseille","lat":43.304187,"lon":5.39745,"is_reserved":false,"is_disabled":false,"rental_uris":{"android":"levelo://app?vid=bc6eaf76-b94b-4a24-9f05-b3f41bdeb684","ios":"levelo://app?vid=bc6eaf76-b94b-4a24-9f05-b3f41bdeb684"},"vehicle_type_id":"4","last_reported":1719339083,"current_range_meters":28800,"station_id":"ce4bh092rcd13ifvqd20","pricing_plan_id":"cebpf4jnsgd1na2vs0mg"},{"bike_id":"81aa9f14-65fc-49b2-a6e5-b6b016933550","system_id":"levelo_inurba_marseille","lat":43.29265,"lon":5.38448,"is_reserved":false,"is_disabled":false,"rental_uris":{"android":"levelo://app?vid=81aa9f14-65fc-49b2-a6e5-b6b016933550","ios":"levelo://app?vid=81aa9f14-65fc-49b2-a6e5-b6b016933550"},"vehicle_type_id":"4","last_reported":1719339083,"current_range_meters":400,"station_id":"ce4bh692rcd13ifvqea0","pricing_plan_id":"cebpf4jnsgd1na2vs0mg"},{"bike_id":"d3eda1e3-5272-433b-834c-b86d4f1ba9fd","system_id":"levelo_inurba_marseille","lat":43.30423,"lon":5.39753,"is_reserved":false,"is_disabled":false,"rental_uris":{"android":"levelo://app?vid=d3eda1e3-5272-433b-834c-b86d4f1ba9fd","ios":"levelo://app?vid=d3eda1e3-5272-433b-834c-b86d4f1ba9fd"},"vehicle_type_id":"4","last_reported":1719339083,"current_range_meters":28400,"station_id":"ce4bh092rcd13ifvqd20","pricing_plan_id":"cebpf4jnsgd1na2vs0mg"},{"bike_id":"46f2db80-a8a4-49c0-b8c3-bc3ce9dcbc8a","system_id":"levelo_inurba_marseille","lat":43.290104,"lon":5.356111,"is_reserved":false,"is_disabled":false,"rental_uris":{"android":"levelo://app?vid=46f2db80-a8a4-49c0-b8c3-bc3ce9dcbc8a","ios":"levelo://app?vid=46f2db80-a8a4-49c0-b8c3-bc3ce9dcbc8a"},"vehicle_type_id":"4","last_reported":1719339083,"current_range_meters":7600,"station_id":"ce4bhb92rcd13ifvqen0","pricing_plan_id":"cebpf4jnsgd1na2vs0mg"},{"bike_id":"914425bc-1aee-41b4-a05e-11162b1baac0","system_id":"levelo_inurba_marseille","lat":43.290104,"lon":5.356111,"is_reserved":false,"is_disabled":false,"rental_uris":{"android":"levelo://app?vid=914425bc-1aee-41b4-a05e-11162b1baac0","ios":"levelo://app?vid=914425bc-1aee-41b4-a05e-11162b1baac0"},"vehicle_type_id":"4","last_reported":1719339083,"current_range_meters":10400,"station_id":"ce4bhb92rcd13ifvqen0","pricing_plan_id":"cebpf4jnsgd1na2vs0mg"},{"bike_id":"7352f8ac-82db-49d8-b503-a314ea0ade6c","system_id":"levelo_inurba_marseille","lat":43.290103,"lon":5.356114,"is_reserved":false,"is_disabled":false,"rental_uris":{"android":"levelo://app?vid=7352f8ac-82db-49d8-b503-a314ea0ade6c","ios":"levelo://app?vid=7352f8ac-82db-49d8-b503-a314ea0ade6c"},"vehicle_type_id":"4","last_reported":1719339083,"current_range_meters":1600,"station_id":"ce4bhb92rcd13ifvqen0","pricing_plan_id":"cebpf4jnsgd1na2vs0mg"},{"bike_id":"cc3988b2-e042-416b-8845-2dad54c9ef21","system_id":"levelo_inurba_marseille","lat":43.290104,"lon":5.356111,"is_reserved":false,"is_disabled":false,"rental_uris":{"android":"levelo://app?vid=cc3988b2-e042-416b-8845-2dad54c9ef21","ios":"levelo://app?vid=cc3988b2-e042-416b-8845-2dad54c9ef21"},"vehicle_type_id":"4","last_reported":1719339083,"current_range_meters":29200,"station_id":"ce4bhb92rcd13ifvqen0","pricing_plan_id":"cebpf4jnsgd1na2vs0mg"},{"bike_id":"c613939d-1ee7-4fd5-aceb-ba6e7668e779","system_id":"levelo_inurba_marseille","lat":43.29095,"lon":5.38147,"is_reserved":false,"is_disabled":false,"rental_uris":{"android":"levelo://app?vid=c613939d-1ee7-4fd5-aceb-ba6e7668e779","ios":"levelo://app?vid=c613939d-1ee7-4fd5-aceb-ba6e7668e779"},"vehicle_type_id":"4","last_reported":1719339083,"current_range_meters":4400,"station_id":"ce4bh512rcd13ifvqe2g","pricing_plan_id":"cebpf4jnsgd1na2vs0mg"},{"bike_id":"b78df25c-97fe-491a-b6dc-0f23ba02bb2e","system_id":"levelo_inurba_marseille","lat":43.295267,"lon":5.390338,"is_reserved":false,"is_disabled":false,"rental_uris":{"android":"levelo://app?vid=b78df25c-97fe-491a-b6dc-0f23ba02bb2e","ios":"levelo://app?vid=b78df25c-97fe-491a-b6dc-0f23ba02bb2e"},"vehicle_type_id":"4","last_reported":1719339083,"current_range_meters":0,"station_id":"ce4bh3p2rcd13ifvqdp0","pricing_plan_id":"cebpf4jnsgd1na2vs0mg"},{"bike_id":"d504595b-24e9-4937-881d-c02c394ddf5d","system_id":"levelo_inurba_marseille","lat":43.295169,"lon":5.390426,"is_reserved":false,"is_disabled":false,"rental_uris":{"android":"levelo://app?vid=d504595b-24e9-4937-881d-c02c394ddf5d","ios":"levelo://app?vid=d504595b-24e9-4937-881d-c02c394ddf5d"},"vehicle_type_id":"4","last_reported":1719339083,"current_range_meters":11600,"station_id":"ce4bh3p2rcd13ifvqdp0","pricing_plan_id":"cebpf4jnsgd1na2vs0mg"},{"bike_id":"44245ab3-f9a0-479a-9f7b-bce0ea0c5441","system_id":"levelo_inurba_marseille","lat":43.29524,"lon":5.39038,"is_reserved":false,"is_disabled":false,"rental_uris":{"android":"levelo://app?vid=44245ab3-f9a0-479a-9f7b-bce0ea0c5441","ios":"levelo://app?vid=44245ab3-f9a0-479a-9f7b-bce0ea0c5441"},"vehicle_type_id":"4","last_reported":1719339083,"current_range_meters":0,"station_id":"ce4bh3p2rcd13ifvqdp0","pricing_plan_id":"cebpf4jnsgd1na2vs0mg"},{"bike_id":"a6b39d1c-ecf2-4fb0-bd4f-3bc624bf138c","system_id":"levelo_inurba_marseille","lat":43.295169,"lon":5.390426,"is_reserved":false,"is_disabled":false,"rental_uris":{"android":"levelo://app?vid=a6b39d1c-ecf2-4fb0-bd4f-3bc624bf138c","ios":"levelo://app?vid=a6b39d1c-ecf2-4fb0-bd4f-3bc624bf138c"},"vehicle_type_id":"4","last_reported":1719339083,"current_range_meters":800,"station_id":"ce4bh3p2rcd13ifvqdp0","pricing_plan_id":"cebpf4jnsgd1na2vs0mg"},{"bike_id":"518b4ddc-113c-466d-b011-b7bc04774c33","system_id":"levelo_inurba_marseille","lat":43.330442,"lon":5.389148,"is_reserved":false,"is_disabled":false,"rental_uris":{"android":"levelo://app?vid=518b4ddc-113c-466d-b011-b7bc04774c33","ios":"levelo://app?vid=518b4ddc-113c-466d-b011-b7bc04774c33"},"vehicle_type_id":"4","last_reported":1719339083,"current_range_meters":4000,"station_id":"ce4bhr92rcd13ifvqhrg","pricing_plan_id":"cebpf4jnsgd1na2vs0mg"},{"bike_id":"d5dcf0a6-e0fc-4f45-9e2e-5edafba228be","system_id":"levelo_inurba_marseille","lat":43.330442,"lon":5.389148,"is_reserved":false,"is_disabled":false,"rental_uris":{"android":"levelo://app?vid=d5dcf0a6-e0fc-4f45-9e2e-5edafba228be","ios":"levelo://app?vid=d5dcf0a6-e0fc-4f45-9e2e-5edafba228be"},"vehicle_type_id":"4","last_reported":1719339083,"current_range_meters":7600,"station_id":"ce4bhr92rcd13ifvqhrg","pricing_plan_id":"cebpf4jnsgd1na2vs0mg"},{"bike_id":"8bd9c8e6-1b91-4ee5-82f0-9335edf72a30","system_id":"levelo_inurba_marseille","lat":43.330442,"lon":5.389148,"is_reserved":false,"is_disabled":false,"rental_uris":{"android":"levelo://app?vid=8bd9c8e6-1b91-4ee5-82f0-9335edf72a30","ios":"levelo://app?vid=8bd9c8e6-1b91-4ee5-82f0-9335edf72a30"},"vehicle_type_id":"4","last_reported":1719339083,"current_range_meters":13200,"station_id":"ce4bhr92rcd13ifvqhrg","pricing_plan_id":"cebpf4jnsgd1na2vs0mg"},{"bike_id":"254dbed4-d5af-4141-a548-7fbcf2a87c34","system_id":"levelo_inurba_marseille","lat":43.295169,"lon":5.390426,"is_reserved":false,"is_disabled":false,"rental_uris":{"android":"levelo://app?vid=254dbed4-d5af-4141-a548-7fbcf2a87c34","ios":"levelo://app?vid=254dbed4-d5af-4141-a548-7fbcf2a87c34"},"vehicle_type_id":"4","last_reported":1719339083,"current_range_meters":18800,"station_id":"ce4bh3p2rcd13ifvqdp0","pricing_plan_id":"cebpf4jnsgd1na2vs0mg"},{"bike_id":"69c26fce-113a-4c01-b54e-ee61c8bb8ef9","system_id":"levelo_inurba_marseille","lat":43.295169,"lon":5.390426,"is_reserved":false,"is_disabled":false,"rental_uris":{"android":"levelo://app?vid=69c26fce-113a-4c01-b54e-ee61c8bb8ef9","ios":"levelo://app?vid=69c26fce-113a-4c01-b54e-ee61c8bb8ef9"},"vehicle_type_id":"4","last_reported":1719339083,"current_range_meters":32000,"station_id":"ce4bh3p2rcd13ifvqdp0","pricing_plan_id":"cebpf4jnsgd1na2vs0mg"},{"bike_id":"58e71fc8-2b69-4882-b6ea-e571f96033da","system_id":"levelo_inurba_marseille","lat":43.2903,"lon":5.38136,"is_reserved":false,"is_disabled":false,"rental_uris":{"android":"levelo://app?vid=58e71fc8-2b69-4882-b6ea-e571f96033da","ios":"levelo://app?vid=58e71fc8-2b69-4882-b6ea-e571f96033da"},"vehicle_type_id":"4","last_reported":1719339083,"current_range_meters":0,"station_id":"ce4bh4p2rcd13ifvqe1g","pricing_plan_id":"cebpf4jnsgd1na2vs0mg"},{"bike_id":"94ed2941-bebd-409e-a17b-3f2606814ae7","system_id":"levelo_inurba_marseille","lat":43.2901,"lon":5.381269,"is_reserved":false,"is_disabled":false,"rental_uris":{"android":"levelo://app?vid=94ed2941-bebd-409e-a17b-3f2606814ae7","ios":"levelo://app?vid=94ed2941-bebd-409e-a17b-3f2606814ae7"},"vehicle_type_id":"4","last_reported":1719339083,"current_range_meters":2400,"station_id":"ce4bh4p2rcd13ifvqe1g","pricing_plan_id":"cebpf4jnsgd1na2vs0mg"},{"bike_id":"3b2f19d7-ad09-4c42-8a3b-b2f2fb0c2fd1","system_id":"levelo_inurba_marseille","lat":43.28856,"lon":5.358371,"is_reserved":false,"is_disabled":false,"rental_uris":{"android":"levelo://app?vid=3b2f19d7-ad09-4c42-8a3b-b2f2fb0c2fd1","ios":"levelo://app?vid=3b2f19d7-ad09-4c42-8a3b-b2f2fb0c2fd1"},"vehicle_type_id":"4","last_reported":1719339083,"current_range_meters":11600,"station_id":"ce4bhb12rcd13ifvqem0","pricing_plan_id":"cebpf4jnsgd1na2vs0mg"},{"bike_id":"bb65fb70-df82-47d8-b27f-438620895501","system_id":"levelo_inurba_marseille","lat":43.337364,"lon":5.374606,"is_reserved":false,"is_disabled":false,"rental_uris":{"android":"levelo://app?vid=bb65fb70-df82-47d8-b27f-438620895501","ios":"levelo://app?vid=bb65fb70-df82-47d8-b27f-438620895501"},"vehicle_type_id":"0","last_reported":1719339083,"current_range_meters":16800,"station_id":"","pricing_plan_id":"cebpf4jnsgd1na2vs0mg"},{"bike_id":"c8afda74-cf9b-4c2e-9d5a-5237ff550dcd","system_id":"levelo_inurba_marseille","lat":43.312609,"lon":5.401662,"is_reserved":false,"is_disabled":false,"rental_uris":{"android":"levelo://app?vid=c8afda74-cf9b-4c2e-9d5a-5237ff550dcd","ios":"levelo://app?vid=c8afda74-cf9b-4c2e-9d5a-5237ff550dcd"},"vehicle_type_id":"4","last_reported":1719339083,"current_range_meters":0,"station_id":"ce4bh092rcd13ifvqd30","pricing_plan_id":"cebpf4jnsgd1na2vs0mg"},{"bike_id":"faf86c58-8440-4bb7-8af3-ffcd593bc535","system_id":"levelo_inurba_marseille","lat":43.312609,"lon":5.401662,"is_reserved":false,"is_disabled":false,"rental_uris":{"android":"levelo://app?vid=faf86c58-8440-4bb7-8af3-ffcd593bc535","ios":"levelo://app?vid=faf86c58-8440-4bb7-8af3-ffcd593bc535"},"vehicle_type_id":"4","last_reported":1719339083,"current_range_meters":20000,"station_id":"ce4bh092rcd13ifvqd30","pricing_plan_id":"cebpf4jnsgd1na2vs0mg"},{"bike_id":"8043cc8a-f702-4e45-9523-d56dfd7ee432","system_id":"levelo_inurba_marseille","lat":43.337368,"lon":5.374683,"is_reserved":false,"is_disabled":false,"rental_uris":{"android":"levelo://app?vid=8043cc8a-f702-4e45-9523-d56dfd7ee432","ios":"levelo://app?vid=8043cc8a-f702-4e45-9523-d56dfd7ee432"},"vehicle_type_id":"0","last_reported":1719339083,"current_range_meters":22000,"station_id":"","pricing_plan_id":"cebpf4jnsgd1na2vs0mg"},{"bike_id":"c3ddbe4a-157d-4893-acf1-f1f626a65d21","system_id":"levelo_inurba_marseille","lat":43.337386,"lon":5.374597,"is_reserved":false,"is_disabled":false,"rental_uris":{"android":"levelo://app?vid=c3ddbe4a-157d-4893-acf1-f1f626a65d21","ios":"levelo://app?vid=c3ddbe4a-157d-4893-acf1-f1f626a65d21"},"vehicle_type_id":"0","last_reported":1719339083,"current_range_meters":19200,"station_id":"","pricing_plan_id":"cebpf4jnsgd1na2vs0mg"},{"bike_id":"9b81675f-44cd-4cbe-9733-2d36a516d8f7","system_id":"levelo_inurba_marseille","lat":43.337372,"lon":5.374683,"is_reserved":false,"is_disabled":false,"rental_uris":{"android":"levelo://app?vid=9b81675f-44cd-4cbe-9733-2d36a516d8f7","ios":"levelo://app?vid=9b81675f-44cd-4cbe-9733-2d36a516d8f7"},"vehicle_type_id":"0","last_reported":1719339083,"current_range_meters":23600,"station_id":"","pricing_plan_id":"cebpf4jnsgd1na2vs0mg"},{"bike_id":"c25a3696-e1cc-43ba-8656-23d4a118ee2e","system_id":"levelo_inurba_marseille","lat":43.337366,"lon":5.374724,"is_reserved":false,"is_disabled":false,"rental_uris":{"android":"levelo://app?vid=c25a3696-e1cc-43ba-8656-23d4a118ee2e","ios":"levelo://app?vid=c25a3696-e1cc-43ba-8656-23d4a118ee2e"},"vehicle_type_id":"4","last_reported":1719339083,"current_range_meters":22800,"station_id":"","pricing_plan_id":"cebpf4jnsgd1na2vs0mg"},{"bike_id":"bd9a6c26-2db3-4e30-92c7-c85ae97147aa","system_id":"levelo_inurba_marseille","lat":43.337394,"lon":5.374622,"is_reserved":false,"is_disabled":false,"rental_uris":{"android":"levelo://app?vid=bd9a6c26-2db3-4e30-92c7-c85ae97147aa","ios":"levelo://app?vid=bd9a6c26-2db3-4e30-92c7-c85ae97147aa"},"vehicle_type_id":"0","last_reported":1719339083,"current_range_meters":25200,"station_id":"","pricing_plan_id":"cebpf4jnsgd1na2vs0mg"},{"bike_id":"70df0eff-7892-4d64-8b33-f9b25d3cdb77","system_id":"levelo_inurba_marseille","lat":43.337389,"lon":5.374659,"is_reserved":false,"is_disabled":false,"rental_uris":{"android":"levelo://app?vid=70df0eff-7892-4d64-8b33-f9b25d3cdb77","ios":"levelo://app?vid=70df0eff-7892-4d64-8b33-f9b25d3cdb77"},"vehicle_type_id":"4","last_reported":1719339083,"current_range_meters":22800,"station_id":"","pricing_plan_id":"cebpf4jnsgd1na2vs0mg"},{"bike_id":"aa527c2c-31a5-479b-bfbe-daae0d9bb514","system_id":"levelo_inurba_marseille","lat":43.337391,"lon":5.374658,"is_reserved":false,"is_disabled":false,"rental_uris":{"android":"levelo://app?vid=aa527c2c-31a5-479b-bfbe-daae0d9bb514","ios":"levelo://app?vid=aa527c2c-31a5-479b-bfbe-daae0d9bb514"},"vehicle_type_id":"0","last_reported":1719339083,"current_range_meters":12400,"station_id":"","pricing_plan_id":"cebpf4jnsgd1na2vs0mg"},{"bike_id":"985eda3a-8205-4c72-8b0d-a44593dd15b5","system_id":"levelo_inurba_marseille","lat":43.337401,"lon":5.374687,"is_reserved":false,"is_disabled":false,"rental_uris":{"android":"levelo://app?vid=985eda3a-8205-4c72-8b0d-a44593dd15b5","ios":"levelo://app?vid=985eda3a-8205-4c72-8b0d-a44593dd15b5"},"vehicle_type_id":"0","last_reported":1719339083,"current_range_meters":15600,"station_id":"","pricing_plan_id":"cebpf4jnsgd1na2vs0mg"},{"bike_id":"b8505fe9-a826-4138-b01b-765cc7f3de41","system_id":"levelo_inurba_marseille","lat":43.312609,"lon":5.401662,"is_reserved":false,"is_disabled":false,"rental_uris":{"android":"levelo://app?vid=b8505fe9-a826-4138-b01b-765cc7f3de41","ios":"levelo://app?vid=b8505fe9-a826-4138-b01b-765cc7f3de41"},"vehicle_type_id":"4","last_reported":1719339083,"current_range_meters":28400,"station_id":"ce4bh092rcd13ifvqd30","pricing_plan_id":"cebpf4jnsgd1na2vs0mg"},{"bike_id":"cbff8e2e-87ad-4d9e-a09d-9b1fba1c0aeb","system_id":"levelo_inurba_marseille","lat":43.337406,"lon":5.374681,"is_reserved":false,"is_disabled":false,"rental_uris":{"android":"levelo://app?vid=cbff8e2e-87ad-4d9e-a09d-9b1fba1c0aeb","ios":"levelo://app?vid=cbff8e2e-87ad-4d9e-a09d-9b1fba1c0aeb"},"vehicle_type_id":"0","last_reported":1719339083,"current_range_meters":22400,"station_id":"","pricing_plan_id":"cebpf4jnsgd1na2vs0mg"},{"bike_id":"11da98ef-d0c3-43c2-a7e4-890f2c23ccbc","system_id":"levelo_inurba_marseille","lat":43.337415,"lon":5.374645,"is_reserved":false,"is_disabled":false,"rental_uris":{"android":"levelo://app?vid=11da98ef-d0c3-43c2-a7e4-890f2c23ccbc","ios":"levelo://app?vid=11da98ef-d0c3-43c2-a7e4-890f2c23ccbc"},"vehicle_type_id":"4","last_reported":1719339083,"current_range_meters":16400,"station_id":"","pricing_plan_id":"cebpf4jnsgd1na2vs0mg"},{"bike_id":"bf709b1a-1e81-4c69-a36a-dfef45d67fee","system_id":"levelo_inurba_marseille","lat":43.337408,"lon":5.374696,"is_reserved":false,"is_disabled":false,"rental_uris":{"android":"levelo://app?vid=bf709b1a-1e81-4c69-a36a-dfef45d67fee","ios":"levelo://app?vid=bf709b1a-1e81-4c69-a36a-dfef45d67fee"},"vehicle_type_id":"4","last_reported":1719339083,"current_range_meters":22400,"station_id":"","pricing_plan_id":"cebpf4jnsgd1na2vs0mg"},{"bike_id":"81f3b553-8793-429e-bdf8-35ca3752f904","system_id":"levelo_inurba_marseille","lat":43.309371,"lon":5.401449,"is_reserved":false,"is_disabled":false,"rental_uris":{"android":"levelo://app?vid=81f3b553-8793-429e-bdf8-35ca3752f904","ios":"levelo://app?vid=81f3b553-8793-429e-bdf8-35ca3752f904"},"vehicle_type_id":"4","last_reported":1719339083,"current_range_meters":10400,"station_id":"ce4bgvp2rcd13ifvqct0","pricing_plan_id":"cebpf4jnsgd1na2vs0mg"},{"bike_id":"2bffac18-a8fe-485f-be52-f67a471a544f","system_id":"levelo_inurba_marseille","lat":43.31279,"lon":5.40173,"is_reserved":false,"is_disabled":false,"rental_uris":{"android":"levelo://app?vid=2bffac18-a8fe-485f-be52-f67a471a544f","ios":"levelo://app?vid=2bffac18-a8fe-485f-be52-f67a471a544f"},"vehicle_type_id":"4","last_reported":1719339083,"current_range_meters":0,"station_id":"ce4bh092rcd13ifvqd30","pricing_plan_id":"cebpf4jnsgd1na2vs0mg"},{"bike_id":"2a0fb516-a307-4861-b129-104556c40f00","system_id":"levelo_inurba_marseille","lat":43.337437,"lon":5.374663,"is_reserved":false,"is_disabled":false,"rental_uris":{"android":"levelo://app?vid=2a0fb516-a307-4861-b129-104556c40f00","ios":"levelo://app?vid=2a0fb516-a307-4861-b129-104556c40f00"},"vehicle_type_id":"0","last_reported":1719339083,"current_range_meters":14000,"station_id":"","pricing_plan_id":"cebpf4jnsgd1na2vs0mg"},{"bike_id":"f987180d-160b-49a3-acd1-d70c132d352e","system_id":"levelo_inurba_marseille","lat":43.312609,"lon":5.401662,"is_reserved":false,"is_disabled":false,"rental_uris":{"android":"levelo://app?vid=f987180d-160b-49a3-acd1-d70c132d352e","ios":"levelo://app?vid=f987180d-160b-49a3-acd1-d70c132d352e"},"vehicle_type_id":"4","last_reported":1719339083,"current_range_meters":0,"station_id":"ce4bh092rcd13ifvqd30","pricing_plan_id":"cebpf4jnsgd1na2vs0mg"},{"bike_id":"a71fdf04-5b69-45dc-8b97-6f30f37eb8cd","system_id":"levelo_inurba_marseille","lat":43.309371,"lon":5.401449,"is_reserved":false,"is_disabled":false,"rental_uris":{"android":"levelo://app?vid=a71fdf04-5b69-45dc-8b97-6f30f37eb8cd","ios":"levelo://app?vid=a71fdf04-5b69-45dc-8b97-6f30f37eb8cd"},"vehicle_type_id":"4","last_reported":1719339083,"current_range_meters":9600,"station_id":"ce4bgvp2rcd13ifvqct0","pricing_plan_id":"cebpf4jnsgd1na2vs0mg"},{"bike_id":"f867320b-b3ee-4d44-8ef3-37d72db21942","system_id":"levelo_inurba_marseille","lat":43.33754,"lon":5.37456,"is_reserved":false,"is_disabled":false,"rental_uris":{"android":"levelo://app?vid=f867320b-b3ee-4d44-8ef3-37d72db21942","ios":"levelo://app?vid=f867320b-b3ee-4d44-8ef3-37d72db21942"},"vehicle_type_id":"4","last_reported":1719339083,"current_range_meters":25600,"station_id":"","pricing_plan_id":"cebpf4jnsgd1na2vs0mg"},{"bike_id":"c4d4abff-55e7-42b6-a469-da57f67d8edc","system_id":"levelo_inurba_marseille","lat":43.306412,"lon":5.401035,"is_reserved":false,"is_disabled":false,"rental_uris":{"android":"levelo://app?vid=c4d4abff-55e7-42b6-a469-da57f67d8edc","ios":"levelo://app?vid=c4d4abff-55e7-42b6-a469-da57f67d8edc"},"vehicle_type_id":"4","last_reported":1719339083,"current_range_meters":5600,"station_id":"ce4bh112rcd13ifvqda0","pricing_plan_id":"cebpf4jnsgd1na2vs0mg"},{"bike_id":"0297ed35-1807-4994-a328-886e8fd0c7a7","system_id":"levelo_inurba_marseille","lat":43.306412,"lon":5.401035,"is_reserved":false,"is_disabled":false,"rental_uris":{"android":"levelo://app?vid=0297ed35-1807-4994-a328-886e8fd0c7a7","ios":"levelo://app?vid=0297ed35-1807-4994-a328-886e8fd0c7a7"},"vehicle_type_id":"4","last_reported":1719339083,"current_range_meters":8400,"station_id":"ce4bh112rcd13ifvqda0","pricing_plan_id":"cebpf4jnsgd1na2vs0mg"},{"bike_id":"19c239d3-5a4b-4aff-8085-66266dba085d","system_id":"levelo_inurba_marseille","lat":43.33765,"lon":5.37482,"is_reserved":false,"is_disabled":false,"rental_uris":{"android":"levelo://app?vid=19c239d3-5a4b-4aff-8085-66266dba085d","ios":"levelo://app?vid=19c239d3-5a4b-4aff-8085-66266dba085d"},"vehicle_type_id":"4","last_reported":1719339083,"current_range_meters":31200,"station_id":"","pricing_plan_id":"cebpf4jnsgd1na2vs0mg"},{"bike_id":"1b5614d8-a851-414c-b6fc-661d96c08d94","system_id":"levelo_inurba_marseille","lat":43.301117,"lon":5.398795,"is_reserved":false,"is_disabled":false,"rental_uris":{"android":"levelo://app?vid=1b5614d8-a851-414c-b6fc-661d96c08d94","ios":"levelo://app?vid=1b5614d8-a851-414c-b6fc-661d96c08d94"},"vehicle_type_id":"4","last_reported":1719339083,"current_range_meters":28000,"station_id":"ce4bh0h2rcd13ifvqd40","pricing_plan_id":"cebpf4jnsgd1na2vs0mg"},{"bike_id":"3fcaf2f1-ba40-4af8-9283-7fe031e2251e","system_id":"levelo_inurba_marseille","lat":43.298681,"lon":5.397225,"is_reserved":false,"is_disabled":false,"rental_uris":{"android":"levelo://app?vid=3fcaf2f1-ba40-4af8-9283-7fe031e2251e","ios":"levelo://app?vid=3fcaf2f1-ba40-4af8-9283-7fe031e2251e"},"vehicle_type_id":"4","last_reported":1719339083,"current_range_meters":3600,"station_id":"ce4bh0h2rcd13ifvqd50","pricing_plan_id":"cebpf4jnsgd1na2vs0mg"},{"bike_id":"783d1eed-23b8-4a20-8d07-a5aa9c2ce0c4","system_id":"levelo_inurba_marseille","lat":43.286961,"lon":5.373785,"is_reserved":false,"is_disabled":false,"rental_uris":{"android":"levelo://app?vid=783d1eed-23b8-4a20-8d07-a5aa9c2ce0c4","ios":"levelo://app?vid=783d1eed-23b8-4a20-8d07-a5aa9c2ce0c4"},"vehicle_type_id":"4","last_reported":1719339083,"current_range_meters":4000,"station_id":"ce4bh3p2rcd13ifvqdq0","pricing_plan_id":"cebpf4jnsgd1na2vs0mg"},{"bike_id":"c9e3845e-1d2d-45b5-a818-65a7de301e18","system_id":"levelo_inurba_marseille","lat":43.286961,"lon":5.373785,"is_reserved":false,"is_disabled":false,"rental_uris":{"android":"levelo://app?vid=c9e3845e-1d2d-45b5-a818-65a7de301e18","ios":"levelo://app?vid=c9e3845e-1d2d-45b5-a818-65a7de301e18"},"vehicle_type_id":"4","last_reported":1719339083,"current_range_meters":12000,"station_id":"ce4bh3p2rcd13ifvqdq0","pricing_plan_id":"cebpf4jnsgd1na2vs0mg"},{"bike_id":"72dcec35-13e7-4e0a-a063-445addaf19bc","system_id":"levelo_inurba_marseille","lat":43.29877,"lon":5.39739,"is_reserved":false,"is_disabled":false,"rental_uris":{"android":"levelo://app?vid=72dcec35-13e7-4e0a-a063-445addaf19bc","ios":"levelo://app?vid=72dcec35-13e7-4e0a-a063-445addaf19bc"},"vehicle_type_id":"4","last_reported":1719339083,"current_range_meters":0,"station_id":"ce4bh0h2rcd13ifvqd50","pricing_plan_id":"cebpf4jnsgd1na2vs0mg"},{"bike_id":"c9ff18b5-82b3-470b-91a2-f5c402e0310f","system_id":"levelo_inurba_marseille","lat":43.286961,"lon":5.373785,"is_reserved":false,"is_disabled":false,"rental_uris":{"android":"levelo://app?vid=c9ff18b5-82b3-470b-91a2-f5c402e0310f","ios":"levelo://app?vid=c9ff18b5-82b3-470b-91a2-f5c402e0310f"},"vehicle_type_id":"4","last_reported":1719339083,"current_range_meters":400,"station_id":"ce4bh3p2rcd13ifvqdq0","pricing_plan_id":"cebpf4jnsgd1na2vs0mg"},{"bike_id":"cb10ff8a-2087-4408-a63a-5f863895a03f","system_id":"levelo_inurba_marseille","lat":43.286961,"lon":5.373785,"is_reserved":false,"is_disabled":false,"rental_uris":{"android":"levelo://app?vid=cb10ff8a-2087-4408-a63a-5f863895a03f","ios":"levelo://app?vid=cb10ff8a-2087-4408-a63a-5f863895a03f"},"vehicle_type_id":"4","last_reported":1719339083,"current_range_meters":14400,"station_id":"ce4bh3p2rcd13ifvqdq0","pricing_plan_id":"cebpf4jnsgd1na2vs0mg"},{"bike_id":"b7b5fc6a-2ba2-489b-a832-07b2dddc688b","system_id":"levelo_inurba_marseille","lat":43.286974,"lon":5.373919,"is_reserved":false,"is_disabled":false,"rental_uris":{"android":"levelo://app?vid=b7b5fc6a-2ba2-489b-a832-07b2dddc688b","ios":"levelo://app?vid=b7b5fc6a-2ba2-489b-a832-07b2dddc688b"},"vehicle_type_id":"4","last_reported":1719339083,"current_range_meters":23200,"station_id":"ce4bh3p2rcd13ifvqdq0","pricing_plan_id":"cebpf4jnsgd1na2vs0mg"},{"bike_id":"da7f5028-a98f-4e41-9c7a-556e57bc9699","system_id":"levelo_inurba_marseille","lat":43.29525,"lon":5.39405,"is_reserved":false,"is_disabled":false,"rental_uris":{"android":"levelo://app?vid=da7f5028-a98f-4e41-9c7a-556e57bc9699","ios":"levelo://app?vid=da7f5028-a98f-4e41-9c7a-556e57bc9699"},"vehicle_type_id":"4","last_reported":1719339083,"current_range_meters":11600,"station_id":"ce4bh292rcd13ifvqdf0","pricing_plan_id":"cebpf4jnsgd1na2vs0mg"},{"bike_id":"f4b6e67f-ca66-473f-99ff-96bc6bf21e6d","system_id":"levelo_inurba_marseille","lat":43.28927,"lon":5.38396,"is_reserved":false,"is_disabled":false,"rental_uris":{"android":"levelo://app?vid=f4b6e67f-ca66-473f-99ff-96bc6bf21e6d","ios":"levelo://app?vid=f4b6e67f-ca66-473f-99ff-96bc6bf21e6d"},"vehicle_type_id":"4","last_reported":1719339083,"current_range_meters":26800,"station_id":"ce4bh612rcd13ifvqe6g","pricing_plan_id":"cebpf4jnsgd1na2vs0mg"},{"bike_id":"21169f22-44b2-41d6-854d-273bf8ae0c25","system_id":"levelo_inurba_marseille","lat":43.30249,"lon":5.40058,"is_reserved":false,"is_disabled":false,"rental_uris":{"android":"levelo://app?vid=21169f22-44b2-41d6-854d-273bf8ae0c25","ios":"levelo://app?vid=21169f22-44b2-41d6-854d-273bf8ae0c25"},"vehicle_type_id":"4","last_reported":1719339083,"current_range_meters":5200,"station_id":"ce4bgvh2rcd13ifvqcs0","pricing_plan_id":"cebpf4jnsgd1na2vs0mg"},