{"last_updated":1769786624,"ttl":60,"version":"2.2","data":{"bikes":[{"bike_id":"c7f5030a-2012-43f3-b9f8-0fff8ff1b27a","system_id":"levelo_inurba_marseille","lat":43.26578,"lon":5.39036,"is_reserved":false,"is_disabled":false,"rental_uris":{"android":"levelo://app?vid=c7f5030a-2012-43f3-b9f8-0fff8ff1b27a","ios":"levelo://app?vid=c7f5030a-2012-43f3-b9f8-0fff8ff1b27a"},"vehicle_type_id":"4","last_reported":1769786625,"current_range_meters":2800,"station_id":"","pricing_plan_id":"cebpf4jnsgd1na2vs0mg"},{"bike_id":"6a55840f-d3ec-4a8c-ba4a-73907341d2fc","system_id":"levelo_inurba_marseille","lat":43.26206,"lon":5.37454,"is_reserved":false,"is_disabled":false,"rental_uris":{"android":"levelo://app?vid=6a55840f-d3ec-4a8c-ba4a-73907341d2fc","ios":"levelo://app?vid=6a55840f-d3ec-4a8c-ba4a-73907341d2fc"},"vehicle_type_id":"4","last_reported":1769786625,"current_range_meters":2800,"station_id":"ce4bhgp2rcd13ifvqfc0","pricing_plan_id":"cebpf4jnsgd1na2vs0mg"},{"bike_id":"849c0461-50f7-4dfa-a86e-4d306733a452","system_id":"levelo_inurba_marseille","lat":43.295236,"lon":5.390411,"is_reserved":false,"is_disabled":false,"rental_uris":{"android":"levelo://app?vid=849c0461-50f7-4dfa-a86e-4d306733a452","ios":"levelo://app?vid=849c0461-50f7-4dfa-a86e-4d306733a452"},"vehicle_type_id":"4","last_reported":1769786625,"current_range_meters":2800,"station_id":"ce4bh3p2rcd13ifvqdp0","pricing_plan_id":"cebpf4jnsgd1na2vs0mg"},{"bike_id":"9597043f-608b-45d0-9def-65a30011a044","system_id":"levelo_inurba_marseille","lat":43.30408,"lon":5.41162,"is_reserved":false,"is_disabled":false,"rental_uris":{"android":"levelo://app?vid=9597043f-608b-45d0-9def-65a30011a044","ios":"levelo://app?vid=9597043f-608b-45d0-9def-65a30011a044"},"vehicle_type_id":"4","last_reported":1769786625,"current_range_meters":2800,"station_id":"","pricing_plan_id":"cebpf4jnsgd1na2vs0mg"},{"bike_id":"a48003b8-47b0-493c-8dbe-8d0335a36766","system_id":"levelo_inurba_marseille","lat":43.24673,"lon":5.38145,"is_reserved":false,"is_disabled":false,"rental_uris":{"android":"levelo://app?vid=a48003b8-47b0-493c-8dbe-8d0335a36766","ios":"levelo://app?vid=a48003b8-47b0-493c-8dbe-8d0335a36766"},"vehicle_type_id":"4","last_reported":1769786625,"current_range_meters":2800,"station_id":"ce4bhih2rcd13ifvqfr0","pricing_plan_id":"cebpf4jnsgd1na2vs0mg"},{"bike_id":"5db094de-6a86-436e-8c6e-f8afae445efb","system_id":"levelo_inurba_marseille","lat":43.28524,"lon":5.44091,"is_reserved":false,"is_disabled":false,"rental_uris":{"android":"levelo://app?vid=5db094de-6a86-436e-8c6e-f8afae445efb","ios":"levelo://app?vid=5db094de-6a86-436e-8c6e-f8afae445efb"},"vehicle_type_id":"4","last_reported":1769786625,"current_range_meters":2800,"station_id":"st_d3j3df2ikq2c7380ej80","pricing_plan_id":"cebpf4jnsgd1na2vs0mg"},{"bike_id":"e236f0a6-2e87-48ed-94ce-e49f696f4842","system_id":"levelo_inurba_marseille","lat":43.26604,"lon":5.37512,"is_reserved":false,"is_disabled":false,"rental_uris":{"android":"levelo://app?vid=e236f0a6-2e87-48ed-94ce-e49f696f4842","ios":"levelo://app?vid=e236f0a6-2e87-48ed-94ce-e49f696f4842"},"vehicle_type_id":"4","last_reported":1769786625,"current_range_meters":2800,"station_id":"","pricing_plan_id":"cebpf4jnsgd1na2vs0mg"},{"bike_id":"8223c271-6c0a-4305-bc72-8d7e38f652fb","system_id":"levelo_inurba_marseille","lat":43.27429,"lon":5.3941,"is_reserved":false,"is_disabled":false,"rental_uris":{"android":"levelo://app?vid=8223c271-6c0a-4305-bc72-8d7e38f652fb","ios":"levelo://app?vid=8223c271-6c0a-4305-bc72-8d7e38f652fb"},"vehicle_type_id":"4","last_reported":1769786625,"current_range_meters":2800,"station_id":"ce4bhdp2rcd13ifvqf20","pricing_plan_id":"cebpf4jnsgd1na2vs0mg"},{"bike_id":"8c50cc1b-6957-4db2-9b96-76d9d37bac03","system_id":"levelo_inurba_marseille","lat":43.22579,"lon":5.41614,"is_reserved":false,"is_disabled":false,"rental_uris":{"android":"levelo://app?vid=8c50cc1b-6957-4db2-9b96-76d9d37bac03","ios":"levelo://app?vid=8c50cc1b-6957-4db2-9b96-76d9d37bac03"},"vehicle_type_id":"4","last_reported":1769786625,"current_range_meters":2800,"station_id":"st_d2o4gvlbi1j2169b742g","pricing_plan_id":"cebpf4jnsgd1na2vs0mg"},{"bike_id":"ae2bd00b-86f2-42b9-8e4e-3fa74e019d82","system_id":"levelo_inurba_marseille","lat":43.23196,"lon":5.39974,"is_reserved":false,"is_disabled":false,"rental_uris":{"android":"levelo://app?vid=ae2bd00b-86f2-42b9-8e4e-3fa74e019d82","ios":"levelo://app?vid=ae2bd00b-86f2-42b9-8e4e-3fa74e019d82"},"vehicle_type_id":"4","last_reported":1769786625,"current_range_meters":2800,"station_id":"ce4bhn12rcd13ifvqgqg","pricing_plan_id":"cebpf4jnsgd1na2vs0mg"},{"bike_id":"706fe81a-bdb2-42d8-b800-5c8160b7054c","system_id":"levelo_inurba_marseille","lat":43.25366,"lon":5.42154,"is_reserved":false,"is_disabled":false,"rental_uris":{"android":"levelo://app?vid=706fe81a-bdb2-42d8-b800-5c8160b7054c","ios":"levelo://app?vid=706fe81a-bdb2-42d8-b800-5c8160b7054c"},"vehicle_type_id":"4","last_reported":1769786625,"current_range_meters":2800,"station_id":"st_d2m65c5bi1j21697t3ng","pricing_plan_id":"cebpf4jnsgd1na2vs0mg"},{"bike_id":"b7b8d78d-d0cf-4bd2-b3db-7c5d0b8d807a","system_id":"levelo_inurba_marseille","lat":43.30491,"lon":5.41078,"is_reserved":false,"is_disabled":false,"rental_uris":{"android":"levelo://app?vid=b7b8d78d-d0cf-4bd2-b3db-7c5d0b8d807a","ios":"levelo://app?vid=b7b8d78d-d0cf-4bd2-b3db-7c5d0b8d807a"},"vehicle_type_id":"4","last_reported":1769786625,"current_range_meters":2800,"station_id":"","pricing_plan_id":"cebpf4jnsgd1na2vs0mg"},{"bike_id":"932bb106-3c96-4dbf-947d-0b48571ad9e2","system_id":"levelo_inurba_marseille","lat":43.27378,"lon":5.36269,"is_reserved":false,"is_disabled":false,"rental_uris":{"android":"levelo://app?vid=932bb106-3c96-4dbf-947d-0b48571ad9e2","ios":"levelo://app?vid=932bb106-3c96-4dbf-947d-0b48571ad9e2"},"vehicle_type_id":"4","last_reported":1769786625,"current_range_meters":3200,"station_id":"ce4bhbh2rcd13ifvqeo0","pricing_plan_id":"cebpf4jnsgd1na2vs0mg"},{"bike_id":"d0c5e232-fb80-42d5-bee7-c693e3fe20fa","system_id":"levelo_inurba_marseille","lat":43.2762,"lon":5.36116,"is_reserved":false,"is_disabled":false,"rental_uris":{"android":"levelo://app?vid=d0c5e232-fb80-42d5-bee7-c693e3fe20fa","ios":"levelo://app?vid=d0c5e232-fb80-42d5-bee7-c693e3fe20fa"},"vehicle_type_id":"4","last_reported":1769786625,"current_range_meters":3200,"station_id":"ce4bgj92rcd13ifvqbe0","pricing_plan_id":"cebpf4jnsgd1na2vs0mg"},{"bike_id":"947b3f41-400e-4a7b-9150-c4b106fc2b3b","system_id":"levelo_inurba_marseille","lat":43.255815,"lon":5.382261,"is_reserved":false,"is_disabled":false,"rental_uris":{"android":"levelo://app?vid=947b3f41-400e-4a7b-9150-c4b106fc2b3b","ios":"levelo://app?vid=947b3f41-400e-4a7b-9150-c4b106fc2b3b"},"vehicle_type_id":"4","last_reported":1769786625,"current_range_meters":3200,"station_id":"ce4bhih2rcd13ifvqfs0","pricing_plan_id":"cebpf4jnsgd1na2vs0mg"},{"bike_id":"3a64fbc5-0577-4e14-8df9-6ac9b484ce1c","system_id":"levelo_inurba_marseille","lat":43.29966,"lon":5.38492,"is_reserved":false,"is_disabled":false,"rental_uris":{"android":"levelo://app?vid=3a64fbc5-0577-4e14-8df9-6ac9b484ce1c","ios":"levelo://app?vid=3a64fbc5-0577-4e14-8df9-6ac9b484ce1c"},"vehicle_type_id":"4","last_reported":1769786625,"current_range_meters":3200,"station_id":"ce4bgj92rcd13ifvqbd0","pricing_plan_id":"cebpf4jnsgd1na2vs0mg"},{"bike_id":"1e1b2d31-1295-4191-9d05-650830a76117","system_id":"levelo_inurba_marseille","lat":43.3015,"lon":5.41504,"is_reserved":false,"is_disabled":false,"rental_uris":{"android":"levelo://app?vid=1e1b2d31-1295-4191-9d05-650830a76117","ios":"levelo://app?vid=1e1b2d31-1295-4191-9d05-650830a76117"},"vehicle_type_id":"4","last_reported":1769786625,"current_range_meters":3200,"station_id":"","pricing_plan_id":"cebpf4jnsgd1na2vs0mg"},{"bike_id":"877bff3f-1ce1-44fd-b2b5-3cb73af35a54","system_id":"levelo_inurba_marseille","lat":43.27997,"lon":5.41671,"is_reserved":false,"is_disabled":false,"rental_uris":{"android":"levelo://app?vid=877bff3f-1ce1-44fd-b2b5-3cb73af35a54","ios":"levelo://app?vid=877bff3f-1ce1-44fd-b2b5-3cb73af35a54"},"vehicle_type_id":"4","last_reported":1769786625,"current_range_meters":3200,"station_id":"ce4bho12rcd13ifvqh1g","pricing_plan_id":"cebpf4jnsgd1na2vs0mg"},{"bike_id":"9cb452e9-d8bd-4f94-ae3a-ce5822a8ab79","system_id":"levelo_inurba_marseille","lat":43.28457,"lon":5.35889,"is_reserved":false,"is_disabled":false,"rental_uris":{"android":"levelo://app?vid=9cb452e9-d8bd-4f94-ae3a-ce5822a8ab79","ios":"levelo://app?vid=9cb452e9-d8bd-4f94-ae3a-ce5822a8ab79"},"vehicle_type_id":"4","last_reported":1769786625,"current_range_meters":3200,"station_id":"ce4bhah2rcd13ifvqei0","pricing_plan_id":"cebpf4jnsgd1na2vs0mg"},{"bike_id":"60f3f33a-08c9-4172-83e3-7fd6ea39ca10","system_id":"levelo_inurba_marseille","lat":43.32343,"lon":5.385,"is_reserved":false,"is_disabled":false,"rental_uris":{"android":"levelo://app?vid=60f3f33a-08c9-4172-83e3-7fd6ea39ca10","ios":"levelo://app?vid=60f3f33a-08c9-4172-83e3-7fd6ea39ca10"},"vehicle_type_id":"4","last_reported":1769786625,"current_range_meters":3200,"station_id":"st_d45171o9ee8s73djdqug","pricing_plan_id":"cebpf4jnsgd1na2vs0mg"},{"bike_id":"dba1cd34-42d0-43e1-97a1-acdccc4fc1cd","system_id":"levelo_inurba_marseille","lat":43.2412,"lon":5.37676,"is_reserved":false,"is_disabled":false,"rental_uris":{"android":"levelo://app?vid=dba1cd34-42d0-43e1-97a1-acdccc4fc1cd","ios":"levelo://app?vid=dba1cd34-42d0-43e1-97a1-acdccc4fc1cd"},"vehicle_type_id":"4","last_reported":1769786625,"current_range_meters":3200,"station_id":"","pricing_plan_id":"cebpf4jnsgd1na2vs0mg"},{"bike_id":"1114ebb6-7ef4-481e-9f89-e7114d48e68c","system_id":"levelo_inurba_marseille","lat":43.29195,"lon":5.35816,"is_reserved":false,"is_disabled":false,"rental_uris":{"android":"levelo://app?vid=1114ebb6-7ef4-481e-9f89-e7114d48e68c","ios":"levelo://app?vid=1114ebb6-7ef4-481e-9f89-e7114d48e68c"},"vehicle_type_id":"4","last_reported":1769786625,"current_range_meters":3200,"station_id":"ce4bhb12rcd13ifvqel0","pricing_plan_id":"cebpf4jnsgd1na2vs0mg"},{"bike_id":"14ad4359-d217-40c8-bc15-7989600afabe","system_id":"levelo_inurba_marseille","lat":43.2839,"lon":5.40703,"is_reserved":false,"is_disabled":false,"rental_uris":{"android":"levelo://app?vid=14ad4359-d217-40c8-bc15-7989600afabe","ios":"levelo://app?vid=14ad4359-d217-40c8-bc15-7989600afabe"},"vehicle_type_id":"4","last_reported":1769786625,"current_range_meters":3600,"station_id":"","pricing_plan_id":"cebpf4jnsgd1na2vs0mg"},{"bike_id":"c834c9ca-ee6a-4702-8be0-09ce46e36ea0","system_id":"levelo_inurba_marseille","lat":43.29036,"lon":5.37561,"is_reserved":false,"is_disabled":false,"rental_uris":{"android":"levelo://app?vid=c834c9ca-ee6a-4702-8be0-09ce46e36ea0","ios":"levelo://app?vid=c834c9ca-ee6a-4702-8be0-09ce46e36ea0"},"vehicle_type_id":"4","last_reported":1769786625,"current_range_meters":3600,"station_id":"ce4bh692rcd13ifvqe90","pricing_plan_id":"cebpf4jnsgd1na2vs0mg"},{"bike_id":"b5e3c12a-c4be-44f0-8a21-55bb1beb83a0","system_id":"levelo_inurba_marseille","lat":43.24177,"lon":5.39729,"is_reserved":false,"is_disabled":false,"rental_uris":{"android":"levelo://app?vid=b5e3c12a-c4be-44f0-8a21-55bb1beb83a0","ios":"levelo://app?vid=b5e3c12a-c4be-44f0-8a21-55bb1beb83a0"},"vehicle_type_id":"4","last_reported":1769786625,"current_range_meters":3600,"station_id":"ce4bhn12rcd13ifvqgpg","pricing_plan_id":"cebpf4jnsgd1na2vs0mg"},{"bike_id":"1f755860-409f-4a10-b291-9ec23e0168ea","system_id":"levelo_inurba_marseille","lat":43.31364,"lon":5.38485,"is_reserved":false,"is_disabled":false,"rental_uris":{"android":"levelo://app?vid=1f755860-409f-4a10-b291-9ec23e0168ea","ios":"levelo://app?vid=1f755860-409f-4a10-b291-9ec23e0168ea"},"vehicle_type_id":"4","last_reported":1769786625,"current_range_meters":3600,"station_id":"ce4bgt92rcd13ifvqcf0","pricing_plan_id":"cebpf4jnsgd1na2vs0mg"},{"bike_id":"b8986cf3-fead-465b-a2b2-490f142a8aac","system_id":"levelo_inurba_marseille","lat":43.25827,"lon":5.39433,"is_reserved":false,"is_disabled":false,"rental_uris":{"android":"levelo://app?vid=b8986cf3-fead-465b-a2b2-490f142a8aac","ios":"levelo://app?vid=b8986cf3-fead-465b-a2b2-490f142a8aac"},"vehicle_type_id":"4","last_reported":1769786625,"current_range_meters":3600,"station_id":"ce4bhip2rcd13ifvqft0","pricing_plan_id":"cebpf4jnsgd1na2vs0mg"},{"bike_id":"52618983-8fe2-4689-b569-96e3af8a0baa","system_id":"levelo_inurba_marseille","lat":43.29259,"lon":5.38463,"is_reserved":false,"is_disabled":false,"rental_uris":{"android":"levelo://app?vid=52618983-8fe2-4689-b569-96e3af8a0baa","ios":"levelo://app?vid=52618983-8fe2-4689-b569-96e3af8a0baa"},"vehicle_type_id":"4","last_reported":1769786625,"current_range_meters":3600,"station_id":"ce4bh692rcd13ifvqea0","pricing_plan_id":"cebpf4jnsgd1na2vs0mg"},{"bike_id":"fcb6a24a-52b1-488a-b1ff-28d7bd022f8d","system_id":"levelo_inurba_marseille","lat":43.282684,"lon":5.35045,"is_reserved":false,"is_disabled":false,"rental_uris":{"android":"levelo://app?vid=fcb6a24a-52b1-488a-b1ff-28d7bd022f8d","ios":"levelo://app?vid=fcb6a24a-52b1-488a-b1ff-28d7bd022f8d"},"vehicle_type_id":"4","last_reported":1769786625,"current_range_meters":3600,"station_id":"ce4bhbp2rcd13ifvqerg","pricing_plan_id":"cebpf4jnsgd1na2vs0mg"},{"bike_id":"71ea06b7-46c1-4fc9-a594-153d92364656","system_id":"levelo_inurba_marseille","lat":43.30734,"lon":5.40955,"is_reserved":false,"is_disabled":false,"rental_uris":{"android":"levelo://app?vid=71ea06b7-46c1-4fc9-a594-153d92364656","ios":"levelo://app?vid=71ea06b7-46c1-4fc9-a594-153d92364656"},"vehicle_type_id":"4","last_reported":1769786625,"current_range_meters":3600,"station_id":"","pricing_plan_id":"cebpf4jnsgd1na2vs0mg"},{"bike_id":"25a9226a-9193-4bb4-8ad1-0a617754bee3","system_id":"levelo_inurba_marseille","lat":43.28529,"lon":5.44089,"is_reserved":false,"is_disabled":false,"rental_uris":{"android":"levelo://app?vid=25a9226a-9193-4bb4-8ad1-0a617754bee3","ios":"levelo://app?vid=25a9226a-9193-4bb4-8ad1-0a617754bee3"},"vehicle_type_id":"4","last_reported":1769786625,"current_range_meters":3600,"station_id":"","pricing_plan_id":"cebpf4jnsgd1na2vs0mg"},{"bike_id":"4bd6cb39-f26e-431f-9c48-bc9838a79167","system_id":"levelo_inurba_marseille","lat":43.29812,"lon":5.4404,"is_reserved":false,"is_disabled":false,"rental_uris":{"android":"levelo://app?vid=4bd6cb39-f26e-431f-9c48-bc9838a79167","ios":"levelo://app?vid=4bd6cb39-f26e-431f-9c48-bc9838a79167"},"vehicle_type_id":"4","last_reported":1769786625,"current_range_meters":3600,"station_id":"st_d3jp68qikq2c7381ktn0","pricing_plan_id":"cebpf4jnsgd1na2vs0mg"},{"bike_id":"d9b6343b-4e87-445f-8063-2fce9657168c","system_id":"levelo_inurba_marseille","lat":43.303858,"lon":5.375936,"is_reserved":false,"is_disabled":false,"rental_uris":{"android":"levelo://app?vid=d9b6343b-4e87-445f-8063-2fce9657168c","ios":"levelo://app?vid=d9b6343b-4e87-445f-8063-2fce9657168c"},"vehicle_type_id":"4","last_reported":1769786625,"current_range_meters":4000,"station_id":"","pricing_plan_id":"cebpf4jnsgd1na2vs0mg"},{"bike_id":"7346dc03-4f97-4086-87f3-66f53b4f4867","system_id":"levelo_inurba_marseille","lat":43.26549,"lon":5.3729,"is_reserved":false,"is_disabled":false,"rental_uris":{"android":"levelo://app?vid=7346dc03-4f97-4086-87f3-66f53b4f4867","ios":"levelo://app?vid=7346dc03-4f97-4086-87f3-66f53b4f4867"},"vehicle_type_id":"4","last_reported":1769786625,"current_range_meters":4000,"station_id":"ce4bhg12rcd13ifvqf70","pricing_plan_id":"cebpf4jnsgd1na2vs0mg"},{"bike_id":"0113fde2-16ba-483c-9656-720494edd7bf","system_id":"levelo_inurba_marseille","lat":43.23151,"lon":5.43714,"is_reserved":false,"is_disabled":false,"rental_uris":{"android":"levelo://app?vid=0113fde2-16ba-483c-9656-720494edd7bf","ios":"levelo://app?vid=0113fde2-16ba-483c-9656-720494edd7bf"},"vehicle_type_id":"4","last_reported":1769786625,"current_range_meters":4000,"station_id":"ce4bhmp2rcd13ifvqgog","pricing_plan_id":"cebpf4jnsgd1na2vs0mg"},{"bike_id":"0edb73c2-0d71-41ef-92a0-39c6197600e4","system_id":"levelo_inurba_marseille","lat":43.27055,"lon":5.38302,"is_reserved":false,"is_disabled":false,"rental_uris":{"android":"levelo://app?vid=0edb73c2-0d71-41ef-92a0-39c6197600e4","ios":"levelo://app?vid=0edb73c2-0d71-41ef-92a0-39c6197600e4"},"vehicle_type_id":"4","last_reported":1769786625,"current_range_meters":4000,"station_id":"st_d3n2fo6cfp8s73cte1j0","pricing_plan_id":"cebpf4jnsgd1na2vs0mg"},{"bike_id":"189b5eb9-954b-4512-8c31-5e0e8af132bc","system_id":"levelo_inurba_marseille","lat":43.28147,"lon":5.42644,"is_reserved":false,"is_disabled":false,"rental_uris":{"android":"levelo://app?vid=189b5eb9-954b-4512-8c31-5e0e8af132bc","ios":"levelo://app?vid=189b5eb9-954b-4512-8c31-5e0e8af132bc"},"vehicle_type_id":"4","last_reported":1769786625,"current_range_meters":4000,"station_id":"ce4bhnh2rcd13ifvqgug","pricing_plan_id":"cebpf4jnsgd1na2vs0mg"},{"bike_id":"46a1bdf0-1efa-4c19-aa58-b7dcdbf068c0","system_id":"levelo_inurba_marseille","lat":43.28286,"lon":5.35067,"is_reserved":false,"is_disabled":false,"rental_uris":{"android":"levelo://app?vid=46a1bdf0-1efa-4c19-aa58-b7dcdbf068c0","ios":"levelo://app?vid=46a1bdf0-1efa-4c19-aa58-b7dcdbf068c0"},"vehicle_type_id":"4","last_reported":1769786625,"current_range_meters":4000,"station_id":"ce4bhbp2rcd13ifvqerg","pricing_plan_id":"cebpf4jnsgd1na2vs0mg"},{"bike_id":"150e77dc-7d8f-47ae-956f-4e9037970b27","system_id":"levelo_inurba_marseille","lat":43.27185,"lon":5.40997,"is_reserved":false,"is_disabled":false,"rental_uris":{"android":"levelo://app?vid=150e77dc-7d8f-47ae-956f-4e9037970b27","ios":"levelo://app?vid=150e77dc-7d8f-47ae-956f-4e9037970b27"},"vehicle_type_id":"4","last_reported":1769786625,"current_range_meters":4000,"station_id":"ce4bhl12rcd13ifvqgf0","pricing_plan_id":"cebpf4jnsgd1na2vs0mg"},{"bike_id":"3cbe38d2-d6ac-4281-97db-584aa42a7728","system_id":"levelo_inurba_marseille","lat":43.2588,"lon":5.39914,"is_reserved":false,"is_disabled":false,"rental_uris":{"android":"levelo://app?vid=3cbe38d2-d6ac-4281-97db-584aa42a7728","ios":"levelo://app?vid=3cbe38d2-d6ac-4281-97db-584aa42a7728"},"vehicle_type_id":"4","last_reported":1769786625,"current_range_meters":4000,"station_id":"ce4bhl92rcd13ifvqghg","pricing_plan_id":"cebpf4jnsgd1na2vs0mg"},{"bike_id":"8124257b-86e4-4773-9928-40b9e517b1e7","system_id":"levelo_inurba_marseille","lat":43.24496,"lon":5.42539,"is_reserved":false,"is_disabled":false,"rental_uris":{"android":"levelo://app?vid=8124257b-86e4-4773-9928-40b9e517b1e7","ios":"levelo://app?vid=8124257b-86e4-4773-9928-40b9e517b1e7"},"vehicle_type_id":"4","last_reported":1769786625,"current_range_meters":4400,"station_id":"st_d4a3vfp97mjs738cd8kg","pricing_plan_id":"cebpf4jnsgd1na2vs0mg"},{"bike_id":"a22c794f-266b-4f9f-8ad7-897be8bca065","system_id":"levelo_inurba_marseille","lat":43.24678,"lon":5.3813,"is_reserved":false,"is_disabled":false,"rental_uris":{"android":"levelo://app?vid=a22c794f-266b-4f9f-8ad7-897be8bca065","ios":"levelo://app?vid=a22c794f-266b-4f9f-8ad7-897be8bca065"},"vehicle_type_id":"4","last_reported":1769786625,"current_range_meters":4400,"station_id":"ce4bhih2rcd13ifvqfr0","pricing_plan_id":"cebpf4jnsgd1na2vs0mg"},{"bike_id":"3c0a4f5b-f91e-4c02-ae6d-858f0316e6f4","system_id":"levelo_inurba_marseille","lat":43.2759,"lon":5.38997,"is_reserved":false,"is_disabled":false,"rental_uris":{"android":"levelo://app?vid=3c0a4f5b-f91e-4c02-ae6d-858f0316e6f4","ios":"levelo://app?vid=3c0a4f5b-f91e-4c02-ae6d-858f0316e6f4"},"vehicle_type_id":"4","last_reported":1769786625,"current_range_meters":4400,"station_id":"ce4bhi12rcd13ifvqfo0","pricing_plan_id":"cebpf4jnsgd1na2vs0mg"},{"bike_id":"d7b70a94-5c32-43a0-ac3f-9095d713694c","system_id":"levelo_inurba_marseille","lat":43.30792,"lon":5.38171,"is_reserved":false,"is_disabled":false,"rental_uris":{"android":"levelo://app?vid=d7b70a94-5c32-43a0-ac3f-9095d713694c","ios":"levelo://app?vid=d7b70a94-5c32-43a0-ac3f-9095d713694c"},"vehicle_type_id":"4","last_reported":1769786625,"current_range_meters":4400,"station_id":"ce4bgt12rcd13ifvqce0","pricing_plan_id":"cebpf4jnsgd1na2vs0mg"},{"bike_id":"c935e04b-ab5c-48de-be57-816bde2d87e7","system_id":"levelo_inurba_marseille","lat":43.25495,"lon":5.37656,"is_reserved":false,"is_disabled":false,"rental_uris":{"android":"levelo://app?vid=c935e04b-ab5c-48de-be57-816bde2d87e7","ios":"levelo://app?vid=c935e04b-ab5c-48de-be57-816bde2d87e7"},"vehicle_type_id":"4","last_reported":1769786625,"current_range_meters":4400,"station_id":"ce4bhh12rcd13ifvqff0","pricing_plan_id":"cebpf4jnsgd1na2vs0mg"},{"bike_id":"8656f91c-0804-45be-bdf5-5b4d933438cc","system_id":"levelo_inurba_marseille","lat":43.29003,"lon":5.35612,"is_reserved":false,"is_disabled":false,"rental_uris":{"android":"levelo://app?vid=8656f91c-0804-45be-bdf5-5b4d933438cc","ios":"levelo://app?vid=8656f91c-0804-45be-bdf5-5b4d933438cc"},"vehicle_type_id":"4","last_reported":1769786625,"current_range_meters":4400,"station_id":"ce4bhb92rcd13ifvqen0","pricing_plan_id":"cebpf4jnsgd1na2vs0mg"},{"bike_id":"86de935e-206b-4b42-b574-6014bfb785a0","system_id":"levelo_inurba_marseille","lat":43.29713,"lon":5.37706,"is_reserved":false,"is_disabled":false,"rental_uris":{"android":"levelo://app?vid=86de935e-206b-4b42-b574-6014bfb785a0","ios":"levelo://app?vid=86de935e-206b-4b42-b574-6014bfb785a0"},"vehicle_type_id":"4","last_reported":1769786625,"current_range_meters":4400,"station_id":"ce4bgkh2rcd13ifvqbl0","pricing_plan_id":"cebpf4jnsgd1na2vs0mg"},{"bike_id":"229e1e53-d161-472c-a68a-27dfb59cfa1b","system_id":"levelo_inurba_marseille","lat":43.29621,"lon":5.37156,"is_reserved":false,"is_disabled":false,"rental_uris":{"android":"levelo://app?vid=229e1e53-d161-472c-a68a-27dfb59cfa1b","ios":"levelo://app?vid=229e1e53-d161-472c-a68a-27dfb59cfa1b"},"vehicle_type_id":"4","last_reported":1769786625,"current_range_meters":4400,"station_id":"ce4bgnh2rcd13ifvqc0g","pricing_plan_id":"cebpf4jnsgd1na2vs0mg"},{"bike_id":"42beae56-7cba-4a17-b769-d10eb05158e8","system_id":"levelo_inurba_marseille","lat":43.2796,"lon":5.38693,"is_reserved":false,"is_disabled":true,"rental_uris":{"android":"levelo://app?vid=42beae56-7cba-4a17-b769-d10eb05158e8","ios":"levelo://app?vid=42beae56-7cba-4a17-b769-d10eb05158e8"},"vehicle_type_id":"4","last_reported":1769786625,"current_range_meters":4400,"station_id":"ce4bhg12rcd13ifvqf80","pricing_plan_id":"cebpf4jnsgd1na2vs0mg"},{"bike_id":"1e43a2a1-4490-43ec-a7cc-612c875496c7","system_id":"levelo_inurba_marseille","lat":43.30761,"lon":5.37182,"is_reserved":false,"is_disabled":false,"rental_uris":{"android":"levelo://app?vid=1e43a2a1-4490-43ec-a7cc-612c875496c7","ios":"levelo://app?vid=1e43a2a1-4490-43ec-a7cc-612c875496c7"},"vehicle_type_id":"4","last_reported":1769786625,"current_range_meters":4400,"station_id":"","pricing_plan_id":"cebpf4jnsgd1na2vs0mg"},{"bike_id":"f479a039-8033-47b9-816f-8d6e23143401","system_id":"levelo_inurba_marseille","lat":43.24811,"lon":5.37445,"is_reserved":false,"is_disabled":false,"rental_uris":{"android":"levelo://app?vid=f479a039-8033-47b9-816f-8d6e23143401","ios":"levelo://app?vid=f479a039-8033-47b9-816f-8d6e23143401"},"vehicle_type_id":"4","last_reported":1769786625,"current_range_meters":4400,"station_id":"ce4bhgh2rcd13ifvqfb0","pricing_plan_id":"cebpf4jnsgd1na2vs0mg"},{"bike_id":"84464309-0ca3-4c2d-911c-85d8f1e41e7d","system_id":"levelo_inurba_marseille","lat":43.25867,"lon":5.39902,"is_reserved":false,"is_disabled":false,"rental_uris":{"android":"levelo://app?vid=84464309-0ca3-4c2d-911c-85d8f1e41e7d","ios":"levelo://app?vid=84464309-0ca3-4c2d-911c-85d8f1e41e7d"},"vehicle_type_id":"4","last_reported":1769786625,"current_range_meters":4400,"station_id":"ce4bhl92rcd13ifvqghg","pricing_plan_id":"cebpf4jnsgd1na2vs0mg"},{"bike_id":"8bd2dedc-53b6-4a9b-b341-e8ab2dec2237","system_id":"levelo_inurba_marseille","lat":43.24643,"lon":5.43135,"is_reserved":false,"is_disabled":false,"rental_uris":{"android":"levelo://app?vid=8bd2dedc-53b6-4a9b-b341-e8ab2dec2237","ios":"levelo://app?vid=8bd2dedc-53b6-4a9b-b341-e8ab2dec2237"},"vehicle_type_id":"4","last_reported":1769786625,"current_range_meters":4400,"station_id":"st_d2m6c4gdas8pm72e190g","pricing_plan_id":"cebpf4jnsgd1na2vs0mg"},{"bike_id":"6f2111dd-6b6a-402c-9729-62f7313dcc5e","system_id":"levelo_inurba_marseille","lat":43.323524,"lon":5.367517,"is_reserved":false,"is_disabled":false,"rental_uris":{"android":"levelo://app?vid=6f2111dd-6b6a-402c-9729-62f7313dcc5e","ios":"levelo://app?vid=6f2111dd-6b6a-402c-9729-62f7313dcc5e"},"vehicle_type_id":"4","last_reported":1769786625,"current_range_meters":4800,"station_id":"ce4bhsh2rcd13ifvqi2g","pricing_plan_id":"cebpf4jnsgd1na2vs0mg"},{"bike_id":"d2a59ab7-3de8-422f-986a-1d0d92f786b6","system_id":"levelo_inurba_marseille","lat":43.27214,"lon":5.39166,"is_reserved":false,"is_disabled":false,"rental_uris":{"android":"levelo://app?vid=d2a59ab7-3de8-422f-986a-1d0d92f786b6","ios":"levelo://app?vid=d2a59ab7-3de8-422f-986a-1d0d92f786b6"},"vehicle_type_id":"4","last_reported":1769786625,"current_range_meters":4800,"station_id":"ce4bhhp2rcd13ifvqfm0","pricing_plan_id":"cebpf4jnsgd1na2vs0mg"},{"bike_id":"bd889336-68ff-4f09-8c88-588306cf9fc6","system_id":"levelo_inurba_marseille","lat":43.27075,"lon":5.40319,"is_reserved":false,"is_disabled":false,"rental_uris":{"android":"levelo://app?vid=bd889336-68ff-4f09-8c88-588306cf9fc6","ios":"levelo://app?vid=bd889336-68ff-4f09-8c88-588306cf9fc6"},"vehicle_type_id":"4","last_reported":1769786625,"current_range_meters":4800,"station_id":"","pricing_plan_id":"cebpf4jnsgd1na2vs0mg"},{"bike_id":"55d4a23c-daaa-4cba-a89b-bc2c1eb6dc94","system_id":"levelo_inurba_marseille","lat":43.330241,"lon":5.390437,"is_reserved":false,"is_disabled":false,"rental_uris":{"android":"levelo://app?vid=55d4a23c-daaa-4cba-a89b-bc2c1eb6dc94","ios":"levelo://app?vid=55d4a23c-daaa-4cba-a89b-bc2c1eb6dc94"},"vehicle_type_id":"4","last_reported":1769786625,"current_range_meters":4800,"station_id":"ce4bhr92rcd13ifvqhrg","pricing_plan_id":"cebpf4jnsgd1na2vs0mg"},{"bike_id":"83bbeac1-b4c2-4835-91cb-013728be84c8","system_id":"levelo_inurba_marseille","lat":43.29932,"lon":5.39054,"is_reserved":false,"is_disabled":true,"rental_uris":{"android":"levelo://app?vid=83bbeac1-b4c2-4835-91cb-013728be84c8","ios":"levelo://app?vid=83bbeac1-b4c2-4835-91cb-013728be84c8"},"vehicle_type_id":"4","last_reported":1769786625,"current_range_meters":4800,"station_id":"","pricing_plan_id":"cebpf4jnsgd1na2vs0mg"},{"bike_id":"4ef5fc9c-c8d6-48d7-94a0-e86b57d76fb4","system_id":"levelo_inurba_marseille","lat":43.2316,"lon":5.43724,"is_reserved":false,"is_disabled":false,"rental_uris":{"android":"levelo://app?vid=4ef5fc9c-c8d6-48d7-94a0-e86b57d76fb4","ios":"levelo://app?vid=4ef5fc9c-c8d6-48d7-94a0-e86b57d76fb4"},"vehicle_type_id":"4","last_reported":1769786625,"current_range_meters":4800,"station_id":"ce4bhmp2rcd13ifvqgog","pricing_plan_id":"cebpf4jnsgd1na2vs0mg"},{"bike_id":"5c1bebe8-43bf-476b-a01e-98bad8762f0c","system_id":"levelo_inurba_marseille","lat":43.24626,"lon":5.43145,"is_reserved":false,"is_disabled":false,"rental_uris":{"android":"levelo://app?vid=5c1bebe8-43bf-476b-a01e-98bad8762f0c","ios":"levelo://app?vid=5c1bebe8-43bf-476b-a01e-98bad8762f0c"},"vehicle_type_id":"4","last_reported":1769786625,"current_range_meters":4800,"station_id":"st_d2m6c4gdas8pm72e190g","pricing_plan_id":"cebpf4jnsgd1na2vs0mg"},{"bike_id":"b96b81e1-ce4f-4ad9-851c-6fdaec1239e8","system_id":"levelo_inurba_marseille","lat":43.25337,"lon":5.4218,"is_reserved":false,"is_disabled":false,"rental_uris":{"android":"levelo://app?vid=b96b81e1-ce4f-4ad9-851c-6fdaec1239e8","ios":"levelo://app?vid=b96b81e1-ce4f-4ad9-851c-6fdaec1239e8"},"vehicle_type_id":"4","last_reported":1769786625,"current_range_meters":4800,"station_id":"st_d2m65c5bi1j21697t3ng","pricing_plan_id":"cebpf4jnsgd1na2vs0mg"},{"bike_id":"18324321-da91-4078-8b52-a234bb7da31e","system_id":"levelo_inurba_marseille","lat":43.30123,"lon":5.37409,"is_reserved":false,"is_disabled":false,"rental_uris":{"android":"levelo://app?vid=18324321-da91-4078-8b52-a234bb7da31e","ios":"levelo://app?vid=18324321-da91-4078-8b52-a234bb7da31e"},"vehicle_type_id":"4","last_reported":1769786625,"current_range_meters":4800,"station_id":"ce4bgs92rcd13ifvqcc0","pricing_plan_id":"cebpf4jnsgd1na2vs0mg"},{"bike_id":"86a29941-b088-43a0-8032-cfb1b006593e","system_id":"levelo_inurba_marseille","lat":43.25077,"lon":5.39518,"is_reserved":false,"is_disabled":false,"rental_uris":{"android":"levelo://app?vid=86a29941-b088-43a0-8032-cfb1b006593e","ios":"levelo://app?vid=86a29941-b088-43a0-8032-cfb1b006593e"},"vehicle_type_id":"4","last_reported":1769786625,"current_range_meters":4800,"station_id":"ce4bhm12rcd13ifvqgkg","pricing_plan_id":"cebpf4jnsgd1na2vs0mg"},{"bike_id":"4ae697cd-fb11-40c2-ab8f-53d4334f67ae","system_id":"levelo_inurba_marseille","lat":43.2986,"lon":5.3864,"is_reserved":false,"is_disabled":false,"rental_uris":{"android":"levelo://app?vid=4ae697cd-fb11-40c2-ab8f-53d4334f67ae","ios":"levelo://app?vid=4ae697cd-fb11-40c2-ab8f-53d4334f67ae"},"vehicle_type_id":"4","last_reported":1769786625,"current_range_meters":4800,"station_id":"","pricing_plan_id":"cebpf4jnsgd1na2vs0mg"},{"bike_id":"e04521ca-ce5b-4911-93eb-efa07b2cc503","system_id":"levelo_inurba_marseille","lat":43.295,"lon":5.43313,"is_reserved":false,"is_disabled":false,"rental_uris":{"android":"levelo://app?vid=e04521ca-ce5b-4911-93eb-efa07b2cc503","ios":"levelo://app?vid=e04521ca-ce5b-4911-93eb-efa07b2cc503"},"vehicle_type_id":"4","last_reported":1769786625,"current_range_meters":4800,"station_id":"st_d3j5ugp08ojc73fj9d10","pricing_plan_id":"cebpf4jnsgd1na2vs0mg"},{"bike_id":"3dc504de-340a-4960-9295-e93227b46b5e","system_id":"levelo_inurba_marseille","lat":43.32112,"lon":5.36784,"is_reserved":false,"is_disabled":false,"rental_uris":{"android":"levelo://app?vid=3dc504de-340a-4960-9295-e93227b46b5e","ios":"levelo://app?vid=3dc504de-340a-4960-9295-e93227b46b5e"},"vehicle_type_id":"4","last_reported":1769786625,"current_range_meters":4800,"station_id":"ce4bhrh2rcd13ifvqhug","pricing_plan_id":"cebpf4jnsgd1na2vs0mg"},{"bike_id":"fd5f9789-38f0-4072-9470-654d8d15d0ec","system_id":"levelo_inurba_marseille","lat":43.25858,"lon":5.399,"is_reserved":false,"is_disabled":false,"rental_uris":{"android":"levelo://app?vid=fd5f9789-38f0-4072-9470-654d8d15d0ec","ios":"levelo://app?vid=fd5f9789-38f0-4072-9470-654d8d15d0ec"},"vehicle_type_id":"4","last_reported":1769786625,"current_range_meters":4800,"station_id":"ce4bhl92rcd13ifvqghg","pricing_plan_id":"cebpf4jnsgd1na2vs0mg"},{"bike_id":"7529c937-77dc-4715-8a89-50b7457f4baa","system_id":"levelo_inurba_marseille","lat":43.259186,"lon":5.408914,"is_reserved":false,"is_disabled":true,"rental_uris":{"android":"levelo://app?vid=7529c937-77dc-4715-8a89-50b7457f4baa","ios":"levelo://app?vid=7529c937-77dc-4715-8a89-50b7457f4baa"},"vehicle_type_id":"4","last_reported":1769786625,"current_range_meters":5600,"station_id":"ce4bhm92rcd13ifvqglg","pricing_plan_id":"cebpf4jnsgd1na2vs0mg"},{"bike_id":"83fc5387-9bd8-4dec-804d-abfa877a86a6","system_id":"levelo_inurba_marseille","lat":43.29821,"lon":5.44078,"is_reserved":false,"is_disabled":false,"rental_uris":{"android":"levelo://app?vid=83fc5387-9bd8-4dec-804d-abfa877a86a6","ios":"levelo://app?vid=83fc5387-9bd8-4dec-804d-abfa877a86a6"},"vehicle_type_id":"4","last_reported":1769786625,"current_range_meters":5600,"station_id":"st_d3jp68qikq2c7381ktn0","pricing_plan_id":"cebpf4jnsgd1na2vs0mg"},{"bike_id":"2985593a-0015-49dc-be38-d4223266a10b","system_id":"levelo_inurba_marseille","lat":43.2957,"lon":5.39981,"is_reserved":false,"is_disabled":false,"rental_uris":{"android":"levelo://app?vid=2985593a-0015-49dc-be38-d4223266a10b","ios":"levelo://app?vid=2985593a-0015-49dc-be38-d4223266a10b"},"vehicle_type_id":"4","last_reported":1769786625,"current_range_meters":5600,"station_id":"ce4bh312rcd13ifvqdj0","pricing_plan_id":"cebpf4jnsgd1na2vs0mg"},{"bike_id":"7a4412cf-c498-4121-be46-049419c026d4","system_id":"levelo_inurba_marseille","lat":43.27935,"lon":5.4104,"is_reserved":false,"is_disabled":false,"rental_uris":{"android":"levelo://app?vid=7a4412cf-c498-4121-be46-049419c026d4","ios":"levelo://app?vid=7a4412cf-c498-4121-be46-049419c026d4"},"vehicle_type_id":"4","last_reported":1769786625,"current_range_meters":5600,"station_id":"ce4bhnp2rcd13ifvqh0g","pricing_plan_id":"cebpf4jnsgd1na2vs0mg"},{"bike_id":"b93f36af-6012-4250-a69f-3de373ca3510","system_id":"levelo_inurba_marseille","lat":43.282739,"lon":5.350797,"is_reserved":false,"is_disabled":false,"rental_uris":{"android":"levelo://app?vid=b93f36af-6012-4250-a69f-3de373ca3510","ios":"levelo://app?vid=b93f36af-6012-4250-a69f-3de373ca3510"},"vehicle_type_id":"4","last_reported":1769786625,"current_range_meters":5600,"station_id":"ce4bhbp2rcd13ifvqerg","pricing_plan_id":"cebpf4jnsgd1na2vs0mg"},{"bike_id":"7f168ef8-b6d3-4943-a4b5-aebab5dc7fcb","system_id":"levelo_inurba_marseille","lat":43.296,"lon":5.36739,"is_reserved":false,"is_disabled":false,"rental_uris":{"android":"levelo://app?vid=7f168ef8-b6d3-4943-a4b5-aebab5dc7fcb","ios":"levelo://app?vid=7f168ef8-b6d3-4943-a4b5-aebab5dc7fcb"},"vehicle_type_id":"4","last_reported":1769786625,"current_range_meters":5600,"station_id":"ce4bgph2rcd13ifvqc2g","pricing_plan_id":"cebpf4jnsgd1na2vs0mg"},{"bike_id":"01be27bb-04c1-4257-961f-4af3e782a655","system_id":"levelo_inurba_marseille","lat":43.255809,"lon":5.382392,"is_reserved":false,"is_disabled":false,"rental_uris":{"android":"levelo://app?vid=01be27bb-04c1-4257-961f-4af3e782a655","ios":"levelo://app?vid=01be27bb-04c1-4257-961f-4af3e782a655"},"vehicle_type_id":"4","last_reported":1769786625,"current_range_meters":5600,"station_id":"","pricing_plan_id":"cebpf4jnsgd1na2vs0mg"},{"bike_id":"d08ad747-e8dd-4a39-990c-56de807eb318","system_id":"levelo_inurba_marseille","lat":43.26573,"lon":5.40321,"is_reserved":false,"is_disabled":false,"rental_uris":{"android":"levelo://app?vid=d08ad747-e8dd-4a39-990c-56de807eb318","ios":"levelo://app?vid=d08ad747-e8dd-4a39-990c-56de807eb318"},"vehicle_type_id":"4","last_reported":1769786625,"current_range_meters":5600,"station_id":"ce4bhmp2rcd13ifvqgng","pricing_plan_id":"cebpf4jnsgd1na2vs0mg"},{"bike_id":"59ae0900-c855-4741-b5cf-c53827ed9733","system_id":"levelo_inurba_marseille","lat":43.24169,"lon":5.36387,"is_reserved":false,"is_disabled":false,"rental_uris":{"android":"levelo://app?vid=59ae0900-c855-4741-b5cf-c53827ed9733","ios":"levelo://app?vid=59ae0900-c855-4741-b5cf-c53827ed9733"},"vehicle_type_id":"4","last_reported":1769786625,"current_range_meters":5600,"station_id":"cpo36qri1sfpv3e86is0","pricing_plan_id":"cebpf4jnsgd1na2vs0mg"},{"bike_id":"07e1cd8b-d392-474e-a4f3-23671fe867c2","system_id":"levelo_inurba_marseille","lat":43.29603,"lon":5.37729,"is_reserved":false,"is_disabled":false,"rental_uris":{"android":"levelo://app?vid=07e1cd8b-d392-474e-a4f3-23671fe867c2","ios":"levelo://app?vid=07e1cd8b-d392-474e-a4f3-23671fe867c2"},"vehicle_type_id":"4","last_reported":1769786625,"current_range_meters":5600,"station_id":"ce4bgi92rcd13ifvqb90","pricing_plan_id":"cebpf4jnsgd1na2vs0mg"},{"bike_id":"9380b027-f7b4-424e-81a9-fd9d11133c2e","system_id":"levelo_inurba_marseille","lat":43.28939,"lon":5.36643,"is_reserved":false,"is_disabled":false,"rental_uris":{"android":"levelo://app?vid=9380b027-f7b4-424e-81a9-fd9d11133c2e","ios":"levelo://app?vid=9380b027-f7b4-424e-81a9-fd9d11133c2e"},"vehicle_type_id":"4","last_reported":1769786625,"current_range_meters":5600,"station_id":"ce4bhap2rcd13ifvqek0","pricing_plan_id":"cebpf4jnsgd1na2vs0mg"},{"bike_id":"afa087ba-2aaf-49d4-84ec-c61b91ffc4f3","system_id":"levelo_inurba_marseille","lat":43.255082,"lon":5.376545,"is_reserved":false,"is_disabled":false,"rental_uris":{"android":"levelo://app?vid=afa087ba-2aaf-49d4-84ec-c61b91ffc4f3","ios":"levelo://app?vid=afa087ba-2aaf-49d4-84ec-c61b91ffc4f3"},"vehicle_type_id":"4","last_reported":1769786625,"current_range_meters":5600,"station_id":"ce4bhh12rcd13ifvqff0","pricing_plan_id":"cebpf4jnsgd1na2vs0mg"},{"bike_id":"7496a825-dfc1-46b8-b1dd-d6a0cd1a78c8","system_id":"levelo_inurba_marseille","lat":43.24393,"lon":5.37049,"is_reserved":false,"is_disabled":false,"rental_uris":{"android":"levelo://app?vid=7496a825-dfc1-46b8-b1dd-d6a0cd1a78c8","ios":"levelo://app?vid=7496a825-dfc1-46b8-b1dd-d6a0cd1a78c8"},"vehicle_type_id":"4","last_reported":1769786625,"current_range_meters":6000,"station_id":"ce4bhhh2rcd13ifvqfk0","pricing_plan_id":"cebpf4jnsgd1na2vs0mg"},{"bike_id":"ef68bdf9-fa71-483b-bc99-7f9581830aca","system_id":"levelo_inurba_marseille","lat":43.30581,"lon":5.3668,"is_reserved":false,"is_disabled":false,"rental_uris":{"android":"levelo://app?vid=ef68bdf9-fa71-483b-bc99-7f9581830aca","ios":"levelo://app?vid=ef68bdf9-fa71-483b-bc99-7f9581830aca"},"vehicle_type_id":"4","last_reported":1769786625,"current_range_meters":6000,"station_id":"","pricing_plan_id":"cebpf4jnsgd1na2vs0mg"},{"bike_id":"fe96793b-7f48-4d0c-8e7e-ada6a02e2210","system_id":"levelo_inurba_marseille","lat":43.27804,"lon":5.40721,"is_reserved":false,"is_disabled":false,"rental_uris":{"android":"levelo://app?vid=fe96793b-7f48-4d0c-8e7e-ada6a02e2210","ios":"levelo://app?vid=fe96793b-7f48-4d0c-8e7e-ada6a02e2210"},"vehicle_type_id":"4","last_reported":1769786625,"current_range_meters":6000,"station_id":"ce4bhnh2rcd13ifvqgtg","pricing_plan_id":"cebpf4jnsgd1na2vs0mg"},{"bike_id":"82a6b099-0577-4798-9a60-21fb38c2bbb7","system_id":"levelo_inurba_marseille","lat":43.29814,"lon":5.44068,"is_reserved":false,"is_disabled":false,"rental_uris":{"android":"levelo://app?vid=82a6b099-0577-4798-9a60-21fb38c2bbb7","ios":"levelo://app?vid=82a6b099-0577-4798-9a60-21fb38c2bbb7"},"vehicle_type_id":"4","last_reported":1769786625,"current_range_meters":6000,"station_id":"st_d3jp68qikq2c7381ktn0","pricing_plan_id":"cebpf4jnsgd1na2vs0mg"},{"bike_id":"bcdd4c18-7cb9-434e-8719-cec47084d11c","system_id":"levelo_inurba_marseille","lat":43.30883,"lon":5.39659,"is_reserved":false,"is_disabled":false,"rental_uris":{"android":"levelo://app?vid=bcdd4c18-7cb9-434e-8719-cec47084d11c","ios":"levelo://app?vid=bcdd4c18-7cb9-434e-8719-cec47084d11c"},"vehicle_type_id":"4","last_reported":1769786625,"current_range_meters":6000,"station_id":"ce4bh012rcd13ifvqcv0","pricing_plan_id":"cebpf4jnsgd1na2vs0mg"},{"bike_id":"2626a307-09e6-4806-8747-64c64cf9b162","system_id":"levelo_inurba_marseille","lat":43.24467,"lon":5.42554,"is_reserved":false,"is_disabled":false,"rental_uris":{"android":"levelo://app?vid=2626a307-09e6-4806-8747-64c64cf9b162","ios":"levelo://app?vid=2626a307-09e6-4806-8747-64c64cf9b162"},"vehicle_type_id":"4","last_reported":1769786625,"current_range_meters":6000,"station_id":"st_d4a3vfp97mjs738cd8kg","pricing_plan_id":"cebpf4jnsgd1na2vs0mg"},{"bike_id":"0bb81fd5-a597-41a1-8e61-93eab6748311","system_id":"levelo_inurba_marseille","lat":43.27304,"lon":5.40704,"is_reserved":false,"is_disabled":false,"rental_uris":{"android":"levelo://app?vid=0bb81fd5-a597-41a1-8e61-93eab6748311","ios":"levelo://app?vid=0bb81fd5-a597-41a1-8e61-93eab6748311"},"vehicle_type_id":"4","last_reported":1769786625,"current_range_meters":6000,"station_id":"","pricing_plan_id":"cebpf4jnsgd1na2vs0mg"},{"bike_id":"fc74d416-58fd-40e8-83da-909822985a20","system_id":"levelo_inurba_marseille","lat":43.30363,"lon":5.41866,"is_reserved":false,"is_disabled":false,"rental_uris":{"android":"levelo://app?vid=fc74d416-58fd-40e8-83da-909822985a20","ios":"levelo://app?vid=fc74d416-58fd-40e8-83da-909822985a20"},"vehicle_type_id":"4","last_reported":1769786625,"current_range_meters":6000,"station_id":"ce4bhop2rcd13ifvqh7g","pricing_plan_id":"cebpf4jnsgd1na2vs0mg"},{"bike_id":"0760064b-5722-42a9-9948-586ac57aa647","system_id":"levelo_inurba_marseille","lat":43.24653,"lon":5.38874,"is_reserved":false,"is_disabled":false,"rental_uris":{"android":"levelo://app?vid=0760064b-5722-42a9-9948-586ac57aa647","ios":"levelo://app?vid=0760064b-5722-42a9-9948-586ac57aa647"},"vehicle_type_id":"4","last_reported":1769786625,"current_range_meters":6000,"station_id":"ce4bhg12rcd13ifvqf60","pricing_plan_id":"cebpf4jnsgd1na2vs0mg"},{"bike_id":"af654c71-a67d-46af-bf40-a020e2f3bf53","system_id":"levelo_inurba_marseille","lat":43.25014,"lon":5.38908,"is_reserved":false,"is_disabled":false,"rental_uris":{"android":"levelo://app?vid=af654c71-a67d-46af-bf40-a020e2f3bf53","ios":"levelo://app?vid=af654c71-a67d-46af-bf40-a020e2f3bf53"},"vehicle_type_id":"4","last_reported":1769786625,"current_range_meters":6000,"station_id":"ce4bhgp2rcd13ifvqfd0","pricing_plan_id":"cebpf4jnsgd1na2vs0mg"},{"bike_id":"339040ef-38c7-4f49-946c-88b541b3e175","system_id":"levelo_inurba_marseille","lat":43.28611,"lon":5.35107,"is_reserved":false,"is_disabled":false,"rental_uris":{"android":"levelo://app?vid=339040ef-38c7-4f49-946c-88b541b3e175","ios":"levelo://app?vid=339040ef-38c7-4f49-946c-88b541b3e175"},"vehicle_type_id":"4","last_reported":1769786625,"current_range_meters":6000,"station_id":"ce4bhch2rcd13ifvqeug","pricing_plan_id":"cebpf4jnsgd1na2vs0mg"},{"bike_id":"33e014ae-7d43-4923-a4b5-58a34b27cb09","system_id":"levelo_inurba_marseille","lat":43.28498,"lon":5.38552,"is_reserved":false,"is_disabled":false,"rental_uris":{"android":"levelo://app?vid=33e014ae-7d43-4923-a4b5-58a34b27cb09","ios":"levelo://app?vid=33e014ae-7d43-4923-a4b5-58a34b27cb09"},"vehicle_type_id":"4","last_reported":1769786625,"current_range_meters":6000,"station_id":"ce4bh8p2rcd13ifvqeb0","pricing_plan_id":"cebpf4jnsgd1na2vs0mg"},{"bike_id":"e52cbf10-62ff-43b8-8d7e-ba77e4a3b42d","system_id":"levelo_inurba_marseille","lat":43.28605,"lon":5.39864,"is_reserved":false,"is_disabled":false,"rental_uris":{"android":"levelo://app?vid=e52cbf10-62ff-43b8-8d7e-ba77e4a3b42d","ios":"levelo://app?vid=e52cbf10-62ff-43b8-8d7e-ba77e4a3b42d"},"vehicle_type_id":"4","last_reported":1769786625,"current_range_meters":6000,"station_id":"st_d4a7ka997mjs738ck50g","pricing_plan_id":"cebpf4jnsgd1na2vs0mg"},{"bike_id":"2118e989-9bd5-4208-aef3-62860e5c21cf","system_id":"levelo_inurba_marseille","lat":43.297944,"lon":5.381053,"is_reserved":false,"is_disabled":false,"rental_uris":{"android":"levelo://app?vid=2118e989-9bd5-4208-aef3-62860e5c21cf","ios":"levelo://app?vid=2118e989-9bd5-4208-aef3-62860e5c21cf"},"vehicle_type_id":"4","last_reported":1769786625,"current_range_meters":6000,"station_id":"ce4bgip2rcd13ifvqbb0","pricing_plan_id":"cebpf4jnsgd1na2vs0mg"},{"bike_id":"1df32dff-5611-415d-8fae-817c467a81ff","system_id":"levelo_inurba_marseille","lat":43.23055,"lon":5.35491,"is_reserved":false,"is_disabled":false,"rental_uris":{"android":"levelo://app?vid=1df32dff-5611-415d-8fae-817c467a81ff","ios":"levelo://app?vid=1df32dff-5611-415d-8fae-817c467a81ff"},"vehicle_type_id":"4","last_reported":1769786625,"current_range_meters":6000,"station_id":"cpo3342slgdg3j2ifvpg","pricing_plan_id":"cebpf4jnsgd1na2vs0mg"},{"bike_id":"9e6fd58a-f59f-427c-8b45-1918ea57d48b","system_id":"levelo_inurba_marseille","lat":43.31714,"lon":5.37748,"is_reserved":false,"is_disabled":false,"rental_uris":{"android":"levelo://app?vid=9e6fd58a-f59f-427c-8b45-1918ea57d48b","ios":"levelo://app?vid=9e6fd58a-f59f-427c-8b45-1918ea57d48b"},"vehicle_type_id":"4","last_reported":1769786625,"current_range_meters":6000,"station_id":"ce4bgth2rcd13ifvqch0","pricing_plan_id":"cebpf4jnsgd1na2vs0mg"},{"bike_id":"814c22a4-4dcd-4158-a253-889be13cd88d","system_id":"levelo_inurba_marseille","lat":43.296082,"lon":5.381139,"is_reserved":false,"is_disabled":false,"rental_uris":{"android":"levelo://app?vid=814c22a4-4dcd-4158-a253-889be13cd88d","ios":"levelo://app?vid=814c22a4-4dcd-4158-a253-889be13cd88d"},"vehicle_type_id":"4","last_reported":1769786625,"current_range_meters":6400,"station_id":"ce4bh3p2rcd13ifvqdq0","pricing_plan_id":"cebpf4jnsgd1na2vs0mg"},{"bike_id":"456727bd-baa8-41bf-ae9f-158a99ff9411","system_id":"levelo_inurba_marseille","lat":43.22563,"lon":5.41635,"is_reserved":false,"is_disabled":false,"rental_uris":{"android":"levelo://app?vid=456727bd-baa8-41bf-ae9f-158a99ff9411","ios":"levelo://app?vid=456727bd-baa8-41bf-ae9f-158a99ff9411"},"vehicle_type_id":"4","last_reported":1769786625,"current_range_meters":6400,"station_id":"st_d2o4gvlbi1j2169b742g","pricing_plan_id":"cebpf4jnsgd1na2vs0mg"},{"bike_id":"86ab63e7-ea7d-49ff-9db5-025461f05d43","system_id":"levelo_inurba_marseille","lat":43.23152,"lon":5.43706,"is_reserved":false,"is_disabled":false,"rental_uris":{"android":"levelo://app?vid=86ab63e7-ea7d-49ff-9db5-025461f05d43","ios":"levelo://app?vid=86ab63e7-ea7d-49ff-9db5-025461f05d43"},"vehicle_type_id":"4","last_reported":1769786625,"current_range_meters":6400,"station_id":"ce4bhmp2rcd13ifvqgog","pricing_plan_id":"cebpf4jnsgd1na2vs0mg"},{"bike_id":"382c481d-5cf2-4d38-9788-579a9f396d00","system_id":"levelo_inurba_marseille","lat":43.22927,"lon":5.35384,"is_reserved":false,"is_disabled":false,"rental_uris":{"android":"levelo://app?vid=382c481d-5cf2-4d38-9788-579a9f396d00","ios":"levelo://app?vid=382c481d-5cf2-4d38-9788-579a9f396d00"},"vehicle_type_id":"4","last_reported":1769786625,"current_range_meters":6400,"station_id":"cpo3532slgdg3j2ikp40","pricing_plan_id":"cebpf4jnsgd1na2vs0mg"},{"bike_id":"ceed1653-0aff-4dc0-b159-f8529a6c28c1","system_id":"levelo_inurba_marseille","lat":43.23194,"lon":5.35564,"is_reserved":false,"is_disabled":false,"rental_uris":{"android":"levelo://app?vid=ceed1653-0aff-4dc0-b159-f8529a6c28c1","ios":"levelo://app?vid=ceed1653-0aff-4dc0-b159-f8529a6c28c1"},"vehicle_type_id":"4","last_reported":1769786625,"current_range_meters":6400,"station_id":"ce4bhu92rcd13ifvqi70","pricing_plan_id":"cebpf4jnsgd1na2vs0mg"},{"bike_id":"e0434f5a-9925-4541-9214-ccc0d841f514","system_id":"levelo_inurba_marseille","lat":43.30927,"lon":5.40144,"is_reserved":false,"is_disabled":false,"rental_uris":{"android":"levelo://app?vid=e0434f5a-9925-4541-9214-ccc0d841f514","ios":"levelo://app?vid=e0434f5a-9925-4541-9214-ccc0d841f514"},"vehicle_type_id":"4","last_reported":1769786625,"current_range_meters":6400,"station_id":"ce4bgvp2rcd13ifvqct0","pricing_plan_id":"cebpf4jnsgd1na2vs0mg"},{"bike_id":"a7d1bfd9-0de8-47ec-ba20-34ed34aa81d2","system_id":"levelo_inurba_marseille","lat":43.24466,"lon":5.42534,"is_reserved":false,"is_disabled":false,"rental_uris":{"android":"levelo://app?vid=a7d1bfd9-0de8-47ec-ba20-34ed34aa81d2","ios":"levelo://app?vid=a7d1bfd9-0de8-47ec-ba20-34ed34aa81d2"},"vehicle_type_id":"4","last_reported":1769786625,"current_range_meters":6400,"station_id":"st_d4a3vfp97mjs738cd8kg","pricing_plan_id":"cebpf4jnsgd1na2vs0mg"},{"bike_id":"e4ff084c-f3c4-431f-a828-15b71c44f0df","system_id":"levelo_inurba_marseille","lat":43.25117,"lon":5.40324,"is_reserved":false,"is_disabled":true,"rental_uris":{"android":"levelo://app?vid=e4ff084c-f3c4-431f-a828-15b71c44f0df","ios":"levelo://app?vid=e4ff084c-f3c4-431f-a828-15b71c44f0df"},"vehicle_type_id":"4","last_reported":1769786625,"current_range_meters":6400,"station_id":"ce4bhlh2rcd13ifvqgig","pricing_plan_id":"cebpf4jnsgd1na2vs0mg"},{"bike_id":"6e316437-9e53-4058-b852-370b67323663","system_id":"levelo_inurba_marseille","lat":43.2464,"lon":5.43126,"is_reserved":false,"is_disabled":false,"rental_uris":{"android":"levelo://app?vid=6e316437-9e53-4058-b852-370b67323663","ios":"levelo://app?vid=6e316437-9e53-4058-b852-370b67323663"},"vehicle_type_id":"4","last_reported":1769786625,"current_range_meters":6400,"station_id":"st_d2m6c4gdas8pm72e190g","pricing_plan_id":"cebpf4jnsgd1na2vs0mg"},{"bike_id":"0ac90f08-2070-43ce-b506-7d79e44d5265","system_id":"levelo_inurba_marseille","lat":43.29533,"lon":5.37511,"is_reserved":false,"is_disabled":false,"rental_uris":{"android":"levelo://app?vid=0ac90f08-2070-43ce-b506-7d79e44d5265","ios":"levelo://app?vid=0ac90f08-2070-43ce-b506-7d79e44d5265"},"vehicle_type_id":"4","last_reported":1769786625,"current_range_meters":6400,"station_id":"ce4bgkp2rcd13ifvqbmg","pricing_plan_id":"cebpf4jnsgd1na2vs0mg"},{"bike_id":"4b9c2949-48d9-47bd-87a5-474334cf4c2c","system_id":"levelo_inurba_marseille","lat":43.24979,"lon":5.39,"is_reserved":false,"is_disabled":false,"rental_uris":{"android":"levelo://app?vid=4b9c2949-48d9-47bd-87a5-474334cf4c2c","ios":"levelo://app?vid=4b9c2949-48d9-47bd-87a5-474334cf4c2c"},"vehicle_type_id":"4","last_reported":1769786625,"current_range_meters":6800,"station_id":"","pricing_plan_id":"cebpf4jnsgd1na2vs0mg"},{"bike_id":"d7b04403-7dfa-4d8a-bd81-cfc844f4e0b5","system_id":"levelo_inurba_marseille","lat":43.29866,"lon":5.4402,"is_reserved":false,"is_disabled":false,"rental_uris":{"android":"levelo://app?vid=d7b04403-7dfa-4d8a-bd81-cfc844f4e0b5","ios":"levelo://app?vid=d7b04403-7dfa-4d8a-bd81-cfc844f4e0b5"},"vehicle_type_id":"4","last_reported":1769786625,"current_range_meters":6800,"station_id":"","pricing_plan_id":"cebpf4jnsgd1na2vs0mg"},{"bike_id":"5e3f0ec3-648c-4f6a-a210-57809b8fb522","system_id":"levelo_inurba_marseille","lat":43.28412,"lon":5.34986,"is_reserved":false,"is_disabled":false,"rental_uris":{"android":"levelo://app?vid=5e3f0ec3-648c-4f6a-a210-57809b8fb522","ios":"levelo://app?vid=5e3f0ec3-648c-4f6a-a210-57809b8fb522"},"vehicle_type_id":"4","last_reported":1769786625,"current_range_meters":6800,"station_id":"ce4bhbh2rcd13ifvqepg","pricing_plan_id":"cebpf4jnsgd1na2vs0mg"},{"bike_id":"f77f11ea-c57f-4a1e-b998-1859acb2e91b","system_id":"levelo_inurba_marseille","lat":43.28613,"lon":5.35093,"is_reserved":false,"is_disabled":false,"rental_uris":{"android":"levelo://app?vid=f77f11ea-c57f-4a1e-b998-1859acb2e91b","ios":"levelo://app?vid=f77f11ea-c57f-4a1e-b998-1859acb2e91b"},"vehicle_type_id":"4","last_reported":1769786625,"current_range_meters":6800,"station_id":"ce4bhch2rcd13ifvqeug","pricing_plan_id":"cebpf4jnsgd1na2vs0mg"},{"bike_id":"f837c673-8f99-41df-8e92-c39dc749cf7c","system_id":"levelo_inurba_marseille","lat":43.295692,"lon":5.375222,"is_reserved":false,"is_disabled":false,"rental_uris":{"android":"levelo://app?vid=f837c673-8f99-41df-8e92-c39dc749cf7c","ios":"levelo://app?vid=f837c673-8f99-41df-8e92-c39dc749cf7c"},"vehicle_type_id":"4","last_reported":1769786625,"current_range_meters":6800,"station_id":"ce4bgh92rcd13ifvqb50","pricing_plan_id":"cebpf4jnsgd1na2vs0mg"},{"bike_id":"7243427c-7e1e-4875-b4d3-b3a9df2c737a","system_id":"levelo_inurba_marseille","lat":43.301281,"lon":5.387759,"is_reserved":false,"is_disabled":true,"rental_uris":{"android":"levelo://app?vid=7243427c-7e1e-4875-b4d3-b3a9df2c737a","ios":"levelo://app?vid=7243427c-7e1e-4875-b4d3-b3a9df2c737a"},"vehicle_type_id":"4","last_reported":1769786625,"current_range_meters":6800,"station_id":"","pricing_plan_id":"cebpf4jnsgd1na2vs0mg"},{"bike_id":"a224862a-232e-4eae-9e87-90ad084f94a7","system_id":"levelo_inurba_marseille","lat":43.24199,"lon":5.36391,"is_reserved":false,"is_disabled":false,"rental_uris":{"android":"levelo://app?vid=a224862a-232e-4eae-9e87-90ad084f94a7","ios":"levelo://app?vid=a224862a-232e-4eae-9e87-90ad084f94a7"},"vehicle_type_id":"4","last_reported":1769786625,"current_range_meters":6800,"station_id":"cpo36qri1sfpv3e86is0","pricing_plan_id":"cebpf4jnsgd1na2vs0mg"},{"bike_id":"ff6220a2-0ba2-4f2b-99d8-48d7fb65a584","system_id":"levelo_inurba_marseille","lat":43.30547,"lon":5.36514,"is_reserved":false,"is_disabled":false,"rental_uris":{"android":"levelo://app?vid=ff6220a2-0ba2-4f2b-99d8-48d7fb65a584","ios":"levelo://app?vid=ff6220a2-0ba2-4f2b-99d8-48d7fb65a584"},"vehicle_type_id":"4","last_reported":1769786625,"current_range_meters":6800,"station_id":"ce4bgs12rcd13ifvqcag","pricing_plan_id":"cebpf4jnsgd1na2vs0mg"},{"bike_id":"26b2c13f-6d72-426d-a7ef-00da4c10e579","system_id":"levelo_inurba_marseille","lat":43.31319,"lon":5.397,"is_reserved":false,"is_disabled":false,"rental_uris":{"android":"levelo://app?vid=26b2c13f-6d72-426d-a7ef-00da4c10e579","ios":"levelo://app?vid=26b2c13f-6d72-426d-a7ef-00da4c10e579"},"vehicle_type_id":"4","last_reported":1769786625,"current_range_meters":6800,"station_id":"ce4bgvp2rcd13ifvqcu0","pricing_plan_id":"cebpf4jnsgd1na2vs0mg"},{"bike_id":"842ae640-421f-4790-99f0-94bd0d50de25","system_id":"levelo_inurba_marseille","lat":43.30552,"lon":5.36579,"is_reserved":false,"is_disabled":false,"rental_uris":{"android":"levelo://app?vid=842ae640-421f-4790-99f0-94bd0d50de25","ios":"levelo://app?vid=842ae640-421f-4790-99f0-94bd0d50de25"},"vehicle_type_id":"4","last_reported":1769786625,"current_range_meters":6800,"station_id":"ce4bgs12rcd13ifvqcag","pricing_plan_id":"cebpf4jnsgd1na2vs0mg"},{"bike_id":"891291bf-2508-4614-98b9-c57a30a99b04","system_id":"levelo_inurba_marseille","lat":43.22923,"lon":5.35383,"is_reserved":false,"is_disabled":false,"rental_uris":{"android":"levelo://app?vid=891291bf-2508-4614-98b9-c57a30a99b04","ios":"levelo://app?vid=891291bf-2508-4614-98b9-c57a30a99b04"},"vehicle_type_id":"4","last_reported":1769786625,"current_range_meters":6800,"station_id":"cpo3532slgdg3j2ikp40","pricing_plan_id":"cebpf4jnsgd1na2vs0mg"},{"bike_id":"77167c97-cdbe-41d9-bce9-3a5c68d681a1","system_id":"levelo_inurba_marseille","lat":43.25494,"lon":5.37649,"is_reserved":false,"is_disabled":false,"rental_uris":{"android":"levelo://app?vid=77167c97-cdbe-41d9-bce9-3a5c68d681a1","ios":"levelo://app?vid=77167c97-cdbe-41d9-bce9-3a5c68d681a1"},"vehicle_type_id":"4","last_reported":1769786625,"current_range_meters":6800,"station_id":"ce4bhh12rcd13ifvqff0","pricing_plan_id":"cebpf4jnsgd1na2vs0mg"},{"bike_id":"7272b7e5-dc3f-4a67-bdd0-317168495648","system_id":"levelo_inurba_marseille","lat":43.26812,"lon":5.40191,"is_reserved":false,"is_disabled":false,"rental_uris":{"android":"levelo://app?vid=7272b7e5-dc3f-4a67-bdd0-317168495648","ios":"levelo://app?vid=7272b7e5-dc3f-4a67-bdd0-317168495648"},"vehicle_type_id":"4","last_reported":1769786625,"current_range_meters":6800,"station_id":"","pricing_plan_id":"cebpf4jnsgd1na2vs0mg"},{"bike_id":"70c55ee5-6a16-409d-a979-d1c8a8d67fb6","system_id":"levelo_inurba_marseille","lat":43.301827,"lon":5.38936,"is_reserved":false,"is_disabled":false,"rental_uris":{"android":"levelo://app?vid=70c55ee5-6a16-409d-a979-d1c8a8d67fb6","ios":"levelo://app?vid=70c55ee5-6a16-409d-a979-d1c8a8d67fb6"},"vehicle_type_id":"4","last_reported":1769786625,"current_range_meters":6800,"station_id":"","pricing_plan_id":"cebpf4jnsgd1na2vs0mg"},{"bike_id":"76baf766-279c-4d54-8cc8-d388bd84f801","system_id":"levelo_inurba_marseille","lat":43.28609,"lon":5.35104,"is_reserved":false,"is_disabled":false,"rental_uris":{"android":"levelo://app?vid=76baf766-279c-4d54-8cc8-d388bd84f801","ios":"levelo://app?vid=76baf766-279c-4d54-8cc8-d388bd84f801"},"vehicle_type_id":"4","last_reported":1769786625,"current_range_meters":6800,"station_id":"ce4bhch2rcd13ifvqeug","pricing_plan_id":"cebpf4jnsgd1na2vs0mg"},{"bike_id":"ff0d7e85-98bb-4c38-ae3c-d49bf6ce9fe5","system_id":"levelo_inurba_marseille","lat":43.25504,"lon":5.37659,"is_reserved":false,"is_disabled":false,"rental_uris":{"android":"levelo://app?vid=ff0d7e85-98bb-4c38-ae3c-d49bf6ce9fe5","ios":"levelo://app?vid=ff0d7e85-98bb-4c38-ae3c-d49bf6ce9fe5"},"vehicle_type_id":"4","last_reported":1769786625,"current_range_meters":7200,"station_id":"ce4bhh12rcd13ifvqff0","pricing_plan_id":"cebpf4jnsgd1na2vs0mg"},{"bike_id":"9822be86-8afe-40d3-b4d3-531e98f65abc","system_id":"levelo_inurba_marseille","lat":43.255256,"lon":5.376596,"is_reserved":false,"is_disabled":false,"rental_uris":{"android":"levelo://app?vid=9822be86-8afe-40d3-b4d3-531e98f65abc","ios":"levelo://app?vid=9822be86-8afe-40d3-b4d3-531e98f65abc"},"vehicle_type_id":"4","last_reported":1769786625,"current_range_meters":7200,"station_id":"ce4bhh12rcd13ifvqff0","pricing_plan_id":"cebpf4jnsgd1na2vs0mg"},{"bike_id":"3bf7eb11-6a5d-49d3-aba4-fd1efa16f01b","system_id":"levelo_inurba_marseille","lat":43.31326,"lon":5.39692,"is_reserved":false,"is_disabled":false,"rental_uris":{"android":"levelo://app?vid=3bf7eb11-6a5d-49d3-aba4-fd1efa16f01b","ios":"levelo://app?vid=3bf7eb11-6a5d-49d3-aba4-fd1efa16f01b"},"vehicle_type_id":"4","last_reported":1769786625,"current_range_meters":7200,"station_id":"ce4bgvp2rcd13ifvqcu0","pricing_plan_id":"cebpf4jnsgd1na2vs0mg"},{"bike_id":"bebea735-aab4-4344-851d-600660db9e8e","system_id":"levelo_inurba_marseille","lat":43.30156,"lon":5.38082,"is_reserved":false,"is_disabled":false,"rental_uris":{"android":"levelo://app?vid=bebea735-aab4-4344-851d-600660db9e8e","ios":"levelo://app?vid=bebea735-aab4-4344-851d-600660db9e8e"},"vehicle_type_id":"4","last_reported":1769786625,"current_range_meters":7200,"station_id":"ce4bgjp2rcd13ifvqbh0","pricing_plan_id":"cebpf4jnsgd1na2vs0mg"},{"bike_id":"8b03cb7d-1de6-4845-89c8-ef7b8942b746","system_id":"levelo_inurba_marseille","lat":43.279993,"lon":5.400018,"is_reserved":false,"is_disabled":false,"rental_uris":{"android":"levelo://app?vid=8b03cb7d-1de6-4845-89c8-ef7b8942b746","ios":"levelo://app?vid=8b03cb7d-1de6-4845-89c8-ef7b8942b746"},"vehicle_type_id":"4","last_reported":1769786625,"current_range_meters":7200,"station_id":"ce4bho92rcd13ifvqh4g","pricing_plan_id":"cebpf4jnsgd1na2vs0mg"},{"bike_id":"e03373ac-3544-4134-842f-8bbb6735b7f1","system_id":"levelo_inurba_marseille","lat":43.30204,"lon":5.36613,"is_reserved":false,"is_disabled":false,"rental_uris":{"android":"levelo://app?vid=e03373ac-3544-4134-842f-8bbb6735b7f1","ios":"levelo://app?vid=e03373ac-3544-4134-842f-8bbb6735b7f1"},"vehicle_type_id":"4","last_reported":1769786625,"current_range_meters":7200,"station_id":"ce4bgrh2rcd13ifvqc8g","pricing_plan_id":"cebpf4jnsgd1na2vs0mg"},{"bike_id":"5f8af22f-9203-4ec9-816f-1618d1060df6","system_id":"levelo_inurba_marseille","lat":43.32501,"lon":5.383,"is_reserved":false,"is_disabled":false,"rental_uris":{"android":"levelo://app?vid=5f8af22f-9203-4ec9-816f-1618d1060df6","ios":"levelo://app?vid=5f8af22f-9203-4ec9-816f-1618d1060df6"},"vehicle_type_id":"4","last_reported":1769786625,"current_range_meters":7200,"station_id":"st_d4asgbiv49dc73anf9m0","pricing_plan_id":"cebpf4jnsgd1na2vs0mg"},{"bike_id":"bfe73f44-cbdf-463c-a574-41ea2079e8d5","system_id":"levelo_inurba_marseille","lat":43.29254,"lon":5.38444,"is_reserved":false,"is_disabled":false,"rental_uris":{"android":"levelo://app?vid=bfe73f44-cbdf-463c-a574-41ea2079e8d5","ios":"levelo://app?vid=bfe73f44-cbdf-463c-a574-41ea2079e8d5"},"vehicle_type_id":"4","last_reported":1769786625,"current_range_meters":7200,"station_id":"ce4bh692rcd13ifvqea0","pricing_plan_id":"cebpf4jnsgd1na2vs0mg"},{"bike_id":"ad150f2a-29f5-456b-94c0-795879e342bd","system_id":"levelo_inurba_marseille","lat":43.32091,"lon":5.36789,"is_reserved":false,"is_disabled":false,"rental_uris":{"android":"levelo://app?vid=ad150f2a-29f5-456b-94c0-795879e342bd","ios":"levelo://app?vid=ad150f2a-29f5-456b-94c0-795879e342bd"},"vehicle_type_id":"4","last_reported":1769786625,"current_range_meters":7200,"station_id":"ce4bhrh2rcd13ifvqhug","pricing_plan_id":"cebpf4jnsgd1na2vs0mg"},{"bike_id":"4ed8b7c4-4959-4a76-8810-ca1bf04888b4","system_id":"levelo_inurba_marseille","lat":43.24466,"lon":5.42533,"is_reserved":false,"is_disabled":false,"rental_uris":{"android":"levelo://app?vid=4ed8b7c4-4959-4a76-8810-ca1bf04888b4","ios":"levelo://app?vid=4ed8b7c4-4959-4a76-8810-ca1bf04888b4"},"vehicle_type_id":"4","last_reported":1769786625,"current_range_meters":7200,"station_id":"st_d4a3vfp97mjs738cd8kg","pricing_plan_id":"cebpf4jnsgd1na2vs0mg"},{"bike_id":"f56ee39d-a6b7-4a7e-89de-b9d7f0478322","system_id":"levelo_inurba_marseille","lat":43.3236,"lon":5.3675,"is_reserved":false,"is_disabled":false,"rental_uris":{"android":"levelo://app?vid=f56ee39d-a6b7-4a7e-89de-b9d7f0478322","ios":"levelo://app?vid=f56ee39d-a6b7-4a7e-89de-b9d7f0478322"},"vehicle_type_id":"4","last_reported":1769786625,"current_range_meters":7200,"station_id":"ce4bhsh2rcd13ifvqi2g","pricing_plan_id":"cebpf4jnsgd1na2vs0mg"},{"bike_id":"88aa03d2-39ff-496d-a5ff-56408cccea2c","system_id":"levelo_inurba_marseille","lat":43.25572,"lon":5.38229,"is_reserved":false,"is_disabled":false,"rental_uris":{"android":"levelo://app?vid=88aa03d2-39ff-496d-a5ff-56408cccea2c","ios":"levelo://app?vid=88aa03d2-39ff-496d-a5ff-56408cccea2c"},"vehicle_type_id":"4","last_reported":1769786625,"current_range_meters":7200,"station_id":"ce4bhih2rcd13ifvqfs0","pricing_plan_id":"cebpf4jnsgd1na2vs0mg"},{"bike_id":"c15bf6ee-369d-4dc7-89fc-91442ce5cab3","system_id":"levelo_inurba_marseille","lat":43.29898,"lon":5.43678,"is_reserved":false,"is_disabled":false,"rental_uris":{"android":"levelo://app?vid=c15bf6ee-369d-4dc7-89fc-91442ce5cab3","ios":"levelo://app?vid=c15bf6ee-369d-4dc7-89fc-91442ce5cab3"},"vehicle_type_id":"4","last_reported":1769786625,"current_range_meters":7200,"station_id":"ce4bhpp2rcd13ifvqhfg","pricing_plan_id":"cebpf4jnsgd1na2vs0mg"},{"bike_id":"6f3e14de-6001-440a-a0e7-dcdf65bb86da","system_id":"levelo_inurba_marseille","lat":43.28617,"lon":5.35105,"is_reserved":false,"is_disabled":false,"rental_uris":{"android":"levelo://app?vid=6f3e14de-6001-440a-a0e7-dcdf65bb86da","ios":"levelo://app?vid=6f3e14de-6001-440a-a0e7-dcdf65bb86da"},"vehicle_type_id":"4","last_reported":1769786625,"current_range_meters":7200,"station_id":"ce4bhch2rcd13ifvqeug","pricing_plan_id":"cebpf4jnsgd1na2vs0mg"},{"bike_id":"b3808154-86af-47d0-966c-f1cc0984587d","system_id":"levelo_inurba_marseille","lat":43.33765,"lon":5.37479,"is_reserved":false,"is_disabled":false,"rental_uris":{"android":"levelo://app?vid=b3808154-86af-47d0-966c-f1cc0984587d","ios":"levelo://app?vid=b3808154-86af-47d0-966c-f1cc0984587d"},"vehicle_type_id":"4","last_reported":1769786625,"current_range_meters":7200,"station_id":"","pricing_plan_id":"cebpf4jnsgd1na2vs0mg"},{"bike_id":"b589a911-c752-40e2-a671-addd4ec13243","system_id":"levelo_inurba_marseille","lat":43.29075,"lon":5.37169,"is_reserved":false,"is_disabled":false,"rental_uris":{"android":"levelo://app?vid=b589a911-c752-40e2-a671-addd4ec13243","ios":"levelo://app?vid=b589a911-c752-40e2-a671-addd4ec13243"},"vehicle_type_id":"4","last_reported":1769786625,"current_range_meters":8000,"station_id":"ce4bh5p2rcd13ifvqe4g","pricing_plan_id":"cebpf4jnsgd1na2vs0mg"},{"bike_id":"30c936ab-0423-48ac-b84e-31558b0bebd9","system_id":"levelo_inurba_marseille","lat":43.27425,"lon":5.39422,"is_reserved":false,"is_disabled":false,"rental_uris":{"android":"levelo://app?vid=30c936ab-0423-48ac-b84e-31558b0bebd9","ios":"levelo://app?vid=30c936ab-0423-48ac-b84e-31558b0bebd9"},"vehicle_type_id":"4","last_reported":1769786625,"current_range_meters":8000,"station_id":"ce4bhdp2rcd13ifvqf20","pricing_plan_id":"cebpf4jnsgd1na2vs0mg"},{"bike_id":"32c2a5af-b5f9-416e-8e4c-96e2f8d06aad","system_id":"levelo_inurba_marseille","lat":43.28277,"lon":5.35079,"is_reserved":false,"is_disabled":false,"rental_uris":{"android":"levelo://app?vid=32c2a5af-b5f9-416e-8e4c-96e2f8d06aad","ios":"levelo://app?vid=32c2a5af-b5f9-416e-8e4c-96e2f8d06aad"},"vehicle_type_id":"4","last_reported":1769786625,"current_range_meters":8000,"station_id":"ce4bhbp2rcd13ifvqerg","pricing_plan_id":"cebpf4jnsgd1na2vs0mg"},{"bike_id":"e858244c-580e-4a5e-a86b-9fc7e954317c","system_id":"levelo_inurba_marseille","lat":43.31293,"lon":5.3787,"is_reserved":false,"is_disabled":true,"rental_uris":{"android":"levelo://app?vid=e858244c-580e-4a5e-a86b-9fc7e954317c","ios":"levelo://app?vid=e858244c-580e-4a5e-a86b-9fc7e954317c"},"vehicle_type_id":"4","last_reported":1769786625,"current_range_meters":8000,"station_id":"","pricing_plan_id":"cebpf4jnsgd1na2vs0mg"},{"bike_id":"c386e859-c47c-4176-b8dc-5d121dc2bc50","system_id":"levelo_inurba_marseille","lat":43.25735,"lon":5.41091,"is_reserved":false,"is_disabled":false,"rental_uris":{"android":"levelo://app?vid=c386e859-c47c-4176-b8dc-5d121dc2bc50","ios":"levelo://app?vid=c386e859-c47c-4176-b8dc-5d121dc2bc50"},"vehicle_type_id":"4","last_reported":1769786625,"current_range_meters":8000,"station_id":"ce4bhkp2rcd13ifvqgd0","pricing_plan_id":"cebpf4jnsgd1na2vs0mg"},{"bike_id":"cfcdaabb-2c06-4484-80dc-ae4d1d0756fc","system_id":"levelo_inurba_marseille","lat":43.22939,"lon":5.35366,"is_reserved":false,"is_disabled":false,"rental_uris":{"android":"levelo://app?vid=cfcdaabb-2c06-4484-80dc-ae4d1d0756fc","ios":"levelo://app?vid=cfcdaabb-2c06-4484-80dc-ae4d1d0756fc"},"vehicle_type_id":"4","last_reported":1769786625,"current_range_meters":8000,"station_id":"cpo3532slgdg3j2ikp40","pricing_plan_id":"cebpf4jnsgd1na2vs0mg"},{"bike_id":"b48b2f53-5b3e-4b64-8cb1-1d24f4795929","system_id":"levelo_inurba_marseille","lat":43.30521,"lon":5.36705,"is_reserved":false,"is_disabled":false,"rental_uris":{"android":"levelo://app?vid=b48b2f53-5b3e-4b64-8cb1-1d24f4795929","ios":"levelo://app?vid=b48b2f53-5b3e-4b64-8cb1-1d24f4795929"},"vehicle_type_id":"4","last_reported":1769786625,"current_range_meters":8000,"station_id":"ce4bgrp2rcd13ifvqc9g","pricing_plan_id":"cebpf4jnsgd1na2vs0mg"},{"bike_id":"21335747-3add-49bb-95b9-081d777d30db","system_id":"levelo_inurba_marseille","lat":43.23177,"lon":5.4,"is_reserved":false,"is_disabled":false,"rental_uris":{"android":"levelo://app?vid=21335747-3add-49bb-95b9-081d777d30db","ios":"levelo://app?vid=21335747-3add-49bb-95b9-081d777d30db"},"vehicle_type_id":"4","last_reported":1769786625,"current_range_meters":8000,"station_id":"ce4bhn12rcd13ifvqgqg","pricing_plan_id":"cebpf4jnsgd1na2vs0mg"},{"bike_id":"63710071-920e-4dc8-ad12-4b2a13c0917d","system_id":"levelo_inurba_marseille","lat":43.30305,"lon":5.36885,"is_reserved":false,"is_disabled":false,"rental_uris":{"android":"levelo://app?vid=63710071-920e-4dc8-ad12-4b2a13c0917d","ios":"levelo://app?vid=63710071-920e-4dc8-ad12-4b2a13c0917d"},"vehicle_type_id":"4","last_reported":1769786625,"current_range_meters":8000,"station_id":"ce4bgqh2rcd13ifvqc5g","pricing_plan_id":"cebpf4jnsgd1na2vs0mg"},{"bike_id":"e902ef9f-7cd4-4fe6-a82c-948b6d2fcf15","system_id":"levelo_inurba_marseille","lat":43.29908,"lon":5.43678,"is_reserved":false,"is_disabled":false,"rental_uris":{"android":"levelo://app?vid=e902ef9f-7cd4-4fe6-a82c-948b6d2fcf15","ios":"levelo://app?vid=e902ef9f-7cd4-4fe6-a82c-948b6d2fcf15"},"vehicle_type_id":"4","last_reported":1769786625,"current_range_meters":8000,"station_id":"ce4bhpp2rcd13ifvqhfg","pricing_plan_id":"cebpf4jnsgd1na2vs0mg"},{"bike_id":"29e4ce79-df32-4a16-836e-cd957aa9a131","system_id":"levelo_inurba_marseille","lat":43.24696,"lon":5.43093,"is_reserved":false,"is_disabled":false,"rental_uris":{"android":"levelo://app?vid=29e4ce79-df32-4a16-836e-cd957aa9a131","ios":"levelo://app?vid=29e4ce79-df32-4a16-836e-cd957aa9a131"},"vehicle_type_id":"4","last_reported":1769786625,"current_range_meters":8000,"station_id":"st_d2m6c4gdas8pm72e190g","pricing_plan_id":"cebpf4jnsgd1na2vs0mg"},{"bike_id":"0e79c48d-cdc7-44eb-ad7d-d24757dd50e7","system_id":"levelo_inurba_marseille","lat":43.32355,"lon":5.36766,"is_reserved":false,"is_disabled":false,"rental_uris":{"android":"levelo://app?vid=0e79c48d-cdc7-44eb-ad7d-d24757dd50e7","ios":"levelo://app?vid=0e79c48d-cdc7-44eb-ad7d-d24757dd50e7"},"vehicle_type_id":"4","last_reported":1769786625,"current_range_meters":8000,"station_id":"ce4bhsh2rcd13ifvqi2g","pricing_plan_id":"cebpf4jnsgd1na2vs0mg"},{"bike_id":"ca2c8296-777f-4e50-b78a-4389e6df49a8","system_id":"levelo_inurba_marseille","lat":43.293027,"lon":5.377492,"is_reserved":false,"is_disabled":false,"rental_uris":{"android":"levelo://app?vid=ca2c8296-777f-4e50-b78a-4389e6df49a8","ios":"levelo://app?vid=ca2c8296-777f-4e50-b78a-4389e6df49a8"},"vehicle_type_id":"4","last_reported":1769786625,"current_range_meters":8000,"station_id":"ce4bgi12rcd13ifvqb70","pricing_plan_id":"cebpf4jnsgd1na2vs0mg"},{"bike_id":"be59a1fa-fcbd-4f35-ac1f-ae4c97b5126c","system_id":"levelo_inurba_marseille","lat":43.21749,"lon":5.3464,"is_reserved":false,"is_disabled":false,"rental_uris":{"android":"levelo://app?vid=be59a1fa-fcbd-4f35-ac1f-ae4c97b5126c","ios":"levelo://app?vid=be59a1fa-fcbd-4f35-ac1f-ae4c97b5126c"},"vehicle_type_id":"4","last_reported":1769786625,"current_range_meters":8000,"station_id":"st_cvj6r9ubvosntc0bgbag","pricing_plan_id":"cebpf4jnsgd1na2vs0mg"},{"bike_id":"c01b725f-c97d-45b9-a447-87e1cdc5e95a","system_id":"levelo_inurba_marseille","lat":43.26684,"lon":5.38252,"is_reserved":false,"is_disabled":false,"rental_uris":{"android":"levelo://app?vid=c01b725f-c97d-45b9-a447-87e1cdc5e95a","ios":"levelo://app?vid=c01b725f-c97d-45b9-a447-87e1cdc5e95a"},"vehicle_type_id":"4","last_reported":1769786625,"current_range_meters":8000,"station_id":"ce4bhg92rcd13ifvqf90","pricing_plan_id":"cebpf4jnsgd1na2vs0mg"},{"bike_id":"83814ed7-2a72-490e-ae1b-37dbf219c302","system_id":"levelo_inurba_marseille","lat":43.24963,"lon":5.4048,"is_reserved":false,"is_disabled":false,"rental_uris":{"android":"levelo://app?vid=83814ed7-2a72-490e-ae1b-37dbf219c302","ios":"levelo://app?vid=83814ed7-2a72-490e-ae1b-37dbf219c302"},"vehicle_type_id":"4","last_reported":1769786625,"current_range_meters":8000,"station_id":"st_d2ngiaodas8pm72gd1h0","pricing_plan_id":"cebpf4jnsgd1na2vs0mg"},{"bike_id":"feade363-50bc-4b05-83ea-fff78b097c05","system_id":"levelo_inurba_marseille","lat":43.27974,"lon":5.38736,"is_reserved":false,"is_disabled":false,"rental_uris":{"android":"levelo://app?vid=feade363-50bc-4b05-83ea-fff78b097c05","ios":"levelo://app?vid=feade363-50bc-4b05-83ea-fff78b097c05"},"vehicle_type_id":"4","last_reported":1769786625,"current_range_meters":8000,"station_id":"ce4bhg12rcd13ifvqf80","pricing_plan_id":"cebpf4jnsgd1na2vs0mg"},{"bike_id":"b9af0b00-a498-4486-ba91-364dda9e7ba1","system_id":"levelo_inurba_marseille","lat":43.29566,"lon":5.39956,"is_reserved":false,"is_disabled":false,"rental_uris":{"android":"levelo://app?vid=b9af0b00-a498-4486-ba91-364dda9e7ba1","ios":"levelo://app?vid=b9af0b00-a498-4486-ba91-364dda9e7ba1"},"vehicle_type_id":"4","last_reported":1769786625,"current_range_meters":8000,"station_id":"ce4bh312rcd13ifvqdj0","pricing_plan_id":"cebpf4jnsgd1na2vs0mg"},{"bike_id":"94842764-1da0-47c3-981d-a8a494b1c082","system_id":"levelo_inurba_marseille","lat":43.24649,"lon":5.38886,"is_reserved":false,"is_disabled":false,"rental_uris":{"android":"levelo://app?vid=94842764-1da0-47c3-981d-a8a494b1c082","ios":"levelo://app?vid=94842764-1da0-47c3-981d-a8a494b1c082"},"vehicle_type_id":"4","last_reported":1769786625,"current_range_meters":8000,"station_id":"ce4bhg12rcd13ifvqf60","pricing_plan_id":"cebpf4jnsgd1na2vs0mg"},{"bike_id":"412abae9-d62d-4987-af01-9a17904a32fe","system_id":"levelo_inurba_marseille","lat":43.24636,"lon":5.43137,"is_reserved":false,"is_disabled":false,"rental_uris":{"android":"levelo://app?vid=412abae9-d62d-4987-af01-9a17904a32fe","ios":"levelo://app?vid=412abae9-d62d-4987-af01-9a17904a32fe"},"vehicle_type_id":"4","last_reported":1769786625,"current_range_meters":8000,"station_id":"st_d2m6c4gdas8pm72e190g","pricing_plan_id":"cebpf4jnsgd1na2vs0mg"},{"bike_id":"da1ac006-1b1f-4577-bc3c-f768b3515750","system_id":"levelo_inurba_marseille","lat":43.28418,"lon":5.3499,"is_reserved":false,"is_disabled":false,"rental_uris":{"android":"levelo://app?vid=da1ac006-1b1f-4577-bc3c-f768b3515750","ios":"levelo://app?vid=da1ac006-1b1f-4577-bc3c-f768b3515750"},"vehicle_type_id":"4","last_reported":1769786625,"current_range_meters":8000,"station_id":"ce4bhbh2rcd13ifvqepg","pricing_plan_id":"cebpf4jnsgd1na2vs0mg"},{"bike_id":"65b759d9-e66a-4cc0-915d-2e8ad0441e0c","system_id":"levelo_inurba_marseille","lat":43.31179,"lon":5.3864,"is_reserved":false,"is_disabled":false,"rental_uris":{"android":"levelo://app?vid=65b759d9-e66a-4cc0-915d-2e8ad0441e0c","ios":"levelo://app?vid=65b759d9-e66a-4cc0-915d-2e8ad0441e0c"},"vehicle_type_id":"4","last_reported":1769786625,"current_range_meters":8000,"station_id":"","pricing_plan_id":"cebpf4jnsgd1na2vs0mg"},{"bike_id":"65c2d018-5db4-4b71-9059-ee26b3f148d1","system_id":"levelo_inurba_marseille","lat":43.24183,"lon":5.39724,"is_reserved":false,"is_disabled":false,"rental_uris":{"android":"levelo://app?vid=65c2d018-5db4-4b71-9059-ee26b3f148d1","ios":"levelo://app?vid=65c2d018-5db4-4b71-9059-ee26b3f148d1"},"vehicle_type_id":"4","last_reported":1769786625,"current_range_meters":8000,"station_id":"ce4bhn12rcd13ifvqgpg","pricing_plan_id":"cebpf4jnsgd1na2vs0mg"},{"bike_id":"6ce1533a-41ab-4a1c-b2e0-7e937c906e4f","system_id":"levelo_inurba_marseille","lat":43.30597,"lon":5.37221,"is_reserved":false,"is_disabled":false,"rental_uris":{"android":"levelo://app?vid=6ce1533a-41ab-4a1c-b2e0-7e937c906e4f","ios":"levelo://app?vid=6ce1533a-41ab-4a1c-b2e0-7e937c906e4f"},"vehicle_type_id":"4","last_reported":1769786625,"current_range_meters":8000,"station_id":"ce4bgqh2rcd13ifvqc4g","pricing_plan_id":"cebpf4jnsgd1na2vs0mg"},{"bike_id":"f13e03f8-fd2f-4b80-90fc-0519e86b434e","system_id":"levelo_inurba_marseille","lat":43.2911,"lon":5.37228,"is_reserved":false,"is_disabled":false,"rental_uris":{"android":"levelo://app?vid=f13e03f8-fd2f-4b80-90fc-0519e86b434e","ios":"levelo://app?vid=f13e03f8-fd2f-4b80-90fc-0519e86b434e"},"vehicle_type_id":"4","last_reported":1769786625,"current_range_meters":8400,"station_id":"","pricing_plan_id":"cebpf4jnsgd1na2vs0mg"},{"bike_id":"f8483911-ab06-48bb-a51a-2893c840b29d","system_id":"levelo_inurba_marseille","lat":43.30151,"lon":5.37426,"is_reserved":false,"is_disabled":false,"rental_uris":{"android":"levelo://app?vid=f8483911-ab06-48bb-a51a-2893c840b29d","ios":"levelo://app?vid=f8483911-ab06-48bb-a51a-2893c840b29d"},"vehicle_type_id":"4","last_reported":1769786625,"current_range_meters":8400,"station_id":"ce4bgs92rcd13ifvqcc0","pricing_plan_id":"cebpf4jnsgd1na2vs0mg"},{"bike_id":"c2029e8e-62e9-40bd-90c8-2d85b607b409","system_id":"levelo_inurba_marseille","lat":43.29764,"lon":5.42759,"is_reserved":false,"is_disabled":false,"rental_uris":{"android":"levelo://app?vid=c2029e8e-62e9-40bd-90c8-2d85b607b409","ios":"levelo://app?vid=c2029e8e-62e9-40bd-90c8-2d85b607b409"},"vehicle_type_id":"4","last_reported":1769786625,"current_range_meters":8400,"station_id":"st_d3md5207bmas73dh9klg","pricing_plan_id":"cebpf4jnsgd1na2vs0mg"},{"bike_id":"7212c134-0bb1-4307-8053-dc66b6b70a1e","system_id":"levelo_inurba_marseille","lat":43.29766,"lon":5.42766,"is_reserved":false,"is_disabled":false,"rental_uris":{"android":"levelo://app?vid=7212c134-0bb1-4307-8053-dc66b6b70a1e","ios":"levelo://app?vid=7212c134-0bb1-4307-8053-dc66b6b70a1e"},"vehicle_type_id":"4","last_reported":1769786625,"current_range_meters":8400,"station_id":"st_d3md5207bmas73dh9klg","pricing_plan_id":"cebpf4jnsgd1na2vs0mg"},{"bike_id":"75c3c377-a16f-42bb-ae96-205a3a1c5dc8","system_id":"levelo_inurba_marseille","lat":43.2761,"lon":5.36099,"is_reserved":false,"is_disabled":false,"rental_uris":{"android":"levelo://app?vid=75c3c377-a16f-42bb-ae96-205a3a1c5dc8","ios":"levelo://app?vid=75c3c377-a16f-42bb-ae96-205a3a1c5dc8"},"vehicle_type_id":"4","last_reported":1769786625,"current_range_meters":8400,"station_id":"ce4bgj92rcd13ifvqbe0","pricing_plan_id":"cebpf4jnsgd1na2vs0mg"},{"bike_id":"674d0755-bda6-44bd-8dd4-47ceec1f93de","system_id":"levelo_inurba_marseille","lat":43.24477,"lon":5.42531,"is_reserved":false,"is_disabled":false,"rental_uris":{"android":"levelo://app?vid=674d0755-bda6-44bd-8dd4-47ceec1f93de","ios":"levelo://app?vid=674d0755-bda6-44bd-8dd4-47ceec1f93de"},"vehicle_type_id":"4","last_reported":1769786625,"current_range_meters":8400,"station_id":"st_d4a3vfp97mjs738cd8kg","pricing_plan_id":"cebpf4jnsgd1na2vs0mg"},{"bike_id":"cfe73c76-3bff-481c-a5ea-9a7beba7d096","system_id":"levelo_inurba_marseille","lat":43.2977,"lon":5.42765,"is_reserved":false,"is_disabled":false,"rental_uris":{"android":"levelo://app?vid=cfe73c76-3bff-481c-a5ea-9a7beba7d096","ios":"levelo://app?vid=cfe73c76-3bff-481c-a5ea-9a7beba7d096"},"vehicle_type_id":"4","last_reported":1769786625,"current_range_meters":8400,"station_id":"st_d3md5207bmas73dh9klg","pricing_plan_id":"cebpf4jnsgd1na2vs0mg"},{"bike_id":"856fd509-0283-4f39-9f3e-8d20eb6210e0","system_id":"levelo_inurba_marseille","lat":43.28616,"lon":5.35106,"is_reserved":false,"is_disabled":false,"rental_uris":{"android":"levelo://app?vid=856fd509-0283-4f39-9f3e-8d20eb6210e0","ios":"levelo://app?vid=856fd509-0283-4f39-9f3e-8d20eb6210e0"},"vehicle_type_id":"4","last_reported":1769786625,"current_range_meters":8400,"station_id":"ce4bhch2rcd13ifvqeug","pricing_plan_id":"cebpf4jnsgd1na2vs0mg"},{"bike_id":"c151397b-4527-4a71-9df3-e6ef838f017d","system_id":"levelo_inurba_marseille","lat":43.28153,"lon":5.42641,"is_reserved":false,"is_disabled":false,"rental_uris":{"android":"levelo://app?vid=c151397b-4527-4a71-9df3-e6ef838f017d","ios":"levelo://app?vid=c151397b-4527-4a71-9df3-e6ef838f017d"},"vehicle_type_id":"4","last_reported":1769786625,"current_range_meters":8400,"station_id":"ce4bhnh2rcd13ifvqgug","pricing_plan_id":"cebpf4jnsgd1na2vs0mg"},{"bike_id":"29799279-8396-4ba3-80c9-33c2d1e194a1","system_id":"levelo_inurba_marseille","lat":43.25493,"lon":5.37651,"is_reserved":false,"is_disabled":false,"rental_uris":{"android":"levelo://app?vid=29799279-8396-4ba3-80c9-33c2d1e194a1","ios":"levelo://app?vid=29799279-8396-4ba3-80c9-33c2d1e194a1"},"vehicle_type_id":"4","last_reported":1769786625,"current_range_meters":8400,"station_id":"ce4bhh12rcd13ifvqff0","pricing_plan_id":"cebpf4jnsgd1na2vs0mg"},{"bike_id":"1eebb00e-e06b-4307-aecc-c0729a42ded6","system_id":"levelo_inurba_marseille","lat":43.295301,"lon":5.390426,"is_reserved":false,"is_disabled":false,"rental_uris":{"android":"levelo://app?vid=1eebb00e-e06b-4307-aecc-c0729a42ded6","ios":"levelo://app?vid=1eebb00e-e06b-4307-aecc-c0729a42ded6"},"vehicle_type_id":"4","last_reported":1769786625,"current_range_meters":8400,"station_id":"ce4bh3p2rcd13ifvqdp0","pricing_plan_id":"cebpf4jnsgd1na2vs0mg"},{"bike_id":"8d8e65a1-3cb6-416e-919a-8b962b63738e","system_id":"levelo_inurba_marseille","lat":43.2597,"lon":5.40903,"is_reserved":false,"is_disabled":false,"rental_uris":{"android":"levelo://app?vid=8d8e65a1-3cb6-416e-919a-8b962b63738e","ios":"levelo://app?vid=8d8e65a1-3cb6-416e-919a-8b962b63738e"},"vehicle_type_id":"4","last_reported":1769786625,"current_range_meters":8400,"station_id":"ce4bhm92rcd13ifvqglg","pricing_plan_id":"cebpf4jnsgd1na2vs0mg"},{"bike_id":"d2ae1221-797e-4542-b4bd-d55104ad25da","system_id":"levelo_inurba_marseille","lat":43.21748,"lon":5.34605,"is_reserved":false,"is_disabled":false,"rental_uris":{"android":"levelo://app?vid=d2ae1221-797e-4542-b4bd-d55104ad25da","ios":"levelo://app?vid=d2ae1221-797e-4542-b4bd-d55104ad25da"},"vehicle_type_id":"4","last_reported":1769786625,"current_range_meters":8400,"station_id":"st_cvj6r9ubvosntc0bgbag","pricing_plan_id":"cebpf4jnsgd1na2vs0mg"},{"bike_id":"38ad36bf-da62-4983-b476-2a9dca37d85c","system_id":"levelo_inurba_marseille","lat":43.29736,"lon":5.36614,"is_reserved":false,"is_disabled":false,"rental_uris":{"android":"levelo://app?vid=38ad36bf-da62-4983-b476-2a9dca37d85c","ios":"levelo://app?vid=38ad36bf-da62-4983-b476-2a9dca37d85c"},"vehicle_type_id":"4","last_reported":1769786625,"current_range_meters":8400,"station_id":"ce4bgn12rcd13ifvqbt0","pricing_plan_id":"cebpf4jnsgd1na2vs0mg"},{"bike_id":"6975e887-b1bd-4d9f-9f02-81a3e82f020b","system_id":"levelo_inurba_marseille","lat":43.25581,"lon":5.38225,"is_reserved":false,"is_disabled":false,"rental_uris":{"android":"levelo://app?vid=6975e887-b1bd-4d9f-9f02-81a3e82f020b","ios":"levelo://app?vid=6975e887-b1bd-4d9f-9f02-81a3e82f020b"},"vehicle_type_id":"4","last_reported":1769786625,"current_range_meters":8400,"station_id":"ce4bhih2rcd13ifvqfs0","pricing_plan_id":"cebpf4jnsgd1na2vs0mg"},{"bike_id":"305f49c1-f460-4949-81b3-ec89d85c2edc","system_id":"levelo_inurba_marseille","lat":43.30643,"lon":5.40076,"is_reserved":false,"is_disabled":false,"rental_uris":{"android":"levelo://app?vid=305f49c1-f460-4949-81b3-ec89d85c2edc","ios":"levelo://app?vid=305f49c1-f460-4949-81b3-ec89d85c2edc"},"vehicle_type_id":"4","last_reported":1769786625,"current_range_meters":8400,"station_id":"ce4bh112rcd13ifvqda0","pricing_plan_id":"cebpf4jnsgd1na2vs0mg"},{"bike_id":"51316987-d2e3-4b5d-b2ec-59a566c90bee","system_id":"levelo_inurba_marseille","lat":43.28616,"lon":5.35111,"is_reserved":false,"is_disabled":false,"rental_uris":{"android":"levelo://app?vid=51316987-d2e3-4b5d-b2ec-59a566c90bee","ios":"levelo://app?vid=51316987-d2e3-4b5d-b2ec-59a566c90bee"},"vehicle_type_id":"4","last_reported":1769786625,"current_range_meters":8400,"station_id":"ce4bhch2rcd13ifvqeug","pricing_plan_id":"cebpf4jnsgd1na2vs0mg"},{"bike_id":"6f006526-2e34-462f-a4a0-8e0a4c4ceba5","system_id":"levelo_inurba_marseille","lat":43.24663,"lon":5.38901,"is_reserved":false,"is_disabled":false,"rental_uris":{"android":"levelo://app?vid=6f006526-2e34-462f-a4a0-8e0a4c4ceba5","ios":"levelo://app?vid=6f006526-2e34-462f-a4a0-8e0a4c4ceba5"},"vehicle_type_id":"4","last_reported":1769786625,"current_range_meters":8400,"station_id":"ce4bhg12rcd13ifvqf60","pricing_plan_id":"cebpf4jnsgd1na2vs0mg"},{"bike_id":"c185cf38-df1b-4bb4-86d7-b251a2422e4d","system_id":"levelo_inurba_marseille","lat":43.32111,"lon":5.36773,"is_reserved":false,"is_disabled":false,"rental_uris":{"android":"levelo://app?vid=c185cf38-df1b-4bb4-86d7-b251a2422e4d","ios":"levelo://app?vid=c185cf38-df1b-4bb4-86d7-b251a2422e4d"},"vehicle_type_id":"4","last_reported":1769786625,"current_range_meters":8400,"station_id":"ce4bhrh2rcd13ifvqhug","pricing_plan_id":"cebpf4jnsgd1na2vs0mg"},{"bike_id":"e6fafd59-b0dd-45e1-b8f1-5520d8fadc40","system_id":"levelo_inurba_marseille","lat":43.29966,"lon":5.38497,"is_reserved":false,"is_disabled":false,"rental_uris":{"android":"levelo://app?vid=e6fafd59-b0dd-45e1-b8f1-5520d8fadc40","ios":"levelo://app?vid=e6fafd59-b0dd-45e1-b8f1-5520d8fadc40"},"vehicle_type_id":"4","last_reported":1769786625,"current_range_meters":8400,"station_id":"ce4bgj92rcd13ifvqbd0","pricing_plan_id":"cebpf4jnsgd1na2vs0mg"},{"bike_id":"05d7b93d-f7c8-4d96-ae68-729c5b25c9c8","system_id":"levelo_inurba_marseille","lat":43.27509,"lon":5.42474,"is_reserved":false,"is_disabled":false,"rental_uris":{"android":"levelo://app?vid=05d7b93d-f7c8-4d96-ae68-729c5b25c9c8","ios":"levelo://app?vid=05d7b93d-f7c8-4d96-ae68-729c5b25c9c8"},"vehicle_type_id":"4","last_reported":1769786625,"current_range_meters":8800,"station_id":"ce4bhn92rcd13ifvqgrg","pricing_plan_id":"cebpf4jnsgd1na2vs0mg"},{"bike_id":"c5ef9d86-ca82-4f90-b808-1bdfa4b73770","system_id":"levelo_inurba_marseille","lat":43.265735,"lon":5.390112,"is_reserved":false,"is_disabled":false,"rental_uris":{"android":"levelo://app?vid=c5ef9d86-ca82-4f90-b808-1bdfa4b73770","ios":"levelo://app?vid=c5ef9d86-ca82-4f90-b808-1bdfa4b73770"},"vehicle_type_id":"4","last_reported":1769786625,"current_range_meters":8800,"station_id":"ce4bhe12rcd13ifvqf30","pricing_plan_id":"cebpf4jnsgd1na2vs0mg"},{"bike_id":"d6c0c260-1d77-47ce-9ca1-2efe8f514e43","system_id":"levelo_inurba_marseille","lat":43.28417,"lon":5.34977,"is_reserved":false,"is_disabled":false,"rental_uris":{"android":"levelo://app?vid=d6c0c260-1d77-47ce-9ca1-2efe8f514e43","ios":"levelo://app?vid=d6c0c260-1d77-47ce-9ca1-2efe8f514e43"},"vehicle_type_id":"4","last_reported":1769786625,"current_range_meters":8800,"station_id":"ce4bhbh2rcd13ifvqepg","pricing_plan_id":"cebpf4jnsgd1na2vs0mg"},{"bike_id":"a348b41d-ce0f-4115-b2b3-f88fa8dc97dd","system_id":"levelo_inurba_marseille","lat":43.22572,"lon":5.41628,"is_reserved":false,"is_disabled":false,"rental_uris":{"android":"levelo://app?vid=a348b41d-ce0f-4115-b2b3-f88fa8dc97dd","ios":"levelo://app?vid=a348b41d-ce0f-4115-b2b3-f88fa8dc97dd"},"vehicle_type_id":"4","last_reported":1769786625,"current_range_meters":8800,"station_id":"st_d2o4gvlbi1j2169b742g","pricing_plan_id":"cebpf4jnsgd1na2vs0mg"},{"bike_id":"9ac35684-78f8-4312-9009-9c0b024fe004","system_id":"levelo_inurba_marseille","lat":43.23784,"lon":5.36631,"is_reserved":false,"is_disabled":false,"rental_uris":{"android":"levelo://app?vid=9ac35684-78f8-4312-9009-9c0b024fe004","ios":"levelo://app?vid=9ac35684-78f8-4312-9009-9c0b024fe004"},"vehicle_type_id":"4","last_reported":1769786625,"current_range_meters":8800,"station_id":"st_d3nk18o9ro0c73en2l3g","pricing_plan_id":"cebpf4jnsgd1na2vs0mg"},{"bike_id":"a633dcb8-69cc-416a-ac75-271c195c29ed","system_id":"levelo_inurba_marseille","lat":43.25478,"lon":5.37637,"is_reserved":false,"is_disabled":false,"rental_uris":{"android":"levelo://app?vid=a633dcb8-69cc-416a-ac75-271c195c29ed","ios":"levelo://app?vid=a633dcb8-69cc-416a-ac75-271c195c29ed"},"vehicle_type_id":"4","last_reported":1769786625,"current_range_meters":8800,"station_id":"ce4bhh12rcd13ifvqff0","pricing_plan_id":"cebpf4jnsgd1na2vs0mg"},{"bike_id":"84ffcfb0-2805-4353-9fcd-cc4437854e55","system_id":"levelo_inurba_marseille","lat":43.24169,"lon":5.36406,"is_reserved":false,"is_disabled":false,"rental_uris":{"android":"levelo://app?vid=84ffcfb0-2805-4353-9fcd-cc4437854e55","ios":"levelo://app?vid=84ffcfb0-2805-4353-9fcd-cc4437854e55"},"vehicle_type_id":"4","last_reported":1769786625,"current_range_meters":8800,"station_id":"cpo36qri1sfpv3e86is0","pricing_plan_id":"cebpf4jnsgd1na2vs0mg"},{"bike_id":"58ee9900-014d-4562-9325-157fe4be2e75","system_id":"levelo_inurba_marseille","lat":43.2659,"lon":5.39023,"is_reserved":false,"is_disabled":false,"rental_uris":{"android":"levelo://app?vid=58ee9900-014d-4562-9325-157fe4be2e75","ios":"levelo://app?vid=58ee9900-014d-4562-9325-157fe4be2e75"},"vehicle_type_id":"4","last_reported":1769786625,"current_range_meters":8800,"station_id":"ce4bhe12rcd13ifvqf30","pricing_plan_id":"cebpf4jnsgd1na2vs0mg"},{"bike_id":"6f80a0c7-e6da-4e3f-a33d-84508ae903bc","system_id":"levelo_inurba_marseille","lat":43.24636,"lon":5.43143,"is_reserved":false,"is_disabled":false,"rental_uris":{"android":"levelo://app?vid=6f80a0c7-e6da-4e3f-a33d-84508ae903bc","ios":"levelo://app?vid=6f80a0c7-e6da-4e3f-a33d-84508ae903bc"},"vehicle_type_id":"4","last_reported":1769786625,"current_range_meters":8800,"station_id":"st_d2m6c4gdas8pm72e190g","pricing_plan_id":"cebpf4jnsgd1na2vs0mg"},{"bike_id":"b5d91fc7-30d8-4004-8e14-1ac91b3bffa6","system_id":"levelo_inurba_marseille","lat":43.2447,"lon":5.42554,"is_reserved":false,"is_disabled":false,"rental_uris":{"android":"levelo://app?vid=b5d91fc7-30d8-4004-8e14-1ac91b3bffa6","ios":"levelo://app?vid=b5d91fc7-30d8-4004-8e14-1ac91b3bffa6"},"vehicle_type_id":"4","last_reported":1769786625,"current_range_meters":8800,"station_id":"st_d4a3vfp97mjs738cd8kg","pricing_plan_id":"cebpf4jnsgd1na2vs0mg"},{"bike_id":"be1f6356-9b44-4dd3-9f21-a3c61341d563","system_id":"levelo_inurba_marseille","lat":43.26683,"lon":5.38259,"is_reserved":false,"is_disabled":false,"rental_uris":{"android":"levelo://app?vid=be1f6356-9b44-4dd3-9f21-a3c61341d563","ios":"levelo://app?vid=be1f6356-9b44-4dd3-9f21-a3c61341d563"},"vehicle_type_id":"4","last_reported":1769786625,"current_range_meters":8800,"station_id":"ce4bhg92rcd13ifvqf90","pricing_plan_id":"cebpf4jnsgd1na2vs0mg"},{"bike_id":"54bd06d4-4982-45aa-bd43-b091b3e780cb","system_id":"levelo_inurba_marseille","lat":43.27206,"lon":5.39178,"is_reserved":false,"is_disabled":false,"rental_uris":{"android":"levelo://app?vid=54bd06d4-4982-45aa-bd43-b091b3e780cb","ios":"levelo://app?vid=54bd06d4-4982-45aa-bd43-b091b3e780cb"},"vehicle_type_id":"4","last_reported":1769786625,"current_range_meters":8800,"station_id":"ce4bhhp2rcd13ifvqfm0","pricing_plan_id":"cebpf4jnsgd1na2vs0mg"},{"bike_id":"89d9bbd7-56c1-47dc-a33c-3c870e84c211","system_id":"levelo_inurba_marseille","lat":43.2606,"lon":5.37555,"is_reserved":false,"is_disabled":false,"rental_uris":{"android":"levelo://app?vid=89d9bbd7-56c1-47dc-a33c-3c870e84c211","ios":"levelo://app?vid=89d9bbd7-56c1-47dc-a33c-3c870e84c211"},"vehicle_type_id":"4","last_reported":1769786625,"current_range_meters":8800,"station_id":"ce4bhgh2rcd13ifvqfa0","pricing_plan_id":"cebpf4jnsgd1na2vs0mg"},{"bike_id":"80f08efc-25c3-4de5-b31e-075650ff900a","system_id":"levelo_inurba_marseille","lat":43.276198,"lon":5.361073,"is_reserved":false,"is_disabled":false,"rental_uris":{"android":"levelo://app?vid=80f08efc-25c3-4de5-b31e-075650ff900a","ios":"levelo://app?vid=80f08efc-25c3-4de5-b31e-075650ff900a"},"vehicle_type_id":"4","last_reported":1769786625,"current_range_meters":8800,"station_id":"ce4bgj92rcd13ifvqbe0","pricing_plan_id":"cebpf4jnsgd1na2vs0mg"},{"bike_id":"f7ba70bd-983c-4ad6-a72c-36380a2ff19c","system_id":"levelo_inurba_marseille","lat":43.23186,"lon":5.35537,"is_reserved":false,"is_disabled":false,"rental_uris":{"android":"levelo://app?vid=f7ba70bd-983c-4ad6-a72c-36380a2ff19c","ios":"levelo://app?vid=f7ba70bd-983c-4ad6-a72c-36380a2ff19c"},"vehicle_type_id":"4","last_reported":1769786625,"current_range_meters":8800,"station_id":"ce4bhu92rcd13ifvqi70","pricing_plan_id":"cebpf4jnsgd1na2vs0mg"},{"bike_id":"5b735135-7855-4600-9f02-fd9ebc367d09","system_id":"levelo_inurba_marseille","lat":43.30131,"lon":5.37418,"is_reserved":false,"is_disabled":false,"rental_uris":{"android":"levelo://app?vid=5b735135-7855-4600-9f02-fd9ebc367d09","ios":"levelo://app?vid=5b735135-7855-4600-9f02-fd9ebc367d09"},"vehicle_type_id":"4","last_reported":1769786625,"current_range_meters":8800,"station_id":"ce4bgs92rcd13ifvqcc0","pricing_plan_id":"cebpf4jnsgd1na2vs0mg"},{"bike_id":"ee1141ac-4ef8-4b2c-9c54-796606216838","system_id":"levelo_inurba_marseille","lat":43.29881,"lon":5.39726,"is_reserved":false,"is_disabled":false,"rental_uris":{"android":"levelo://app?vid=ee1141ac-4ef8-4b2c-9c54-796606216838","ios":"levelo://app?vid=ee1141ac-4ef8-4b2c-9c54-796606216838"},"vehicle_type_id":"4","last_reported":1769786625,"current_range_meters":8800,"station_id":"ce4bh0h2rcd13ifvqd50","pricing_plan_id":"cebpf4jnsgd1na2vs0mg"},{"bike_id":"7c8731c7-a0d1-4c12-8d93-069187a028e1","system_id":"levelo_inurba_marseille","lat":43.24658,"lon":5.38169,"is_reserved":false,"is_disabled":false,"rental_uris":{"android":"levelo://app?vid=7c8731c7-a0d1-4c12-8d93-069187a028e1","ios":"levelo://app?vid=7c8731c7-a0d1-4c12-8d93-069187a028e1"},"vehicle_type_id":"4","last_reported":1769786625,"current_range_meters":8800,"station_id":"ce4bhih2rcd13ifvqfr0","pricing_plan_id":"cebpf4jnsgd1na2vs0mg"},{"bike_id":"61ab6849-3c72-4714-bdee-8634ccd0ec89","system_id":"levelo_inurba_marseille","lat":43.24673,"lon":5.38142,"is_reserved":false,"is_disabled":false,"rental_uris":{"android":"levelo://app?vid=61ab6849-3c72-4714-bdee-8634ccd0ec89","ios":"levelo://app?vid=61ab6849-3c72-4714-bdee-8634ccd0ec89"},"vehicle_type_id":"4","last_reported":1769786625,"current_range_meters":9200,"station_id":"ce4bhih2rcd13ifvqfr0","pricing_plan_id":"cebpf4jnsgd1na2vs0mg"},{"bike_id":"67dde3a5-6719-400f-9754-ba07b063d126","system_id":"levelo_inurba_marseille","lat":43.22544,"lon":5.41618,"is_reserved":false,"is_disabled":false,"rental_uris":{"android":"levelo://app?vid=67dde3a5-6719-400f-9754-ba07b063d126","ios":"levelo://app?vid=67dde3a5-6719-400f-9754-ba07b063d126"},"vehicle_type_id":"4","last_reported":1769786625,"current_range_meters":9200,"station_id":"st_d2o4gvlbi1j2169b742g","pricing_plan_id":"cebpf4jnsgd1na2vs0mg"},{"bike_id":"56606f7f-1df9-44b4-ade2-c78af9dc2c51","system_id":"levelo_inurba_marseille","lat":43.23157,"lon":5.43709,"is_reserved":false,"is_disabled":false,"rental_uris":{"android":"levelo://app?vid=56606f7f-1df9-44b4-ade2-c78af9dc2c51","ios":"levelo://app?vid=56606f7f-1df9-44b4-ade2-c78af9dc2c51"},"vehicle_type_id":"4","last_reported":1769786625,"current_range_meters":9200,"station_id":"ce4bhmp2rcd13ifvqgog","pricing_plan_id":"cebpf4jnsgd1na2vs0mg"},{"bike_id":"b6bb507a-35ba-4aad-bf8d-d9ba28e136e6","system_id":"levelo_inurba_marseille","lat":43.28283,"lon":5.35072,"is_reserved":false,"is_disabled":false,"rental_uris":{"android":"levelo://app?vid=b6bb507a-35ba-4aad-bf8d-d9ba28e136e6","ios":"levelo://app?vid=b6bb507a-35ba-4aad-bf8d-d9ba28e136e6"},"vehicle_type_id":"4","last_reported":1769786625,"current_range_meters":9200,"station_id":"ce4bhbp2rcd13ifvqerg","pricing_plan_id":"cebpf4jnsgd1na2vs0mg"},{"bike_id":"14dbbc7f-d9f5-4d2e-abab-d738507cef2a","system_id":"levelo_inurba_marseille","lat":43.237828,"lon":5.366255,"is_reserved":false,"is_disabled":false,"rental_uris":{"android":"levelo://app?vid=14dbbc7f-d9f5-4d2e-abab-d738507cef2a","ios":"levelo://app?vid=14dbbc7f-d9f5-4d2e-abab-d738507cef2a"},"vehicle_type_id":"4","last_reported":1769786625,"current_range_meters":9200,"station_id":"st_d3nk18o9ro0c73en2l3g","pricing_plan_id":"cebpf4jnsgd1na2vs0mg"},{"bike_id":"e4344dca-dd49-424a-931a-44f57d4a07ac","system_id":"levelo_inurba_marseille","lat":43.25505,"lon":5.37659,"is_reserved":false,"is_disabled":false,"rental_uris":{"android":"levelo://app?vid=e4344dca-dd49-424a-931a-44f57d4a07ac","ios":"levelo://app?vid=e4344dca-dd49-424a-931a-44f57d4a07ac"},"vehicle_type_id":"4","last_reported":1769786625,"current_range_meters":9200,"station_id":"ce4bhh12rcd13ifvqff0","pricing_plan_id":"cebpf4jnsgd1na2vs0mg"},{"bike_id":"3204c5b6-1dfb-4cc3-a887-23e54972fa05","system_id":"levelo_inurba_marseille","lat":43.29175,"lon":5.37224,"is_reserved":false,"is_disabled":false,"rental_uris":{"android":"levelo://app?vid=3204c5b6-1dfb-4cc3-a887-23e54972fa05","ios":"levelo://app?vid=3204c5b6-1dfb-4cc3-a887-23e54972fa05"},"vehicle_type_id":"4","last_reported":1769786625,"current_range_meters":9200,"station_id":"","pricing_plan_id":"cebpf4jnsgd1na2vs0mg"},{"bike_id":"facf5c8d-7adf-4b26-81c3-f2dd54937001","system_id":"levelo_inurba_marseille","lat":43.22535,"lon":5.3483,"is_reserved":false,"is_disabled":false,"rental_uris":{"android":"levelo://app?vid=facf5c8d-7adf-4b26-81c3-f2dd54937001","ios":"levelo://app?vid=facf5c8d-7adf-4b26-81c3-f2dd54937001"},"vehicle_type_id":"4","last_reported":1769786625,"current_range_meters":9200,"station_id":"","pricing_plan_id":"cebpf4jnsgd1na2vs0mg"},{"bike_id":"8eeb4da1-5ffe-42ca-ae24-0fc13dd0c38e","system_id":"levelo_inurba_marseille","lat":43.29141,"lon":5.37457,"is_reserved":false,"is_disabled":false,"rental_uris":{"android":"levelo://app?vid=8eeb4da1-5ffe-42ca-ae24-0fc13dd0c38e","ios":"levelo://app?vid=8eeb4da1-5ffe-42ca-ae24-0fc13dd0c38e"},"vehicle_type_id":"4","last_reported":1769786625,"current_range_meters":9200,"station_id":"","pricing_plan_id":"cebpf4jnsgd1na2vs0mg"},{"bike_id":"da430813-1e4c-4d0a-b07d-976b86d0c6c6","system_id":"levelo_inurba_marseille","lat":43.25338,"lon":5.42174,"is_reserved":false,"is_disabled":false,"rental_uris":{"android":"levelo://app?vid=da430813-1e4c-4d0a-b07d-976b86d0c6c6","ios":"levelo://app?vid=da430813-1e4c-4d0a-b07d-976b86d0c6c6"},"vehicle_type_id":"4","last_reported":1769786625,"current_range_meters":9200,"station_id":"st_d2m65c5bi1j21697t3ng","pricing_plan_id":"cebpf4jnsgd1na2vs0mg"},{"bike_id":"fecda443-fb98-4a35-9283-8519f60225a0","system_id":"levelo_inurba_marseille","lat":43.27371,"lon":5.36255,"is_reserved":false,"is_disabled":false,"rental_uris":{"android":"levelo://app?vid=fecda443-fb98-4a35-9283-8519f60225a0","ios":"levelo://app?vid=fecda443-fb98-4a35-9283-8519f60225a0"},"vehicle_type_id":"4","last_reported":1769786625,"current_range_meters":9200,"station_id":"ce4bhbh2rcd13ifvqeo0","pricing_plan_id":"cebpf4jnsgd1na2vs0mg"},{"bike_id":"b32a36ac-6d8c-4f94-8007-49ab8ab4f812","system_id":"levelo_inurba_marseille","lat":43.29899,"lon":5.43683,"is_reserved":false,"is_disabled":false,"rental_uris":{"android":"levelo://app?vid=b32a36ac-6d8c-4f94-8007-49ab8ab4f812","ios":"levelo://app?vid=b32a36ac-6d8c-4f94-8007-49ab8ab4f812"},"vehicle_type_id":"4","last_reported":1769786625,"current_range_meters":9200,"station_id":"ce4bhpp2rcd13ifvqhfg","pricing_plan_id":"cebpf4jnsgd1na2vs0mg"},{"bike_id":"1b99c778-bb5d-42c4-9df9-477406df2883","system_id":"levelo_inurba_marseille","lat":43.23192,"lon":5.35545,"is_reserved":false,"is_disabled":false,"rental_uris":{"android":"levelo://app?vid=1b99c778-bb5d-42c4-9df9-477406df2883","ios":"levelo://app?vid=1b99c778-bb5d-42c4-9df9-477406df2883"},"vehicle_type_id":"4","last_reported":1769786625,"current_range_meters":9200,"station_id":"ce4bhu92rcd13ifvqi70","pricing_plan_id":"cebpf4jnsgd1na2vs0mg"},{"bike_id":"0c64f01b-e867-4b27-be2c-1c9d836477bc","system_id":"levelo_inurba_marseille","lat":43.29041,"lon":5.37729,"is_reserved":false,"is_disabled":false,"rental_uris":{"android":"levelo://app?vid=0c64f01b-e867-4b27-be2c-1c9d836477bc","ios":"levelo://app?vid=0c64f01b-e867-4b27-be2c-1c9d836477bc"},"vehicle_type_id":"4","last_reported":1769786625,"current_range_meters":9200,"station_id":"","pricing_plan_id":"cebpf4jnsgd1na2vs0mg"},{"bike_id":"169e268b-5fcc-439a-85a8-5d0f835d65db","system_id":"levelo_inurba_marseille","lat":43.255004,"lon":5.376337,"is_reserved":false,"is_disabled":false,"rental_uris":{"android":"levelo://app?vid=169e268b-5fcc-439a-85a8-5d0f835d65db","ios":"levelo://app?vid=169e268b-5fcc-439a-85a8-5d0f835d65db"},"vehicle_type_id":"4","last_reported":1769786625,"current_range_meters":9600,"station_id":"ce4bhh12rcd13ifvqff0","pricing_plan_id":"cebpf4jnsgd1na2vs0mg"},{"bike_id":"8d970407-d2a3-4750-8ec3-dae3cea354f3","system_id":"levelo_inurba_marseille","lat":43.29518,"lon":5.39064,"is_reserved":false,"is_disabled":false,"rental_uris":{"android":"levelo://app?vid=8d970407-d2a3-4750-8ec3-dae3cea354f3","ios":"levelo://app?vid=8d970407-d2a3-4750-8ec3-dae3cea354f3"},"vehicle_type_id":"4","last_reported":1769786625,"current_range_meters":9600,"station_id":"ce4bh3p2rcd13ifvqdp0","pricing_plan_id":"cebpf4jnsgd1na2vs0mg"},{"bike_id":"f59cca65-43a4-4304-9e9c-6b74d6dabd25","system_id":"levelo_inurba_marseille","lat":43.28037,"lon":5.36947,"is_reserved":false,"is_disabled":false,"rental_uris":{"android":"levelo://app?vid=f59cca65-43a4-4304-9e9c-6b74d6dabd25","ios":"levelo://app?vid=f59cca65-43a4-4304-9e9c-6b74d6dabd25"},"vehicle_type_id":"4","last_reported":1769786625,"current_range_meters":9600,"station_id":"ce4bha12rcd13ifvqef0","pricing_plan_id":"cebpf4jnsgd1na2vs0mg"},{"bike_id":"69bd550d-bae4-47b4-8ea1-fdf2613d9cd6","system_id":"levelo_inurba_marseille","lat":43.23954,"lon":5.36613,"is_reserved":false,"is_disabled":false,"rental_uris":{"android":"levelo://app?vid=69bd550d-bae4-47b4-8ea1-fdf2613d9cd6","ios":"levelo://app?vid=69bd550d-bae4-47b4-8ea1-fdf2613d9cd6"},"vehicle_type_id":"4","last_reported":1769786625,"current_range_meters":9600,"station_id":"ce4bhi12rcd13ifvqfp0","pricing_plan_id":"cebpf4jnsgd1na2vs0mg"},{"bike_id":"eb04defa-9c2c-4a46-a4da-2174d6dcd3f8","system_id":"levelo_inurba_marseille","lat":43.28476,"lon":5.4839,"is_reserved":false,"is_disabled":false,"rental_uris":{"android":"levelo://app?vid=eb04defa-9c2c-4a46-a4da-2174d6dcd3f8","ios":"levelo://app?vid=eb04defa-9c2c-4a46-a4da-2174d6dcd3f8"},"vehicle_type_id":"4","last_reported":1769786625,"current_range_meters":9600,"station_id":"","pricing_plan_id":"cebpf4jnsgd1na2vs0mg"},{"bike_id":"59c0a44a-805c-4ba2-b73e-3b162753bb66","system_id":"levelo_inurba_marseille","lat":43.285593,"lon":5.398959,"is_reserved":false,"is_disabled":false,"rental_uris":{"android":"levelo://app?vid=59c0a44a-805c-4ba2-b73e-3b162753bb66","ios":"levelo://app?vid=59c0a44a-805c-4ba2-b73e-3b162753bb66"},"vehicle_type_id":"4","last_reported":1769786625,"current_range_meters":9600,"station_id":"","pricing_plan_id":"cebpf4jnsgd1na2vs0mg"},{"bike_id":"ea32c3f6-a4db-44fe-907c-c45fd747ad9f","system_id":"levelo_inurba_marseille","lat":43.28852,"lon":5.42526,"is_reserved":false,"is_disabled":false,"rental_uris":{"android":"levelo://app?vid=ea32c3f6-a4db-44fe-907c-c45fd747ad9f","ios":"levelo://app?vid=ea32c3f6-a4db-44fe-907c-c45fd747ad9f"},"vehicle_type_id":"4","last_reported":1769786625,"current_range_meters":9600,"station_id":"st_d3b462108ojc7389ooeg","pricing_plan_id":"cebpf4jnsgd1na2vs0mg"},{"bike_id":"f824cf1a-0540-4cf9-af61-d7b99d9faf84","system_id":"levelo_inurba_marseille","lat":43.24167,"lon":5.36387,"is_reserved":false,"is_disabled":false,"rental_uris":{"android":"levelo://app?vid=f824cf1a-0540-4cf9-af61-d7b99d9faf84","ios":"levelo://app?vid=f824cf1a-0540-4cf9-af61-d7b99d9faf84"},"vehicle_type_id":"4","last_reported":1769786625,"current_range_meters":9600,"station_id":"cpo36qri1sfpv3e86is0","pricing_plan_id":"cebpf4jnsgd1na2vs0mg"},{"bike_id":"abe7cc03-c298-497f-8503-33c7408838b9","system_id":"levelo_inurba_marseille","lat":43.27937,"lon":5.41031,"is_reserved":false,"is_disabled":false,"rental_uris":{"android":"levelo://app?vid=abe7cc03-c298-497f-8503-33c7408838b9","ios":"levelo://app?vid=abe7cc03-c298-497f-8503-33c7408838b9"},"vehicle_type_id":"4","last_reported":1769786625,"current_range_meters":9600,"station_id":"ce4bhnp2rcd13ifvqh0g","pricing_plan_id":"cebpf4jnsgd1na2vs0mg"},