{"last_updated":1751912133,"ttl":60,"version":"2.2","data":{"bikes":[{"bike_id":"3da29fb8-fc97-44c6-b9ac-31dd456b2fd4","system_id":"levelo_inurba_marseille","lat":43.33771,"lon":5.37424,"is_reserved":false,"is_disabled":true,"rental_uris":{"android":"levelo://app?vid=3da29fb8-fc97-44c6-b9ac-31dd456b2fd4","ios":"levelo://app?vid=3da29fb8-fc97-44c6-b9ac-31dd456b2fd4"},"vehicle_type_id":"4","last_reported":1751912134,"current_range_meters":0,"station_id":"","pricing_plan_id":"cebpf4jnsgd1na2vs0mg"},{"bike_id":"01861ad8-a8d7-4be6-816e-651927c87584","system_id":"levelo_inurba_marseille","lat":43.33751,"lon":5.37456,"is_reserved":false,"is_disabled":true,"rental_uris":{"android":"levelo://app?vid=01861ad8-a8d7-4be6-816e-651927c87584","ios":"levelo://app?vid=01861ad8-a8d7-4be6-816e-651927c87584"},"vehicle_type_id":"4","last_reported":1751912134,"current_range_meters":0,"station_id":"","pricing_plan_id":"cebpf4jnsgd1na2vs0mg"},{"bike_id":"95c194a9-5cae-4867-bc56-f8781828dc70","system_id":"levelo_inurba_marseille","lat":43.337444,"lon":5.374475,"is_reserved":false,"is_disabled":true,"rental_uris":{"android":"levelo://app?vid=95c194a9-5cae-4867-bc56-f8781828dc70","ios":"levelo://app?vid=95c194a9-5cae-4867-bc56-f8781828dc70"},"vehicle_type_id":"4","last_reported":1751912134,"current_range_meters":0,"station_id":"","pricing_plan_id":"cebpf4jnsgd1na2vs0mg"},{"bike_id":"1437024d-d2bc-4dcb-8d85-7721d91fc486","system_id":"levelo_inurba_marseille","lat":43.28473,"lon":5.38415,"is_reserved":false,"is_disabled":true,"rental_uris":{"android":"levelo://app?vid=1437024d-d2bc-4dcb-8d85-7721d91fc486","ios":"levelo://app?vid=1437024d-d2bc-4dcb-8d85-7721d91fc486"},"vehicle_type_id":"4","last_reported":1751912134,"current_range_meters":0,"station_id":"ce4bh512rcd13ifvqe3g","pricing_plan_id":"cebpf4jnsgd1na2vs0mg"},{"bike_id":"f9483edd-4ad3-47d1-bcc6-4a31af712a90","system_id":"levelo_inurba_marseille","lat":43.28045,"lon":5.3694,"is_reserved":false,"is_disabled":false,"rental_uris":{"android":"levelo://app?vid=f9483edd-4ad3-47d1-bcc6-4a31af712a90","ios":"levelo://app?vid=f9483edd-4ad3-47d1-bcc6-4a31af712a90"},"vehicle_type_id":"4","last_reported":1751912134,"current_range_meters":0,"station_id":"ce4bha12rcd13ifvqef0","pricing_plan_id":"cebpf4jnsgd1na2vs0mg"},{"bike_id":"c5ac9d1c-8174-4865-9923-cfac4939df3a","system_id":"levelo_inurba_marseille","lat":43.246731,"lon":5.381766,"is_reserved":false,"is_disabled":true,"rental_uris":{"android":"levelo://app?vid=c5ac9d1c-8174-4865-9923-cfac4939df3a","ios":"levelo://app?vid=c5ac9d1c-8174-4865-9923-cfac4939df3a"},"vehicle_type_id":"4","last_reported":1751912134,"current_range_meters":0,"station_id":"ce4bhih2rcd13ifvqfr0","pricing_plan_id":"cebpf4jnsgd1na2vs0mg"},{"bike_id":"48118a73-aac8-4489-9a93-167e38b81035","system_id":"levelo_inurba_marseille","lat":43.2623,"lon":5.40453,"is_reserved":false,"is_disabled":true,"rental_uris":{"android":"levelo://app?vid=48118a73-aac8-4489-9a93-167e38b81035","ios":"levelo://app?vid=48118a73-aac8-4489-9a93-167e38b81035"},"vehicle_type_id":"4","last_reported":1751912134,"current_range_meters":0,"station_id":"ce4bhmh2rcd13ifvqgmg","pricing_plan_id":"cebpf4jnsgd1na2vs0mg"},{"bike_id":"fc11f1e3-fd7d-492a-8c42-2fb8faf16c6a","system_id":"levelo_inurba_marseille","lat":43.30367,"lon":5.42493,"is_reserved":false,"is_disabled":true,"rental_uris":{"android":"levelo://app?vid=fc11f1e3-fd7d-492a-8c42-2fb8faf16c6a","ios":"levelo://app?vid=fc11f1e3-fd7d-492a-8c42-2fb8faf16c6a"},"vehicle_type_id":"4","last_reported":1751912134,"current_range_meters":0,"station_id":"ce4bhoh2rcd13ifvqh6g","pricing_plan_id":"cebpf4jnsgd1na2vs0mg"},{"bike_id":"3d508917-55ee-42b6-894b-89c2a444dc06","system_id":"levelo_inurba_marseille","lat":43.22515,"lon":5.34764,"is_reserved":false,"is_disabled":true,"rental_uris":{"android":"levelo://app?vid=3d508917-55ee-42b6-894b-89c2a444dc06","ios":"levelo://app?vid=3d508917-55ee-42b6-894b-89c2a444dc06"},"vehicle_type_id":"4","last_reported":1751912134,"current_range_meters":0,"station_id":"st_cvj5dfep6f1abm77gieg","pricing_plan_id":"cebpf4jnsgd1na2vs0mg"},{"bike_id":"e86ba8c9-208d-482c-a826-4c100938472a","system_id":"levelo_inurba_marseille","lat":43.21196,"lon":5.35068,"is_reserved":false,"is_disabled":true,"rental_uris":{"android":"levelo://app?vid=e86ba8c9-208d-482c-a826-4c100938472a","ios":"levelo://app?vid=e86ba8c9-208d-482c-a826-4c100938472a"},"vehicle_type_id":"4","last_reported":1751912134,"current_range_meters":0,"station_id":"st_cvj6sg6p6f1abm77japg","pricing_plan_id":"cebpf4jnsgd1na2vs0mg"},{"bike_id":"f0a19a9e-f150-4c1e-bcc6-db3195370cac","system_id":"levelo_inurba_marseille","lat":43.32693,"lon":5.43112,"is_reserved":false,"is_disabled":true,"rental_uris":{"android":"levelo://app?vid=f0a19a9e-f150-4c1e-bcc6-db3195370cac","ios":"levelo://app?vid=f0a19a9e-f150-4c1e-bcc6-db3195370cac"},"vehicle_type_id":"4","last_reported":1751912134,"current_range_meters":400,"station_id":"","pricing_plan_id":"cebpf4jnsgd1na2vs0mg"},{"bike_id":"331d046f-200f-4f4c-abd5-ad5345181dca","system_id":"levelo_inurba_marseille","lat":43.32481,"lon":5.36559,"is_reserved":false,"is_disabled":true,"rental_uris":{"android":"levelo://app?vid=331d046f-200f-4f4c-abd5-ad5345181dca","ios":"levelo://app?vid=331d046f-200f-4f4c-abd5-ad5345181dca"},"vehicle_type_id":"4","last_reported":1751912134,"current_range_meters":800,"station_id":"ce4bhs12rcd13ifvqhvg","pricing_plan_id":"cebpf4jnsgd1na2vs0mg"},{"bike_id":"54c1edb2-db20-4550-a7f4-c0a12a8ab358","system_id":"levelo_inurba_marseille","lat":43.29798,"lon":5.38094,"is_reserved":false,"is_disabled":true,"rental_uris":{"android":"levelo://app?vid=54c1edb2-db20-4550-a7f4-c0a12a8ab358","ios":"levelo://app?vid=54c1edb2-db20-4550-a7f4-c0a12a8ab358"},"vehicle_type_id":"4","last_reported":1751912134,"current_range_meters":1200,"station_id":"ce4bgip2rcd13ifvqbb0","pricing_plan_id":"cebpf4jnsgd1na2vs0mg"},{"bike_id":"c32a44ab-b078-4729-9be5-e0735978229d","system_id":"levelo_inurba_marseille","lat":43.21206,"lon":5.35057,"is_reserved":false,"is_disabled":true,"rental_uris":{"android":"levelo://app?vid=c32a44ab-b078-4729-9be5-e0735978229d","ios":"levelo://app?vid=c32a44ab-b078-4729-9be5-e0735978229d"},"vehicle_type_id":"4","last_reported":1751912134,"current_range_meters":1200,"station_id":"st_cvj6sg6p6f1abm77japg","pricing_plan_id":"cebpf4jnsgd1na2vs0mg"},{"bike_id":"12243f58-8a39-483c-a5ac-8d16a316894b","system_id":"levelo_inurba_marseille","lat":43.29276,"lon":5.36844,"is_reserved":false,"is_disabled":true,"rental_uris":{"android":"levelo://app?vid=12243f58-8a39-483c-a5ac-8d16a316894b","ios":"levelo://app?vid=12243f58-8a39-483c-a5ac-8d16a316894b"},"vehicle_type_id":"4","last_reported":1751912134,"current_range_meters":1600,"station_id":"ce4bhbp2rcd13ifvqesg","pricing_plan_id":"cebpf4jnsgd1na2vs0mg"},{"bike_id":"36fc43ff-930e-421b-9c9a-ac8fb9d1625b","system_id":"levelo_inurba_marseille","lat":43.29585,"lon":5.39962,"is_reserved":false,"is_disabled":true,"rental_uris":{"android":"levelo://app?vid=36fc43ff-930e-421b-9c9a-ac8fb9d1625b","ios":"levelo://app?vid=36fc43ff-930e-421b-9c9a-ac8fb9d1625b"},"vehicle_type_id":"4","last_reported":1751912134,"current_range_meters":2800,"station_id":"","pricing_plan_id":"cebpf4jnsgd1na2vs0mg"},{"bike_id":"315ea041-9db7-4277-a691-c99ecc120bf0","system_id":"levelo_inurba_marseille","lat":43.31889,"lon":5.40738,"is_reserved":false,"is_disabled":false,"rental_uris":{"android":"levelo://app?vid=315ea041-9db7-4277-a691-c99ecc120bf0","ios":"levelo://app?vid=315ea041-9db7-4277-a691-c99ecc120bf0"},"vehicle_type_id":"4","last_reported":1751912134,"current_range_meters":2800,"station_id":"ce4bhq12rcd13ifvqhig","pricing_plan_id":"cebpf4jnsgd1na2vs0mg"},{"bike_id":"9e209eb2-a269-4d85-a13e-7359b1255ff2","system_id":"levelo_inurba_marseille","lat":43.29612,"lon":5.38098,"is_reserved":false,"is_disabled":false,"rental_uris":{"android":"levelo://app?vid=9e209eb2-a269-4d85-a13e-7359b1255ff2","ios":"levelo://app?vid=9e209eb2-a269-4d85-a13e-7359b1255ff2"},"vehicle_type_id":"4","last_reported":1751912134,"current_range_meters":3200,"station_id":"ce4bgl12rcd13ifvqbo0","pricing_plan_id":"cebpf4jnsgd1na2vs0mg"},{"bike_id":"d93d5cf1-f208-4036-b693-913f4a55cb07","system_id":"levelo_inurba_marseille","lat":43.29869,"lon":5.3973,"is_reserved":false,"is_disabled":false,"rental_uris":{"android":"levelo://app?vid=d93d5cf1-f208-4036-b693-913f4a55cb07","ios":"levelo://app?vid=d93d5cf1-f208-4036-b693-913f4a55cb07"},"vehicle_type_id":"4","last_reported":1751912134,"current_range_meters":3200,"station_id":"ce4bh0h2rcd13ifvqd50","pricing_plan_id":"cebpf4jnsgd1na2vs0mg"},{"bike_id":"d30f762b-6a69-4560-836e-f12ee0bd9d7f","system_id":"levelo_inurba_marseille","lat":43.28422,"lon":5.37501,"is_reserved":false,"is_disabled":false,"rental_uris":{"android":"levelo://app?vid=d30f762b-6a69-4560-836e-f12ee0bd9d7f","ios":"levelo://app?vid=d30f762b-6a69-4560-836e-f12ee0bd9d7f"},"vehicle_type_id":"4","last_reported":1751912134,"current_range_meters":3200,"station_id":"ce4bh412rcd13ifvqds0","pricing_plan_id":"cebpf4jnsgd1na2vs0mg"},{"bike_id":"41fb0ba6-6589-4e57-b916-ce0fa0e56f0c","system_id":"levelo_inurba_marseille","lat":43.31888,"lon":5.40741,"is_reserved":false,"is_disabled":false,"rental_uris":{"android":"levelo://app?vid=41fb0ba6-6589-4e57-b916-ce0fa0e56f0c","ios":"levelo://app?vid=41fb0ba6-6589-4e57-b916-ce0fa0e56f0c"},"vehicle_type_id":"4","last_reported":1751912134,"current_range_meters":3200,"station_id":"ce4bhq12rcd13ifvqhig","pricing_plan_id":"cebpf4jnsgd1na2vs0mg"},{"bike_id":"51aa6a07-b4f7-4eac-862d-099b08e7d189","system_id":"levelo_inurba_marseille","lat":43.28612,"lon":5.37062,"is_reserved":false,"is_disabled":false,"rental_uris":{"android":"levelo://app?vid=51aa6a07-b4f7-4eac-862d-099b08e7d189","ios":"levelo://app?vid=51aa6a07-b4f7-4eac-862d-099b08e7d189"},"vehicle_type_id":"4","last_reported":1751912134,"current_range_meters":3200,"station_id":"ce4bht12rcd13ifvqi60","pricing_plan_id":"cebpf4jnsgd1na2vs0mg"},{"bike_id":"ce5f7cd6-30e5-4fd1-9c0c-be357f59a05b","system_id":"levelo_inurba_marseille","lat":43.28672,"lon":5.36343,"is_reserved":false,"is_disabled":false,"rental_uris":{"android":"levelo://app?vid=ce5f7cd6-30e5-4fd1-9c0c-be357f59a05b","ios":"levelo://app?vid=ce5f7cd6-30e5-4fd1-9c0c-be357f59a05b"},"vehicle_type_id":"4","last_reported":1751912134,"current_range_meters":3600,"station_id":"ce4bhah2rcd13ifvqej0","pricing_plan_id":"cebpf4jnsgd1na2vs0mg"},{"bike_id":"fbc9b662-667c-4756-9092-3eae5dd81fd0","system_id":"levelo_inurba_marseille","lat":43.27068,"lon":5.42275,"is_reserved":false,"is_disabled":false,"rental_uris":{"android":"levelo://app?vid=fbc9b662-667c-4756-9092-3eae5dd81fd0","ios":"levelo://app?vid=fbc9b662-667c-4756-9092-3eae5dd81fd0"},"vehicle_type_id":"4","last_reported":1751912134,"current_range_meters":3600,"station_id":"ce4bhk92rcd13ifvqgb0","pricing_plan_id":"cebpf4jnsgd1na2vs0mg"},{"bike_id":"6054f580-e2eb-4bbe-bd80-090aa0bf1eba","system_id":"levelo_inurba_marseille","lat":43.28718,"lon":5.37934,"is_reserved":false,"is_disabled":false,"rental_uris":{"android":"levelo://app?vid=6054f580-e2eb-4bbe-bd80-090aa0bf1eba","ios":"levelo://app?vid=6054f580-e2eb-4bbe-bd80-090aa0bf1eba"},"vehicle_type_id":"4","last_reported":1751912134,"current_range_meters":4000,"station_id":"ce4bh9p2rcd13ifvqec0","pricing_plan_id":"cebpf4jnsgd1na2vs0mg"},{"bike_id":"c70a0d42-b710-4d8e-a79c-cb498e49b891","system_id":"levelo_inurba_marseille","lat":43.289579,"lon":5.364719,"is_reserved":false,"is_disabled":false,"rental_uris":{"android":"levelo://app?vid=c70a0d42-b710-4d8e-a79c-cb498e49b891","ios":"levelo://app?vid=c70a0d42-b710-4d8e-a79c-cb498e49b891"},"vehicle_type_id":"4","last_reported":1751912134,"current_range_meters":4000,"station_id":"ce4bhch2rcd13ifvqeug","pricing_plan_id":"cebpf4jnsgd1na2vs0mg"},{"bike_id":"f9cc3075-cacf-429e-af64-403b2e2857d7","system_id":"levelo_inurba_marseille","lat":43.28003,"lon":5.41662,"is_reserved":false,"is_disabled":false,"rental_uris":{"android":"levelo://app?vid=f9cc3075-cacf-429e-af64-403b2e2857d7","ios":"levelo://app?vid=f9cc3075-cacf-429e-af64-403b2e2857d7"},"vehicle_type_id":"4","last_reported":1751912134,"current_range_meters":4000,"station_id":"ce4bho12rcd13ifvqh1g","pricing_plan_id":"cebpf4jnsgd1na2vs0mg"},{"bike_id":"86c92dc1-b4da-49d9-acb8-ba390f939865","system_id":"levelo_inurba_marseille","lat":43.33032,"lon":5.39226,"is_reserved":false,"is_disabled":false,"rental_uris":{"android":"levelo://app?vid=86c92dc1-b4da-49d9-acb8-ba390f939865","ios":"levelo://app?vid=86c92dc1-b4da-49d9-acb8-ba390f939865"},"vehicle_type_id":"4","last_reported":1751912134,"current_range_meters":4400,"station_id":"","pricing_plan_id":"cebpf4jnsgd1na2vs0mg"},{"bike_id":"06e62c28-acfd-4d61-81f4-e02b5b5032ae","system_id":"levelo_inurba_marseille","lat":43.28661,"lon":5.36346,"is_reserved":false,"is_disabled":false,"rental_uris":{"android":"levelo://app?vid=06e62c28-acfd-4d61-81f4-e02b5b5032ae","ios":"levelo://app?vid=06e62c28-acfd-4d61-81f4-e02b5b5032ae"},"vehicle_type_id":"4","last_reported":1751912134,"current_range_meters":4400,"station_id":"ce4bhah2rcd13ifvqej0","pricing_plan_id":"cebpf4jnsgd1na2vs0mg"},{"bike_id":"9692020a-1f44-4dee-856e-51aef9b7c527","system_id":"levelo_inurba_marseille","lat":43.317135,"lon":5.437082,"is_reserved":false,"is_disabled":false,"rental_uris":{"android":"levelo://app?vid=9692020a-1f44-4dee-856e-51aef9b7c527","ios":"levelo://app?vid=9692020a-1f44-4dee-856e-51aef9b7c527"},"vehicle_type_id":"4","last_reported":1751912134,"current_range_meters":4400,"station_id":"ce4bhp92rcd13ifvqhcg","pricing_plan_id":"cebpf4jnsgd1na2vs0mg"},{"bike_id":"9d2df954-556e-44ad-b16f-766c8d4c306a","system_id":"levelo_inurba_marseille","lat":43.29306,"lon":5.37178,"is_reserved":false,"is_disabled":false,"rental_uris":{"android":"levelo://app?vid=9d2df954-556e-44ad-b16f-766c8d4c306a","ios":"levelo://app?vid=9d2df954-556e-44ad-b16f-766c8d4c306a"},"vehicle_type_id":"4","last_reported":1751912134,"current_range_meters":5600,"station_id":"ce4bgh92rcd13ifvqb40","pricing_plan_id":"cebpf4jnsgd1na2vs0mg"},{"bike_id":"dc9eb8fd-24e2-4b2a-bce3-36b73b1af64f","system_id":"levelo_inurba_marseille","lat":43.299622,"lon":5.384831,"is_reserved":false,"is_disabled":false,"rental_uris":{"android":"levelo://app?vid=dc9eb8fd-24e2-4b2a-bce3-36b73b1af64f","ios":"levelo://app?vid=dc9eb8fd-24e2-4b2a-bce3-36b73b1af64f"},"vehicle_type_id":"4","last_reported":1751912134,"current_range_meters":6000,"station_id":"ce4bgj92rcd13ifvqbd0","pricing_plan_id":"cebpf4jnsgd1na2vs0mg"},{"bike_id":"048eb18e-3794-4124-b691-be9eb4c65d27","system_id":"levelo_inurba_marseille","lat":43.2857,"lon":5.39495,"is_reserved":false,"is_disabled":false,"rental_uris":{"android":"levelo://app?vid=048eb18e-3794-4124-b691-be9eb4c65d27","ios":"levelo://app?vid=048eb18e-3794-4124-b691-be9eb4c65d27"},"vehicle_type_id":"4","last_reported":1751912134,"current_range_meters":6000,"station_id":"ce4bh292rcd13ifvqdg0","pricing_plan_id":"cebpf4jnsgd1na2vs0mg"},{"bike_id":"ed290504-6948-4f69-8584-2e2b0286febf","system_id":"levelo_inurba_marseille","lat":43.2117,"lon":5.35086,"is_reserved":false,"is_disabled":false,"rental_uris":{"android":"levelo://app?vid=ed290504-6948-4f69-8584-2e2b0286febf","ios":"levelo://app?vid=ed290504-6948-4f69-8584-2e2b0286febf"},"vehicle_type_id":"4","last_reported":1751912134,"current_range_meters":6000,"station_id":"st_cvj6sg6p6f1abm77japg","pricing_plan_id":"cebpf4jnsgd1na2vs0mg"},{"bike_id":"27cdcead-01d3-4413-ae83-08d78da120ef","system_id":"levelo_inurba_marseille","lat":43.29048,"lon":5.39212,"is_reserved":false,"is_disabled":false,"rental_uris":{"android":"levelo://app?vid=27cdcead-01d3-4413-ae83-08d78da120ef","ios":"levelo://app?vid=27cdcead-01d3-4413-ae83-08d78da120ef"},"vehicle_type_id":"4","last_reported":1751912134,"current_range_meters":6400,"station_id":"","pricing_plan_id":"cebpf4jnsgd1na2vs0mg"},{"bike_id":"cad1e67b-8b77-42a6-9555-51e5618f892b","system_id":"levelo_inurba_marseille","lat":43.29361,"lon":5.37828,"is_reserved":false,"is_disabled":false,"rental_uris":{"android":"levelo://app?vid=cad1e67b-8b77-42a6-9555-51e5618f892b","ios":"levelo://app?vid=cad1e67b-8b77-42a6-9555-51e5618f892b"},"vehicle_type_id":"4","last_reported":1751912134,"current_range_meters":6400,"station_id":"ce4bgjh2rcd13ifvqbf0","pricing_plan_id":"cebpf4jnsgd1na2vs0mg"},{"bike_id":"9bfc29d5-4cb1-4d0b-92d5-64f6ae6bb066","system_id":"levelo_inurba_marseille","lat":43.292664,"lon":5.384316,"is_reserved":false,"is_disabled":false,"rental_uris":{"android":"levelo://app?vid=9bfc29d5-4cb1-4d0b-92d5-64f6ae6bb066","ios":"levelo://app?vid=9bfc29d5-4cb1-4d0b-92d5-64f6ae6bb066"},"vehicle_type_id":"4","last_reported":1751912134,"current_range_meters":6400,"station_id":"ce4bh692rcd13ifvqea0","pricing_plan_id":"cebpf4jnsgd1na2vs0mg"},{"bike_id":"5695380e-bffd-448b-a495-4f180791521a","system_id":"levelo_inurba_marseille","lat":43.30413,"lon":5.41283,"is_reserved":false,"is_disabled":false,"rental_uris":{"android":"levelo://app?vid=5695380e-bffd-448b-a495-4f180791521a","ios":"levelo://app?vid=5695380e-bffd-448b-a495-4f180791521a"},"vehicle_type_id":"4","last_reported":1751912134,"current_range_meters":6400,"station_id":"ce4bhop2rcd13ifvqh8g","pricing_plan_id":"cebpf4jnsgd1na2vs0mg"},{"bike_id":"a7753154-ad7f-4eb5-b7b3-df27edf18a53","system_id":"levelo_inurba_marseille","lat":43.22504,"lon":5.34786,"is_reserved":false,"is_disabled":false,"rental_uris":{"android":"levelo://app?vid=a7753154-ad7f-4eb5-b7b3-df27edf18a53","ios":"levelo://app?vid=a7753154-ad7f-4eb5-b7b3-df27edf18a53"},"vehicle_type_id":"4","last_reported":1751912134,"current_range_meters":6400,"station_id":"st_cvj5dfep6f1abm77gieg","pricing_plan_id":"cebpf4jnsgd1na2vs0mg"},{"bike_id":"2156008a-3660-417c-8456-4a0331e23228","system_id":"levelo_inurba_marseille","lat":43.31174,"lon":5.38719,"is_reserved":false,"is_disabled":false,"rental_uris":{"android":"levelo://app?vid=2156008a-3660-417c-8456-4a0331e23228","ios":"levelo://app?vid=2156008a-3660-417c-8456-4a0331e23228"},"vehicle_type_id":"4","last_reported":1751912134,"current_range_meters":6800,"station_id":"ce4bgv12rcd13ifvqcp0","pricing_plan_id":"cebpf4jnsgd1na2vs0mg"},{"bike_id":"627b2b06-da8a-466f-9608-3cef29636059","system_id":"levelo_inurba_marseille","lat":43.21755,"lon":5.34598,"is_reserved":false,"is_disabled":false,"rental_uris":{"android":"levelo://app?vid=627b2b06-da8a-466f-9608-3cef29636059","ios":"levelo://app?vid=627b2b06-da8a-466f-9608-3cef29636059"},"vehicle_type_id":"4","last_reported":1751912134,"current_range_meters":6800,"station_id":"st_cvj6r9ubvosntc0bgbag","pricing_plan_id":"cebpf4jnsgd1na2vs0mg"},{"bike_id":"ec5d174d-9561-4ead-adea-2caae1f9da4c","system_id":"levelo_inurba_marseille","lat":43.31489,"lon":5.37304,"is_reserved":false,"is_disabled":false,"rental_uris":{"android":"levelo://app?vid=ec5d174d-9561-4ead-adea-2caae1f9da4c","ios":"levelo://app?vid=ec5d174d-9561-4ead-adea-2caae1f9da4c"},"vehicle_type_id":"4","last_reported":1751912134,"current_range_meters":7200,"station_id":"ce4bgt12rcd13ifvqcd0","pricing_plan_id":"cebpf4jnsgd1na2vs0mg"},{"bike_id":"881997a4-9f98-4e94-8a17-2c61d0eb3988","system_id":"levelo_inurba_marseille","lat":43.29527,"lon":5.3903,"is_reserved":false,"is_disabled":false,"rental_uris":{"android":"levelo://app?vid=881997a4-9f98-4e94-8a17-2c61d0eb3988","ios":"levelo://app?vid=881997a4-9f98-4e94-8a17-2c61d0eb3988"},"vehicle_type_id":"4","last_reported":1751912134,"current_range_meters":7200,"station_id":"ce4bh3p2rcd13ifvqdp0","pricing_plan_id":"cebpf4jnsgd1na2vs0mg"},{"bike_id":"8192979a-543a-4d95-9734-710b34728890","system_id":"levelo_inurba_marseille","lat":43.28447,"lon":5.39195,"is_reserved":false,"is_disabled":false,"rental_uris":{"android":"levelo://app?vid=8192979a-543a-4d95-9734-710b34728890","ios":"levelo://app?vid=8192979a-543a-4d95-9734-710b34728890"},"vehicle_type_id":"4","last_reported":1751912134,"current_range_meters":7200,"station_id":"ce4bhoh2rcd13ifvqh5g","pricing_plan_id":"cebpf4jnsgd1na2vs0mg"},{"bike_id":"72bb01cf-f6c5-4362-9e40-b3a0451edf6e","system_id":"levelo_inurba_marseille","lat":43.29513,"lon":5.39394,"is_reserved":false,"is_disabled":false,"rental_uris":{"android":"levelo://app?vid=72bb01cf-f6c5-4362-9e40-b3a0451edf6e","ios":"levelo://app?vid=72bb01cf-f6c5-4362-9e40-b3a0451edf6e"},"vehicle_type_id":"4","last_reported":1751912134,"current_range_meters":8000,"station_id":"ce4bh292rcd13ifvqdf0","pricing_plan_id":"cebpf4jnsgd1na2vs0mg"},{"bike_id":"3fe90780-f039-41f8-b714-319007ae14c5","system_id":"levelo_inurba_marseille","lat":43.2992,"lon":5.37466,"is_reserved":false,"is_disabled":false,"rental_uris":{"android":"levelo://app?vid=3fe90780-f039-41f8-b714-319007ae14c5","ios":"levelo://app?vid=3fe90780-f039-41f8-b714-319007ae14c5"},"vehicle_type_id":"4","last_reported":1751912134,"current_range_meters":8400,"station_id":"ce4bgjh2rcd13ifvqbg0","pricing_plan_id":"cebpf4jnsgd1na2vs0mg"},{"bike_id":"ba91924c-88bb-48ff-9bf4-3bd2c5b7ff5d","system_id":"levelo_inurba_marseille","lat":43.31171,"lon":5.38721,"is_reserved":false,"is_disabled":false,"rental_uris":{"android":"levelo://app?vid=ba91924c-88bb-48ff-9bf4-3bd2c5b7ff5d","ios":"levelo://app?vid=ba91924c-88bb-48ff-9bf4-3bd2c5b7ff5d"},"vehicle_type_id":"4","last_reported":1751912134,"current_range_meters":8400,"station_id":"ce4bgv12rcd13ifvqcp0","pricing_plan_id":"cebpf4jnsgd1na2vs0mg"},{"bike_id":"6a96ec50-287e-43eb-bcd3-81afac198bad","system_id":"levelo_inurba_marseille","lat":43.31328,"lon":5.39683,"is_reserved":false,"is_disabled":false,"rental_uris":{"android":"levelo://app?vid=6a96ec50-287e-43eb-bcd3-81afac198bad","ios":"levelo://app?vid=6a96ec50-287e-43eb-bcd3-81afac198bad"},"vehicle_type_id":"4","last_reported":1751912134,"current_range_meters":8400,"station_id":"ce4bgvp2rcd13ifvqcu0","pricing_plan_id":"cebpf4jnsgd1na2vs0mg"},{"bike_id":"5444b09b-7762-44a6-9c44-d390fe45a8e0","system_id":"levelo_inurba_marseille","lat":43.28667,"lon":5.36344,"is_reserved":false,"is_disabled":false,"rental_uris":{"android":"levelo://app?vid=5444b09b-7762-44a6-9c44-d390fe45a8e0","ios":"levelo://app?vid=5444b09b-7762-44a6-9c44-d390fe45a8e0"},"vehicle_type_id":"4","last_reported":1751912134,"current_range_meters":8400,"station_id":"ce4bhah2rcd13ifvqej0","pricing_plan_id":"cebpf4jnsgd1na2vs0mg"},{"bike_id":"a725e709-917d-4e24-afe6-8002756308c9","system_id":"levelo_inurba_marseille","lat":43.26958,"lon":5.38632,"is_reserved":false,"is_disabled":false,"rental_uris":{"android":"levelo://app?vid=a725e709-917d-4e24-afe6-8002756308c9","ios":"levelo://app?vid=a725e709-917d-4e24-afe6-8002756308c9"},"vehicle_type_id":"4","last_reported":1751912134,"current_range_meters":8400,"station_id":"ce4bhh92rcd13ifvqfh0","pricing_plan_id":"cebpf4jnsgd1na2vs0mg"},{"bike_id":"75635463-05a5-4988-99c6-48f3701c07ed","system_id":"levelo_inurba_marseille","lat":43.32664,"lon":5.40996,"is_reserved":false,"is_disabled":false,"rental_uris":{"android":"levelo://app?vid=75635463-05a5-4988-99c6-48f3701c07ed","ios":"levelo://app?vid=75635463-05a5-4988-99c6-48f3701c07ed"},"vehicle_type_id":"4","last_reported":1751912134,"current_range_meters":8400,"station_id":"ce4bhpp2rcd13ifvqhgg","pricing_plan_id":"cebpf4jnsgd1na2vs0mg"},{"bike_id":"1886a50e-971c-4af5-8713-38cfa1fbdaf6","system_id":"levelo_inurba_marseille","lat":43.29899,"lon":5.38148,"is_reserved":false,"is_disabled":false,"rental_uris":{"android":"levelo://app?vid=1886a50e-971c-4af5-8713-38cfa1fbdaf6","ios":"levelo://app?vid=1886a50e-971c-4af5-8713-38cfa1fbdaf6"},"vehicle_type_id":"4","last_reported":1751912134,"current_range_meters":8800,"station_id":"ce4bgj12rcd13ifvqbc0","pricing_plan_id":"cebpf4jnsgd1na2vs0mg"},{"bike_id":"df7fd0a7-cc78-4908-aaea-ad146b1e7149","system_id":"levelo_inurba_marseille","lat":43.30327,"lon":5.40435,"is_reserved":false,"is_disabled":false,"rental_uris":{"android":"levelo://app?vid=df7fd0a7-cc78-4908-aaea-ad146b1e7149","ios":"levelo://app?vid=df7fd0a7-cc78-4908-aaea-ad146b1e7149"},"vehicle_type_id":"4","last_reported":1751912134,"current_range_meters":8800,"station_id":"ce4bh012rcd13ifvqd10","pricing_plan_id":"cebpf4jnsgd1na2vs0mg"},{"bike_id":"cb7c3a94-95bd-4a78-a2dd-01815231f744","system_id":"levelo_inurba_marseille","lat":43.28363,"lon":5.38623,"is_reserved":false,"is_disabled":false,"rental_uris":{"android":"levelo://app?vid=cb7c3a94-95bd-4a78-a2dd-01815231f744","ios":"levelo://app?vid=cb7c3a94-95bd-4a78-a2dd-01815231f744"},"vehicle_type_id":"4","last_reported":1751912134,"current_range_meters":8800,"station_id":"ce4bh492rcd13ifvqdvg","pricing_plan_id":"cebpf4jnsgd1na2vs0mg"},{"bike_id":"9534638e-0993-4451-bebb-f329db0d87e9","system_id":"levelo_inurba_marseille","lat":43.29007,"lon":5.35607,"is_reserved":false,"is_disabled":false,"rental_uris":{"android":"levelo://app?vid=9534638e-0993-4451-bebb-f329db0d87e9","ios":"levelo://app?vid=9534638e-0993-4451-bebb-f329db0d87e9"},"vehicle_type_id":"4","last_reported":1751912134,"current_range_meters":8800,"station_id":"ce4bhb92rcd13ifvqen0","pricing_plan_id":"cebpf4jnsgd1na2vs0mg"},{"bike_id":"0a3674b7-e40c-43fe-bbbb-b7e81682f926","system_id":"levelo_inurba_marseille","lat":43.29413,"lon":5.38581,"is_reserved":false,"is_disabled":false,"rental_uris":{"android":"levelo://app?vid=0a3674b7-e40c-43fe-bbbb-b7e81682f926","ios":"levelo://app?vid=0a3674b7-e40c-43fe-bbbb-b7e81682f926"},"vehicle_type_id":"4","last_reported":1751912134,"current_range_meters":9200,"station_id":"ce4bh2h2rcd13ifvqdh0","pricing_plan_id":"cebpf4jnsgd1na2vs0mg"},{"bike_id":"f3138a59-92d7-467a-b61c-365d994f2f83","system_id":"levelo_inurba_marseille","lat":43.29527,"lon":5.39044,"is_reserved":false,"is_disabled":false,"rental_uris":{"android":"levelo://app?vid=f3138a59-92d7-467a-b61c-365d994f2f83","ios":"levelo://app?vid=f3138a59-92d7-467a-b61c-365d994f2f83"},"vehicle_type_id":"4","last_reported":1751912134,"current_range_meters":9200,"station_id":"ce4bh3p2rcd13ifvqdp0","pricing_plan_id":"cebpf4jnsgd1na2vs0mg"},{"bike_id":"46494a6a-6932-49eb-8521-f7aa1073a8a2","system_id":"levelo_inurba_marseille","lat":43.28704,"lon":5.37398,"is_reserved":false,"is_disabled":false,"rental_uris":{"android":"levelo://app?vid=46494a6a-6932-49eb-8521-f7aa1073a8a2","ios":"levelo://app?vid=46494a6a-6932-49eb-8521-f7aa1073a8a2"},"vehicle_type_id":"4","last_reported":1751912134,"current_range_meters":9200,"station_id":"ce4bh3p2rcd13ifvqdq0","pricing_plan_id":"cebpf4jnsgd1na2vs0mg"},{"bike_id":"3ecea73a-9cfd-4879-843e-413de51c7cb3","system_id":"levelo_inurba_marseille","lat":43.251153,"lon":5.403194,"is_reserved":false,"is_disabled":false,"rental_uris":{"android":"levelo://app?vid=3ecea73a-9cfd-4879-843e-413de51c7cb3","ios":"levelo://app?vid=3ecea73a-9cfd-4879-843e-413de51c7cb3"},"vehicle_type_id":"4","last_reported":1751912134,"current_range_meters":9200,"station_id":"ce4bhlh2rcd13ifvqgig","pricing_plan_id":"cebpf4jnsgd1na2vs0mg"},{"bike_id":"7b527f00-f6ea-4963-b59d-8da04a2feedb","system_id":"levelo_inurba_marseille","lat":43.32086,"lon":5.40096,"is_reserved":false,"is_disabled":false,"rental_uris":{"android":"levelo://app?vid=7b527f00-f6ea-4963-b59d-8da04a2feedb","ios":"levelo://app?vid=7b527f00-f6ea-4963-b59d-8da04a2feedb"},"vehicle_type_id":"4","last_reported":1751912134,"current_range_meters":9600,"station_id":"","pricing_plan_id":"cebpf4jnsgd1na2vs0mg"},{"bike_id":"88ea42cb-cf0f-4e4a-8442-732645bc4ba5","system_id":"levelo_inurba_marseille","lat":43.310743,"lon":5.367259,"is_reserved":false,"is_disabled":false,"rental_uris":{"android":"levelo://app?vid=88ea42cb-cf0f-4e4a-8442-732645bc4ba5","ios":"levelo://app?vid=88ea42cb-cf0f-4e4a-8442-732645bc4ba5"},"vehicle_type_id":"4","last_reported":1751912134,"current_range_meters":9600,"station_id":"","pricing_plan_id":"cebpf4jnsgd1na2vs0mg"},{"bike_id":"e1a49fcb-6b79-439b-9ed1-f76b16a4670c","system_id":"levelo_inurba_marseille","lat":43.293701,"lon":5.378422,"is_reserved":false,"is_disabled":false,"rental_uris":{"android":"levelo://app?vid=e1a49fcb-6b79-439b-9ed1-f76b16a4670c","ios":"levelo://app?vid=e1a49fcb-6b79-439b-9ed1-f76b16a4670c"},"vehicle_type_id":"4","last_reported":1751912134,"current_range_meters":9600,"station_id":"ce4bgjh2rcd13ifvqbf0","pricing_plan_id":"cebpf4jnsgd1na2vs0mg"},{"bike_id":"9c181fcc-3f40-45a7-8572-922290ecb138","system_id":"levelo_inurba_marseille","lat":43.317069,"lon":5.377673,"is_reserved":false,"is_disabled":false,"rental_uris":{"android":"levelo://app?vid=9c181fcc-3f40-45a7-8572-922290ecb138","ios":"levelo://app?vid=9c181fcc-3f40-45a7-8572-922290ecb138"},"vehicle_type_id":"4","last_reported":1751912134,"current_range_meters":9600,"station_id":"ce4bgth2rcd13ifvqch0","pricing_plan_id":"cebpf4jnsgd1na2vs0mg"},{"bike_id":"313cc1cc-426d-4909-84f9-9efc5f055fb0","system_id":"levelo_inurba_marseille","lat":43.27821,"lon":5.3921,"is_reserved":false,"is_disabled":false,"rental_uris":{"android":"levelo://app?vid=313cc1cc-426d-4909-84f9-9efc5f055fb0","ios":"levelo://app?vid=313cc1cc-426d-4909-84f9-9efc5f055fb0"},"vehicle_type_id":"4","last_reported":1751912134,"current_range_meters":9600,"station_id":"ce4bhjp2rcd13ifvqga0","pricing_plan_id":"cebpf4jnsgd1na2vs0mg"},{"bike_id":"ac6aeb5f-5351-4155-b7e0-d529e6ae25ce","system_id":"levelo_inurba_marseille","lat":43.30607,"lon":5.37218,"is_reserved":false,"is_disabled":false,"rental_uris":{"android":"levelo://app?vid=ac6aeb5f-5351-4155-b7e0-d529e6ae25ce","ios":"levelo://app?vid=ac6aeb5f-5351-4155-b7e0-d529e6ae25ce"},"vehicle_type_id":"4","last_reported":1751912134,"current_range_meters":10000,"station_id":"ce4bgqh2rcd13ifvqc4g","pricing_plan_id":"cebpf4jnsgd1na2vs0mg"},{"bike_id":"abe72bd4-fa1d-4d7d-86b6-c22d3b941540","system_id":"levelo_inurba_marseille","lat":43.2904,"lon":5.37164,"is_reserved":false,"is_disabled":false,"rental_uris":{"android":"levelo://app?vid=abe72bd4-fa1d-4d7d-86b6-c22d3b941540","ios":"levelo://app?vid=abe72bd4-fa1d-4d7d-86b6-c22d3b941540"},"vehicle_type_id":"4","last_reported":1751912134,"current_range_meters":10000,"station_id":"ce4bh5p2rcd13ifvqe4g","pricing_plan_id":"cebpf4jnsgd1na2vs0mg"},{"bike_id":"2c929ca1-6645-46c0-9142-8b6de9214b10","system_id":"levelo_inurba_marseille","lat":43.28442,"lon":5.39183,"is_reserved":false,"is_disabled":false,"rental_uris":{"android":"levelo://app?vid=2c929ca1-6645-46c0-9142-8b6de9214b10","ios":"levelo://app?vid=2c929ca1-6645-46c0-9142-8b6de9214b10"},"vehicle_type_id":"4","last_reported":1751912134,"current_range_meters":10000,"station_id":"ce4bhoh2rcd13ifvqh5g","pricing_plan_id":"cebpf4jnsgd1na2vs0mg"},{"bike_id":"80955d0f-8669-4c02-b90f-c6fe20790c37","system_id":"levelo_inurba_marseille","lat":43.23185,"lon":5.35017,"is_reserved":false,"is_disabled":false,"rental_uris":{"android":"levelo://app?vid=80955d0f-8669-4c02-b90f-c6fe20790c37","ios":"levelo://app?vid=80955d0f-8669-4c02-b90f-c6fe20790c37"},"vehicle_type_id":"4","last_reported":1751912134,"current_range_meters":10800,"station_id":"","pricing_plan_id":"cebpf4jnsgd1na2vs0mg"},{"bike_id":"3b22f952-d0bc-4c00-8fd3-7e27b88aea23","system_id":"levelo_inurba_marseille","lat":43.29659,"lon":5.36245,"is_reserved":false,"is_disabled":false,"rental_uris":{"android":"levelo://app?vid=3b22f952-d0bc-4c00-8fd3-7e27b88aea23","ios":"levelo://app?vid=3b22f952-d0bc-4c00-8fd3-7e27b88aea23"},"vehicle_type_id":"4","last_reported":1751912134,"current_range_meters":10800,"station_id":"","pricing_plan_id":"cebpf4jnsgd1na2vs0mg"},{"bike_id":"cb379dcc-f6ea-4d4d-b39c-fedf7bbfac7d","system_id":"levelo_inurba_marseille","lat":43.299683,"lon":5.384777,"is_reserved":false,"is_disabled":false,"rental_uris":{"android":"levelo://app?vid=cb379dcc-f6ea-4d4d-b39c-fedf7bbfac7d","ios":"levelo://app?vid=cb379dcc-f6ea-4d4d-b39c-fedf7bbfac7d"},"vehicle_type_id":"4","last_reported":1751912134,"current_range_meters":10800,"station_id":"ce4bgj92rcd13ifvqbd0","pricing_plan_id":"cebpf4jnsgd1na2vs0mg"},{"bike_id":"cf2ef395-1c8d-45a4-bcbe-dfcb0d4bd561","system_id":"levelo_inurba_marseille","lat":43.32369,"lon":5.38883,"is_reserved":false,"is_disabled":false,"rental_uris":{"android":"levelo://app?vid=cf2ef395-1c8d-45a4-bcbe-dfcb0d4bd561","ios":"levelo://app?vid=cf2ef395-1c8d-45a4-bcbe-dfcb0d4bd561"},"vehicle_type_id":"4","last_reported":1751912134,"current_range_meters":10800,"station_id":"ce4bhqp2rcd13ifvqhog","pricing_plan_id":"cebpf4jnsgd1na2vs0mg"},{"bike_id":"ed1a9846-3be7-46cb-aef4-82b779b7c551","system_id":"levelo_inurba_marseille","lat":43.29788,"lon":5.39347,"is_reserved":false,"is_disabled":false,"rental_uris":{"android":"levelo://app?vid=ed1a9846-3be7-46cb-aef4-82b779b7c551","ios":"levelo://app?vid=ed1a9846-3be7-46cb-aef4-82b779b7c551"},"vehicle_type_id":"4","last_reported":1751912134,"current_range_meters":10800,"station_id":"chh1huq6cuj3fo74tm60","pricing_plan_id":"cebpf4jnsgd1na2vs0mg"},{"bike_id":"7bc47c46-f827-43ab-986e-291a63ca48dc","system_id":"levelo_inurba_marseille","lat":43.32617,"lon":5.42345,"is_reserved":false,"is_disabled":false,"rental_uris":{"android":"levelo://app?vid=7bc47c46-f827-43ab-986e-291a63ca48dc","ios":"levelo://app?vid=7bc47c46-f827-43ab-986e-291a63ca48dc"},"vehicle_type_id":"4","last_reported":1751912134,"current_range_meters":11200,"station_id":"","pricing_plan_id":"cebpf4jnsgd1na2vs0mg"},{"bike_id":"2580a786-ce1f-4713-a838-8bd018c0292c","system_id":"levelo_inurba_marseille","lat":43.29396,"lon":5.37268,"is_reserved":false,"is_disabled":false,"rental_uris":{"android":"levelo://app?vid=2580a786-ce1f-4713-a838-8bd018c0292c","ios":"levelo://app?vid=2580a786-ce1f-4713-a838-8bd018c0292c"},"vehicle_type_id":"4","last_reported":1751912134,"current_range_meters":11200,"station_id":"","pricing_plan_id":"cebpf4jnsgd1na2vs0mg"},{"bike_id":"06d30488-0db9-4ab1-a824-712d05d177f1","system_id":"levelo_inurba_marseille","lat":43.30542,"lon":5.36522,"is_reserved":false,"is_disabled":false,"rental_uris":{"android":"levelo://app?vid=06d30488-0db9-4ab1-a824-712d05d177f1","ios":"levelo://app?vid=06d30488-0db9-4ab1-a824-712d05d177f1"},"vehicle_type_id":"4","last_reported":1751912134,"current_range_meters":11200,"station_id":"ce4bgs12rcd13ifvqcag","pricing_plan_id":"cebpf4jnsgd1na2vs0mg"},{"bike_id":"37f2becd-23f9-4f13-a711-38b8024eeec7","system_id":"levelo_inurba_marseille","lat":43.33768,"lon":5.37516,"is_reserved":false,"is_disabled":false,"rental_uris":{"android":"levelo://app?vid=37f2becd-23f9-4f13-a711-38b8024eeec7","ios":"levelo://app?vid=37f2becd-23f9-4f13-a711-38b8024eeec7"},"vehicle_type_id":"4","last_reported":1751912134,"current_range_meters":11600,"station_id":"","pricing_plan_id":"cebpf4jnsgd1na2vs0mg"},{"bike_id":"7ec1b1bf-f8a8-4ee9-825d-0506bb33f283","system_id":"levelo_inurba_marseille","lat":43.295258,"lon":5.385464,"is_reserved":false,"is_disabled":false,"rental_uris":{"android":"levelo://app?vid=7ec1b1bf-f8a8-4ee9-825d-0506bb33f283","ios":"levelo://app?vid=7ec1b1bf-f8a8-4ee9-825d-0506bb33f283"},"vehicle_type_id":"4","last_reported":1751912134,"current_range_meters":11600,"station_id":"ce4bgih2rcd13ifvqba0","pricing_plan_id":"cebpf4jnsgd1na2vs0mg"},{"bike_id":"ccc29df5-1113-42b5-b8de-771b9f206409","system_id":"levelo_inurba_marseille","lat":43.26246,"lon":5.37421,"is_reserved":false,"is_disabled":false,"rental_uris":{"android":"levelo://app?vid=ccc29df5-1113-42b5-b8de-771b9f206409","ios":"levelo://app?vid=ccc29df5-1113-42b5-b8de-771b9f206409"},"vehicle_type_id":"4","last_reported":1751912134,"current_range_meters":12000,"station_id":"","pricing_plan_id":"cebpf4jnsgd1na2vs0mg"},{"bike_id":"9b587b0a-6c36-4f20-8087-de4e3916a24b","system_id":"levelo_inurba_marseille","lat":43.28471,"lon":5.35876,"is_reserved":false,"is_disabled":false,"rental_uris":{"android":"levelo://app?vid=9b587b0a-6c36-4f20-8087-de4e3916a24b","ios":"levelo://app?vid=9b587b0a-6c36-4f20-8087-de4e3916a24b"},"vehicle_type_id":"4","last_reported":1751912134,"current_range_meters":12000,"station_id":"ce4bhah2rcd13ifvqei0","pricing_plan_id":"cebpf4jnsgd1na2vs0mg"},{"bike_id":"a31d7b1d-f875-4f27-b8f6-640a4ac62493","system_id":"levelo_inurba_marseille","lat":43.33729,"lon":5.39183,"is_reserved":false,"is_disabled":false,"rental_uris":{"android":"levelo://app?vid=a31d7b1d-f875-4f27-b8f6-640a4ac62493","ios":"levelo://app?vid=a31d7b1d-f875-4f27-b8f6-640a4ac62493"},"vehicle_type_id":"4","last_reported":1751912134,"current_range_meters":12000,"station_id":"ce4bhr92rcd13ifvqhsg","pricing_plan_id":"cebpf4jnsgd1na2vs0mg"},{"bike_id":"29102da4-02a2-4f9c-99ed-89cdef887179","system_id":"levelo_inurba_marseille","lat":43.22512,"lon":5.34764,"is_reserved":false,"is_disabled":false,"rental_uris":{"android":"levelo://app?vid=29102da4-02a2-4f9c-99ed-89cdef887179","ios":"levelo://app?vid=29102da4-02a2-4f9c-99ed-89cdef887179"},"vehicle_type_id":"4","last_reported":1751912134,"current_range_meters":12000,"station_id":"st_cvj5dfep6f1abm77gieg","pricing_plan_id":"cebpf4jnsgd1na2vs0mg"},{"bike_id":"2c423baa-ecca-420a-87d7-ad0b7e0b9ebb","system_id":"levelo_inurba_marseille","lat":43.28037,"lon":5.35359,"is_reserved":false,"is_disabled":false,"rental_uris":{"android":"levelo://app?vid=2c423baa-ecca-420a-87d7-ad0b7e0b9ebb","ios":"levelo://app?vid=2c423baa-ecca-420a-87d7-ad0b7e0b9ebb"},"vehicle_type_id":"4","last_reported":1751912134,"current_range_meters":12400,"station_id":"","pricing_plan_id":"cebpf4jnsgd1na2vs0mg"},{"bike_id":"78c65a7f-d308-40b5-accc-8e6897ac9f8a","system_id":"levelo_inurba_marseille","lat":43.30076,"lon":5.3778,"is_reserved":false,"is_disabled":false,"rental_uris":{"android":"levelo://app?vid=78c65a7f-d308-40b5-accc-8e6897ac9f8a","ios":"levelo://app?vid=78c65a7f-d308-40b5-accc-8e6897ac9f8a"},"vehicle_type_id":"4","last_reported":1751912134,"current_range_meters":12400,"station_id":"","pricing_plan_id":"cebpf4jnsgd1na2vs0mg"},{"bike_id":"0a54a6fe-1efb-4eb9-a789-1ad738235b96","system_id":"levelo_inurba_marseille","lat":43.295333,"lon":5.385472,"is_reserved":false,"is_disabled":false,"rental_uris":{"android":"levelo://app?vid=0a54a6fe-1efb-4eb9-a789-1ad738235b96","ios":"levelo://app?vid=0a54a6fe-1efb-4eb9-a789-1ad738235b96"},"vehicle_type_id":"4","last_reported":1751912134,"current_range_meters":12400,"station_id":"ce4bgih2rcd13ifvqba0","pricing_plan_id":"cebpf4jnsgd1na2vs0mg"},{"bike_id":"864cd4cf-bd0b-4ed8-b56e-88864b37d56f","system_id":"levelo_inurba_marseille","lat":43.29972,"lon":5.38489,"is_reserved":false,"is_disabled":false,"rental_uris":{"android":"levelo://app?vid=864cd4cf-bd0b-4ed8-b56e-88864b37d56f","ios":"levelo://app?vid=864cd4cf-bd0b-4ed8-b56e-88864b37d56f"},"vehicle_type_id":"4","last_reported":1751912134,"current_range_meters":12400,"station_id":"ce4bgj92rcd13ifvqbd0","pricing_plan_id":"cebpf4jnsgd1na2vs0mg"},{"bike_id":"a70cfab5-f447-4d61-b80a-343a49825360","system_id":"levelo_inurba_marseille","lat":43.31573,"lon":5.38844,"is_reserved":false,"is_disabled":false,"rental_uris":{"android":"levelo://app?vid=a70cfab5-f447-4d61-b80a-343a49825360","ios":"levelo://app?vid=a70cfab5-f447-4d61-b80a-343a49825360"},"vehicle_type_id":"4","last_reported":1751912134,"current_range_meters":12800,"station_id":"","pricing_plan_id":"cebpf4jnsgd1na2vs0mg"},{"bike_id":"97cc88b2-10db-4640-beab-1195e8e7ab9a","system_id":"levelo_inurba_marseille","lat":43.30097,"lon":5.39079,"is_reserved":false,"is_disabled":false,"rental_uris":{"android":"levelo://app?vid=97cc88b2-10db-4640-beab-1195e8e7ab9a","ios":"levelo://app?vid=97cc88b2-10db-4640-beab-1195e8e7ab9a"},"vehicle_type_id":"4","last_reported":1751912134,"current_range_meters":12800,"station_id":"ce4bh192rcd13ifvqdb0","pricing_plan_id":"cebpf4jnsgd1na2vs0mg"},{"bike_id":"d62d481d-a931-4dfd-83b4-be1fe22f6e41","system_id":"levelo_inurba_marseille","lat":43.2418,"lon":5.39732,"is_reserved":false,"is_disabled":false,"rental_uris":{"android":"levelo://app?vid=d62d481d-a931-4dfd-83b4-be1fe22f6e41","ios":"levelo://app?vid=d62d481d-a931-4dfd-83b4-be1fe22f6e41"},"vehicle_type_id":"4","last_reported":1751912134,"current_range_meters":12800,"station_id":"ce4bhn12rcd13ifvqgpg","pricing_plan_id":"cebpf4jnsgd1na2vs0mg"},{"bike_id":"20c0674d-b5fd-4e8e-88c4-fe181160a0e2","system_id":"levelo_inurba_marseille","lat":43.21748,"lon":5.34606,"is_reserved":false,"is_disabled":false,"rental_uris":{"android":"levelo://app?vid=20c0674d-b5fd-4e8e-88c4-fe181160a0e2","ios":"levelo://app?vid=20c0674d-b5fd-4e8e-88c4-fe181160a0e2"},"vehicle_type_id":"4","last_reported":1751912134,"current_range_meters":12800,"station_id":"st_cvj6r9ubvosntc0bgbag","pricing_plan_id":"cebpf4jnsgd1na2vs0mg"},{"bike_id":"98e31f8a-1e10-4834-bda2-02b255a4183c","system_id":"levelo_inurba_marseille","lat":43.31351,"lon":5.36706,"is_reserved":false,"is_disabled":false,"rental_uris":{"android":"levelo://app?vid=98e31f8a-1e10-4834-bda2-02b255a4183c","ios":"levelo://app?vid=98e31f8a-1e10-4834-bda2-02b255a4183c"},"vehicle_type_id":"4","last_reported":1751912134,"current_range_meters":13600,"station_id":"ce4bgr92rcd13ifvqc6g","pricing_plan_id":"cebpf4jnsgd1na2vs0mg"},{"bike_id":"8e10b9c3-bfc8-490a-81ca-bd92e7db4559","system_id":"levelo_inurba_marseille","lat":43.28675,"lon":5.38663,"is_reserved":false,"is_disabled":false,"rental_uris":{"android":"levelo://app?vid=8e10b9c3-bfc8-490a-81ca-bd92e7db4559","ios":"levelo://app?vid=8e10b9c3-bfc8-490a-81ca-bd92e7db4559"},"vehicle_type_id":"4","last_reported":1751912134,"current_range_meters":13600,"station_id":"ce4bh492rcd13ifvqdug","pricing_plan_id":"cebpf4jnsgd1na2vs0mg"},{"bike_id":"e5266e75-5475-4ffd-bf9f-42efb2268551","system_id":"levelo_inurba_marseille","lat":43.29171,"lon":5.37157,"is_reserved":false,"is_disabled":false,"rental_uris":{"android":"levelo://app?vid=e5266e75-5475-4ffd-bf9f-42efb2268551","ios":"levelo://app?vid=e5266e75-5475-4ffd-bf9f-42efb2268551"},"vehicle_type_id":"4","last_reported":1751912134,"current_range_meters":13600,"station_id":"ce4bha92rcd13ifvqeh0","pricing_plan_id":"cebpf4jnsgd1na2vs0mg"},{"bike_id":"a50a7cb4-3f39-45f0-bf31-fa0e8126d200","system_id":"levelo_inurba_marseille","lat":43.292607,"lon":5.360357,"is_reserved":false,"is_disabled":false,"rental_uris":{"android":"levelo://app?vid=a50a7cb4-3f39-45f0-bf31-fa0e8126d200","ios":"levelo://app?vid=a50a7cb4-3f39-45f0-bf31-fa0e8126d200"},"vehicle_type_id":"4","last_reported":1751912134,"current_range_meters":13600,"station_id":"ce4bhbh2rcd13ifvqeqg","pricing_plan_id":"cebpf4jnsgd1na2vs0mg"},{"bike_id":"d7988964-28c6-4fac-b7a3-c9a2ca519892","system_id":"levelo_inurba_marseille","lat":43.28622,"lon":5.35114,"is_reserved":false,"is_disabled":false,"rental_uris":{"android":"levelo://app?vid=d7988964-28c6-4fac-b7a3-c9a2ca519892","ios":"levelo://app?vid=d7988964-28c6-4fac-b7a3-c9a2ca519892"},"vehicle_type_id":"4","last_reported":1751912134,"current_range_meters":13600,"station_id":"ce4bhch2rcd13ifvqeug","pricing_plan_id":"cebpf4jnsgd1na2vs0mg"},{"bike_id":"5ec4874c-03c6-4a0e-89ff-0413efb1d60d","system_id":"levelo_inurba_marseille","lat":43.31992,"lon":5.36752,"is_reserved":false,"is_disabled":false,"rental_uris":{"android":"levelo://app?vid=5ec4874c-03c6-4a0e-89ff-0413efb1d60d","ios":"levelo://app?vid=5ec4874c-03c6-4a0e-89ff-0413efb1d60d"},"vehicle_type_id":"4","last_reported":1751912134,"current_range_meters":13600,"station_id":"ce4bhrh2rcd13ifvqhug","pricing_plan_id":"cebpf4jnsgd1na2vs0mg"},{"bike_id":"f8865810-9997-4d13-80b8-fd4d9a8f09e7","system_id":"levelo_inurba_marseille","lat":43.29308,"lon":5.37179,"is_reserved":false,"is_disabled":false,"rental_uris":{"android":"levelo://app?vid=f8865810-9997-4d13-80b8-fd4d9a8f09e7","ios":"levelo://app?vid=f8865810-9997-4d13-80b8-fd4d9a8f09e7"},"vehicle_type_id":"4","last_reported":1751912134,"current_range_meters":14000,"station_id":"ce4bgh92rcd13ifvqb40","pricing_plan_id":"cebpf4jnsgd1na2vs0mg"},{"bike_id":"aebe40ff-e84b-4093-9199-5df7043b3910","system_id":"levelo_inurba_marseille","lat":43.27621,"lon":5.36103,"is_reserved":false,"is_disabled":false,"rental_uris":{"android":"levelo://app?vid=aebe40ff-e84b-4093-9199-5df7043b3910","ios":"levelo://app?vid=aebe40ff-e84b-4093-9199-5df7043b3910"},"vehicle_type_id":"4","last_reported":1751912134,"current_range_meters":14000,"station_id":"ce4bgj92rcd13ifvqbe0","pricing_plan_id":"cebpf4jnsgd1na2vs0mg"},{"bike_id":"33f81a93-a2a0-48f8-ac54-078601f4600d","system_id":"levelo_inurba_marseille","lat":43.3094,"lon":5.40142,"is_reserved":false,"is_disabled":false,"rental_uris":{"android":"levelo://app?vid=33f81a93-a2a0-48f8-ac54-078601f4600d","ios":"levelo://app?vid=33f81a93-a2a0-48f8-ac54-078601f4600d"},"vehicle_type_id":"4","last_reported":1751912134,"current_range_meters":14000,"station_id":"ce4bgvp2rcd13ifvqct0","pricing_plan_id":"cebpf4jnsgd1na2vs0mg"},{"bike_id":"ad8c2e85-aae1-43d3-91a3-d2bbd75dabde","system_id":"levelo_inurba_marseille","lat":43.30137,"lon":5.39882,"is_reserved":false,"is_disabled":false,"rental_uris":{"android":"levelo://app?vid=ad8c2e85-aae1-43d3-91a3-d2bbd75dabde","ios":"levelo://app?vid=ad8c2e85-aae1-43d3-91a3-d2bbd75dabde"},"vehicle_type_id":"4","last_reported":1751912134,"current_range_meters":14000,"station_id":"ce4bh0h2rcd13ifvqd40","pricing_plan_id":"cebpf4jnsgd1na2vs0mg"},{"bike_id":"9a835e01-725b-41f5-8a1c-1a4de65a16a4","system_id":"levelo_inurba_marseille","lat":43.28036,"lon":5.36935,"is_reserved":false,"is_disabled":false,"rental_uris":{"android":"levelo://app?vid=9a835e01-725b-41f5-8a1c-1a4de65a16a4","ios":"levelo://app?vid=9a835e01-725b-41f5-8a1c-1a4de65a16a4"},"vehicle_type_id":"4","last_reported":1751912134,"current_range_meters":14000,"station_id":"ce4bha12rcd13ifvqef0","pricing_plan_id":"cebpf4jnsgd1na2vs0mg"},{"bike_id":"1b0bf1a3-69b2-4604-b147-5e1e04fee197","system_id":"levelo_inurba_marseille","lat":43.28667,"lon":5.36347,"is_reserved":false,"is_disabled":false,"rental_uris":{"android":"levelo://app?vid=1b0bf1a3-69b2-4604-b147-5e1e04fee197","ios":"levelo://app?vid=1b0bf1a3-69b2-4604-b147-5e1e04fee197"},"vehicle_type_id":"4","last_reported":1751912134,"current_range_meters":14000,"station_id":"ce4bhah2rcd13ifvqej0","pricing_plan_id":"cebpf4jnsgd1na2vs0mg"},{"bike_id":"60b01928-7ed6-475d-b286-081e378a9722","system_id":"levelo_inurba_marseille","lat":43.29007,"lon":5.35608,"is_reserved":false,"is_disabled":false,"rental_uris":{"android":"levelo://app?vid=60b01928-7ed6-475d-b286-081e378a9722","ios":"levelo://app?vid=60b01928-7ed6-475d-b286-081e378a9722"},"vehicle_type_id":"4","last_reported":1751912134,"current_range_meters":14000,"station_id":"ce4bhb92rcd13ifvqen0","pricing_plan_id":"cebpf4jnsgd1na2vs0mg"},{"bike_id":"6738d357-e41b-41eb-9730-9ff94ed84491","system_id":"levelo_inurba_marseille","lat":43.29009,"lon":5.35605,"is_reserved":false,"is_disabled":false,"rental_uris":{"android":"levelo://app?vid=6738d357-e41b-41eb-9730-9ff94ed84491","ios":"levelo://app?vid=6738d357-e41b-41eb-9730-9ff94ed84491"},"vehicle_type_id":"4","last_reported":1751912134,"current_range_meters":14000,"station_id":"ce4bhb92rcd13ifvqen0","pricing_plan_id":"cebpf4jnsgd1na2vs0mg"},{"bike_id":"159f5355-2c7f-4d23-ad73-91ead83fedc2","system_id":"levelo_inurba_marseille","lat":43.27945,"lon":5.41025,"is_reserved":false,"is_disabled":false,"rental_uris":{"android":"levelo://app?vid=159f5355-2c7f-4d23-ad73-91ead83fedc2","ios":"levelo://app?vid=159f5355-2c7f-4d23-ad73-91ead83fedc2"},"vehicle_type_id":"4","last_reported":1751912134,"current_range_meters":14000,"station_id":"ce4bhnp2rcd13ifvqh0g","pricing_plan_id":"cebpf4jnsgd1na2vs0mg"},{"bike_id":"1cffac02-7005-4ed7-b9a1-eee8818e0408","system_id":"levelo_inurba_marseille","lat":43.29727,"lon":5.36614,"is_reserved":false,"is_disabled":false,"rental_uris":{"android":"levelo://app?vid=1cffac02-7005-4ed7-b9a1-eee8818e0408","ios":"levelo://app?vid=1cffac02-7005-4ed7-b9a1-eee8818e0408"},"vehicle_type_id":"4","last_reported":1751912134,"current_range_meters":14400,"station_id":"ce4bgn12rcd13ifvqbt0","pricing_plan_id":"cebpf4jnsgd1na2vs0mg"},{"bike_id":"8f3c1d6a-f6d8-46ec-97cf-c2f1f6bdb5ac","system_id":"levelo_inurba_marseille","lat":43.30535,"lon":5.36546,"is_reserved":false,"is_disabled":false,"rental_uris":{"android":"levelo://app?vid=8f3c1d6a-f6d8-46ec-97cf-c2f1f6bdb5ac","ios":"levelo://app?vid=8f3c1d6a-f6d8-46ec-97cf-c2f1f6bdb5ac"},"vehicle_type_id":"4","last_reported":1751912134,"current_range_meters":14400,"station_id":"ce4bgs12rcd13ifvqcag","pricing_plan_id":"cebpf4jnsgd1na2vs0mg"},{"bike_id":"a1a6343c-3d7a-46cb-a96c-d0df672a7d8b","system_id":"levelo_inurba_marseille","lat":43.30417,"lon":5.39747,"is_reserved":false,"is_disabled":false,"rental_uris":{"android":"levelo://app?vid=a1a6343c-3d7a-46cb-a96c-d0df672a7d8b","ios":"levelo://app?vid=a1a6343c-3d7a-46cb-a96c-d0df672a7d8b"},"vehicle_type_id":"4","last_reported":1751912134,"current_range_meters":14400,"station_id":"ce4bh092rcd13ifvqd20","pricing_plan_id":"cebpf4jnsgd1na2vs0mg"},{"bike_id":"643bf0ec-a742-46d8-b1b6-88cdec4fb98f","system_id":"levelo_inurba_marseille","lat":43.2901,"lon":5.35604,"is_reserved":false,"is_disabled":false,"rental_uris":{"android":"levelo://app?vid=643bf0ec-a742-46d8-b1b6-88cdec4fb98f","ios":"levelo://app?vid=643bf0ec-a742-46d8-b1b6-88cdec4fb98f"},"vehicle_type_id":"4","last_reported":1751912134,"current_range_meters":14400,"station_id":"ce4bhb92rcd13ifvqen0","pricing_plan_id":"cebpf4jnsgd1na2vs0mg"},{"bike_id":"8f13d38c-0510-4eaa-986c-62ae1fef2b49","system_id":"levelo_inurba_marseille","lat":43.28619,"lon":5.3509,"is_reserved":false,"is_disabled":false,"rental_uris":{"android":"levelo://app?vid=8f13d38c-0510-4eaa-986c-62ae1fef2b49","ios":"levelo://app?vid=8f13d38c-0510-4eaa-986c-62ae1fef2b49"},"vehicle_type_id":"4","last_reported":1751912134,"current_range_meters":14400,"station_id":"ce4bhch2rcd13ifvqeug","pricing_plan_id":"cebpf4jnsgd1na2vs0mg"},{"bike_id":"4c4d4b94-5832-431b-a6a4-1addce77dff7","system_id":"levelo_inurba_marseille","lat":43.24388,"lon":5.37058,"is_reserved":false,"is_disabled":false,"rental_uris":{"android":"levelo://app?vid=4c4d4b94-5832-431b-a6a4-1addce77dff7","ios":"levelo://app?vid=4c4d4b94-5832-431b-a6a4-1addce77dff7"},"vehicle_type_id":"4","last_reported":1751912134,"current_range_meters":14400,"station_id":"ce4bhhh2rcd13ifvqfk0","pricing_plan_id":"cebpf4jnsgd1na2vs0mg"},{"bike_id":"f820b222-a52f-4f64-989f-08c78aec47c2","system_id":"levelo_inurba_marseille","lat":43.25869,"lon":5.39891,"is_reserved":false,"is_disabled":false,"rental_uris":{"android":"levelo://app?vid=f820b222-a52f-4f64-989f-08c78aec47c2","ios":"levelo://app?vid=f820b222-a52f-4f64-989f-08c78aec47c2"},"vehicle_type_id":"4","last_reported":1751912134,"current_range_meters":14400,"station_id":"ce4bhl92rcd13ifvqghg","pricing_plan_id":"cebpf4jnsgd1na2vs0mg"},{"bike_id":"3b7ff847-3081-4295-a3ca-a5c7fd267cda","system_id":"levelo_inurba_marseille","lat":43.275088,"lon":5.424618,"is_reserved":false,"is_disabled":false,"rental_uris":{"android":"levelo://app?vid=3b7ff847-3081-4295-a3ca-a5c7fd267cda","ios":"levelo://app?vid=3b7ff847-3081-4295-a3ca-a5c7fd267cda"},"vehicle_type_id":"4","last_reported":1751912134,"current_range_meters":14400,"station_id":"ce4bhn92rcd13ifvqgrg","pricing_plan_id":"cebpf4jnsgd1na2vs0mg"},{"bike_id":"d0f48bf1-c52c-4bf6-a2e2-6466bb76b6b7","system_id":"levelo_inurba_marseille","lat":43.26802,"lon":5.40258,"is_reserved":false,"is_disabled":false,"rental_uris":{"android":"levelo://app?vid=d0f48bf1-c52c-4bf6-a2e2-6466bb76b6b7","ios":"levelo://app?vid=d0f48bf1-c52c-4bf6-a2e2-6466bb76b6b7"},"vehicle_type_id":"4","last_reported":1751912134,"current_range_meters":14400,"station_id":"ce501612rcd8frsf0b60","pricing_plan_id":"cebpf4jnsgd1na2vs0mg"},{"bike_id":"4a3154ac-3048-463e-9c11-90185238f36f","system_id":"levelo_inurba_marseille","lat":43.30145,"lon":5.39885,"is_reserved":false,"is_disabled":false,"rental_uris":{"android":"levelo://app?vid=4a3154ac-3048-463e-9c11-90185238f36f","ios":"levelo://app?vid=4a3154ac-3048-463e-9c11-90185238f36f"},"vehicle_type_id":"4","last_reported":1751912134,"current_range_meters":14800,"station_id":"ce4bh0h2rcd13ifvqd40","pricing_plan_id":"cebpf4jnsgd1na2vs0mg"},{"bike_id":"de638299-72b9-4233-9abf-bab41e5928bc","system_id":"levelo_inurba_marseille","lat":43.30145,"lon":5.39862,"is_reserved":false,"is_disabled":false,"rental_uris":{"android":"levelo://app?vid=de638299-72b9-4233-9abf-bab41e5928bc","ios":"levelo://app?vid=de638299-72b9-4233-9abf-bab41e5928bc"},"vehicle_type_id":"4","last_reported":1751912134,"current_range_meters":14800,"station_id":"ce4bh0h2rcd13ifvqd40","pricing_plan_id":"cebpf4jnsgd1na2vs0mg"},{"bike_id":"e51360eb-fac7-4f1d-a123-fb452aa1145d","system_id":"levelo_inurba_marseille","lat":43.28099,"lon":5.37833,"is_reserved":false,"is_disabled":false,"rental_uris":{"android":"levelo://app?vid=e51360eb-fac7-4f1d-a123-fb452aa1145d","ios":"levelo://app?vid=e51360eb-fac7-4f1d-a123-fb452aa1145d"},"vehicle_type_id":"4","last_reported":1751912134,"current_range_meters":14800,"station_id":"ce4bha12rcd13ifvqee0","pricing_plan_id":"cebpf4jnsgd1na2vs0mg"},{"bike_id":"7f189570-d86b-4e22-b750-cde58fa14537","system_id":"levelo_inurba_marseille","lat":43.28413,"lon":5.34978,"is_reserved":false,"is_disabled":false,"rental_uris":{"android":"levelo://app?vid=7f189570-d86b-4e22-b750-cde58fa14537","ios":"levelo://app?vid=7f189570-d86b-4e22-b750-cde58fa14537"},"vehicle_type_id":"4","last_reported":1751912134,"current_range_meters":14800,"station_id":"ce4bhbh2rcd13ifvqepg","pricing_plan_id":"cebpf4jnsgd1na2vs0mg"},{"bike_id":"942a983a-7094-47d3-97b7-ba4ab853d965","system_id":"levelo_inurba_marseille","lat":43.270684,"lon":5.42281,"is_reserved":false,"is_disabled":false,"rental_uris":{"android":"levelo://app?vid=942a983a-7094-47d3-97b7-ba4ab853d965","ios":"levelo://app?vid=942a983a-7094-47d3-97b7-ba4ab853d965"},"vehicle_type_id":"4","last_reported":1751912134,"current_range_meters":14800,"station_id":"ce4bhk92rcd13ifvqgb0","pricing_plan_id":"cebpf4jnsgd1na2vs0mg"},{"bike_id":"e79346c8-86fc-4daa-86ef-e1e68b65043e","system_id":"levelo_inurba_marseille","lat":43.24086,"lon":5.37759,"is_reserved":false,"is_disabled":false,"rental_uris":{"android":"levelo://app?vid=e79346c8-86fc-4daa-86ef-e1e68b65043e","ios":"levelo://app?vid=e79346c8-86fc-4daa-86ef-e1e68b65043e"},"vehicle_type_id":"4","last_reported":1751912134,"current_range_meters":14800,"station_id":"ce4bhnp2rcd13ifvqgvg","pricing_plan_id":"cebpf4jnsgd1na2vs0mg"},{"bike_id":"14848200-7a92-4aba-aa9b-67d638b0cd36","system_id":"levelo_inurba_marseille","lat":43.26943,"lon":5.40251,"is_reserved":false,"is_disabled":false,"rental_uris":{"android":"levelo://app?vid=14848200-7a92-4aba-aa9b-67d638b0cd36","ios":"levelo://app?vid=14848200-7a92-4aba-aa9b-67d638b0cd36"},"vehicle_type_id":"4","last_reported":1751912134,"current_range_meters":14800,"station_id":"cjm6bp8fraef2m0cb0m0","pricing_plan_id":"cebpf4jnsgd1na2vs0mg"},{"bike_id":"82dc7477-d23f-4fe2-8763-1826918122f6","system_id":"levelo_inurba_marseille","lat":43.2804,"lon":5.36944,"is_reserved":false,"is_disabled":false,"rental_uris":{"android":"levelo://app?vid=82dc7477-d23f-4fe2-8763-1826918122f6","ios":"levelo://app?vid=82dc7477-d23f-4fe2-8763-1826918122f6"},"vehicle_type_id":"4","last_reported":1751912134,"current_range_meters":15200,"station_id":"ce4bha12rcd13ifvqef0","pricing_plan_id":"cebpf4jnsgd1na2vs0mg"},{"bike_id":"e0792193-1845-48bc-8a33-0d60dda98d41","system_id":"levelo_inurba_marseille","lat":43.28615,"lon":5.35096,"is_reserved":false,"is_disabled":false,"rental_uris":{"android":"levelo://app?vid=e0792193-1845-48bc-8a33-0d60dda98d41","ios":"levelo://app?vid=e0792193-1845-48bc-8a33-0d60dda98d41"},"vehicle_type_id":"4","last_reported":1751912134,"current_range_meters":15200,"station_id":"ce4bhch2rcd13ifvqeug","pricing_plan_id":"cebpf4jnsgd1na2vs0mg"},{"bike_id":"c2ee7d66-374b-44cd-b9d7-9ad64301293b","system_id":"levelo_inurba_marseille","lat":43.22498,"lon":5.34773,"is_reserved":false,"is_disabled":false,"rental_uris":{"android":"levelo://app?vid=c2ee7d66-374b-44cd-b9d7-9ad64301293b","ios":"levelo://app?vid=c2ee7d66-374b-44cd-b9d7-9ad64301293b"},"vehicle_type_id":"4","last_reported":1751912134,"current_range_meters":15200,"station_id":"st_cvj5dfep6f1abm77gieg","pricing_plan_id":"cebpf4jnsgd1na2vs0mg"},{"bike_id":"a471e01a-7523-45c4-a283-eb0dc5d0c42d","system_id":"levelo_inurba_marseille","lat":43.21754,"lon":5.34602,"is_reserved":false,"is_disabled":false,"rental_uris":{"android":"levelo://app?vid=a471e01a-7523-45c4-a283-eb0dc5d0c42d","ios":"levelo://app?vid=a471e01a-7523-45c4-a283-eb0dc5d0c42d"},"vehicle_type_id":"4","last_reported":1751912134,"current_range_meters":16000,"station_id":"","pricing_plan_id":"cebpf4jnsgd1na2vs0mg"},{"bike_id":"7dfe8ecc-a67a-4859-857f-caeddef05b5c","system_id":"levelo_inurba_marseille","lat":43.27619,"lon":5.36106,"is_reserved":false,"is_disabled":false,"rental_uris":{"android":"levelo://app?vid=7dfe8ecc-a67a-4859-857f-caeddef05b5c","ios":"levelo://app?vid=7dfe8ecc-a67a-4859-857f-caeddef05b5c"},"vehicle_type_id":"4","last_reported":1751912134,"current_range_meters":16000,"station_id":"ce4bgj92rcd13ifvqbe0","pricing_plan_id":"cebpf4jnsgd1na2vs0mg"},{"bike_id":"d0f14e8a-dceb-4f83-88fd-4be45ecde1ab","system_id":"levelo_inurba_marseille","lat":43.29369,"lon":5.37841,"is_reserved":false,"is_disabled":false,"rental_uris":{"android":"levelo://app?vid=d0f14e8a-dceb-4f83-88fd-4be45ecde1ab","ios":"levelo://app?vid=d0f14e8a-dceb-4f83-88fd-4be45ecde1ab"},"vehicle_type_id":"4","last_reported":1751912134,"current_range_meters":16000,"station_id":"ce4bgjh2rcd13ifvqbf0","pricing_plan_id":"cebpf4jnsgd1na2vs0mg"},{"bike_id":"ae063a66-86c8-4dbf-85fb-211b53656a78","system_id":"levelo_inurba_marseille","lat":43.3078,"lon":5.37658,"is_reserved":false,"is_disabled":false,"rental_uris":{"android":"levelo://app?vid=ae063a66-86c8-4dbf-85fb-211b53656a78","ios":"levelo://app?vid=ae063a66-86c8-4dbf-85fb-211b53656a78"},"vehicle_type_id":"4","last_reported":1751912134,"current_range_meters":16000,"station_id":"ce4bgv92rcd13ifvqcq0","pricing_plan_id":"cebpf4jnsgd1na2vs0mg"},{"bike_id":"d83608bb-4437-43c9-8764-6af0d6d7dccf","system_id":"levelo_inurba_marseille","lat":43.28859,"lon":5.358505,"is_reserved":false,"is_disabled":false,"rental_uris":{"android":"levelo://app?vid=d83608bb-4437-43c9-8764-6af0d6d7dccf","ios":"levelo://app?vid=d83608bb-4437-43c9-8764-6af0d6d7dccf"},"vehicle_type_id":"4","last_reported":1751912134,"current_range_meters":16000,"station_id":"ce4bhb12rcd13ifvqem0","pricing_plan_id":"cebpf4jnsgd1na2vs0mg"},{"bike_id":"da5772bf-e232-44c2-bf34-1d9359d3e1b1","system_id":"levelo_inurba_marseille","lat":43.29008,"lon":5.35611,"is_reserved":false,"is_disabled":false,"rental_uris":{"android":"levelo://app?vid=da5772bf-e232-44c2-bf34-1d9359d3e1b1","ios":"levelo://app?vid=da5772bf-e232-44c2-bf34-1d9359d3e1b1"},"vehicle_type_id":"4","last_reported":1751912134,"current_range_meters":16000,"station_id":"ce4bhb92rcd13ifvqen0","pricing_plan_id":"cebpf4jnsgd1na2vs0mg"},{"bike_id":"ee48f0e0-2efc-4007-86c7-16994a61d9e5","system_id":"levelo_inurba_marseille","lat":43.28625,"lon":5.35093,"is_reserved":false,"is_disabled":false,"rental_uris":{"android":"levelo://app?vid=ee48f0e0-2efc-4007-86c7-16994a61d9e5","ios":"levelo://app?vid=ee48f0e0-2efc-4007-86c7-16994a61d9e5"},"vehicle_type_id":"4","last_reported":1751912134,"current_range_meters":16000,"station_id":"ce4bhch2rcd13ifvqeug","pricing_plan_id":"cebpf4jnsgd1na2vs0mg"},{"bike_id":"bde758db-8f13-459c-8250-a787f579e294","system_id":"levelo_inurba_marseille","lat":43.249621,"lon":5.374931,"is_reserved":false,"is_disabled":false,"rental_uris":{"android":"levelo://app?vid=bde758db-8f13-459c-8250-a787f579e294","ios":"levelo://app?vid=bde758db-8f13-459c-8250-a787f579e294"},"vehicle_type_id":"4","last_reported":1751912134,"current_range_meters":16000,"station_id":"ce4bhgh2rcd13ifvqfb0","pricing_plan_id":"cebpf4jnsgd1na2vs0mg"},{"bike_id":"476a6051-92e6-4497-b1e3-27260c4929e4","system_id":"levelo_inurba_marseille","lat":43.25002,"lon":5.38925,"is_reserved":false,"is_disabled":false,"rental_uris":{"android":"levelo://app?vid=476a6051-92e6-4497-b1e3-27260c4929e4","ios":"levelo://app?vid=476a6051-92e6-4497-b1e3-27260c4929e4"},"vehicle_type_id":"4","last_reported":1751912134,"current_range_meters":16000,"station_id":"ce4bhgp2rcd13ifvqfd0","pricing_plan_id":"cebpf4jnsgd1na2vs0mg"},{"bike_id":"ead11e44-a44f-4b34-a3a8-49616c0aaa0d","system_id":"levelo_inurba_marseille","lat":43.2466,"lon":5.3816,"is_reserved":false,"is_disabled":false,"rental_uris":{"android":"levelo://app?vid=ead11e44-a44f-4b34-a3a8-49616c0aaa0d","ios":"levelo://app?vid=ead11e44-a44f-4b34-a3a8-49616c0aaa0d"},"vehicle_type_id":"4","last_reported":1751912134,"current_range_meters":16000,"station_id":"ce4bhih2rcd13ifvqfr0","pricing_plan_id":"cebpf4jnsgd1na2vs0mg"},{"bike_id":"093c80b2-f9d7-44dd-9c83-6910eb6701dc","system_id":"levelo_inurba_marseille","lat":43.26208,"lon":5.37925,"is_reserved":false,"is_disabled":false,"rental_uris":{"android":"levelo://app?vid=093c80b2-f9d7-44dd-9c83-6910eb6701dc","ios":"levelo://app?vid=093c80b2-f9d7-44dd-9c83-6910eb6701dc"},"vehicle_type_id":"4","last_reported":1751912134,"current_range_meters":16000,"station_id":"ce4bhjp2rcd13ifvqg90","pricing_plan_id":"cebpf4jnsgd1na2vs0mg"},{"bike_id":"2090512e-543d-4a55-b888-2423e2f84234","system_id":"levelo_inurba_marseille","lat":43.24073,"lon":5.37728,"is_reserved":false,"is_disabled":false,"rental_uris":{"android":"levelo://app?vid=2090512e-543d-4a55-b888-2423e2f84234","ios":"levelo://app?vid=2090512e-543d-4a55-b888-2423e2f84234"},"vehicle_type_id":"4","last_reported":1751912134,"current_range_meters":16000,"station_id":"ce4bhnp2rcd13ifvqgvg","pricing_plan_id":"cebpf4jnsgd1na2vs0mg"},{"bike_id":"7237f235-b0e1-4f2b-923c-7ff79688805d","system_id":"levelo_inurba_marseille","lat":43.27948,"lon":5.41038,"is_reserved":false,"is_disabled":false,"rental_uris":{"android":"levelo://app?vid=7237f235-b0e1-4f2b-923c-7ff79688805d","ios":"levelo://app?vid=7237f235-b0e1-4f2b-923c-7ff79688805d"},"vehicle_type_id":"4","last_reported":1751912134,"current_range_meters":16000,"station_id":"ce4bhnp2rcd13ifvqh0g","pricing_plan_id":"cebpf4jnsgd1na2vs0mg"},{"bike_id":"bac13eb2-75b6-43a2-8750-65111fd6394f","system_id":"levelo_inurba_marseille","lat":43.32112,"lon":5.36766,"is_reserved":false,"is_disabled":false,"rental_uris":{"android":"levelo://app?vid=bac13eb2-75b6-43a2-8750-65111fd6394f","ios":"levelo://app?vid=bac13eb2-75b6-43a2-8750-65111fd6394f"},"vehicle_type_id":"4","last_reported":1751912134,"current_range_meters":16000,"station_id":"ce4bhrh2rcd13ifvqhug","pricing_plan_id":"cebpf4jnsgd1na2vs0mg"},{"bike_id":"47504bfd-399a-4889-acd8-b9a1331dcb3c","system_id":"levelo_inurba_marseille","lat":43.30731,"lon":5.424375,"is_reserved":false,"is_disabled":false,"rental_uris":{"android":"levelo://app?vid=47504bfd-399a-4889-acd8-b9a1331dcb3c","ios":"levelo://app?vid=47504bfd-399a-4889-acd8-b9a1331dcb3c"},"vehicle_type_id":"4","last_reported":1751912134,"current_range_meters":16000,"station_id":"st_cvj6ca6bvosntc0bfgr0","pricing_plan_id":"cebpf4jnsgd1na2vs0mg"},{"bike_id":"9bfc7d3d-4e60-4f8a-9c32-ef3d0e77ec5b","system_id":"levelo_inurba_marseille","lat":43.21191,"lon":5.35054,"is_reserved":false,"is_disabled":false,"rental_uris":{"android":"levelo://app?vid=9bfc7d3d-4e60-4f8a-9c32-ef3d0e77ec5b","ios":"levelo://app?vid=9bfc7d3d-4e60-4f8a-9c32-ef3d0e77ec5b"},"vehicle_type_id":"4","last_reported":1751912134,"current_range_meters":16000,"station_id":"st_cvj6sg6p6f1abm77japg","pricing_plan_id":"cebpf4jnsgd1na2vs0mg"},{"bike_id":"6ffc31bf-be63-440b-8353-4ff83386083b","system_id":"levelo_inurba_marseille","lat":43.29849,"lon":5.36399,"is_reserved":false,"is_disabled":false,"rental_uris":{"android":"levelo://app?vid=6ffc31bf-be63-440b-8353-4ff83386083b","ios":"levelo://app?vid=6ffc31bf-be63-440b-8353-4ff83386083b"},"vehicle_type_id":"4","last_reported":1751912134,"current_range_meters":16400,"station_id":"","pricing_plan_id":"cebpf4jnsgd1na2vs0mg"},{"bike_id":"43d0a216-171e-45fe-88be-8650fec68cf8","system_id":"levelo_inurba_marseille","lat":43.21221,"lon":5.35046,"is_reserved":false,"is_disabled":false,"rental_uris":{"android":"levelo://app?vid=43d0a216-171e-45fe-88be-8650fec68cf8","ios":"levelo://app?vid=43d0a216-171e-45fe-88be-8650fec68cf8"},"vehicle_type_id":"4","last_reported":1751912134,"current_range_meters":16400,"station_id":"","pricing_plan_id":"cebpf4jnsgd1na2vs0mg"},{"bike_id":"a4c27f3e-845e-4b59-a648-e93c63119926","system_id":"levelo_inurba_marseille","lat":43.29529,"lon":5.38537,"is_reserved":false,"is_disabled":false,"rental_uris":{"android":"levelo://app?vid=a4c27f3e-845e-4b59-a648-e93c63119926","ios":"levelo://app?vid=a4c27f3e-845e-4b59-a648-e93c63119926"},"vehicle_type_id":"4","last_reported":1751912134,"current_range_meters":16400,"station_id":"ce4bgih2rcd13ifvqba0","pricing_plan_id":"cebpf4jnsgd1na2vs0mg"},{"bike_id":"c3ada3f1-ddde-4bf5-8936-f4ee5b898c22","system_id":"levelo_inurba_marseille","lat":43.27623,"lon":5.36095,"is_reserved":false,"is_disabled":false,"rental_uris":{"android":"levelo://app?vid=c3ada3f1-ddde-4bf5-8936-f4ee5b898c22","ios":"levelo://app?vid=c3ada3f1-ddde-4bf5-8936-f4ee5b898c22"},"vehicle_type_id":"4","last_reported":1751912134,"current_range_meters":16400,"station_id":"ce4bgj92rcd13ifvqbe0","pricing_plan_id":"cebpf4jnsgd1na2vs0mg"},{"bike_id":"f84d6176-b3bc-499b-947f-43a785187f96","system_id":"levelo_inurba_marseille","lat":43.29008,"lon":5.35613,"is_reserved":false,"is_disabled":false,"rental_uris":{"android":"levelo://app?vid=f84d6176-b3bc-499b-947f-43a785187f96","ios":"levelo://app?vid=f84d6176-b3bc-499b-947f-43a785187f96"},"vehicle_type_id":"4","last_reported":1751912134,"current_range_meters":16400,"station_id":"ce4bhb92rcd13ifvqen0","pricing_plan_id":"cebpf4jnsgd1na2vs0mg"},{"bike_id":"8ba609e5-d46b-4d77-9ed6-39cbc08a6a24","system_id":"levelo_inurba_marseille","lat":43.28621,"lon":5.35104,"is_reserved":false,"is_disabled":false,"rental_uris":{"android":"levelo://app?vid=8ba609e5-d46b-4d77-9ed6-39cbc08a6a24","ios":"levelo://app?vid=8ba609e5-d46b-4d77-9ed6-39cbc08a6a24"},"vehicle_type_id":"4","last_reported":1751912134,"current_range_meters":16400,"station_id":"ce4bhch2rcd13ifvqeug","pricing_plan_id":"cebpf4jnsgd1na2vs0mg"},{"bike_id":"68aa20b7-3635-4746-8147-ec5e4970f479","system_id":"levelo_inurba_marseille","lat":43.30889,"lon":5.39648,"is_reserved":false,"is_disabled":false,"rental_uris":{"android":"levelo://app?vid=68aa20b7-3635-4746-8147-ec5e4970f479","ios":"levelo://app?vid=68aa20b7-3635-4746-8147-ec5e4970f479"},"vehicle_type_id":"4","last_reported":1751912134,"current_range_meters":16800,"station_id":"ce4bh012rcd13ifvqcv0","pricing_plan_id":"cebpf4jnsgd1na2vs0mg"},{"bike_id":"64b4fa4f-0779-4ed7-89cb-2e78d143f36e","system_id":"levelo_inurba_marseille","lat":43.21748,"lon":5.34615,"is_reserved":false,"is_disabled":false,"rental_uris":{"android":"levelo://app?vid=64b4fa4f-0779-4ed7-89cb-2e78d143f36e","ios":"levelo://app?vid=64b4fa4f-0779-4ed7-89cb-2e78d143f36e"},"vehicle_type_id":"4","last_reported":1751912134,"current_range_meters":16800,"station_id":"st_cvj6r9ubvosntc0bgbag","pricing_plan_id":"cebpf4jnsgd1na2vs0mg"},{"bike_id":"427cea64-fc3b-46a4-bd25-2bad84cd1642","system_id":"levelo_inurba_marseille","lat":43.2117,"lon":5.350368,"is_reserved":false,"is_disabled":false,"rental_uris":{"android":"levelo://app?vid=427cea64-fc3b-46a4-bd25-2bad84cd1642","ios":"levelo://app?vid=427cea64-fc3b-46a4-bd25-2bad84cd1642"},"vehicle_type_id":"4","last_reported":1751912134,"current_range_meters":16800,"station_id":"st_cvj6sg6p6f1abm77japg","pricing_plan_id":"cebpf4jnsgd1na2vs0mg"},{"bike_id":"6a3a3e65-1839-43d5-b574-3a73e4e32dac","system_id":"levelo_inurba_marseille","lat":43.32321,"lon":5.3887,"is_reserved":false,"is_disabled":false,"rental_uris":{"android":"levelo://app?vid=6a3a3e65-1839-43d5-b574-3a73e4e32dac","ios":"levelo://app?vid=6a3a3e65-1839-43d5-b574-3a73e4e32dac"},"vehicle_type_id":"4","last_reported":1751912134,"current_range_meters":17200,"station_id":"","pricing_plan_id":"cebpf4jnsgd1na2vs0mg"},{"bike_id":"888522e3-39b6-4ff3-ad74-ff6c6f771157","system_id":"levelo_inurba_marseille","lat":43.29476,"lon":5.40307,"is_reserved":false,"is_disabled":false,"rental_uris":{"android":"levelo://app?vid=888522e3-39b6-4ff3-ad74-ff6c6f771157","ios":"levelo://app?vid=888522e3-39b6-4ff3-ad74-ff6c6f771157"},"vehicle_type_id":"4","last_reported":1751912134,"current_range_meters":17200,"station_id":"","pricing_plan_id":"cebpf4jnsgd1na2vs0mg"},{"bike_id":"4932ee5f-482e-44ad-afd2-2dd2f954adc4","system_id":"levelo_inurba_marseille","lat":43.29724,"lon":5.37688,"is_reserved":false,"is_disabled":false,"rental_uris":{"android":"levelo://app?vid=4932ee5f-482e-44ad-afd2-2dd2f954adc4","ios":"levelo://app?vid=4932ee5f-482e-44ad-afd2-2dd2f954adc4"},"vehicle_type_id":"4","last_reported":1751912134,"current_range_meters":17200,"station_id":"ce4bgkh2rcd13ifvqbl0","pricing_plan_id":"cebpf4jnsgd1na2vs0mg"},{"bike_id":"b7dbd5a9-e230-4a2d-a36c-873fdae6794c","system_id":"levelo_inurba_marseille","lat":43.29846,"lon":5.3625,"is_reserved":false,"is_disabled":false,"rental_uris":{"android":"levelo://app?vid=b7dbd5a9-e230-4a2d-a36c-873fdae6794c","ios":"levelo://app?vid=b7dbd5a9-e230-4a2d-a36c-873fdae6794c"},"vehicle_type_id":"4","last_reported":1751912134,"current_range_meters":17200,"station_id":"ce4bgpp2rcd13ifvqc3g","pricing_plan_id":"cebpf4jnsgd1na2vs0mg"},{"bike_id":"33d97712-0965-408b-8167-604933d554bb","system_id":"levelo_inurba_marseille","lat":43.284111,"lon":5.349882,"is_reserved":false,"is_disabled":false,"rental_uris":{"android":"levelo://app?vid=33d97712-0965-408b-8167-604933d554bb","ios":"levelo://app?vid=33d97712-0965-408b-8167-604933d554bb"},"vehicle_type_id":"4","last_reported":1751912134,"current_range_meters":17200,"station_id":"ce4bhbh2rcd13ifvqepg","pricing_plan_id":"cebpf4jnsgd1na2vs0mg"},{"bike_id":"a19af955-9f5f-4ebf-9657-f7a0141cb78d","system_id":"levelo_inurba_marseille","lat":43.284328,"lon":5.349882,"is_reserved":false,"is_disabled":false,"rental_uris":{"android":"levelo://app?vid=a19af955-9f5f-4ebf-9657-f7a0141cb78d","ios":"levelo://app?vid=a19af955-9f5f-4ebf-9657-f7a0141cb78d"},"vehicle_type_id":"4","last_reported":1751912134,"current_range_meters":17200,"station_id":"ce4bhbh2rcd13ifvqepg","pricing_plan_id":"cebpf4jnsgd1na2vs0mg"},{"bike_id":"2a83b236-043c-4051-83a8-5211df25a6b0","system_id":"levelo_inurba_marseille","lat":43.28082,"lon":5.39657,"is_reserved":false,"is_disabled":false,"rental_uris":{"android":"levelo://app?vid=2a83b236-043c-4051-83a8-5211df25a6b0","ios":"levelo://app?vid=2a83b236-043c-4051-83a8-5211df25a6b0"},"vehicle_type_id":"4","last_reported":1751912134,"current_range_meters":17200,"station_id":"ce4bho12rcd13ifvqh2g","pricing_plan_id":"cebpf4jnsgd1na2vs0mg"},{"bike_id":"95e4d84f-0d41-4c45-93e0-0a358974b6e1","system_id":"levelo_inurba_marseille","lat":43.29972,"lon":5.41317,"is_reserved":false,"is_disabled":false,"rental_uris":{"android":"levelo://app?vid=95e4d84f-0d41-4c45-93e0-0a358974b6e1","ios":"levelo://app?vid=95e4d84f-0d41-4c45-93e0-0a358974b6e1"},"vehicle_type_id":"4","last_reported":1751912134,"current_range_meters":17200,"station_id":"ce4bhp12rcd13ifvqh9g","pricing_plan_id":"cebpf4jnsgd1na2vs0mg"},{"bike_id":"762784bc-76e0-4220-961c-3afad064fde2","system_id":"levelo_inurba_marseille","lat":43.320807,"lon":5.367603,"is_reserved":false,"is_disabled":false,"rental_uris":{"android":"levelo://app?vid=762784bc-76e0-4220-961c-3afad064fde2","ios":"levelo://app?vid=762784bc-76e0-4220-961c-3afad064fde2"},"vehicle_type_id":"4","last_reported":1751912134,"current_range_meters":17200,"station_id":"ce4bhrh2rcd13ifvqhug","pricing_plan_id":"cebpf4jnsgd1na2vs0mg"},{"bike_id":"d5ef770d-9759-47e3-b3a5-7d2785ef76db","system_id":"levelo_inurba_marseille","lat":43.32929,"lon":5.39031,"is_reserved":false,"is_disabled":false,"rental_uris":{"android":"levelo://app?vid=d5ef770d-9759-47e3-b3a5-7d2785ef76db","ios":"levelo://app?vid=d5ef770d-9759-47e3-b3a5-7d2785ef76db"},"vehicle_type_id":"4","last_reported":1751912134,"current_range_meters":17600,"station_id":"","pricing_plan_id":"cebpf4jnsgd1na2vs0mg"},{"bike_id":"afd2c671-b274-4716-95f7-9abfdfc6dc55","system_id":"levelo_inurba_marseille","lat":43.31454,"lon":5.37453,"is_reserved":false,"is_disabled":false,"rental_uris":{"android":"levelo://app?vid=afd2c671-b274-4716-95f7-9abfdfc6dc55","ios":"levelo://app?vid=afd2c671-b274-4716-95f7-9abfdfc6dc55"},"vehicle_type_id":"4","last_reported":1751912134,"current_range_meters":17600,"station_id":"","pricing_plan_id":"cebpf4jnsgd1na2vs0mg"},{"bike_id":"9db15efa-62b5-43dc-beab-14a16c0840b9","system_id":"levelo_inurba_marseille","lat":43.304524,"lon":5.415534,"is_reserved":false,"is_disabled":false,"rental_uris":{"android":"levelo://app?vid=9db15efa-62b5-43dc-beab-14a16c0840b9","ios":"levelo://app?vid=9db15efa-62b5-43dc-beab-14a16c0840b9"},"vehicle_type_id":"4","last_reported":1751912134,"current_range_meters":17600,"station_id":"","pricing_plan_id":"cebpf4jnsgd1na2vs0mg"},{"bike_id":"2e63035f-7c49-436a-b3c7-09266caa3f67","system_id":"levelo_inurba_marseille","lat":43.29265,"lon":5.38439,"is_reserved":false,"is_disabled":false,"rental_uris":{"android":"levelo://app?vid=2e63035f-7c49-436a-b3c7-09266caa3f67","ios":"levelo://app?vid=2e63035f-7c49-436a-b3c7-09266caa3f67"},"vehicle_type_id":"4","last_reported":1751912134,"current_range_meters":17600,"station_id":"ce4bh692rcd13ifvqea0","pricing_plan_id":"cebpf4jnsgd1na2vs0mg"},{"bike_id":"a35755ed-d386-4979-925d-822a6b27391a","system_id":"levelo_inurba_marseille","lat":43.29002,"lon":5.35617,"is_reserved":false,"is_disabled":false,"rental_uris":{"android":"levelo://app?vid=a35755ed-d386-4979-925d-822a6b27391a","ios":"levelo://app?vid=a35755ed-d386-4979-925d-822a6b27391a"},"vehicle_type_id":"4","last_reported":1751912134,"current_range_meters":17600,"station_id":"ce4bhb92rcd13ifvqen0","pricing_plan_id":"cebpf4jnsgd1na2vs0mg"},{"bike_id":"86a1300d-a610-4541-92ef-48f124fb320d","system_id":"levelo_inurba_marseille","lat":43.26575,"lon":5.39016,"is_reserved":false,"is_disabled":false,"rental_uris":{"android":"levelo://app?vid=86a1300d-a610-4541-92ef-48f124fb320d","ios":"levelo://app?vid=86a1300d-a610-4541-92ef-48f124fb320d"},"vehicle_type_id":"4","last_reported":1751912134,"current_range_meters":17600,"station_id":"ce4bhe12rcd13ifvqf30","pricing_plan_id":"cebpf4jnsgd1na2vs0mg"},{"bike_id":"c60ab0d0-fba4-4bfc-a352-059acc478c90","system_id":"levelo_inurba_marseille","lat":43.24636,"lon":5.38895,"is_reserved":false,"is_disabled":false,"rental_uris":{"android":"levelo://app?vid=c60ab0d0-fba4-4bfc-a352-059acc478c90","ios":"levelo://app?vid=c60ab0d0-fba4-4bfc-a352-059acc478c90"},"vehicle_type_id":"4","last_reported":1751912134,"current_range_meters":17600,"station_id":"ce4bhg12rcd13ifvqf60","pricing_plan_id":"cebpf4jnsgd1na2vs0mg"},{"bike_id":"d8bb4644-213c-4d86-af7c-4d9c800e2042","system_id":"levelo_inurba_marseille","lat":43.2439,"lon":5.37056,"is_reserved":false,"is_disabled":false,"rental_uris":{"android":"levelo://app?vid=d8bb4644-213c-4d86-af7c-4d9c800e2042","ios":"levelo://app?vid=d8bb4644-213c-4d86-af7c-4d9c800e2042"},"vehicle_type_id":"4","last_reported":1751912134,"current_range_meters":17600,"station_id":"ce4bhhh2rcd13ifvqfk0","pricing_plan_id":"cebpf4jnsgd1na2vs0mg"},{"bike_id":"a0d0a312-401a-48e1-ab9b-bea34cb18154","system_id":"levelo_inurba_marseille","lat":43.2693,"lon":5.38908,"is_reserved":false,"is_disabled":false,"rental_uris":{"android":"levelo://app?vid=a0d0a312-401a-48e1-ab9b-bea34cb18154","ios":"levelo://app?vid=a0d0a312-401a-48e1-ab9b-bea34cb18154"},"vehicle_type_id":"4","last_reported":1751912134,"current_range_meters":17600,"station_id":"ce4bhhh2rcd13ifvqfl0","pricing_plan_id":"cebpf4jnsgd1na2vs0mg"},{"bike_id":"51890362-46b0-4ee7-9f02-afbf036d064e","system_id":"levelo_inurba_marseille","lat":43.2121,"lon":5.35072,"is_reserved":false,"is_disabled":false,"rental_uris":{"android":"levelo://app?vid=51890362-46b0-4ee7-9f02-afbf036d064e","ios":"levelo://app?vid=51890362-46b0-4ee7-9f02-afbf036d064e"},"vehicle_type_id":"4","last_reported":1751912134,"current_range_meters":17600,"station_id":"st_cvj6sg6p6f1abm77japg","pricing_plan_id":"cebpf4jnsgd1na2vs0mg"},{"bike_id":"084f14d4-0bc9-446c-902e-a4f3b90135fe","system_id":"levelo_inurba_marseille","lat":43.32446,"lon":5.42869,"is_reserved":false,"is_disabled":false,"rental_uris":{"android":"levelo://app?vid=084f14d4-0bc9-446c-902e-a4f3b90135fe","ios":"levelo://app?vid=084f14d4-0bc9-446c-902e-a4f3b90135fe"},"vehicle_type_id":"4","last_reported":1751912134,"current_range_meters":18000,"station_id":"","pricing_plan_id":"cebpf4jnsgd1na2vs0mg"},{"bike_id":"8ce02629-6f60-4288-a647-90adca08a407","system_id":"levelo_inurba_marseille","lat":43.30328,"lon":5.40431,"is_reserved":false,"is_disabled":false,"rental_uris":{"android":"levelo://app?vid=8ce02629-6f60-4288-a647-90adca08a407","ios":"levelo://app?vid=8ce02629-6f60-4288-a647-90adca08a407"},"vehicle_type_id":"4","last_reported":1751912134,"current_range_meters":18000,"station_id":"ce4bh012rcd13ifvqd10","pricing_plan_id":"cebpf4jnsgd1na2vs0mg"},{"bike_id":"c5f83647-e0bc-4d1c-96d9-15bff83e5fe0","system_id":"levelo_inurba_marseille","lat":43.25089,"lon":5.39508,"is_reserved":false,"is_disabled":false,"rental_uris":{"android":"levelo://app?vid=c5f83647-e0bc-4d1c-96d9-15bff83e5fe0","ios":"levelo://app?vid=c5f83647-e0bc-4d1c-96d9-15bff83e5fe0"},"vehicle_type_id":"4","last_reported":1751912134,"current_range_meters":18000,"station_id":"ce4bhm12rcd13ifvqgkg","pricing_plan_id":"cebpf4jnsgd1na2vs0mg"},{"bike_id":"61890ca5-e3a7-4367-be8b-10c873215b90","system_id":"levelo_inurba_marseille","lat":43.21751,"lon":5.34585,"is_reserved":false,"is_disabled":false,"rental_uris":{"android":"levelo://app?vid=61890ca5-e3a7-4367-be8b-10c873215b90","ios":"levelo://app?vid=61890ca5-e3a7-4367-be8b-10c873215b90"},"vehicle_type_id":"4","last_reported":1751912134,"current_range_meters":18000,"station_id":"st_cvj6r9ubvosntc0bgbag","pricing_plan_id":"cebpf4jnsgd1na2vs0mg"},{"bike_id":"87c2d236-4978-4760-be77-27d7f5a212e4","system_id":"levelo_inurba_marseille","lat":43.29644,"lon":5.36205,"is_reserved":false,"is_disabled":false,"rental_uris":{"android":"levelo://app?vid=87c2d236-4978-4760-be77-27d7f5a212e4","ios":"levelo://app?vid=87c2d236-4978-4760-be77-27d7f5a212e4"},"vehicle_type_id":"4","last_reported":1751912134,"current_range_meters":18800,"station_id":"","pricing_plan_id":"cebpf4jnsgd1na2vs0mg"},{"bike_id":"965a4a49-660c-4d8a-b4a0-05ab2a6c99bd","system_id":"levelo_inurba_marseille","lat":43.29918,"lon":5.37485,"is_reserved":false,"is_disabled":false,"rental_uris":{"android":"levelo://app?vid=965a4a49-660c-4d8a-b4a0-05ab2a6c99bd","ios":"levelo://app?vid=965a4a49-660c-4d8a-b4a0-05ab2a6c99bd"},"vehicle_type_id":"4","last_reported":1751912134,"current_range_meters":18800,"station_id":"ce4bgjh2rcd13ifvqbg0","pricing_plan_id":"cebpf4jnsgd1na2vs0mg"},{"bike_id":"1e40074e-1304-4c73-b725-b4eb4c90f7a7","system_id":"levelo_inurba_marseille","lat":43.29528,"lon":5.39042,"is_reserved":false,"is_disabled":false,"rental_uris":{"android":"levelo://app?vid=1e40074e-1304-4c73-b725-b4eb4c90f7a7","ios":"levelo://app?vid=1e40074e-1304-4c73-b725-b4eb4c90f7a7"},"vehicle_type_id":"4","last_reported":1751912134,"current_range_meters":18800,"station_id":"ce4bh3p2rcd13ifvqdp0","pricing_plan_id":"cebpf4jnsgd1na2vs0mg"},{"bike_id":"e9e5a906-116a-49e4-915d-4b85edbe4ce1","system_id":"levelo_inurba_marseille","lat":43.251096,"lon":5.40317,"is_reserved":false,"is_disabled":false,"rental_uris":{"android":"levelo://app?vid=e9e5a906-116a-49e4-915d-4b85edbe4ce1","ios":"levelo://app?vid=e9e5a906-116a-49e4-915d-4b85edbe4ce1"},"vehicle_type_id":"4","last_reported":1751912134,"current_range_meters":18800,"station_id":"ce4bhlh2rcd13ifvqgig","pricing_plan_id":"cebpf4jnsgd1na2vs0mg"},{"bike_id":"8f79dc00-a15d-4197-9ff0-cceb654c0ae7","system_id":"levelo_inurba_marseille","lat":43.29444,"lon":5.38665,"is_reserved":false,"is_disabled":false,"rental_uris":{"android":"levelo://app?vid=8f79dc00-a15d-4197-9ff0-cceb654c0ae7","ios":"levelo://app?vid=8f79dc00-a15d-4197-9ff0-cceb654c0ae7"},"vehicle_type_id":"4","last_reported":1751912134,"current_range_meters":19200,"station_id":"ce4bh2h2rcd13ifvqdh0","pricing_plan_id":"cebpf4jnsgd1na2vs0mg"},{"bike_id":"565a34cd-15c9-4df7-add7-dd0c54c13c56","system_id":"levelo_inurba_marseille","lat":43.27207,"lon":5.391488,"is_reserved":false,"is_disabled":false,"rental_uris":{"android":"levelo://app?vid=565a34cd-15c9-4df7-add7-dd0c54c13c56","ios":"levelo://app?vid=565a34cd-15c9-4df7-add7-dd0c54c13c56"},"vehicle_type_id":"4","last_reported":1751912134,"current_range_meters":19200,"station_id":"ce4bhhp2rcd13ifvqfm0","pricing_plan_id":"cebpf4jnsgd1na2vs0mg"},{"bike_id":"9827fbcb-c0d1-4797-858b-7bf82d829c0a","system_id":"levelo_inurba_marseille","lat":43.280045,"lon":5.399985,"is_reserved":false,"is_disabled":false,"rental_uris":{"android":"levelo://app?vid=9827fbcb-c0d1-4797-858b-7bf82d829c0a","ios":"levelo://app?vid=9827fbcb-c0d1-4797-858b-7bf82d829c0a"},"vehicle_type_id":"4","last_reported":1751912134,"current_range_meters":19200,"station_id":"ce4bho92rcd13ifvqh4g","pricing_plan_id":"cebpf4jnsgd1na2vs0mg"},{"bike_id":"f72e3cc9-1006-4816-8dfc-e4029409d7c6","system_id":"levelo_inurba_marseille","lat":43.26804,"lon":5.40265,"is_reserved":false,"is_disabled":false,"rental_uris":{"android":"levelo://app?vid=f72e3cc9-1006-4816-8dfc-e4029409d7c6","ios":"levelo://app?vid=f72e3cc9-1006-4816-8dfc-e4029409d7c6"},"vehicle_type_id":"4","last_reported":1751912134,"current_range_meters":19200,"station_id":"ce501612rcd8frsf0b60","pricing_plan_id":"cebpf4jnsgd1na2vs0mg"},{"bike_id":"d063cf90-0447-41d9-9b44-ed5cb9bc7dc8","system_id":"levelo_inurba_marseille","lat":43.29799,"lon":5.38106,"is_reserved":false,"is_disabled":false,"rental_uris":{"android":"levelo://app?vid=d063cf90-0447-41d9-9b44-ed5cb9bc7dc8","ios":"levelo://app?vid=d063cf90-0447-41d9-9b44-ed5cb9bc7dc8"},"vehicle_type_id":"4","last_reported":1751912134,"current_range_meters":19600,"station_id":"ce4bgip2rcd13ifvqbb0","pricing_plan_id":"cebpf4jnsgd1na2vs0mg"},{"bike_id":"44f4b595-43db-45a9-91ff-5f785b155aed","system_id":"levelo_inurba_marseille","lat":43.29791,"lon":5.37098,"is_reserved":false,"is_disabled":false,"rental_uris":{"android":"levelo://app?vid=44f4b595-43db-45a9-91ff-5f785b155aed","ios":"levelo://app?vid=44f4b595-43db-45a9-91ff-5f785b155aed"},"vehicle_type_id":"4","last_reported":1751912134,"current_range_meters":19600,"station_id":"ce4bgop2rcd13ifvqc1g","pricing_plan_id":"cebpf4jnsgd1na2vs0mg"},{"bike_id":"3cbbaa5c-38a0-432f-acda-816ad26e3088","system_id":"levelo_inurba_marseille","lat":43.31494,"lon":5.37303,"is_reserved":false,"is_disabled":false,"rental_uris":{"android":"levelo://app?vid=3cbbaa5c-38a0-432f-acda-816ad26e3088","ios":"levelo://app?vid=3cbbaa5c-38a0-432f-acda-816ad26e3088"},"vehicle_type_id":"4","last_reported":1751912134,"current_range_meters":19600,"station_id":"ce4bgt12rcd13ifvqcd0","pricing_plan_id":"cebpf4jnsgd1na2vs0mg"},{"bike_id":"32f6adbc-0ba5-4b0c-8e09-aa27b7d5e4c5","system_id":"levelo_inurba_marseille","lat":43.30134,"lon":5.39868,"is_reserved":false,"is_disabled":false,"rental_uris":{"android":"levelo://app?vid=32f6adbc-0ba5-4b0c-8e09-aa27b7d5e4c5","ios":"levelo://app?vid=32f6adbc-0ba5-4b0c-8e09-aa27b7d5e4c5"},"vehicle_type_id":"4","last_reported":1751912134,"current_range_meters":19600,"station_id":"ce4bh0h2rcd13ifvqd40","pricing_plan_id":"cebpf4jnsgd1na2vs0mg"},{"bike_id":"58576875-89ce-44e2-aa39-7ed2b965fd4a","system_id":"levelo_inurba_marseille","lat":43.28614,"lon":5.351,"is_reserved":false,"is_disabled":false,"rental_uris":{"android":"levelo://app?vid=58576875-89ce-44e2-aa39-7ed2b965fd4a","ios":"levelo://app?vid=58576875-89ce-44e2-aa39-7ed2b965fd4a"},"vehicle_type_id":"4","last_reported":1751912134,"current_range_meters":19600,"station_id":"ce4bhch2rcd13ifvqeug","pricing_plan_id":"cebpf4jnsgd1na2vs0mg"},{"bike_id":"56506ad4-8792-451e-9e92-987c83e2e5b9","system_id":"levelo_inurba_marseille","lat":43.26785,"lon":5.39413,"is_reserved":false,"is_disabled":false,"rental_uris":{"android":"levelo://app?vid=56506ad4-8792-451e-9e92-987c83e2e5b9","ios":"levelo://app?vid=56506ad4-8792-451e-9e92-987c83e2e5b9"},"vehicle_type_id":"4","last_reported":1751912134,"current_range_meters":19600,"station_id":"ce4bhh12rcd13ifvqfg0","pricing_plan_id":"cebpf4jnsgd1na2vs0mg"},{"bike_id":"35d41f41-e942-42c5-97f1-40ccdd96f7a4","system_id":"levelo_inurba_marseille","lat":43.21191,"lon":5.350757,"is_reserved":false,"is_disabled":false,"rental_uris":{"android":"levelo://app?vid=35d41f41-e942-42c5-97f1-40ccdd96f7a4","ios":"levelo://app?vid=35d41f41-e942-42c5-97f1-40ccdd96f7a4"},"vehicle_type_id":"4","last_reported":1751912134,"current_range_meters":19600,"station_id":"st_cvj6sg6p6f1abm77japg","pricing_plan_id":"cebpf4jnsgd1na2vs0mg"},{"bike_id":"0a967b9b-4d06-4142-9038-0014f7535902","system_id":"levelo_inurba_marseille","lat":43.29257,"lon":5.37619,"is_reserved":false,"is_disabled":false,"rental_uris":{"android":"levelo://app?vid=0a967b9b-4d06-4142-9038-0014f7535902","ios":"levelo://app?vid=0a967b9b-4d06-4142-9038-0014f7535902"},"vehicle_type_id":"4","last_reported":1751912134,"current_range_meters":20000,"station_id":"ce4bgi12rcd13ifvqb80","pricing_plan_id":"cebpf4jnsgd1na2vs0mg"},{"bike_id":"87b46f9d-0d89-48e6-866d-12eb9ae69e76","system_id":"levelo_inurba_marseille","lat":43.28417,"lon":5.3499,"is_reserved":false,"is_disabled":false,"rental_uris":{"android":"levelo://app?vid=87b46f9d-0d89-48e6-866d-12eb9ae69e76","ios":"levelo://app?vid=87b46f9d-0d89-48e6-866d-12eb9ae69e76"},"vehicle_type_id":"4","last_reported":1751912134,"current_range_meters":20000,"station_id":"ce4bhbh2rcd13ifvqepg","pricing_plan_id":"cebpf4jnsgd1na2vs0mg"},{"bike_id":"ec031d6c-12db-4c34-9130-63f92e0ca6dd","system_id":"levelo_inurba_marseille","lat":43.30432,"lon":5.41279,"is_reserved":false,"is_disabled":false,"rental_uris":{"android":"levelo://app?vid=ec031d6c-12db-4c34-9130-63f92e0ca6dd","ios":"levelo://app?vid=ec031d6c-12db-4c34-9130-63f92e0ca6dd"},"vehicle_type_id":"4","last_reported":1751912134,"current_range_meters":20000,"station_id":"ce4bhop2rcd13ifvqh8g","pricing_plan_id":"cebpf4jnsgd1na2vs0mg"},{"bike_id":"8d92521f-64de-4b84-ac6c-1923c26cf5a2","system_id":"levelo_inurba_marseille","lat":43.32478,"lon":5.3655,"is_reserved":false,"is_disabled":false,"rental_uris":{"android":"levelo://app?vid=8d92521f-64de-4b84-ac6c-1923c26cf5a2","ios":"levelo://app?vid=8d92521f-64de-4b84-ac6c-1923c26cf5a2"},"vehicle_type_id":"4","last_reported":1751912134,"current_range_meters":20000,"station_id":"ce4bhs12rcd13ifvqhvg","pricing_plan_id":"cebpf4jnsgd1na2vs0mg"},{"bike_id":"59880a3b-32ba-4e8f-81e0-ad47f41b0cf9","system_id":"levelo_inurba_marseille","lat":43.28043,"lon":5.36944,"is_reserved":false,"is_disabled":false,"rental_uris":{"android":"levelo://app?vid=59880a3b-32ba-4e8f-81e0-ad47f41b0cf9","ios":"levelo://app?vid=59880a3b-32ba-4e8f-81e0-ad47f41b0cf9"},"vehicle_type_id":"4","last_reported":1751912134,"current_range_meters":20400,"station_id":"","pricing_plan_id":"cebpf4jnsgd1na2vs0mg"},{"bike_id":"ed24ef27-3f2f-4e32-848c-213c4e9bdacc","system_id":"levelo_inurba_marseille","lat":43.30337,"lon":5.38598,"is_reserved":false,"is_disabled":false,"rental_uris":{"android":"levelo://app?vid=ed24ef27-3f2f-4e32-848c-213c4e9bdacc","ios":"levelo://app?vid=ed24ef27-3f2f-4e32-848c-213c4e9bdacc"},"vehicle_type_id":"4","last_reported":1751912134,"current_range_meters":20400,"station_id":"","pricing_plan_id":"cebpf4jnsgd1na2vs0mg"},{"bike_id":"ea7df389-5dc0-4c58-88fe-80a5af035925","system_id":"levelo_inurba_marseille","lat":43.29847,"lon":5.36427,"is_reserved":false,"is_disabled":false,"rental_uris":{"android":"levelo://app?vid=ea7df389-5dc0-4c58-88fe-80a5af035925","ios":"levelo://app?vid=ea7df389-5dc0-4c58-88fe-80a5af035925"},"vehicle_type_id":"4","last_reported":1751912134,"current_range_meters":20400,"station_id":"","pricing_plan_id":"cebpf4jnsgd1na2vs0mg"},{"bike_id":"7760c982-23f9-441e-a56e-27b8d4f0c34c","system_id":"levelo_inurba_marseille","lat":43.293,"lon":5.37164,"is_reserved":false,"is_disabled":false,"rental_uris":{"android":"levelo://app?vid=7760c982-23f9-441e-a56e-27b8d4f0c34c","ios":"levelo://app?vid=7760c982-23f9-441e-a56e-27b8d4f0c34c"},"vehicle_type_id":"4","last_reported":1751912134,"current_range_meters":20400,"station_id":"ce4bgh92rcd13ifvqb40","pricing_plan_id":"cebpf4jnsgd1na2vs0mg"},{"bike_id":"9f8e8340-fa97-4bbd-a100-c876cfeef945","system_id":"levelo_inurba_marseille","lat":43.30251,"lon":5.40082,"is_reserved":false,"is_disabled":false,"rental_uris":{"android":"levelo://app?vid=9f8e8340-fa97-4bbd-a100-c876cfeef945","ios":"levelo://app?vid=9f8e8340-fa97-4bbd-a100-c876cfeef945"},"vehicle_type_id":"4","last_reported":1751912134,"current_range_meters":20400,"station_id":"ce4bgvh2rcd13ifvqcs0","pricing_plan_id":"cebpf4jnsgd1na2vs0mg"},{"bike_id":"6d109110-bdf3-400e-8557-7e1e8f63b03e","system_id":"levelo_inurba_marseille","lat":43.29526,"lon":5.39048,"is_reserved":false,"is_disabled":false,"rental_uris":{"android":"levelo://app?vid=6d109110-bdf3-400e-8557-7e1e8f63b03e","ios":"levelo://app?vid=6d109110-bdf3-400e-8557-7e1e8f63b03e"},"vehicle_type_id":"4","last_reported":1751912134,"current_range_meters":20400,"station_id":"ce4bh3p2rcd13ifvqdp0","pricing_plan_id":"cebpf4jnsgd1na2vs0mg"},{"bike_id":"29374d90-fb2c-49ba-97d0-73fee4d98927","system_id":"levelo_inurba_marseille","lat":43.29019,"lon":5.38634,"is_reserved":false,"is_disabled":false,"rental_uris":{"android":"levelo://app?vid=29374d90-fb2c-49ba-97d0-73fee4d98927","ios":"levelo://app?vid=29374d90-fb2c-49ba-97d0-73fee4d98927"},"vehicle_type_id":"4","last_reported":1751912134,"current_range_meters":20400,"station_id":"ce4bh4p2rcd13ifvqe0g","pricing_plan_id":"cebpf4jnsgd1na2vs0mg"},{"bike_id":"9e555447-bc4b-4551-8312-b095933eb62f","system_id":"levelo_inurba_marseille","lat":43.29017,"lon":5.38631,"is_reserved":false,"is_disabled":false,"rental_uris":{"android":"levelo://app?vid=9e555447-bc4b-4551-8312-b095933eb62f","ios":"levelo://app?vid=9e555447-bc4b-4551-8312-b095933eb62f"},"vehicle_type_id":"4","last_reported":1751912134,"current_range_meters":20400,"station_id":"ce4bh4p2rcd13ifvqe0g","pricing_plan_id":"cebpf4jnsgd1na2vs0mg"},{"bike_id":"42c825f0-29c8-447c-ad07-089a61fdecc8","system_id":"levelo_inurba_marseille","lat":43.29048,"lon":5.37581,"is_reserved":false,"is_disabled":false,"rental_uris":{"android":"levelo://app?vid=42c825f0-29c8-447c-ad07-089a61fdecc8","ios":"levelo://app?vid=42c825f0-29c8-447c-ad07-089a61fdecc8"},"vehicle_type_id":"4","last_reported":1751912134,"current_range_meters":20400,"station_id":"ce4bh692rcd13ifvqe90","pricing_plan_id":"cebpf4jnsgd1na2vs0mg"},{"bike_id":"563164da-1b79-4f5b-9786-8fd629b29df4","system_id":"levelo_inurba_marseille","lat":43.29264,"lon":5.38441,"is_reserved":false,"is_disabled":false,"rental_uris":{"android":"levelo://app?vid=563164da-1b79-4f5b-9786-8fd629b29df4","ios":"levelo://app?vid=563164da-1b79-4f5b-9786-8fd629b29df4"},"vehicle_type_id":"4","last_reported":1751912134,"current_range_meters":20400,"station_id":"ce4bh692rcd13ifvqea0","pricing_plan_id":"cebpf4jnsgd1na2vs0mg"},{"bike_id":"05018fa2-c576-4c97-96d8-e9bff7cfb2ca","system_id":"levelo_inurba_marseille","lat":43.28418,"lon":5.34999,"is_reserved":false,"is_disabled":false,"rental_uris":{"android":"levelo://app?vid=05018fa2-c576-4c97-96d8-e9bff7cfb2ca","ios":"levelo://app?vid=05018fa2-c576-4c97-96d8-e9bff7cfb2ca"},"vehicle_type_id":"4","last_reported":1751912134,"current_range_meters":20400,"station_id":"ce4bhbh2rcd13ifvqepg","pricing_plan_id":"cebpf4jnsgd1na2vs0mg"},{"bike_id":"92c6a9d9-2b7f-4402-84f4-471caf5ebfd6","system_id":"levelo_inurba_marseille","lat":43.24666,"lon":5.38151,"is_reserved":false,"is_disabled":false,"rental_uris":{"android":"levelo://app?vid=92c6a9d9-2b7f-4402-84f4-471caf5ebfd6","ios":"levelo://app?vid=92c6a9d9-2b7f-4402-84f4-471caf5ebfd6"},"vehicle_type_id":"4","last_reported":1751912134,"current_range_meters":20400,"station_id":"ce4bhih2rcd13ifvqfr0","pricing_plan_id":"cebpf4jnsgd1na2vs0mg"},{"bike_id":"562a22ea-d916-43e9-ac6a-4b383a9a3284","system_id":"levelo_inurba_marseille","lat":43.27612,"lon":5.36112,"is_reserved":false,"is_disabled":false,"rental_uris":{"android":"levelo://app?vid=562a22ea-d916-43e9-ac6a-4b383a9a3284","ios":"levelo://app?vid=562a22ea-d916-43e9-ac6a-4b383a9a3284"},"vehicle_type_id":"4","last_reported":1751912134,"current_range_meters":20800,"station_id":"ce4bgj92rcd13ifvqbe0","pricing_plan_id":"cebpf4jnsgd1na2vs0mg"},{"bike_id":"26d4d906-20d7-4da4-86fb-43b1362b3fd8","system_id":"levelo_inurba_marseille","lat":43.314867,"lon":5.373097,"is_reserved":false,"is_disabled":false,"rental_uris":{"android":"levelo://app?vid=26d4d906-20d7-4da4-86fb-43b1362b3fd8","ios":"levelo://app?vid=26d4d906-20d7-4da4-86fb-43b1362b3fd8"},"vehicle_type_id":"4","last_reported":1751912134,"current_range_meters":20800,"station_id":"ce4bgt12rcd13ifvqcd0","pricing_plan_id":"cebpf4jnsgd1na2vs0mg"},{"bike_id":"e6a17120-e1c8-435d-b1e2-5f7159c91f4f","system_id":"levelo_inurba_marseille","lat":43.28855,"lon":5.39304,"is_reserved":false,"is_disabled":false,"rental_uris":{"android":"levelo://app?vid=e6a17120-e1c8-435d-b1e2-5f7159c91f4f","ios":"levelo://app?vid=e6a17120-e1c8-435d-b1e2-5f7159c91f4f"},"vehicle_type_id":"4","last_reported":1751912134,"current_range_meters":20800,"station_id":"ce4bh2p2rcd13ifvqdi0","pricing_plan_id":"cebpf4jnsgd1na2vs0mg"},{"bike_id":"50242d98-0f05-4b7e-a76d-c12db12f9889","system_id":"levelo_inurba_marseille","lat":43.29003,"lon":5.35604,"is_reserved":false,"is_disabled":false,"rental_uris":{"android":"levelo://app?vid=50242d98-0f05-4b7e-a76d-c12db12f9889","ios":"levelo://app?vid=50242d98-0f05-4b7e-a76d-c12db12f9889"},"vehicle_type_id":"4","last_reported":1751912134,"current_range_meters":20800,"station_id":"ce4bhb92rcd13ifvqen0","pricing_plan_id":"cebpf4jnsgd1na2vs0mg"},{"bike_id":"da3c16a7-1722-44ec-a60c-bdcaac1fbdad","system_id":"levelo_inurba_marseille","lat":43.28623,"lon":5.35093,"is_reserved":false,"is_disabled":false,"rental_uris":{"android":"levelo://app?vid=da3c16a7-1722-44ec-a60c-bdcaac1fbdad","ios":"levelo://app?vid=da3c16a7-1722-44ec-a60c-bdcaac1fbdad"},"vehicle_type_id":"4","last_reported":1751912134,"current_range_meters":20800,"station_id":"ce4bhch2rcd13ifvqeug","pricing_plan_id":"cebpf4jnsgd1na2vs0mg"},{"bike_id":"6f861c9b-261a-4132-b080-0c0737d0017f","system_id":"levelo_inurba_marseille","lat":43.32466,"lon":5.36557,"is_reserved":false,"is_disabled":false,"rental_uris":{"android":"levelo://app?vid=6f861c9b-261a-4132-b080-0c0737d0017f","ios":"levelo://app?vid=6f861c9b-261a-4132-b080-0c0737d0017f"},"vehicle_type_id":"4","last_reported":1751912134,"current_range_meters":20800,"station_id":"ce4bhs12rcd13ifvqhvg","pricing_plan_id":"cebpf4jnsgd1na2vs0mg"},{"bike_id":"745dfb7b-14ee-4ad5-aff6-e8958d058e4a","system_id":"levelo_inurba_marseille","lat":43.26811,"lon":5.40252,"is_reserved":false,"is_disabled":false,"rental_uris":{"android":"levelo://app?vid=745dfb7b-14ee-4ad5-aff6-e8958d058e4a","ios":"levelo://app?vid=745dfb7b-14ee-4ad5-aff6-e8958d058e4a"},"vehicle_type_id":"4","last_reported":1751912134,"current_range_meters":20800,"station_id":"ce501612rcd8frsf0b60","pricing_plan_id":"cebpf4jnsgd1na2vs0mg"},{"bike_id":"b287377f-3d0b-47ac-86fe-9e0dfc1563de","system_id":"levelo_inurba_marseille","lat":43.22509,"lon":5.34764,"is_reserved":false,"is_disabled":false,"rental_uris":{"android":"levelo://app?vid=b287377f-3d0b-47ac-86fe-9e0dfc1563de","ios":"levelo://app?vid=b287377f-3d0b-47ac-86fe-9e0dfc1563de"},"vehicle_type_id":"4","last_reported":1751912134,"current_range_meters":20800,"station_id":"st_cvj5dfep6f1abm77gieg","pricing_plan_id":"cebpf4jnsgd1na2vs0mg"},{"bike_id":"a0f22b71-a91c-4bce-825b-af5891f98cff","system_id":"levelo_inurba_marseille","lat":43.29989,"lon":5.38478,"is_reserved":false,"is_disabled":false,"rental_uris":{"android":"levelo://app?vid=a0f22b71-a91c-4bce-825b-af5891f98cff","ios":"levelo://app?vid=a0f22b71-a91c-4bce-825b-af5891f98cff"},"vehicle_type_id":"4","last_reported":1751912134,"current_range_meters":21600,"station_id":"ce4bgj92rcd13ifvqbd0","pricing_plan_id":"cebpf4jnsgd1na2vs0mg"},{"bike_id":"04be41ab-3600-4ce7-991b-310dc8bf48de","system_id":"levelo_inurba_marseille","lat":43.28701,"lon":5.37387,"is_reserved":false,"is_disabled":false,"rental_uris":{"android":"levelo://app?vid=04be41ab-3600-4ce7-991b-310dc8bf48de","ios":"levelo://app?vid=04be41ab-3600-4ce7-991b-310dc8bf48de"},"vehicle_type_id":"4","last_reported":1751912134,"current_range_meters":21600,"station_id":"ce4bh3p2rcd13ifvqdq0","pricing_plan_id":"cebpf4jnsgd1na2vs0mg"},{"bike_id":"566318e1-9980-41b3-8008-729cd9d53158","system_id":"levelo_inurba_marseille","lat":43.28659,"lon":5.36348,"is_reserved":false,"is_disabled":false,"rental_uris":{"android":"levelo://app?vid=566318e1-9980-41b3-8008-729cd9d53158","ios":"levelo://app?vid=566318e1-9980-41b3-8008-729cd9d53158"},"vehicle_type_id":"4","last_reported":1751912134,"current_range_meters":21600,"station_id":"ce4bhah2rcd13ifvqej0","pricing_plan_id":"cebpf4jnsgd1na2vs0mg"},{"bike_id":"f5c16f07-bc6f-4121-91a7-5ad90eec4f34","system_id":"levelo_inurba_marseille","lat":43.31209,"lon":5.373218,"is_reserved":false,"is_disabled":false,"rental_uris":{"android":"levelo://app?vid=f5c16f07-bc6f-4121-91a7-5ad90eec4f34","ios":"levelo://app?vid=f5c16f07-bc6f-4121-91a7-5ad90eec4f34"},"vehicle_type_id":"4","last_reported":1751912134,"current_range_meters":22000,"station_id":"","pricing_plan_id":"cebpf4jnsgd1na2vs0mg"},{"bike_id":"83d65096-d076-4947-9328-4b16f6c9a058","system_id":"levelo_inurba_marseille","lat":43.29526,"lon":5.38538,"is_reserved":false,"is_disabled":false,"rental_uris":{"android":"levelo://app?vid=83d65096-d076-4947-9328-4b16f6c9a058","ios":"levelo://app?vid=83d65096-d076-4947-9328-4b16f6c9a058"},"vehicle_type_id":"4","last_reported":1751912134,"current_range_meters":22000,"station_id":"ce4bgih2rcd13ifvqba0","pricing_plan_id":"cebpf4jnsgd1na2vs0mg"},{"bike_id":"cc1b2903-dac3-4bba-a0d6-c28034bf4a29","system_id":"levelo_inurba_marseille","lat":43.28421,"lon":5.34997,"is_reserved":false,"is_disabled":false,"rental_uris":{"android":"levelo://app?vid=cc1b2903-dac3-4bba-a0d6-c28034bf4a29","ios":"levelo://app?vid=cc1b2903-dac3-4bba-a0d6-c28034bf4a29"},"vehicle_type_id":"4","last_reported":1751912134,"current_range_meters":22000,"station_id":"ce4bhbh2rcd13ifvqepg","pricing_plan_id":"cebpf4jnsgd1na2vs0mg"},{"bike_id":"ffb7b18b-1137-4748-93a1-4097c2b5593b","system_id":"levelo_inurba_marseille","lat":43.27177,"lon":5.40995,"is_reserved":false,"is_disabled":false,"rental_uris":{"android":"levelo://app?vid=ffb7b18b-1137-4748-93a1-4097c2b5593b","ios":"levelo://app?vid=ffb7b18b-1137-4748-93a1-4097c2b5593b"},"vehicle_type_id":"4","last_reported":1751912134,"current_range_meters":22000,"station_id":"ce4bhl12rcd13ifvqgf0","pricing_plan_id":"cebpf4jnsgd1na2vs0mg"},{"bike_id":"18ada8ec-1676-4f33-9f1c-e7b13948f3ee","system_id":"levelo_inurba_marseille","lat":43.21755,"lon":5.34579,"is_reserved":false,"is_disabled":false,"rental_uris":{"android":"levelo://app?vid=18ada8ec-1676-4f33-9f1c-e7b13948f3ee","ios":"levelo://app?vid=18ada8ec-1676-4f33-9f1c-e7b13948f3ee"},"vehicle_type_id":"4","last_reported":1751912134,"current_range_meters":22000,"station_id":"st_cvj6r9ubvosntc0bgbag","pricing_plan_id":"cebpf4jnsgd1na2vs0mg"},{"bike_id":"fdea2d39-3cba-45fa-8f1f-2a67d2170a43","system_id":"levelo_inurba_marseille","lat":43.29799,"lon":5.38097,"is_reserved":false,"is_disabled":false,"rental_uris":{"android":"levelo://app?vid=fdea2d39-3cba-45fa-8f1f-2a67d2170a43","ios":"levelo://app?vid=fdea2d39-3cba-45fa-8f1f-2a67d2170a43"},"vehicle_type_id":"4","last_reported":1751912134,"current_range_meters":22400,"station_id":"ce4bgip2rcd13ifvqbb0","pricing_plan_id":"cebpf4jnsgd1na2vs0mg"},{"bike_id":"5a5872c6-a97c-4e06-96d5-1828b33141df","system_id":"levelo_inurba_marseille","lat":43.31242,"lon":5.36865,"is_reserved":false,"is_disabled":false,"rental_uris":{"android":"levelo://app?vid=5a5872c6-a97c-4e06-96d5-1828b33141df","ios":"levelo://app?vid=5a5872c6-a97c-4e06-96d5-1828b33141df"},"vehicle_type_id":"4","last_reported":1751912134,"current_range_meters":22400,"station_id":"ce4bgl92rcd13ifvqbq0","pricing_plan_id":"cebpf4jnsgd1na2vs0mg"},