{"last_updated":1736535997,"ttl":60,"version":"2.2","data":{"bikes":[{"bike_id":"13651857-1f8b-438f-8787-5a938cced51f","system_id":"levelo_inurba_marseille","lat":43.32294,"lon":5.38263,"is_reserved":false,"is_disabled":false,"rental_uris":{"android":"levelo://app?vid=13651857-1f8b-438f-8787-5a938cced51f","ios":"levelo://app?vid=13651857-1f8b-438f-8787-5a938cced51f"},"vehicle_type_id":"4","last_reported":1736535998,"current_range_meters":30000,"station_id":"ce4bhr12rcd13ifvqhqg","pricing_plan_id":"cebpf4jnsgd1na2vs0mg"},{"bike_id":"14a8245a-9128-40d3-8265-cf1423d2fdc8","system_id":"levelo_inurba_marseille","lat":43.24785,"lon":5.37479,"is_reserved":false,"is_disabled":false,"rental_uris":{"android":"levelo://app?vid=14a8245a-9128-40d3-8265-cf1423d2fdc8","ios":"levelo://app?vid=14a8245a-9128-40d3-8265-cf1423d2fdc8"},"vehicle_type_id":"4","last_reported":1736535998,"current_range_meters":38800,"station_id":"ce4bhgh2rcd13ifvqfb0","pricing_plan_id":"cebpf4jnsgd1na2vs0mg"},{"bike_id":"d4b06b90-36bb-4ab0-af4e-3334c9d4e6d4","system_id":"levelo_inurba_marseille","lat":43.23414,"lon":5.35886,"is_reserved":false,"is_disabled":false,"rental_uris":{"android":"levelo://app?vid=d4b06b90-36bb-4ab0-af4e-3334c9d4e6d4","ios":"levelo://app?vid=d4b06b90-36bb-4ab0-af4e-3334c9d4e6d4"},"vehicle_type_id":"4","last_reported":1736535998,"current_range_meters":9200,"station_id":"","pricing_plan_id":"cebpf4jnsgd1na2vs0mg"},{"bike_id":"9ff24b9e-60a3-48d4-8cde-0ae6dfde2dc8","system_id":"levelo_inurba_marseille","lat":43.33019,"lon":5.39029,"is_reserved":false,"is_disabled":false,"rental_uris":{"android":"levelo://app?vid=9ff24b9e-60a3-48d4-8cde-0ae6dfde2dc8","ios":"levelo://app?vid=9ff24b9e-60a3-48d4-8cde-0ae6dfde2dc8"},"vehicle_type_id":"4","last_reported":1736535998,"current_range_meters":32800,"station_id":"ce4bhr92rcd13ifvqhrg","pricing_plan_id":"cebpf4jnsgd1na2vs0mg"},{"bike_id":"3b123673-8d4f-4068-abd8-f46ee5ced2ff","system_id":"levelo_inurba_marseille","lat":43.2846,"lon":5.35904,"is_reserved":false,"is_disabled":false,"rental_uris":{"android":"levelo://app?vid=3b123673-8d4f-4068-abd8-f46ee5ced2ff","ios":"levelo://app?vid=3b123673-8d4f-4068-abd8-f46ee5ced2ff"},"vehicle_type_id":"4","last_reported":1736535998,"current_range_meters":14800,"station_id":"ce4bhah2rcd13ifvqei0","pricing_plan_id":"cebpf4jnsgd1na2vs0mg"},{"bike_id":"42034ff5-e6b0-40c2-8baa-a33bc13731d4","system_id":"levelo_inurba_marseille","lat":43.25947,"lon":5.40829,"is_reserved":false,"is_disabled":true,"rental_uris":{"android":"levelo://app?vid=42034ff5-e6b0-40c2-8baa-a33bc13731d4","ios":"levelo://app?vid=42034ff5-e6b0-40c2-8baa-a33bc13731d4"},"vehicle_type_id":"4","last_reported":1736535998,"current_range_meters":28400,"station_id":"ce4bhm92rcd13ifvqglg","pricing_plan_id":"cebpf4jnsgd1na2vs0mg"},{"bike_id":"b42b4098-2c50-4c63-a4f6-ba0511986cc1","system_id":"levelo_inurba_marseille","lat":43.30783,"lon":5.37655,"is_reserved":false,"is_disabled":false,"rental_uris":{"android":"levelo://app?vid=b42b4098-2c50-4c63-a4f6-ba0511986cc1","ios":"levelo://app?vid=b42b4098-2c50-4c63-a4f6-ba0511986cc1"},"vehicle_type_id":"4","last_reported":1736535998,"current_range_meters":18000,"station_id":"ce4bgv92rcd13ifvqcq0","pricing_plan_id":"cebpf4jnsgd1na2vs0mg"},{"bike_id":"02fa8d23-b641-466a-8661-f76f63fb8c6e","system_id":"levelo_inurba_marseille","lat":43.31534,"lon":5.38054,"is_reserved":false,"is_disabled":false,"rental_uris":{"android":"levelo://app?vid=02fa8d23-b641-466a-8661-f76f63fb8c6e","ios":"levelo://app?vid=02fa8d23-b641-466a-8661-f76f63fb8c6e"},"vehicle_type_id":"4","last_reported":1736535998,"current_range_meters":39200,"station_id":"ce4bhsp2rcd13ifvqi50","pricing_plan_id":"cebpf4jnsgd1na2vs0mg"},{"bike_id":"aa2332c8-a1ac-4a53-b8bb-8e59bfb82d5d","system_id":"levelo_inurba_marseille","lat":43.29532,"lon":5.39395,"is_reserved":false,"is_disabled":false,"rental_uris":{"android":"levelo://app?vid=aa2332c8-a1ac-4a53-b8bb-8e59bfb82d5d","ios":"levelo://app?vid=aa2332c8-a1ac-4a53-b8bb-8e59bfb82d5d"},"vehicle_type_id":"4","last_reported":1736535998,"current_range_meters":8400,"station_id":"ce4bh292rcd13ifvqdf0","pricing_plan_id":"cebpf4jnsgd1na2vs0mg"},{"bike_id":"cca8daa2-835d-4373-8bf2-da5672d50807","system_id":"levelo_inurba_marseille","lat":43.28578,"lon":5.3951,"is_reserved":false,"is_disabled":false,"rental_uris":{"android":"levelo://app?vid=cca8daa2-835d-4373-8bf2-da5672d50807","ios":"levelo://app?vid=cca8daa2-835d-4373-8bf2-da5672d50807"},"vehicle_type_id":"4","last_reported":1736535998,"current_range_meters":6800,"station_id":"ce4bh292rcd13ifvqdg0","pricing_plan_id":"cebpf4jnsgd1na2vs0mg"},{"bike_id":"a444a04d-7a75-4bb0-b921-23a4f692b157","system_id":"levelo_inurba_marseille","lat":43.2466,"lon":5.38886,"is_reserved":false,"is_disabled":false,"rental_uris":{"android":"levelo://app?vid=a444a04d-7a75-4bb0-b921-23a4f692b157","ios":"levelo://app?vid=a444a04d-7a75-4bb0-b921-23a4f692b157"},"vehicle_type_id":"4","last_reported":1736535998,"current_range_meters":22800,"station_id":"ce4bhg12rcd13ifvqf60","pricing_plan_id":"cebpf4jnsgd1na2vs0mg"},{"bike_id":"61d00f97-10b2-4b28-a5e0-2844beaa9171","system_id":"levelo_inurba_marseille","lat":43.32289,"lon":5.3826,"is_reserved":false,"is_disabled":false,"rental_uris":{"android":"levelo://app?vid=61d00f97-10b2-4b28-a5e0-2844beaa9171","ios":"levelo://app?vid=61d00f97-10b2-4b28-a5e0-2844beaa9171"},"vehicle_type_id":"4","last_reported":1736535998,"current_range_meters":9600,"station_id":"ce4bhr12rcd13ifvqhqg","pricing_plan_id":"cebpf4jnsgd1na2vs0mg"},{"bike_id":"d4b0d3b8-b55c-46b1-bf50-78e817a5872f","system_id":"levelo_inurba_marseille","lat":43.24179,"lon":5.39728,"is_reserved":false,"is_disabled":false,"rental_uris":{"android":"levelo://app?vid=d4b0d3b8-b55c-46b1-bf50-78e817a5872f","ios":"levelo://app?vid=d4b0d3b8-b55c-46b1-bf50-78e817a5872f"},"vehicle_type_id":"4","last_reported":1736535998,"current_range_meters":28000,"station_id":"ce4bhn12rcd13ifvqgpg","pricing_plan_id":"cebpf4jnsgd1na2vs0mg"},{"bike_id":"4a1197e9-1d8f-4601-b512-fd7b383aeec4","system_id":"levelo_inurba_marseille","lat":43.23966,"lon":5.36634,"is_reserved":false,"is_disabled":false,"rental_uris":{"android":"levelo://app?vid=4a1197e9-1d8f-4601-b512-fd7b383aeec4","ios":"levelo://app?vid=4a1197e9-1d8f-4601-b512-fd7b383aeec4"},"vehicle_type_id":"4","last_reported":1736535998,"current_range_meters":21600,"station_id":"ce4bhi12rcd13ifvqfp0","pricing_plan_id":"cebpf4jnsgd1na2vs0mg"},{"bike_id":"70e5863f-1c12-4818-a9fb-3907bcec5526","system_id":"levelo_inurba_marseille","lat":43.25713,"lon":5.41106,"is_reserved":false,"is_disabled":false,"rental_uris":{"android":"levelo://app?vid=70e5863f-1c12-4818-a9fb-3907bcec5526","ios":"levelo://app?vid=70e5863f-1c12-4818-a9fb-3907bcec5526"},"vehicle_type_id":"4","last_reported":1736535998,"current_range_meters":24400,"station_id":"ce4bhkp2rcd13ifvqgd0","pricing_plan_id":"cebpf4jnsgd1na2vs0mg"},{"bike_id":"9b9f7a00-78fa-4c6e-9a55-5c7cdd99b601","system_id":"levelo_inurba_marseille","lat":43.28022,"lon":5.36905,"is_reserved":false,"is_disabled":false,"rental_uris":{"android":"levelo://app?vid=9b9f7a00-78fa-4c6e-9a55-5c7cdd99b601","ios":"levelo://app?vid=9b9f7a00-78fa-4c6e-9a55-5c7cdd99b601"},"vehicle_type_id":"4","last_reported":1736535998,"current_range_meters":38800,"station_id":"ce4bha12rcd13ifvqef0","pricing_plan_id":"cebpf4jnsgd1na2vs0mg"},{"bike_id":"53a52b51-5db7-42c5-801a-ba7ae5abcf6c","system_id":"levelo_inurba_marseille","lat":43.30434,"lon":5.389,"is_reserved":false,"is_disabled":false,"rental_uris":{"android":"levelo://app?vid=53a52b51-5db7-42c5-801a-ba7ae5abcf6c","ios":"levelo://app?vid=53a52b51-5db7-42c5-801a-ba7ae5abcf6c"},"vehicle_type_id":"4","last_reported":1736535998,"current_range_meters":30800,"station_id":"ce4bgk12rcd13ifvqbi0","pricing_plan_id":"cebpf4jnsgd1na2vs0mg"},{"bike_id":"13b473bc-816f-467e-ae12-cfad637a890c","system_id":"levelo_inurba_marseille","lat":43.27426,"lon":5.394,"is_reserved":false,"is_disabled":true,"rental_uris":{"android":"levelo://app?vid=13b473bc-816f-467e-ae12-cfad637a890c","ios":"levelo://app?vid=13b473bc-816f-467e-ae12-cfad637a890c"},"vehicle_type_id":"4","last_reported":1736535998,"current_range_meters":800,"station_id":"ce4bhdp2rcd13ifvqf20","pricing_plan_id":"cebpf4jnsgd1na2vs0mg"},{"bike_id":"dffbbb25-2165-42a0-aab0-b8331c3e0eec","system_id":"levelo_inurba_marseille","lat":43.26063,"lon":5.39394,"is_reserved":false,"is_disabled":false,"rental_uris":{"android":"levelo://app?vid=dffbbb25-2165-42a0-aab0-b8331c3e0eec","ios":"levelo://app?vid=dffbbb25-2165-42a0-aab0-b8331c3e0eec"},"vehicle_type_id":"4","last_reported":1736535998,"current_range_meters":27600,"station_id":"ce4bhh92rcd13ifvqfj0","pricing_plan_id":"cebpf4jnsgd1na2vs0mg"},{"bike_id":"e9c300c1-93e2-4fc5-bf64-e457d9629d55","system_id":"levelo_inurba_marseille","lat":43.29627,"lon":5.40602,"is_reserved":false,"is_disabled":false,"rental_uris":{"android":"levelo://app?vid=e9c300c1-93e2-4fc5-bf64-e457d9629d55","ios":"levelo://app?vid=e9c300c1-93e2-4fc5-bf64-e457d9629d55"},"vehicle_type_id":"4","last_reported":1736535998,"current_range_meters":19600,"station_id":"ce4bh0h2rcd13ifvqd60","pricing_plan_id":"cebpf4jnsgd1na2vs0mg"},{"bike_id":"004c2ac5-7f25-4e48-8a80-9a02537f6ba6","system_id":"levelo_inurba_marseille","lat":43.32113,"lon":5.36781,"is_reserved":false,"is_disabled":false,"rental_uris":{"android":"levelo://app?vid=004c2ac5-7f25-4e48-8a80-9a02537f6ba6","ios":"levelo://app?vid=004c2ac5-7f25-4e48-8a80-9a02537f6ba6"},"vehicle_type_id":"4","last_reported":1736535998,"current_range_meters":34800,"station_id":"ce4bhrh2rcd13ifvqhug","pricing_plan_id":"cebpf4jnsgd1na2vs0mg"},{"bike_id":"050bbaa6-b7d5-45bc-954b-2ae690edde0f","system_id":"levelo_inurba_marseille","lat":43.29029,"lon":5.38134,"is_reserved":false,"is_disabled":false,"rental_uris":{"android":"levelo://app?vid=050bbaa6-b7d5-45bc-954b-2ae690edde0f","ios":"levelo://app?vid=050bbaa6-b7d5-45bc-954b-2ae690edde0f"},"vehicle_type_id":"4","last_reported":1736535998,"current_range_meters":26800,"station_id":"ce4bh4p2rcd13ifvqe1g","pricing_plan_id":"cebpf4jnsgd1na2vs0mg"},{"bike_id":"aca9d58c-8821-4d79-88c1-67c3a044952f","system_id":"levelo_inurba_marseille","lat":43.330345,"lon":5.39028,"is_reserved":false,"is_disabled":false,"rental_uris":{"android":"levelo://app?vid=aca9d58c-8821-4d79-88c1-67c3a044952f","ios":"levelo://app?vid=aca9d58c-8821-4d79-88c1-67c3a044952f"},"vehicle_type_id":"4","last_reported":1736535998,"current_range_meters":24800,"station_id":"ce4bhr92rcd13ifvqhrg","pricing_plan_id":"cebpf4jnsgd1na2vs0mg"},{"bike_id":"86cd1141-6e96-4c04-94b3-22ca752a46a1","system_id":"levelo_inurba_marseille","lat":43.23183,"lon":5.39991,"is_reserved":false,"is_disabled":false,"rental_uris":{"android":"levelo://app?vid=86cd1141-6e96-4c04-94b3-22ca752a46a1","ios":"levelo://app?vid=86cd1141-6e96-4c04-94b3-22ca752a46a1"},"vehicle_type_id":"4","last_reported":1736535998,"current_range_meters":16400,"station_id":"ce4bhn12rcd13ifvqgqg","pricing_plan_id":"cebpf4jnsgd1na2vs0mg"},{"bike_id":"0754a3a6-d8ad-4e11-a0fd-2e381f851794","system_id":"levelo_inurba_marseille","lat":43.33731,"lon":5.39184,"is_reserved":false,"is_disabled":false,"rental_uris":{"android":"levelo://app?vid=0754a3a6-d8ad-4e11-a0fd-2e381f851794","ios":"levelo://app?vid=0754a3a6-d8ad-4e11-a0fd-2e381f851794"},"vehicle_type_id":"4","last_reported":1736535998,"current_range_meters":5600,"station_id":"ce4bhr92rcd13ifvqhsg","pricing_plan_id":"cebpf4jnsgd1na2vs0mg"},{"bike_id":"ba43f1cb-442f-415b-aaf2-ab3a50e56056","system_id":"levelo_inurba_marseille","lat":43.23964,"lon":5.36626,"is_reserved":false,"is_disabled":false,"rental_uris":{"android":"levelo://app?vid=ba43f1cb-442f-415b-aaf2-ab3a50e56056","ios":"levelo://app?vid=ba43f1cb-442f-415b-aaf2-ab3a50e56056"},"vehicle_type_id":"4","last_reported":1736535998,"current_range_meters":9200,"station_id":"ce4bhi12rcd13ifvqfp0","pricing_plan_id":"cebpf4jnsgd1na2vs0mg"},{"bike_id":"37f5b579-385d-49b9-9ce5-eb3b08892a6b","system_id":"levelo_inurba_marseille","lat":43.27999,"lon":5.40006,"is_reserved":false,"is_disabled":false,"rental_uris":{"android":"levelo://app?vid=37f5b579-385d-49b9-9ce5-eb3b08892a6b","ios":"levelo://app?vid=37f5b579-385d-49b9-9ce5-eb3b08892a6b"},"vehicle_type_id":"4","last_reported":1736535998,"current_range_meters":17600,"station_id":"ce4bho92rcd13ifvqh4g","pricing_plan_id":"cebpf4jnsgd1na2vs0mg"},{"bike_id":"c1dea8eb-dedb-48c3-82b9-ba4d059a0755","system_id":"levelo_inurba_marseille","lat":43.26546,"lon":5.37279,"is_reserved":false,"is_disabled":true,"rental_uris":{"android":"levelo://app?vid=c1dea8eb-dedb-48c3-82b9-ba4d059a0755","ios":"levelo://app?vid=c1dea8eb-dedb-48c3-82b9-ba4d059a0755"},"vehicle_type_id":"4","last_reported":1736535998,"current_range_meters":12800,"station_id":"ce4bhg12rcd13ifvqf70","pricing_plan_id":"cebpf4jnsgd1na2vs0mg"},{"bike_id":"666c0c92-428a-4f95-8531-2a4d6f4a5bb0","system_id":"levelo_inurba_marseille","lat":43.24677,"lon":5.3815,"is_reserved":false,"is_disabled":false,"rental_uris":{"android":"levelo://app?vid=666c0c92-428a-4f95-8531-2a4d6f4a5bb0","ios":"levelo://app?vid=666c0c92-428a-4f95-8531-2a4d6f4a5bb0"},"vehicle_type_id":"4","last_reported":1736535998,"current_range_meters":10800,"station_id":"ce4bhih2rcd13ifvqfr0","pricing_plan_id":"cebpf4jnsgd1na2vs0mg"},{"bike_id":"3e35ef7b-3237-4c6e-a7b1-693543e13672","system_id":"levelo_inurba_marseille","lat":43.24656,"lon":5.38893,"is_reserved":false,"is_disabled":false,"rental_uris":{"android":"levelo://app?vid=3e35ef7b-3237-4c6e-a7b1-693543e13672","ios":"levelo://app?vid=3e35ef7b-3237-4c6e-a7b1-693543e13672"},"vehicle_type_id":"4","last_reported":1736535998,"current_range_meters":32000,"station_id":"ce4bhg12rcd13ifvqf60","pricing_plan_id":"cebpf4jnsgd1na2vs0mg"},{"bike_id":"70288361-f4e5-4843-8676-92bd7962b8cc","system_id":"levelo_inurba_marseille","lat":43.30797,"lon":5.43528,"is_reserved":false,"is_disabled":false,"rental_uris":{"android":"levelo://app?vid=70288361-f4e5-4843-8676-92bd7962b8cc","ios":"levelo://app?vid=70288361-f4e5-4843-8676-92bd7962b8cc"},"vehicle_type_id":"4","last_reported":1736535998,"current_range_meters":20400,"station_id":"ce4bhph2rcd13ifvqheg","pricing_plan_id":"cebpf4jnsgd1na2vs0mg"},{"bike_id":"71cf82d9-2798-42b4-a4cc-4ab59dd88803","system_id":"levelo_inurba_marseille","lat":43.2319,"lon":5.39984,"is_reserved":false,"is_disabled":false,"rental_uris":{"android":"levelo://app?vid=71cf82d9-2798-42b4-a4cc-4ab59dd88803","ios":"levelo://app?vid=71cf82d9-2798-42b4-a4cc-4ab59dd88803"},"vehicle_type_id":"4","last_reported":1736535998,"current_range_meters":10000,"station_id":"ce4bhn12rcd13ifvqgqg","pricing_plan_id":"cebpf4jnsgd1na2vs0mg"},{"bike_id":"dcb2126a-d21d-4ccc-8dd5-f93c643abd4d","system_id":"levelo_inurba_marseille","lat":43.28937,"lon":5.38374,"is_reserved":false,"is_disabled":true,"rental_uris":{"android":"levelo://app?vid=dcb2126a-d21d-4ccc-8dd5-f93c643abd4d","ios":"levelo://app?vid=dcb2126a-d21d-4ccc-8dd5-f93c643abd4d"},"vehicle_type_id":"4","last_reported":1736535998,"current_range_meters":11600,"station_id":"ce4bh612rcd13ifvqe6g","pricing_plan_id":"cebpf4jnsgd1na2vs0mg"},{"bike_id":"40aa582d-815a-4ab4-b49f-d3b3d622ee04","system_id":"levelo_inurba_marseille","lat":43.23058,"lon":5.35489,"is_reserved":false,"is_disabled":false,"rental_uris":{"android":"levelo://app?vid=40aa582d-815a-4ab4-b49f-d3b3d622ee04","ios":"levelo://app?vid=40aa582d-815a-4ab4-b49f-d3b3d622ee04"},"vehicle_type_id":"4","last_reported":1736535998,"current_range_meters":7200,"station_id":"cpo3342slgdg3j2ifvpg","pricing_plan_id":"cebpf4jnsgd1na2vs0mg"},{"bike_id":"6b750947-fb43-40e2-9931-495446cc2b3f","system_id":"levelo_inurba_marseille","lat":43.22929,"lon":5.35382,"is_reserved":false,"is_disabled":false,"rental_uris":{"android":"levelo://app?vid=6b750947-fb43-40e2-9931-495446cc2b3f","ios":"levelo://app?vid=6b750947-fb43-40e2-9931-495446cc2b3f"},"vehicle_type_id":"4","last_reported":1736535998,"current_range_meters":38800,"station_id":"cpo3532slgdg3j2ikp40","pricing_plan_id":"cebpf4jnsgd1na2vs0mg"},{"bike_id":"ff2c2bca-3414-42ec-84b3-88ded4185c90","system_id":"levelo_inurba_marseille","lat":43.32001,"lon":5.38163,"is_reserved":false,"is_disabled":false,"rental_uris":{"android":"levelo://app?vid=ff2c2bca-3414-42ec-84b3-88ded4185c90","ios":"levelo://app?vid=ff2c2bca-3414-42ec-84b3-88ded4185c90"},"vehicle_type_id":"4","last_reported":1736535998,"current_range_meters":12400,"station_id":"ce4bhr12rcd13ifvqhpg","pricing_plan_id":"cebpf4jnsgd1na2vs0mg"},{"bike_id":"a695196c-79fc-477c-ba43-5e8d0411f6ec","system_id":"levelo_inurba_marseille","lat":43.30202,"lon":5.39455,"is_reserved":false,"is_disabled":false,"rental_uris":{"android":"levelo://app?vid=a695196c-79fc-477c-ba43-5e8d0411f6ec","ios":"levelo://app?vid=a695196c-79fc-477c-ba43-5e8d0411f6ec"},"vehicle_type_id":"4","last_reported":1736535998,"current_range_meters":36800,"station_id":"ce4bh0p2rcd13ifvqd70","pricing_plan_id":"cebpf4jnsgd1na2vs0mg"},{"bike_id":"5b79b006-d7c3-4b04-9541-c9d77e2d63cb","system_id":"levelo_inurba_marseille","lat":43.31698,"lon":5.40456,"is_reserved":false,"is_disabled":true,"rental_uris":{"android":"levelo://app?vid=5b79b006-d7c3-4b04-9541-c9d77e2d63cb","ios":"levelo://app?vid=5b79b006-d7c3-4b04-9541-c9d77e2d63cb"},"vehicle_type_id":"4","last_reported":1736535998,"current_range_meters":16000,"station_id":"ce4bh012rcd13ifvqd00","pricing_plan_id":"cebpf4jnsgd1na2vs0mg"},{"bike_id":"1f5ef9f6-050f-4f79-a9ce-badba66ed461","system_id":"levelo_inurba_marseille","lat":43.285872,"lon":5.400371,"is_reserved":false,"is_disabled":false,"rental_uris":{"android":"levelo://app?vid=1f5ef9f6-050f-4f79-a9ce-badba66ed461","ios":"levelo://app?vid=1f5ef9f6-050f-4f79-a9ce-badba66ed461"},"vehicle_type_id":"4","last_reported":1736535998,"current_range_meters":24000,"station_id":"","pricing_plan_id":"cebpf4jnsgd1na2vs0mg"},{"bike_id":"4af16076-0c4c-4b77-bf13-a9dfad761f4a","system_id":"levelo_inurba_marseille","lat":43.26043,"lon":5.37546,"is_reserved":false,"is_disabled":false,"rental_uris":{"android":"levelo://app?vid=4af16076-0c4c-4b77-bf13-a9dfad761f4a","ios":"levelo://app?vid=4af16076-0c4c-4b77-bf13-a9dfad761f4a"},"vehicle_type_id":"4","last_reported":1736535998,"current_range_meters":33600,"station_id":"ce4bhgh2rcd13ifvqfa0","pricing_plan_id":"cebpf4jnsgd1na2vs0mg"},{"bike_id":"79da2544-1cc6-4479-aa5c-48161bc5839b","system_id":"levelo_inurba_marseille","lat":43.30432,"lon":5.39759,"is_reserved":false,"is_disabled":true,"rental_uris":{"android":"levelo://app?vid=79da2544-1cc6-4479-aa5c-48161bc5839b","ios":"levelo://app?vid=79da2544-1cc6-4479-aa5c-48161bc5839b"},"vehicle_type_id":"4","last_reported":1736535998,"current_range_meters":30000,"station_id":"ce4bh092rcd13ifvqd20","pricing_plan_id":"cebpf4jnsgd1na2vs0mg"},{"bike_id":"bafb4831-0f69-4548-849e-2d3165940491","system_id":"levelo_inurba_marseille","lat":43.25719,"lon":5.41112,"is_reserved":false,"is_disabled":true,"rental_uris":{"android":"levelo://app?vid=bafb4831-0f69-4548-849e-2d3165940491","ios":"levelo://app?vid=bafb4831-0f69-4548-849e-2d3165940491"},"vehicle_type_id":"4","last_reported":1736535998,"current_range_meters":1600,"station_id":"ce4bhkp2rcd13ifvqgd0","pricing_plan_id":"cebpf4jnsgd1na2vs0mg"},{"bike_id":"6d907632-b7a4-409f-98d5-031bae93ab87","system_id":"levelo_inurba_marseille","lat":43.23966,"lon":5.36625,"is_reserved":false,"is_disabled":false,"rental_uris":{"android":"levelo://app?vid=6d907632-b7a4-409f-98d5-031bae93ab87","ios":"levelo://app?vid=6d907632-b7a4-409f-98d5-031bae93ab87"},"vehicle_type_id":"4","last_reported":1736535998,"current_range_meters":38800,"station_id":"ce4bhi12rcd13ifvqfp0","pricing_plan_id":"cebpf4jnsgd1na2vs0mg"},{"bike_id":"053e4b73-bac5-44cd-8531-b46e62b916c4","system_id":"levelo_inurba_marseille","lat":43.30296,"lon":5.39216,"is_reserved":false,"is_disabled":false,"rental_uris":{"android":"levelo://app?vid=053e4b73-bac5-44cd-8531-b46e62b916c4","ios":"levelo://app?vid=053e4b73-bac5-44cd-8531-b46e62b916c4"},"vehicle_type_id":"4","last_reported":1736535998,"current_range_meters":6400,"station_id":"ce4bgkh2rcd13ifvqbk0","pricing_plan_id":"cebpf4jnsgd1na2vs0mg"},{"bike_id":"a4666914-9d31-4e0d-9ace-69110f90bfde","system_id":"levelo_inurba_marseille","lat":43.29708,"lon":5.36602,"is_reserved":false,"is_disabled":false,"rental_uris":{"android":"levelo://app?vid=a4666914-9d31-4e0d-9ace-69110f90bfde","ios":"levelo://app?vid=a4666914-9d31-4e0d-9ace-69110f90bfde"},"vehicle_type_id":"4","last_reported":1736535998,"current_range_meters":14800,"station_id":"ce4bgn12rcd13ifvqbt0","pricing_plan_id":"cebpf4jnsgd1na2vs0mg"},{"bike_id":"8e9d94e5-296e-4113-bd08-a5a9e8acc281","system_id":"levelo_inurba_marseille","lat":43.28083,"lon":5.39644,"is_reserved":false,"is_disabled":false,"rental_uris":{"android":"levelo://app?vid=8e9d94e5-296e-4113-bd08-a5a9e8acc281","ios":"levelo://app?vid=8e9d94e5-296e-4113-bd08-a5a9e8acc281"},"vehicle_type_id":"4","last_reported":1736535998,"current_range_meters":28400,"station_id":"ce4bho12rcd13ifvqh2g","pricing_plan_id":"cebpf4jnsgd1na2vs0mg"},{"bike_id":"44e88ca7-4bfe-4c16-8a2e-d8cbf24b24bc","system_id":"levelo_inurba_marseille","lat":43.25085,"lon":5.39505,"is_reserved":false,"is_disabled":false,"rental_uris":{"android":"levelo://app?vid=44e88ca7-4bfe-4c16-8a2e-d8cbf24b24bc","ios":"levelo://app?vid=44e88ca7-4bfe-4c16-8a2e-d8cbf24b24bc"},"vehicle_type_id":"4","last_reported":1736535998,"current_range_meters":36800,"station_id":"ce4bhm12rcd13ifvqgkg","pricing_plan_id":"cebpf4jnsgd1na2vs0mg"},{"bike_id":"d8327471-e10e-4e1d-a46b-c43156fc0620","system_id":"levelo_inurba_marseille","lat":43.26835,"lon":5.39468,"is_reserved":false,"is_disabled":true,"rental_uris":{"android":"levelo://app?vid=d8327471-e10e-4e1d-a46b-c43156fc0620","ios":"levelo://app?vid=d8327471-e10e-4e1d-a46b-c43156fc0620"},"vehicle_type_id":"4","last_reported":1736535998,"current_range_meters":2800,"station_id":"ce4bhh12rcd13ifvqfg0","pricing_plan_id":"cebpf4jnsgd1na2vs0mg"},{"bike_id":"4ff123e4-f567-4877-bc37-02b5b51c4f29","system_id":"levelo_inurba_marseille","lat":43.27991,"lon":5.40024,"is_reserved":false,"is_disabled":true,"rental_uris":{"android":"levelo://app?vid=4ff123e4-f567-4877-bc37-02b5b51c4f29","ios":"levelo://app?vid=4ff123e4-f567-4877-bc37-02b5b51c4f29"},"vehicle_type_id":"4","last_reported":1736535998,"current_range_meters":4800,"station_id":"ce4bho92rcd13ifvqh4g","pricing_plan_id":"cebpf4jnsgd1na2vs0mg"},{"bike_id":"031ab0a1-410e-4f10-991f-602853e84d5f","system_id":"levelo_inurba_marseille","lat":43.29626,"lon":5.40606,"is_reserved":false,"is_disabled":false,"rental_uris":{"android":"levelo://app?vid=031ab0a1-410e-4f10-991f-602853e84d5f","ios":"levelo://app?vid=031ab0a1-410e-4f10-991f-602853e84d5f"},"vehicle_type_id":"4","last_reported":1736535998,"current_range_meters":19200,"station_id":"ce4bh0h2rcd13ifvqd60","pricing_plan_id":"cebpf4jnsgd1na2vs0mg"},{"bike_id":"1e4652f2-30e2-4f03-86f9-f7057516dcd0","system_id":"levelo_inurba_marseille","lat":43.29653,"lon":5.40193,"is_reserved":false,"is_disabled":false,"rental_uris":{"android":"levelo://app?vid=1e4652f2-30e2-4f03-86f9-f7057516dcd0","ios":"levelo://app?vid=1e4652f2-30e2-4f03-86f9-f7057516dcd0"},"vehicle_type_id":"4","last_reported":1736535998,"current_range_meters":24800,"station_id":"","pricing_plan_id":"cebpf4jnsgd1na2vs0mg"},{"bike_id":"f8f038bf-963e-4cc7-92aa-d346a08a0d6a","system_id":"levelo_inurba_marseille","lat":43.27427,"lon":5.39403,"is_reserved":false,"is_disabled":false,"rental_uris":{"android":"levelo://app?vid=f8f038bf-963e-4cc7-92aa-d346a08a0d6a","ios":"levelo://app?vid=f8f038bf-963e-4cc7-92aa-d346a08a0d6a"},"vehicle_type_id":"4","last_reported":1736535998,"current_range_meters":37600,"station_id":"ce4bhdp2rcd13ifvqf20","pricing_plan_id":"cebpf4jnsgd1na2vs0mg"},{"bike_id":"c0b21104-fdbd-4548-a6af-f0a8553ce1f9","system_id":"levelo_inurba_marseille","lat":43.33016,"lon":5.39027,"is_reserved":false,"is_disabled":false,"rental_uris":{"android":"levelo://app?vid=c0b21104-fdbd-4548-a6af-f0a8553ce1f9","ios":"levelo://app?vid=c0b21104-fdbd-4548-a6af-f0a8553ce1f9"},"vehicle_type_id":"4","last_reported":1736535998,"current_range_meters":19600,"station_id":"ce4bhr92rcd13ifvqhrg","pricing_plan_id":"cebpf4jnsgd1na2vs0mg"},{"bike_id":"426ee80e-06b0-4d0f-86a5-ea8ad64aaa11","system_id":"levelo_inurba_marseille","lat":43.289223,"lon":5.437597,"is_reserved":false,"is_disabled":false,"rental_uris":{"android":"levelo://app?vid=426ee80e-06b0-4d0f-86a5-ea8ad64aaa11","ios":"levelo://app?vid=426ee80e-06b0-4d0f-86a5-ea8ad64aaa11"},"vehicle_type_id":"4","last_reported":1736535998,"current_range_meters":20400,"station_id":"","pricing_plan_id":"cebpf4jnsgd1na2vs0mg"},{"bike_id":"b5103514-ecb5-46ab-bfdd-0990d9161650","system_id":"levelo_inurba_marseille","lat":43.28619,"lon":5.3511,"is_reserved":false,"is_disabled":false,"rental_uris":{"android":"levelo://app?vid=b5103514-ecb5-46ab-bfdd-0990d9161650","ios":"levelo://app?vid=b5103514-ecb5-46ab-bfdd-0990d9161650"},"vehicle_type_id":"4","last_reported":1736535998,"current_range_meters":3600,"station_id":"ce4bhch2rcd13ifvqeug","pricing_plan_id":"cebpf4jnsgd1na2vs0mg"},{"bike_id":"2039bc11-10bb-4f26-8c10-683967de2914","system_id":"levelo_inurba_marseille","lat":43.3302,"lon":5.3905,"is_reserved":false,"is_disabled":false,"rental_uris":{"android":"levelo://app?vid=2039bc11-10bb-4f26-8c10-683967de2914","ios":"levelo://app?vid=2039bc11-10bb-4f26-8c10-683967de2914"},"vehicle_type_id":"4","last_reported":1736535998,"current_range_meters":20400,"station_id":"ce4bhr92rcd13ifvqhrg","pricing_plan_id":"cebpf4jnsgd1na2vs0mg"},{"bike_id":"21de303c-9435-42be-bb81-2da87d499e1f","system_id":"levelo_inurba_marseille","lat":43.31495,"lon":5.37309,"is_reserved":false,"is_disabled":false,"rental_uris":{"android":"levelo://app?vid=21de303c-9435-42be-bb81-2da87d499e1f","ios":"levelo://app?vid=21de303c-9435-42be-bb81-2da87d499e1f"},"vehicle_type_id":"4","last_reported":1736535998,"current_range_meters":22000,"station_id":"ce4bgt12rcd13ifvqcd0","pricing_plan_id":"cebpf4jnsgd1na2vs0mg"},{"bike_id":"314d0b94-da02-4586-aafe-32947b2151c1","system_id":"levelo_inurba_marseille","lat":43.25827,"lon":5.39417,"is_reserved":false,"is_disabled":true,"rental_uris":{"android":"levelo://app?vid=314d0b94-da02-4586-aafe-32947b2151c1","ios":"levelo://app?vid=314d0b94-da02-4586-aafe-32947b2151c1"},"vehicle_type_id":"4","last_reported":1736535998,"current_range_meters":8000,"station_id":"ce4bhip2rcd13ifvqft0","pricing_plan_id":"cebpf4jnsgd1na2vs0mg"},{"bike_id":"b27cc99f-6b66-4ab0-833d-ef1cae10794f","system_id":"levelo_inurba_marseille","lat":43.25867,"lon":5.39882,"is_reserved":false,"is_disabled":false,"rental_uris":{"android":"levelo://app?vid=b27cc99f-6b66-4ab0-833d-ef1cae10794f","ios":"levelo://app?vid=b27cc99f-6b66-4ab0-833d-ef1cae10794f"},"vehicle_type_id":"4","last_reported":1736535998,"current_range_meters":39200,"station_id":"ce4bhl92rcd13ifvqghg","pricing_plan_id":"cebpf4jnsgd1na2vs0mg"},{"bike_id":"819e9877-d561-4552-865a-627808046d3d","system_id":"levelo_inurba_marseille","lat":43.29989,"lon":5.38466,"is_reserved":false,"is_disabled":true,"rental_uris":{"android":"levelo://app?vid=819e9877-d561-4552-865a-627808046d3d","ios":"levelo://app?vid=819e9877-d561-4552-865a-627808046d3d"},"vehicle_type_id":"4","last_reported":1736535998,"current_range_meters":27600,"station_id":"ce4bgj92rcd13ifvqbd0","pricing_plan_id":"cebpf4jnsgd1na2vs0mg"},{"bike_id":"64e22768-79ef-4593-847f-a621c4893945","system_id":"levelo_inurba_marseille","lat":43.31526,"lon":5.38029,"is_reserved":false,"is_disabled":false,"rental_uris":{"android":"levelo://app?vid=64e22768-79ef-4593-847f-a621c4893945","ios":"levelo://app?vid=64e22768-79ef-4593-847f-a621c4893945"},"vehicle_type_id":"4","last_reported":1736535998,"current_range_meters":38800,"station_id":"ce4bhsp2rcd13ifvqi50","pricing_plan_id":"cebpf4jnsgd1na2vs0mg"},{"bike_id":"f4dbc556-58b0-4dfd-be99-18a51c032520","system_id":"levelo_inurba_marseille","lat":43.24177,"lon":5.39719,"is_reserved":false,"is_disabled":true,"rental_uris":{"android":"levelo://app?vid=f4dbc556-58b0-4dfd-be99-18a51c032520","ios":"levelo://app?vid=f4dbc556-58b0-4dfd-be99-18a51c032520"},"vehicle_type_id":"4","last_reported":1736535998,"current_range_meters":38800,"station_id":"ce4bhn12rcd13ifvqgpg","pricing_plan_id":"cebpf4jnsgd1na2vs0mg"},{"bike_id":"14fe853d-c854-4c8f-874d-7f890cf8bb4e","system_id":"levelo_inurba_marseille","lat":43.2933,"lon":5.4115,"is_reserved":false,"is_disabled":false,"rental_uris":{"android":"levelo://app?vid=14fe853d-c854-4c8f-874d-7f890cf8bb4e","ios":"levelo://app?vid=14fe853d-c854-4c8f-874d-7f890cf8bb4e"},"vehicle_type_id":"4","last_reported":1736535998,"current_range_meters":33200,"station_id":"","pricing_plan_id":"cebpf4jnsgd1na2vs0mg"},{"bike_id":"da57ace3-6c1d-47a8-845c-545023a4ef67","system_id":"levelo_inurba_marseille","lat":43.27994,"lon":5.40025,"is_reserved":false,"is_disabled":false,"rental_uris":{"android":"levelo://app?vid=da57ace3-6c1d-47a8-845c-545023a4ef67","ios":"levelo://app?vid=da57ace3-6c1d-47a8-845c-545023a4ef67"},"vehicle_type_id":"4","last_reported":1736535998,"current_range_meters":19600,"station_id":"ce4bho92rcd13ifvqh4g","pricing_plan_id":"cebpf4jnsgd1na2vs0mg"},{"bike_id":"2395d740-1958-4b2e-9961-b89776967215","system_id":"levelo_inurba_marseille","lat":43.29275,"lon":5.3844,"is_reserved":false,"is_disabled":false,"rental_uris":{"android":"levelo://app?vid=2395d740-1958-4b2e-9961-b89776967215","ios":"levelo://app?vid=2395d740-1958-4b2e-9961-b89776967215"},"vehicle_type_id":"4","last_reported":1736535998,"current_range_meters":26000,"station_id":"ce4bh692rcd13ifvqea0","pricing_plan_id":"cebpf4jnsgd1na2vs0mg"},{"bike_id":"27029859-1474-40f1-9a13-591bbebabec7","system_id":"levelo_inurba_marseille","lat":43.3205,"lon":5.41558,"is_reserved":false,"is_disabled":false,"rental_uris":{"android":"levelo://app?vid=27029859-1474-40f1-9a13-591bbebabec7","ios":"levelo://app?vid=27029859-1474-40f1-9a13-591bbebabec7"},"vehicle_type_id":"4","last_reported":1736535998,"current_range_meters":20000,"station_id":"ce4bhq92rcd13ifvqhkg","pricing_plan_id":"cebpf4jnsgd1na2vs0mg"},{"bike_id":"07b9df89-0915-4bc6-b3b7-702e9521524e","system_id":"levelo_inurba_marseille","lat":43.2849,"lon":5.38414,"is_reserved":false,"is_disabled":false,"rental_uris":{"android":"levelo://app?vid=07b9df89-0915-4bc6-b3b7-702e9521524e","ios":"levelo://app?vid=07b9df89-0915-4bc6-b3b7-702e9521524e"},"vehicle_type_id":"4","last_reported":1736535998,"current_range_meters":8400,"station_id":"ce4bh512rcd13ifvqe3g","pricing_plan_id":"cebpf4jnsgd1na2vs0mg"},{"bike_id":"f354b01b-3beb-4490-ac75-0b692dae656a","system_id":"levelo_inurba_marseille","lat":43.29169,"lon":5.37168,"is_reserved":false,"is_disabled":false,"rental_uris":{"android":"levelo://app?vid=f354b01b-3beb-4490-ac75-0b692dae656a","ios":"levelo://app?vid=f354b01b-3beb-4490-ac75-0b692dae656a"},"vehicle_type_id":"4","last_reported":1736535998,"current_range_meters":9600,"station_id":"ce4bha92rcd13ifvqeh0","pricing_plan_id":"cebpf4jnsgd1na2vs0mg"},{"bike_id":"80609ff8-7d7d-4ae2-9159-aea837c7c52b","system_id":"levelo_inurba_marseille","lat":43.2396,"lon":5.36631,"is_reserved":false,"is_disabled":false,"rental_uris":{"android":"levelo://app?vid=80609ff8-7d7d-4ae2-9159-aea837c7c52b","ios":"levelo://app?vid=80609ff8-7d7d-4ae2-9159-aea837c7c52b"},"vehicle_type_id":"4","last_reported":1736535998,"current_range_meters":14800,"station_id":"ce4bhi12rcd13ifvqfp0","pricing_plan_id":"cebpf4jnsgd1na2vs0mg"},{"bike_id":"6d639964-e180-47ac-9635-c60477582ce2","system_id":"levelo_inurba_marseille","lat":43.27826,"lon":5.3921,"is_reserved":false,"is_disabled":false,"rental_uris":{"android":"levelo://app?vid=6d639964-e180-47ac-9635-c60477582ce2","ios":"levelo://app?vid=6d639964-e180-47ac-9635-c60477582ce2"},"vehicle_type_id":"4","last_reported":1736535998,"current_range_meters":25200,"station_id":"ce4bhjp2rcd13ifvqga0","pricing_plan_id":"cebpf4jnsgd1na2vs0mg"},{"bike_id":"5edb9b21-4917-4f45-9961-6635931db922","system_id":"levelo_inurba_marseille","lat":43.22934,"lon":5.35372,"is_reserved":false,"is_disabled":false,"rental_uris":{"android":"levelo://app?vid=5edb9b21-4917-4f45-9961-6635931db922","ios":"levelo://app?vid=5edb9b21-4917-4f45-9961-6635931db922"},"vehicle_type_id":"4","last_reported":1736535998,"current_range_meters":39200,"station_id":"cpo3532slgdg3j2ikp40","pricing_plan_id":"cebpf4jnsgd1na2vs0mg"},{"bike_id":"6c16b955-c13c-49a6-a5bb-29559922d02c","system_id":"levelo_inurba_marseille","lat":43.23963,"lon":5.3664,"is_reserved":false,"is_disabled":false,"rental_uris":{"android":"levelo://app?vid=6c16b955-c13c-49a6-a5bb-29559922d02c","ios":"levelo://app?vid=6c16b955-c13c-49a6-a5bb-29559922d02c"},"vehicle_type_id":"4","last_reported":1736535998,"current_range_meters":24400,"station_id":"ce4bhi12rcd13ifvqfp0","pricing_plan_id":"cebpf4jnsgd1na2vs0mg"},{"bike_id":"acc57c46-0c06-4767-b429-edb19e5dc1a2","system_id":"levelo_inurba_marseille","lat":43.30129,"lon":5.39858,"is_reserved":false,"is_disabled":true,"rental_uris":{"android":"levelo://app?vid=acc57c46-0c06-4767-b429-edb19e5dc1a2","ios":"levelo://app?vid=acc57c46-0c06-4767-b429-edb19e5dc1a2"},"vehicle_type_id":"4","last_reported":1736535998,"current_range_meters":30000,"station_id":"ce4bh0h2rcd13ifvqd40","pricing_plan_id":"cebpf4jnsgd1na2vs0mg"},{"bike_id":"2a720992-8ca8-468d-af25-6ad17ffc00e6","system_id":"levelo_inurba_marseille","lat":43.279983,"lon":5.400107,"is_reserved":false,"is_disabled":false,"rental_uris":{"android":"levelo://app?vid=2a720992-8ca8-468d-af25-6ad17ffc00e6","ios":"levelo://app?vid=2a720992-8ca8-468d-af25-6ad17ffc00e6"},"vehicle_type_id":"4","last_reported":1736535998,"current_range_meters":30800,"station_id":"ce4bho92rcd13ifvqh4g","pricing_plan_id":"cebpf4jnsgd1na2vs0mg"},{"bike_id":"ccb1b754-1c55-42c8-a839-f81bb658ca10","system_id":"levelo_inurba_marseille","lat":43.31472,"lon":5.37301,"is_reserved":false,"is_disabled":false,"rental_uris":{"android":"levelo://app?vid=ccb1b754-1c55-42c8-a839-f81bb658ca10","ios":"levelo://app?vid=ccb1b754-1c55-42c8-a839-f81bb658ca10"},"vehicle_type_id":"4","last_reported":1736535998,"current_range_meters":6800,"station_id":"ce4bgt12rcd13ifvqcd0","pricing_plan_id":"cebpf4jnsgd1na2vs0mg"},{"bike_id":"88deb079-a652-4b92-987d-fdbfafa55301","system_id":"levelo_inurba_marseille","lat":43.29976,"lon":5.38497,"is_reserved":false,"is_disabled":false,"rental_uris":{"android":"levelo://app?vid=88deb079-a652-4b92-987d-fdbfafa55301","ios":"levelo://app?vid=88deb079-a652-4b92-987d-fdbfafa55301"},"vehicle_type_id":"4","last_reported":1736535998,"current_range_meters":8000,"station_id":"ce4bgj92rcd13ifvqbd0","pricing_plan_id":"cebpf4jnsgd1na2vs0mg"},{"bike_id":"1f4ce44d-9a25-4a97-b644-01837037fb31","system_id":"levelo_inurba_marseille","lat":43.29252,"lon":5.38443,"is_reserved":false,"is_disabled":false,"rental_uris":{"android":"levelo://app?vid=1f4ce44d-9a25-4a97-b644-01837037fb31","ios":"levelo://app?vid=1f4ce44d-9a25-4a97-b644-01837037fb31"},"vehicle_type_id":"4","last_reported":1736535998,"current_range_meters":34800,"station_id":"ce4bh692rcd13ifvqea0","pricing_plan_id":"cebpf4jnsgd1na2vs0mg"},{"bike_id":"4cbf2f69-4796-401f-aea5-81030062be5d","system_id":"levelo_inurba_marseille","lat":43.27807,"lon":5.40707,"is_reserved":false,"is_disabled":false,"rental_uris":{"android":"levelo://app?vid=4cbf2f69-4796-401f-aea5-81030062be5d","ios":"levelo://app?vid=4cbf2f69-4796-401f-aea5-81030062be5d"},"vehicle_type_id":"4","last_reported":1736535998,"current_range_meters":38800,"station_id":"ce4bhnh2rcd13ifvqgtg","pricing_plan_id":"cebpf4jnsgd1na2vs0mg"},{"bike_id":"066fc890-cce1-4b7e-a941-320c51e991c9","system_id":"levelo_inurba_marseille","lat":43.23962,"lon":5.36614,"is_reserved":false,"is_disabled":false,"rental_uris":{"android":"levelo://app?vid=066fc890-cce1-4b7e-a941-320c51e991c9","ios":"levelo://app?vid=066fc890-cce1-4b7e-a941-320c51e991c9"},"vehicle_type_id":"4","last_reported":1736535998,"current_range_meters":25200,"station_id":"ce4bhi12rcd13ifvqfp0","pricing_plan_id":"cebpf4jnsgd1na2vs0mg"},{"bike_id":"9e0aa47c-4c21-4ee4-8013-c3274e0da152","system_id":"levelo_inurba_marseille","lat":43.27813,"lon":5.40713,"is_reserved":false,"is_disabled":false,"rental_uris":{"android":"levelo://app?vid=9e0aa47c-4c21-4ee4-8013-c3274e0da152","ios":"levelo://app?vid=9e0aa47c-4c21-4ee4-8013-c3274e0da152"},"vehicle_type_id":"4","last_reported":1736535998,"current_range_meters":27200,"station_id":"ce4bhnh2rcd13ifvqgtg","pricing_plan_id":"cebpf4jnsgd1na2vs0mg"},{"bike_id":"b1cd05bd-cc6d-452b-8b8c-f24ee7fb627f","system_id":"levelo_inurba_marseille","lat":43.25827,"lon":5.39421,"is_reserved":false,"is_disabled":false,"rental_uris":{"android":"levelo://app?vid=b1cd05bd-cc6d-452b-8b8c-f24ee7fb627f","ios":"levelo://app?vid=b1cd05bd-cc6d-452b-8b8c-f24ee7fb627f"},"vehicle_type_id":"4","last_reported":1736535998,"current_range_meters":36000,"station_id":"ce4bhip2rcd13ifvqft0","pricing_plan_id":"cebpf4jnsgd1na2vs0mg"},{"bike_id":"b6c0bcf3-b7b0-4125-9ec8-9af19b7d8bf7","system_id":"levelo_inurba_marseille","lat":43.29975,"lon":5.38485,"is_reserved":false,"is_disabled":false,"rental_uris":{"android":"levelo://app?vid=b6c0bcf3-b7b0-4125-9ec8-9af19b7d8bf7","ios":"levelo://app?vid=b6c0bcf3-b7b0-4125-9ec8-9af19b7d8bf7"},"vehicle_type_id":"4","last_reported":1736535998,"current_range_meters":24400,"station_id":"ce4bgj92rcd13ifvqbd0","pricing_plan_id":"cebpf4jnsgd1na2vs0mg"},{"bike_id":"4d85caa7-a723-43e0-b3e0-da6550033413","system_id":"levelo_inurba_marseille","lat":43.27996,"lon":5.40015,"is_reserved":false,"is_disabled":false,"rental_uris":{"android":"levelo://app?vid=4d85caa7-a723-43e0-b3e0-da6550033413","ios":"levelo://app?vid=4d85caa7-a723-43e0-b3e0-da6550033413"},"vehicle_type_id":"4","last_reported":1736535998,"current_range_meters":16400,"station_id":"ce4bho92rcd13ifvqh4g","pricing_plan_id":"cebpf4jnsgd1na2vs0mg"},{"bike_id":"60837108-ef53-47ef-8c11-be76ae038eaf","system_id":"levelo_inurba_marseille","lat":43.33005,"lon":5.39088,"is_reserved":false,"is_disabled":false,"rental_uris":{"android":"levelo://app?vid=60837108-ef53-47ef-8c11-be76ae038eaf","ios":"levelo://app?vid=60837108-ef53-47ef-8c11-be76ae038eaf"},"vehicle_type_id":"4","last_reported":1736535998,"current_range_meters":16400,"station_id":"ce4bhr92rcd13ifvqhrg","pricing_plan_id":"cebpf4jnsgd1na2vs0mg"},{"bike_id":"f7248333-c3ea-4047-84a5-689947d7b51f","system_id":"levelo_inurba_marseille","lat":43.29957,"lon":5.4132,"is_reserved":false,"is_disabled":false,"rental_uris":{"android":"levelo://app?vid=f7248333-c3ea-4047-84a5-689947d7b51f","ios":"levelo://app?vid=f7248333-c3ea-4047-84a5-689947d7b51f"},"vehicle_type_id":"4","last_reported":1736535998,"current_range_meters":38400,"station_id":"ce4bhp12rcd13ifvqh9g","pricing_plan_id":"cebpf4jnsgd1na2vs0mg"},{"bike_id":"5cc98ad2-6f34-4e99-a1cb-e0f73ff602cd","system_id":"levelo_inurba_marseille","lat":43.2799,"lon":5.40018,"is_reserved":false,"is_disabled":false,"rental_uris":{"android":"levelo://app?vid=5cc98ad2-6f34-4e99-a1cb-e0f73ff602cd","ios":"levelo://app?vid=5cc98ad2-6f34-4e99-a1cb-e0f73ff602cd"},"vehicle_type_id":"4","last_reported":1736535998,"current_range_meters":24800,"station_id":"ce4bho92rcd13ifvqh4g","pricing_plan_id":"cebpf4jnsgd1na2vs0mg"},{"bike_id":"14260f59-5e6c-465e-be91-94b0442db1da","system_id":"levelo_inurba_marseille","lat":43.27816,"lon":5.39208,"is_reserved":false,"is_disabled":false,"rental_uris":{"android":"levelo://app?vid=14260f59-5e6c-465e-be91-94b0442db1da","ios":"levelo://app?vid=14260f59-5e6c-465e-be91-94b0442db1da"},"vehicle_type_id":"4","last_reported":1736535998,"current_range_meters":38800,"station_id":"ce4bhjp2rcd13ifvqga0","pricing_plan_id":"cebpf4jnsgd1na2vs0mg"},{"bike_id":"055a8870-4b25-4645-ba65-1dfa9542916e","system_id":"levelo_inurba_marseille","lat":43.26207,"lon":5.3744,"is_reserved":false,"is_disabled":false,"rental_uris":{"android":"levelo://app?vid=055a8870-4b25-4645-ba65-1dfa9542916e","ios":"levelo://app?vid=055a8870-4b25-4645-ba65-1dfa9542916e"},"vehicle_type_id":"4","last_reported":1736535998,"current_range_meters":34000,"station_id":"ce4bhgp2rcd13ifvqfc0","pricing_plan_id":"cebpf4jnsgd1na2vs0mg"},{"bike_id":"b258479f-7366-46de-bbf1-a5992d37e474","system_id":"levelo_inurba_marseille","lat":43.25511,"lon":5.37634,"is_reserved":false,"is_disabled":false,"rental_uris":{"android":"levelo://app?vid=b258479f-7366-46de-bbf1-a5992d37e474","ios":"levelo://app?vid=b258479f-7366-46de-bbf1-a5992d37e474"},"vehicle_type_id":"4","last_reported":1736535998,"current_range_meters":28000,"station_id":"ce4bhh12rcd13ifvqff0","pricing_plan_id":"cebpf4jnsgd1na2vs0mg"},{"bike_id":"bc72b692-fa80-4572-afe8-0e7949eae868","system_id":"levelo_inurba_marseille","lat":43.33739,"lon":5.37436,"is_reserved":false,"is_disabled":false,"rental_uris":{"android":"levelo://app?vid=bc72b692-fa80-4572-afe8-0e7949eae868","ios":"levelo://app?vid=bc72b692-fa80-4572-afe8-0e7949eae868"},"vehicle_type_id":"4","last_reported":1736535998,"current_range_meters":26000,"station_id":"","pricing_plan_id":"cebpf4jnsgd1na2vs0mg"},{"bike_id":"403b6456-c595-432f-9fb5-fe207e40ff7b","system_id":"levelo_inurba_marseille","lat":43.27179,"lon":5.40991,"is_reserved":false,"is_disabled":false,"rental_uris":{"android":"levelo://app?vid=403b6456-c595-432f-9fb5-fe207e40ff7b","ios":"levelo://app?vid=403b6456-c595-432f-9fb5-fe207e40ff7b"},"vehicle_type_id":"4","last_reported":1736535998,"current_range_meters":39200,"station_id":"ce4bhl12rcd13ifvqgf0","pricing_plan_id":"cebpf4jnsgd1na2vs0mg"},{"bike_id":"1e8db9a3-2ed9-4cde-b01f-3f669fcdb327","system_id":"levelo_inurba_marseille","lat":43.29532,"lon":5.3853,"is_reserved":false,"is_disabled":false,"rental_uris":{"android":"levelo://app?vid=1e8db9a3-2ed9-4cde-b01f-3f669fcdb327","ios":"levelo://app?vid=1e8db9a3-2ed9-4cde-b01f-3f669fcdb327"},"vehicle_type_id":"4","last_reported":1736535998,"current_range_meters":4800,"station_id":"ce4bgih2rcd13ifvqba0","pricing_plan_id":"cebpf4jnsgd1na2vs0mg"},{"bike_id":"f0e4deed-94ea-4281-b6e0-5908e42da7a6","system_id":"levelo_inurba_marseille","lat":43.30798,"lon":5.38139,"is_reserved":false,"is_disabled":false,"rental_uris":{"android":"levelo://app?vid=f0e4deed-94ea-4281-b6e0-5908e42da7a6","ios":"levelo://app?vid=f0e4deed-94ea-4281-b6e0-5908e42da7a6"},"vehicle_type_id":"4","last_reported":1736535998,"current_range_meters":22800,"station_id":"ce4bgt12rcd13ifvqce0","pricing_plan_id":"cebpf4jnsgd1na2vs0mg"},{"bike_id":"a3ecaca8-a21c-42c5-a77f-4097355b1016","system_id":"levelo_inurba_marseille","lat":43.30204,"lon":5.39482,"is_reserved":false,"is_disabled":false,"rental_uris":{"android":"levelo://app?vid=a3ecaca8-a21c-42c5-a77f-4097355b1016","ios":"levelo://app?vid=a3ecaca8-a21c-42c5-a77f-4097355b1016"},"vehicle_type_id":"4","last_reported":1736535998,"current_range_meters":24000,"station_id":"ce4bh0p2rcd13ifvqd70","pricing_plan_id":"cebpf4jnsgd1na2vs0mg"},{"bike_id":"e28483d1-4b50-47d3-8f68-bbbc48a67024","system_id":"levelo_inurba_marseille","lat":43.29059,"lon":5.37171,"is_reserved":false,"is_disabled":true,"rental_uris":{"android":"levelo://app?vid=e28483d1-4b50-47d3-8f68-bbbc48a67024","ios":"levelo://app?vid=e28483d1-4b50-47d3-8f68-bbbc48a67024"},"vehicle_type_id":"4","last_reported":1736535998,"current_range_meters":30800,"station_id":"ce4bh5p2rcd13ifvqe4g","pricing_plan_id":"cebpf4jnsgd1na2vs0mg"},{"bike_id":"9b3e706e-8c71-45b6-b172-facddd4851c3","system_id":"levelo_inurba_marseille","lat":43.27998,"lon":5.40015,"is_reserved":false,"is_disabled":false,"rental_uris":{"android":"levelo://app?vid=9b3e706e-8c71-45b6-b172-facddd4851c3","ios":"levelo://app?vid=9b3e706e-8c71-45b6-b172-facddd4851c3"},"vehicle_type_id":"4","last_reported":1736535998,"current_range_meters":35600,"station_id":"ce4bho92rcd13ifvqh4g","pricing_plan_id":"cebpf4jnsgd1na2vs0mg"},{"bike_id":"60271d0f-3a77-4626-8905-d712a41f6304","system_id":"levelo_inurba_marseille","lat":43.28463,"lon":5.35892,"is_reserved":false,"is_disabled":false,"rental_uris":{"android":"levelo://app?vid=60271d0f-3a77-4626-8905-d712a41f6304","ios":"levelo://app?vid=60271d0f-3a77-4626-8905-d712a41f6304"},"vehicle_type_id":"4","last_reported":1736535998,"current_range_meters":37600,"station_id":"ce4bhah2rcd13ifvqei0","pricing_plan_id":"cebpf4jnsgd1na2vs0mg"},{"bike_id":"ea85eaf0-fde0-43c4-b882-10e3bd598be8","system_id":"levelo_inurba_marseille","lat":43.25114,"lon":5.40335,"is_reserved":false,"is_disabled":true,"rental_uris":{"android":"levelo://app?vid=ea85eaf0-fde0-43c4-b882-10e3bd598be8","ios":"levelo://app?vid=ea85eaf0-fde0-43c4-b882-10e3bd598be8"},"vehicle_type_id":"4","last_reported":1736535998,"current_range_meters":8400,"station_id":"ce4bhlh2rcd13ifvqgig","pricing_plan_id":"cebpf4jnsgd1na2vs0mg"},{"bike_id":"ce3911f4-d940-41e3-a1b8-935c8c7794b9","system_id":"levelo_inurba_marseille","lat":43.29573,"lon":5.37499,"is_reserved":false,"is_disabled":true,"rental_uris":{"android":"levelo://app?vid=ce3911f4-d940-41e3-a1b8-935c8c7794b9","ios":"levelo://app?vid=ce3911f4-d940-41e3-a1b8-935c8c7794b9"},"vehicle_type_id":"4","last_reported":1736535998,"current_range_meters":0,"station_id":"ce4bgh92rcd13ifvqb50","pricing_plan_id":"cebpf4jnsgd1na2vs0mg"},{"bike_id":"7a0a8a69-615c-43f3-a001-073b74f4a57b","system_id":"levelo_inurba_marseille","lat":43.25573,"lon":5.38234,"is_reserved":false,"is_disabled":false,"rental_uris":{"android":"levelo://app?vid=7a0a8a69-615c-43f3-a001-073b74f4a57b","ios":"levelo://app?vid=7a0a8a69-615c-43f3-a001-073b74f4a57b"},"vehicle_type_id":"4","last_reported":1736535998,"current_range_meters":26000,"station_id":"ce4bhih2rcd13ifvqfs0","pricing_plan_id":"cebpf4jnsgd1na2vs0mg"},{"bike_id":"b19fb3d3-e17b-418f-bd5d-89aa4baf6ca9","system_id":"levelo_inurba_marseille","lat":43.2953,"lon":5.38548,"is_reserved":false,"is_disabled":false,"rental_uris":{"android":"levelo://app?vid=b19fb3d3-e17b-418f-bd5d-89aa4baf6ca9","ios":"levelo://app?vid=b19fb3d3-e17b-418f-bd5d-89aa4baf6ca9"},"vehicle_type_id":"4","last_reported":1736535998,"current_range_meters":24400,"station_id":"ce4bgih2rcd13ifvqba0","pricing_plan_id":"cebpf4jnsgd1na2vs0mg"},{"bike_id":"04b99ebe-7927-40e6-9554-a7aa6d8ff5da","system_id":"levelo_inurba_marseille","lat":43.33022,"lon":5.39035,"is_reserved":false,"is_disabled":false,"rental_uris":{"android":"levelo://app?vid=04b99ebe-7927-40e6-9554-a7aa6d8ff5da","ios":"levelo://app?vid=04b99ebe-7927-40e6-9554-a7aa6d8ff5da"},"vehicle_type_id":"4","last_reported":1736535998,"current_range_meters":39200,"station_id":"ce4bhr92rcd13ifvqhrg","pricing_plan_id":"cebpf4jnsgd1na2vs0mg"},{"bike_id":"eb7d38f3-cdb4-44e6-ad91-21d50ef0ed8b","system_id":"levelo_inurba_marseille","lat":43.26211,"lon":5.37441,"is_reserved":false,"is_disabled":false,"rental_uris":{"android":"levelo://app?vid=eb7d38f3-cdb4-44e6-ad91-21d50ef0ed8b","ios":"levelo://app?vid=eb7d38f3-cdb4-44e6-ad91-21d50ef0ed8b"},"vehicle_type_id":"4","last_reported":1736535998,"current_range_meters":21600,"station_id":"ce4bhgp2rcd13ifvqfc0","pricing_plan_id":"cebpf4jnsgd1na2vs0mg"},{"bike_id":"09a66bfe-2710-4c15-bafe-b69e36210fc5","system_id":"levelo_inurba_marseille","lat":43.29538,"lon":5.38538,"is_reserved":false,"is_disabled":true,"rental_uris":{"android":"levelo://app?vid=09a66bfe-2710-4c15-bafe-b69e36210fc5","ios":"levelo://app?vid=09a66bfe-2710-4c15-bafe-b69e36210fc5"},"vehicle_type_id":"4","last_reported":1736535998,"current_range_meters":800,"station_id":"ce4bgih2rcd13ifvqba0","pricing_plan_id":"cebpf4jnsgd1na2vs0mg"},{"bike_id":"891355fd-fe20-41c8-b555-ae791f1b7a70","system_id":"levelo_inurba_marseille","lat":43.29617,"lon":5.3805,"is_reserved":false,"is_disabled":false,"rental_uris":{"android":"levelo://app?vid=891355fd-fe20-41c8-b555-ae791f1b7a70","ios":"levelo://app?vid=891355fd-fe20-41c8-b555-ae791f1b7a70"},"vehicle_type_id":"4","last_reported":1736535998,"current_range_meters":22400,"station_id":"ce4bgl12rcd13ifvqbo0","pricing_plan_id":"cebpf4jnsgd1na2vs0mg"},{"bike_id":"7aa80fa7-0a70-466e-9938-dea38841b13f","system_id":"levelo_inurba_marseille","lat":43.30368,"lon":5.41904,"is_reserved":false,"is_disabled":false,"rental_uris":{"android":"levelo://app?vid=7aa80fa7-0a70-466e-9938-dea38841b13f","ios":"levelo://app?vid=7aa80fa7-0a70-466e-9938-dea38841b13f"},"vehicle_type_id":"4","last_reported":1736535998,"current_range_meters":37600,"station_id":"ce4bhop2rcd13ifvqh7g","pricing_plan_id":"cebpf4jnsgd1na2vs0mg"},{"bike_id":"cd22db1d-1338-413c-a16f-ca8d85416204","system_id":"levelo_inurba_marseille","lat":43.26195,"lon":5.3745,"is_reserved":false,"is_disabled":false,"rental_uris":{"android":"levelo://app?vid=cd22db1d-1338-413c-a16f-ca8d85416204","ios":"levelo://app?vid=cd22db1d-1338-413c-a16f-ca8d85416204"},"vehicle_type_id":"4","last_reported":1736535998,"current_range_meters":19600,"station_id":"ce4bhgp2rcd13ifvqfc0","pricing_plan_id":"cebpf4jnsgd1na2vs0mg"},{"bike_id":"6299f7d3-868e-4b54-a91c-89c7189fcc8a","system_id":"levelo_inurba_marseille","lat":43.31074,"lon":5.38362,"is_reserved":false,"is_disabled":true,"rental_uris":{"android":"levelo://app?vid=6299f7d3-868e-4b54-a91c-89c7189fcc8a","ios":"levelo://app?vid=6299f7d3-868e-4b54-a91c-89c7189fcc8a"},"vehicle_type_id":"4","last_reported":1736535998,"current_range_meters":2000,"station_id":"ce4bgv92rcd13ifvqcr0","pricing_plan_id":"cebpf4jnsgd1na2vs0mg"},{"bike_id":"848b8a79-1822-452e-a5b1-f1121411546d","system_id":"levelo_inurba_marseille","lat":43.24553,"lon":5.39528,"is_reserved":false,"is_disabled":false,"rental_uris":{"android":"levelo://app?vid=848b8a79-1822-452e-a5b1-f1121411546d","ios":"levelo://app?vid=848b8a79-1822-452e-a5b1-f1121411546d"},"vehicle_type_id":"4","last_reported":1736535998,"current_range_meters":18800,"station_id":"ce4bhlp2rcd13ifvqgjg","pricing_plan_id":"cebpf4jnsgd1na2vs0mg"},{"bike_id":"6821b4a0-f9cc-4a89-9bab-e048a442bb0a","system_id":"levelo_inurba_marseille","lat":43.29078,"lon":5.3716,"is_reserved":false,"is_disabled":false,"rental_uris":{"android":"levelo://app?vid=6821b4a0-f9cc-4a89-9bab-e048a442bb0a","ios":"levelo://app?vid=6821b4a0-f9cc-4a89-9bab-e048a442bb0a"},"vehicle_type_id":"4","last_reported":1736535998,"current_range_meters":22000,"station_id":"ce4bh5p2rcd13ifvqe4g","pricing_plan_id":"cebpf4jnsgd1na2vs0mg"},{"bike_id":"0f037dd1-c050-4cd0-bc70-633114591171","system_id":"levelo_inurba_marseille","lat":43.2397,"lon":5.36628,"is_reserved":false,"is_disabled":false,"rental_uris":{"android":"levelo://app?vid=0f037dd1-c050-4cd0-bc70-633114591171","ios":"levelo://app?vid=0f037dd1-c050-4cd0-bc70-633114591171"},"vehicle_type_id":"4","last_reported":1736535998,"current_range_meters":12400,"station_id":"ce4bhi12rcd13ifvqfp0","pricing_plan_id":"cebpf4jnsgd1na2vs0mg"},{"bike_id":"5653c069-6f73-4a41-9fa5-960845d5408d","system_id":"levelo_inurba_marseille","lat":43.27842,"lon":5.39208,"is_reserved":false,"is_disabled":false,"rental_uris":{"android":"levelo://app?vid=5653c069-6f73-4a41-9fa5-960845d5408d","ios":"levelo://app?vid=5653c069-6f73-4a41-9fa5-960845d5408d"},"vehicle_type_id":"4","last_reported":1736535998,"current_range_meters":30000,"station_id":"ce4bhjp2rcd13ifvqga0","pricing_plan_id":"cebpf4jnsgd1na2vs0mg"},{"bike_id":"bb09aba3-e725-4db5-9d0b-860b910730c7","system_id":"levelo_inurba_marseille","lat":43.31326,"lon":5.39707,"is_reserved":false,"is_disabled":true,"rental_uris":{"android":"levelo://app?vid=bb09aba3-e725-4db5-9d0b-860b910730c7","ios":"levelo://app?vid=bb09aba3-e725-4db5-9d0b-860b910730c7"},"vehicle_type_id":"4","last_reported":1736535998,"current_range_meters":4800,"station_id":"ce4bgvp2rcd13ifvqcu0","pricing_plan_id":"cebpf4jnsgd1na2vs0mg"},{"bike_id":"9d492b2e-c3fd-40eb-8f1c-822cc58e2b73","system_id":"levelo_inurba_marseille","lat":43.2937,"lon":5.37851,"is_reserved":false,"is_disabled":false,"rental_uris":{"android":"levelo://app?vid=9d492b2e-c3fd-40eb-8f1c-822cc58e2b73","ios":"levelo://app?vid=9d492b2e-c3fd-40eb-8f1c-822cc58e2b73"},"vehicle_type_id":"4","last_reported":1736535998,"current_range_meters":30400,"station_id":"ce4bgjh2rcd13ifvqbf0","pricing_plan_id":"cebpf4jnsgd1na2vs0mg"},{"bike_id":"1ff4d6af-d168-4206-80a1-8f85ab0c0a00","system_id":"levelo_inurba_marseille","lat":43.2587,"lon":5.39912,"is_reserved":false,"is_disabled":true,"rental_uris":{"android":"levelo://app?vid=1ff4d6af-d168-4206-80a1-8f85ab0c0a00","ios":"levelo://app?vid=1ff4d6af-d168-4206-80a1-8f85ab0c0a00"},"vehicle_type_id":"4","last_reported":1736535998,"current_range_meters":22400,"station_id":"ce4bhl92rcd13ifvqghg","pricing_plan_id":"cebpf4jnsgd1na2vs0mg"},{"bike_id":"6a8a7e32-0f66-4fdd-a2b8-81f2afb9b4a8","system_id":"levelo_inurba_marseille","lat":43.23968,"lon":5.36632,"is_reserved":false,"is_disabled":false,"rental_uris":{"android":"levelo://app?vid=6a8a7e32-0f66-4fdd-a2b8-81f2afb9b4a8","ios":"levelo://app?vid=6a8a7e32-0f66-4fdd-a2b8-81f2afb9b4a8"},"vehicle_type_id":"4","last_reported":1736535998,"current_range_meters":19600,"station_id":"ce4bhi12rcd13ifvqfp0","pricing_plan_id":"cebpf4jnsgd1na2vs0mg"},{"bike_id":"8bec6a21-65c7-4332-932d-c24ff8b2a5e8","system_id":"levelo_inurba_marseille","lat":43.27997,"lon":5.40033,"is_reserved":false,"is_disabled":false,"rental_uris":{"android":"levelo://app?vid=8bec6a21-65c7-4332-932d-c24ff8b2a5e8","ios":"levelo://app?vid=8bec6a21-65c7-4332-932d-c24ff8b2a5e8"},"vehicle_type_id":"4","last_reported":1736535998,"current_range_meters":33600,"station_id":"ce4bho92rcd13ifvqh4g","pricing_plan_id":"cebpf4jnsgd1na2vs0mg"},{"bike_id":"1d174f3c-56fd-4bd2-841f-15687ff97534","system_id":"levelo_inurba_marseille","lat":43.301275,"lon":5.398805,"is_reserved":false,"is_disabled":true,"rental_uris":{"android":"levelo://app?vid=1d174f3c-56fd-4bd2-841f-15687ff97534","ios":"levelo://app?vid=1d174f3c-56fd-4bd2-841f-15687ff97534"},"vehicle_type_id":"4","last_reported":1736535998,"current_range_meters":0,"station_id":"ce4bh0h2rcd13ifvqd40","pricing_plan_id":"cebpf4jnsgd1na2vs0mg"},{"bike_id":"750dedb6-a00f-4b07-bc2f-3484aab220a6","system_id":"levelo_inurba_marseille","lat":43.33027,"lon":5.39042,"is_reserved":false,"is_disabled":false,"rental_uris":{"android":"levelo://app?vid=750dedb6-a00f-4b07-bc2f-3484aab220a6","ios":"levelo://app?vid=750dedb6-a00f-4b07-bc2f-3484aab220a6"},"vehicle_type_id":"4","last_reported":1736535998,"current_range_meters":26800,"station_id":"ce4bhr92rcd13ifvqhrg","pricing_plan_id":"cebpf4jnsgd1na2vs0mg"},{"bike_id":"a4d8f96c-9def-4659-8768-904246420536","system_id":"levelo_inurba_marseille","lat":43.30253,"lon":5.4008,"is_reserved":false,"is_disabled":false,"rental_uris":{"android":"levelo://app?vid=a4d8f96c-9def-4659-8768-904246420536","ios":"levelo://app?vid=a4d8f96c-9def-4659-8768-904246420536"},"vehicle_type_id":"4","last_reported":1736535998,"current_range_meters":4400,"station_id":"ce4bgvh2rcd13ifvqcs0","pricing_plan_id":"cebpf4jnsgd1na2vs0mg"},{"bike_id":"d4b9ec52-492e-41b6-8dae-be3aec56cf81","system_id":"levelo_inurba_marseille","lat":43.28615,"lon":5.35093,"is_reserved":false,"is_disabled":false,"rental_uris":{"android":"levelo://app?vid=d4b9ec52-492e-41b6-8dae-be3aec56cf81","ios":"levelo://app?vid=d4b9ec52-492e-41b6-8dae-be3aec56cf81"},"vehicle_type_id":"4","last_reported":1736535998,"current_range_meters":9200,"station_id":"ce4bhch2rcd13ifvqeug","pricing_plan_id":"cebpf4jnsgd1na2vs0mg"},{"bike_id":"30fa6ac7-b482-4313-b9f6-3debfafa11b3","system_id":"levelo_inurba_marseille","lat":43.31529,"lon":5.38044,"is_reserved":false,"is_disabled":false,"rental_uris":{"android":"levelo://app?vid=30fa6ac7-b482-4313-b9f6-3debfafa11b3","ios":"levelo://app?vid=30fa6ac7-b482-4313-b9f6-3debfafa11b3"},"vehicle_type_id":"4","last_reported":1736535998,"current_range_meters":26000,"station_id":"ce4bhsp2rcd13ifvqi50","pricing_plan_id":"cebpf4jnsgd1na2vs0mg"},{"bike_id":"10f7d31a-ef8d-4e8a-acbf-8aa9a8c72143","system_id":"levelo_inurba_marseille","lat":43.24415,"lon":5.37055,"is_reserved":false,"is_disabled":false,"rental_uris":{"android":"levelo://app?vid=10f7d31a-ef8d-4e8a-acbf-8aa9a8c72143","ios":"levelo://app?vid=10f7d31a-ef8d-4e8a-acbf-8aa9a8c72143"},"vehicle_type_id":"4","last_reported":1736535998,"current_range_meters":22400,"station_id":"ce4bhhh2rcd13ifvqfk0","pricing_plan_id":"cebpf4jnsgd1na2vs0mg"},{"bike_id":"6e6dbc29-f312-4058-8890-f74d6b5e2ac3","system_id":"levelo_inurba_marseille","lat":43.26201,"lon":5.37463,"is_reserved":false,"is_disabled":false,"rental_uris":{"android":"levelo://app?vid=6e6dbc29-f312-4058-8890-f74d6b5e2ac3","ios":"levelo://app?vid=6e6dbc29-f312-4058-8890-f74d6b5e2ac3"},"vehicle_type_id":"4","last_reported":1736535998,"current_range_meters":27600,"station_id":"ce4bhgp2rcd13ifvqfc0","pricing_plan_id":"cebpf4jnsgd1na2vs0mg"},{"bike_id":"f0c080b7-cc84-4ae6-b5d3-19e354905365","system_id":"levelo_inurba_marseille","lat":43.29024,"lon":5.38131,"is_reserved":false,"is_disabled":true,"rental_uris":{"android":"levelo://app?vid=f0c080b7-cc84-4ae6-b5d3-19e354905365","ios":"levelo://app?vid=f0c080b7-cc84-4ae6-b5d3-19e354905365"},"vehicle_type_id":"4","last_reported":1736535998,"current_range_meters":38800,"station_id":"ce4bh4p2rcd13ifvqe1g","pricing_plan_id":"cebpf4jnsgd1na2vs0mg"},{"bike_id":"b9fe5075-801a-4cf2-998a-0e8e43c22ad5","system_id":"levelo_inurba_marseille","lat":43.29259,"lon":5.38446,"is_reserved":false,"is_disabled":false,"rental_uris":{"android":"levelo://app?vid=b9fe5075-801a-4cf2-998a-0e8e43c22ad5","ios":"levelo://app?vid=b9fe5075-801a-4cf2-998a-0e8e43c22ad5"},"vehicle_type_id":"4","last_reported":1736535998,"current_range_meters":38800,"station_id":"ce4bh692rcd13ifvqea0","pricing_plan_id":"cebpf4jnsgd1na2vs0mg"},{"bike_id":"ae29e0de-7b5a-45d6-ace3-313c5e88010a","system_id":"levelo_inurba_marseille","lat":43.2797,"lon":5.41638,"is_reserved":false,"is_disabled":true,"rental_uris":{"android":"levelo://app?vid=ae29e0de-7b5a-45d6-ace3-313c5e88010a","ios":"levelo://app?vid=ae29e0de-7b5a-45d6-ace3-313c5e88010a"},"vehicle_type_id":"4","last_reported":1736535998,"current_range_meters":4400,"station_id":"ce4bho12rcd13ifvqh1g","pricing_plan_id":"cebpf4jnsgd1na2vs0mg"},{"bike_id":"cb1c85db-bc4a-4377-a581-e53c86f3db45","system_id":"levelo_inurba_marseille","lat":43.29792,"lon":5.38089,"is_reserved":false,"is_disabled":false,"rental_uris":{"android":"levelo://app?vid=cb1c85db-bc4a-4377-a581-e53c86f3db45","ios":"levelo://app?vid=cb1c85db-bc4a-4377-a581-e53c86f3db45"},"vehicle_type_id":"4","last_reported":1736535998,"current_range_meters":33200,"station_id":"ce4bgip2rcd13ifvqbb0","pricing_plan_id":"cebpf4jnsgd1na2vs0mg"},{"bike_id":"572f0254-11cf-4ef2-b3f9-66737ed8298a","system_id":"levelo_inurba_marseille","lat":43.28425,"lon":5.34973,"is_reserved":false,"is_disabled":true,"rental_uris":{"android":"levelo://app?vid=572f0254-11cf-4ef2-b3f9-66737ed8298a","ios":"levelo://app?vid=572f0254-11cf-4ef2-b3f9-66737ed8298a"},"vehicle_type_id":"4","last_reported":1736535998,"current_range_meters":2000,"station_id":"ce4bhbh2rcd13ifvqepg","pricing_plan_id":"cebpf4jnsgd1na2vs0mg"},{"bike_id":"81e650fb-946f-4e41-a04f-8169232bb99d","system_id":"levelo_inurba_marseille","lat":43.23183,"lon":5.39984,"is_reserved":false,"is_disabled":false,"rental_uris":{"android":"levelo://app?vid=81e650fb-946f-4e41-a04f-8169232bb99d","ios":"levelo://app?vid=81e650fb-946f-4e41-a04f-8169232bb99d"},"vehicle_type_id":"4","last_reported":1736535998,"current_range_meters":34800,"station_id":"ce4bhn12rcd13ifvqgqg","pricing_plan_id":"cebpf4jnsgd1na2vs0mg"},{"bike_id":"c150f8af-fc8f-4eb5-ac98-0b06dadf4ce0","system_id":"levelo_inurba_marseille","lat":43.2558,"lon":5.38242,"is_reserved":false,"is_disabled":false,"rental_uris":{"android":"levelo://app?vid=c150f8af-fc8f-4eb5-ac98-0b06dadf4ce0","ios":"levelo://app?vid=c150f8af-fc8f-4eb5-ac98-0b06dadf4ce0"},"vehicle_type_id":"4","last_reported":1736535998,"current_range_meters":32400,"station_id":"ce4bhih2rcd13ifvqfs0","pricing_plan_id":"cebpf4jnsgd1na2vs0mg"},{"bike_id":"f0fb8bfb-285b-4d03-adbf-fe52517bb93c","system_id":"levelo_inurba_marseille","lat":43.23205,"lon":5.35547,"is_reserved":false,"is_disabled":false,"rental_uris":{"android":"levelo://app?vid=f0fb8bfb-285b-4d03-adbf-fe52517bb93c","ios":"levelo://app?vid=f0fb8bfb-285b-4d03-adbf-fe52517bb93c"},"vehicle_type_id":"4","last_reported":1736535998,"current_range_meters":38800,"station_id":"ce4bhu92rcd13ifvqi70","pricing_plan_id":"cebpf4jnsgd1na2vs0mg"},{"bike_id":"6390368d-6f91-49c3-841f-e112d9230ffd","system_id":"levelo_inurba_marseille","lat":43.28014,"lon":5.39988,"is_reserved":false,"is_disabled":false,"rental_uris":{"android":"levelo://app?vid=6390368d-6f91-49c3-841f-e112d9230ffd","ios":"levelo://app?vid=6390368d-6f91-49c3-841f-e112d9230ffd"},"vehicle_type_id":"4","last_reported":1736535998,"current_range_meters":17200,"station_id":"ce4bho92rcd13ifvqh4g","pricing_plan_id":"cebpf4jnsgd1na2vs0mg"},{"bike_id":"2699aa44-e054-4052-825f-54a662a06c6e","system_id":"levelo_inurba_marseille","lat":43.23186,"lon":5.39972,"is_reserved":false,"is_disabled":false,"rental_uris":{"android":"levelo://app?vid=2699aa44-e054-4052-825f-54a662a06c6e","ios":"levelo://app?vid=2699aa44-e054-4052-825f-54a662a06c6e"},"vehicle_type_id":"4","last_reported":1736535998,"current_range_meters":38800,"station_id":"ce4bhn12rcd13ifvqgqg","pricing_plan_id":"cebpf4jnsgd1na2vs0mg"},{"bike_id":"61754fba-3376-4768-8c7c-511ea5daf5e6","system_id":"levelo_inurba_marseille","lat":43.314435,"lon":5.373752,"is_reserved":false,"is_disabled":false,"rental_uris":{"android":"levelo://app?vid=61754fba-3376-4768-8c7c-511ea5daf5e6","ios":"levelo://app?vid=61754fba-3376-4768-8c7c-511ea5daf5e6"},"vehicle_type_id":"4","last_reported":1736535998,"current_range_meters":4800,"station_id":"","pricing_plan_id":"cebpf4jnsgd1na2vs0mg"},{"bike_id":"4eea0f9a-8371-44e1-8ec2-1b8667eafdd9","system_id":"levelo_inurba_marseille","lat":43.28622,"lon":5.35105,"is_reserved":false,"is_disabled":false,"rental_uris":{"android":"levelo://app?vid=4eea0f9a-8371-44e1-8ec2-1b8667eafdd9","ios":"levelo://app?vid=4eea0f9a-8371-44e1-8ec2-1b8667eafdd9"},"vehicle_type_id":"4","last_reported":1736535998,"current_range_meters":38400,"station_id":"ce4bhch2rcd13ifvqeug","pricing_plan_id":"cebpf4jnsgd1na2vs0mg"},{"bike_id":"3b689cef-4f15-4678-ae7d-22b900013a41","system_id":"levelo_inurba_marseille","lat":43.28711,"lon":5.3999,"is_reserved":false,"is_disabled":false,"rental_uris":{"android":"levelo://app?vid=3b689cef-4f15-4678-ae7d-22b900013a41","ios":"levelo://app?vid=3b689cef-4f15-4678-ae7d-22b900013a41"},"vehicle_type_id":"4","last_reported":1736535998,"current_range_meters":25200,"station_id":"ce4bho92rcd13ifvqh3g","pricing_plan_id":"cebpf4jnsgd1na2vs0mg"},{"bike_id":"30653996-9326-4bca-864c-21ac92f61041","system_id":"levelo_inurba_marseille","lat":43.246451,"lon":5.388877,"is_reserved":false,"is_disabled":false,"rental_uris":{"android":"levelo://app?vid=30653996-9326-4bca-864c-21ac92f61041","ios":"levelo://app?vid=30653996-9326-4bca-864c-21ac92f61041"},"vehicle_type_id":"4","last_reported":1736535998,"current_range_meters":36800,"station_id":"ce4bhg12rcd13ifvqf60","pricing_plan_id":"cebpf4jnsgd1na2vs0mg"},{"bike_id":"2a25b540-23e6-473d-8a78-091ec1ca1473","system_id":"levelo_inurba_marseille","lat":43.29793,"lon":5.38097,"is_reserved":false,"is_disabled":false,"rental_uris":{"android":"levelo://app?vid=2a25b540-23e6-473d-8a78-091ec1ca1473","ios":"levelo://app?vid=2a25b540-23e6-473d-8a78-091ec1ca1473"},"vehicle_type_id":"4","last_reported":1736535998,"current_range_meters":38800,"station_id":"ce4bgip2rcd13ifvqbb0","pricing_plan_id":"cebpf4jnsgd1na2vs0mg"},{"bike_id":"5a8b207e-414d-4995-8f31-a10fc0f029cb","system_id":"levelo_inurba_marseille","lat":43.27994,"lon":5.4001,"is_reserved":false,"is_disabled":false,"rental_uris":{"android":"levelo://app?vid=5a8b207e-414d-4995-8f31-a10fc0f029cb","ios":"levelo://app?vid=5a8b207e-414d-4995-8f31-a10fc0f029cb"},"vehicle_type_id":"4","last_reported":1736535998,"current_range_meters":38800,"station_id":"ce4bho92rcd13ifvqh4g","pricing_plan_id":"cebpf4jnsgd1na2vs0mg"},{"bike_id":"c66e15bc-7891-4f68-b535-870a87aaa807","system_id":"levelo_inurba_marseille","lat":43.29254,"lon":5.4091,"is_reserved":false,"is_disabled":false,"rental_uris":{"android":"levelo://app?vid=c66e15bc-7891-4f68-b535-870a87aaa807","ios":"levelo://app?vid=c66e15bc-7891-4f68-b535-870a87aaa807"},"vehicle_type_id":"4","last_reported":1736535998,"current_range_meters":36800,"station_id":"ce4bh192rcd13ifvqdc0","pricing_plan_id":"cebpf4jnsgd1na2vs0mg"},{"bike_id":"cffdbb96-5acd-4130-9896-e23d0afde4e8","system_id":"levelo_inurba_marseille","lat":43.27567,"lon":5.38407,"is_reserved":false,"is_disabled":false,"rental_uris":{"android":"levelo://app?vid=cffdbb96-5acd-4130-9896-e23d0afde4e8","ios":"levelo://app?vid=cffdbb96-5acd-4130-9896-e23d0afde4e8"},"vehicle_type_id":"4","last_reported":1736535998,"current_range_meters":32000,"station_id":"ce4bhh92rcd13ifvqfi0","pricing_plan_id":"cebpf4jnsgd1na2vs0mg"},{"bike_id":"b704bf42-2bc7-4506-b669-8ca7a3330fef","system_id":"levelo_inurba_marseille","lat":43.28154,"lon":5.42632,"is_reserved":false,"is_disabled":true,"rental_uris":{"android":"levelo://app?vid=b704bf42-2bc7-4506-b669-8ca7a3330fef","ios":"levelo://app?vid=b704bf42-2bc7-4506-b669-8ca7a3330fef"},"vehicle_type_id":"4","last_reported":1736535998,"current_range_meters":36000,"station_id":"ce4bhnh2rcd13ifvqgug","pricing_plan_id":"cebpf4jnsgd1na2vs0mg"},{"bike_id":"04c144bb-885d-4367-8bc8-e2ccfca26ca3","system_id":"levelo_inurba_marseille","lat":43.3132,"lon":5.39697,"is_reserved":false,"is_disabled":true,"rental_uris":{"android":"levelo://app?vid=04c144bb-885d-4367-8bc8-e2ccfca26ca3","ios":"levelo://app?vid=04c144bb-885d-4367-8bc8-e2ccfca26ca3"},"vehicle_type_id":"4","last_reported":1736535998,"current_range_meters":24800,"station_id":"ce4bgvp2rcd13ifvqcu0","pricing_plan_id":"cebpf4jnsgd1na2vs0mg"},{"bike_id":"5f7cd092-0236-465f-8122-69b142be1c2e","system_id":"levelo_inurba_marseille","lat":43.2621,"lon":5.37438,"is_reserved":false,"is_disabled":false,"rental_uris":{"android":"levelo://app?vid=5f7cd092-0236-465f-8122-69b142be1c2e","ios":"levelo://app?vid=5f7cd092-0236-465f-8122-69b142be1c2e"},"vehicle_type_id":"4","last_reported":1736535998,"current_range_meters":6400,"station_id":"ce4bhgp2rcd13ifvqfc0","pricing_plan_id":"cebpf4jnsgd1na2vs0mg"},{"bike_id":"0e36b4f2-c7ff-48f9-ac07-e17c655b74ab","system_id":"levelo_inurba_marseille","lat":43.29635,"lon":5.40602,"is_reserved":false,"is_disabled":false,"rental_uris":{"android":"levelo://app?vid=0e36b4f2-c7ff-48f9-ac07-e17c655b74ab","ios":"levelo://app?vid=0e36b4f2-c7ff-48f9-ac07-e17c655b74ab"},"vehicle_type_id":"4","last_reported":1736535998,"current_range_meters":20000,"station_id":"ce4bh0h2rcd13ifvqd60","pricing_plan_id":"cebpf4jnsgd1na2vs0mg"},{"bike_id":"afec84db-155d-463d-ae8d-261c8eaa73c0","system_id":"levelo_inurba_marseille","lat":43.28371,"lon":5.38636,"is_reserved":false,"is_disabled":false,"rental_uris":{"android":"levelo://app?vid=afec84db-155d-463d-ae8d-261c8eaa73c0","ios":"levelo://app?vid=afec84db-155d-463d-ae8d-261c8eaa73c0"},"vehicle_type_id":"4","last_reported":1736535998,"current_range_meters":11600,"station_id":"ce4bh492rcd13ifvqdvg","pricing_plan_id":"cebpf4jnsgd1na2vs0mg"},{"bike_id":"365ecc85-a1d5-42f6-a182-78bfac835143","system_id":"levelo_inurba_marseille","lat":43.28129,"lon":5.36894,"is_reserved":false,"is_disabled":false,"rental_uris":{"android":"levelo://app?vid=365ecc85-a1d5-42f6-a182-78bfac835143","ios":"levelo://app?vid=365ecc85-a1d5-42f6-a182-78bfac835143"},"vehicle_type_id":"4","last_reported":1736535998,"current_range_meters":17600,"station_id":"ce4bgj92rcd13ifvqbe0","pricing_plan_id":"cebpf4jnsgd1na2vs0mg"},{"bike_id":"7475f743-fa68-4b23-ab37-60e01b01184f","system_id":"levelo_inurba_marseille","lat":43.321118,"lon":5.367869,"is_reserved":false,"is_disabled":false,"rental_uris":{"android":"levelo://app?vid=7475f743-fa68-4b23-ab37-60e01b01184f","ios":"levelo://app?vid=7475f743-fa68-4b23-ab37-60e01b01184f"},"vehicle_type_id":"4","last_reported":1736535998,"current_range_meters":30800,"station_id":"ce4bhrh2rcd13ifvqhug","pricing_plan_id":"cebpf4jnsgd1na2vs0mg"},{"bike_id":"e2744ec8-2f1a-4025-9ec0-6a07f5db3fc4","system_id":"levelo_inurba_marseille","lat":43.25506,"lon":5.37648,"is_reserved":false,"is_disabled":false,"rental_uris":{"android":"levelo://app?vid=e2744ec8-2f1a-4025-9ec0-6a07f5db3fc4","ios":"levelo://app?vid=e2744ec8-2f1a-4025-9ec0-6a07f5db3fc4"},"vehicle_type_id":"4","last_reported":1736535998,"current_range_meters":36400,"station_id":"ce4bhh12rcd13ifvqff0","pricing_plan_id":"cebpf4jnsgd1na2vs0mg"},{"bike_id":"39e8b8db-a45b-47ac-924f-708d2b3bef9a","system_id":"levelo_inurba_marseille","lat":43.28621,"lon":5.35103,"is_reserved":false,"is_disabled":false,"rental_uris":{"android":"levelo://app?vid=39e8b8db-a45b-47ac-924f-708d2b3bef9a","ios":"levelo://app?vid=39e8b8db-a45b-47ac-924f-708d2b3bef9a"},"vehicle_type_id":"4","last_reported":1736535998,"current_range_meters":17200,"station_id":"ce4bhch2rcd13ifvqeug","pricing_plan_id":"cebpf4jnsgd1na2vs0mg"},{"bike_id":"d29ff73c-466e-46e4-a3d3-a1e6152a2c92","system_id":"levelo_inurba_marseille","lat":43.30544,"lon":5.38408,"is_reserved":false,"is_disabled":false,"rental_uris":{"android":"levelo://app?vid=d29ff73c-466e-46e4-a3d3-a1e6152a2c92","ios":"levelo://app?vid=d29ff73c-466e-46e4-a3d3-a1e6152a2c92"},"vehicle_type_id":"4","last_reported":1736535998,"current_range_meters":22800,"station_id":"ce4bgg92rcd13ifvqb30","pricing_plan_id":"cebpf4jnsgd1na2vs0mg"},{"bike_id":"8df8e157-98f0-4409-b845-7548ca192bd7","system_id":"levelo_inurba_marseille","lat":43.30355,"lon":5.41877,"is_reserved":false,"is_disabled":true,"rental_uris":{"android":"levelo://app?vid=8df8e157-98f0-4409-b845-7548ca192bd7","ios":"levelo://app?vid=8df8e157-98f0-4409-b845-7548ca192bd7"},"vehicle_type_id":"4","last_reported":1736535998,"current_range_meters":1200,"station_id":"ce4bhop2rcd13ifvqh7g","pricing_plan_id":"cebpf4jnsgd1na2vs0mg"},{"bike_id":"45363aed-f9b9-4fd3-b8de-9692c0bd1cb8","system_id":"levelo_inurba_marseille","lat":43.29236,"lon":5.37078,"is_reserved":false,"is_disabled":false,"rental_uris":{"android":"levelo://app?vid=45363aed-f9b9-4fd3-b8de-9692c0bd1cb8","ios":"levelo://app?vid=45363aed-f9b9-4fd3-b8de-9692c0bd1cb8"},"vehicle_type_id":"4","last_reported":1736535998,"current_range_meters":29600,"station_id":"ce4bgj92rcd13ifvqbe0","pricing_plan_id":"cebpf4jnsgd1na2vs0mg"},{"bike_id":"9be01537-e054-45c4-92d8-0b0eb1e034b4","system_id":"levelo_inurba_marseille","lat":43.2781,"lon":5.40715,"is_reserved":false,"is_disabled":false,"rental_uris":{"android":"levelo://app?vid=9be01537-e054-45c4-92d8-0b0eb1e034b4","ios":"levelo://app?vid=9be01537-e054-45c4-92d8-0b0eb1e034b4"},"vehicle_type_id":"4","last_reported":1736535998,"current_range_meters":25200,"station_id":"ce4bhnh2rcd13ifvqgtg","pricing_plan_id":"cebpf4jnsgd1na2vs0mg"},{"bike_id":"9ae38c5b-4391-42e6-b960-6b9106b74fc0","system_id":"levelo_inurba_marseille","lat":43.30601,"lon":5.39373,"is_reserved":false,"is_disabled":false,"rental_uris":{"android":"levelo://app?vid=9ae38c5b-4391-42e6-b960-6b9106b74fc0","ios":"levelo://app?vid=9ae38c5b-4391-42e6-b960-6b9106b74fc0"},"vehicle_type_id":"4","last_reported":1736535998,"current_range_meters":30800,"station_id":"ce4bh0p2rcd13ifvqd80","pricing_plan_id":"cebpf4jnsgd1na2vs0mg"},{"bike_id":"e2544aba-a350-44bf-ba9f-d261b2f4eb98","system_id":"levelo_inurba_marseille","lat":43.27937,"lon":5.41046,"is_reserved":false,"is_disabled":false,"rental_uris":{"android":"levelo://app?vid=e2544aba-a350-44bf-ba9f-d261b2f4eb98","ios":"levelo://app?vid=e2544aba-a350-44bf-ba9f-d261b2f4eb98"},"vehicle_type_id":"4","last_reported":1736535998,"current_range_meters":38800,"station_id":"ce4bhnp2rcd13ifvqh0g","pricing_plan_id":"cebpf4jnsgd1na2vs0mg"},{"bike_id":"20a84253-1598-4f77-a4e1-fa8e678e627b","system_id":"levelo_inurba_marseille","lat":43.28465,"lon":5.38416,"is_reserved":false,"is_disabled":false,"rental_uris":{"android":"levelo://app?vid=20a84253-1598-4f77-a4e1-fa8e678e627b","ios":"levelo://app?vid=20a84253-1598-4f77-a4e1-fa8e678e627b"},"vehicle_type_id":"4","last_reported":1736535998,"current_range_meters":27200,"station_id":"ce4bh512rcd13ifvqe3g","pricing_plan_id":"cebpf4jnsgd1na2vs0mg"},{"bike_id":"2eb264c8-1e8d-4f17-a831-3cda07857865","system_id":"levelo_inurba_marseille","lat":43.3212,"lon":5.36769,"is_reserved":false,"is_disabled":false,"rental_uris":{"android":"levelo://app?vid=2eb264c8-1e8d-4f17-a831-3cda07857865","ios":"levelo://app?vid=2eb264c8-1e8d-4f17-a831-3cda07857865"},"vehicle_type_id":"4","last_reported":1736535998,"current_range_meters":33600,"station_id":"ce4bhrh2rcd13ifvqhug","pricing_plan_id":"cebpf4jnsgd1na2vs0mg"},{"bike_id":"505fd087-15ee-406d-801d-55ac33c7ad6e","system_id":"levelo_inurba_marseille","lat":43.31169,"lon":5.38701,"is_reserved":false,"is_disabled":false,"rental_uris":{"android":"levelo://app?vid=505fd087-15ee-406d-801d-55ac33c7ad6e","ios":"levelo://app?vid=505fd087-15ee-406d-801d-55ac33c7ad6e"},"vehicle_type_id":"4","last_reported":1736535998,"current_range_meters":30800,"station_id":"ce4bgv12rcd13ifvqcp0","pricing_plan_id":"cebpf4jnsgd1na2vs0mg"},{"bike_id":"46526f4b-f372-48e8-9aa9-7f35a7763aff","system_id":"levelo_inurba_marseille","lat":43.28711,"lon":5.39999,"is_reserved":false,"is_disabled":false,"rental_uris":{"android":"levelo://app?vid=46526f4b-f372-48e8-9aa9-7f35a7763aff","ios":"levelo://app?vid=46526f4b-f372-48e8-9aa9-7f35a7763aff"},"vehicle_type_id":"4","last_reported":1736535998,"current_range_meters":39200,"station_id":"ce4bho92rcd13ifvqh3g","pricing_plan_id":"cebpf4jnsgd1na2vs0mg"},{"bike_id":"1e2223a2-c032-49e7-8dbf-982df86a0520","system_id":"levelo_inurba_marseille","lat":43.22922,"lon":5.35361,"is_reserved":false,"is_disabled":false,"rental_uris":{"android":"levelo://app?vid=1e2223a2-c032-49e7-8dbf-982df86a0520","ios":"levelo://app?vid=1e2223a2-c032-49e7-8dbf-982df86a0520"},"vehicle_type_id":"4","last_reported":1736535998,"current_range_meters":31200,"station_id":"cpo3532slgdg3j2ikp40","pricing_plan_id":"cebpf4jnsgd1na2vs0mg"},{"bike_id":"23cbbbec-e596-40b0-be37-90a09e1406b5","system_id":"levelo_inurba_marseille","lat":43.29257,"lon":5.38444,"is_reserved":false,"is_disabled":false,"rental_uris":{"android":"levelo://app?vid=23cbbbec-e596-40b0-be37-90a09e1406b5","ios":"levelo://app?vid=23cbbbec-e596-40b0-be37-90a09e1406b5"},"vehicle_type_id":"4","last_reported":1736535998,"current_range_meters":38400,"station_id":"ce4bh692rcd13ifvqea0","pricing_plan_id":"cebpf4jnsgd1na2vs0mg"},{"bike_id":"aa8ac0ca-89b2-472c-abe3-0a86d5057c87","system_id":"levelo_inurba_marseille","lat":43.26062,"lon":5.39402,"is_reserved":false,"is_disabled":false,"rental_uris":{"android":"levelo://app?vid=aa8ac0ca-89b2-472c-abe3-0a86d5057c87","ios":"levelo://app?vid=aa8ac0ca-89b2-472c-abe3-0a86d5057c87"},"vehicle_type_id":"4","last_reported":1736535998,"current_range_meters":8400,"station_id":"ce4bhh92rcd13ifvqfj0","pricing_plan_id":"cebpf4jnsgd1na2vs0mg"},{"bike_id":"5f2cf356-122a-4d24-85ba-e38bc4612223","system_id":"levelo_inurba_marseille","lat":43.25579,"lon":5.38232,"is_reserved":false,"is_disabled":true,"rental_uris":{"android":"levelo://app?vid=5f2cf356-122a-4d24-85ba-e38bc4612223","ios":"levelo://app?vid=5f2cf356-122a-4d24-85ba-e38bc4612223"},"vehicle_type_id":"4","last_reported":1736535998,"current_range_meters":36400,"station_id":"ce4bhih2rcd13ifvqfs0","pricing_plan_id":"cebpf4jnsgd1na2vs0mg"},{"bike_id":"be8a233f-ad85-41b2-af03-bfa1e3033438","system_id":"levelo_inurba_marseille","lat":43.23188,"lon":5.35539,"is_reserved":false,"is_disabled":false,"rental_uris":{"android":"levelo://app?vid=be8a233f-ad85-41b2-af03-bfa1e3033438","ios":"levelo://app?vid=be8a233f-ad85-41b2-af03-bfa1e3033438"},"vehicle_type_id":"4","last_reported":1736535998,"current_range_meters":24000,"station_id":"ce4bhu92rcd13ifvqi70","pricing_plan_id":"cebpf4jnsgd1na2vs0mg"},{"bike_id":"d7284d59-0fa0-4e55-88c3-9102035d8a99","system_id":"levelo_inurba_marseille","lat":43.30238,"lon":5.40044,"is_reserved":false,"is_disabled":true,"rental_uris":{"android":"levelo://app?vid=d7284d59-0fa0-4e55-88c3-9102035d8a99","ios":"levelo://app?vid=d7284d59-0fa0-4e55-88c3-9102035d8a99"},"vehicle_type_id":"4","last_reported":1736535998,"current_range_meters":12400,"station_id":"ce4bgvh2rcd13ifvqcs0","pricing_plan_id":"cebpf4jnsgd1na2vs0mg"},{"bike_id":"523ef827-3cae-45cc-8fae-88ff14f0b6a8","system_id":"levelo_inurba_marseille","lat":43.28109,"lon":5.37829,"is_reserved":false,"is_disabled":false,"rental_uris":{"android":"levelo://app?vid=523ef827-3cae-45cc-8fae-88ff14f0b6a8","ios":"levelo://app?vid=523ef827-3cae-45cc-8fae-88ff14f0b6a8"},"vehicle_type_id":"4","last_reported":1736535998,"current_range_meters":20400,"station_id":"ce4bha12rcd13ifvqee0","pricing_plan_id":"cebpf4jnsgd1na2vs0mg"},{"bike_id":"dae48010-81d5-405a-8a91-7a7fe69b7096","system_id":"levelo_inurba_marseille","lat":43.30613,"lon":5.37252,"is_reserved":false,"is_disabled":false,"rental_uris":{"android":"levelo://app?vid=dae48010-81d5-405a-8a91-7a7fe69b7096","ios":"levelo://app?vid=dae48010-81d5-405a-8a91-7a7fe69b7096"},"vehicle_type_id":"4","last_reported":1736535998,"current_range_meters":38800,"station_id":"ce4bgqh2rcd13ifvqc4g","pricing_plan_id":"cebpf4jnsgd1na2vs0mg"},{"bike_id":"18408ae9-67a3-4b12-af80-7b64bfc1f57a","system_id":"levelo_inurba_marseille","lat":43.29252,"lon":5.40905,"is_reserved":false,"is_disabled":false,"rental_uris":{"android":"levelo://app?vid=18408ae9-67a3-4b12-af80-7b64bfc1f57a","ios":"levelo://app?vid=18408ae9-67a3-4b12-af80-7b64bfc1f57a"},"vehicle_type_id":"4","last_reported":1736535998,"current_range_meters":24000,"station_id":"ce4bh192rcd13ifvqdc0","pricing_plan_id":"cebpf4jnsgd1na2vs0mg"},{"bike_id":"c0bb9f44-db82-448e-b526-30e3930379a7","system_id":"levelo_inurba_marseille","lat":43.30803,"lon":5.3814,"is_reserved":false,"is_disabled":false,"rental_uris":{"android":"levelo://app?vid=c0bb9f44-db82-448e-b526-30e3930379a7","ios":"levelo://app?vid=c0bb9f44-db82-448e-b526-30e3930379a7"},"vehicle_type_id":"4","last_reported":1736535998,"current_range_meters":9200,"station_id":"ce4bgt12rcd13ifvqce0","pricing_plan_id":"cebpf4jnsgd1na2vs0mg"},{"bike_id":"d6745590-70ea-490f-a723-09ce3827ac68","system_id":"levelo_inurba_marseille","lat":43.24664,"lon":5.38161,"is_reserved":false,"is_disabled":false,"rental_uris":{"android":"levelo://app?vid=d6745590-70ea-490f-a723-09ce3827ac68","ios":"levelo://app?vid=d6745590-70ea-490f-a723-09ce3827ac68"},"vehicle_type_id":"4","last_reported":1736535998,"current_range_meters":36800,"station_id":"ce4bhih2rcd13ifvqfr0","pricing_plan_id":"cebpf4jnsgd1na2vs0mg"},{"bike_id":"6d62c332-8463-4361-8de6-c419ab720f3d","system_id":"levelo_inurba_marseille","lat":43.28072,"lon":5.39661,"is_reserved":false,"is_disabled":false,"rental_uris":{"android":"levelo://app?vid=6d62c332-8463-4361-8de6-c419ab720f3d","ios":"levelo://app?vid=6d62c332-8463-4361-8de6-c419ab720f3d"},"vehicle_type_id":"4","last_reported":1736535998,"current_range_meters":30000,"station_id":"ce4bho12rcd13ifvqh2g","pricing_plan_id":"cebpf4jnsgd1na2vs0mg"},{"bike_id":"ac80f885-136b-4b9e-9033-6917968c01f8","system_id":"levelo_inurba_marseille","lat":43.30209,"lon":5.39456,"is_reserved":false,"is_disabled":false,"rental_uris":{"android":"levelo://app?vid=ac80f885-136b-4b9e-9033-6917968c01f8","ios":"levelo://app?vid=ac80f885-136b-4b9e-9033-6917968c01f8"},"vehicle_type_id":"4","last_reported":1736535998,"current_range_meters":35600,"station_id":"ce4bh0p2rcd13ifvqd70","pricing_plan_id":"cebpf4jnsgd1na2vs0mg"},{"bike_id":"10b087d3-b27a-4384-ae75-250401046e12","system_id":"levelo_inurba_marseille","lat":43.3152,"lon":5.38041,"is_reserved":false,"is_disabled":false,"rental_uris":{"android":"levelo://app?vid=10b087d3-b27a-4384-ae75-250401046e12","ios":"levelo://app?vid=10b087d3-b27a-4384-ae75-250401046e12"},"vehicle_type_id":"4","last_reported":1736535998,"current_range_meters":7200,"station_id":"ce4bhsp2rcd13ifvqi50","pricing_plan_id":"cebpf4jnsgd1na2vs0mg"},{"bike_id":"ad28bd53-1c8c-44ea-9a1c-1e5a5b2498fe","system_id":"levelo_inurba_marseille","lat":43.24172,"lon":5.363929,"is_reserved":false,"is_disabled":false,"rental_uris":{"android":"levelo://app?vid=ad28bd53-1c8c-44ea-9a1c-1e5a5b2498fe","ios":"levelo://app?vid=ad28bd53-1c8c-44ea-9a1c-1e5a5b2498fe"},"vehicle_type_id":"4","last_reported":1736535998,"current_range_meters":9200,"station_id":"cpo36qri1sfpv3e86is0","pricing_plan_id":"cebpf4jnsgd1na2vs0mg"},{"bike_id":"30b4f19a-5b8b-4ac5-8a89-8b14fe041003","system_id":"levelo_inurba_marseille","lat":43.24812,"lon":5.37466,"is_reserved":false,"is_disabled":false,"rental_uris":{"android":"levelo://app?vid=30b4f19a-5b8b-4ac5-8a89-8b14fe041003","ios":"levelo://app?vid=30b4f19a-5b8b-4ac5-8a89-8b14fe041003"},"vehicle_type_id":"4","last_reported":1736535998,"current_range_meters":22400,"station_id":"ce4bhgh2rcd13ifvqfb0","pricing_plan_id":"cebpf4jnsgd1na2vs0mg"},{"bike_id":"77d94711-f9c1-45af-8af5-6b309a06f862","system_id":"levelo_inurba_marseille","lat":43.30143,"lon":5.38063,"is_reserved":false,"is_disabled":false,"rental_uris":{"android":"levelo://app?vid=77d94711-f9c1-45af-8af5-6b309a06f862","ios":"levelo://app?vid=77d94711-f9c1-45af-8af5-6b309a06f862"},"vehicle_type_id":"4","last_reported":1736535998,"current_range_meters":13600,"station_id":"ce4bgjp2rcd13ifvqbh0","pricing_plan_id":"cebpf4jnsgd1na2vs0mg"},{"bike_id":"dbd9b530-fed1-4d45-bb60-d02086423e0f","system_id":"levelo_inurba_marseille","lat":43.27178,"lon":5.40989,"is_reserved":false,"is_disabled":false,"rental_uris":{"android":"levelo://app?vid=dbd9b530-fed1-4d45-bb60-d02086423e0f","ios":"levelo://app?vid=dbd9b530-fed1-4d45-bb60-d02086423e0f"},"vehicle_type_id":"4","last_reported":1736535998,"current_range_meters":38800,"station_id":"ce4bhl12rcd13ifvqgf0","pricing_plan_id":"cebpf4jnsgd1na2vs0mg"},{"bike_id":"682413df-e501-4581-a7ab-2beec4a5896c","system_id":"levelo_inurba_marseille","lat":43.29274,"lon":5.38449,"is_reserved":false,"is_disabled":false,"rental_uris":{"android":"levelo://app?vid=682413df-e501-4581-a7ab-2beec4a5896c","ios":"levelo://app?vid=682413df-e501-4581-a7ab-2beec4a5896c"},"vehicle_type_id":"4","last_reported":1736535998,"current_range_meters":24400,"station_id":"ce4bh692rcd13ifvqea0","pricing_plan_id":"cebpf4jnsgd1na2vs0mg"},{"bike_id":"4f8a00ba-8b60-44a6-a43a-eb56b6879614","system_id":"levelo_inurba_marseille","lat":43.30217,"lon":5.39466,"is_reserved":false,"is_disabled":false,"rental_uris":{"android":"levelo://app?vid=4f8a00ba-8b60-44a6-a43a-eb56b6879614","ios":"levelo://app?vid=4f8a00ba-8b60-44a6-a43a-eb56b6879614"},"vehicle_type_id":"4","last_reported":1736535998,"current_range_meters":8800,"station_id":"ce4bh0p2rcd13ifvqd70","pricing_plan_id":"cebpf4jnsgd1na2vs0mg"},{"bike_id":"e2dab698-0f67-4975-bae4-e0aee614e17a","system_id":"levelo_inurba_marseille","lat":43.25579,"lon":5.38229,"is_reserved":false,"is_disabled":false,"rental_uris":{"android":"levelo://app?vid=e2dab698-0f67-4975-bae4-e0aee614e17a","ios":"levelo://app?vid=e2dab698-0f67-4975-bae4-e0aee614e17a"},"vehicle_type_id":"4","last_reported":1736535998,"current_range_meters":32400,"station_id":"ce4bhih2rcd13ifvqfs0","pricing_plan_id":"cebpf4jnsgd1na2vs0mg"},{"bike_id":"0208b712-2691-47c5-873b-b1063dec2acf","system_id":"levelo_inurba_marseille","lat":43.30878,"lon":5.39617,"is_reserved":false,"is_disabled":false,"rental_uris":{"android":"levelo://app?vid=0208b712-2691-47c5-873b-b1063dec2acf","ios":"levelo://app?vid=0208b712-2691-47c5-873b-b1063dec2acf"},"vehicle_type_id":"4","last_reported":1736535998,"current_range_meters":5600,"station_id":"ce4bh012rcd13ifvqcv0","pricing_plan_id":"cebpf4jnsgd1na2vs0mg"},{"bike_id":"b8acbba0-a715-4ced-a2aa-0517db10ac9d","system_id":"levelo_inurba_marseille","lat":43.22933,"lon":5.35389,"is_reserved":false,"is_disabled":true,"rental_uris":{"android":"levelo://app?vid=b8acbba0-a715-4ced-a2aa-0517db10ac9d","ios":"levelo://app?vid=b8acbba0-a715-4ced-a2aa-0517db10ac9d"},"vehicle_type_id":"4","last_reported":1736535998,"current_range_meters":38400,"station_id":"cpo3532slgdg3j2ikp40","pricing_plan_id":"cebpf4jnsgd1na2vs0mg"},{"bike_id":"207ce4c7-6de1-4890-9103-be7b544723a9","system_id":"levelo_inurba_marseille","lat":43.299035,"lon":5.381465,"is_reserved":false,"is_disabled":false,"rental_uris":{"android":"levelo://app?vid=207ce4c7-6de1-4890-9103-be7b544723a9","ios":"levelo://app?vid=207ce4c7-6de1-4890-9103-be7b544723a9"},"vehicle_type_id":"4","last_reported":1736535998,"current_range_meters":8800,"station_id":"ce4bgj12rcd13ifvqbc0","pricing_plan_id":"cebpf4jnsgd1na2vs0mg"},{"bike_id":"84b9f295-a241-476a-804c-3b462d0130a5","system_id":"levelo_inurba_marseille","lat":43.28,"lon":5.40004,"is_reserved":false,"is_disabled":false,"rental_uris":{"android":"levelo://app?vid=84b9f295-a241-476a-804c-3b462d0130a5","ios":"levelo://app?vid=84b9f295-a241-476a-804c-3b462d0130a5"},"vehicle_type_id":"4","last_reported":1736535998,"current_range_meters":16800,"station_id":"ce4bho92rcd13ifvqh4g","pricing_plan_id":"cebpf4jnsgd1na2vs0mg"},{"bike_id":"ad113f76-a766-497a-90be-d1902352af36","system_id":"levelo_inurba_marseille","lat":43.3211,"lon":5.36803,"is_reserved":false,"is_disabled":false,"rental_uris":{"android":"levelo://app?vid=ad113f76-a766-497a-90be-d1902352af36","ios":"levelo://app?vid=ad113f76-a766-497a-90be-d1902352af36"},"vehicle_type_id":"4","last_reported":1736535998,"current_range_meters":37600,"station_id":"ce4bhrh2rcd13ifvqhug","pricing_plan_id":"cebpf4jnsgd1na2vs0mg"},{"bike_id":"e3b617fd-cb5b-4afe-b5ba-44b95641441e","system_id":"levelo_inurba_marseille","lat":43.31493,"lon":5.3731,"is_reserved":false,"is_disabled":false,"rental_uris":{"android":"levelo://app?vid=e3b617fd-cb5b-4afe-b5ba-44b95641441e","ios":"levelo://app?vid=e3b617fd-cb5b-4afe-b5ba-44b95641441e"},"vehicle_type_id":"4","last_reported":1736535998,"current_range_meters":36800,"station_id":"ce4bgt12rcd13ifvqcd0","pricing_plan_id":"cebpf4jnsgd1na2vs0mg"},{"bike_id":"492eaeaa-12ec-45d5-becd-2f0b35e16c8d","system_id":"levelo_inurba_marseille","lat":43.2417,"lon":5.36374,"is_reserved":false,"is_disabled":false,"rental_uris":{"android":"levelo://app?vid=492eaeaa-12ec-45d5-becd-2f0b35e16c8d","ios":"levelo://app?vid=492eaeaa-12ec-45d5-becd-2f0b35e16c8d"},"vehicle_type_id":"4","last_reported":1736535998,"current_range_meters":12400,"station_id":"cpo36qri1sfpv3e86is0","pricing_plan_id":"cebpf4jnsgd1na2vs0mg"},{"bike_id":"a76bdc52-670b-42f0-a6bc-f0e47359d3dd","system_id":"levelo_inurba_marseille","lat":43.27175,"lon":5.41002,"is_reserved":false,"is_disabled":false,"rental_uris":{"android":"levelo://app?vid=a76bdc52-670b-42f0-a6bc-f0e47359d3dd","ios":"levelo://app?vid=a76bdc52-670b-42f0-a6bc-f0e47359d3dd"},"vehicle_type_id":"4","last_reported":1736535998,"current_range_meters":28400,"station_id":"ce4bhl12rcd13ifvqgf0","pricing_plan_id":"cebpf4jnsgd1na2vs0mg"},{"bike_id":"377730c6-0336-4c78-9c46-cdee41ff19a9","system_id":"levelo_inurba_marseille","lat":43.28028,"lon":5.41107,"is_reserved":false,"is_disabled":false,"rental_uris":{"android":"levelo://app?vid=377730c6-0336-4c78-9c46-cdee41ff19a9","ios":"levelo://app?vid=377730c6-0336-4c78-9c46-cdee41ff19a9"},"vehicle_type_id":"4","last_reported":1736535998,"current_range_meters":4800,"station_id":"","pricing_plan_id":"cebpf4jnsgd1na2vs0mg"},{"bike_id":"69689a84-aa34-48e6-8abf-e56354e3d93c","system_id":"levelo_inurba_marseille","lat":43.29523,"lon":5.37499,"is_reserved":false,"is_disabled":true,"rental_uris":{"android":"levelo://app?vid=69689a84-aa34-48e6-8abf-e56354e3d93c","ios":"levelo://app?vid=69689a84-aa34-48e6-8abf-e56354e3d93c"},"vehicle_type_id":"4","last_reported":1736535998,"current_range_meters":33200,"station_id":"ce4bgkp2rcd13ifvqbmg","pricing_plan_id":"cebpf4jnsgd1na2vs0mg"},{"bike_id":"266859f2-18fe-482a-8c9f-5bdad982c716","system_id":"levelo_inurba_marseille","lat":43.28058,"lon":5.41103,"is_reserved":false,"is_disabled":false,"rental_uris":{"android":"levelo://app?vid=266859f2-18fe-482a-8c9f-5bdad982c716","ios":"levelo://app?vid=266859f2-18fe-482a-8c9f-5bdad982c716"},"vehicle_type_id":"4","last_reported":1736535998,"current_range_meters":2800,"station_id":"","pricing_plan_id":"cebpf4jnsgd1na2vs0mg"},{"bike_id":"ff3cf7ff-a120-4d85-8f37-ab2aef89a1f7","system_id":"levelo_inurba_marseille","lat":43.28925,"lon":5.38386,"is_reserved":false,"is_disabled":false,"rental_uris":{"android":"levelo://app?vid=ff3cf7ff-a120-4d85-8f37-ab2aef89a1f7","ios":"levelo://app?vid=ff3cf7ff-a120-4d85-8f37-ab2aef89a1f7"},"vehicle_type_id":"4","last_reported":1736535998,"current_range_meters":38800,"station_id":"ce4bh612rcd13ifvqe6g","pricing_plan_id":"cebpf4jnsgd1na2vs0mg"},{"bike_id":"f89775fb-0121-4689-a33f-a311465da494","system_id":"levelo_inurba_marseille","lat":43.29193,"lon":5.39308,"is_reserved":false,"is_disabled":true,"rental_uris":{"android":"levelo://app?vid=f89775fb-0121-4689-a33f-a311465da494","ios":"levelo://app?vid=f89775fb-0121-4689-a33f-a311465da494"},"vehicle_type_id":"4","last_reported":1736535998,"current_range_meters":1600,"station_id":"ce4bh192rcd13ifvqdd0","pricing_plan_id":"cebpf4jnsgd1na2vs0mg"},{"bike_id":"3aff0150-e280-4a7d-a4df-32cb4cc997aa","system_id":"levelo_inurba_marseille","lat":43.28933,"lon":5.38393,"is_reserved":false,"is_disabled":false,"rental_uris":{"android":"levelo://app?vid=3aff0150-e280-4a7d-a4df-32cb4cc997aa","ios":"levelo://app?vid=3aff0150-e280-4a7d-a4df-32cb4cc997aa"},"vehicle_type_id":"4","last_reported":1736535998,"current_range_meters":12000,"station_id":"ce4bh612rcd13ifvqe6g","pricing_plan_id":"cebpf4jnsgd1na2vs0mg"},{"bike_id":"68931458-74a8-4017-97d3-e36242a98c18","system_id":"levelo_inurba_marseille","lat":43.29089,"lon":5.38122,"is_reserved":false,"is_disabled":false,"rental_uris":{"android":"levelo://app?vid=68931458-74a8-4017-97d3-e36242a98c18","ios":"levelo://app?vid=68931458-74a8-4017-97d3-e36242a98c18"},"vehicle_type_id":"4","last_reported":1736535998,"current_range_meters":16400,"station_id":"ce4bh512rcd13ifvqe2g","pricing_plan_id":"cebpf4jnsgd1na2vs0mg"},{"bike_id":"79d4d31b-e814-4db1-9d24-013e65778338","system_id":"levelo_inurba_marseille","lat":43.26194,"lon":5.37452,"is_reserved":false,"is_disabled":false,"rental_uris":{"android":"levelo://app?vid=79d4d31b-e814-4db1-9d24-013e65778338","ios":"levelo://app?vid=79d4d31b-e814-4db1-9d24-013e65778338"},"vehicle_type_id":"4","last_reported":1736535998,"current_range_meters":20400,"station_id":"ce4bhgp2rcd13ifvqfc0","pricing_plan_id":"cebpf4jnsgd1na2vs0mg"},{"bike_id":"8b5c05f7-cd96-4480-a4c6-65db35f9bbf1","system_id":"levelo_inurba_marseille","lat":43.29912,"lon":5.38158,"is_reserved":false,"is_disabled":false,"rental_uris":{"android":"levelo://app?vid=8b5c05f7-cd96-4480-a4c6-65db35f9bbf1","ios":"levelo://app?vid=8b5c05f7-cd96-4480-a4c6-65db35f9bbf1"},"vehicle_type_id":"4","last_reported":1736535998,"current_range_meters":39200,"station_id":"ce4bgj12rcd13ifvqbc0","pricing_plan_id":"cebpf4jnsgd1na2vs0mg"},{"bike_id":"fbcd889c-d1ca-43f7-be77-306b048b37ca","system_id":"levelo_inurba_marseille","lat":43.29627,"lon":5.40608,"is_reserved":false,"is_disabled":false,"rental_uris":{"android":"levelo://app?vid=fbcd889c-d1ca-43f7-be77-306b048b37ca","ios":"levelo://app?vid=fbcd889c-d1ca-43f7-be77-306b048b37ca"},"vehicle_type_id":"4","last_reported":1736535998,"current_range_meters":26800,"station_id":"ce4bh0h2rcd13ifvqd60","pricing_plan_id":"cebpf4jnsgd1na2vs0mg"},{"bike_id":"02219ad2-e5e3-4bf2-ac12-da65857bd3ed","system_id":"levelo_inurba_marseille","lat":43.30305,"lon":5.3686,"is_reserved":false,"is_disabled":false,"rental_uris":{"android":"levelo://app?vid=02219ad2-e5e3-4bf2-ac12-da65857bd3ed","ios":"levelo://app?vid=02219ad2-e5e3-4bf2-ac12-da65857bd3ed"},"vehicle_type_id":"4","last_reported":1736535998,"current_range_meters":34000,"station_id":"ce4bgqh2rcd13ifvqc5g","pricing_plan_id":"cebpf4jnsgd1na2vs0mg"},{"bike_id":"397fea56-09c9-4a12-a6fd-90334c90b0ad","system_id":"levelo_inurba_marseille","lat":43.24071,"lon":5.37754,"is_reserved":false,"is_disabled":false,"rental_uris":{"android":"levelo://app?vid=397fea56-09c9-4a12-a6fd-90334c90b0ad","ios":"levelo://app?vid=397fea56-09c9-4a12-a6fd-90334c90b0ad"},"vehicle_type_id":"4","last_reported":1736535998,"current_range_meters":38800,"station_id":"ce4bhnp2rcd13ifvqgvg","pricing_plan_id":"cebpf4jnsgd1na2vs0mg"},{"bike_id":"7015a870-6d22-4ce8-85d6-bbd5ed193ce3","system_id":"levelo_inurba_marseille","lat":43.25585,"lon":5.38236,"is_reserved":false,"is_disabled":false,"rental_uris":{"android":"levelo://app?vid=7015a870-6d22-4ce8-85d6-bbd5ed193ce3","ios":"levelo://app?vid=7015a870-6d22-4ce8-85d6-bbd5ed193ce3"},"vehicle_type_id":"4","last_reported":1736535998,"current_range_meters":17600,"station_id":"ce4bhih2rcd13ifvqfs0","pricing_plan_id":"cebpf4jnsgd1na2vs0mg"},{"bike_id":"991ecba2-444b-4c8b-951e-aeab6578222c","system_id":"levelo_inurba_marseille","lat":43.30591,"lon":5.39349,"is_reserved":false,"is_disabled":false,"rental_uris":{"android":"levelo://app?vid=991ecba2-444b-4c8b-951e-aeab6578222c","ios":"levelo://app?vid=991ecba2-444b-4c8b-951e-aeab6578222c"},"vehicle_type_id":"4","last_reported":1736535998,"current_range_meters":13600,"station_id":"ce4bh0p2rcd13ifvqd80","pricing_plan_id":"cebpf4jnsgd1na2vs0mg"},{"bike_id":"3a9366c6-502a-444b-b374-6877acc3af2b","system_id":"levelo_inurba_marseille","lat":43.31721,"lon":5.42398,"is_reserved":false,"is_disabled":false,"rental_uris":{"android":"levelo://app?vid=3a9366c6-502a-444b-b374-6877acc3af2b","ios":"levelo://app?vid=3a9366c6-502a-444b-b374-6877acc3af2b"},"vehicle_type_id":"4","last_reported":1736535998,"current_range_meters":25200,"station_id":"ce4bhp92rcd13ifvqhbg","pricing_plan_id":"cebpf4jnsgd1na2vs0mg"},{"bike_id":"3d9ecf0c-ae2d-4091-af3f-fa26e69eea0b","system_id":"levelo_inurba_marseille","lat":43.29279,"lon":5.40125,"is_reserved":false,"is_disabled":false,"rental_uris":{"android":"levelo://app?vid=3d9ecf0c-ae2d-4091-af3f-fa26e69eea0b","ios":"levelo://app?vid=3d9ecf0c-ae2d-4091-af3f-fa26e69eea0b"},"vehicle_type_id":"4","last_reported":1736535998,"current_range_meters":26000,"station_id":"ce4bh312rcd13ifvqdk0","pricing_plan_id":"cebpf4jnsgd1na2vs0mg"},{"bike_id":"b9619dd7-91f7-432e-b0ef-695b4d3f299d","system_id":"levelo_inurba_marseille","lat":43.31985,"lon":5.38136,"is_reserved":false,"is_disabled":false,"rental_uris":{"android":"levelo://app?vid=b9619dd7-91f7-432e-b0ef-695b4d3f299d","ios":"levelo://app?vid=b9619dd7-91f7-432e-b0ef-695b4d3f299d"},"vehicle_type_id":"4","last_reported":1736535998,"current_range_meters":24000,"station_id":"ce4bhr12rcd13ifvqhpg","pricing_plan_id":"cebpf4jnsgd1na2vs0mg"},{"bike_id":"ada73a19-195c-43d9-b6df-26a14256e824","system_id":"levelo_inurba_marseille","lat":43.290228,"lon":5.38648,"is_reserved":false,"is_disabled":true,"rental_uris":{"android":"levelo://app?vid=ada73a19-195c-43d9-b6df-26a14256e824","ios":"levelo://app?vid=ada73a19-195c-43d9-b6df-26a14256e824"},"vehicle_type_id":"4","last_reported":1736535998,"current_range_meters":8800,"station_id":"ce4bh4p2rcd13ifvqe0g","pricing_plan_id":"cebpf4jnsgd1na2vs0mg"},{"bike_id":"ae61a3b0-7654-4825-87f6-b8029e44ac28","system_id":"levelo_inurba_marseille","lat":43.29562,"lon":5.39965,"is_reserved":false,"is_disabled":false,"rental_uris":{"android":"levelo://app?vid=ae61a3b0-7654-4825-87f6-b8029e44ac28","ios":"levelo://app?vid=ae61a3b0-7654-4825-87f6-b8029e44ac28"},"vehicle_type_id":"4","last_reported":1736535998,"current_range_meters":38800,"station_id":"ce4bh312rcd13ifvqdj0","pricing_plan_id":"cebpf4jnsgd1na2vs0mg"},{"bike_id":"5429a343-1ad7-4e39-8dc6-4ebb4ca54736","system_id":"levelo_inurba_marseille","lat":43.311825,"lon":5.385348,"is_reserved":false,"is_disabled":false,"rental_uris":{"android":"levelo://app?vid=5429a343-1ad7-4e39-8dc6-4ebb4ca54736","ios":"levelo://app?vid=5429a343-1ad7-4e39-8dc6-4ebb4ca54736"},"vehicle_type_id":"4","last_reported":1736535998,"current_range_meters":24000,"station_id":"","pricing_plan_id":"cebpf4jnsgd1na2vs0mg"},{"bike_id":"abc9d10b-d43d-4aa0-9b23-6b139e391bd7","system_id":"levelo_inurba_marseille","lat":43.28003,"lon":5.40011,"is_reserved":false,"is_disabled":false,"rental_uris":{"android":"levelo://app?vid=abc9d10b-d43d-4aa0-9b23-6b139e391bd7","ios":"levelo://app?vid=abc9d10b-d43d-4aa0-9b23-6b139e391bd7"},"vehicle_type_id":"4","last_reported":1736535998,"current_range_meters":30800,"station_id":"ce4bho92rcd13ifvqh4g","pricing_plan_id":"cebpf4jnsgd1na2vs0mg"},{"bike_id":"dd62d67c-4f50-4bbd-af10-63fe520a99b4","system_id":"levelo_inurba_marseille","lat":43.30311,"lon":5.36904,"is_reserved":false,"is_disabled":true,"rental_uris":{"android":"levelo://app?vid=dd62d67c-4f50-4bbd-af10-63fe520a99b4","ios":"levelo://app?vid=dd62d67c-4f50-4bbd-af10-63fe520a99b4"},"vehicle_type_id":"4","last_reported":1736535998,"current_range_meters":33600,"station_id":"ce4bgqh2rcd13ifvqc5g","pricing_plan_id":"cebpf4jnsgd1na2vs0mg"},{"bike_id":"ca2450e7-5c66-4bdc-b528-943118702b91","system_id":"levelo_inurba_marseille","lat":43.337326,"lon":5.391837,"is_reserved":false,"is_disabled":false,"rental_uris":{"android":"levelo://app?vid=ca2450e7-5c66-4bdc-b528-943118702b91","ios":"levelo://app?vid=ca2450e7-5c66-4bdc-b528-943118702b91"},"vehicle_type_id":"4","last_reported":1736535998,"current_range_meters":38800,"station_id":"ce4bhr92rcd13ifvqhsg","pricing_plan_id":"cebpf4jnsgd1na2vs0mg"},{"bike_id":"be97934a-efd5-43dc-a20c-fded1b4a0387","system_id":"levelo_inurba_marseille","lat":43.2396,"lon":5.36633,"is_reserved":false,"is_disabled":false,"rental_uris":{"android":"levelo://app?vid=be97934a-efd5-43dc-a20c-fded1b4a0387","ios":"levelo://app?vid=be97934a-efd5-43dc-a20c-fded1b4a0387"},"vehicle_type_id":"4","last_reported":1736535998,"current_range_meters":38800,"station_id":"ce4bhi12rcd13ifvqfp0","pricing_plan_id":"cebpf4jnsgd1na2vs0mg"},{"bike_id":"07878525-9cfb-4088-92d7-8e9bc709b1f5","system_id":"levelo_inurba_marseille","lat":43.28847,"lon":5.35875,"is_reserved":false,"is_disabled":false,"rental_uris":{"android":"levelo://app?vid=07878525-9cfb-4088-92d7-8e9bc709b1f5","ios":"levelo://app?vid=07878525-9cfb-4088-92d7-8e9bc709b1f5"},"vehicle_type_id":"4","last_reported":1736535998,"current_range_meters":8000,"station_id":"ce4bhb12rcd13ifvqem0","pricing_plan_id":"cebpf4jnsgd1na2vs0mg"},{"bike_id":"d5f7e953-050c-4cea-99af-495b991331e3","system_id":"levelo_inurba_marseille","lat":43.317578,"lon":5.375877,"is_reserved":false,"is_disabled":false,"rental_uris":{"android":"levelo://app?vid=d5f7e953-050c-4cea-99af-495b991331e3","ios":"levelo://app?vid=d5f7e953-050c-4cea-99af-495b991331e3"},"vehicle_type_id":"4","last_reported":1736535998,"current_range_meters":38800,"station_id":"","pricing_plan_id":"cebpf4jnsgd1na2vs0mg"},{"bike_id":"9b0fe2b4-20ee-4beb-9c0e-764ceba25a6c","system_id":"levelo_inurba_marseille","lat":43.28858,"lon":5.35848,"is_reserved":false,"is_disabled":false,"rental_uris":{"android":"levelo://app?vid=9b0fe2b4-20ee-4beb-9c0e-764ceba25a6c","ios":"levelo://app?vid=9b0fe2b4-20ee-4beb-9c0e-764ceba25a6c"},"vehicle_type_id":"4","last_reported":1736535998,"current_range_meters":26800,"station_id":"ce4bhb12rcd13ifvqem0","pricing_plan_id":"cebpf4jnsgd1na2vs0mg"},{"bike_id":"a1164a90-2dc8-4478-8d43-814a6b95fb9e","system_id":"levelo_inurba_marseille","lat":43.33757,"lon":5.37476,"is_reserved":false,"is_disabled":false,"rental_uris":{"android":"levelo://app?vid=a1164a90-2dc8-4478-8d43-814a6b95fb9e","ios":"levelo://app?vid=a1164a90-2dc8-4478-8d43-814a6b95fb9e"},"vehicle_type_id":"4","last_reported":1736535998,"current_range_meters":38400,"station_id":"","pricing_plan_id":"cebpf4jnsgd1na2vs0mg"},{"bike_id":"bcb0c049-44fc-41c3-8da3-1f0d7fa6bcad","system_id":"levelo_inurba_marseille","lat":43.29523,"lon":5.39406,"is_reserved":false,"is_disabled":false,"rental_uris":{"android":"levelo://app?vid=bcb0c049-44fc-41c3-8da3-1f0d7fa6bcad","ios":"levelo://app?vid=bcb0c049-44fc-41c3-8da3-1f0d7fa6bcad"},"vehicle_type_id":"4","last_reported":1736535998,"current_range_meters":24400,"station_id":"ce4bh292rcd13ifvqdf0","pricing_plan_id":"cebpf4jnsgd1na2vs0mg"},