{"last_updated":1699596576,"ttl":30,"version":"2.2","data":{"bikes":[{"bike_id":"0c8f0b0d-36cf-4567-9f76-db0ba30fb402","system_id":"levelo_inurba_marseille","lat":43.313391,"lon":5.36706,"is_reserved":false,"is_disabled":false,"rental_uris":{"android":"levelo://app?vid=0c8f0b0d-36cf-4567-9f76-db0ba30fb402","ios":"levelo://app?vid=0c8f0b0d-36cf-4567-9f76-db0ba30fb402"},"vehicle_type_id":"4","last_reported":1699596576,"current_range_meters":29200,"station_id":"ce4bgr92rcd13ifvqc6g","pricing_plan_id":"free"},{"bike_id":"0f54fedd-3958-433a-9102-e54ba26583ca","system_id":"levelo_inurba_marseille","lat":43.312239,"lon":5.368562,"is_reserved":false,"is_disabled":false,"rental_uris":{"android":"levelo://app?vid=0f54fedd-3958-433a-9102-e54ba26583ca","ios":"levelo://app?vid=0f54fedd-3958-433a-9102-e54ba26583ca"},"vehicle_type_id":"4","last_reported":1699596576,"current_range_meters":27600,"station_id":"ce4bgl92rcd13ifvqbq0","pricing_plan_id":"free"},{"bike_id":"45ce29a8-bec1-4031-8488-24b58c1ef828","system_id":"levelo_inurba_marseille","lat":43.314811,"lon":5.373103,"is_reserved":false,"is_disabled":false,"rental_uris":{"android":"levelo://app?vid=45ce29a8-bec1-4031-8488-24b58c1ef828","ios":"levelo://app?vid=45ce29a8-bec1-4031-8488-24b58c1ef828"},"vehicle_type_id":"4","last_reported":1699596576,"current_range_meters":29200,"station_id":"ce4bgt12rcd13ifvqcd0","pricing_plan_id":"free"},{"bike_id":"b0d64836-6637-4658-8bad-74ae00ea9113","system_id":"levelo_inurba_marseille","lat":43.314811,"lon":5.373103,"is_reserved":false,"is_disabled":false,"rental_uris":{"android":"levelo://app?vid=b0d64836-6637-4658-8bad-74ae00ea9113","ios":"levelo://app?vid=b0d64836-6637-4658-8bad-74ae00ea9113"},"vehicle_type_id":"4","last_reported":1699596576,"current_range_meters":25200,"station_id":"ce4bgt12rcd13ifvqcd0","pricing_plan_id":"free"},{"bike_id":"91d085bd-581a-404f-954c-23170e00f10d","system_id":"levelo_inurba_marseille","lat":43.314811,"lon":5.373103,"is_reserved":false,"is_disabled":false,"rental_uris":{"android":"levelo://app?vid=91d085bd-581a-404f-954c-23170e00f10d","ios":"levelo://app?vid=91d085bd-581a-404f-954c-23170e00f10d"},"vehicle_type_id":"4","last_reported":1699596576,"current_range_meters":24000,"station_id":"ce4bgt12rcd13ifvqcd0","pricing_plan_id":"free"},{"bike_id":"57ffdf66-03fb-459d-b3f0-1abd28f1b0b7","system_id":"levelo_inurba_marseille","lat":43.314811,"lon":5.373104,"is_reserved":false,"is_disabled":false,"rental_uris":{"android":"levelo://app?vid=57ffdf66-03fb-459d-b3f0-1abd28f1b0b7","ios":"levelo://app?vid=57ffdf66-03fb-459d-b3f0-1abd28f1b0b7"},"vehicle_type_id":"4","last_reported":1699596576,"current_range_meters":30800,"station_id":"ce4bgt12rcd13ifvqcd0","pricing_plan_id":"free"},{"bike_id":"10b9e99d-2bbe-4eb1-ab54-803a6668f009","system_id":"levelo_inurba_marseille","lat":43.309039,"lon":5.371797,"is_reserved":false,"is_disabled":false,"rental_uris":{"android":"levelo://app?vid=10b9e99d-2bbe-4eb1-ab54-803a6668f009","ios":"levelo://app?vid=10b9e99d-2bbe-4eb1-ab54-803a6668f009"},"vehicle_type_id":"4","last_reported":1699596576,"current_range_meters":4800,"station_id":"ce4bguh2rcd13ifvqckg","pricing_plan_id":"free"},{"bike_id":"2f222026-c000-4c84-9103-e6d44a0ff880","system_id":"levelo_inurba_marseille","lat":43.309039,"lon":5.371797,"is_reserved":false,"is_disabled":false,"rental_uris":{"android":"levelo://app?vid=2f222026-c000-4c84-9103-e6d44a0ff880","ios":"levelo://app?vid=2f222026-c000-4c84-9103-e6d44a0ff880"},"vehicle_type_id":"4","last_reported":1699596576,"current_range_meters":31200,"station_id":"ce4bguh2rcd13ifvqckg","pricing_plan_id":"free"},{"bike_id":"76b359af-c20b-45d0-a1df-78f4c9a6553a","system_id":"levelo_inurba_marseille","lat":43.30545,"lon":5.36529,"is_reserved":false,"is_disabled":false,"rental_uris":{"android":"levelo://app?vid=76b359af-c20b-45d0-a1df-78f4c9a6553a","ios":"levelo://app?vid=76b359af-c20b-45d0-a1df-78f4c9a6553a"},"vehicle_type_id":"4","last_reported":1699596576,"current_range_meters":24800,"station_id":"ce4bgs12rcd13ifvqcag","pricing_plan_id":"free"},{"bike_id":"c45f79b9-b964-4a05-a9fe-6166630f59d0","system_id":"levelo_inurba_marseille","lat":43.305714,"lon":5.365633,"is_reserved":false,"is_disabled":false,"rental_uris":{"android":"levelo://app?vid=c45f79b9-b964-4a05-a9fe-6166630f59d0","ios":"levelo://app?vid=c45f79b9-b964-4a05-a9fe-6166630f59d0"},"vehicle_type_id":"4","last_reported":1699596576,"current_range_meters":25600,"station_id":"ce4bgs12rcd13ifvqcag","pricing_plan_id":"free"},{"bike_id":"fc5b8035-d375-486c-b963-c07e2332bc93","system_id":"levelo_inurba_marseille","lat":43.305204,"lon":5.366916,"is_reserved":false,"is_disabled":false,"rental_uris":{"android":"levelo://app?vid=fc5b8035-d375-486c-b963-c07e2332bc93","ios":"levelo://app?vid=fc5b8035-d375-486c-b963-c07e2332bc93"},"vehicle_type_id":"4","last_reported":1699596576,"current_range_meters":0,"station_id":"ce4bgrp2rcd13ifvqc9g","pricing_plan_id":"free"},{"bike_id":"5e080395-7f9b-4e9c-b11a-9b89cb201156","system_id":"levelo_inurba_marseille","lat":43.311125,"lon":5.377624,"is_reserved":false,"is_disabled":false,"rental_uris":{"android":"levelo://app?vid=5e080395-7f9b-4e9c-b11a-9b89cb201156","ios":"levelo://app?vid=5e080395-7f9b-4e9c-b11a-9b89cb201156"},"vehicle_type_id":"4","last_reported":1699596576,"current_range_meters":31200,"station_id":"ce4bgt92rcd13ifvqcg0","pricing_plan_id":"free"},{"bike_id":"69c14741-f40c-4ac8-9611-638a9e5b3a3d","system_id":"levelo_inurba_marseille","lat":43.31123,"lon":5.377728,"is_reserved":false,"is_disabled":false,"rental_uris":{"android":"levelo://app?vid=69c14741-f40c-4ac8-9611-638a9e5b3a3d","ios":"levelo://app?vid=69c14741-f40c-4ac8-9611-638a9e5b3a3d"},"vehicle_type_id":"4","last_reported":1699596576,"current_range_meters":29600,"station_id":"ce4bgt92rcd13ifvqcg0","pricing_plan_id":"free"},{"bike_id":"b1330c22-c43e-4898-8237-421af3fc60e6","system_id":"levelo_inurba_marseille","lat":43.307825,"lon":5.376455,"is_reserved":false,"is_disabled":false,"rental_uris":{"android":"levelo://app?vid=b1330c22-c43e-4898-8237-421af3fc60e6","ios":"levelo://app?vid=b1330c22-c43e-4898-8237-421af3fc60e6"},"vehicle_type_id":"4","last_reported":1699596576,"current_range_meters":22800,"station_id":"ce4bgv92rcd13ifvqcq0","pricing_plan_id":"free"},{"bike_id":"c2c75cfd-f946-4a3c-b76c-ebe9c0547005","system_id":"levelo_inurba_marseille","lat":43.307945,"lon":5.376487,"is_reserved":false,"is_disabled":false,"rental_uris":{"android":"levelo://app?vid=c2c75cfd-f946-4a3c-b76c-ebe9c0547005","ios":"levelo://app?vid=c2c75cfd-f946-4a3c-b76c-ebe9c0547005"},"vehicle_type_id":"4","last_reported":1699596576,"current_range_meters":30400,"station_id":"ce4bgv92rcd13ifvqcq0","pricing_plan_id":"free"},{"bike_id":"ec0cc3e5-d639-4fdc-bf08-ebe2aa123ab6","system_id":"levelo_inurba_marseille","lat":43.307945,"lon":5.376487,"is_reserved":false,"is_disabled":false,"rental_uris":{"android":"levelo://app?vid=ec0cc3e5-d639-4fdc-bf08-ebe2aa123ab6","ios":"levelo://app?vid=ec0cc3e5-d639-4fdc-bf08-ebe2aa123ab6"},"vehicle_type_id":"4","last_reported":1699596576,"current_range_meters":31200,"station_id":"ce4bgv92rcd13ifvqcq0","pricing_plan_id":"free"},{"bike_id":"57053367-5328-4d78-8951-737f56b37ed9","system_id":"levelo_inurba_marseille","lat":43.319924,"lon":5.373389,"is_reserved":false,"is_disabled":false,"rental_uris":{"android":"levelo://app?vid=57053367-5328-4d78-8951-737f56b37ed9","ios":"levelo://app?vid=57053367-5328-4d78-8951-737f56b37ed9"},"vehicle_type_id":"4","last_reported":1699596576,"current_range_meters":23600,"station_id":"","pricing_plan_id":"free"},{"bike_id":"0013452e-4109-4af2-8312-9c04f7d7aa09","system_id":"levelo_inurba_marseille","lat":43.30779,"lon":5.37657,"is_reserved":false,"is_disabled":false,"rental_uris":{"android":"levelo://app?vid=0013452e-4109-4af2-8312-9c04f7d7aa09","ios":"levelo://app?vid=0013452e-4109-4af2-8312-9c04f7d7aa09"},"vehicle_type_id":"4","last_reported":1699596576,"current_range_meters":30000,"station_id":"ce4bgv92rcd13ifvqcq0","pricing_plan_id":"free"},{"bike_id":"220b5dc0-1f7c-486f-9ffc-170eb4482558","system_id":"levelo_inurba_marseille","lat":43.317075,"lon":5.377367,"is_reserved":false,"is_disabled":false,"rental_uris":{"android":"levelo://app?vid=220b5dc0-1f7c-486f-9ffc-170eb4482558","ios":"levelo://app?vid=220b5dc0-1f7c-486f-9ffc-170eb4482558"},"vehicle_type_id":"4","last_reported":1699596576,"current_range_meters":20800,"station_id":"ce4bgth2rcd13ifvqch0","pricing_plan_id":"free"},{"bike_id":"d073573e-2edf-4bce-9de6-c3e6eb6cd24d","system_id":"levelo_inurba_marseille","lat":43.317075,"lon":5.377367,"is_reserved":false,"is_disabled":false,"rental_uris":{"android":"levelo://app?vid=d073573e-2edf-4bce-9de6-c3e6eb6cd24d","ios":"levelo://app?vid=d073573e-2edf-4bce-9de6-c3e6eb6cd24d"},"vehicle_type_id":"4","last_reported":1699596576,"current_range_meters":31200,"station_id":"ce4bgth2rcd13ifvqch0","pricing_plan_id":"free"},{"bike_id":"67f7efe0-60ae-42f2-b85e-3f0e9ec5e863","system_id":"levelo_inurba_marseille","lat":43.317075,"lon":5.377367,"is_reserved":false,"is_disabled":false,"rental_uris":{"android":"levelo://app?vid=67f7efe0-60ae-42f2-b85e-3f0e9ec5e863","ios":"levelo://app?vid=67f7efe0-60ae-42f2-b85e-3f0e9ec5e863"},"vehicle_type_id":"4","last_reported":1699596576,"current_range_meters":14000,"station_id":"ce4bgth2rcd13ifvqch0","pricing_plan_id":"free"},{"bike_id":"37e6cc99-429c-436a-a732-33691b552be9","system_id":"levelo_inurba_marseille","lat":43.317075,"lon":5.377367,"is_reserved":false,"is_disabled":false,"rental_uris":{"android":"levelo://app?vid=37e6cc99-429c-436a-a732-33691b552be9","ios":"levelo://app?vid=37e6cc99-429c-436a-a732-33691b552be9"},"vehicle_type_id":"4","last_reported":1699596576,"current_range_meters":31200,"station_id":"ce4bgth2rcd13ifvqch0","pricing_plan_id":"free"},{"bike_id":"e57e249b-229d-483a-ad69-c84d6678bd04","system_id":"levelo_inurba_marseille","lat":43.30304,"lon":5.368987,"is_reserved":false,"is_disabled":false,"rental_uris":{"android":"levelo://app?vid=e57e249b-229d-483a-ad69-c84d6678bd04","ios":"levelo://app?vid=e57e249b-229d-483a-ad69-c84d6678bd04"},"vehicle_type_id":"4","last_reported":1699596576,"current_range_meters":24000,"station_id":"ce4bgqh2rcd13ifvqc5g","pricing_plan_id":"free"},{"bike_id":"4ae95d14-0371-457c-8366-f316c2e6421e","system_id":"levelo_inurba_marseille","lat":43.315337,"lon":5.380282,"is_reserved":false,"is_disabled":false,"rental_uris":{"android":"levelo://app?vid=4ae95d14-0371-457c-8366-f316c2e6421e","ios":"levelo://app?vid=4ae95d14-0371-457c-8366-f316c2e6421e"},"vehicle_type_id":"4","last_reported":1699596576,"current_range_meters":28000,"station_id":"ce4bhsp2rcd13ifvqi50","pricing_plan_id":"free"},{"bike_id":"52e43f3d-cb2f-437b-8c87-91792bb0e7db","system_id":"levelo_inurba_marseille","lat":43.322369,"lon":5.375601,"is_reserved":false,"is_disabled":false,"rental_uris":{"android":"levelo://app?vid=52e43f3d-cb2f-437b-8c87-91792bb0e7db","ios":"levelo://app?vid=52e43f3d-cb2f-437b-8c87-91792bb0e7db"},"vehicle_type_id":"4","last_reported":1699596576,"current_range_meters":10800,"station_id":"","pricing_plan_id":"free"},{"bike_id":"b236103d-5ee3-479a-ad0d-0f311ca85458","system_id":"levelo_inurba_marseille","lat":43.304606,"lon":5.379026,"is_reserved":false,"is_disabled":false,"rental_uris":{"android":"levelo://app?vid=b236103d-5ee3-479a-ad0d-0f311ca85458","ios":"levelo://app?vid=b236103d-5ee3-479a-ad0d-0f311ca85458"},"vehicle_type_id":"4","last_reported":1699596576,"current_range_meters":24400,"station_id":"ce4bgup2rcd13ifvqcn0","pricing_plan_id":"free"},{"bike_id":"236f3641-9cec-4dd3-be09-d046877dd823","system_id":"levelo_inurba_marseille","lat":43.304606,"lon":5.379026,"is_reserved":false,"is_disabled":false,"rental_uris":{"android":"levelo://app?vid=236f3641-9cec-4dd3-be09-d046877dd823","ios":"levelo://app?vid=236f3641-9cec-4dd3-be09-d046877dd823"},"vehicle_type_id":"4","last_reported":1699596576,"current_range_meters":17200,"station_id":"ce4bgup2rcd13ifvqcn0","pricing_plan_id":"free"},{"bike_id":"c360016b-e179-42c9-8cef-3d7ec330581c","system_id":"levelo_inurba_marseille","lat":43.304606,"lon":5.379026,"is_reserved":false,"is_disabled":false,"rental_uris":{"android":"levelo://app?vid=c360016b-e179-42c9-8cef-3d7ec330581c","ios":"levelo://app?vid=c360016b-e179-42c9-8cef-3d7ec330581c"},"vehicle_type_id":"4","last_reported":1699596576,"current_range_meters":24000,"station_id":"ce4bgup2rcd13ifvqcn0","pricing_plan_id":"free"},{"bike_id":"56d4d73e-8e21-450a-991b-2ca43801e656","system_id":"levelo_inurba_marseille","lat":43.304606,"lon":5.379026,"is_reserved":false,"is_disabled":false,"rental_uris":{"android":"levelo://app?vid=56d4d73e-8e21-450a-991b-2ca43801e656","ios":"levelo://app?vid=56d4d73e-8e21-450a-991b-2ca43801e656"},"vehicle_type_id":"4","last_reported":1699596576,"current_range_meters":30400,"station_id":"ce4bgup2rcd13ifvqcn0","pricing_plan_id":"free"},{"bike_id":"8222fd90-9e97-4fb7-ad9f-42f082592b9a","system_id":"levelo_inurba_marseille","lat":43.304606,"lon":5.379026,"is_reserved":false,"is_disabled":false,"rental_uris":{"android":"levelo://app?vid=8222fd90-9e97-4fb7-ad9f-42f082592b9a","ios":"levelo://app?vid=8222fd90-9e97-4fb7-ad9f-42f082592b9a"},"vehicle_type_id":"4","last_reported":1699596576,"current_range_meters":12000,"station_id":"ce4bgup2rcd13ifvqcn0","pricing_plan_id":"free"},{"bike_id":"252cc8cd-740d-425b-bbfc-4788705cb171","system_id":"levelo_inurba_marseille","lat":43.304606,"lon":5.379026,"is_reserved":false,"is_disabled":false,"rental_uris":{"android":"levelo://app?vid=252cc8cd-740d-425b-bbfc-4788705cb171","ios":"levelo://app?vid=252cc8cd-740d-425b-bbfc-4788705cb171"},"vehicle_type_id":"4","last_reported":1699596576,"current_range_meters":30800,"station_id":"ce4bgup2rcd13ifvqcn0","pricing_plan_id":"free"},{"bike_id":"0374ad62-c563-4805-b79d-1f392374dae0","system_id":"levelo_inurba_marseille","lat":43.304606,"lon":5.379026,"is_reserved":false,"is_disabled":false,"rental_uris":{"android":"levelo://app?vid=0374ad62-c563-4805-b79d-1f392374dae0","ios":"levelo://app?vid=0374ad62-c563-4805-b79d-1f392374dae0"},"vehicle_type_id":"4","last_reported":1699596576,"current_range_meters":29600,"station_id":"ce4bgup2rcd13ifvqcn0","pricing_plan_id":"free"},{"bike_id":"86f8de9b-e1ee-4597-a48e-1dc0f4ceb4ed","system_id":"levelo_inurba_marseille","lat":43.304606,"lon":5.379026,"is_reserved":false,"is_disabled":false,"rental_uris":{"android":"levelo://app?vid=86f8de9b-e1ee-4597-a48e-1dc0f4ceb4ed","ios":"levelo://app?vid=86f8de9b-e1ee-4597-a48e-1dc0f4ceb4ed"},"vehicle_type_id":"4","last_reported":1699596576,"current_range_meters":27600,"station_id":"ce4bgup2rcd13ifvqcn0","pricing_plan_id":"free"},{"bike_id":"7d660adb-5440-45f9-b45e-6da54e23ae9a","system_id":"levelo_inurba_marseille","lat":43.304606,"lon":5.379026,"is_reserved":false,"is_disabled":false,"rental_uris":{"android":"levelo://app?vid=7d660adb-5440-45f9-b45e-6da54e23ae9a","ios":"levelo://app?vid=7d660adb-5440-45f9-b45e-6da54e23ae9a"},"vehicle_type_id":"4","last_reported":1699596576,"current_range_meters":800,"station_id":"ce4bgup2rcd13ifvqcn0","pricing_plan_id":"free"},{"bike_id":"a46be2f6-04d5-45f1-8a54-4eac07f1d68a","system_id":"levelo_inurba_marseille","lat":43.304606,"lon":5.379026,"is_reserved":false,"is_disabled":false,"rental_uris":{"android":"levelo://app?vid=a46be2f6-04d5-45f1-8a54-4eac07f1d68a","ios":"levelo://app?vid=a46be2f6-04d5-45f1-8a54-4eac07f1d68a"},"vehicle_type_id":"4","last_reported":1699596576,"current_range_meters":27200,"station_id":"ce4bgup2rcd13ifvqcn0","pricing_plan_id":"free"},{"bike_id":"81427731-3bde-43ce-bbf9-d59d3be60dda","system_id":"levelo_inurba_marseille","lat":43.324771,"lon":5.36557,"is_reserved":false,"is_disabled":false,"rental_uris":{"android":"levelo://app?vid=81427731-3bde-43ce-bbf9-d59d3be60dda","ios":"levelo://app?vid=81427731-3bde-43ce-bbf9-d59d3be60dda"},"vehicle_type_id":"4","last_reported":1699596576,"current_range_meters":9200,"station_id":"ce4bhs12rcd13ifvqhvg","pricing_plan_id":"free"},{"bike_id":"69166d53-ec8e-4a0a-864c-7a29f7650dd8","system_id":"levelo_inurba_marseille","lat":43.321056,"lon":5.380068,"is_reserved":false,"is_disabled":false,"rental_uris":{"android":"levelo://app?vid=69166d53-ec8e-4a0a-864c-7a29f7650dd8","ios":"levelo://app?vid=69166d53-ec8e-4a0a-864c-7a29f7650dd8"},"vehicle_type_id":"4","last_reported":1699596576,"current_range_meters":25600,"station_id":"","pricing_plan_id":"free"},{"bike_id":"bb0a6094-33c3-46d9-aeb8-9d88a1b85668","system_id":"levelo_inurba_marseille","lat":43.319974,"lon":5.38142,"is_reserved":false,"is_disabled":false,"rental_uris":{"android":"levelo://app?vid=bb0a6094-33c3-46d9-aeb8-9d88a1b85668","ios":"levelo://app?vid=bb0a6094-33c3-46d9-aeb8-9d88a1b85668"},"vehicle_type_id":"4","last_reported":1699596576,"current_range_meters":30800,"station_id":"ce4bhr12rcd13ifvqhpg","pricing_plan_id":"free"},{"bike_id":"b6046f74-4348-4671-8214-63027a43228f","system_id":"levelo_inurba_marseille","lat":43.319975,"lon":5.381426,"is_reserved":false,"is_disabled":false,"rental_uris":{"android":"levelo://app?vid=b6046f74-4348-4671-8214-63027a43228f","ios":"levelo://app?vid=b6046f74-4348-4671-8214-63027a43228f"},"vehicle_type_id":"4","last_reported":1699596576,"current_range_meters":19200,"station_id":"ce4bhr12rcd13ifvqhpg","pricing_plan_id":"free"},{"bike_id":"13475556-4acf-4aa6-b00a-f5068b4b97fc","system_id":"levelo_inurba_marseille","lat":43.31998,"lon":5.38143,"is_reserved":false,"is_disabled":false,"rental_uris":{"android":"levelo://app?vid=13475556-4acf-4aa6-b00a-f5068b4b97fc","ios":"levelo://app?vid=13475556-4acf-4aa6-b00a-f5068b4b97fc"},"vehicle_type_id":"4","last_reported":1699596576,"current_range_meters":28400,"station_id":"ce4bhr12rcd13ifvqhpg","pricing_plan_id":"free"},{"bike_id":"defcaae0-157e-473b-a98e-5551c6052783","system_id":"levelo_inurba_marseille","lat":43.31998,"lon":5.38147,"is_reserved":false,"is_disabled":false,"rental_uris":{"android":"levelo://app?vid=defcaae0-157e-473b-a98e-5551c6052783","ios":"levelo://app?vid=defcaae0-157e-473b-a98e-5551c6052783"},"vehicle_type_id":"4","last_reported":1699596576,"current_range_meters":14000,"station_id":"ce4bhr12rcd13ifvqhpg","pricing_plan_id":"free"},{"bike_id":"d98ef63b-3279-44c8-ac44-bc93896579ca","system_id":"levelo_inurba_marseille","lat":43.319933,"lon":5.381519,"is_reserved":false,"is_disabled":false,"rental_uris":{"android":"levelo://app?vid=d98ef63b-3279-44c8-ac44-bc93896579ca","ios":"levelo://app?vid=d98ef63b-3279-44c8-ac44-bc93896579ca"},"vehicle_type_id":"4","last_reported":1699596576,"current_range_meters":22400,"station_id":"ce4bhr12rcd13ifvqhpg","pricing_plan_id":"free"},{"bike_id":"1482bc32-7a23-4109-885f-2d119a1e3cec","system_id":"levelo_inurba_marseille","lat":43.31995,"lon":5.38151,"is_reserved":false,"is_disabled":false,"rental_uris":{"android":"levelo://app?vid=1482bc32-7a23-4109-885f-2d119a1e3cec","ios":"levelo://app?vid=1482bc32-7a23-4109-885f-2d119a1e3cec"},"vehicle_type_id":"4","last_reported":1699596576,"current_range_meters":13600,"station_id":"ce4bhr12rcd13ifvqhpg","pricing_plan_id":"free"},{"bike_id":"f0e0fac1-61fc-4545-80df-e429e55c1818","system_id":"levelo_inurba_marseille","lat":43.319978,"lon":5.381504,"is_reserved":false,"is_disabled":false,"rental_uris":{"android":"levelo://app?vid=f0e0fac1-61fc-4545-80df-e429e55c1818","ios":"levelo://app?vid=f0e0fac1-61fc-4545-80df-e429e55c1818"},"vehicle_type_id":"4","last_reported":1699596576,"current_range_meters":27200,"station_id":"ce4bhr12rcd13ifvqhpg","pricing_plan_id":"free"},{"bike_id":"13d78257-2559-4a10-97b8-aaa7032179bc","system_id":"levelo_inurba_marseille","lat":43.319975,"lon":5.381519,"is_reserved":false,"is_disabled":false,"rental_uris":{"android":"levelo://app?vid=13d78257-2559-4a10-97b8-aaa7032179bc","ios":"levelo://app?vid=13d78257-2559-4a10-97b8-aaa7032179bc"},"vehicle_type_id":"4","last_reported":1699596576,"current_range_meters":9200,"station_id":"","pricing_plan_id":"free"},{"bike_id":"abf50183-4bbe-49bb-a0ce-bec8061b0e42","system_id":"levelo_inurba_marseille","lat":43.29941,"lon":5.36536,"is_reserved":false,"is_disabled":false,"rental_uris":{"android":"levelo://app?vid=abf50183-4bbe-49bb-a0ce-bec8061b0e42","ios":"levelo://app?vid=abf50183-4bbe-49bb-a0ce-bec8061b0e42"},"vehicle_type_id":"4","last_reported":1699596576,"current_range_meters":12400,"station_id":"ce4bgm92rcd13ifvqbr0","pricing_plan_id":"free"},{"bike_id":"2aa07dbd-abc3-43b6-a1fa-b3b25d3cf066","system_id":"levelo_inurba_marseille","lat":43.32148,"lon":5.38202,"is_reserved":false,"is_disabled":false,"rental_uris":{"android":"levelo://app?vid=2aa07dbd-abc3-43b6-a1fa-b3b25d3cf066","ios":"levelo://app?vid=2aa07dbd-abc3-43b6-a1fa-b3b25d3cf066"},"vehicle_type_id":"4","last_reported":1699596576,"current_range_meters":0,"station_id":"","pricing_plan_id":"free"},{"bike_id":"83622a75-8024-4912-957b-2e78df3791b3","system_id":"levelo_inurba_marseille","lat":43.305364,"lon":5.384119,"is_reserved":false,"is_disabled":false,"rental_uris":{"android":"levelo://app?vid=83622a75-8024-4912-957b-2e78df3791b3","ios":"levelo://app?vid=83622a75-8024-4912-957b-2e78df3791b3"},"vehicle_type_id":"4","last_reported":1699596576,"current_range_meters":18800,"station_id":"ce4bgg92rcd13ifvqb30","pricing_plan_id":"free"},{"bike_id":"8950f55a-e75d-4fac-9a7c-f529bc0580a5","system_id":"levelo_inurba_marseille","lat":43.320464,"lon":5.384144,"is_reserved":false,"is_disabled":false,"rental_uris":{"android":"levelo://app?vid=8950f55a-e75d-4fac-9a7c-f529bc0580a5","ios":"levelo://app?vid=8950f55a-e75d-4fac-9a7c-f529bc0580a5"},"vehicle_type_id":"4","last_reported":1699596576,"current_range_meters":18000,"station_id":"","pricing_plan_id":"free"},{"bike_id":"ea2880c4-648c-4644-8a8b-77923cbacd6f","system_id":"levelo_inurba_marseille","lat":43.297794,"lon":5.370888,"is_reserved":false,"is_disabled":false,"rental_uris":{"android":"levelo://app?vid=ea2880c4-648c-4644-8a8b-77923cbacd6f","ios":"levelo://app?vid=ea2880c4-648c-4644-8a8b-77923cbacd6f"},"vehicle_type_id":"4","last_reported":1699596576,"current_range_meters":29600,"station_id":"ce4bgop2rcd13ifvqc1g","pricing_plan_id":"free"},{"bike_id":"0eb3cb53-0f2b-4825-86b8-6ad00f482ad1","system_id":"levelo_inurba_marseille","lat":43.297809,"lon":5.371056,"is_reserved":false,"is_disabled":false,"rental_uris":{"android":"levelo://app?vid=0eb3cb53-0f2b-4825-86b8-6ad00f482ad1","ios":"levelo://app?vid=0eb3cb53-0f2b-4825-86b8-6ad00f482ad1"},"vehicle_type_id":"4","last_reported":1699596576,"current_range_meters":1600,"station_id":"","pricing_plan_id":"free"},{"bike_id":"adec3add-adaa-4c07-9d6b-d29fb6c4f19c","system_id":"levelo_inurba_marseille","lat":43.322872,"lon":5.382756,"is_reserved":false,"is_disabled":false,"rental_uris":{"android":"levelo://app?vid=adec3add-adaa-4c07-9d6b-d29fb6c4f19c","ios":"levelo://app?vid=adec3add-adaa-4c07-9d6b-d29fb6c4f19c"},"vehicle_type_id":"4","last_reported":1699596576,"current_range_meters":31200,"station_id":"ce4bhr12rcd13ifvqhqg","pricing_plan_id":"free"},{"bike_id":"e4a895a8-c6d1-4804-993c-b111541ae28a","system_id":"levelo_inurba_marseille","lat":43.322872,"lon":5.382756,"is_reserved":false,"is_disabled":false,"rental_uris":{"android":"levelo://app?vid=e4a895a8-c6d1-4804-993c-b111541ae28a","ios":"levelo://app?vid=e4a895a8-c6d1-4804-993c-b111541ae28a"},"vehicle_type_id":"4","last_reported":1699596576,"current_range_meters":11600,"station_id":"ce4bhr12rcd13ifvqhqg","pricing_plan_id":"free"},{"bike_id":"3107b7f8-ab0e-4ce9-87df-bf5ce8e59681","system_id":"levelo_inurba_marseille","lat":43.322866,"lon":5.382724,"is_reserved":false,"is_disabled":false,"rental_uris":{"android":"levelo://app?vid=3107b7f8-ab0e-4ce9-87df-bf5ce8e59681","ios":"levelo://app?vid=3107b7f8-ab0e-4ce9-87df-bf5ce8e59681"},"vehicle_type_id":"4","last_reported":1699596576,"current_range_meters":16800,"station_id":"ce4bhr12rcd13ifvqhqg","pricing_plan_id":"free"},{"bike_id":"91286602-dac0-4a76-8927-6c8664893e7b","system_id":"levelo_inurba_marseille","lat":43.322872,"lon":5.382756,"is_reserved":false,"is_disabled":false,"rental_uris":{"android":"levelo://app?vid=91286602-dac0-4a76-8927-6c8664893e7b","ios":"levelo://app?vid=91286602-dac0-4a76-8927-6c8664893e7b"},"vehicle_type_id":"4","last_reported":1699596576,"current_range_meters":5200,"station_id":"ce4bhr12rcd13ifvqhqg","pricing_plan_id":"free"},{"bike_id":"6abc6ed3-7ee5-474c-b332-4aeb367ba6b7","system_id":"levelo_inurba_marseille","lat":43.322872,"lon":5.382756,"is_reserved":false,"is_disabled":false,"rental_uris":{"android":"levelo://app?vid=6abc6ed3-7ee5-474c-b332-4aeb367ba6b7","ios":"levelo://app?vid=6abc6ed3-7ee5-474c-b332-4aeb367ba6b7"},"vehicle_type_id":"4","last_reported":1699596576,"current_range_meters":24400,"station_id":"ce4bhr12rcd13ifvqhqg","pricing_plan_id":"free"},{"bike_id":"bdcd47c8-ddb5-4e05-a246-b4789ccbbe70","system_id":"levelo_inurba_marseille","lat":43.328323,"lon":5.366859,"is_reserved":false,"is_disabled":false,"rental_uris":{"android":"levelo://app?vid=bdcd47c8-ddb5-4e05-a246-b4789ccbbe70","ios":"levelo://app?vid=bdcd47c8-ddb5-4e05-a246-b4789ccbbe70"},"vehicle_type_id":"4","last_reported":1699596576,"current_range_meters":4000,"station_id":"ce4bhs92rcd13ifvqi0g","pricing_plan_id":"free"},{"bike_id":"93fd75ac-3a1f-47ce-894f-4665acf4bef2","system_id":"levelo_inurba_marseille","lat":43.328371,"lon":5.366909,"is_reserved":false,"is_disabled":false,"rental_uris":{"android":"levelo://app?vid=93fd75ac-3a1f-47ce-894f-4665acf4bef2","ios":"levelo://app?vid=93fd75ac-3a1f-47ce-894f-4665acf4bef2"},"vehicle_type_id":"4","last_reported":1699596576,"current_range_meters":4400,"station_id":"ce4bhs92rcd13ifvqi0g","pricing_plan_id":"free"},{"bike_id":"f437c1fb-b5f1-44fe-aa69-52bd1cd9ade2","system_id":"levelo_inurba_marseille","lat":43.328371,"lon":5.366909,"is_reserved":false,"is_disabled":false,"rental_uris":{"android":"levelo://app?vid=f437c1fb-b5f1-44fe-aa69-52bd1cd9ade2","ios":"levelo://app?vid=f437c1fb-b5f1-44fe-aa69-52bd1cd9ade2"},"vehicle_type_id":"4","last_reported":1699596576,"current_range_meters":17200,"station_id":"ce4bhs92rcd13ifvqi0g","pricing_plan_id":"free"},{"bike_id":"547558d2-d8a3-47c3-8381-a4377ae77cfa","system_id":"levelo_inurba_marseille","lat":43.295963,"lon":5.368107,"is_reserved":false,"is_disabled":false,"rental_uris":{"android":"levelo://app?vid=547558d2-d8a3-47c3-8381-a4377ae77cfa","ios":"levelo://app?vid=547558d2-d8a3-47c3-8381-a4377ae77cfa"},"vehicle_type_id":"4","last_reported":1699596576,"current_range_meters":25200,"station_id":"","pricing_plan_id":"free"},{"bike_id":"ad56d774-dca3-4c3c-a0ea-7f478a0582a3","system_id":"levelo_inurba_marseille","lat":43.296131,"lon":5.370791,"is_reserved":false,"is_disabled":false,"rental_uris":{"android":"levelo://app?vid=ad56d774-dca3-4c3c-a0ea-7f478a0582a3","ios":"levelo://app?vid=ad56d774-dca3-4c3c-a0ea-7f478a0582a3"},"vehicle_type_id":"4","last_reported":1699596576,"current_range_meters":26400,"station_id":"ce4bgnh2rcd13ifvqc0g","pricing_plan_id":"free"},{"bike_id":"7c5b2ce2-e80d-4552-ad49-1bc8cd5d92c3","system_id":"levelo_inurba_marseille","lat":43.31841,"lon":5.388679,"is_reserved":false,"is_disabled":false,"rental_uris":{"android":"levelo://app?vid=7c5b2ce2-e80d-4552-ad49-1bc8cd5d92c3","ios":"levelo://app?vid=7c5b2ce2-e80d-4552-ad49-1bc8cd5d92c3"},"vehicle_type_id":"4","last_reported":1699596576,"current_range_meters":12400,"station_id":"","pricing_plan_id":"free"},{"bike_id":"d447991a-59b4-4778-a190-7d2b0920a414","system_id":"levelo_inurba_marseille","lat":43.32215,"lon":5.38613,"is_reserved":false,"is_disabled":false,"rental_uris":{"android":"levelo://app?vid=d447991a-59b4-4778-a190-7d2b0920a414","ios":"levelo://app?vid=d447991a-59b4-4778-a190-7d2b0920a414"},"vehicle_type_id":"4","last_reported":1699596576,"current_range_meters":25600,"station_id":"","pricing_plan_id":"free"},{"bike_id":"da57843f-3e8d-4652-9c83-4ef1c2a3f4cc","system_id":"levelo_inurba_marseille","lat":43.299028,"lon":5.381509,"is_reserved":false,"is_disabled":false,"rental_uris":{"android":"levelo://app?vid=da57843f-3e8d-4652-9c83-4ef1c2a3f4cc","ios":"levelo://app?vid=da57843f-3e8d-4652-9c83-4ef1c2a3f4cc"},"vehicle_type_id":"4","last_reported":1699596576,"current_range_meters":30800,"station_id":"ce4bgj12rcd13ifvqbc0","pricing_plan_id":"free"},{"bike_id":"bbd238a3-34ec-49b6-beb2-ddc2cf13b9fd","system_id":"levelo_inurba_marseille","lat":43.296935,"lon":5.376544,"is_reserved":false,"is_disabled":false,"rental_uris":{"android":"levelo://app?vid=bbd238a3-34ec-49b6-beb2-ddc2cf13b9fd","ios":"levelo://app?vid=bbd238a3-34ec-49b6-beb2-ddc2cf13b9fd"},"vehicle_type_id":"4","last_reported":1699596576,"current_range_meters":24400,"station_id":"ce4bgkh2rcd13ifvqbl0","pricing_plan_id":"free"},{"bike_id":"2da8e9e8-0588-4f29-9c8b-38d998e2b9d6","system_id":"levelo_inurba_marseille","lat":43.299028,"lon":5.381509,"is_reserved":false,"is_disabled":false,"rental_uris":{"android":"levelo://app?vid=2da8e9e8-0588-4f29-9c8b-38d998e2b9d6","ios":"levelo://app?vid=2da8e9e8-0588-4f29-9c8b-38d998e2b9d6"},"vehicle_type_id":"4","last_reported":1699596576,"current_range_meters":16400,"station_id":"ce4bgj12rcd13ifvqbc0","pricing_plan_id":"free"},{"bike_id":"f95f8ab5-9257-4c7e-859c-935fe8b7aa3e","system_id":"levelo_inurba_marseille","lat":43.296926,"lon":5.376625,"is_reserved":false,"is_disabled":false,"rental_uris":{"android":"levelo://app?vid=f95f8ab5-9257-4c7e-859c-935fe8b7aa3e","ios":"levelo://app?vid=f95f8ab5-9257-4c7e-859c-935fe8b7aa3e"},"vehicle_type_id":"4","last_reported":1699596576,"current_range_meters":22000,"station_id":"ce4bgkh2rcd13ifvqbl0","pricing_plan_id":"free"},{"bike_id":"7d25671c-589a-4b28-844c-0bafc7592b0c","system_id":"levelo_inurba_marseille","lat":43.309589,"lon":5.390258,"is_reserved":false,"is_disabled":false,"rental_uris":{"android":"levelo://app?vid=7d25671c-589a-4b28-844c-0bafc7592b0c","ios":"levelo://app?vid=7d25671c-589a-4b28-844c-0bafc7592b0c"},"vehicle_type_id":"4","last_reported":1699596576,"current_range_meters":30400,"station_id":"ce4bgup2rcd13ifvqco0","pricing_plan_id":"free"},{"bike_id":"fa11e324-d90f-47df-b321-f17948626f3e","system_id":"levelo_inurba_marseille","lat":43.309589,"lon":5.390258,"is_reserved":false,"is_disabled":false,"rental_uris":{"android":"levelo://app?vid=fa11e324-d90f-47df-b321-f17948626f3e","ios":"levelo://app?vid=fa11e324-d90f-47df-b321-f17948626f3e"},"vehicle_type_id":"4","last_reported":1699596576,"current_range_meters":28400,"station_id":"ce4bgup2rcd13ifvqco0","pricing_plan_id":"free"},{"bike_id":"6d3b5694-ce1f-4cba-a2cf-1fb38f85a8ca","system_id":"levelo_inurba_marseille","lat":43.317547,"lon":5.390133,"is_reserved":false,"is_disabled":false,"rental_uris":{"android":"levelo://app?vid=6d3b5694-ce1f-4cba-a2cf-1fb38f85a8ca","ios":"levelo://app?vid=6d3b5694-ce1f-4cba-a2cf-1fb38f85a8ca"},"vehicle_type_id":"4","last_reported":1699596576,"current_range_meters":27600,"station_id":"ce4bhqp2rcd13ifvqhng","pricing_plan_id":"free"},{"bike_id":"519b2c4c-d843-4a4a-8925-fbf1ca622951","system_id":"levelo_inurba_marseille","lat":43.298037,"lon":5.381066,"is_reserved":false,"is_disabled":false,"rental_uris":{"android":"levelo://app?vid=519b2c4c-d843-4a4a-8925-fbf1ca622951","ios":"levelo://app?vid=519b2c4c-d843-4a4a-8925-fbf1ca622951"},"vehicle_type_id":"4","last_reported":1699596576,"current_range_meters":23600,"station_id":"ce4bgip2rcd13ifvqbb0","pricing_plan_id":"free"},{"bike_id":"5c1e2741-48da-4014-ac94-199e22881994","system_id":"levelo_inurba_marseille","lat":43.295748,"lon":5.37522,"is_reserved":false,"is_disabled":false,"rental_uris":{"android":"levelo://app?vid=5c1e2741-48da-4014-ac94-199e22881994","ios":"levelo://app?vid=5c1e2741-48da-4014-ac94-199e22881994"},"vehicle_type_id":"4","last_reported":1699596576,"current_range_meters":24800,"station_id":"ce4bgh92rcd13ifvqb50","pricing_plan_id":"free"},{"bike_id":"5e91efc6-ef39-4a8d-8976-f42efa7b4471","system_id":"levelo_inurba_marseille","lat":43.295748,"lon":5.37522,"is_reserved":false,"is_disabled":false,"rental_uris":{"android":"levelo://app?vid=5e91efc6-ef39-4a8d-8976-f42efa7b4471","ios":"levelo://app?vid=5e91efc6-ef39-4a8d-8976-f42efa7b4471"},"vehicle_type_id":"4","last_reported":1699596576,"current_range_meters":27200,"station_id":"ce4bgh92rcd13ifvqb50","pricing_plan_id":"free"},{"bike_id":"41963961-7624-4216-864e-ec312e00a0c8","system_id":"levelo_inurba_marseille","lat":43.296263,"lon":5.377094,"is_reserved":false,"is_disabled":false,"rental_uris":{"android":"levelo://app?vid=41963961-7624-4216-864e-ec312e00a0c8","ios":"levelo://app?vid=41963961-7624-4216-864e-ec312e00a0c8"},"vehicle_type_id":"4","last_reported":1699596576,"current_range_meters":400,"station_id":"ce4bgi92rcd13ifvqb90","pricing_plan_id":"free"},{"bike_id":"c9575e97-d8a4-4a76-a9b0-4b5d44c39dfa","system_id":"levelo_inurba_marseille","lat":43.2962,"lon":5.37735,"is_reserved":false,"is_disabled":false,"rental_uris":{"android":"levelo://app?vid=c9575e97-d8a4-4a76-a9b0-4b5d44c39dfa","ios":"levelo://app?vid=c9575e97-d8a4-4a76-a9b0-4b5d44c39dfa"},"vehicle_type_id":"4","last_reported":1699596576,"current_range_meters":24000,"station_id":"ce4bgi92rcd13ifvqb90","pricing_plan_id":"free"},{"bike_id":"443f43a9-98a1-45c8-ba00-40f2a0de410b","system_id":"levelo_inurba_marseille","lat":43.295279,"lon":5.375048,"is_reserved":false,"is_disabled":false,"rental_uris":{"android":"levelo://app?vid=443f43a9-98a1-45c8-ba00-40f2a0de410b","ios":"levelo://app?vid=443f43a9-98a1-45c8-ba00-40f2a0de410b"},"vehicle_type_id":"4","last_reported":1699596576,"current_range_meters":11200,"station_id":"ce4bgkp2rcd13ifvqbmg","pricing_plan_id":"free"},{"bike_id":"a26a672c-8f86-40f5-9e8e-9856cf399a24","system_id":"levelo_inurba_marseille","lat":43.299707,"lon":5.384859,"is_reserved":false,"is_disabled":false,"rental_uris":{"android":"levelo://app?vid=a26a672c-8f86-40f5-9e8e-9856cf399a24","ios":"levelo://app?vid=a26a672c-8f86-40f5-9e8e-9856cf399a24"},"vehicle_type_id":"4","last_reported":1699596576,"current_range_meters":30400,"station_id":"ce4bgj92rcd13ifvqbd0","pricing_plan_id":"free"},{"bike_id":"b4eb331a-76f0-4262-b5af-0553db9b7b5a","system_id":"levelo_inurba_marseille","lat":43.29969,"lon":5.38487,"is_reserved":false,"is_disabled":false,"rental_uris":{"android":"levelo://app?vid=b4eb331a-76f0-4262-b5af-0553db9b7b5a","ios":"levelo://app?vid=b4eb331a-76f0-4262-b5af-0553db9b7b5a"},"vehicle_type_id":"4","last_reported":1699596576,"current_range_meters":23600,"station_id":"ce4bgj92rcd13ifvqbd0","pricing_plan_id":"free"},{"bike_id":"24a1a68d-22f2-4338-893c-1c576e9fae44","system_id":"levelo_inurba_marseille","lat":43.299717,"lon":5.384845,"is_reserved":false,"is_disabled":false,"rental_uris":{"android":"levelo://app?vid=24a1a68d-22f2-4338-893c-1c576e9fae44","ios":"levelo://app?vid=24a1a68d-22f2-4338-893c-1c576e9fae44"},"vehicle_type_id":"4","last_reported":1699596576,"current_range_meters":24000,"station_id":"ce4bgj92rcd13ifvqbd0","pricing_plan_id":"free"},{"bike_id":"4af98cea-eb4e-4ad2-99f6-b6c81b5ee272","system_id":"levelo_inurba_marseille","lat":43.29965,"lon":5.38487,"is_reserved":false,"is_disabled":false,"rental_uris":{"android":"levelo://app?vid=4af98cea-eb4e-4ad2-99f6-b6c81b5ee272","ios":"levelo://app?vid=4af98cea-eb4e-4ad2-99f6-b6c81b5ee272"},"vehicle_type_id":"4","last_reported":1699596576,"current_range_meters":24400,"station_id":"ce4bgj92rcd13ifvqbd0","pricing_plan_id":"free"},{"bike_id":"34ddddda-b523-4810-ba2a-9f3d8c4fe314","system_id":"levelo_inurba_marseille","lat":43.295279,"lon":5.375048,"is_reserved":false,"is_disabled":false,"rental_uris":{"android":"levelo://app?vid=34ddddda-b523-4810-ba2a-9f3d8c4fe314","ios":"levelo://app?vid=34ddddda-b523-4810-ba2a-9f3d8c4fe314"},"vehicle_type_id":"4","last_reported":1699596576,"current_range_meters":29600,"station_id":"ce4bgkp2rcd13ifvqbmg","pricing_plan_id":"free"},{"bike_id":"b459b83e-3814-4403-a9e8-43824a08392e","system_id":"levelo_inurba_marseille","lat":43.295279,"lon":5.375048,"is_reserved":false,"is_disabled":false,"rental_uris":{"android":"levelo://app?vid=b459b83e-3814-4403-a9e8-43824a08392e","ios":"levelo://app?vid=b459b83e-3814-4403-a9e8-43824a08392e"},"vehicle_type_id":"4","last_reported":1699596576,"current_range_meters":30800,"station_id":"ce4bgkp2rcd13ifvqbmg","pricing_plan_id":"free"},{"bike_id":"7aad0c17-0fe2-4e34-b381-56ddef968a3b","system_id":"levelo_inurba_marseille","lat":43.299765,"lon":5.385347,"is_reserved":false,"is_disabled":false,"rental_uris":{"android":"levelo://app?vid=7aad0c17-0fe2-4e34-b381-56ddef968a3b","ios":"levelo://app?vid=7aad0c17-0fe2-4e34-b381-56ddef968a3b"},"vehicle_type_id":"4","last_reported":1699596576,"current_range_meters":23200,"station_id":"ce4bgj92rcd13ifvqbd0","pricing_plan_id":"free"},{"bike_id":"dba2c1a2-e6a9-451b-9545-95869c02b46f","system_id":"levelo_inurba_marseille","lat":43.329065,"lon":5.379814,"is_reserved":false,"is_disabled":false,"rental_uris":{"android":"levelo://app?vid=dba2c1a2-e6a9-451b-9545-95869c02b46f","ios":"levelo://app?vid=dba2c1a2-e6a9-451b-9545-95869c02b46f"},"vehicle_type_id":"4","last_reported":1699596576,"current_range_meters":0,"station_id":"","pricing_plan_id":"free"},{"bike_id":"dcb02e5a-867d-44ad-bdb3-d6dbc6547785","system_id":"levelo_inurba_marseille","lat":43.32365,"lon":5.38883,"is_reserved":false,"is_disabled":false,"rental_uris":{"android":"levelo://app?vid=dcb02e5a-867d-44ad-bdb3-d6dbc6547785","ios":"levelo://app?vid=dcb02e5a-867d-44ad-bdb3-d6dbc6547785"},"vehicle_type_id":"4","last_reported":1699596576,"current_range_meters":6800,"station_id":"ce4bhqp2rcd13ifvqhog","pricing_plan_id":"free"},{"bike_id":"86cb9ac9-b463-4685-9339-675fa104b7d1","system_id":"levelo_inurba_marseille","lat":43.32367,"lon":5.388836,"is_reserved":false,"is_disabled":false,"rental_uris":{"android":"levelo://app?vid=86cb9ac9-b463-4685-9339-675fa104b7d1","ios":"levelo://app?vid=86cb9ac9-b463-4685-9339-675fa104b7d1"},"vehicle_type_id":"4","last_reported":1699596576,"current_range_meters":0,"station_id":"ce4bhqp2rcd13ifvqhog","pricing_plan_id":"free"},{"bike_id":"61fc040a-ad48-411a-aadb-f0a6672483c3","system_id":"levelo_inurba_marseille","lat":43.32365,"lon":5.388871,"is_reserved":false,"is_disabled":false,"rental_uris":{"android":"levelo://app?vid=61fc040a-ad48-411a-aadb-f0a6672483c3","ios":"levelo://app?vid=61fc040a-ad48-411a-aadb-f0a6672483c3"},"vehicle_type_id":"4","last_reported":1699596576,"current_range_meters":1200,"station_id":"ce4bhqp2rcd13ifvqhog","pricing_plan_id":"free"},{"bike_id":"daa26ce0-41cf-45f9-9744-5d9b610a1314","system_id":"levelo_inurba_marseille","lat":43.323693,"lon":5.388864,"is_reserved":false,"is_disabled":false,"rental_uris":{"android":"levelo://app?vid=daa26ce0-41cf-45f9-9744-5d9b610a1314","ios":"levelo://app?vid=daa26ce0-41cf-45f9-9744-5d9b610a1314"},"vehicle_type_id":"4","last_reported":1699596576,"current_range_meters":13600,"station_id":"ce4bhqp2rcd13ifvqhog","pricing_plan_id":"free"},{"bike_id":"5be27f1c-b5c9-464d-ac33-6afa4ea1d64b","system_id":"levelo_inurba_marseille","lat":43.31419,"lon":5.393739,"is_reserved":false,"is_disabled":false,"rental_uris":{"android":"levelo://app?vid=5be27f1c-b5c9-464d-ac33-6afa4ea1d64b","ios":"levelo://app?vid=5be27f1c-b5c9-464d-ac33-6afa4ea1d64b"},"vehicle_type_id":"4","last_reported":1699596576,"current_range_meters":15600,"station_id":"","pricing_plan_id":"free"},{"bike_id":"7b64ac6e-f545-4bd1-adb1-63954d612854","system_id":"levelo_inurba_marseille","lat":43.292311,"lon":5.360731,"is_reserved":false,"is_disabled":false,"rental_uris":{"android":"levelo://app?vid=7b64ac6e-f545-4bd1-adb1-63954d612854","ios":"levelo://app?vid=7b64ac6e-f545-4bd1-adb1-63954d612854"},"vehicle_type_id":"4","last_reported":1699596576,"current_range_meters":24800,"station_id":"ce4bhbh2rcd13ifvqeqg","pricing_plan_id":"free"},{"bike_id":"00c1e616-9014-4d82-ba50-b53b3aeaf23c","system_id":"levelo_inurba_marseille","lat":43.292749,"lon":5.368402,"is_reserved":false,"is_disabled":false,"rental_uris":{"android":"levelo://app?vid=00c1e616-9014-4d82-ba50-b53b3aeaf23c","ios":"levelo://app?vid=00c1e616-9014-4d82-ba50-b53b3aeaf23c"},"vehicle_type_id":"4","last_reported":1699596576,"current_range_meters":6800,"station_id":"ce4bhbp2rcd13ifvqesg","pricing_plan_id":"free"},{"bike_id":"1f2edeec-835f-4188-b75a-b19c37bb1dac","system_id":"levelo_inurba_marseille","lat":43.30109,"lon":5.3894,"is_reserved":false,"is_disabled":false,"rental_uris":{"android":"levelo://app?vid=1f2edeec-835f-4188-b75a-b19c37bb1dac","ios":"levelo://app?vid=1f2edeec-835f-4188-b75a-b19c37bb1dac"},"vehicle_type_id":"4","last_reported":1699596576,"current_range_meters":11600,"station_id":"","pricing_plan_id":"free"},{"bike_id":"72c35c64-2754-436a-bcf6-d88e50a24575","system_id":"levelo_inurba_marseille","lat":43.292704,"lon":5.370942,"is_reserved":false,"is_disabled":false,"rental_uris":{"android":"levelo://app?vid=72c35c64-2754-436a-bcf6-d88e50a24575","ios":"levelo://app?vid=72c35c64-2754-436a-bcf6-d88e50a24575"},"vehicle_type_id":"4","last_reported":1699596576,"current_range_meters":12000,"station_id":"","pricing_plan_id":"free"},{"bike_id":"cfe1544d-ad65-4fea-8a7d-51319d1df794","system_id":"levelo_inurba_marseille","lat":43.293009,"lon":5.374584,"is_reserved":false,"is_disabled":false,"rental_uris":{"android":"levelo://app?vid=cfe1544d-ad65-4fea-8a7d-51319d1df794","ios":"levelo://app?vid=cfe1544d-ad65-4fea-8a7d-51319d1df794"},"vehicle_type_id":"4","last_reported":1699596576,"current_range_meters":22400,"station_id":"ce4bgi12rcd13ifvqb70","pricing_plan_id":"free"},{"bike_id":"2dbf1ee2-fdd0-41b9-84e3-d39a69521442","system_id":"levelo_inurba_marseille","lat":43.293009,"lon":5.374584,"is_reserved":false,"is_disabled":false,"rental_uris":{"android":"levelo://app?vid=2dbf1ee2-fdd0-41b9-84e3-d39a69521442","ios":"levelo://app?vid=2dbf1ee2-fdd0-41b9-84e3-d39a69521442"},"vehicle_type_id":"4","last_reported":1699596576,"current_range_meters":30800,"station_id":"ce4bgi12rcd13ifvqb70","pricing_plan_id":"free"},{"bike_id":"67763e3d-3f4b-45c8-93c8-50f1482c660c","system_id":"levelo_inurba_marseille","lat":43.293009,"lon":5.374584,"is_reserved":false,"is_disabled":false,"rental_uris":{"android":"levelo://app?vid=67763e3d-3f4b-45c8-93c8-50f1482c660c","ios":"levelo://app?vid=67763e3d-3f4b-45c8-93c8-50f1482c660c"},"vehicle_type_id":"4","last_reported":1699596576,"current_range_meters":25200,"station_id":"ce4bgi12rcd13ifvqb70","pricing_plan_id":"free"},{"bike_id":"5d9836cb-8086-4602-afea-5f0d667d4881","system_id":"levelo_inurba_marseille","lat":43.293009,"lon":5.374584,"is_reserved":false,"is_disabled":false,"rental_uris":{"android":"levelo://app?vid=5d9836cb-8086-4602-afea-5f0d667d4881","ios":"levelo://app?vid=5d9836cb-8086-4602-afea-5f0d667d4881"},"vehicle_type_id":"4","last_reported":1699596576,"current_range_meters":31600,"station_id":"ce4bgi12rcd13ifvqb70","pricing_plan_id":"free"},{"bike_id":"c0972671-ae4e-4615-a30c-3636d9cf2fb9","system_id":"levelo_inurba_marseille","lat":43.293009,"lon":5.374584,"is_reserved":false,"is_disabled":false,"rental_uris":{"android":"levelo://app?vid=c0972671-ae4e-4615-a30c-3636d9cf2fb9","ios":"levelo://app?vid=c0972671-ae4e-4615-a30c-3636d9cf2fb9"},"vehicle_type_id":"4","last_reported":1699596576,"current_range_meters":30800,"station_id":"ce4bgi12rcd13ifvqb70","pricing_plan_id":"free"},{"bike_id":"7e6b5a0f-114b-45a6-be8c-fd4266e2ff7d","system_id":"levelo_inurba_marseille","lat":43.293009,"lon":5.374584,"is_reserved":false,"is_disabled":false,"rental_uris":{"android":"levelo://app?vid=7e6b5a0f-114b-45a6-be8c-fd4266e2ff7d","ios":"levelo://app?vid=7e6b5a0f-114b-45a6-be8c-fd4266e2ff7d"},"vehicle_type_id":"4","last_reported":1699596576,"current_range_meters":29200,"station_id":"ce4bgi12rcd13ifvqb70","pricing_plan_id":"free"},{"bike_id":"4018a155-8cd9-42da-8dd5-c6de3f294923","system_id":"levelo_inurba_marseille","lat":43.30085,"lon":5.390856,"is_reserved":false,"is_disabled":false,"rental_uris":{"android":"levelo://app?vid=4018a155-8cd9-42da-8dd5-c6de3f294923","ios":"levelo://app?vid=4018a155-8cd9-42da-8dd5-c6de3f294923"},"vehicle_type_id":"4","last_reported":1699596576,"current_range_meters":30400,"station_id":"ce4bh192rcd13ifvqdb0","pricing_plan_id":"free"},{"bike_id":"1c914384-6c80-437a-8c98-25e61b629eb5","system_id":"levelo_inurba_marseille","lat":43.300852,"lon":5.390859,"is_reserved":false,"is_disabled":false,"rental_uris":{"android":"levelo://app?vid=1c914384-6c80-437a-8c98-25e61b629eb5","ios":"levelo://app?vid=1c914384-6c80-437a-8c98-25e61b629eb5"},"vehicle_type_id":"4","last_reported":1699596576,"current_range_meters":30400,"station_id":"ce4bh192rcd13ifvqdb0","pricing_plan_id":"free"},{"bike_id":"6d478454-418b-4750-a618-b2523c85c2a2","system_id":"levelo_inurba_marseille","lat":43.300852,"lon":5.390859,"is_reserved":false,"is_disabled":false,"rental_uris":{"android":"levelo://app?vid=6d478454-418b-4750-a618-b2523c85c2a2","ios":"levelo://app?vid=6d478454-418b-4750-a618-b2523c85c2a2"},"vehicle_type_id":"4","last_reported":1699596576,"current_range_meters":8800,"station_id":"ce4bh192rcd13ifvqdb0","pricing_plan_id":"free"},{"bike_id":"dca08a3f-ed1d-4403-8c1b-c61fe769e756","system_id":"levelo_inurba_marseille","lat":43.308871,"lon":5.396328,"is_reserved":false,"is_disabled":false,"rental_uris":{"android":"levelo://app?vid=dca08a3f-ed1d-4403-8c1b-c61fe769e756","ios":"levelo://app?vid=dca08a3f-ed1d-4403-8c1b-c61fe769e756"},"vehicle_type_id":"4","last_reported":1699596576,"current_range_meters":16000,"station_id":"ce4bh012rcd13ifvqcv0","pricing_plan_id":"free"},{"bike_id":"a7cc0a0b-1b31-4f8f-a2be-959b6160251c","system_id":"levelo_inurba_marseille","lat":43.308847,"lon":5.396334,"is_reserved":false,"is_disabled":false,"rental_uris":{"android":"levelo://app?vid=a7cc0a0b-1b31-4f8f-a2be-959b6160251c","ios":"levelo://app?vid=a7cc0a0b-1b31-4f8f-a2be-959b6160251c"},"vehicle_type_id":"4","last_reported":1699596576,"current_range_meters":31200,"station_id":"ce4bh012rcd13ifvqcv0","pricing_plan_id":"free"},{"bike_id":"50349594-2ee0-4269-a50c-149e63fc430a","system_id":"levelo_inurba_marseille","lat":43.308851,"lon":5.396349,"is_reserved":false,"is_disabled":false,"rental_uris":{"android":"levelo://app?vid=50349594-2ee0-4269-a50c-149e63fc430a","ios":"levelo://app?vid=50349594-2ee0-4269-a50c-149e63fc430a"},"vehicle_type_id":"4","last_reported":1699596576,"current_range_meters":30800,"station_id":"ce4bh012rcd13ifvqcv0","pricing_plan_id":"free"},{"bike_id":"a1aeac0e-0cf7-4e48-8f0d-e3ec55ec5e44","system_id":"levelo_inurba_marseille","lat":43.308831,"lon":5.396359,"is_reserved":false,"is_disabled":false,"rental_uris":{"android":"levelo://app?vid=a1aeac0e-0cf7-4e48-8f0d-e3ec55ec5e44","ios":"levelo://app?vid=a1aeac0e-0cf7-4e48-8f0d-e3ec55ec5e44"},"vehicle_type_id":"4","last_reported":1699596576,"current_range_meters":21200,"station_id":"ce4bh012rcd13ifvqcv0","pricing_plan_id":"free"},{"bike_id":"ff6be9b5-ba31-43d9-b876-46363c3bd635","system_id":"levelo_inurba_marseille","lat":43.309038,"lon":5.396546,"is_reserved":false,"is_disabled":false,"rental_uris":{"android":"levelo://app?vid=ff6be9b5-ba31-43d9-b876-46363c3bd635","ios":"levelo://app?vid=ff6be9b5-ba31-43d9-b876-46363c3bd635"},"vehicle_type_id":"4","last_reported":1699596576,"current_range_meters":30000,"station_id":"ce4bh012rcd13ifvqcv0","pricing_plan_id":"free"},{"bike_id":"7c1d307b-d7b4-43f8-903f-06b8663fecec","system_id":"levelo_inurba_marseille","lat":43.308844,"lon":5.396385,"is_reserved":false,"is_disabled":false,"rental_uris":{"android":"levelo://app?vid=7c1d307b-d7b4-43f8-903f-06b8663fecec","ios":"levelo://app?vid=7c1d307b-d7b4-43f8-903f-06b8663fecec"},"vehicle_type_id":"4","last_reported":1699596576,"current_range_meters":12800,"station_id":"ce4bh012rcd13ifvqcv0","pricing_plan_id":"free"},{"bike_id":"69915967-cb2a-4026-97a0-2f354509b5d2","system_id":"levelo_inurba_marseille","lat":43.309038,"lon":5.396546,"is_reserved":false,"is_disabled":false,"rental_uris":{"android":"levelo://app?vid=69915967-cb2a-4026-97a0-2f354509b5d2","ios":"levelo://app?vid=69915967-cb2a-4026-97a0-2f354509b5d2"},"vehicle_type_id":"4","last_reported":1699596576,"current_range_meters":31200,"station_id":"ce4bh012rcd13ifvqcv0","pricing_plan_id":"free"},{"bike_id":"d94f093d-8fc5-4f4c-a0a7-c3543f5e4af0","system_id":"levelo_inurba_marseille","lat":43.309038,"lon":5.396546,"is_reserved":false,"is_disabled":false,"rental_uris":{"android":"levelo://app?vid=d94f093d-8fc5-4f4c-a0a7-c3543f5e4af0","ios":"levelo://app?vid=d94f093d-8fc5-4f4c-a0a7-c3543f5e4af0"},"vehicle_type_id":"4","last_reported":1699596576,"current_range_meters":28800,"station_id":"ce4bh012rcd13ifvqcv0","pricing_plan_id":"free"},{"bike_id":"df58c64e-0a01-4ab3-9096-c04179307f13","system_id":"levelo_inurba_marseille","lat":43.30887,"lon":5.396411,"is_reserved":false,"is_disabled":false,"rental_uris":{"android":"levelo://app?vid=df58c64e-0a01-4ab3-9096-c04179307f13","ios":"levelo://app?vid=df58c64e-0a01-4ab3-9096-c04179307f13"},"vehicle_type_id":"4","last_reported":1699596576,"current_range_meters":23600,"station_id":"ce4bh012rcd13ifvqcv0","pricing_plan_id":"free"},{"bike_id":"ab0a3daf-0c7e-4dc5-9840-f1a4129a9f28","system_id":"levelo_inurba_marseille","lat":43.308843,"lon":5.396406,"is_reserved":false,"is_disabled":false,"rental_uris":{"android":"levelo://app?vid=ab0a3daf-0c7e-4dc5-9840-f1a4129a9f28","ios":"levelo://app?vid=ab0a3daf-0c7e-4dc5-9840-f1a4129a9f28"},"vehicle_type_id":"4","last_reported":1699596576,"current_range_meters":9200,"station_id":"ce4bh012rcd13ifvqcv0","pricing_plan_id":"free"},{"bike_id":"bfd7a5a1-bd95-43e0-9e62-e135826c4a64","system_id":"levelo_inurba_marseille","lat":43.308877,"lon":5.396424,"is_reserved":false,"is_disabled":false,"rental_uris":{"android":"levelo://app?vid=bfd7a5a1-bd95-43e0-9e62-e135826c4a64","ios":"levelo://app?vid=bfd7a5a1-bd95-43e0-9e62-e135826c4a64"},"vehicle_type_id":"4","last_reported":1699596576,"current_range_meters":20800,"station_id":"ce4bh012rcd13ifvqcv0","pricing_plan_id":"free"},{"bike_id":"6b5e7785-54c4-411c-be26-c8472bc7b511","system_id":"levelo_inurba_marseille","lat":43.313276,"lon":5.396898,"is_reserved":false,"is_disabled":false,"rental_uris":{"android":"levelo://app?vid=6b5e7785-54c4-411c-be26-c8472bc7b511","ios":"levelo://app?vid=6b5e7785-54c4-411c-be26-c8472bc7b511"},"vehicle_type_id":"4","last_reported":1699596576,"current_range_meters":15200,"station_id":"ce4bgvp2rcd13ifvqcu0","pricing_plan_id":"free"},{"bike_id":"4d71cbfc-3e76-4083-abd6-d6f59887108e","system_id":"levelo_inurba_marseille","lat":43.308829,"lon":5.396431,"is_reserved":false,"is_disabled":false,"rental_uris":{"android":"levelo://app?vid=4d71cbfc-3e76-4083-abd6-d6f59887108e","ios":"levelo://app?vid=4d71cbfc-3e76-4083-abd6-d6f59887108e"},"vehicle_type_id":"4","last_reported":1699596576,"current_range_meters":26800,"station_id":"ce4bh012rcd13ifvqcv0","pricing_plan_id":"free"},{"bike_id":"78d6c6ef-cc0b-43a1-8a01-a5955cb76bdb","system_id":"levelo_inurba_marseille","lat":43.309038,"lon":5.396546,"is_reserved":false,"is_disabled":false,"rental_uris":{"android":"levelo://app?vid=78d6c6ef-cc0b-43a1-8a01-a5955cb76bdb","ios":"levelo://app?vid=78d6c6ef-cc0b-43a1-8a01-a5955cb76bdb"},"vehicle_type_id":"4","last_reported":1699596576,"current_range_meters":11200,"station_id":"ce4bh012rcd13ifvqcv0","pricing_plan_id":"free"},{"bike_id":"e78f20f7-1fd3-46b8-a1a1-17a19042c672","system_id":"levelo_inurba_marseille","lat":43.308808,"lon":5.396437,"is_reserved":false,"is_disabled":false,"rental_uris":{"android":"levelo://app?vid=e78f20f7-1fd3-46b8-a1a1-17a19042c672","ios":"levelo://app?vid=e78f20f7-1fd3-46b8-a1a1-17a19042c672"},"vehicle_type_id":"4","last_reported":1699596576,"current_range_meters":18000,"station_id":"ce4bh012rcd13ifvqcv0","pricing_plan_id":"free"},{"bike_id":"f8b2424b-88f6-445b-8659-97d4816bc26c","system_id":"levelo_inurba_marseille","lat":43.308864,"lon":5.396454,"is_reserved":false,"is_disabled":false,"rental_uris":{"android":"levelo://app?vid=f8b2424b-88f6-445b-8659-97d4816bc26c","ios":"levelo://app?vid=f8b2424b-88f6-445b-8659-97d4816bc26c"},"vehicle_type_id":"4","last_reported":1699596576,"current_range_meters":8000,"station_id":"ce4bh012rcd13ifvqcv0","pricing_plan_id":"free"},{"bike_id":"c92959ca-c51a-47f6-be59-eb11bde5a735","system_id":"levelo_inurba_marseille","lat":43.308823,"lon":5.39645,"is_reserved":false,"is_disabled":false,"rental_uris":{"android":"levelo://app?vid=c92959ca-c51a-47f6-be59-eb11bde5a735","ios":"levelo://app?vid=c92959ca-c51a-47f6-be59-eb11bde5a735"},"vehicle_type_id":"4","last_reported":1699596576,"current_range_meters":19200,"station_id":"ce4bh012rcd13ifvqcv0","pricing_plan_id":"free"},{"bike_id":"600d8311-3e59-4589-8144-7ba37d671815","system_id":"levelo_inurba_marseille","lat":43.313255,"lon":5.396933,"is_reserved":false,"is_disabled":false,"rental_uris":{"android":"levelo://app?vid=600d8311-3e59-4589-8144-7ba37d671815","ios":"levelo://app?vid=600d8311-3e59-4589-8144-7ba37d671815"},"vehicle_type_id":"4","last_reported":1699596576,"current_range_meters":10800,"station_id":"ce4bgvp2rcd13ifvqcu0","pricing_plan_id":"free"},{"bike_id":"dae12094-abcb-4b76-91bb-3d44d5e924b7","system_id":"levelo_inurba_marseille","lat":43.313276,"lon":5.396964,"is_reserved":false,"is_disabled":false,"rental_uris":{"android":"levelo://app?vid=dae12094-abcb-4b76-91bb-3d44d5e924b7","ios":"levelo://app?vid=dae12094-abcb-4b76-91bb-3d44d5e924b7"},"vehicle_type_id":"4","last_reported":1699596576,"current_range_meters":28800,"station_id":"ce4bgvp2rcd13ifvqcu0","pricing_plan_id":"free"},{"bike_id":"9395b1f8-69c6-45fc-9d8f-89a59e25f2dc","system_id":"levelo_inurba_marseille","lat":43.313291,"lon":5.396838,"is_reserved":false,"is_disabled":false,"rental_uris":{"android":"levelo://app?vid=9395b1f8-69c6-45fc-9d8f-89a59e25f2dc","ios":"levelo://app?vid=9395b1f8-69c6-45fc-9d8f-89a59e25f2dc"},"vehicle_type_id":"4","last_reported":1699596576,"current_range_meters":24400,"station_id":"ce4bgvp2rcd13ifvqcu0","pricing_plan_id":"free"},{"bike_id":"57e81f72-04df-4568-8d7d-fd201cc631f1","system_id":"levelo_inurba_marseille","lat":43.3133,"lon":5.39698,"is_reserved":false,"is_disabled":false,"rental_uris":{"android":"levelo://app?vid=57e81f72-04df-4568-8d7d-fd201cc631f1","ios":"levelo://app?vid=57e81f72-04df-4568-8d7d-fd201cc631f1"},"vehicle_type_id":"4","last_reported":1699596576,"current_range_meters":29600,"station_id":"ce4bgvp2rcd13ifvqcu0","pricing_plan_id":"free"},{"bike_id":"389bc634-8004-4c25-9eba-f72a3b521437","system_id":"levelo_inurba_marseille","lat":43.30214,"lon":5.39467,"is_reserved":false,"is_disabled":false,"rental_uris":{"android":"levelo://app?vid=389bc634-8004-4c25-9eba-f72a3b521437","ios":"levelo://app?vid=389bc634-8004-4c25-9eba-f72a3b521437"},"vehicle_type_id":"4","last_reported":1699596576,"current_range_meters":28400,"station_id":"ce4bh0p2rcd13ifvqd70","pricing_plan_id":"free"},{"bike_id":"2ebab03a-b371-41c1-a2a2-535d23b9b907","system_id":"levelo_inurba_marseille","lat":43.2895,"lon":5.36403,"is_reserved":false,"is_disabled":false,"rental_uris":{"android":"levelo://app?vid=2ebab03a-b371-41c1-a2a2-535d23b9b907","ios":"levelo://app?vid=2ebab03a-b371-41c1-a2a2-535d23b9b907"},"vehicle_type_id":"4","last_reported":1699596576,"current_range_meters":25600,"station_id":"ce4bhc92rcd13ifvqetg","pricing_plan_id":"free"},{"bike_id":"05d01f65-daf9-4617-b5ed-c2122209c0ab","system_id":"levelo_inurba_marseille","lat":43.289468,"lon":5.363719,"is_reserved":false,"is_disabled":false,"rental_uris":{"android":"levelo://app?vid=05d01f65-daf9-4617-b5ed-c2122209c0ab","ios":"levelo://app?vid=05d01f65-daf9-4617-b5ed-c2122209c0ab"},"vehicle_type_id":"4","last_reported":1699596576,"current_range_meters":29600,"station_id":"ce4bhc92rcd13ifvqetg","pricing_plan_id":"free"},{"bike_id":"063513ef-b04b-41f3-9c24-8cc137a38b85","system_id":"levelo_inurba_marseille","lat":43.289411,"lon":5.364021,"is_reserved":false,"is_disabled":false,"rental_uris":{"android":"levelo://app?vid=063513ef-b04b-41f3-9c24-8cc137a38b85","ios":"levelo://app?vid=063513ef-b04b-41f3-9c24-8cc137a38b85"},"vehicle_type_id":"4","last_reported":1699596576,"current_range_meters":28400,"station_id":"ce4bhc92rcd13ifvqetg","pricing_plan_id":"free"},{"bike_id":"4e19f9de-965a-4da1-bb03-2bb651594352","system_id":"levelo_inurba_marseille","lat":43.29272,"lon":5.38454,"is_reserved":false,"is_disabled":false,"rental_uris":{"android":"levelo://app?vid=4e19f9de-965a-4da1-bb03-2bb651594352","ios":"levelo://app?vid=4e19f9de-965a-4da1-bb03-2bb651594352"},"vehicle_type_id":"4","last_reported":1699596576,"current_range_meters":17600,"station_id":"ce4bh692rcd13ifvqea0","pricing_plan_id":"free"},{"bike_id":"5355035a-3071-4e24-bfa1-3a44c94a0ec1","system_id":"levelo_inurba_marseille","lat":43.292644,"lon":5.384257,"is_reserved":false,"is_disabled":false,"rental_uris":{"android":"levelo://app?vid=5355035a-3071-4e24-bfa1-3a44c94a0ec1","ios":"levelo://app?vid=5355035a-3071-4e24-bfa1-3a44c94a0ec1"},"vehicle_type_id":"4","last_reported":1699596576,"current_range_meters":30800,"station_id":"ce4bh692rcd13ifvqea0","pricing_plan_id":"free"},{"bike_id":"5fcde716-ddd4-4ee7-88b4-3ecc71897afa","system_id":"levelo_inurba_marseille","lat":43.29007,"lon":5.356157,"is_reserved":false,"is_disabled":false,"rental_uris":{"android":"levelo://app?vid=5fcde716-ddd4-4ee7-88b4-3ecc71897afa","ios":"levelo://app?vid=5fcde716-ddd4-4ee7-88b4-3ecc71897afa"},"vehicle_type_id":"4","last_reported":1699596576,"current_range_meters":28400,"station_id":"ce4bhb92rcd13ifvqen0","pricing_plan_id":"free"},{"bike_id":"679ef58d-402c-4f4e-a609-d215e5c6d3a8","system_id":"levelo_inurba_marseille","lat":43.297815,"lon":5.393548,"is_reserved":false,"is_disabled":false,"rental_uris":{"android":"levelo://app?vid=679ef58d-402c-4f4e-a609-d215e5c6d3a8","ios":"levelo://app?vid=679ef58d-402c-4f4e-a609-d215e5c6d3a8"},"vehicle_type_id":"4","last_reported":1699596576,"current_range_meters":29200,"station_id":"chh1huq6cuj3fo74tm60","pricing_plan_id":"free"},{"bike_id":"013471d4-06ba-4086-8711-dfc95420892b","system_id":"levelo_inurba_marseille","lat":43.297886,"lon":5.393551,"is_reserved":false,"is_disabled":false,"rental_uris":{"android":"levelo://app?vid=013471d4-06ba-4086-8711-dfc95420892b","ios":"levelo://app?vid=013471d4-06ba-4086-8711-dfc95420892b"},"vehicle_type_id":"4","last_reported":1699596576,"current_range_meters":0,"station_id":"chh1huq6cuj3fo74tm60","pricing_plan_id":"free"},{"bike_id":"3b0b138f-fb8a-464f-be4c-51a2d19a493f","system_id":"levelo_inurba_marseille","lat":43.326541,"lon":5.395016,"is_reserved":false,"is_disabled":false,"rental_uris":{"android":"levelo://app?vid=3b0b138f-fb8a-464f-be4c-51a2d19a493f","ios":"levelo://app?vid=3b0b138f-fb8a-464f-be4c-51a2d19a493f"},"vehicle_type_id":"4","last_reported":1699596576,"current_range_meters":30800,"station_id":"","pricing_plan_id":"free"},{"bike_id":"51791ab1-2ef7-4676-abe1-7e9ff16372fd","system_id":"levelo_inurba_marseille","lat":43.28856,"lon":5.358371,"is_reserved":false,"is_disabled":false,"rental_uris":{"android":"levelo://app?vid=51791ab1-2ef7-4676-abe1-7e9ff16372fd","ios":"levelo://app?vid=51791ab1-2ef7-4676-abe1-7e9ff16372fd"},"vehicle_type_id":"4","last_reported":1699596576,"current_range_meters":30400,"station_id":"ce4bhb12rcd13ifvqem0","pricing_plan_id":"free"},{"bike_id":"d23e5bb2-4618-400c-b568-2098e3e8ae6b","system_id":"levelo_inurba_marseille","lat":43.312609,"lon":5.401662,"is_reserved":false,"is_disabled":false,"rental_uris":{"android":"levelo://app?vid=d23e5bb2-4618-400c-b568-2098e3e8ae6b","ios":"levelo://app?vid=d23e5bb2-4618-400c-b568-2098e3e8ae6b"},"vehicle_type_id":"4","last_reported":1699596576,"current_range_meters":17200,"station_id":"ce4bh092rcd13ifvqd30","pricing_plan_id":"free"},{"bike_id":"fa1e8a33-6303-4e7a-8523-774effbb66e2","system_id":"levelo_inurba_marseille","lat":43.3093,"lon":5.40139,"is_reserved":false,"is_disabled":false,"rental_uris":{"android":"levelo://app?vid=fa1e8a33-6303-4e7a-8523-774effbb66e2","ios":"levelo://app?vid=fa1e8a33-6303-4e7a-8523-774effbb66e2"},"vehicle_type_id":"4","last_reported":1699596576,"current_range_meters":31200,"station_id":"ce4bgvp2rcd13ifvqct0","pricing_plan_id":"free"},{"bike_id":"e5612d97-2f0f-4d96-88cc-7142bb258b69","system_id":"levelo_inurba_marseille","lat":43.306703,"lon":5.400729,"is_reserved":false,"is_disabled":false,"rental_uris":{"android":"levelo://app?vid=e5612d97-2f0f-4d96-88cc-7142bb258b69","ios":"levelo://app?vid=e5612d97-2f0f-4d96-88cc-7142bb258b69"},"vehicle_type_id":"4","last_reported":1699596576,"current_range_meters":24400,"station_id":"ce4bh112rcd13ifvqda0","pricing_plan_id":"free"},{"bike_id":"ec8d21a8-3973-422a-a9b6-58d2e173a48e","system_id":"levelo_inurba_marseille","lat":43.309371,"lon":5.401449,"is_reserved":false,"is_disabled":false,"rental_uris":{"android":"levelo://app?vid=ec8d21a8-3973-422a-a9b6-58d2e173a48e","ios":"levelo://app?vid=ec8d21a8-3973-422a-a9b6-58d2e173a48e"},"vehicle_type_id":"4","last_reported":1699596576,"current_range_meters":24400,"station_id":"ce4bgvp2rcd13ifvqct0","pricing_plan_id":"free"},{"bike_id":"a7d258d0-1ce7-4306-80fd-ade30b454ac7","system_id":"levelo_inurba_marseille","lat":43.30649,"lon":5.40069,"is_reserved":false,"is_disabled":false,"rental_uris":{"android":"levelo://app?vid=a7d258d0-1ce7-4306-80fd-ade30b454ac7","ios":"levelo://app?vid=a7d258d0-1ce7-4306-80fd-ade30b454ac7"},"vehicle_type_id":"4","last_reported":1699596576,"current_range_meters":14400,"station_id":"ce4bh112rcd13ifvqda0","pricing_plan_id":"free"},{"bike_id":"d98d53e7-218b-4c21-a151-5d8fa7df1cd5","system_id":"levelo_inurba_marseille","lat":43.309359,"lon":5.40147,"is_reserved":false,"is_disabled":false,"rental_uris":{"android":"levelo://app?vid=d98d53e7-218b-4c21-a151-5d8fa7df1cd5","ios":"levelo://app?vid=d98d53e7-218b-4c21-a151-5d8fa7df1cd5"},"vehicle_type_id":"4","last_reported":1699596576,"current_range_meters":13600,"station_id":"ce4bgvp2rcd13ifvqct0","pricing_plan_id":"free"},{"bike_id":"724da875-3f67-46fb-88d1-f65d7e8d4c58","system_id":"levelo_inurba_marseille","lat":43.309371,"lon":5.401449,"is_reserved":false,"is_disabled":false,"rental_uris":{"android":"levelo://app?vid=724da875-3f67-46fb-88d1-f65d7e8d4c58","ios":"levelo://app?vid=724da875-3f67-46fb-88d1-f65d7e8d4c58"},"vehicle_type_id":"4","last_reported":1699596576,"current_range_meters":30800,"station_id":"ce4bgvp2rcd13ifvqct0","pricing_plan_id":"free"},{"bike_id":"e3667224-4283-4c4a-a747-3516c2b02bc6","system_id":"levelo_inurba_marseille","lat":43.309296,"lon":5.401471,"is_reserved":false,"is_disabled":false,"rental_uris":{"android":"levelo://app?vid=e3667224-4283-4c4a-a747-3516c2b02bc6","ios":"levelo://app?vid=e3667224-4283-4c4a-a747-3516c2b02bc6"},"vehicle_type_id":"4","last_reported":1699596576,"current_range_meters":5200,"station_id":"ce4bgvp2rcd13ifvqct0","pricing_plan_id":"free"},{"bike_id":"a544b874-dcf2-4440-9904-9c48d0a20aff","system_id":"levelo_inurba_marseille","lat":43.309293,"lon":5.401489,"is_reserved":false,"is_disabled":false,"rental_uris":{"android":"levelo://app?vid=a544b874-dcf2-4440-9904-9c48d0a20aff","ios":"levelo://app?vid=a544b874-dcf2-4440-9904-9c48d0a20aff"},"vehicle_type_id":"4","last_reported":1699596576,"current_range_meters":23600,"station_id":"ce4bgvp2rcd13ifvqct0","pricing_plan_id":"free"},{"bike_id":"fb8c267a-8fbc-4bb8-86fa-ead1c910eee3","system_id":"levelo_inurba_marseille","lat":43.337515,"lon":5.374548,"is_reserved":false,"is_disabled":false,"rental_uris":{"android":"levelo://app?vid=fb8c267a-8fbc-4bb8-86fa-ead1c910eee3","ios":"levelo://app?vid=fb8c267a-8fbc-4bb8-86fa-ead1c910eee3"},"vehicle_type_id":"4","last_reported":1699596576,"current_range_meters":30800,"station_id":"","pricing_plan_id":"free"},{"bike_id":"77a4e36c-b0d4-4489-93dc-12c1cf3d064c","system_id":"levelo_inurba_marseille","lat":43.306495,"lon":5.400751,"is_reserved":false,"is_disabled":false,"rental_uris":{"android":"levelo://app?vid=77a4e36c-b0d4-4489-93dc-12c1cf3d064c","ios":"levelo://app?vid=77a4e36c-b0d4-4489-93dc-12c1cf3d064c"},"vehicle_type_id":"4","last_reported":1699596576,"current_range_meters":10800,"station_id":"ce4bh112rcd13ifvqda0","pricing_plan_id":"free"},{"bike_id":"9cd40627-d81b-41ec-921e-7e9fb75192fc","system_id":"levelo_inurba_marseille","lat":43.309371,"lon":5.401449,"is_reserved":false,"is_disabled":false,"rental_uris":{"android":"levelo://app?vid=9cd40627-d81b-41ec-921e-7e9fb75192fc","ios":"levelo://app?vid=9cd40627-d81b-41ec-921e-7e9fb75192fc"},"vehicle_type_id":"4","last_reported":1699596576,"current_range_meters":20800,"station_id":"ce4bgvp2rcd13ifvqct0","pricing_plan_id":"free"},{"bike_id":"2eb76cb2-e51e-4a80-b58d-cf3036b5c3e4","system_id":"levelo_inurba_marseille","lat":43.30928,"lon":5.401526,"is_reserved":false,"is_disabled":false,"rental_uris":{"android":"levelo://app?vid=2eb76cb2-e51e-4a80-b58d-cf3036b5c3e4","ios":"levelo://app?vid=2eb76cb2-e51e-4a80-b58d-cf3036b5c3e4"},"vehicle_type_id":"4","last_reported":1699596576,"current_range_meters":16800,"station_id":"ce4bgvp2rcd13ifvqct0","pricing_plan_id":"free"},{"bike_id":"987d8f4e-8fdd-4d9d-b09a-2457efc8f7ab","system_id":"levelo_inurba_marseille","lat":43.309308,"lon":5.401545,"is_reserved":false,"is_disabled":false,"rental_uris":{"android":"levelo://app?vid=987d8f4e-8fdd-4d9d-b09a-2457efc8f7ab","ios":"levelo://app?vid=987d8f4e-8fdd-4d9d-b09a-2457efc8f7ab"},"vehicle_type_id":"4","last_reported":1699596576,"current_range_meters":10000,"station_id":"ce4bgvp2rcd13ifvqct0","pricing_plan_id":"free"},{"bike_id":"45ec3eab-820d-4085-9a72-e19b09a296aa","system_id":"levelo_inurba_marseille","lat":43.309306,"lon":5.401554,"is_reserved":false,"is_disabled":false,"rental_uris":{"android":"levelo://app?vid=45ec3eab-820d-4085-9a72-e19b09a296aa","ios":"levelo://app?vid=45ec3eab-820d-4085-9a72-e19b09a296aa"},"vehicle_type_id":"4","last_reported":1699596576,"current_range_meters":29600,"station_id":"ce4bgvp2rcd13ifvqct0","pricing_plan_id":"free"},{"bike_id":"241bbb39-2121-4d98-83f8-18189116eeac","system_id":"levelo_inurba_marseille","lat":43.306412,"lon":5.401035,"is_reserved":false,"is_disabled":false,"rental_uris":{"android":"levelo://app?vid=241bbb39-2121-4d98-83f8-18189116eeac","ios":"levelo://app?vid=241bbb39-2121-4d98-83f8-18189116eeac"},"vehicle_type_id":"4","last_reported":1699596576,"current_range_meters":30400,"station_id":"ce4bh112rcd13ifvqda0","pricing_plan_id":"free"},{"bike_id":"cda27795-c82f-45bd-af40-58d01fe173df","system_id":"levelo_inurba_marseille","lat":43.306375,"lon":5.400769,"is_reserved":false,"is_disabled":false,"rental_uris":{"android":"levelo://app?vid=cda27795-c82f-45bd-af40-58d01fe173df","ios":"levelo://app?vid=cda27795-c82f-45bd-af40-58d01fe173df"},"vehicle_type_id":"4","last_reported":1699596576,"current_range_meters":26000,"station_id":"ce4bh112rcd13ifvqda0","pricing_plan_id":"free"},{"bike_id":"afa4f1b5-889c-4686-984a-d8a8091de3cf","system_id":"levelo_inurba_marseille","lat":43.306419,"lon":5.400787,"is_reserved":false,"is_disabled":false,"rental_uris":{"android":"levelo://app?vid=afa4f1b5-889c-4686-984a-d8a8091de3cf","ios":"levelo://app?vid=afa4f1b5-889c-4686-984a-d8a8091de3cf"},"vehicle_type_id":"4","last_reported":1699596576,"current_range_meters":18800,"station_id":"ce4bh112rcd13ifvqda0","pricing_plan_id":"free"},{"bike_id":"8c60afa7-bb97-483e-8d00-e918bab90079","system_id":"levelo_inurba_marseille","lat":43.309295,"lon":5.401602,"is_reserved":false,"is_disabled":false,"rental_uris":{"android":"levelo://app?vid=8c60afa7-bb97-483e-8d00-e918bab90079","ios":"levelo://app?vid=8c60afa7-bb97-483e-8d00-e918bab90079"},"vehicle_type_id":"4","last_reported":1699596576,"current_range_meters":14000,"station_id":"ce4bgvp2rcd13ifvqct0","pricing_plan_id":"free"},{"bike_id":"61c9606b-5e0c-419f-a3b5-4fe4d535e889","system_id":"levelo_inurba_marseille","lat":43.33037,"lon":5.392367,"is_reserved":false,"is_disabled":false,"rental_uris":{"android":"levelo://app?vid=61c9606b-5e0c-419f-a3b5-4fe4d535e889","ios":"levelo://app?vid=61c9606b-5e0c-419f-a3b5-4fe4d535e889"},"vehicle_type_id":"4","last_reported":1699596576,"current_range_meters":15200,"station_id":"","pricing_plan_id":"free"},{"bike_id":"f7a4f822-39bf-4b1f-970e-6bf18bbe3c78","system_id":"levelo_inurba_marseille","lat":43.306412,"lon":5.401035,"is_reserved":false,"is_disabled":false,"rental_uris":{"android":"levelo://app?vid=f7a4f822-39bf-4b1f-970e-6bf18bbe3c78","ios":"levelo://app?vid=f7a4f822-39bf-4b1f-970e-6bf18bbe3c78"},"vehicle_type_id":"4","last_reported":1699596576,"current_range_meters":28800,"station_id":"ce4bh112rcd13ifvqda0","pricing_plan_id":"free"},{"bike_id":"5ac2e2d6-9935-491e-a079-ff1b72a99bea","system_id":"levelo_inurba_marseille","lat":43.28741,"lon":5.36143,"is_reserved":false,"is_disabled":false,"rental_uris":{"android":"levelo://app?vid=5ac2e2d6-9935-491e-a079-ff1b72a99bea","ios":"levelo://app?vid=5ac2e2d6-9935-491e-a079-ff1b72a99bea"},"vehicle_type_id":"4","last_reported":1699596576,"current_range_meters":16000,"station_id":"","pricing_plan_id":"free"},{"bike_id":"1afeea72-d45f-450e-9a74-8afe60f9d14a","system_id":"levelo_inurba_marseille","lat":43.28727,"lon":5.36078,"is_reserved":false,"is_disabled":false,"rental_uris":{"android":"levelo://app?vid=1afeea72-d45f-450e-9a74-8afe60f9d14a","ios":"levelo://app?vid=1afeea72-d45f-450e-9a74-8afe60f9d14a"},"vehicle_type_id":"4","last_reported":1699596576,"current_range_meters":28400,"station_id":"cki0cbj6b192h4jlfktg","pricing_plan_id":"free"},{"bike_id":"3f62065f-401c-473d-bc1c-173e1ffae26d","system_id":"levelo_inurba_marseille","lat":43.28727,"lon":5.36078,"is_reserved":false,"is_disabled":false,"rental_uris":{"android":"levelo://app?vid=3f62065f-401c-473d-bc1c-173e1ffae26d","ios":"levelo://app?vid=3f62065f-401c-473d-bc1c-173e1ffae26d"},"vehicle_type_id":"4","last_reported":1699596576,"current_range_meters":31200,"station_id":"cki0cbj6b192h4jlfktg","pricing_plan_id":"free"},{"bike_id":"92701fe0-804b-4417-b16c-522a7fb742e8","system_id":"levelo_inurba_marseille","lat":43.28727,"lon":5.36078,"is_reserved":false,"is_disabled":false,"rental_uris":{"android":"levelo://app?vid=92701fe0-804b-4417-b16c-522a7fb742e8","ios":"levelo://app?vid=92701fe0-804b-4417-b16c-522a7fb742e8"},"vehicle_type_id":"4","last_reported":1699596576,"current_range_meters":26400,"station_id":"cki0cbj6b192h4jlfktg","pricing_plan_id":"free"},{"bike_id":"c5491b2e-a028-4d28-87f4-35d4c9540d90","system_id":"levelo_inurba_marseille","lat":43.286591,"lon":5.363346,"is_reserved":false,"is_disabled":false,"rental_uris":{"android":"levelo://app?vid=c5491b2e-a028-4d28-87f4-35d4c9540d90","ios":"levelo://app?vid=c5491b2e-a028-4d28-87f4-35d4c9540d90"},"vehicle_type_id":"4","last_reported":1699596576,"current_range_meters":24800,"station_id":"ce4bhah2rcd13ifvqej0","pricing_plan_id":"free"},{"bike_id":"ff5af3c8-a6b1-468d-9de1-280ccf2647fd","system_id":"levelo_inurba_marseille","lat":43.286672,"lon":5.36347,"is_reserved":false,"is_disabled":false,"rental_uris":{"android":"levelo://app?vid=ff5af3c8-a6b1-468d-9de1-280ccf2647fd","ios":"levelo://app?vid=ff5af3c8-a6b1-468d-9de1-280ccf2647fd"},"vehicle_type_id":"4","last_reported":1699596576,"current_range_meters":10800,"station_id":"ce4bhah2rcd13ifvqej0","pricing_plan_id":"free"},{"bike_id":"93bb130e-05f6-4f32-a71f-fbe08b37ca3b","system_id":"levelo_inurba_marseille","lat":43.286591,"lon":5.363346,"is_reserved":false,"is_disabled":false,"rental_uris":{"android":"levelo://app?vid=93bb130e-05f6-4f32-a71f-fbe08b37ca3b","ios":"levelo://app?vid=93bb130e-05f6-4f32-a71f-fbe08b37ca3b"},"vehicle_type_id":"4","last_reported":1699596576,"current_range_meters":31200,"station_id":"ce4bhah2rcd13ifvqej0","pricing_plan_id":"free"},{"bike_id":"0be1bdd5-6fe8-4f81-9915-9635763933ff","system_id":"levelo_inurba_marseille","lat":43.286643,"lon":5.363538,"is_reserved":false,"is_disabled":false,"rental_uris":{"android":"levelo://app?vid=0be1bdd5-6fe8-4f81-9915-9635763933ff","ios":"levelo://app?vid=0be1bdd5-6fe8-4f81-9915-9635763933ff"},"vehicle_type_id":"4","last_reported":1699596576,"current_range_meters":10000,"station_id":"ce4bhah2rcd13ifvqej0","pricing_plan_id":"free"},{"bike_id":"4e504f4d-2037-4320-b92d-4d2f6d8b87b1","system_id":"levelo_inurba_marseille","lat":43.28664,"lon":5.363567,"is_reserved":false,"is_disabled":false,"rental_uris":{"android":"levelo://app?vid=4e504f4d-2037-4320-b92d-4d2f6d8b87b1","ios":"levelo://app?vid=4e504f4d-2037-4320-b92d-4d2f6d8b87b1"},"vehicle_type_id":"4","last_reported":1699596576,"current_range_meters":23600,"station_id":"ce4bhah2rcd13ifvqej0","pricing_plan_id":"free"},{"bike_id":"6c79b757-c5e1-4e9b-a044-258d2912a7e3","system_id":"levelo_inurba_marseille","lat":43.286964,"lon":5.373815,"is_reserved":false,"is_disabled":false,"rental_uris":{"android":"levelo://app?vid=6c79b757-c5e1-4e9b-a044-258d2912a7e3","ios":"levelo://app?vid=6c79b757-c5e1-4e9b-a044-258d2912a7e3"},"vehicle_type_id":"4","last_reported":1699596576,"current_range_meters":14800,"station_id":"ce4bh3p2rcd13ifvqdq0","pricing_plan_id":"free"},{"bike_id":"290e9e0c-12bc-41f7-8fa2-9e56c14ef01f","system_id":"levelo_inurba_marseille","lat":43.286593,"lon":5.363494,"is_reserved":false,"is_disabled":false,"rental_uris":{"android":"levelo://app?vid=290e9e0c-12bc-41f7-8fa2-9e56c14ef01f","ios":"levelo://app?vid=290e9e0c-12bc-41f7-8fa2-9e56c14ef01f"},"vehicle_type_id":"4","last_reported":1699596576,"current_range_meters":19600,"station_id":"ce4bhah2rcd13ifvqej0","pricing_plan_id":"free"},{"bike_id":"1bfa36b1-5ae1-494f-ab81-cfd9bf53e31a","system_id":"levelo_inurba_marseille","lat":43.290332,"lon":5.3863,"is_reserved":false,"is_disabled":false,"rental_uris":{"android":"levelo://app?vid=1bfa36b1-5ae1-494f-ab81-cfd9bf53e31a","ios":"levelo://app?vid=1bfa36b1-5ae1-494f-ab81-cfd9bf53e31a"},"vehicle_type_id":"4","last_reported":1699596576,"current_range_meters":31200,"station_id":"ce4bh4p2rcd13ifvqe0g","pricing_plan_id":"free"},{"bike_id":"a194f8a9-30cd-4f3e-9730-789ecd26bfa2","system_id":"levelo_inurba_marseille","lat":43.302759,"lon":5.400793,"is_reserved":false,"is_disabled":false,"rental_uris":{"android":"levelo://app?vid=a194f8a9-30cd-4f3e-9730-789ecd26bfa2","ios":"levelo://app?vid=a194f8a9-30cd-4f3e-9730-789ecd26bfa2"},"vehicle_type_id":"4","last_reported":1699596576,"current_range_meters":31200,"station_id":"ce4bgvh2rcd13ifvqcs0","pricing_plan_id":"free"},{"bike_id":"532d7580-e795-4a62-8f7a-1631c616cc7b","system_id":"levelo_inurba_marseille","lat":43.29031,"lon":5.38644,"is_reserved":false,"is_disabled":false,"rental_uris":{"android":"levelo://app?vid=532d7580-e795-4a62-8f7a-1631c616cc7b","ios":"levelo://app?vid=532d7580-e795-4a62-8f7a-1631c616cc7b"},"vehicle_type_id":"4","last_reported":1699596576,"current_range_meters":28000,"station_id":"ce4bh4p2rcd13ifvqe0g","pricing_plan_id":"free"},{"bike_id":"bc66b6ff-0ec8-4e53-9d3f-f01843f75b72","system_id":"levelo_inurba_marseille","lat":43.302759,"lon":5.400793,"is_reserved":false,"is_disabled":false,"rental_uris":{"android":"levelo://app?vid=bc66b6ff-0ec8-4e53-9d3f-f01843f75b72","ios":"levelo://app?vid=bc66b6ff-0ec8-4e53-9d3f-f01843f75b72"},"vehicle_type_id":"4","last_reported":1699596576,"current_range_meters":20000,"station_id":"ce4bgvh2rcd13ifvqcs0","pricing_plan_id":"free"},{"bike_id":"3dd940e9-81bc-43ca-a5d7-4a4542e1044f","system_id":"levelo_inurba_marseille","lat":43.302759,"lon":5.400793,"is_reserved":false,"is_disabled":false,"rental_uris":{"android":"levelo://app?vid=3dd940e9-81bc-43ca-a5d7-4a4542e1044f","ios":"levelo://app?vid=3dd940e9-81bc-43ca-a5d7-4a4542e1044f"},"vehicle_type_id":"4","last_reported":1699596576,"current_range_meters":4800,"station_id":"ce4bgvh2rcd13ifvqcs0","pricing_plan_id":"free"},{"bike_id":"b30231ae-cc88-4470-8368-0889498cb21d","system_id":"levelo_inurba_marseille","lat":43.302759,"lon":5.400793,"is_reserved":false,"is_disabled":false,"rental_uris":{"android":"levelo://app?vid=b30231ae-cc88-4470-8368-0889498cb21d","ios":"levelo://app?vid=b30231ae-cc88-4470-8368-0889498cb21d"},"vehicle_type_id":"4","last_reported":1699596576,"current_range_meters":13600,"station_id":"ce4bgvh2rcd13ifvqcs0","pricing_plan_id":"free"},{"bike_id":"47115d91-bf86-4024-8e92-92b6a12b2e7e","system_id":"levelo_inurba_marseille","lat":43.302375,"lon":5.400689,"is_reserved":false,"is_disabled":false,"rental_uris":{"android":"levelo://app?vid=47115d91-bf86-4024-8e92-92b6a12b2e7e","ios":"levelo://app?vid=47115d91-bf86-4024-8e92-92b6a12b2e7e"},"vehicle_type_id":"4","last_reported":1699596576,"current_range_meters":6400,"station_id":"ce4bgvh2rcd13ifvqcs0","pricing_plan_id":"free"},{"bike_id":"9a71790f-bfd3-4673-a639-a713e58e7c63","system_id":"levelo_inurba_marseille","lat":43.302759,"lon":5.400793,"is_reserved":false,"is_disabled":false,"rental_uris":{"android":"levelo://app?vid=9a71790f-bfd3-4673-a639-a713e58e7c63","ios":"levelo://app?vid=9a71790f-bfd3-4673-a639-a713e58e7c63"},"vehicle_type_id":"4","last_reported":1699596576,"current_range_meters":0,"station_id":"ce4bgvh2rcd13ifvqcs0","pricing_plan_id":"free"},{"bike_id":"29183cbc-d5a7-436d-93a9-0f14ede469da","system_id":"levelo_inurba_marseille","lat":43.302759,"lon":5.400793,"is_reserved":false,"is_disabled":false,"rental_uris":{"android":"levelo://app?vid=29183cbc-d5a7-436d-93a9-0f14ede469da","ios":"levelo://app?vid=29183cbc-d5a7-436d-93a9-0f14ede469da"},"vehicle_type_id":"4","last_reported":1699596576,"current_range_meters":26000,"station_id":"ce4bgvh2rcd13ifvqcs0","pricing_plan_id":"free"},{"bike_id":"2c515728-875e-4cad-a96a-76f9bf98f5fd","system_id":"levelo_inurba_marseille","lat":43.286039,"lon":5.370679,"is_reserved":false,"is_disabled":false,"rental_uris":{"android":"levelo://app?vid=2c515728-875e-4cad-a96a-76f9bf98f5fd","ios":"levelo://app?vid=2c515728-875e-4cad-a96a-76f9bf98f5fd"},"vehicle_type_id":"4","last_reported":1699596576,"current_range_meters":29200,"station_id":"ce4bht12rcd13ifvqi60","pricing_plan_id":"free"},{"bike_id":"699b8fcc-588b-485c-80ce-4f75419cfea7","system_id":"levelo_inurba_marseille","lat":43.286039,"lon":5.370681,"is_reserved":false,"is_disabled":false,"rental_uris":{"android":"levelo://app?vid=699b8fcc-588b-485c-80ce-4f75419cfea7","ios":"levelo://app?vid=699b8fcc-588b-485c-80ce-4f75419cfea7"},"vehicle_type_id":"4","last_reported":1699596576,"current_range_meters":15200,"station_id":"ce4bht12rcd13ifvqi60","pricing_plan_id":"free"},{"bike_id":"6765bb75-b997-406a-9b89-a0ef92d35ef9","system_id":"levelo_inurba_marseille","lat":43.31644,"lon":5.404402,"is_reserved":false,"is_disabled":false,"rental_uris":{"android":"levelo://app?vid=6765bb75-b997-406a-9b89-a0ef92d35ef9","ios":"levelo://app?vid=6765bb75-b997-406a-9b89-a0ef92d35ef9"},"vehicle_type_id":"4","last_reported":1699596576,"current_range_meters":9600,"station_id":"ce4bh012rcd13ifvqd00","pricing_plan_id":"free"},{"bike_id":"c00e1767-ab91-4d23-b312-b5b6d6914355","system_id":"levelo_inurba_marseille","lat":43.299717,"lon":5.384845,"is_reserved":false,"is_disabled":false,"rental_uris":{"android":"levelo://app?vid=c00e1767-ab91-4d23-b312-b5b6d6914355","ios":"levelo://app?vid=c00e1767-ab91-4d23-b312-b5b6d6914355"},"vehicle_type_id":"4","last_reported":1699596576,"current_range_meters":28000,"station_id":"ce4bgj92rcd13ifvqbd0","pricing_plan_id":"free"},{"bike_id":"a747a78e-b919-400b-be8c-051161fff5c8","system_id":"levelo_inurba_marseille","lat":43.299707,"lon":5.384859,"is_reserved":false,"is_disabled":false,"rental_uris":{"android":"levelo://app?vid=a747a78e-b919-400b-be8c-051161fff5c8","ios":"levelo://app?vid=a747a78e-b919-400b-be8c-051161fff5c8"},"vehicle_type_id":"4","last_reported":1699596576,"current_range_meters":29600,"station_id":"ce4bgj92rcd13ifvqbd0","pricing_plan_id":"free"},{"bike_id":"e57449c2-d088-47cf-8bf2-271593713c89","system_id":"levelo_inurba_marseille","lat":43.328576,"lon":5.398841,"is_reserved":false,"is_disabled":false,"rental_uris":{"android":"levelo://app?vid=e57449c2-d088-47cf-8bf2-271593713c89","ios":"levelo://app?vid=e57449c2-d088-47cf-8bf2-271593713c89"},"vehicle_type_id":"4","last_reported":1699596576,"current_range_meters":13200,"station_id":"","pricing_plan_id":"free"},{"bike_id":"2411cfd6-c4bf-4cbd-96e0-d86cdbeb932b","system_id":"levelo_inurba_marseille","lat":43.28466,"lon":5.35894,"is_reserved":false,"is_disabled":false,"rental_uris":{"android":"levelo://app?vid=2411cfd6-c4bf-4cbd-96e0-d86cdbeb932b","ios":"levelo://app?vid=2411cfd6-c4bf-4cbd-96e0-d86cdbeb932b"},"vehicle_type_id":"4","last_reported":1699596576,"current_range_meters":22800,"station_id":"ce4bhah2rcd13ifvqei0","pricing_plan_id":"free"},{"bike_id":"c0af76d5-f577-4ed2-ae8e-85cfd7cc48ed","system_id":"levelo_inurba_marseille","lat":43.28465,"lon":5.35899,"is_reserved":false,"is_disabled":false,"rental_uris":{"android":"levelo://app?vid=c0af76d5-f577-4ed2-ae8e-85cfd7cc48ed","ios":"levelo://app?vid=c0af76d5-f577-4ed2-ae8e-85cfd7cc48ed"},"vehicle_type_id":"4","last_reported":1699596576,"current_range_meters":8000,"station_id":"ce4bhah2rcd13ifvqei0","pricing_plan_id":"free"},{"bike_id":"9bb217ca-3551-4a57-84ab-20784a907507","system_id":"levelo_inurba_marseille","lat":43.28465,"lon":5.358945,"is_reserved":false,"is_disabled":false,"rental_uris":{"android":"levelo://app?vid=9bb217ca-3551-4a57-84ab-20784a907507","ios":"levelo://app?vid=9bb217ca-3551-4a57-84ab-20784a907507"},"vehicle_type_id":"4","last_reported":1699596576,"current_range_meters":30000,"station_id":"ce4bhah2rcd13ifvqei0","pricing_plan_id":"free"},{"bike_id":"8c5e9706-e763-4c57-b84f-3d21a35bd9bd","system_id":"levelo_inurba_marseille","lat":43.284632,"lon":5.358941,"is_reserved":false,"is_disabled":false,"rental_uris":{"android":"levelo://app?vid=8c5e9706-e763-4c57-b84f-3d21a35bd9bd","ios":"levelo://app?vid=8c5e9706-e763-4c57-b84f-3d21a35bd9bd"},"vehicle_type_id":"4","last_reported":1699596576,"current_range_meters":30000,"station_id":"ce4bhah2rcd13ifvqei0","pricing_plan_id":"free"},{"bike_id":"4c499fea-2daf-4f8b-bd1d-ffb84d443b22","system_id":"levelo_inurba_marseille","lat":43.28463,"lon":5.35891,"is_reserved":false,"is_disabled":false,"rental_uris":{"android":"levelo://app?vid=4c499fea-2daf-4f8b-bd1d-ffb84d443b22","ios":"levelo://app?vid=4c499fea-2daf-4f8b-bd1d-ffb84d443b22"},"vehicle_type_id":"4","last_reported":1699596576,"current_range_meters":30400,"station_id":"ce4bhah2rcd13ifvqei0","pricing_plan_id":"free"},{"bike_id":"59b93669-18fb-44c6-8880-c553e0b74feb","system_id":"levelo_inurba_marseille","lat":43.28462,"lon":5.35893,"is_reserved":false,"is_disabled":false,"rental_uris":{"android":"levelo://app?vid=59b93669-18fb-44c6-8880-c553e0b74feb","ios":"levelo://app?vid=59b93669-18fb-44c6-8880-c553e0b74feb"},"vehicle_type_id":"4","last_reported":1699596576,"current_range_meters":18800,"station_id":"ce4bhah2rcd13ifvqei0","pricing_plan_id":"free"},{"bike_id":"90093fa5-1ab4-4d56-9461-6467370c9274","system_id":"levelo_inurba_marseille","lat":43.284625,"lon":5.358886,"is_reserved":false,"is_disabled":false,"rental_uris":{"android":"levelo://app?vid=90093fa5-1ab4-4d56-9461-6467370c9274","ios":"levelo://app?vid=90093fa5-1ab4-4d56-9461-6467370c9274"},"vehicle_type_id":"4","last_reported":1699596576,"current_range_meters":9200,"station_id":"ce4bhah2rcd13ifvqei0","pricing_plan_id":"free"},{"bike_id":"c6335d6d-a7ad-4c2d-b60d-d28edb981e22","system_id":"levelo_inurba_marseille","lat":43.284612,"lon":5.358932,"is_reserved":false,"is_disabled":false,"rental_uris":{"android":"levelo://app?vid=c6335d6d-a7ad-4c2d-b60d-d28edb981e22","ios":"levelo://app?vid=c6335d6d-a7ad-4c2d-b60d-d28edb981e22"},"vehicle_type_id":"4","last_reported":1699596576,"current_range_meters":22400,"station_id":"ce4bhah2rcd13ifvqei0","pricing_plan_id":"free"},{"bike_id":"88e5708d-98f2-441c-a393-24464f971e2e","system_id":"levelo_inurba_marseille","lat":43.284534,"lon":5.358662,"is_reserved":false,"is_disabled":false,"rental_uris":{"android":"levelo://app?vid=88e5708d-98f2-441c-a393-24464f971e2e","ios":"levelo://app?vid=88e5708d-98f2-441c-a393-24464f971e2e"},"vehicle_type_id":"4","last_reported":1699596576,"current_range_meters":26000,"station_id":"ce4bhah2rcd13ifvqei0","pricing_plan_id":"free"},{"bike_id":"19da7a58-9fc7-44ee-9a92-c803d6f45185","system_id":"levelo_inurba_marseille","lat":43.2846,"lon":5.35895,"is_reserved":false,"is_disabled":false,"rental_uris":{"android":"levelo://app?vid=19da7a58-9fc7-44ee-9a92-c803d6f45185","ios":"levelo://app?vid=19da7a58-9fc7-44ee-9a92-c803d6f45185"},"vehicle_type_id":"4","last_reported":1699596576,"current_range_meters":30400,"station_id":"ce4bhah2rcd13ifvqei0","pricing_plan_id":"free"},{"bike_id":"d1e7e8d3-53aa-434e-9af7-e529e013546f","system_id":"levelo_inurba_marseille","lat":43.284609,"lon":5.358825,"is_reserved":false,"is_disabled":false,"rental_uris":{"android":"levelo://app?vid=d1e7e8d3-53aa-434e-9af7-e529e013546f","ios":"levelo://app?vid=d1e7e8d3-53aa-434e-9af7-e529e013546f"},"vehicle_type_id":"4","last_reported":1699596576,"current_range_meters":15600,"station_id":"ce4bhah2rcd13ifvqei0","pricing_plan_id":"free"},{"bike_id":"498ed3ae-f309-4586-b540-abdd71af012d","system_id":"levelo_inurba_marseille","lat":43.28458,"lon":5.35896,"is_reserved":false,"is_disabled":false,"rental_uris":{"android":"levelo://app?vid=498ed3ae-f309-4586-b540-abdd71af012d","ios":"levelo://app?vid=498ed3ae-f309-4586-b540-abdd71af012d"},"vehicle_type_id":"4","last_reported":1699596576,"current_range_meters":9600,"station_id":"ce4bhah2rcd13ifvqei0","pricing_plan_id":"free"},{"bike_id":"e148e6dd-31a0-41dd-8a73-cf52996b883a","system_id":"levelo_inurba_marseille","lat":43.28458,"lon":5.358947,"is_reserved":false,"is_disabled":false,"rental_uris":{"android":"levelo://app?vid=e148e6dd-31a0-41dd-8a73-cf52996b883a","ios":"levelo://app?vid=e148e6dd-31a0-41dd-8a73-cf52996b883a"},"vehicle_type_id":"4","last_reported":1699596576,"current_range_meters":30400,"station_id":"ce4bhah2rcd13ifvqei0","pricing_plan_id":"free"},{"bike_id":"19d3b56c-747d-4844-8b37-4959d1da3e10","system_id":"levelo_inurba_marseille","lat":43.284534,"lon":5.358662,"is_reserved":false,"is_disabled":false,"rental_uris":{"android":"levelo://app?vid=19d3b56c-747d-4844-8b37-4959d1da3e10","ios":"levelo://app?vid=19d3b56c-747d-4844-8b37-4959d1da3e10"},"vehicle_type_id":"4","last_reported":1699596576,"current_range_meters":30000,"station_id":"ce4bhah2rcd13ifvqei0","pricing_plan_id":"free"},{"bike_id":"79bbf1b8-0087-470e-a61f-de2ed560511c","system_id":"levelo_inurba_marseille","lat":43.284583,"lon":5.358906,"is_reserved":false,"is_disabled":false,"rental_uris":{"android":"levelo://app?vid=79bbf1b8-0087-470e-a61f-de2ed560511c","ios":"levelo://app?vid=79bbf1b8-0087-470e-a61f-de2ed560511c"},"vehicle_type_id":"4","last_reported":1699596576,"current_range_meters":27200,"station_id":"ce4bhah2rcd13ifvqei0","pricing_plan_id":"free"},{"bike_id":"d8f019c9-bff6-4752-8131-31c09c231c34","system_id":"levelo_inurba_marseille","lat":43.284534,"lon":5.358662,"is_reserved":false,"is_disabled":false,"rental_uris":{"android":"levelo://app?vid=d8f019c9-bff6-4752-8131-31c09c231c34","ios":"levelo://app?vid=d8f019c9-bff6-4752-8131-31c09c231c34"},"vehicle_type_id":"4","last_reported":1699596576,"current_range_meters":30800,"station_id":"ce4bhah2rcd13ifvqei0","pricing_plan_id":"free"},{"bike_id":"f1a5d00b-bd6f-4dc5-981a-d34af25438b9","system_id":"levelo_inurba_marseille","lat":43.284534,"lon":5.358662,"is_reserved":false,"is_disabled":false,"rental_uris":{"android":"levelo://app?vid=f1a5d00b-bd6f-4dc5-981a-d34af25438b9","ios":"levelo://app?vid=f1a5d00b-bd6f-4dc5-981a-d34af25438b9"},"vehicle_type_id":"4","last_reported":1699596576,"current_range_meters":21600,"station_id":"ce4bhah2rcd13ifvqei0","pricing_plan_id":"free"},{"bike_id":"1ca452a7-c44f-4699-a1d9-4abe7d053869","system_id":"levelo_inurba_marseille","lat":43.284534,"lon":5.358662,"is_reserved":false,"is_disabled":false,"rental_uris":{"android":"levelo://app?vid=1ca452a7-c44f-4699-a1d9-4abe7d053869","ios":"levelo://app?vid=1ca452a7-c44f-4699-a1d9-4abe7d053869"},"vehicle_type_id":"4","last_reported":1699596576,"current_range_meters":29200,"station_id":"ce4bhah2rcd13ifvqei0","pricing_plan_id":"free"},{"bike_id":"94af14a7-e47d-4982-bbf0-3c1d6f6d5cbd","system_id":"levelo_inurba_marseille","lat":43.284559,"lon":5.358932,"is_reserved":false,"is_disabled":false,"rental_uris":{"android":"levelo://app?vid=94af14a7-e47d-4982-bbf0-3c1d6f6d5cbd","ios":"levelo://app?vid=94af14a7-e47d-4982-bbf0-3c1d6f6d5cbd"},"vehicle_type_id":"4","last_reported":1699596576,"current_range_meters":29200,"station_id":"ce4bhah2rcd13ifvqei0","pricing_plan_id":"free"},{"bike_id":"f082430a-f2a0-46af-a8b8-e164bcb5dd18","system_id":"levelo_inurba_marseille","lat":43.284534,"lon":5.358662,"is_reserved":false,"is_disabled":false,"rental_uris":{"android":"levelo://app?vid=f082430a-f2a0-46af-a8b8-e164bcb5dd18","ios":"levelo://app?vid=f082430a-f2a0-46af-a8b8-e164bcb5dd18"},"vehicle_type_id":"4","last_reported":1699596576,"current_range_meters":14400,"station_id":"ce4bhah2rcd13ifvqei0","pricing_plan_id":"free"},{"bike_id":"bbab6207-7180-4281-8267-2a0871ff73b7","system_id":"levelo_inurba_marseille","lat":43.284534,"lon":5.358662,"is_reserved":false,"is_disabled":false,"rental_uris":{"android":"levelo://app?vid=bbab6207-7180-4281-8267-2a0871ff73b7","ios":"levelo://app?vid=bbab6207-7180-4281-8267-2a0871ff73b7"},"vehicle_type_id":"4","last_reported":1699596576,"current_range_meters":9200,"station_id":"ce4bhah2rcd13ifvqei0","pricing_plan_id":"free"},{"bike_id":"65dd3b00-0484-4a9a-b5f3-23c9a25ce0cf","system_id":"levelo_inurba_marseille","lat":43.28457,"lon":5.358849,"is_reserved":false,"is_disabled":false,"rental_uris":{"android":"levelo://app?vid=65dd3b00-0484-4a9a-b5f3-23c9a25ce0cf","ios":"levelo://app?vid=65dd3b00-0484-4a9a-b5f3-23c9a25ce0cf"},"vehicle_type_id":"4","last_reported":1699596576,"current_range_meters":21200,"station_id":"ce4bhah2rcd13ifvqei0","pricing_plan_id":"free"},{"bike_id":"c539c721-2693-430d-a283-c72fe05cbeee","system_id":"levelo_inurba_marseille","lat":43.284534,"lon":5.358662,"is_reserved":false,"is_disabled":false,"rental_uris":{"android":"levelo://app?vid=c539c721-2693-430d-a283-c72fe05cbeee","ios":"levelo://app?vid=c539c721-2693-430d-a283-c72fe05cbeee"},"vehicle_type_id":"4","last_reported":1699596576,"current_range_meters":29600,"station_id":"ce4bhah2rcd13ifvqei0","pricing_plan_id":"free"},{"bike_id":"71c97c36-2fcf-4039-ac51-a11584d2c759","system_id":"levelo_inurba_marseille","lat":43.28455,"lon":5.35891,"is_reserved":false,"is_disabled":false,"rental_uris":{"android":"levelo://app?vid=71c97c36-2fcf-4039-ac51-a11584d2c759","ios":"levelo://app?vid=71c97c36-2fcf-4039-ac51-a11584d2c759"},"vehicle_type_id":"4","last_reported":1699596576,"current_range_meters":30000,"station_id":"ce4bhah2rcd13ifvqei0","pricing_plan_id":"free"},{"bike_id":"541ce9a2-5d06-4b63-8afd-8383b361cf22","system_id":"levelo_inurba_marseille","lat":43.284534,"lon":5.358662,"is_reserved":false,"is_disabled":false,"rental_uris":{"android":"levelo://app?vid=541ce9a2-5d06-4b63-8afd-8383b361cf22","ios":"levelo://app?vid=541ce9a2-5d06-4b63-8afd-8383b361cf22"},"vehicle_type_id":"4","last_reported":1699596576,"current_range_meters":30000,"station_id":"ce4bhah2rcd13ifvqei0","pricing_plan_id":"free"},{"bike_id":"5183c6e4-fa58-40ac-8863-b6b72ff08fb7","system_id":"levelo_inurba_marseille","lat":43.284534,"lon":5.358662,"is_reserved":false,"is_disabled":false,"rental_uris":{"android":"levelo://app?vid=5183c6e4-fa58-40ac-8863-b6b72ff08fb7","ios":"levelo://app?vid=5183c6e4-fa58-40ac-8863-b6b72ff08fb7"},"vehicle_type_id":"4","last_reported":1699596576,"current_range_meters":30400,"station_id":"ce4bhah2rcd13ifvqei0","pricing_plan_id":"free"},{"bike_id":"c046997a-4588-4f8c-8d5d-ae11af171b70","system_id":"levelo_inurba_marseille","lat":43.294314,"lon":5.397498,"is_reserved":false,"is_disabled":false,"rental_uris":{"android":"levelo://app?vid=c046997a-4588-4f8c-8d5d-ae11af171b70","ios":"levelo://app?vid=c046997a-4588-4f8c-8d5d-ae11af171b70"},"vehicle_type_id":"4","last_reported":1699596576,"current_range_meters":25200,"station_id":"ce4bh3h2rcd13ifvqdo0","pricing_plan_id":"free"},{"bike_id":"19a2514e-162b-43ab-ae3e-5d0eec506cc0","system_id":"levelo_inurba_marseille","lat":43.294314,"lon":5.397498,"is_reserved":false,"is_disabled":false,"rental_uris":{"android":"levelo://app?vid=19a2514e-162b-43ab-ae3e-5d0eec506cc0","ios":"levelo://app?vid=19a2514e-162b-43ab-ae3e-5d0eec506cc0"},"vehicle_type_id":"4","last_reported":1699596576,"current_range_meters":16800,"station_id":"ce4bh3h2rcd13ifvqdo0","pricing_plan_id":"free"},{"bike_id":"8f3a4cff-9e0a-4773-8cc3-ea4824d5c743","system_id":"levelo_inurba_marseille","lat":43.286744,"lon":5.38665,"is_reserved":false,"is_disabled":false,"rental_uris":{"android":"levelo://app?vid=8f3a4cff-9e0a-4773-8cc3-ea4824d5c743","ios":"levelo://app?vid=8f3a4cff-9e0a-4773-8cc3-ea4824d5c743"},"vehicle_type_id":"4","last_reported":1699596576,"current_range_meters":20000,"station_id":"ce4bh492rcd13ifvqdug","pricing_plan_id":"free"},{"bike_id":"030625bd-f8ba-4389-9944-df2973894a22","system_id":"levelo_inurba_marseille","lat":43.325731,"lon":5.404186,"is_reserved":false,"is_disabled":false,"rental_uris":{"android":"levelo://app?vid=030625bd-f8ba-4389-9944-df2973894a22","ios":"levelo://app?vid=030625bd-f8ba-4389-9944-df2973894a22"},"vehicle_type_id":"4","last_reported":1699596576,"current_range_meters":8800,"station_id":"","pricing_plan_id":"free"},{"bike_id":"c62a31fe-26d8-480d-83d1-44db580000e3","system_id":"levelo_inurba_marseille","lat":43.323464,"lon":5.406297,"is_reserved":false,"is_disabled":false,"rental_uris":{"android":"levelo://app?vid=c62a31fe-26d8-480d-83d1-44db580000e3","ios":"levelo://app?vid=c62a31fe-26d8-480d-83d1-44db580000e3"},"vehicle_type_id":"4","last_reported":1699596576,"current_range_meters":31200,"station_id":"ce4bhq92rcd13ifvqhjg","pricing_plan_id":"free"},{"bike_id":"3fd447c9-bd02-4aa2-8b14-301ac9885ead","system_id":"levelo_inurba_marseille","lat":43.323464,"lon":5.406297,"is_reserved":false,"is_disabled":false,"rental_uris":{"android":"levelo://app?vid=3fd447c9-bd02-4aa2-8b14-301ac9885ead","ios":"levelo://app?vid=3fd447c9-bd02-4aa2-8b14-301ac9885ead"},"vehicle_type_id":"4","last_reported":1699596576,"current_range_meters":31200,"station_id":"ce4bhq92rcd13ifvqhjg","pricing_plan_id":"free"},{"bike_id":"a54b200e-6d4c-49ea-a65e-05b6eff70dc2","system_id":"levelo_inurba_marseille","lat":43.323464,"lon":5.406297,"is_reserved":false,"is_disabled":false,"rental_uris":{"android":"levelo://app?vid=a54b200e-6d4c-49ea-a65e-05b6eff70dc2","ios":"levelo://app?vid=a54b200e-6d4c-49ea-a65e-05b6eff70dc2"},"vehicle_type_id":"4","last_reported":1699596576,"current_range_meters":9600,"station_id":"ce4bhq92rcd13ifvqhjg","pricing_plan_id":"free"},{"bike_id":"ce029730-ee5f-4c96-9382-7c5a4cc3b040","system_id":"levelo_inurba_marseille","lat":43.323464,"lon":5.406297,"is_reserved":false,"is_disabled":false,"rental_uris":{"android":"levelo://app?vid=ce029730-ee5f-4c96-9382-7c5a4cc3b040","ios":"levelo://app?vid=ce029730-ee5f-4c96-9382-7c5a4cc3b040"},"vehicle_type_id":"4","last_reported":1699596576,"current_range_meters":13200,"station_id":"ce4bhq92rcd13ifvqhjg","pricing_plan_id":"free"},{"bike_id":"edf9d82c-1751-4579-9fd6-31ea5db19398","system_id":"levelo_inurba_marseille","lat":43.29795,"lon":5.404086,"is_reserved":false,"is_disabled":false,"rental_uris":{"android":"levelo://app?vid=edf9d82c-1751-4579-9fd6-31ea5db19398","ios":"levelo://app?vid=edf9d82c-1751-4579-9fd6-31ea5db19398"},"vehicle_type_id":"4","last_reported":1699596576,"current_range_meters":28800,"station_id":"ce4bh112rcd13ifvqd90","pricing_plan_id":"free"},{"bike_id":"31c77262-5234-4e65-8b6e-9adcaad049e1","system_id":"levelo_inurba_marseille","lat":43.288497,"lon":5.393089,"is_reserved":false,"is_disabled":false,"rental_uris":{"android":"levelo://app?vid=31c77262-5234-4e65-8b6e-9adcaad049e1","ios":"levelo://app?vid=31c77262-5234-4e65-8b6e-9adcaad049e1"},"vehicle_type_id":"4","last_reported":1699596576,"current_range_meters":29200,"station_id":"ce4bh2p2rcd13ifvqdi0","pricing_plan_id":"free"},{"bike_id":"694cc18d-6823-481a-9d09-67d990c2d197","system_id":"levelo_inurba_marseille","lat":43.324289,"lon":5.407562,"is_reserved":false,"is_disabled":false,"rental_uris":{"android":"levelo://app?vid=694cc18d-6823-481a-9d09-67d990c2d197","ios":"levelo://app?vid=694cc18d-6823-481a-9d09-67d990c2d197"},"vehicle_type_id":"4","last_reported":1699596576,"current_range_meters":3200,"station_id":"","pricing_plan_id":"free"},{"bike_id":"9e9a2c42-2eca-460e-b598-3b4c388ee1c7","system_id":"levelo_inurba_marseille","lat":43.292724,"lon":5.401131,"is_reserved":false,"is_disabled":false,"rental_uris":{"android":"levelo://app?vid=9e9a2c42-2eca-460e-b598-3b4c388ee1c7","ios":"levelo://app?vid=9e9a2c42-2eca-460e-b598-3b4c388ee1c7"},"vehicle_type_id":"4","last_reported":1699596576,"current_range_meters":28800,"station_id":"ce4bh312rcd13ifvqdk0","pricing_plan_id":"free"},{"bike_id":"c631b55d-d81f-4fd4-9944-e75136a158ec","system_id":"levelo_inurba_marseille","lat":43.292724,"lon":5.401131,"is_reserved":false,"is_disabled":false,"rental_uris":{"android":"levelo://app?vid=c631b55d-d81f-4fd4-9944-e75136a158ec","ios":"levelo://app?vid=c631b55d-d81f-4fd4-9944-e75136a158ec"},"vehicle_type_id":"4","last_reported":1699596576,"current_range_meters":31200,"station_id":"ce4bh312rcd13ifvqdk0","pricing_plan_id":"free"},{"bike_id":"45256814-4e7f-4b0d-851c-400bedbf64a1","system_id":"levelo_inurba_marseille","lat":43.292724,"lon":5.401131,"is_reserved":false,"is_disabled":false,"rental_uris":{"android":"levelo://app?vid=45256814-4e7f-4b0d-851c-400bedbf64a1","ios":"levelo://app?vid=45256814-4e7f-4b0d-851c-400bedbf64a1"},"vehicle_type_id":"4","last_reported":1699596576,"current_range_meters":31600,"station_id":"ce4bh312rcd13ifvqdk0","pricing_plan_id":"free"},{"bike_id":"2932dd6a-56c8-4713-96bb-4e48aed84320","system_id":"levelo_inurba_marseille","lat":43.292705,"lon":5.401179,"is_reserved":false,"is_disabled":false,"rental_uris":{"android":"levelo://app?vid=2932dd6a-56c8-4713-96bb-4e48aed84320","ios":"levelo://app?vid=2932dd6a-56c8-4713-96bb-4e48aed84320"},"vehicle_type_id":"4","last_reported":1699596576,"current_range_meters":25600,"station_id":"ce4bh312rcd13ifvqdk0","pricing_plan_id":"free"},{"bike_id":"9533a95f-190a-4cb4-94b6-9c17f844efda","system_id":"levelo_inurba_marseille","lat":43.292724,"lon":5.401131,"is_reserved":false,"is_disabled":false,"rental_uris":{"android":"levelo://app?vid=9533a95f-190a-4cb4-94b6-9c17f844efda","ios":"levelo://app?vid=9533a95f-190a-4cb4-94b6-9c17f844efda"},"vehicle_type_id":"4","last_reported":1699596576,"current_range_meters":31600,"station_id":"ce4bh312rcd13ifvqdk0","pricing_plan_id":"free"},{"bike_id":"3246ca24-285c-4685-8593-75b5473c351c","system_id":"levelo_inurba_marseille","lat":43.282754,"lon":5.350519,"is_reserved":false,"is_disabled":false,"rental_uris":{"android":"levelo://app?vid=3246ca24-285c-4685-8593-75b5473c351c","ios":"levelo://app?vid=3246ca24-285c-4685-8593-75b5473c351c"},"vehicle_type_id":"4","last_reported":1699596576,"current_range_meters":28800,"station_id":"ce4bhbp2rcd13ifvqerg","pricing_plan_id":"free"},{"bike_id":"65a8baf1-538a-4c1a-8042-7ddb8eb59b18","system_id":"levelo_inurba_marseille","lat":43.28039,"lon":5.369297,"is_reserved":false,"is_disabled":false,"rental_uris":{"android":"levelo://app?vid=65a8baf1-538a-4c1a-8042-7ddb8eb59b18","ios":"levelo://app?vid=65a8baf1-538a-4c1a-8042-7ddb8eb59b18"},"vehicle_type_id":"4","last_reported":1699596576,"current_range_meters":29200,"station_id":"ce4bha12rcd13ifvqef0","pricing_plan_id":"free"},{"bike_id":"04ce808c-21a6-4eaf-b1ab-7d5a42de58c7","system_id":"levelo_inurba_marseille","lat":43.280377,"lon":5.36941,"is_reserved":false,"is_disabled":false,"rental_uris":{"android":"levelo://app?vid=04ce808c-21a6-4eaf-b1ab-7d5a42de58c7","ios":"levelo://app?vid=04ce808c-21a6-4eaf-b1ab-7d5a42de58c7"},"vehicle_type_id":"4","last_reported":1699596576,"current_range_meters":5200,"station_id":"ce4bha12rcd13ifvqef0","pricing_plan_id":"free"},{"bike_id":"127fab5f-d08b-4b84-b2a6-33091f62848b","system_id":"levelo_inurba_marseille","lat":43.28039,"lon":5.369297,"is_reserved":false,"is_disabled":false,"rental_uris":{"android":"levelo://app?vid=127fab5f-d08b-4b84-b2a6-33091f62848b","ios":"levelo://app?vid=127fab5f-d08b-4b84-b2a6-33091f62848b"},