{"last_updated":1702130736,"ttl":30,"version":"2.2","data":{"bikes":[{"bike_id":"8213fb51-6ca0-4f12-9e9a-b9f26db97a3d","system_id":"levelo_inurba_marseille","lat":43.314811,"lon":5.373103,"is_reserved":false,"is_disabled":false,"rental_uris":{"android":"levelo://app?vid=8213fb51-6ca0-4f12-9e9a-b9f26db97a3d","ios":"levelo://app?vid=8213fb51-6ca0-4f12-9e9a-b9f26db97a3d"},"vehicle_type_id":"4","last_reported":1702130736,"current_range_meters":25600,"station_id":"ce4bgt12rcd13ifvqcd0","pricing_plan_id":"free"},{"bike_id":"9400fbe8-bb87-4842-9d76-a1007bbf2843","system_id":"levelo_inurba_marseille","lat":43.309039,"lon":5.371797,"is_reserved":false,"is_disabled":false,"rental_uris":{"android":"levelo://app?vid=9400fbe8-bb87-4842-9d76-a1007bbf2843","ios":"levelo://app?vid=9400fbe8-bb87-4842-9d76-a1007bbf2843"},"vehicle_type_id":"4","last_reported":1702130736,"current_range_meters":24400,"station_id":"ce4bguh2rcd13ifvqckg","pricing_plan_id":"free"},{"bike_id":"65cc28c9-87c4-4056-ba67-f11af39296f2","system_id":"levelo_inurba_marseille","lat":43.305712,"lon":5.365641,"is_reserved":false,"is_disabled":false,"rental_uris":{"android":"levelo://app?vid=65cc28c9-87c4-4056-ba67-f11af39296f2","ios":"levelo://app?vid=65cc28c9-87c4-4056-ba67-f11af39296f2"},"vehicle_type_id":"4","last_reported":1702130736,"current_range_meters":18000,"station_id":"ce4bgs12rcd13ifvqcag","pricing_plan_id":"free"},{"bike_id":"57bdf08a-2093-400c-ac5a-1721038691ee","system_id":"levelo_inurba_marseille","lat":43.30534,"lon":5.36545,"is_reserved":false,"is_disabled":false,"rental_uris":{"android":"levelo://app?vid=57bdf08a-2093-400c-ac5a-1721038691ee","ios":"levelo://app?vid=57bdf08a-2093-400c-ac5a-1721038691ee"},"vehicle_type_id":"4","last_reported":1702130736,"current_range_meters":15600,"station_id":"ce4bgs12rcd13ifvqcag","pricing_plan_id":"free"},{"bike_id":"47ebdaa8-11d7-4aff-a8b4-daed53bd6e93","system_id":"levelo_inurba_marseille","lat":43.32309,"lon":5.37431,"is_reserved":false,"is_disabled":false,"rental_uris":{"android":"levelo://app?vid=47ebdaa8-11d7-4aff-a8b4-daed53bd6e93","ios":"levelo://app?vid=47ebdaa8-11d7-4aff-a8b4-daed53bd6e93"},"vehicle_type_id":"4","last_reported":1702130736,"current_range_meters":30000,"station_id":"","pricing_plan_id":"free"},{"bike_id":"23c650aa-88b2-4bd0-a040-c627ba3bcc68","system_id":"levelo_inurba_marseille","lat":43.304606,"lon":5.379026,"is_reserved":false,"is_disabled":false,"rental_uris":{"android":"levelo://app?vid=23c650aa-88b2-4bd0-a040-c627ba3bcc68","ios":"levelo://app?vid=23c650aa-88b2-4bd0-a040-c627ba3bcc68"},"vehicle_type_id":"4","last_reported":1702130736,"current_range_meters":8000,"station_id":"ce4bgup2rcd13ifvqcn0","pricing_plan_id":"free"},{"bike_id":"1206e2bc-4177-408c-8189-aca08028b865","system_id":"levelo_inurba_marseille","lat":43.32477,"lon":5.3656,"is_reserved":false,"is_disabled":false,"rental_uris":{"android":"levelo://app?vid=1206e2bc-4177-408c-8189-aca08028b865","ios":"levelo://app?vid=1206e2bc-4177-408c-8189-aca08028b865"},"vehicle_type_id":"4","last_reported":1702130736,"current_range_meters":7200,"station_id":"ce4bhs12rcd13ifvqhvg","pricing_plan_id":"free"},{"bike_id":"a0bde88e-7822-4c78-ae85-cded812520b6","system_id":"levelo_inurba_marseille","lat":43.304606,"lon":5.379026,"is_reserved":false,"is_disabled":false,"rental_uris":{"android":"levelo://app?vid=a0bde88e-7822-4c78-ae85-cded812520b6","ios":"levelo://app?vid=a0bde88e-7822-4c78-ae85-cded812520b6"},"vehicle_type_id":"4","last_reported":1702130736,"current_range_meters":26800,"station_id":"ce4bgup2rcd13ifvqcn0","pricing_plan_id":"free"},{"bike_id":"d01c8c35-9455-463f-b3c2-f4343efd4e7c","system_id":"levelo_inurba_marseille","lat":43.304606,"lon":5.379026,"is_reserved":false,"is_disabled":false,"rental_uris":{"android":"levelo://app?vid=d01c8c35-9455-463f-b3c2-f4343efd4e7c","ios":"levelo://app?vid=d01c8c35-9455-463f-b3c2-f4343efd4e7c"},"vehicle_type_id":"4","last_reported":1702130736,"current_range_meters":28000,"station_id":"ce4bgup2rcd13ifvqcn0","pricing_plan_id":"free"},{"bike_id":"d50f7976-9aae-4aa8-a0ed-ae61ed80cb70","system_id":"levelo_inurba_marseille","lat":43.302784,"lon":5.377158,"is_reserved":false,"is_disabled":false,"rental_uris":{"android":"levelo://app?vid=d50f7976-9aae-4aa8-a0ed-ae61ed80cb70","ios":"levelo://app?vid=d50f7976-9aae-4aa8-a0ed-ae61ed80cb70"},"vehicle_type_id":"4","last_reported":1702130736,"current_range_meters":22800,"station_id":"ce4bguh2rcd13ifvqcj0","pricing_plan_id":"free"},{"bike_id":"ea2d4f7c-c131-4f14-a7bc-f5c2879d4424","system_id":"levelo_inurba_marseille","lat":43.30143,"lon":5.37413,"is_reserved":false,"is_disabled":false,"rental_uris":{"android":"levelo://app?vid=ea2d4f7c-c131-4f14-a7bc-f5c2879d4424","ios":"levelo://app?vid=ea2d4f7c-c131-4f14-a7bc-f5c2879d4424"},"vehicle_type_id":"4","last_reported":1702130736,"current_range_meters":0,"station_id":"ce4bgs92rcd13ifvqcc0","pricing_plan_id":"free"},{"bike_id":"703b739f-4720-4c2e-a34e-91ed4b3f76e4","system_id":"levelo_inurba_marseille","lat":43.301429,"lon":5.37413,"is_reserved":false,"is_disabled":false,"rental_uris":{"android":"levelo://app?vid=703b739f-4720-4c2e-a34e-91ed4b3f76e4","ios":"levelo://app?vid=703b739f-4720-4c2e-a34e-91ed4b3f76e4"},"vehicle_type_id":"4","last_reported":1702130736,"current_range_meters":13600,"station_id":"ce4bgs92rcd13ifvqcc0","pricing_plan_id":"free"},{"bike_id":"41ffbfb5-7793-4fe1-ba98-ff9a3728de94","system_id":"levelo_inurba_marseille","lat":43.30143,"lon":5.37413,"is_reserved":false,"is_disabled":false,"rental_uris":{"android":"levelo://app?vid=41ffbfb5-7793-4fe1-ba98-ff9a3728de94","ios":"levelo://app?vid=41ffbfb5-7793-4fe1-ba98-ff9a3728de94"},"vehicle_type_id":"4","last_reported":1702130736,"current_range_meters":16400,"station_id":"ce4bgs92rcd13ifvqcc0","pricing_plan_id":"free"},{"bike_id":"f0ace676-01f6-4165-90f5-72899600b9a8","system_id":"levelo_inurba_marseille","lat":43.30143,"lon":5.37413,"is_reserved":false,"is_disabled":false,"rental_uris":{"android":"levelo://app?vid=f0ace676-01f6-4165-90f5-72899600b9a8","ios":"levelo://app?vid=f0ace676-01f6-4165-90f5-72899600b9a8"},"vehicle_type_id":"4","last_reported":1702130736,"current_range_meters":18400,"station_id":"ce4bgs92rcd13ifvqcc0","pricing_plan_id":"free"},{"bike_id":"c7b884ad-7425-4660-9590-f52c10aad0f4","system_id":"levelo_inurba_marseille","lat":43.301429,"lon":5.37413,"is_reserved":false,"is_disabled":false,"rental_uris":{"android":"levelo://app?vid=c7b884ad-7425-4660-9590-f52c10aad0f4","ios":"levelo://app?vid=c7b884ad-7425-4660-9590-f52c10aad0f4"},"vehicle_type_id":"4","last_reported":1702130736,"current_range_meters":29200,"station_id":"ce4bgs92rcd13ifvqcc0","pricing_plan_id":"free"},{"bike_id":"a004fdc8-07aa-477a-b079-3c81d7b1a478","system_id":"levelo_inurba_marseille","lat":43.313571,"lon":5.384829,"is_reserved":false,"is_disabled":false,"rental_uris":{"android":"levelo://app?vid=a004fdc8-07aa-477a-b079-3c81d7b1a478","ios":"levelo://app?vid=a004fdc8-07aa-477a-b079-3c81d7b1a478"},"vehicle_type_id":"4","last_reported":1702130736,"current_range_meters":22000,"station_id":"ce4bgt92rcd13ifvqcf0","pricing_plan_id":"free"},{"bike_id":"bc5fbb97-360a-4591-ac4b-df0879d1eab4","system_id":"levelo_inurba_marseille","lat":43.31356,"lon":5.38493,"is_reserved":false,"is_disabled":false,"rental_uris":{"android":"levelo://app?vid=bc5fbb97-360a-4591-ac4b-df0879d1eab4","ios":"levelo://app?vid=bc5fbb97-360a-4591-ac4b-df0879d1eab4"},"vehicle_type_id":"4","last_reported":1702130736,"current_range_meters":24000,"station_id":"ce4bgt92rcd13ifvqcf0","pricing_plan_id":"free"},{"bike_id":"77fae0c0-958a-4a04-a983-2f7e7cacee7b","system_id":"levelo_inurba_marseille","lat":43.30527,"lon":5.38417,"is_reserved":false,"is_disabled":false,"rental_uris":{"android":"levelo://app?vid=77fae0c0-958a-4a04-a983-2f7e7cacee7b","ios":"levelo://app?vid=77fae0c0-958a-4a04-a983-2f7e7cacee7b"},"vehicle_type_id":"4","last_reported":1702130736,"current_range_meters":19200,"station_id":"ce4bgg92rcd13ifvqb30","pricing_plan_id":"free"},{"bike_id":"d1704b25-8944-48e3-9805-a2561f42df0a","system_id":"levelo_inurba_marseille","lat":43.299243,"lon":5.37481,"is_reserved":false,"is_disabled":false,"rental_uris":{"android":"levelo://app?vid=d1704b25-8944-48e3-9805-a2561f42df0a","ios":"levelo://app?vid=d1704b25-8944-48e3-9805-a2561f42df0a"},"vehicle_type_id":"4","last_reported":1702130736,"current_range_meters":6000,"station_id":"ce4bgjh2rcd13ifvqbg0","pricing_plan_id":"free"},{"bike_id":"a3a0e940-35d8-4eb9-b385-6cbeb71bf616","system_id":"levelo_inurba_marseille","lat":43.299243,"lon":5.374807,"is_reserved":false,"is_disabled":false,"rental_uris":{"android":"levelo://app?vid=a3a0e940-35d8-4eb9-b385-6cbeb71bf616","ios":"levelo://app?vid=a3a0e940-35d8-4eb9-b385-6cbeb71bf616"},"vehicle_type_id":"4","last_reported":1702130736,"current_range_meters":13600,"station_id":"ce4bgjh2rcd13ifvqbg0","pricing_plan_id":"free"},{"bike_id":"5b917f83-5c67-428f-9047-9ea574db693e","system_id":"levelo_inurba_marseille","lat":43.299243,"lon":5.37481,"is_reserved":false,"is_disabled":false,"rental_uris":{"android":"levelo://app?vid=5b917f83-5c67-428f-9047-9ea574db693e","ios":"levelo://app?vid=5b917f83-5c67-428f-9047-9ea574db693e"},"vehicle_type_id":"4","last_reported":1702130736,"current_range_meters":26400,"station_id":"ce4bgjh2rcd13ifvqbg0","pricing_plan_id":"free"},{"bike_id":"a6c3a877-6e08-41c9-8be0-251e031db8c9","system_id":"levelo_inurba_marseille","lat":43.299243,"lon":5.37481,"is_reserved":false,"is_disabled":false,"rental_uris":{"android":"levelo://app?vid=a6c3a877-6e08-41c9-8be0-251e031db8c9","ios":"levelo://app?vid=a6c3a877-6e08-41c9-8be0-251e031db8c9"},"vehicle_type_id":"4","last_reported":1702130736,"current_range_meters":21200,"station_id":"ce4bgjh2rcd13ifvqbg0","pricing_plan_id":"free"},{"bike_id":"531f04d1-6b3d-4bf8-b842-ce239aa4ae5f","system_id":"levelo_inurba_marseille","lat":43.299243,"lon":5.374807,"is_reserved":false,"is_disabled":false,"rental_uris":{"android":"levelo://app?vid=531f04d1-6b3d-4bf8-b842-ce239aa4ae5f","ios":"levelo://app?vid=531f04d1-6b3d-4bf8-b842-ce239aa4ae5f"},"vehicle_type_id":"4","last_reported":1702130736,"current_range_meters":5600,"station_id":"ce4bgjh2rcd13ifvqbg0","pricing_plan_id":"free"},{"bike_id":"517a3a1f-f268-4dd1-9bee-61d30231fdc1","system_id":"levelo_inurba_marseille","lat":43.305283,"lon":5.384323,"is_reserved":false,"is_disabled":false,"rental_uris":{"android":"levelo://app?vid=517a3a1f-f268-4dd1-9bee-61d30231fdc1","ios":"levelo://app?vid=517a3a1f-f268-4dd1-9bee-61d30231fdc1"},"vehicle_type_id":"4","last_reported":1702130736,"current_range_meters":18800,"station_id":"ce4bgg92rcd13ifvqb30","pricing_plan_id":"free"},{"bike_id":"358df3c2-8cbe-4d31-bd47-bad192091104","system_id":"levelo_inurba_marseille","lat":43.297825,"lon":5.371165,"is_reserved":false,"is_disabled":false,"rental_uris":{"android":"levelo://app?vid=358df3c2-8cbe-4d31-bd47-bad192091104","ios":"levelo://app?vid=358df3c2-8cbe-4d31-bd47-bad192091104"},"vehicle_type_id":"4","last_reported":1702130736,"current_range_meters":25200,"station_id":"ce4bgop2rcd13ifvqc1g","pricing_plan_id":"free"},{"bike_id":"38f1223e-a214-4eb0-9b54-a70de861d11b","system_id":"levelo_inurba_marseille","lat":43.32289,"lon":5.38264,"is_reserved":false,"is_disabled":false,"rental_uris":{"android":"levelo://app?vid=38f1223e-a214-4eb0-9b54-a70de861d11b","ios":"levelo://app?vid=38f1223e-a214-4eb0-9b54-a70de861d11b"},"vehicle_type_id":"4","last_reported":1702130736,"current_range_meters":22400,"station_id":"ce4bhr12rcd13ifvqhqg","pricing_plan_id":"free"},{"bike_id":"d04bedf3-fa0d-476a-afc0-f8735ca347d1","system_id":"levelo_inurba_marseille","lat":43.322872,"lon":5.382756,"is_reserved":false,"is_disabled":false,"rental_uris":{"android":"levelo://app?vid=d04bedf3-fa0d-476a-afc0-f8735ca347d1","ios":"levelo://app?vid=d04bedf3-fa0d-476a-afc0-f8735ca347d1"},"vehicle_type_id":"4","last_reported":1702130736,"current_range_meters":22400,"station_id":"ce4bhr12rcd13ifvqhqg","pricing_plan_id":"free"},{"bike_id":"9fc05563-ce9d-41d0-afd6-5a47bbd1b2ba","system_id":"levelo_inurba_marseille","lat":43.322872,"lon":5.382756,"is_reserved":false,"is_disabled":false,"rental_uris":{"android":"levelo://app?vid=9fc05563-ce9d-41d0-afd6-5a47bbd1b2ba","ios":"levelo://app?vid=9fc05563-ce9d-41d0-afd6-5a47bbd1b2ba"},"vehicle_type_id":"4","last_reported":1702130736,"current_range_meters":24800,"station_id":"ce4bhr12rcd13ifvqhqg","pricing_plan_id":"free"},{"bike_id":"c7434962-efe8-4461-8be2-21b47b98f22c","system_id":"levelo_inurba_marseille","lat":43.322872,"lon":5.382756,"is_reserved":false,"is_disabled":false,"rental_uris":{"android":"levelo://app?vid=c7434962-efe8-4461-8be2-21b47b98f22c","ios":"levelo://app?vid=c7434962-efe8-4461-8be2-21b47b98f22c"},"vehicle_type_id":"4","last_reported":1702130736,"current_range_meters":15600,"station_id":"ce4bhr12rcd13ifvqhqg","pricing_plan_id":"free"},{"bike_id":"5ed66215-e812-4934-8bd8-05fa06e2778c","system_id":"levelo_inurba_marseille","lat":43.32825,"lon":5.36693,"is_reserved":false,"is_disabled":false,"rental_uris":{"android":"levelo://app?vid=5ed66215-e812-4934-8bd8-05fa06e2778c","ios":"levelo://app?vid=5ed66215-e812-4934-8bd8-05fa06e2778c"},"vehicle_type_id":"4","last_reported":1702130736,"current_range_meters":28400,"station_id":"ce4bhs92rcd13ifvqi0g","pricing_plan_id":"free"},{"bike_id":"6ac675f1-e0be-498c-ad2f-b742a949d4b0","system_id":"levelo_inurba_marseille","lat":43.298218,"lon":5.374416,"is_reserved":false,"is_disabled":false,"rental_uris":{"android":"levelo://app?vid=6ac675f1-e0be-498c-ad2f-b742a949d4b0","ios":"levelo://app?vid=6ac675f1-e0be-498c-ad2f-b742a949d4b0"},"vehicle_type_id":"4","last_reported":1702130736,"current_range_meters":2000,"station_id":"","pricing_plan_id":"free"},{"bike_id":"e0a4a2dd-db29-4701-ac54-494d34da2cf6","system_id":"levelo_inurba_marseille","lat":43.2968,"lon":5.37291,"is_reserved":false,"is_disabled":false,"rental_uris":{"android":"levelo://app?vid=e0a4a2dd-db29-4701-ac54-494d34da2cf6","ios":"levelo://app?vid=e0a4a2dd-db29-4701-ac54-494d34da2cf6"},"vehicle_type_id":"4","last_reported":1702130736,"current_range_meters":27200,"station_id":"ce4bgk12rcd13ifvqbj0","pricing_plan_id":"free"},{"bike_id":"92dc65d6-6823-4de3-93d4-056f738f090c","system_id":"levelo_inurba_marseille","lat":43.316538,"lon":5.38954,"is_reserved":false,"is_disabled":false,"rental_uris":{"android":"levelo://app?vid=92dc65d6-6823-4de3-93d4-056f738f090c","ios":"levelo://app?vid=92dc65d6-6823-4de3-93d4-056f738f090c"},"vehicle_type_id":"4","last_reported":1702130736,"current_range_meters":0,"station_id":"","pricing_plan_id":"free"},{"bike_id":"5e8e4896-348d-4749-9960-d6732f35cfc3","system_id":"levelo_inurba_marseille","lat":43.296921,"lon":5.376579,"is_reserved":false,"is_disabled":false,"rental_uris":{"android":"levelo://app?vid=5e8e4896-348d-4749-9960-d6732f35cfc3","ios":"levelo://app?vid=5e8e4896-348d-4749-9960-d6732f35cfc3"},"vehicle_type_id":"4","last_reported":1702130736,"current_range_meters":0,"station_id":"ce4bgkh2rcd13ifvqbl0","pricing_plan_id":"free"},{"bike_id":"71f385c3-d3eb-4639-a932-bfa2e38c6d82","system_id":"levelo_inurba_marseille","lat":43.299028,"lon":5.381509,"is_reserved":false,"is_disabled":false,"rental_uris":{"android":"levelo://app?vid=71f385c3-d3eb-4639-a932-bfa2e38c6d82","ios":"levelo://app?vid=71f385c3-d3eb-4639-a932-bfa2e38c6d82"},"vehicle_type_id":"4","last_reported":1702130736,"current_range_meters":26000,"station_id":"ce4bgj12rcd13ifvqbc0","pricing_plan_id":"free"},{"bike_id":"19e64f3f-0624-4207-a000-34b88a685f34","system_id":"levelo_inurba_marseille","lat":43.295748,"lon":5.37522,"is_reserved":false,"is_disabled":false,"rental_uris":{"android":"levelo://app?vid=19e64f3f-0624-4207-a000-34b88a685f34","ios":"levelo://app?vid=19e64f3f-0624-4207-a000-34b88a685f34"},"vehicle_type_id":"4","last_reported":1702130736,"current_range_meters":23200,"station_id":"ce4bgh92rcd13ifvqb50","pricing_plan_id":"free"},{"bike_id":"eec9ab57-1598-4ec8-95b1-539393af1968","system_id":"levelo_inurba_marseille","lat":43.304274,"lon":5.388873,"is_reserved":false,"is_disabled":false,"rental_uris":{"android":"levelo://app?vid=eec9ab57-1598-4ec8-95b1-539393af1968","ios":"levelo://app?vid=eec9ab57-1598-4ec8-95b1-539393af1968"},"vehicle_type_id":"4","last_reported":1702130736,"current_range_meters":10400,"station_id":"ce4bgk12rcd13ifvqbi0","pricing_plan_id":"free"},{"bike_id":"4206c229-dcf0-450d-ac67-de57f973b7ce","system_id":"levelo_inurba_marseille","lat":43.304278,"lon":5.388868,"is_reserved":false,"is_disabled":false,"rental_uris":{"android":"levelo://app?vid=4206c229-dcf0-450d-ac67-de57f973b7ce","ios":"levelo://app?vid=4206c229-dcf0-450d-ac67-de57f973b7ce"},"vehicle_type_id":"4","last_reported":1702130736,"current_range_meters":27200,"station_id":"ce4bgk12rcd13ifvqbi0","pricing_plan_id":"free"},{"bike_id":"06bf50e9-fb92-4b42-9bbe-ef434e251ec6","system_id":"levelo_inurba_marseille","lat":43.296263,"lon":5.377094,"is_reserved":false,"is_disabled":false,"rental_uris":{"android":"levelo://app?vid=06bf50e9-fb92-4b42-9bbe-ef434e251ec6","ios":"levelo://app?vid=06bf50e9-fb92-4b42-9bbe-ef434e251ec6"},"vehicle_type_id":"4","last_reported":1702130736,"current_range_meters":24800,"station_id":"ce4bgi92rcd13ifvqb90","pricing_plan_id":"free"},{"bike_id":"59932c94-33c8-48d7-b727-12a41915cfdf","system_id":"levelo_inurba_marseille","lat":43.295748,"lon":5.37522,"is_reserved":false,"is_disabled":false,"rental_uris":{"android":"levelo://app?vid=59932c94-33c8-48d7-b727-12a41915cfdf","ios":"levelo://app?vid=59932c94-33c8-48d7-b727-12a41915cfdf"},"vehicle_type_id":"4","last_reported":1702130736,"current_range_meters":0,"station_id":"ce4bgh92rcd13ifvqb50","pricing_plan_id":"free"},{"bike_id":"47f395e4-f939-4a77-947e-e6be1cbdbda8","system_id":"levelo_inurba_marseille","lat":43.296263,"lon":5.377094,"is_reserved":false,"is_disabled":false,"rental_uris":{"android":"levelo://app?vid=47f395e4-f939-4a77-947e-e6be1cbdbda8","ios":"levelo://app?vid=47f395e4-f939-4a77-947e-e6be1cbdbda8"},"vehicle_type_id":"4","last_reported":1702130736,"current_range_meters":14400,"station_id":"ce4bgi92rcd13ifvqb90","pricing_plan_id":"free"},{"bike_id":"0b213fe2-eac4-4ed6-8a32-929213f04c92","system_id":"levelo_inurba_marseille","lat":43.297857,"lon":5.381143,"is_reserved":false,"is_disabled":false,"rental_uris":{"android":"levelo://app?vid=0b213fe2-eac4-4ed6-8a32-929213f04c92","ios":"levelo://app?vid=0b213fe2-eac4-4ed6-8a32-929213f04c92"},"vehicle_type_id":"4","last_reported":1702130736,"current_range_meters":0,"station_id":"ce4bgip2rcd13ifvqbb0","pricing_plan_id":"free"},{"bike_id":"b897f863-e5e4-46bd-9cee-48e4d17a5912","system_id":"levelo_inurba_marseille","lat":43.296263,"lon":5.377094,"is_reserved":false,"is_disabled":false,"rental_uris":{"android":"levelo://app?vid=b897f863-e5e4-46bd-9cee-48e4d17a5912","ios":"levelo://app?vid=b897f863-e5e4-46bd-9cee-48e4d17a5912"},"vehicle_type_id":"4","last_reported":1702130736,"current_range_meters":4000,"station_id":"ce4bgi92rcd13ifvqb90","pricing_plan_id":"free"},{"bike_id":"a5bea7ee-760a-49da-8907-0c353076d468","system_id":"levelo_inurba_marseille","lat":43.299717,"lon":5.384845,"is_reserved":false,"is_disabled":false,"rental_uris":{"android":"levelo://app?vid=a5bea7ee-760a-49da-8907-0c353076d468","ios":"levelo://app?vid=a5bea7ee-760a-49da-8907-0c353076d468"},"vehicle_type_id":"4","last_reported":1702130736,"current_range_meters":16400,"station_id":"ce4bgj92rcd13ifvqbd0","pricing_plan_id":"free"},{"bike_id":"45f38ae0-3406-41b4-94ec-c62c9545775a","system_id":"levelo_inurba_marseille","lat":43.29275,"lon":5.36842,"is_reserved":false,"is_disabled":false,"rental_uris":{"android":"levelo://app?vid=45f38ae0-3406-41b4-94ec-c62c9545775a","ios":"levelo://app?vid=45f38ae0-3406-41b4-94ec-c62c9545775a"},"vehicle_type_id":"4","last_reported":1702130736,"current_range_meters":20400,"station_id":"ce4bhbp2rcd13ifvqesg","pricing_plan_id":"free"},{"bike_id":"b6bcd321-ea6d-4bcc-8bd7-3006521e0807","system_id":"levelo_inurba_marseille","lat":43.303002,"lon":5.392142,"is_reserved":false,"is_disabled":false,"rental_uris":{"android":"levelo://app?vid=b6bcd321-ea6d-4bcc-8bd7-3006521e0807","ios":"levelo://app?vid=b6bcd321-ea6d-4bcc-8bd7-3006521e0807"},"vehicle_type_id":"4","last_reported":1702130736,"current_range_meters":24400,"station_id":"ce4bgkh2rcd13ifvqbk0","pricing_plan_id":"free"},{"bike_id":"9a527c78-7107-4058-86ca-b52ebda6ffb9","system_id":"levelo_inurba_marseille","lat":43.2936,"lon":5.37835,"is_reserved":false,"is_disabled":false,"rental_uris":{"android":"levelo://app?vid=9a527c78-7107-4058-86ca-b52ebda6ffb9","ios":"levelo://app?vid=9a527c78-7107-4058-86ca-b52ebda6ffb9"},"vehicle_type_id":"4","last_reported":1702130736,"current_range_meters":28800,"station_id":"ce4bgjh2rcd13ifvqbf0","pricing_plan_id":"free"},{"bike_id":"ffe8e861-9583-46be-9da3-462d5c1037ee","system_id":"levelo_inurba_marseille","lat":43.29251,"lon":5.37629,"is_reserved":false,"is_disabled":false,"rental_uris":{"android":"levelo://app?vid=ffe8e861-9583-46be-9da3-462d5c1037ee","ios":"levelo://app?vid=ffe8e861-9583-46be-9da3-462d5c1037ee"},"vehicle_type_id":"4","last_reported":1702130736,"current_range_meters":11200,"station_id":"ce4bgi12rcd13ifvqb80","pricing_plan_id":"free"},{"bike_id":"25370a0e-e806-4f5e-a418-6aeaa4287291","system_id":"levelo_inurba_marseille","lat":43.29187,"lon":5.35797,"is_reserved":false,"is_disabled":false,"rental_uris":{"android":"levelo://app?vid=25370a0e-e806-4f5e-a418-6aeaa4287291","ios":"levelo://app?vid=25370a0e-e806-4f5e-a418-6aeaa4287291"},"vehicle_type_id":"4","last_reported":1702130736,"current_range_meters":16400,"station_id":"ce4bhb12rcd13ifvqel0","pricing_plan_id":"free"},{"bike_id":"a6ae8b20-c8f7-48ae-b7e5-ef2c36cf1cd4","system_id":"levelo_inurba_marseille","lat":43.293009,"lon":5.374584,"is_reserved":false,"is_disabled":false,"rental_uris":{"android":"levelo://app?vid=a6ae8b20-c8f7-48ae-b7e5-ef2c36cf1cd4","ios":"levelo://app?vid=a6ae8b20-c8f7-48ae-b7e5-ef2c36cf1cd4"},"vehicle_type_id":"4","last_reported":1702130736,"current_range_meters":11200,"station_id":"ce4bgi12rcd13ifvqb70","pricing_plan_id":"free"},{"bike_id":"29330a13-dcc7-4aae-91df-2762afc8be10","system_id":"levelo_inurba_marseille","lat":43.289184,"lon":5.366408,"is_reserved":false,"is_disabled":false,"rental_uris":{"android":"levelo://app?vid=29330a13-dcc7-4aae-91df-2762afc8be10","ios":"levelo://app?vid=29330a13-dcc7-4aae-91df-2762afc8be10"},"vehicle_type_id":"4","last_reported":1702130736,"current_range_meters":20400,"station_id":"ce4bhap2rcd13ifvqek0","pricing_plan_id":"free"},{"bike_id":"29ae8b4a-4281-4b0a-9b7a-82f597f9f07d","system_id":"levelo_inurba_marseille","lat":43.289184,"lon":5.366408,"is_reserved":false,"is_disabled":false,"rental_uris":{"android":"levelo://app?vid=29ae8b4a-4281-4b0a-9b7a-82f597f9f07d","ios":"levelo://app?vid=29ae8b4a-4281-4b0a-9b7a-82f597f9f07d"},"vehicle_type_id":"4","last_reported":1702130736,"current_range_meters":25200,"station_id":"ce4bhap2rcd13ifvqek0","pricing_plan_id":"free"},{"bike_id":"a02a1b20-1fb1-4951-988a-77389649024d","system_id":"levelo_inurba_marseille","lat":43.289259,"lon":5.366364,"is_reserved":false,"is_disabled":false,"rental_uris":{"android":"levelo://app?vid=a02a1b20-1fb1-4951-988a-77389649024d","ios":"levelo://app?vid=a02a1b20-1fb1-4951-988a-77389649024d"},"vehicle_type_id":"4","last_reported":1702130736,"current_range_meters":12000,"station_id":"","pricing_plan_id":"free"},{"bike_id":"c3af7d8d-ca2c-4955-b26c-28787ea16059","system_id":"levelo_inurba_marseille","lat":43.290104,"lon":5.356111,"is_reserved":false,"is_disabled":false,"rental_uris":{"android":"levelo://app?vid=c3af7d8d-ca2c-4955-b26c-28787ea16059","ios":"levelo://app?vid=c3af7d8d-ca2c-4955-b26c-28787ea16059"},"vehicle_type_id":"4","last_reported":1702130736,"current_range_meters":26400,"station_id":"ce4bhb92rcd13ifvqen0","pricing_plan_id":"free"},{"bike_id":"676380ad-8ecd-4c10-9276-8ff5417abb9c","system_id":"levelo_inurba_marseille","lat":43.289743,"lon":5.378304,"is_reserved":false,"is_disabled":false,"rental_uris":{"android":"levelo://app?vid=676380ad-8ecd-4c10-9276-8ff5417abb9c","ios":"levelo://app?vid=676380ad-8ecd-4c10-9276-8ff5417abb9c"},"vehicle_type_id":"4","last_reported":1702130736,"current_range_meters":5200,"station_id":"ce4bh9p2rcd13ifvqed0","pricing_plan_id":"free"},{"bike_id":"00e650f7-1a5e-4673-a676-f542457a67ce","system_id":"levelo_inurba_marseille","lat":43.295169,"lon":5.390426,"is_reserved":false,"is_disabled":false,"rental_uris":{"android":"levelo://app?vid=00e650f7-1a5e-4673-a676-f542457a67ce","ios":"levelo://app?vid=00e650f7-1a5e-4673-a676-f542457a67ce"},"vehicle_type_id":"4","last_reported":1702130736,"current_range_meters":21600,"station_id":"ce4bh3p2rcd13ifvqdp0","pricing_plan_id":"free"},{"bike_id":"0c4c4d34-6b81-4f39-831d-c5ca9701c160","system_id":"levelo_inurba_marseille","lat":43.290094,"lon":5.381264,"is_reserved":false,"is_disabled":false,"rental_uris":{"android":"levelo://app?vid=0c4c4d34-6b81-4f39-831d-c5ca9701c160","ios":"levelo://app?vid=0c4c4d34-6b81-4f39-831d-c5ca9701c160"},"vehicle_type_id":"4","last_reported":1702130736,"current_range_meters":21600,"station_id":"ce4bh4p2rcd13ifvqe1g","pricing_plan_id":"free"},{"bike_id":"bdc9dd5e-a74e-42cd-acdc-33880dce0b7c","system_id":"levelo_inurba_marseille","lat":43.28856,"lon":5.358371,"is_reserved":false,"is_disabled":false,"rental_uris":{"android":"levelo://app?vid=bdc9dd5e-a74e-42cd-acdc-33880dce0b7c","ios":"levelo://app?vid=bdc9dd5e-a74e-42cd-acdc-33880dce0b7c"},"vehicle_type_id":"4","last_reported":1702130736,"current_range_meters":14800,"station_id":"ce4bhb12rcd13ifvqem0","pricing_plan_id":"free"},{"bike_id":"34206e0f-375d-4a3e-acf9-3c12df32736f","system_id":"levelo_inurba_marseille","lat":43.306412,"lon":5.401035,"is_reserved":false,"is_disabled":false,"rental_uris":{"android":"levelo://app?vid=34206e0f-375d-4a3e-acf9-3c12df32736f","ios":"levelo://app?vid=34206e0f-375d-4a3e-acf9-3c12df32736f"},"vehicle_type_id":"4","last_reported":1702130736,"current_range_meters":20800,"station_id":"ce4bh112rcd13ifvqda0","pricing_plan_id":"free"},{"bike_id":"667090f2-40e1-4b11-8901-ab5e0fc5bf7b","system_id":"levelo_inurba_marseille","lat":43.30642,"lon":5.401031,"is_reserved":false,"is_disabled":false,"rental_uris":{"android":"levelo://app?vid=667090f2-40e1-4b11-8901-ab5e0fc5bf7b","ios":"levelo://app?vid=667090f2-40e1-4b11-8901-ab5e0fc5bf7b"},"vehicle_type_id":"4","last_reported":1702130736,"current_range_meters":27200,"station_id":"ce4bh112rcd13ifvqda0","pricing_plan_id":"free"},{"bike_id":"0f672cc4-d8c9-4d66-bc6c-ca42a5cef680","system_id":"levelo_inurba_marseille","lat":43.30649,"lon":5.40096,"is_reserved":false,"is_disabled":false,"rental_uris":{"android":"levelo://app?vid=0f672cc4-d8c9-4d66-bc6c-ca42a5cef680","ios":"levelo://app?vid=0f672cc4-d8c9-4d66-bc6c-ca42a5cef680"},"vehicle_type_id":"4","last_reported":1702130736,"current_range_meters":27200,"station_id":"ce4bh112rcd13ifvqda0","pricing_plan_id":"free"},{"bike_id":"97c97d3b-1278-43f5-b7d3-39c8ea4ec252","system_id":"levelo_inurba_marseille","lat":43.301117,"lon":5.398795,"is_reserved":false,"is_disabled":false,"rental_uris":{"android":"levelo://app?vid=97c97d3b-1278-43f5-b7d3-39c8ea4ec252","ios":"levelo://app?vid=97c97d3b-1278-43f5-b7d3-39c8ea4ec252"},"vehicle_type_id":"4","last_reported":1702130736,"current_range_meters":25600,"station_id":"ce4bh0h2rcd13ifvqd40","pricing_plan_id":"free"},{"bike_id":"4c095df2-6439-48ea-8d96-70841992ffb5","system_id":"levelo_inurba_marseille","lat":43.301117,"lon":5.398795,"is_reserved":false,"is_disabled":false,"rental_uris":{"android":"levelo://app?vid=4c095df2-6439-48ea-8d96-70841992ffb5","ios":"levelo://app?vid=4c095df2-6439-48ea-8d96-70841992ffb5"},"vehicle_type_id":"4","last_reported":1702130736,"current_range_meters":20800,"station_id":"ce4bh0h2rcd13ifvqd40","pricing_plan_id":"free"},{"bike_id":"83959a6b-7882-4b8a-becb-010905e6abcc","system_id":"levelo_inurba_marseille","lat":43.28727,"lon":5.36078,"is_reserved":false,"is_disabled":false,"rental_uris":{"android":"levelo://app?vid=83959a6b-7882-4b8a-becb-010905e6abcc","ios":"levelo://app?vid=83959a6b-7882-4b8a-becb-010905e6abcc"},"vehicle_type_id":"4","last_reported":1702130736,"current_range_meters":26400,"station_id":"cki0cbj6b192h4jlfktg","pricing_plan_id":"free"},{"bike_id":"ca8a6b1a-1ca0-4fe1-b2cd-f44286b689e9","system_id":"levelo_inurba_marseille","lat":43.286961,"lon":5.373785,"is_reserved":false,"is_disabled":false,"rental_uris":{"android":"levelo://app?vid=ca8a6b1a-1ca0-4fe1-b2cd-f44286b689e9","ios":"levelo://app?vid=ca8a6b1a-1ca0-4fe1-b2cd-f44286b689e9"},"vehicle_type_id":"4","last_reported":1702130736,"current_range_meters":21600,"station_id":"ce4bh3p2rcd13ifvqdq0","pricing_plan_id":"free"},{"bike_id":"38e53249-c2b0-45d3-a15b-ab397efadc25","system_id":"levelo_inurba_marseille","lat":43.295196,"lon":5.39397,"is_reserved":false,"is_disabled":false,"rental_uris":{"android":"levelo://app?vid=38e53249-c2b0-45d3-a15b-ab397efadc25","ios":"levelo://app?vid=38e53249-c2b0-45d3-a15b-ab397efadc25"},"vehicle_type_id":"4","last_reported":1702130736,"current_range_meters":9200,"station_id":"ce4bh292rcd13ifvqdf0","pricing_plan_id":"free"},{"bike_id":"826b2715-fb0c-4496-92ba-b77693bf902d","system_id":"levelo_inurba_marseille","lat":43.298681,"lon":5.397225,"is_reserved":false,"is_disabled":false,"rental_uris":{"android":"levelo://app?vid=826b2715-fb0c-4496-92ba-b77693bf902d","ios":"levelo://app?vid=826b2715-fb0c-4496-92ba-b77693bf902d"},"vehicle_type_id":"4","last_reported":1702130736,"current_range_meters":28800,"station_id":"ce4bh0h2rcd13ifvqd50","pricing_plan_id":"free"},{"bike_id":"45b1a32a-5be3-4fbc-bb22-acdf231d5383","system_id":"levelo_inurba_marseille","lat":43.286593,"lon":5.363346,"is_reserved":false,"is_disabled":false,"rental_uris":{"android":"levelo://app?vid=45b1a32a-5be3-4fbc-bb22-acdf231d5383","ios":"levelo://app?vid=45b1a32a-5be3-4fbc-bb22-acdf231d5383"},"vehicle_type_id":"4","last_reported":1702130736,"current_range_meters":9600,"station_id":"ce4bhah2rcd13ifvqej0","pricing_plan_id":"free"},{"bike_id":"d541ccd3-dea0-42a1-93c0-f311ea483131","system_id":"levelo_inurba_marseille","lat":43.290345,"lon":5.38646,"is_reserved":false,"is_disabled":false,"rental_uris":{"android":"levelo://app?vid=d541ccd3-dea0-42a1-93c0-f311ea483131","ios":"levelo://app?vid=d541ccd3-dea0-42a1-93c0-f311ea483131"},"vehicle_type_id":"4","last_reported":1702130736,"current_range_meters":6400,"station_id":"ce4bh4p2rcd13ifvqe0g","pricing_plan_id":"free"},{"bike_id":"11827d9c-dab2-4e6e-a8a5-19328753934f","system_id":"levelo_inurba_marseille","lat":43.286039,"lon":5.370681,"is_reserved":false,"is_disabled":false,"rental_uris":{"android":"levelo://app?vid=11827d9c-dab2-4e6e-a8a5-19328753934f","ios":"levelo://app?vid=11827d9c-dab2-4e6e-a8a5-19328753934f"},"vehicle_type_id":"4","last_reported":1702130736,"current_range_meters":16800,"station_id":"ce4bht12rcd13ifvqi60","pricing_plan_id":"free"},{"bike_id":"c67e36dd-e83c-41c4-bce6-57b26530bb01","system_id":"levelo_inurba_marseille","lat":43.286039,"lon":5.370679,"is_reserved":false,"is_disabled":false,"rental_uris":{"android":"levelo://app?vid=c67e36dd-e83c-41c4-bce6-57b26530bb01","ios":"levelo://app?vid=c67e36dd-e83c-41c4-bce6-57b26530bb01"},"vehicle_type_id":"4","last_reported":1702130736,"current_range_meters":5600,"station_id":"ce4bht12rcd13ifvqi60","pricing_plan_id":"free"},{"bike_id":"49658399-508d-489c-8ecf-17152ba09692","system_id":"levelo_inurba_marseille","lat":43.286039,"lon":5.370679,"is_reserved":false,"is_disabled":false,"rental_uris":{"android":"levelo://app?vid=49658399-508d-489c-8ecf-17152ba09692","ios":"levelo://app?vid=49658399-508d-489c-8ecf-17152ba09692"},"vehicle_type_id":"4","last_reported":1702130736,"current_range_meters":28400,"station_id":"ce4bht12rcd13ifvqi60","pricing_plan_id":"free"},{"bike_id":"ce1c8088-d5c0-40c9-9a58-ff1c00f1865d","system_id":"levelo_inurba_marseille","lat":43.28466,"lon":5.35888,"is_reserved":false,"is_disabled":false,"rental_uris":{"android":"levelo://app?vid=ce1c8088-d5c0-40c9-9a58-ff1c00f1865d","ios":"levelo://app?vid=ce1c8088-d5c0-40c9-9a58-ff1c00f1865d"},"vehicle_type_id":"4","last_reported":1702130736,"current_range_meters":0,"station_id":"ce4bhah2rcd13ifvqei0","pricing_plan_id":"free"},{"bike_id":"bd5b876d-c502-4531-a82b-668aef2ae79c","system_id":"levelo_inurba_marseille","lat":43.284538,"lon":5.358657,"is_reserved":false,"is_disabled":false,"rental_uris":{"android":"levelo://app?vid=bd5b876d-c502-4531-a82b-668aef2ae79c","ios":"levelo://app?vid=bd5b876d-c502-4531-a82b-668aef2ae79c"},"vehicle_type_id":"4","last_reported":1702130736,"current_range_meters":14800,"station_id":"ce4bhah2rcd13ifvqei0","pricing_plan_id":"free"},{"bike_id":"94099249-0ba8-4239-9308-6b77fe0cbc14","system_id":"levelo_inurba_marseille","lat":43.284538,"lon":5.358657,"is_reserved":false,"is_disabled":false,"rental_uris":{"android":"levelo://app?vid=94099249-0ba8-4239-9308-6b77fe0cbc14","ios":"levelo://app?vid=94099249-0ba8-4239-9308-6b77fe0cbc14"},"vehicle_type_id":"4","last_reported":1702130736,"current_range_meters":22400,"station_id":"ce4bhah2rcd13ifvqei0","pricing_plan_id":"free"},{"bike_id":"0074fe0e-dac7-4748-bc4d-4125fffbde75","system_id":"levelo_inurba_marseille","lat":43.294314,"lon":5.397498,"is_reserved":false,"is_disabled":false,"rental_uris":{"android":"levelo://app?vid=0074fe0e-dac7-4748-bc4d-4125fffbde75","ios":"levelo://app?vid=0074fe0e-dac7-4748-bc4d-4125fffbde75"},"vehicle_type_id":"4","last_reported":1702130736,"current_range_meters":12800,"station_id":"ce4bh3h2rcd13ifvqdo0","pricing_plan_id":"free"},{"bike_id":"a74a3878-4eea-4074-b70f-591ba450338d","system_id":"levelo_inurba_marseille","lat":43.28612,"lon":5.35101,"is_reserved":false,"is_disabled":false,"rental_uris":{"android":"levelo://app?vid=a74a3878-4eea-4074-b70f-591ba450338d","ios":"levelo://app?vid=a74a3878-4eea-4074-b70f-591ba450338d"},"vehicle_type_id":"4","last_reported":1702130736,"current_range_meters":28400,"station_id":"ce4bhch2rcd13ifvqeug","pricing_plan_id":"free"},{"bike_id":"da6dd907-9155-49d7-bde2-686504deb7c2","system_id":"levelo_inurba_marseille","lat":43.283998,"lon":5.375062,"is_reserved":false,"is_disabled":false,"rental_uris":{"android":"levelo://app?vid=da6dd907-9155-49d7-bde2-686504deb7c2","ios":"levelo://app?vid=da6dd907-9155-49d7-bde2-686504deb7c2"},"vehicle_type_id":"4","last_reported":1702130736,"current_range_meters":18800,"station_id":"ce4bh412rcd13ifvqds0","pricing_plan_id":"free"},{"bike_id":"6d209839-caa7-4eb7-8e27-430f1fc1c770","system_id":"levelo_inurba_marseille","lat":43.286595,"lon":5.386795,"is_reserved":false,"is_disabled":false,"rental_uris":{"android":"levelo://app?vid=6d209839-caa7-4eb7-8e27-430f1fc1c770","ios":"levelo://app?vid=6d209839-caa7-4eb7-8e27-430f1fc1c770"},"vehicle_type_id":"4","last_reported":1702130736,"current_range_meters":26000,"station_id":"ce4bh492rcd13ifvqdug","pricing_plan_id":"free"},{"bike_id":"efe9d2cc-d0eb-4e85-b313-6bf62b4d4d4c","system_id":"levelo_inurba_marseille","lat":43.33717,"lon":5.391857,"is_reserved":false,"is_disabled":false,"rental_uris":{"android":"levelo://app?vid=efe9d2cc-d0eb-4e85-b313-6bf62b4d4d4c","ios":"levelo://app?vid=efe9d2cc-d0eb-4e85-b313-6bf62b4d4d4c"},"vehicle_type_id":"4","last_reported":1702130736,"current_range_meters":0,"station_id":"ce4bhr92rcd13ifvqhsg","pricing_plan_id":"free"},{"bike_id":"049e8dbc-6db5-47c1-b49d-c579dc802809","system_id":"levelo_inurba_marseille","lat":43.284219,"lon":5.3497,"is_reserved":false,"is_disabled":false,"rental_uris":{"android":"levelo://app?vid=049e8dbc-6db5-47c1-b49d-c579dc802809","ios":"levelo://app?vid=049e8dbc-6db5-47c1-b49d-c579dc802809"},"vehicle_type_id":"4","last_reported":1702130736,"current_range_meters":26800,"station_id":"ce4bhbh2rcd13ifvqepg","pricing_plan_id":"free"},{"bike_id":"4e0ec372-fdf7-4c73-bffd-eba15a5b4ecd","system_id":"levelo_inurba_marseille","lat":43.282745,"lon":5.350743,"is_reserved":false,"is_disabled":false,"rental_uris":{"android":"levelo://app?vid=4e0ec372-fdf7-4c73-bffd-eba15a5b4ecd","ios":"levelo://app?vid=4e0ec372-fdf7-4c73-bffd-eba15a5b4ecd"},"vehicle_type_id":"4","last_reported":1702130736,"current_range_meters":0,"station_id":"ce4bhbp2rcd13ifvqerg","pricing_plan_id":"free"},{"bike_id":"59a2b59b-e046-4298-83be-86fce6de9c45","system_id":"levelo_inurba_marseille","lat":43.282754,"lon":5.350519,"is_reserved":false,"is_disabled":false,"rental_uris":{"android":"levelo://app?vid=59a2b59b-e046-4298-83be-86fce6de9c45","ios":"levelo://app?vid=59a2b59b-e046-4298-83be-86fce6de9c45"},"vehicle_type_id":"4","last_reported":1702130736,"current_range_meters":7200,"station_id":"ce4bhbp2rcd13ifvqerg","pricing_plan_id":"free"},{"bike_id":"152a8999-7cf8-4d62-80bf-cfba43126857","system_id":"levelo_inurba_marseille","lat":43.282675,"lon":5.350672,"is_reserved":false,"is_disabled":false,"rental_uris":{"android":"levelo://app?vid=152a8999-7cf8-4d62-80bf-cfba43126857","ios":"levelo://app?vid=152a8999-7cf8-4d62-80bf-cfba43126857"},"vehicle_type_id":"4","last_reported":1702130736,"current_range_meters":19600,"station_id":"ce4bhbp2rcd13ifvqerg","pricing_plan_id":"free"},{"bike_id":"3f39eefd-bde0-4330-bf2f-c02616271e4b","system_id":"levelo_inurba_marseille","lat":43.282754,"lon":5.350519,"is_reserved":false,"is_disabled":false,"rental_uris":{"android":"levelo://app?vid=3f39eefd-bde0-4330-bf2f-c02616271e4b","ios":"levelo://app?vid=3f39eefd-bde0-4330-bf2f-c02616271e4b"},"vehicle_type_id":"4","last_reported":1702130736,"current_range_meters":22800,"station_id":"ce4bhbp2rcd13ifvqerg","pricing_plan_id":"free"},{"bike_id":"c8c042ea-ec1b-4186-9dc3-1c3be2ce610a","system_id":"levelo_inurba_marseille","lat":43.282744,"lon":5.350533,"is_reserved":false,"is_disabled":false,"rental_uris":{"android":"levelo://app?vid=c8c042ea-ec1b-4186-9dc3-1c3be2ce610a","ios":"levelo://app?vid=c8c042ea-ec1b-4186-9dc3-1c3be2ce610a"},"vehicle_type_id":"4","last_reported":1702130736,"current_range_meters":0,"station_id":"ce4bhbp2rcd13ifvqerg","pricing_plan_id":"free"},{"bike_id":"e52ddfd6-0ddd-4c7b-ab34-3c7fe5c2aaef","system_id":"levelo_inurba_marseille","lat":43.326605,"lon":5.409903,"is_reserved":false,"is_disabled":false,"rental_uris":{"android":"levelo://app?vid=e52ddfd6-0ddd-4c7b-ab34-3c7fe5c2aaef","ios":"levelo://app?vid=e52ddfd6-0ddd-4c7b-ab34-3c7fe5c2aaef"},"vehicle_type_id":"4","last_reported":1702130736,"current_range_meters":31200,"station_id":"ce4bhpp2rcd13ifvqhgg","pricing_plan_id":"free"},{"bike_id":"738cd730-feab-4ea0-a05c-c3b863b85e61","system_id":"levelo_inurba_marseille","lat":43.299579,"lon":5.413255,"is_reserved":false,"is_disabled":false,"rental_uris":{"android":"levelo://app?vid=738cd730-feab-4ea0-a05c-c3b863b85e61","ios":"levelo://app?vid=738cd730-feab-4ea0-a05c-c3b863b85e61"},"vehicle_type_id":"4","last_reported":1702130736,"current_range_meters":28800,"station_id":"ce4bhp12rcd13ifvqh9g","pricing_plan_id":"free"},{"bike_id":"a0a0b529-70cf-4224-a14b-5aa20a88796e","system_id":"levelo_inurba_marseille","lat":43.299577,"lon":5.413277,"is_reserved":false,"is_disabled":false,"rental_uris":{"android":"levelo://app?vid=a0a0b529-70cf-4224-a14b-5aa20a88796e","ios":"levelo://app?vid=a0a0b529-70cf-4224-a14b-5aa20a88796e"},"vehicle_type_id":"4","last_reported":1702130736,"current_range_meters":18400,"station_id":"ce4bhp12rcd13ifvqh9g","pricing_plan_id":"free"},{"bike_id":"e318b9a7-8d7a-4a4c-82a0-e2f1bf2db33c","system_id":"levelo_inurba_marseille","lat":43.279742,"lon":5.38744,"is_reserved":false,"is_disabled":false,"rental_uris":{"android":"levelo://app?vid=e318b9a7-8d7a-4a4c-82a0-e2f1bf2db33c","ios":"levelo://app?vid=e318b9a7-8d7a-4a4c-82a0-e2f1bf2db33c"},"vehicle_type_id":"4","last_reported":1702130736,"current_range_meters":15200,"station_id":"ce4bhg12rcd13ifvqf80","pricing_plan_id":"free"},{"bike_id":"1b1c989d-d06d-4d05-b019-42988a5584f5","system_id":"levelo_inurba_marseille","lat":43.27618,"lon":5.361009,"is_reserved":false,"is_disabled":false,"rental_uris":{"android":"levelo://app?vid=1b1c989d-d06d-4d05-b019-42988a5584f5","ios":"levelo://app?vid=1b1c989d-d06d-4d05-b019-42988a5584f5"},"vehicle_type_id":"4","last_reported":1702130736,"current_range_meters":6400,"station_id":"ce4bgj92rcd13ifvqbe0","pricing_plan_id":"free"},{"bike_id":"5294db22-f1e0-48a4-94fd-f8160edc7bb7","system_id":"levelo_inurba_marseille","lat":43.280784,"lon":5.396622,"is_reserved":false,"is_disabled":false,"rental_uris":{"android":"levelo://app?vid=5294db22-f1e0-48a4-94fd-f8160edc7bb7","ios":"levelo://app?vid=5294db22-f1e0-48a4-94fd-f8160edc7bb7"},"vehicle_type_id":"4","last_reported":1702130736,"current_range_meters":31200,"station_id":"ce4bho12rcd13ifvqh2g","pricing_plan_id":"free"},{"bike_id":"d661cd31-9104-4ad0-adbc-4491542f5ec5","system_id":"levelo_inurba_marseille","lat":43.280784,"lon":5.396622,"is_reserved":false,"is_disabled":false,"rental_uris":{"android":"levelo://app?vid=d661cd31-9104-4ad0-adbc-4491542f5ec5","ios":"levelo://app?vid=d661cd31-9104-4ad0-adbc-4491542f5ec5"},"vehicle_type_id":"4","last_reported":1702130736,"current_range_meters":4000,"station_id":"ce4bho12rcd13ifvqh2g","pricing_plan_id":"free"},{"bike_id":"c36ae27f-e0f3-456e-ba05-65e3af21b179","system_id":"levelo_inurba_marseille","lat":43.33612,"lon":5.410321,"is_reserved":false,"is_disabled":false,"rental_uris":{"android":"levelo://app?vid=c36ae27f-e0f3-456e-ba05-65e3af21b179","ios":"levelo://app?vid=c36ae27f-e0f3-456e-ba05-65e3af21b179"},"vehicle_type_id":"4","last_reported":1702130736,"current_range_meters":2000,"station_id":"ce4bhqh2rcd13ifvqhmg","pricing_plan_id":"free"},{"bike_id":"1c200001-376b-4816-bfbd-3f9470e153e2","system_id":"levelo_inurba_marseille","lat":43.336134,"lon":5.410341,"is_reserved":false,"is_disabled":false,"rental_uris":{"android":"levelo://app?vid=1c200001-376b-4816-bfbd-3f9470e153e2","ios":"levelo://app?vid=1c200001-376b-4816-bfbd-3f9470e153e2"},"vehicle_type_id":"4","last_reported":1702130736,"current_range_meters":8400,"station_id":"ce4bhqh2rcd13ifvqhmg","pricing_plan_id":"free"},{"bike_id":"6762a5e7-5389-402c-853b-df50c4bb9e56","system_id":"levelo_inurba_marseille","lat":43.336134,"lon":5.410341,"is_reserved":false,"is_disabled":false,"rental_uris":{"android":"levelo://app?vid=6762a5e7-5389-402c-853b-df50c4bb9e56","ios":"levelo://app?vid=6762a5e7-5389-402c-853b-df50c4bb9e56"},"vehicle_type_id":"4","last_reported":1702130736,"current_range_meters":8400,"station_id":"ce4bhqh2rcd13ifvqhmg","pricing_plan_id":"free"},{"bike_id":"5e6df0e0-08b1-496e-a8c3-c039305d41ce","system_id":"levelo_inurba_marseille","lat":43.276771,"lon":5.388799,"is_reserved":false,"is_disabled":false,"rental_uris":{"android":"levelo://app?vid=5e6df0e0-08b1-496e-a8c3-c039305d41ce","ios":"levelo://app?vid=5e6df0e0-08b1-496e-a8c3-c039305d41ce"},"vehicle_type_id":"4","last_reported":1702130736,"current_range_meters":26800,"station_id":"ce4bhi12rcd13ifvqfo0","pricing_plan_id":"free"},{"bike_id":"02791883-a925-42a0-9dd3-b7193f6a574b","system_id":"levelo_inurba_marseille","lat":43.31721,"lon":5.42391,"is_reserved":false,"is_disabled":false,"rental_uris":{"android":"levelo://app?vid=02791883-a925-42a0-9dd3-b7193f6a574b","ios":"levelo://app?vid=02791883-a925-42a0-9dd3-b7193f6a574b"},"vehicle_type_id":"4","last_reported":1702130736,"current_range_meters":30800,"station_id":"ce4bhp92rcd13ifvqhbg","pricing_plan_id":"free"},{"bike_id":"b32ce51f-7f78-43aa-bf73-ac58e4bdc27a","system_id":"levelo_inurba_marseille","lat":43.31724,"lon":5.42396,"is_reserved":false,"is_disabled":false,"rental_uris":{"android":"levelo://app?vid=b32ce51f-7f78-43aa-bf73-ac58e4bdc27a","ios":"levelo://app?vid=b32ce51f-7f78-43aa-bf73-ac58e4bdc27a"},"vehicle_type_id":"4","last_reported":1702130736,"current_range_meters":22800,"station_id":"ce4bhp92rcd13ifvqhbg","pricing_plan_id":"free"},{"bike_id":"88e59060-d458-48a8-8abe-8a1913097d92","system_id":"levelo_inurba_marseille","lat":43.31716,"lon":5.42402,"is_reserved":false,"is_disabled":false,"rental_uris":{"android":"levelo://app?vid=88e59060-d458-48a8-8abe-8a1913097d92","ios":"levelo://app?vid=88e59060-d458-48a8-8abe-8a1913097d92"},"vehicle_type_id":"4","last_reported":1702130736,"current_range_meters":25200,"station_id":"ce4bhp92rcd13ifvqhbg","pricing_plan_id":"free"},{"bike_id":"fc4bcc5b-5f4e-42a1-8cca-78d5c651475f","system_id":"levelo_inurba_marseille","lat":43.317121,"lon":5.423936,"is_reserved":false,"is_disabled":false,"rental_uris":{"android":"levelo://app?vid=fc4bcc5b-5f4e-42a1-8cca-78d5c651475f","ios":"levelo://app?vid=fc4bcc5b-5f4e-42a1-8cca-78d5c651475f"},"vehicle_type_id":"4","last_reported":1702130736,"current_range_meters":28800,"station_id":"ce4bhp92rcd13ifvqhbg","pricing_plan_id":"free"},{"bike_id":"80038031-3601-4c51-b66a-c6c9131d41d1","system_id":"levelo_inurba_marseille","lat":43.310785,"lon":5.424305,"is_reserved":false,"is_disabled":false,"rental_uris":{"android":"levelo://app?vid=80038031-3601-4c51-b66a-c6c9131d41d1","ios":"levelo://app?vid=80038031-3601-4c51-b66a-c6c9131d41d1"},"vehicle_type_id":"4","last_reported":1702130736,"current_range_meters":30400,"station_id":"ce4bhp92rcd13ifvqhag","pricing_plan_id":"free"},{"bike_id":"e6ff414d-6f05-44d2-b7c6-4a89a6fc64e2","system_id":"levelo_inurba_marseille","lat":43.31079,"lon":5.42429,"is_reserved":false,"is_disabled":false,"rental_uris":{"android":"levelo://app?vid=e6ff414d-6f05-44d2-b7c6-4a89a6fc64e2","ios":"levelo://app?vid=e6ff414d-6f05-44d2-b7c6-4a89a6fc64e2"},"vehicle_type_id":"4","last_reported":1702130736,"current_range_meters":5200,"station_id":"ce4bhp92rcd13ifvqhag","pricing_plan_id":"free"},{"bike_id":"fce8ef5a-0f61-4cfb-b8bb-9e1b28bf23ad","system_id":"levelo_inurba_marseille","lat":43.317121,"lon":5.423936,"is_reserved":false,"is_disabled":false,"rental_uris":{"android":"levelo://app?vid=fce8ef5a-0f61-4cfb-b8bb-9e1b28bf23ad","ios":"levelo://app?vid=fce8ef5a-0f61-4cfb-b8bb-9e1b28bf23ad"},"vehicle_type_id":"4","last_reported":1702130736,"current_range_meters":29200,"station_id":"ce4bhp92rcd13ifvqhbg","pricing_plan_id":"free"},{"bike_id":"e7bd1e73-4f86-473d-905c-a7b0f3d6ad8a","system_id":"levelo_inurba_marseille","lat":43.31723,"lon":5.42405,"is_reserved":false,"is_disabled":false,"rental_uris":{"android":"levelo://app?vid=e7bd1e73-4f86-473d-905c-a7b0f3d6ad8a","ios":"levelo://app?vid=e7bd1e73-4f86-473d-905c-a7b0f3d6ad8a"},"vehicle_type_id":"4","last_reported":1702130736,"current_range_meters":17200,"station_id":"ce4bhp92rcd13ifvqhbg","pricing_plan_id":"free"},{"bike_id":"48e3df08-57dc-434d-a06c-f6f751cd351f","system_id":"levelo_inurba_marseille","lat":43.310785,"lon":5.424305,"is_reserved":false,"is_disabled":false,"rental_uris":{"android":"levelo://app?vid=48e3df08-57dc-434d-a06c-f6f751cd351f","ios":"levelo://app?vid=48e3df08-57dc-434d-a06c-f6f751cd351f"},"vehicle_type_id":"4","last_reported":1702130736,"current_range_meters":20000,"station_id":"ce4bhp92rcd13ifvqhag","pricing_plan_id":"free"},{"bike_id":"c4367488-b730-48ff-9988-bfed05f63d45","system_id":"levelo_inurba_marseille","lat":43.340804,"lon":5.410219,"is_reserved":false,"is_disabled":false,"rental_uris":{"android":"levelo://app?vid=c4367488-b730-48ff-9988-bfed05f63d45","ios":"levelo://app?vid=c4367488-b730-48ff-9988-bfed05f63d45"},"vehicle_type_id":"4","last_reported":1702130736,"current_range_meters":19200,"station_id":"ce4bhqh2rcd13ifvqhlg","pricing_plan_id":"free"},{"bike_id":"63133364-316e-458e-b234-bbd4926c63fc","system_id":"levelo_inurba_marseille","lat":43.27583,"lon":5.39474,"is_reserved":false,"is_disabled":false,"rental_uris":{"android":"levelo://app?vid=63133364-316e-458e-b234-bbd4926c63fc","ios":"levelo://app?vid=63133364-316e-458e-b234-bbd4926c63fc"},"vehicle_type_id":"4","last_reported":1702130736,"current_range_meters":7600,"station_id":"","pricing_plan_id":"free"},{"bike_id":"44574cd2-c892-43f9-8a3d-fe5302531250","system_id":"levelo_inurba_marseille","lat":43.27426,"lon":5.39411,"is_reserved":false,"is_disabled":false,"rental_uris":{"android":"levelo://app?vid=44574cd2-c892-43f9-8a3d-fe5302531250","ios":"levelo://app?vid=44574cd2-c892-43f9-8a3d-fe5302531250"},"vehicle_type_id":"4","last_reported":1702130736,"current_range_meters":6800,"station_id":"ce4bhdp2rcd13ifvqf20","pricing_plan_id":"free"},{"bike_id":"66def29d-8309-4f22-94c6-04706c3a0027","system_id":"levelo_inurba_marseille","lat":43.274103,"lon":5.394016,"is_reserved":false,"is_disabled":false,"rental_uris":{"android":"levelo://app?vid=66def29d-8309-4f22-94c6-04706c3a0027","ios":"levelo://app?vid=66def29d-8309-4f22-94c6-04706c3a0027"},"vehicle_type_id":"4","last_reported":1702130736,"current_range_meters":29200,"station_id":"ce4bhdp2rcd13ifvqf20","pricing_plan_id":"free"},{"bike_id":"7f5f1fee-f785-4d2b-bd3c-97066afadb85","system_id":"levelo_inurba_marseille","lat":43.274103,"lon":5.394016,"is_reserved":false,"is_disabled":false,"rental_uris":{"android":"levelo://app?vid=7f5f1fee-f785-4d2b-bd3c-97066afadb85","ios":"levelo://app?vid=7f5f1fee-f785-4d2b-bd3c-97066afadb85"},"vehicle_type_id":"4","last_reported":1702130736,"current_range_meters":3200,"station_id":"ce4bhdp2rcd13ifvqf20","pricing_plan_id":"free"},{"bike_id":"aa15fa1f-a544-411b-9275-8f0562bd3fe8","system_id":"levelo_inurba_marseille","lat":43.273125,"lon":5.390731,"is_reserved":false,"is_disabled":false,"rental_uris":{"android":"levelo://app?vid=aa15fa1f-a544-411b-9275-8f0562bd3fe8","ios":"levelo://app?vid=aa15fa1f-a544-411b-9275-8f0562bd3fe8"},"vehicle_type_id":"4","last_reported":1702130736,"current_range_meters":29200,"station_id":"ce4bhgp2rcd13ifvqfe0","pricing_plan_id":"free"},{"bike_id":"85fbd9aa-ffbc-4d35-ae34-4f6af8b034f5","system_id":"levelo_inurba_marseille","lat":43.304096,"lon":5.425385,"is_reserved":false,"is_disabled":false,"rental_uris":{"android":"levelo://app?vid=85fbd9aa-ffbc-4d35-ae34-4f6af8b034f5","ios":"levelo://app?vid=85fbd9aa-ffbc-4d35-ae34-4f6af8b034f5"},"vehicle_type_id":"4","last_reported":1702130736,"current_range_meters":20800,"station_id":"ce4bhoh2rcd13ifvqh6g","pricing_plan_id":"free"},{"bike_id":"350dd4e5-cc9e-4183-8e6a-7241f01c6528","system_id":"levelo_inurba_marseille","lat":43.304096,"lon":5.425385,"is_reserved":false,"is_disabled":false,"rental_uris":{"android":"levelo://app?vid=350dd4e5-cc9e-4183-8e6a-7241f01c6528","ios":"levelo://app?vid=350dd4e5-cc9e-4183-8e6a-7241f01c6528"},"vehicle_type_id":"4","last_reported":1702130736,"current_range_meters":31200,"station_id":"ce4bhoh2rcd13ifvqh6g","pricing_plan_id":"free"},{"bike_id":"fc6794cf-495d-453d-b822-fc2923d07b21","system_id":"levelo_inurba_marseille","lat":43.30413,"lon":5.42544,"is_reserved":false,"is_disabled":false,"rental_uris":{"android":"levelo://app?vid=fc6794cf-495d-453d-b822-fc2923d07b21","ios":"levelo://app?vid=fc6794cf-495d-453d-b822-fc2923d07b21"},"vehicle_type_id":"4","last_reported":1702130736,"current_range_meters":31200,"station_id":"ce4bhoh2rcd13ifvqh6g","pricing_plan_id":"free"},{"bike_id":"4f9e48a0-eacd-4e63-bd3c-330b19e5c041","system_id":"levelo_inurba_marseille","lat":43.295511,"lon":5.422926,"is_reserved":false,"is_disabled":false,"rental_uris":{"android":"levelo://app?vid=4f9e48a0-eacd-4e63-bd3c-330b19e5c041","ios":"levelo://app?vid=4f9e48a0-eacd-4e63-bd3c-330b19e5c041"},"vehicle_type_id":"4","last_reported":1702130736,"current_range_meters":31200,"station_id":"ce4bhph2rcd13ifvqhdg","pricing_plan_id":"free"},{"bike_id":"224c7a07-16ff-42c3-b186-01a891eff3a4","system_id":"levelo_inurba_marseille","lat":43.295523,"lon":5.422926,"is_reserved":false,"is_disabled":false,"rental_uris":{"android":"levelo://app?vid=224c7a07-16ff-42c3-b186-01a891eff3a4","ios":"levelo://app?vid=224c7a07-16ff-42c3-b186-01a891eff3a4"},"vehicle_type_id":"4","last_reported":1702130736,"current_range_meters":28400,"station_id":"ce4bhph2rcd13ifvqhdg","pricing_plan_id":"free"},{"bike_id":"8f021145-48f8-459b-aef0-f8921e18b0a0","system_id":"levelo_inurba_marseille","lat":43.27214,"lon":5.3925,"is_reserved":false,"is_disabled":false,"rental_uris":{"android":"levelo://app?vid=8f021145-48f8-459b-aef0-f8921e18b0a0","ios":"levelo://app?vid=8f021145-48f8-459b-aef0-f8921e18b0a0"},"vehicle_type_id":"4","last_reported":1702130736,"current_range_meters":1600,"station_id":"","pricing_plan_id":"free"},{"bike_id":"b92b5360-b821-4da6-ae2c-a0ccfef7873e","system_id":"levelo_inurba_marseille","lat":43.272146,"lon":5.39258,"is_reserved":false,"is_disabled":false,"rental_uris":{"android":"levelo://app?vid=b92b5360-b821-4da6-ae2c-a0ccfef7873e","ios":"levelo://app?vid=b92b5360-b821-4da6-ae2c-a0ccfef7873e"},"vehicle_type_id":"4","last_reported":1702130736,"current_range_meters":12800,"station_id":"","pricing_plan_id":"free"},{"bike_id":"4ee03235-2549-4e33-9c09-ec6c219d4e74","system_id":"levelo_inurba_marseille","lat":43.27213,"lon":5.392547,"is_reserved":false,"is_disabled":false,"rental_uris":{"android":"levelo://app?vid=4ee03235-2549-4e33-9c09-ec6c219d4e74","ios":"levelo://app?vid=4ee03235-2549-4e33-9c09-ec6c219d4e74"},"vehicle_type_id":"4","last_reported":1702130736,"current_range_meters":14000,"station_id":"","pricing_plan_id":"free"},{"bike_id":"a298972b-0b5a-4397-ad88-26002a39541a","system_id":"levelo_inurba_marseille","lat":43.278128,"lon":5.407195,"is_reserved":false,"is_disabled":false,"rental_uris":{"android":"levelo://app?vid=a298972b-0b5a-4397-ad88-26002a39541a","ios":"levelo://app?vid=a298972b-0b5a-4397-ad88-26002a39541a"},"vehicle_type_id":"4","last_reported":1702130736,"current_range_meters":29600,"station_id":"ce4bhnh2rcd13ifvqgtg","pricing_plan_id":"free"},{"bike_id":"c603360b-73ac-424c-8358-4835e2175d6d","system_id":"levelo_inurba_marseille","lat":43.278128,"lon":5.407195,"is_reserved":false,"is_disabled":false,"rental_uris":{"android":"levelo://app?vid=c603360b-73ac-424c-8358-4835e2175d6d","ios":"levelo://app?vid=c603360b-73ac-424c-8358-4835e2175d6d"},"vehicle_type_id":"4","last_reported":1702130736,"current_range_meters":5200,"station_id":"ce4bhnh2rcd13ifvqgtg","pricing_plan_id":"free"},{"bike_id":"b7ca59c3-8d72-4b39-bced-b6e0246be0da","system_id":"levelo_inurba_marseille","lat":43.27941,"lon":5.41049,"is_reserved":false,"is_disabled":false,"rental_uris":{"android":"levelo://app?vid=b7ca59c3-8d72-4b39-bced-b6e0246be0da","ios":"levelo://app?vid=b7ca59c3-8d72-4b39-bced-b6e0246be0da"},"vehicle_type_id":"4","last_reported":1702130736,"current_range_meters":30400,"station_id":"ce4bhnp2rcd13ifvqh0g","pricing_plan_id":"free"},{"bike_id":"19cc942f-ece9-40d3-8083-cccfba7fe5b1","system_id":"levelo_inurba_marseille","lat":43.279881,"lon":5.416579,"is_reserved":false,"is_disabled":false,"rental_uris":{"android":"levelo://app?vid=19cc942f-ece9-40d3-8083-cccfba7fe5b1","ios":"levelo://app?vid=19cc942f-ece9-40d3-8083-cccfba7fe5b1"},"vehicle_type_id":"4","last_reported":1702130736,"current_range_meters":2800,"station_id":"ce4bho12rcd13ifvqh1g","pricing_plan_id":"free"},{"bike_id":"90705e1b-3792-4102-af48-b0688a04a220","system_id":"levelo_inurba_marseille","lat":43.265714,"lon":5.372891,"is_reserved":false,"is_disabled":false,"rental_uris":{"android":"levelo://app?vid=90705e1b-3792-4102-af48-b0688a04a220","ios":"levelo://app?vid=90705e1b-3792-4102-af48-b0688a04a220"},"vehicle_type_id":"4","last_reported":1702130736,"current_range_meters":15200,"station_id":"ce4bhg12rcd13ifvqf70","pricing_plan_id":"free"},{"bike_id":"953e4af0-c270-490b-8a35-21adbad82a34","system_id":"levelo_inurba_marseille","lat":43.308051,"lon":5.43527,"is_reserved":false,"is_disabled":false,"rental_uris":{"android":"levelo://app?vid=953e4af0-c270-490b-8a35-21adbad82a34","ios":"levelo://app?vid=953e4af0-c270-490b-8a35-21adbad82a34"},"vehicle_type_id":"4","last_reported":1702130736,"current_range_meters":22000,"station_id":"ce4bhph2rcd13ifvqheg","pricing_plan_id":"free"},{"bike_id":"b067f1f1-b352-4473-afff-f9a17f4c0702","system_id":"levelo_inurba_marseille","lat":43.26935,"lon":5.4026,"is_reserved":false,"is_disabled":false,"rental_uris":{"android":"levelo://app?vid=b067f1f1-b352-4473-afff-f9a17f4c0702","ios":"levelo://app?vid=b067f1f1-b352-4473-afff-f9a17f4c0702"},"vehicle_type_id":"4","last_reported":1702130736,"current_range_meters":11200,"station_id":"cjm6bp8fraef2m0cb0m0","pricing_plan_id":"free"},{"bike_id":"10bd98e0-d0a2-4a25-a407-cc97034aa68c","system_id":"levelo_inurba_marseille","lat":43.317143,"lon":5.43704,"is_reserved":false,"is_disabled":false,"rental_uris":{"android":"levelo://app?vid=10bd98e0-d0a2-4a25-a407-cc97034aa68c","ios":"levelo://app?vid=10bd98e0-d0a2-4a25-a407-cc97034aa68c"},"vehicle_type_id":"4","last_reported":1702130736,"current_range_meters":31200,"station_id":"ce4bhp92rcd13ifvqhcg","pricing_plan_id":"free"},{"bike_id":"644d4821-bbb4-4599-853c-a62186b9155b","system_id":"levelo_inurba_marseille","lat":43.317104,"lon":5.436818,"is_reserved":false,"is_disabled":false,"rental_uris":{"android":"levelo://app?vid=644d4821-bbb4-4599-853c-a62186b9155b","ios":"levelo://app?vid=644d4821-bbb4-4599-853c-a62186b9155b"},"vehicle_type_id":"4","last_reported":1702130736,"current_range_meters":30400,"station_id":"ce4bhp92rcd13ifvqhcg","pricing_plan_id":"free"},{"bike_id":"6202724c-290a-4452-b16b-ff76a62085a3","system_id":"levelo_inurba_marseille","lat":43.31713,"lon":5.4371,"is_reserved":false,"is_disabled":false,"rental_uris":{"android":"levelo://app?vid=6202724c-290a-4452-b16b-ff76a62085a3","ios":"levelo://app?vid=6202724c-290a-4452-b16b-ff76a62085a3"},"vehicle_type_id":"4","last_reported":1702130736,"current_range_meters":31200,"station_id":"ce4bhp92rcd13ifvqhcg","pricing_plan_id":"free"},{"bike_id":"3b048028-e2a3-4167-aedc-53ba0dfca02b","system_id":"levelo_inurba_marseille","lat":43.26202,"lon":5.379299,"is_reserved":false,"is_disabled":false,"rental_uris":{"android":"levelo://app?vid=3b048028-e2a3-4167-aedc-53ba0dfca02b","ios":"levelo://app?vid=3b048028-e2a3-4167-aedc-53ba0dfca02b"},"vehicle_type_id":"4","last_reported":1702130736,"current_range_meters":25200,"station_id":"ce4bhjp2rcd13ifvqg90","pricing_plan_id":"free"},{"bike_id":"1dba45c2-aa0f-407a-8db3-25e03fbb53c2","system_id":"levelo_inurba_marseille","lat":43.267959,"lon":5.402685,"is_reserved":false,"is_disabled":false,"rental_uris":{"android":"levelo://app?vid=1dba45c2-aa0f-407a-8db3-25e03fbb53c2","ios":"levelo://app?vid=1dba45c2-aa0f-407a-8db3-25e03fbb53c2"},"vehicle_type_id":"4","last_reported":1702130736,"current_range_meters":18000,"station_id":"ce501612rcd8frsf0b60","pricing_plan_id":"free"},{"bike_id":"5215ad78-0811-4492-88ee-04afc35bf3a5","system_id":"levelo_inurba_marseille","lat":43.298768,"lon":5.43643,"is_reserved":false,"is_disabled":false,"rental_uris":{"android":"levelo://app?vid=5215ad78-0811-4492-88ee-04afc35bf3a5","ios":"levelo://app?vid=5215ad78-0811-4492-88ee-04afc35bf3a5"},"vehicle_type_id":"4","last_reported":1702130736,"current_range_meters":31200,"station_id":"ce4bhpp2rcd13ifvqhfg","pricing_plan_id":"free"},{"bike_id":"c4a32d8b-8a0b-4189-aa9f-2983a413dfe8","system_id":"levelo_inurba_marseille","lat":43.298768,"lon":5.43643,"is_reserved":false,"is_disabled":false,"rental_uris":{"android":"levelo://app?vid=c4a32d8b-8a0b-4189-aa9f-2983a413dfe8","ios":"levelo://app?vid=c4a32d8b-8a0b-4189-aa9f-2983a413dfe8"},"vehicle_type_id":"4","last_reported":1702130736,"current_range_meters":31200,"station_id":"ce4bhpp2rcd13ifvqhfg","pricing_plan_id":"free"},{"bike_id":"6b17b896-99f2-456b-929e-df3811eeb274","system_id":"levelo_inurba_marseille","lat":43.298768,"lon":5.43643,"is_reserved":false,"is_disabled":false,"rental_uris":{"android":"levelo://app?vid=6b17b896-99f2-456b-929e-df3811eeb274","ios":"levelo://app?vid=6b17b896-99f2-456b-929e-df3811eeb274"},"vehicle_type_id":"4","last_reported":1702130736,"current_range_meters":28400,"station_id":"ce4bhpp2rcd13ifvqhfg","pricing_plan_id":"free"},{"bike_id":"4f68f183-a711-4386-a731-e8ea8e2f115e","system_id":"levelo_inurba_marseille","lat":43.298768,"lon":5.43643,"is_reserved":false,"is_disabled":false,"rental_uris":{"android":"levelo://app?vid=4f68f183-a711-4386-a731-e8ea8e2f115e","ios":"levelo://app?vid=4f68f183-a711-4386-a731-e8ea8e2f115e"},"vehicle_type_id":"4","last_reported":1702130736,"current_range_meters":25600,"station_id":"ce4bhpp2rcd13ifvqhfg","pricing_plan_id":"free"},{"bike_id":"70c52fa1-91be-4fbd-9217-7a0c668f9310","system_id":"levelo_inurba_marseille","lat":43.298768,"lon":5.43643,"is_reserved":false,"is_disabled":false,"rental_uris":{"android":"levelo://app?vid=70c52fa1-91be-4fbd-9217-7a0c668f9310","ios":"levelo://app?vid=70c52fa1-91be-4fbd-9217-7a0c668f9310"},"vehicle_type_id":"4","last_reported":1702130736,"current_range_meters":25200,"station_id":"ce4bhpp2rcd13ifvqhfg","pricing_plan_id":"free"},{"bike_id":"c16ba598-e268-423a-ba8d-6002d2a98117","system_id":"levelo_inurba_marseille","lat":43.298768,"lon":5.43643,"is_reserved":false,"is_disabled":false,"rental_uris":{"android":"levelo://app?vid=c16ba598-e268-423a-ba8d-6002d2a98117","ios":"levelo://app?vid=c16ba598-e268-423a-ba8d-6002d2a98117"},"vehicle_type_id":"4","last_reported":1702130736,"current_range_meters":31200,"station_id":"ce4bhpp2rcd13ifvqhfg","pricing_plan_id":"free"},{"bike_id":"ca4db8a8-5b98-4b78-bc3d-514f38028a3d","system_id":"levelo_inurba_marseille","lat":43.298768,"lon":5.43643,"is_reserved":false,"is_disabled":false,"rental_uris":{"android":"levelo://app?vid=ca4db8a8-5b98-4b78-bc3d-514f38028a3d","ios":"levelo://app?vid=ca4db8a8-5b98-4b78-bc3d-514f38028a3d"},"vehicle_type_id":"4","last_reported":1702130736,"current_range_meters":31200,"station_id":"ce4bhpp2rcd13ifvqhfg","pricing_plan_id":"free"},{"bike_id":"83e2018e-7127-4415-8bbf-2e347a9c6750","system_id":"levelo_inurba_marseille","lat":43.29897,"lon":5.436713,"is_reserved":false,"is_disabled":false,"rental_uris":{"android":"levelo://app?vid=83e2018e-7127-4415-8bbf-2e347a9c6750","ios":"levelo://app?vid=83e2018e-7127-4415-8bbf-2e347a9c6750"},"vehicle_type_id":"4","last_reported":1702130736,"current_range_meters":29600,"station_id":"ce4bhpp2rcd13ifvqhfg","pricing_plan_id":"free"},{"bike_id":"a9d155e7-2be4-4c1d-b4bf-7335025a2db7","system_id":"levelo_inurba_marseille","lat":43.260225,"lon":5.375455,"is_reserved":false,"is_disabled":false,"rental_uris":{"android":"levelo://app?vid=a9d155e7-2be4-4c1d-b4bf-7335025a2db7","ios":"levelo://app?vid=a9d155e7-2be4-4c1d-b4bf-7335025a2db7"},"vehicle_type_id":"4","last_reported":1702130736,"current_range_meters":24800,"station_id":"ce4bhgh2rcd13ifvqfa0","pricing_plan_id":"free"},{"bike_id":"2d70b9fc-8d42-4ce5-98c1-cdfca249cc2c","system_id":"levelo_inurba_marseille","lat":43.2815,"lon":5.4264,"is_reserved":false,"is_disabled":false,"rental_uris":{"android":"levelo://app?vid=2d70b9fc-8d42-4ce5-98c1-cdfca249cc2c","ios":"levelo://app?vid=2d70b9fc-8d42-4ce5-98c1-cdfca249cc2c"},"vehicle_type_id":"4","last_reported":1702130736,"current_range_meters":27600,"station_id":"ce4bhnh2rcd13ifvqgug","pricing_plan_id":"free"},{"bike_id":"f56607a5-8c0d-4214-a86e-b954d1fd309d","system_id":"levelo_inurba_marseille","lat":43.28153,"lon":5.42646,"is_reserved":false,"is_disabled":false,"rental_uris":{"android":"levelo://app?vid=f56607a5-8c0d-4214-a86e-b954d1fd309d","ios":"levelo://app?vid=f56607a5-8c0d-4214-a86e-b954d1fd309d"},"vehicle_type_id":"4","last_reported":1702130736,"current_range_meters":0,"station_id":"ce4bhnh2rcd13ifvqgug","pricing_plan_id":"free"},{"bike_id":"1320f19c-b9ac-43d6-bd76-793b2fad30c7","system_id":"levelo_inurba_marseille","lat":43.281548,"lon":5.42643,"is_reserved":false,"is_disabled":false,"rental_uris":{"android":"levelo://app?vid=1320f19c-b9ac-43d6-bd76-793b2fad30c7","ios":"levelo://app?vid=1320f19c-b9ac-43d6-bd76-793b2fad30c7"},"vehicle_type_id":"4","last_reported":1702130736,"current_range_meters":29600,"station_id":"ce4bhnh2rcd13ifvqgug","pricing_plan_id":"free"},{"bike_id":"f48996eb-6260-4d94-89bc-c2cb738c65bc","system_id":"levelo_inurba_marseille","lat":43.281548,"lon":5.42643,"is_reserved":false,"is_disabled":false,"rental_uris":{"android":"levelo://app?vid=f48996eb-6260-4d94-89bc-c2cb738c65bc","ios":"levelo://app?vid=f48996eb-6260-4d94-89bc-c2cb738c65bc"},"vehicle_type_id":"4","last_reported":1702130736,"current_range_meters":28400,"station_id":"ce4bhnh2rcd13ifvqgug","pricing_plan_id":"free"},{"bike_id":"f47234aa-aa00-4ef2-b2e6-b0d70a3c4c73","system_id":"levelo_inurba_marseille","lat":43.26087,"lon":5.39772,"is_reserved":false,"is_disabled":false,"rental_uris":{"android":"levelo://app?vid=f47234aa-aa00-4ef2-b2e6-b0d70a3c4c73","ios":"levelo://app?vid=f47234aa-aa00-4ef2-b2e6-b0d70a3c4c73"},"vehicle_type_id":"4","last_reported":1702130736,"current_range_meters":19600,"station_id":"","pricing_plan_id":"free"},{"bike_id":"e9a23148-ea63-448e-8189-1ee0e20e4523","system_id":"levelo_inurba_marseille","lat":43.27487,"lon":5.42462,"is_reserved":false,"is_disabled":false,"rental_uris":{"android":"levelo://app?vid=e9a23148-ea63-448e-8189-1ee0e20e4523","ios":"levelo://app?vid=e9a23148-ea63-448e-8189-1ee0e20e4523"},"vehicle_type_id":"4","last_reported":1702130736,"current_range_meters":4800,"station_id":"ce4bhn92rcd13ifvqgrg","pricing_plan_id":"free"},{"bike_id":"f2902776-3602-4ae3-b502-9262b5e1774a","system_id":"levelo_inurba_marseille","lat":43.25492,"lon":5.37649,"is_reserved":false,"is_disabled":false,"rental_uris":{"android":"levelo://app?vid=f2902776-3602-4ae3-b502-9262b5e1774a","ios":"levelo://app?vid=f2902776-3602-4ae3-b502-9262b5e1774a"},"vehicle_type_id":"4","last_reported":1702130736,"current_range_meters":13200,"station_id":"ce4bhh12rcd13ifvqff0","pricing_plan_id":"free"},{"bike_id":"66ebf28a-fa88-4fba-b2e7-d7d5372138e0","system_id":"levelo_inurba_marseille","lat":43.25487,"lon":5.37647,"is_reserved":false,"is_disabled":false,"rental_uris":{"android":"levelo://app?vid=66ebf28a-fa88-4fba-b2e7-d7d5372138e0","ios":"levelo://app?vid=66ebf28a-fa88-4fba-b2e7-d7d5372138e0"},"vehicle_type_id":"4","last_reported":1702130736,"current_range_meters":12800,"station_id":"ce4bhh12rcd13ifvqff0","pricing_plan_id":"free"},{"bike_id":"737cf7f8-a94a-4fa9-bd02-401819929320","system_id":"levelo_inurba_marseille","lat":43.270721,"lon":5.422764,"is_reserved":false,"is_disabled":false,"rental_uris":{"android":"levelo://app?vid=737cf7f8-a94a-4fa9-bd02-401819929320","ios":"levelo://app?vid=737cf7f8-a94a-4fa9-bd02-401819929320"},"vehicle_type_id":"4","last_reported":1702130736,"current_range_meters":800,"station_id":"ce4bhk92rcd13ifvqgb0","pricing_plan_id":"free"},{"bike_id":"2365b20a-ac0b-4f9e-b151-ef4bdf9a013e","system_id":"levelo_inurba_marseille","lat":43.258658,"lon":5.398935,"is_reserved":false,"is_disabled":false,"rental_uris":{"android":"levelo://app?vid=2365b20a-ac0b-4f9e-b151-ef4bdf9a013e","ios":"levelo://app?vid=2365b20a-ac0b-4f9e-b151-ef4bdf9a013e"},"vehicle_type_id":"4","last_reported":1702130736,"current_range_meters":23600,"station_id":"ce4bhl92rcd13ifvqghg","pricing_plan_id":"free"},{"bike_id":"458f4b82-cb21-478b-aa18-56c69ef73bed","system_id":"levelo_inurba_marseille","lat":43.259331,"lon":5.409126,"is_reserved":false,"is_disabled":false,"rental_uris":{"android":"levelo://app?vid=458f4b82-cb21-478b-aa18-56c69ef73bed","ios":"levelo://app?vid=458f4b82-cb21-478b-aa18-56c69ef73bed"},"vehicle_type_id":"4","last_reported":1702130736,"current_range_meters":16400,"station_id":"","pricing_plan_id":"free"},{"bike_id":"ebc21464-78d2-415a-8a07-06eceee6099f","system_id":"levelo_inurba_marseille","lat":43.259013,"lon":5.409301,"is_reserved":false,"is_disabled":false,"rental_uris":{"android":"levelo://app?vid=ebc21464-78d2-415a-8a07-06eceee6099f","ios":"levelo://app?vid=ebc21464-78d2-415a-8a07-06eceee6099f"},"vehicle_type_id":"4","last_reported":1702130736,"current_range_meters":20800,"station_id":"ce4bhm92rcd13ifvqglg","pricing_plan_id":"free"},{"bike_id":"a23a2e22-c49e-40c9-9bfe-ca7b63b51e32","system_id":"levelo_inurba_marseille","lat":43.24805,"lon":5.37458,"is_reserved":false,"is_disabled":false,"rental_uris":{"android":"levelo://app?vid=a23a2e22-c49e-40c9-9bfe-ca7b63b51e32","ios":"levelo://app?vid=a23a2e22-c49e-40c9-9bfe-ca7b63b51e32"},"vehicle_type_id":"4","last_reported":1702130736,"current_range_meters":9200,"station_id":"ce4bhgh2rcd13ifvqfb0","pricing_plan_id":"free"},{"bike_id":"30dbc88f-d31f-47cc-92ee-8456241555ea","system_id":"levelo_inurba_marseille","lat":43.250966,"lon":5.395186,"is_reserved":false,"is_disabled":false,"rental_uris":{"android":"levelo://app?vid=30dbc88f-d31f-47cc-92ee-8456241555ea","ios":"levelo://app?vid=30dbc88f-d31f-47cc-92ee-8456241555ea"},"vehicle_type_id":"4","last_reported":1702130736,"current_range_meters":24400,"station_id":"ce4bhm12rcd13ifvqgkg","pricing_plan_id":"free"},{"bike_id":"800bb316-5c52-4f6c-b032-d7ca60606e8f","system_id":"levelo_inurba_marseille","lat":43.269467,"lon":5.386439,"is_reserved":false,"is_disabled":false,"rental_uris":{"android":"levelo://app?vid=800bb316-5c52-4f6c-b032-d7ca60606e8f","ios":"levelo://app?vid=800bb316-5c52-4f6c-b032-d7ca60606e8f"},"vehicle_type_id":"4","last_reported":1702130736,"current_range_meters":21200,"station_id":"ce4bhh92rcd13ifvqfh0","pricing_plan_id":"free"},{"bike_id":"af2e8d93-4d36-41d6-b193-03489080a08c","system_id":"levelo_inurba_marseille","lat":43.246461,"lon":5.389014,"is_reserved":false,"is_disabled":false,"rental_uris":{"android":"levelo://app?vid=af2e8d93-4d36-41d6-b193-03489080a08c","ios":"levelo://app?vid=af2e8d93-4d36-41d6-b193-03489080a08c"},"vehicle_type_id":"4","last_reported":1702130736,"current_range_meters":26800,"station_id":"ce4bhg12rcd13ifvqf60","pricing_plan_id":"free"},{"bike_id":"377fb8e9-197b-424e-87cd-eb95f753a5cf","system_id":"levelo_inurba_marseille","lat":43.240623,"lon":5.377642,"is_reserved":false,"is_disabled":false,"rental_uris":{"android":"levelo://app?vid=377fb8e9-197b-424e-87cd-eb95f753a5cf","ios":"levelo://app?vid=377fb8e9-197b-424e-87cd-eb95f753a5cf"},"vehicle_type_id":"4","last_reported":1702130736,"current_range_meters":29200,"station_id":"ce4bhnp2rcd13ifvqgvg","pricing_plan_id":"free"},{"bike_id":"dbed6a9a-8ce1-426a-a7ef-60ef9634fed1","system_id":"levelo_inurba_marseille","lat":43.240623,"lon":5.377642,"is_reserved":false,"is_disabled":false,"rental_uris":{"android":"levelo://app?vid=dbed6a9a-8ce1-426a-a7ef-60ef9634fed1","ios":"levelo://app?vid=dbed6a9a-8ce1-426a-a7ef-60ef9634fed1"},"vehicle_type_id":"4","last_reported":1702130736,"current_range_meters":3600,"station_id":"ce4bhnp2rcd13ifvqgvg","pricing_plan_id":"free"},{"bike_id":"f3af0f29-c6b3-45f1-8540-3a752563e91b","system_id":"levelo_inurba_marseille","lat":43.239588,"lon":5.366238,"is_reserved":false,"is_disabled":false,"rental_uris":{"android":"levelo://app?vid=f3af0f29-c6b3-45f1-8540-3a752563e91b","ios":"levelo://app?vid=f3af0f29-c6b3-45f1-8540-3a752563e91b"},"vehicle_type_id":"4","last_reported":1702130736,"current_range_meters":10400,"station_id":"ce4bhi12rcd13ifvqfp0","pricing_plan_id":"free"},{"bike_id":"ee7d9f3a-4947-4ac7-867e-bdca862e5b32","system_id":"levelo_inurba_marseille","lat":43.239588,"lon":5.366238,"is_reserved":false,"is_disabled":false,"rental_uris":{"android":"levelo://app?vid=ee7d9f3a-4947-4ac7-867e-bdca862e5b32","ios":"levelo://app?vid=ee7d9f3a-4947-4ac7-867e-bdca862e5b32"},"vehicle_type_id":"4","last_reported":1702130736,"current_range_meters":8400,"station_id":"ce4bhi12rcd13ifvqfp0","pricing_plan_id":"free"},{"bike_id":"5556d4b5-d5a4-4e4e-ac5d-8d166c4bc703","system_id":"levelo_inurba_marseille","lat":43.239588,"lon":5.366238,"is_reserved":false,"is_disabled":false,"rental_uris":{"android":"levelo://app?vid=5556d4b5-d5a4-4e4e-ac5d-8d166c4bc703","ios":"levelo://app?vid=5556d4b5-d5a4-4e4e-ac5d-8d166c4bc703"},"vehicle_type_id":"4","last_reported":1702130736,"current_range_meters":30400,"station_id":"ce4bhi12rcd13ifvqfp0","pricing_plan_id":"free"},{"bike_id":"589ec893-735f-452b-a5bb-60186a5dfc56","system_id":"levelo_inurba_marseille","lat":43.239588,"lon":5.366238,"is_reserved":false,"is_disabled":false,"rental_uris":{"android":"levelo://app?vid=589ec893-735f-452b-a5bb-60186a5dfc56","ios":"levelo://app?vid=589ec893-735f-452b-a5bb-60186a5dfc56"},"vehicle_type_id":"4","last_reported":1702130736,"current_range_meters":28400,"station_id":"ce4bhi12rcd13ifvqfp0","pricing_plan_id":"free"},{"bike_id":"672c6cd8-9645-4cc4-aa67-0c93b12465a8","system_id":"levelo_inurba_marseille","lat":43.239588,"lon":5.366238,"is_reserved":false,"is_disabled":false,"rental_uris":{"android":"levelo://app?vid=672c6cd8-9645-4cc4-aa67-0c93b12465a8","ios":"levelo://app?vid=672c6cd8-9645-4cc4-aa67-0c93b12465a8"},"vehicle_type_id":"4","last_reported":1702130736,"current_range_meters":31200,"station_id":"ce4bhi12rcd13ifvqfp0","pricing_plan_id":"free"},{"bike_id":"050d8aac-9b85-4551-8447-adc8f9ec1235","system_id":"levelo_inurba_marseille","lat":43.24179,"lon":5.39723,"is_reserved":false,"is_disabled":false,"rental_uris":{"android":"levelo://app?vid=050d8aac-9b85-4551-8447-adc8f9ec1235","ios":"levelo://app?vid=050d8aac-9b85-4551-8447-adc8f9ec1235"},"vehicle_type_id":"4","last_reported":1702130736,"current_range_meters":28000,"station_id":"ce4bhn12rcd13ifvqgpg","pricing_plan_id":"free"},{"bike_id":"dddf4306-ea1e-4678-b3e1-956c24d197a4","system_id":"levelo_inurba_marseille","lat":43.241782,"lon":5.397261,"is_reserved":false,"is_disabled":false,"rental_uris":{"android":"levelo://app?vid=dddf4306-ea1e-4678-b3e1-956c24d197a4","ios":"levelo://app?vid=dddf4306-ea1e-4678-b3e1-956c24d197a4"},"vehicle_type_id":"4","last_reported":1702130736,"current_range_meters":22800,"station_id":"ce4bhn12rcd13ifvqgpg","pricing_plan_id":"free"},{"bike_id":"75aadd81-f2b3-486b-8b13-ef85fe43ff80","system_id":"levelo_inurba_marseille","lat":43.241782,"lon":5.397261,"is_reserved":false,"is_disabled":false,"rental_uris":{"android":"levelo://app?vid=75aadd81-f2b3-486b-8b13-ef85fe43ff80","ios":"levelo://app?vid=75aadd81-f2b3-486b-8b13-ef85fe43ff80"},"vehicle_type_id":"4","last_reported":1702130736,"current_range_meters":13200,"station_id":"ce4bhn12rcd13ifvqgpg","pricing_plan_id":"free"},{"bike_id":"7e5340d3-2d3d-427b-b1f3-3fa92009086b","system_id":"levelo_inurba_marseille","lat":43.231919,"lon":5.355532,"is_reserved":false,"is_disabled":false,"rental_uris":{"android":"levelo://app?vid=7e5340d3-2d3d-427b-b1f3-3fa92009086b","ios":"levelo://app?vid=7e5340d3-2d3d-427b-b1f3-3fa92009086b"},"vehicle_type_id":"4","last_reported":1702130736,"current_range_meters":19600,"station_id":"ce4bhu92rcd13ifvqi70","pricing_plan_id":"free"},{"bike_id":"529449ae-9bd0-4a42-b2ad-b913b1c62c25","system_id":"levelo_inurba_marseille","lat":43.23195,"lon":5.3555,"is_reserved":false,"is_disabled":false,"rental_uris":{"android":"levelo://app?vid=529449ae-9bd0-4a42-b2ad-b913b1c62c25","ios":"levelo://app?vid=529449ae-9bd0-4a42-b2ad-b913b1c62c25"},"vehicle_type_id":"4","last_reported":1702130736,"current_range_meters":14400,"station_id":"ce4bhu92rcd13ifvqi70","pricing_plan_id":"free"},{"bike_id":"89cd9aa6-a9fc-4969-971b-541849c33b33","system_id":"levelo_inurba_marseille","lat":43.231919,"lon":5.355532,"is_reserved":false,"is_disabled":false,"rental_uris":{"android":"levelo://app?vid=89cd9aa6-a9fc-4969-971b-541849c33b33","ios":"levelo://app?vid=89cd9aa6-a9fc-4969-971b-541849c33b33"},"vehicle_type_id":"4","last_reported":1702130736,"current_range_meters":15600,"station_id":"ce4bhu92rcd13ifvqi70","pricing_plan_id":"free"},{"bike_id":"bc30196d-481a-46dc-a914-cfd942fdc26d","system_id":"levelo_inurba_marseille","lat":43.231919,"lon":5.355532,"is_reserved":false,"is_disabled":false,"rental_uris":{"android":"levelo://app?vid=bc30196d-481a-46dc-a914-cfd942fdc26d","ios":"levelo://app?vid=bc30196d-481a-46dc-a914-cfd942fdc26d"},"vehicle_type_id":"4","last_reported":1702130736,"current_range_meters":12400,"station_id":"ce4bhu92rcd13ifvqi70","pricing_plan_id":"free"},{"bike_id":"d688d1de-99db-4179-8f44-98396df69166","system_id":"levelo_inurba_marseille","lat":43.231919,"lon":5.355532,"is_reserved":false,"is_disabled":false,"rental_uris":{"android":"levelo://app?vid=d688d1de-99db-4179-8f44-98396df69166","ios":"levelo://app?vid=d688d1de-99db-4179-8f44-98396df69166"},"vehicle_type_id":"4","last_reported":1702130736,"current_range_meters":19600,"station_id":"ce4bhu92rcd13ifvqi70","pricing_plan_id":"free"},{"bike_id":"213e257d-882b-47d8-908b-4cb65412d074","system_id":"levelo_inurba_marseille","lat":43.231919,"lon":5.355532,"is_reserved":false,"is_disabled":false,"rental_uris":{"android":"levelo://app?vid=213e257d-882b-47d8-908b-4cb65412d074","ios":"levelo://app?vid=213e257d-882b-47d8-908b-4cb65412d074"},"vehicle_type_id":"4","last_reported":1702130736,"current_range_meters":12000,"station_id":"ce4bhu92rcd13ifvqi70","pricing_plan_id":"free"},{"bike_id":"31cbfc4f-2255-4703-9974-915d9fe18526","system_id":"levelo_inurba_marseille","lat":43.231919,"lon":5.355532,"is_reserved":false,"is_disabled":false,"rental_uris":{"android":"levelo://app?vid=31cbfc4f-2255-4703-9974-915d9fe18526","ios":"levelo://app?vid=31cbfc4f-2255-4703-9974-915d9fe18526"},"vehicle_type_id":"4","last_reported":1702130736,"current_range_meters":8000,"station_id":"ce4bhu92rcd13ifvqi70","pricing_plan_id":"free"},{"bike_id":"e2a9694a-4e0c-4ac1-9545-06aa318d77c1","system_id":"levelo_inurba_marseille","lat":43.23189,"lon":5.3999,"is_reserved":false,"is_disabled":false,"rental_uris":{"android":"levelo://app?vid=e2a9694a-4e0c-4ac1-9545-06aa318d77c1","ios":"levelo://app?vid=e2a9694a-4e0c-4ac1-9545-06aa318d77c1"},"vehicle_type_id":"4","last_reported":1702130736,"current_range_meters":18800,"station_id":"ce4bhn12rcd13ifvqgqg","pricing_plan_id":"free"}]}}