{"last_updated":1743178349,"ttl":60,"version":"2.2","data":{"bikes":[{"bike_id":"bf6d3711-68f5-4721-8ea8-2d0601182f38","system_id":"levelo_inurba_marseille","lat":43.33746,"lon":5.3745,"is_reserved":false,"is_disabled":true,"rental_uris":{"android":"levelo://app?vid=bf6d3711-68f5-4721-8ea8-2d0601182f38","ios":"levelo://app?vid=bf6d3711-68f5-4721-8ea8-2d0601182f38"},"vehicle_type_id":"4","last_reported":1743178349,"current_range_meters":0,"station_id":"","pricing_plan_id":"cebpf4jnsgd1na2vs0mg"},{"bike_id":"fc8e8371-f4e9-4721-bc19-563801e389dc","system_id":"levelo_inurba_marseille","lat":43.337444,"lon":5.374475,"is_reserved":false,"is_disabled":false,"rental_uris":{"android":"levelo://app?vid=fc8e8371-f4e9-4721-bc19-563801e389dc","ios":"levelo://app?vid=fc8e8371-f4e9-4721-bc19-563801e389dc"},"vehicle_type_id":"4","last_reported":1743178349,"current_range_meters":6000,"station_id":"","pricing_plan_id":"cebpf4jnsgd1na2vs0mg"},{"bike_id":"02627b0d-25de-47dd-a820-83241ce6e9ea","system_id":"levelo_inurba_marseille","lat":43.29663,"lon":5.37446,"is_reserved":false,"is_disabled":true,"rental_uris":{"android":"levelo://app?vid=02627b0d-25de-47dd-a820-83241ce6e9ea","ios":"levelo://app?vid=02627b0d-25de-47dd-a820-83241ce6e9ea"},"vehicle_type_id":"4","last_reported":1743178349,"current_range_meters":0,"station_id":"","pricing_plan_id":"cebpf4jnsgd1na2vs0mg"},{"bike_id":"306bbe1b-255e-465f-9c82-619129be6b5a","system_id":"levelo_inurba_marseille","lat":43.26544,"lon":5.39591,"is_reserved":false,"is_disabled":true,"rental_uris":{"android":"levelo://app?vid=306bbe1b-255e-465f-9c82-619129be6b5a","ios":"levelo://app?vid=306bbe1b-255e-465f-9c82-619129be6b5a"},"vehicle_type_id":"4","last_reported":1743178349,"current_range_meters":0,"station_id":"","pricing_plan_id":"cebpf4jnsgd1na2vs0mg"},{"bike_id":"be6725c0-5c09-4663-99b8-0b7371d27e21","system_id":"levelo_inurba_marseille","lat":43.25468,"lon":5.37515,"is_reserved":false,"is_disabled":true,"rental_uris":{"android":"levelo://app?vid=be6725c0-5c09-4663-99b8-0b7371d27e21","ios":"levelo://app?vid=be6725c0-5c09-4663-99b8-0b7371d27e21"},"vehicle_type_id":"4","last_reported":1743178349,"current_range_meters":0,"station_id":"","pricing_plan_id":"cebpf4jnsgd1na2vs0mg"},{"bike_id":"72e5db2b-9562-475e-acb8-d0f54f5a254a","system_id":"levelo_inurba_marseille","lat":43.2606,"lon":5.41552,"is_reserved":false,"is_disabled":true,"rental_uris":{"android":"levelo://app?vid=72e5db2b-9562-475e-acb8-d0f54f5a254a","ios":"levelo://app?vid=72e5db2b-9562-475e-acb8-d0f54f5a254a"},"vehicle_type_id":"4","last_reported":1743178349,"current_range_meters":0,"station_id":"","pricing_plan_id":"cebpf4jnsgd1na2vs0mg"},{"bike_id":"7b8f7a8a-dfcc-4fdc-8856-4aec0b02d06b","system_id":"levelo_inurba_marseille","lat":43.31246,"lon":5.36878,"is_reserved":false,"is_disabled":false,"rental_uris":{"android":"levelo://app?vid=7b8f7a8a-dfcc-4fdc-8856-4aec0b02d06b","ios":"levelo://app?vid=7b8f7a8a-dfcc-4fdc-8856-4aec0b02d06b"},"vehicle_type_id":"4","last_reported":1743178349,"current_range_meters":0,"station_id":"ce4bgl92rcd13ifvqbq0","pricing_plan_id":"cebpf4jnsgd1na2vs0mg"},{"bike_id":"49f9e0ee-bc03-4742-a7ce-75314eb2d42b","system_id":"levelo_inurba_marseille","lat":43.31221,"lon":5.36851,"is_reserved":false,"is_disabled":true,"rental_uris":{"android":"levelo://app?vid=49f9e0ee-bc03-4742-a7ce-75314eb2d42b","ios":"levelo://app?vid=49f9e0ee-bc03-4742-a7ce-75314eb2d42b"},"vehicle_type_id":"4","last_reported":1743178349,"current_range_meters":0,"station_id":"ce4bgl92rcd13ifvqbq0","pricing_plan_id":"cebpf4jnsgd1na2vs0mg"},{"bike_id":"00a550bb-e7eb-41c6-a693-7307af985e62","system_id":"levelo_inurba_marseille","lat":43.3095,"lon":5.39032,"is_reserved":false,"is_disabled":true,"rental_uris":{"android":"levelo://app?vid=00a550bb-e7eb-41c6-a693-7307af985e62","ios":"levelo://app?vid=00a550bb-e7eb-41c6-a693-7307af985e62"},"vehicle_type_id":"4","last_reported":1743178349,"current_range_meters":0,"station_id":"ce4bgup2rcd13ifvqco0","pricing_plan_id":"cebpf4jnsgd1na2vs0mg"},{"bike_id":"a761eb37-ea47-4002-bd4a-778f70d0be1f","system_id":"levelo_inurba_marseille","lat":43.302586,"lon":5.400841,"is_reserved":false,"is_disabled":true,"rental_uris":{"android":"levelo://app?vid=a761eb37-ea47-4002-bd4a-778f70d0be1f","ios":"levelo://app?vid=a761eb37-ea47-4002-bd4a-778f70d0be1f"},"vehicle_type_id":"4","last_reported":1743178349,"current_range_meters":0,"station_id":"ce4bgvh2rcd13ifvqcs0","pricing_plan_id":"cebpf4jnsgd1na2vs0mg"},{"bike_id":"95ffe720-2637-4523-95cc-0356f0250094","system_id":"levelo_inurba_marseille","lat":43.30123,"lon":5.39854,"is_reserved":false,"is_disabled":true,"rental_uris":{"android":"levelo://app?vid=95ffe720-2637-4523-95cc-0356f0250094","ios":"levelo://app?vid=95ffe720-2637-4523-95cc-0356f0250094"},"vehicle_type_id":"4","last_reported":1743178349,"current_range_meters":0,"station_id":"ce4bh0h2rcd13ifvqd40","pricing_plan_id":"cebpf4jnsgd1na2vs0mg"},{"bike_id":"455af29b-3680-40ba-beb8-3a89b217259f","system_id":"levelo_inurba_marseille","lat":43.273801,"lon":5.362654,"is_reserved":false,"is_disabled":true,"rental_uris":{"android":"levelo://app?vid=455af29b-3680-40ba-beb8-3a89b217259f","ios":"levelo://app?vid=455af29b-3680-40ba-beb8-3a89b217259f"},"vehicle_type_id":"4","last_reported":1743178349,"current_range_meters":0,"station_id":"ce4bhbh2rcd13ifvqeo0","pricing_plan_id":"cebpf4jnsgd1na2vs0mg"},{"bike_id":"3b5d6815-6281-4671-8497-43a7f3f41a98","system_id":"levelo_inurba_marseille","lat":43.28425,"lon":5.34986,"is_reserved":false,"is_disabled":true,"rental_uris":{"android":"levelo://app?vid=3b5d6815-6281-4671-8497-43a7f3f41a98","ios":"levelo://app?vid=3b5d6815-6281-4671-8497-43a7f3f41a98"},"vehicle_type_id":"4","last_reported":1743178349,"current_range_meters":0,"station_id":"ce4bhbh2rcd13ifvqepg","pricing_plan_id":"cebpf4jnsgd1na2vs0mg"},{"bike_id":"5d881c02-668e-4c17-9684-bf032bdbb9c8","system_id":"levelo_inurba_marseille","lat":43.28274,"lon":5.35068,"is_reserved":false,"is_disabled":true,"rental_uris":{"android":"levelo://app?vid=5d881c02-668e-4c17-9684-bf032bdbb9c8","ios":"levelo://app?vid=5d881c02-668e-4c17-9684-bf032bdbb9c8"},"vehicle_type_id":"4","last_reported":1743178349,"current_range_meters":0,"station_id":"ce4bhbp2rcd13ifvqerg","pricing_plan_id":"cebpf4jnsgd1na2vs0mg"},{"bike_id":"02cd1655-e45f-4565-8ad8-771d629a54f7","system_id":"levelo_inurba_marseille","lat":43.28623,"lon":5.35101,"is_reserved":false,"is_disabled":true,"rental_uris":{"android":"levelo://app?vid=02cd1655-e45f-4565-8ad8-771d629a54f7","ios":"levelo://app?vid=02cd1655-e45f-4565-8ad8-771d629a54f7"},"vehicle_type_id":"4","last_reported":1743178349,"current_range_meters":0,"station_id":"ce4bhch2rcd13ifvqeug","pricing_plan_id":"cebpf4jnsgd1na2vs0mg"},{"bike_id":"b156fb9a-0f80-49da-bb66-86a5f131ebf1","system_id":"levelo_inurba_marseille","lat":43.26213,"lon":5.37457,"is_reserved":false,"is_disabled":true,"rental_uris":{"android":"levelo://app?vid=b156fb9a-0f80-49da-bb66-86a5f131ebf1","ios":"levelo://app?vid=b156fb9a-0f80-49da-bb66-86a5f131ebf1"},"vehicle_type_id":"4","last_reported":1743178349,"current_range_meters":0,"station_id":"ce4bhgp2rcd13ifvqfc0","pricing_plan_id":"cebpf4jnsgd1na2vs0mg"},{"bike_id":"0547e4f9-35e4-4311-b0a7-428e64a0cfaf","system_id":"levelo_inurba_marseille","lat":43.25711,"lon":5.41094,"is_reserved":false,"is_disabled":true,"rental_uris":{"android":"levelo://app?vid=0547e4f9-35e4-4311-b0a7-428e64a0cfaf","ios":"levelo://app?vid=0547e4f9-35e4-4311-b0a7-428e64a0cfaf"},"vehicle_type_id":"4","last_reported":1743178349,"current_range_meters":0,"station_id":"ce4bhkp2rcd13ifvqgd0","pricing_plan_id":"cebpf4jnsgd1na2vs0mg"},{"bike_id":"3a68352e-12ce-4c18-8321-8532a8575651","system_id":"levelo_inurba_marseille","lat":43.27958,"lon":5.41048,"is_reserved":false,"is_disabled":true,"rental_uris":{"android":"levelo://app?vid=3a68352e-12ce-4c18-8321-8532a8575651","ios":"levelo://app?vid=3a68352e-12ce-4c18-8321-8532a8575651"},"vehicle_type_id":"4","last_reported":1743178349,"current_range_meters":0,"station_id":"ce4bhnp2rcd13ifvqh0g","pricing_plan_id":"cebpf4jnsgd1na2vs0mg"},{"bike_id":"0f2d7a4c-79b5-41a1-8b04-37e695964ff1","system_id":"levelo_inurba_marseille","lat":43.27994,"lon":5.40008,"is_reserved":false,"is_disabled":true,"rental_uris":{"android":"levelo://app?vid=0f2d7a4c-79b5-41a1-8b04-37e695964ff1","ios":"levelo://app?vid=0f2d7a4c-79b5-41a1-8b04-37e695964ff1"},"vehicle_type_id":"4","last_reported":1743178349,"current_range_meters":0,"station_id":"ce4bho92rcd13ifvqh4g","pricing_plan_id":"cebpf4jnsgd1na2vs0mg"},{"bike_id":"7bae33bf-50e6-4355-a2dd-c44577d208bf","system_id":"levelo_inurba_marseille","lat":43.23196,"lon":5.35554,"is_reserved":false,"is_disabled":true,"rental_uris":{"android":"levelo://app?vid=7bae33bf-50e6-4355-a2dd-c44577d208bf","ios":"levelo://app?vid=7bae33bf-50e6-4355-a2dd-c44577d208bf"},"vehicle_type_id":"4","last_reported":1743178349,"current_range_meters":0,"station_id":"ce4bhu92rcd13ifvqi70","pricing_plan_id":"cebpf4jnsgd1na2vs0mg"},{"bike_id":"79aa3e6c-5249-42b4-80d3-360db87b3ee8","system_id":"levelo_inurba_marseille","lat":43.22927,"lon":5.3537,"is_reserved":false,"is_disabled":true,"rental_uris":{"android":"levelo://app?vid=79aa3e6c-5249-42b4-80d3-360db87b3ee8","ios":"levelo://app?vid=79aa3e6c-5249-42b4-80d3-360db87b3ee8"},"vehicle_type_id":"4","last_reported":1743178349,"current_range_meters":0,"station_id":"cpo3532slgdg3j2ikp40","pricing_plan_id":"cebpf4jnsgd1na2vs0mg"},{"bike_id":"db996cb7-9523-4d74-b4e5-a2c5528ad296","system_id":"levelo_inurba_marseille","lat":43.29566,"lon":5.37512,"is_reserved":false,"is_disabled":true,"rental_uris":{"android":"levelo://app?vid=db996cb7-9523-4d74-b4e5-a2c5528ad296","ios":"levelo://app?vid=db996cb7-9523-4d74-b4e5-a2c5528ad296"},"vehicle_type_id":"4","last_reported":1743178349,"current_range_meters":400,"station_id":"ce4bgh92rcd13ifvqb50","pricing_plan_id":"cebpf4jnsgd1na2vs0mg"},{"bike_id":"bb42a9f0-5010-4ada-8f3b-4eb9d40b0cd7","system_id":"levelo_inurba_marseille","lat":43.28417,"lon":5.34988,"is_reserved":false,"is_disabled":true,"rental_uris":{"android":"levelo://app?vid=bb42a9f0-5010-4ada-8f3b-4eb9d40b0cd7","ios":"levelo://app?vid=bb42a9f0-5010-4ada-8f3b-4eb9d40b0cd7"},"vehicle_type_id":"4","last_reported":1743178349,"current_range_meters":400,"station_id":"ce4bhbh2rcd13ifvqepg","pricing_plan_id":"cebpf4jnsgd1na2vs0mg"},{"bike_id":"dbea8245-00bd-49d7-96e6-3da3f24f4546","system_id":"levelo_inurba_marseille","lat":43.26928,"lon":5.38913,"is_reserved":false,"is_disabled":true,"rental_uris":{"android":"levelo://app?vid=dbea8245-00bd-49d7-96e6-3da3f24f4546","ios":"levelo://app?vid=dbea8245-00bd-49d7-96e6-3da3f24f4546"},"vehicle_type_id":"4","last_reported":1743178349,"current_range_meters":400,"station_id":"ce4bhhh2rcd13ifvqfl0","pricing_plan_id":"cebpf4jnsgd1na2vs0mg"},{"bike_id":"aeaf7a2f-481b-4f15-8aa9-1a2e62d93cdf","system_id":"levelo_inurba_marseille","lat":43.272,"lon":5.39194,"is_reserved":false,"is_disabled":true,"rental_uris":{"android":"levelo://app?vid=aeaf7a2f-481b-4f15-8aa9-1a2e62d93cdf","ios":"levelo://app?vid=aeaf7a2f-481b-4f15-8aa9-1a2e62d93cdf"},"vehicle_type_id":"4","last_reported":1743178349,"current_range_meters":400,"station_id":"ce4bhhp2rcd13ifvqfm0","pricing_plan_id":"cebpf4jnsgd1na2vs0mg"},{"bike_id":"efb462a8-0c6c-4b02-8e1c-515bf9a5d7f5","system_id":"levelo_inurba_marseille","lat":43.34109,"lon":5.35069,"is_reserved":false,"is_disabled":true,"rental_uris":{"android":"levelo://app?vid=efb462a8-0c6c-4b02-8e1c-515bf9a5d7f5","ios":"levelo://app?vid=efb462a8-0c6c-4b02-8e1c-515bf9a5d7f5"},"vehicle_type_id":"4","last_reported":1743178349,"current_range_meters":800,"station_id":"","pricing_plan_id":"cebpf4jnsgd1na2vs0mg"},{"bike_id":"434e10b4-5eda-40bf-8264-7c8f39b778a8","system_id":"levelo_inurba_marseille","lat":43.31224,"lon":5.36874,"is_reserved":false,"is_disabled":true,"rental_uris":{"android":"levelo://app?vid=434e10b4-5eda-40bf-8264-7c8f39b778a8","ios":"levelo://app?vid=434e10b4-5eda-40bf-8264-7c8f39b778a8"},"vehicle_type_id":"4","last_reported":1743178349,"current_range_meters":800,"station_id":"ce4bgl92rcd13ifvqbq0","pricing_plan_id":"cebpf4jnsgd1na2vs0mg"},{"bike_id":"6739307d-b525-41ef-9283-3d210803d21f","system_id":"levelo_inurba_marseille","lat":43.29888,"lon":5.38908,"is_reserved":false,"is_disabled":true,"rental_uris":{"android":"levelo://app?vid=6739307d-b525-41ef-9283-3d210803d21f","ios":"levelo://app?vid=6739307d-b525-41ef-9283-3d210803d21f"},"vehicle_type_id":"4","last_reported":1743178349,"current_range_meters":800,"station_id":"ce4bh392rcd13ifvqdl0","pricing_plan_id":"cebpf4jnsgd1na2vs0mg"},{"bike_id":"1a5f9db6-d475-4baf-98d5-e001a4649ec4","system_id":"levelo_inurba_marseille","lat":43.32613,"lon":5.43032,"is_reserved":false,"is_disabled":true,"rental_uris":{"android":"levelo://app?vid=1a5f9db6-d475-4baf-98d5-e001a4649ec4","ios":"levelo://app?vid=1a5f9db6-d475-4baf-98d5-e001a4649ec4"},"vehicle_type_id":"4","last_reported":1743178349,"current_range_meters":1200,"station_id":"","pricing_plan_id":"cebpf4jnsgd1na2vs0mg"},{"bike_id":"7fb10ff2-9878-450f-a027-a8390f729b27","system_id":"levelo_inurba_marseille","lat":43.30133,"lon":5.3878,"is_reserved":false,"is_disabled":true,"rental_uris":{"android":"levelo://app?vid=7fb10ff2-9878-450f-a027-a8390f729b27","ios":"levelo://app?vid=7fb10ff2-9878-450f-a027-a8390f729b27"},"vehicle_type_id":"4","last_reported":1743178349,"current_range_meters":1200,"station_id":"ce4bghh2rcd13ifvqb60","pricing_plan_id":"cebpf4jnsgd1na2vs0mg"},{"bike_id":"0fd77566-0bd7-470e-bbc4-72f6f93dca4f","system_id":"levelo_inurba_marseille","lat":43.290894,"lon":5.381271,"is_reserved":false,"is_disabled":false,"rental_uris":{"android":"levelo://app?vid=0fd77566-0bd7-470e-bbc4-72f6f93dca4f","ios":"levelo://app?vid=0fd77566-0bd7-470e-bbc4-72f6f93dca4f"},"vehicle_type_id":"4","last_reported":1743178349,"current_range_meters":1200,"station_id":"ce4bh512rcd13ifvqe2g","pricing_plan_id":"cebpf4jnsgd1na2vs0mg"},{"bike_id":"ba1a9656-3073-49b4-a78f-6c66a6d63d91","system_id":"levelo_inurba_marseille","lat":43.28942,"lon":5.36632,"is_reserved":false,"is_disabled":true,"rental_uris":{"android":"levelo://app?vid=ba1a9656-3073-49b4-a78f-6c66a6d63d91","ios":"levelo://app?vid=ba1a9656-3073-49b4-a78f-6c66a6d63d91"},"vehicle_type_id":"4","last_reported":1743178349,"current_range_meters":1200,"station_id":"ce4bhap2rcd13ifvqek0","pricing_plan_id":"cebpf4jnsgd1na2vs0mg"},{"bike_id":"8eb51136-87d7-42cb-81ab-4c5e00388418","system_id":"levelo_inurba_marseille","lat":43.273772,"lon":5.362579,"is_reserved":false,"is_disabled":true,"rental_uris":{"android":"levelo://app?vid=8eb51136-87d7-42cb-81ab-4c5e00388418","ios":"levelo://app?vid=8eb51136-87d7-42cb-81ab-4c5e00388418"},"vehicle_type_id":"4","last_reported":1743178349,"current_range_meters":1200,"station_id":"ce4bhbh2rcd13ifvqeo0","pricing_plan_id":"cebpf4jnsgd1na2vs0mg"},{"bike_id":"e95034df-1277-4a0c-98e7-4bd028dfe11d","system_id":"levelo_inurba_marseille","lat":43.25724,"lon":5.41111,"is_reserved":false,"is_disabled":true,"rental_uris":{"android":"levelo://app?vid=e95034df-1277-4a0c-98e7-4bd028dfe11d","ios":"levelo://app?vid=e95034df-1277-4a0c-98e7-4bd028dfe11d"},"vehicle_type_id":"4","last_reported":1743178349,"current_range_meters":1200,"station_id":"ce4bhkp2rcd13ifvqgd0","pricing_plan_id":"cebpf4jnsgd1na2vs0mg"},{"bike_id":"869b923d-18b5-4298-83cd-e598dc32e901","system_id":"levelo_inurba_marseille","lat":43.24069,"lon":5.37767,"is_reserved":false,"is_disabled":true,"rental_uris":{"android":"levelo://app?vid=869b923d-18b5-4298-83cd-e598dc32e901","ios":"levelo://app?vid=869b923d-18b5-4298-83cd-e598dc32e901"},"vehicle_type_id":"4","last_reported":1743178349,"current_range_meters":1200,"station_id":"ce4bhnp2rcd13ifvqgvg","pricing_plan_id":"cebpf4jnsgd1na2vs0mg"},{"bike_id":"089321fe-8bd3-41fd-bc30-40e19b639295","system_id":"levelo_inurba_marseille","lat":43.28706,"lon":5.40031,"is_reserved":false,"is_disabled":true,"rental_uris":{"android":"levelo://app?vid=089321fe-8bd3-41fd-bc30-40e19b639295","ios":"levelo://app?vid=089321fe-8bd3-41fd-bc30-40e19b639295"},"vehicle_type_id":"4","last_reported":1743178349,"current_range_meters":1200,"station_id":"ce4bho92rcd13ifvqh3g","pricing_plan_id":"cebpf4jnsgd1na2vs0mg"},{"bike_id":"d8149f63-2e3f-4325-862f-bbb8d9e4825c","system_id":"levelo_inurba_marseille","lat":43.3083,"lon":5.43532,"is_reserved":false,"is_disabled":true,"rental_uris":{"android":"levelo://app?vid=d8149f63-2e3f-4325-862f-bbb8d9e4825c","ios":"levelo://app?vid=d8149f63-2e3f-4325-862f-bbb8d9e4825c"},"vehicle_type_id":"4","last_reported":1743178349,"current_range_meters":1200,"station_id":"ce4bhph2rcd13ifvqheg","pricing_plan_id":"cebpf4jnsgd1na2vs0mg"},{"bike_id":"330cbe84-c53d-4bfd-8f14-6be40b853939","system_id":"levelo_inurba_marseille","lat":43.32312,"lon":5.36714,"is_reserved":false,"is_disabled":true,"rental_uris":{"android":"levelo://app?vid=330cbe84-c53d-4bfd-8f14-6be40b853939","ios":"levelo://app?vid=330cbe84-c53d-4bfd-8f14-6be40b853939"},"vehicle_type_id":"4","last_reported":1743178349,"current_range_meters":1200,"station_id":"ce4bhsh2rcd13ifvqi2g","pricing_plan_id":"cebpf4jnsgd1na2vs0mg"},{"bike_id":"51abfda0-43c8-4f32-b082-b4dfa8744aa7","system_id":"levelo_inurba_marseille","lat":43.29303,"lon":5.37457,"is_reserved":false,"is_disabled":true,"rental_uris":{"android":"levelo://app?vid=51abfda0-43c8-4f32-b082-b4dfa8744aa7","ios":"levelo://app?vid=51abfda0-43c8-4f32-b082-b4dfa8744aa7"},"vehicle_type_id":"4","last_reported":1743178349,"current_range_meters":1600,"station_id":"ce4bgi12rcd13ifvqb70","pricing_plan_id":"cebpf4jnsgd1na2vs0mg"},{"bike_id":"be65fa38-d69e-424b-a779-d4583b2c501b","system_id":"levelo_inurba_marseille","lat":43.30975,"lon":5.39041,"is_reserved":false,"is_disabled":true,"rental_uris":{"android":"levelo://app?vid=be65fa38-d69e-424b-a779-d4583b2c501b","ios":"levelo://app?vid=be65fa38-d69e-424b-a779-d4583b2c501b"},"vehicle_type_id":"4","last_reported":1743178349,"current_range_meters":2000,"station_id":"ce4bgup2rcd13ifvqco0","pricing_plan_id":"cebpf4jnsgd1na2vs0mg"},{"bike_id":"afbc53af-7ac8-4e5b-8c2c-b9cf2dbda079","system_id":"levelo_inurba_marseille","lat":43.26058,"lon":5.39395,"is_reserved":false,"is_disabled":true,"rental_uris":{"android":"levelo://app?vid=afbc53af-7ac8-4e5b-8c2c-b9cf2dbda079","ios":"levelo://app?vid=afbc53af-7ac8-4e5b-8c2c-b9cf2dbda079"},"vehicle_type_id":"4","last_reported":1743178349,"current_range_meters":2000,"station_id":"ce4bhh92rcd13ifvqfj0","pricing_plan_id":"cebpf4jnsgd1na2vs0mg"},{"bike_id":"74b7868a-10b4-44dc-9aa7-007e1ac662b9","system_id":"levelo_inurba_marseille","lat":43.22933,"lon":5.35373,"is_reserved":false,"is_disabled":true,"rental_uris":{"android":"levelo://app?vid=74b7868a-10b4-44dc-9aa7-007e1ac662b9","ios":"levelo://app?vid=74b7868a-10b4-44dc-9aa7-007e1ac662b9"},"vehicle_type_id":"4","last_reported":1743178349,"current_range_meters":2000,"station_id":"cpo3532slgdg3j2ikp40","pricing_plan_id":"cebpf4jnsgd1na2vs0mg"},{"bike_id":"a70f146c-8700-4f73-8fa8-5de10d3c69af","system_id":"levelo_inurba_marseille","lat":43.301868,"lon":5.366312,"is_reserved":false,"is_disabled":false,"rental_uris":{"android":"levelo://app?vid=a70f146c-8700-4f73-8fa8-5de10d3c69af","ios":"levelo://app?vid=a70f146c-8700-4f73-8fa8-5de10d3c69af"},"vehicle_type_id":"4","last_reported":1743178349,"current_range_meters":2800,"station_id":"ce4bgrh2rcd13ifvqc8g","pricing_plan_id":"cebpf4jnsgd1na2vs0mg"},{"bike_id":"25ad5167-6988-4295-a3cd-7d524ff8f2b8","system_id":"levelo_inurba_marseille","lat":43.315702,"lon":5.403474,"is_reserved":false,"is_disabled":false,"rental_uris":{"android":"levelo://app?vid=25ad5167-6988-4295-a3cd-7d524ff8f2b8","ios":"levelo://app?vid=25ad5167-6988-4295-a3cd-7d524ff8f2b8"},"vehicle_type_id":"4","last_reported":1743178349,"current_range_meters":2800,"station_id":"ce4bh012rcd13ifvqd00","pricing_plan_id":"cebpf4jnsgd1na2vs0mg"},{"bike_id":"a5604905-9715-463a-adc2-eaed9f5c1fa1","system_id":"levelo_inurba_marseille","lat":43.27377,"lon":5.3625,"is_reserved":false,"is_disabled":false,"rental_uris":{"android":"levelo://app?vid=a5604905-9715-463a-adc2-eaed9f5c1fa1","ios":"levelo://app?vid=a5604905-9715-463a-adc2-eaed9f5c1fa1"},"vehicle_type_id":"4","last_reported":1743178349,"current_range_meters":2800,"station_id":"ce4bhbh2rcd13ifvqeo0","pricing_plan_id":"cebpf4jnsgd1na2vs0mg"},{"bike_id":"f22fb849-7012-44c7-b9db-b6cde8adb741","system_id":"levelo_inurba_marseille","lat":43.27322,"lon":5.39085,"is_reserved":false,"is_disabled":false,"rental_uris":{"android":"levelo://app?vid=f22fb849-7012-44c7-b9db-b6cde8adb741","ios":"levelo://app?vid=f22fb849-7012-44c7-b9db-b6cde8adb741"},"vehicle_type_id":"4","last_reported":1743178349,"current_range_meters":2800,"station_id":"ce4bhgp2rcd13ifvqfe0","pricing_plan_id":"cebpf4jnsgd1na2vs0mg"},{"bike_id":"515faa86-fa39-46ff-930a-2fe51eead6f6","system_id":"levelo_inurba_marseille","lat":43.26608,"lon":5.39361,"is_reserved":false,"is_disabled":false,"rental_uris":{"android":"levelo://app?vid=515faa86-fa39-46ff-930a-2fe51eead6f6","ios":"levelo://app?vid=515faa86-fa39-46ff-930a-2fe51eead6f6"},"vehicle_type_id":"4","last_reported":1743178349,"current_range_meters":3200,"station_id":"","pricing_plan_id":"cebpf4jnsgd1na2vs0mg"},{"bike_id":"1ecc3672-3657-4444-8bd9-c537ee8989fe","system_id":"levelo_inurba_marseille","lat":43.2827,"lon":5.35061,"is_reserved":false,"is_disabled":false,"rental_uris":{"android":"levelo://app?vid=1ecc3672-3657-4444-8bd9-c537ee8989fe","ios":"levelo://app?vid=1ecc3672-3657-4444-8bd9-c537ee8989fe"},"vehicle_type_id":"4","last_reported":1743178349,"current_range_meters":3200,"station_id":"ce4bhbp2rcd13ifvqerg","pricing_plan_id":"cebpf4jnsgd1na2vs0mg"},{"bike_id":"beaa5a2d-3413-4111-b160-abfd2c2a7302","system_id":"levelo_inurba_marseille","lat":43.27208,"lon":5.39189,"is_reserved":false,"is_disabled":false,"rental_uris":{"android":"levelo://app?vid=beaa5a2d-3413-4111-b160-abfd2c2a7302","ios":"levelo://app?vid=beaa5a2d-3413-4111-b160-abfd2c2a7302"},"vehicle_type_id":"4","last_reported":1743178349,"current_range_meters":3200,"station_id":"ce4bhhp2rcd13ifvqfm0","pricing_plan_id":"cebpf4jnsgd1na2vs0mg"},{"bike_id":"22ef4edf-f026-48b3-85b0-eb8d2857982d","system_id":"levelo_inurba_marseille","lat":43.30418,"lon":5.41279,"is_reserved":false,"is_disabled":false,"rental_uris":{"android":"levelo://app?vid=22ef4edf-f026-48b3-85b0-eb8d2857982d","ios":"levelo://app?vid=22ef4edf-f026-48b3-85b0-eb8d2857982d"},"vehicle_type_id":"4","last_reported":1743178349,"current_range_meters":3200,"station_id":"ce4bhop2rcd13ifvqh8g","pricing_plan_id":"cebpf4jnsgd1na2vs0mg"},{"bike_id":"df680603-7e7a-4306-baa9-dbb5d5ec46e8","system_id":"levelo_inurba_marseille","lat":43.28618,"lon":5.35108,"is_reserved":false,"is_disabled":false,"rental_uris":{"android":"levelo://app?vid=df680603-7e7a-4306-baa9-dbb5d5ec46e8","ios":"levelo://app?vid=df680603-7e7a-4306-baa9-dbb5d5ec46e8"},"vehicle_type_id":"4","last_reported":1743178349,"current_range_meters":3600,"station_id":"ce4bhch2rcd13ifvqeug","pricing_plan_id":"cebpf4jnsgd1na2vs0mg"},{"bike_id":"0813785d-d8e9-48e2-88c9-4f594d956394","system_id":"levelo_inurba_marseille","lat":43.28615,"lon":5.35107,"is_reserved":false,"is_disabled":false,"rental_uris":{"android":"levelo://app?vid=0813785d-d8e9-48e2-88c9-4f594d956394","ios":"levelo://app?vid=0813785d-d8e9-48e2-88c9-4f594d956394"},"vehicle_type_id":"4","last_reported":1743178349,"current_range_meters":3600,"station_id":"ce4bhch2rcd13ifvqeug","pricing_plan_id":"cebpf4jnsgd1na2vs0mg"},{"bike_id":"cb83ce10-46a6-40f2-a435-a18fe0c9555d","system_id":"levelo_inurba_marseille","lat":43.27051,"lon":5.4026,"is_reserved":false,"is_disabled":false,"rental_uris":{"android":"levelo://app?vid=cb83ce10-46a6-40f2-a435-a18fe0c9555d","ios":"levelo://app?vid=cb83ce10-46a6-40f2-a435-a18fe0c9555d"},"vehicle_type_id":"4","last_reported":1743178349,"current_range_meters":3600,"station_id":"ce4bhk92rcd13ifvqgc0","pricing_plan_id":"cebpf4jnsgd1na2vs0mg"},{"bike_id":"9dd55b40-ba64-46d6-806a-0fcbe7ea3ef4","system_id":"levelo_inurba_marseille","lat":43.321712,"lon":5.413495,"is_reserved":false,"is_disabled":false,"rental_uris":{"android":"levelo://app?vid=9dd55b40-ba64-46d6-806a-0fcbe7ea3ef4","ios":"levelo://app?vid=9dd55b40-ba64-46d6-806a-0fcbe7ea3ef4"},"vehicle_type_id":"4","last_reported":1743178349,"current_range_meters":3600,"station_id":"ce4bhq92rcd13ifvqhkg","pricing_plan_id":"cebpf4jnsgd1na2vs0mg"},{"bike_id":"9833d08b-ac70-4d38-92bb-8aa346ef1ef1","system_id":"levelo_inurba_marseille","lat":43.29572,"lon":5.39988,"is_reserved":false,"is_disabled":false,"rental_uris":{"android":"levelo://app?vid=9833d08b-ac70-4d38-92bb-8aa346ef1ef1","ios":"levelo://app?vid=9833d08b-ac70-4d38-92bb-8aa346ef1ef1"},"vehicle_type_id":"4","last_reported":1743178349,"current_range_meters":4000,"station_id":"ce4bh312rcd13ifvqdj0","pricing_plan_id":"cebpf4jnsgd1na2vs0mg"},{"bike_id":"e42fbf39-bf1c-4a08-8636-43e39a783ba0","system_id":"levelo_inurba_marseille","lat":43.28479,"lon":5.38402,"is_reserved":false,"is_disabled":false,"rental_uris":{"android":"levelo://app?vid=e42fbf39-bf1c-4a08-8636-43e39a783ba0","ios":"levelo://app?vid=e42fbf39-bf1c-4a08-8636-43e39a783ba0"},"vehicle_type_id":"4","last_reported":1743178349,"current_range_meters":4000,"station_id":"ce4bh512rcd13ifvqe3g","pricing_plan_id":"cebpf4jnsgd1na2vs0mg"},{"bike_id":"bf766717-9d6d-4115-a0af-8b8fa6ce4b6c","system_id":"levelo_inurba_marseille","lat":43.26204,"lon":5.37927,"is_reserved":false,"is_disabled":false,"rental_uris":{"android":"levelo://app?vid=bf766717-9d6d-4115-a0af-8b8fa6ce4b6c","ios":"levelo://app?vid=bf766717-9d6d-4115-a0af-8b8fa6ce4b6c"},"vehicle_type_id":"4","last_reported":1743178349,"current_range_meters":4000,"station_id":"ce4bhjp2rcd13ifvqg90","pricing_plan_id":"cebpf4jnsgd1na2vs0mg"},{"bike_id":"698cb1df-b2a6-43b7-9284-9ac56abfbc0a","system_id":"levelo_inurba_marseille","lat":43.24075,"lon":5.37768,"is_reserved":false,"is_disabled":false,"rental_uris":{"android":"levelo://app?vid=698cb1df-b2a6-43b7-9284-9ac56abfbc0a","ios":"levelo://app?vid=698cb1df-b2a6-43b7-9284-9ac56abfbc0a"},"vehicle_type_id":"4","last_reported":1743178349,"current_range_meters":4000,"station_id":"ce4bhnp2rcd13ifvqgvg","pricing_plan_id":"cebpf4jnsgd1na2vs0mg"},{"bike_id":"e4ec069b-a124-499c-807d-600bbab6278a","system_id":"levelo_inurba_marseille","lat":43.30148,"lon":5.38084,"is_reserved":false,"is_disabled":false,"rental_uris":{"android":"levelo://app?vid=e4ec069b-a124-499c-807d-600bbab6278a","ios":"levelo://app?vid=e4ec069b-a124-499c-807d-600bbab6278a"},"vehicle_type_id":"4","last_reported":1743178349,"current_range_meters":4400,"station_id":"ce4bgjp2rcd13ifvqbh0","pricing_plan_id":"cebpf4jnsgd1na2vs0mg"},{"bike_id":"76638f08-2001-4ca0-b553-69fb5485e93d","system_id":"levelo_inurba_marseille","lat":43.30368,"lon":5.38628,"is_reserved":false,"is_disabled":false,"rental_uris":{"android":"levelo://app?vid=76638f08-2001-4ca0-b553-69fb5485e93d","ios":"levelo://app?vid=76638f08-2001-4ca0-b553-69fb5485e93d"},"vehicle_type_id":"4","last_reported":1743178349,"current_range_meters":4400,"station_id":"ce4bgk12rcd13ifvqbi0","pricing_plan_id":"cebpf4jnsgd1na2vs0mg"},{"bike_id":"67c48282-9408-476b-a087-2ffe39b001e3","system_id":"levelo_inurba_marseille","lat":43.3061,"lon":5.37224,"is_reserved":false,"is_disabled":false,"rental_uris":{"android":"levelo://app?vid=67c48282-9408-476b-a087-2ffe39b001e3","ios":"levelo://app?vid=67c48282-9408-476b-a087-2ffe39b001e3"},"vehicle_type_id":"4","last_reported":1743178349,"current_range_meters":4400,"station_id":"ce4bgqh2rcd13ifvqc4g","pricing_plan_id":"cebpf4jnsgd1na2vs0mg"},{"bike_id":"9a88e3e8-a6f4-46fb-8a3c-67bee559d840","system_id":"levelo_inurba_marseille","lat":43.30664,"lon":5.40091,"is_reserved":false,"is_disabled":false,"rental_uris":{"android":"levelo://app?vid=9a88e3e8-a6f4-46fb-8a3c-67bee559d840","ios":"levelo://app?vid=9a88e3e8-a6f4-46fb-8a3c-67bee559d840"},"vehicle_type_id":"4","last_reported":1743178349,"current_range_meters":4400,"station_id":"ce4bh112rcd13ifvqda0","pricing_plan_id":"cebpf4jnsgd1na2vs0mg"},{"bike_id":"0acd526e-d7bf-446f-8abc-688b22a02cf0","system_id":"levelo_inurba_marseille","lat":43.273785,"lon":5.362659,"is_reserved":false,"is_disabled":false,"rental_uris":{"android":"levelo://app?vid=0acd526e-d7bf-446f-8abc-688b22a02cf0","ios":"levelo://app?vid=0acd526e-d7bf-446f-8abc-688b22a02cf0"},"vehicle_type_id":"4","last_reported":1743178349,"current_range_meters":4400,"station_id":"ce4bhbh2rcd13ifvqeo0","pricing_plan_id":"cebpf4jnsgd1na2vs0mg"},{"bike_id":"0d883722-877d-4a81-a3a5-8f2eac8c1665","system_id":"levelo_inurba_marseille","lat":43.2605,"lon":5.39404,"is_reserved":false,"is_disabled":false,"rental_uris":{"android":"levelo://app?vid=0d883722-877d-4a81-a3a5-8f2eac8c1665","ios":"levelo://app?vid=0d883722-877d-4a81-a3a5-8f2eac8c1665"},"vehicle_type_id":"4","last_reported":1743178349,"current_range_meters":4400,"station_id":"ce4bhh92rcd13ifvqfj0","pricing_plan_id":"cebpf4jnsgd1na2vs0mg"},{"bike_id":"c18155db-65c7-4d5a-8c5b-923eb75c675d","system_id":"levelo_inurba_marseille","lat":43.32112,"lon":5.36758,"is_reserved":false,"is_disabled":false,"rental_uris":{"android":"levelo://app?vid=c18155db-65c7-4d5a-8c5b-923eb75c675d","ios":"levelo://app?vid=c18155db-65c7-4d5a-8c5b-923eb75c675d"},"vehicle_type_id":"4","last_reported":1743178349,"current_range_meters":4400,"station_id":"ce4bhrh2rcd13ifvqhug","pricing_plan_id":"cebpf4jnsgd1na2vs0mg"},{"bike_id":"a3c9b8f7-627c-429b-ad2b-1becb424594c","system_id":"levelo_inurba_marseille","lat":43.29982,"lon":5.38506,"is_reserved":false,"is_disabled":false,"rental_uris":{"android":"levelo://app?vid=a3c9b8f7-627c-429b-ad2b-1becb424594c","ios":"levelo://app?vid=a3c9b8f7-627c-429b-ad2b-1becb424594c"},"vehicle_type_id":"4","last_reported":1743178349,"current_range_meters":4800,"station_id":"ce4bgj92rcd13ifvqbd0","pricing_plan_id":"cebpf4jnsgd1na2vs0mg"},{"bike_id":"7c8a2016-0b8b-4d9e-af4e-05371c88f717","system_id":"levelo_inurba_marseille","lat":43.306671,"lon":5.400982,"is_reserved":false,"is_disabled":false,"rental_uris":{"android":"levelo://app?vid=7c8a2016-0b8b-4d9e-af4e-05371c88f717","ios":"levelo://app?vid=7c8a2016-0b8b-4d9e-af4e-05371c88f717"},"vehicle_type_id":"4","last_reported":1743178349,"current_range_meters":4800,"station_id":"ce4bh112rcd13ifvqda0","pricing_plan_id":"cebpf4jnsgd1na2vs0mg"},{"bike_id":"caacce7c-bb59-4661-b1fd-8b2d0acee75c","system_id":"levelo_inurba_marseille","lat":43.27405,"lon":5.36274,"is_reserved":false,"is_disabled":false,"rental_uris":{"android":"levelo://app?vid=caacce7c-bb59-4661-b1fd-8b2d0acee75c","ios":"levelo://app?vid=caacce7c-bb59-4661-b1fd-8b2d0acee75c"},"vehicle_type_id":"4","last_reported":1743178349,"current_range_meters":4800,"station_id":"ce4bhbh2rcd13ifvqeo0","pricing_plan_id":"cebpf4jnsgd1na2vs0mg"},{"bike_id":"f279922b-17eb-4499-ba4d-52c8152cfb3b","system_id":"levelo_inurba_marseille","lat":43.269531,"lon":5.387061,"is_reserved":false,"is_disabled":false,"rental_uris":{"android":"levelo://app?vid=f279922b-17eb-4499-ba4d-52c8152cfb3b","ios":"levelo://app?vid=f279922b-17eb-4499-ba4d-52c8152cfb3b"},"vehicle_type_id":"4","last_reported":1743178349,"current_range_meters":4800,"station_id":"ce4bhh92rcd13ifvqfh0","pricing_plan_id":"cebpf4jnsgd1na2vs0mg"},{"bike_id":"3b6642fb-9a62-434c-9a78-b0bd182fc628","system_id":"levelo_inurba_marseille","lat":43.27904,"lon":5.41262,"is_reserved":false,"is_disabled":false,"rental_uris":{"android":"levelo://app?vid=3b6642fb-9a62-434c-9a78-b0bd182fc628","ios":"levelo://app?vid=3b6642fb-9a62-434c-9a78-b0bd182fc628"},"vehicle_type_id":"4","last_reported":1743178349,"current_range_meters":5600,"station_id":"","pricing_plan_id":"cebpf4jnsgd1na2vs0mg"},{"bike_id":"d43b2a86-10ae-42b3-8b7e-8bb72fd0fb1c","system_id":"levelo_inurba_marseille","lat":43.288673,"lon":5.358378,"is_reserved":false,"is_disabled":false,"rental_uris":{"android":"levelo://app?vid=d43b2a86-10ae-42b3-8b7e-8bb72fd0fb1c","ios":"levelo://app?vid=d43b2a86-10ae-42b3-8b7e-8bb72fd0fb1c"},"vehicle_type_id":"4","last_reported":1743178349,"current_range_meters":5600,"station_id":"ce4bhb12rcd13ifvqem0","pricing_plan_id":"cebpf4jnsgd1na2vs0mg"},{"bike_id":"605df49e-297c-4702-939a-ee9c8c758e6a","system_id":"levelo_inurba_marseille","lat":43.240286,"lon":5.37887,"is_reserved":false,"is_disabled":false,"rental_uris":{"android":"levelo://app?vid=605df49e-297c-4702-939a-ee9c8c758e6a","ios":"levelo://app?vid=605df49e-297c-4702-939a-ee9c8c758e6a"},"vehicle_type_id":"4","last_reported":1743178349,"current_range_meters":5600,"station_id":"ce4bhnp2rcd13ifvqgvg","pricing_plan_id":"cebpf4jnsgd1na2vs0mg"},{"bike_id":"cf24bf87-49dc-435e-b5a9-745d8eb59c87","system_id":"levelo_inurba_marseille","lat":43.29793,"lon":5.38098,"is_reserved":false,"is_disabled":false,"rental_uris":{"android":"levelo://app?vid=cf24bf87-49dc-435e-b5a9-745d8eb59c87","ios":"levelo://app?vid=cf24bf87-49dc-435e-b5a9-745d8eb59c87"},"vehicle_type_id":"4","last_reported":1743178349,"current_range_meters":6000,"station_id":"ce4bgip2rcd13ifvqbb0","pricing_plan_id":"cebpf4jnsgd1na2vs0mg"},{"bike_id":"9771df60-d2d2-4746-b0e3-95e3fcb7f44d","system_id":"levelo_inurba_marseille","lat":43.27987,"lon":5.38734,"is_reserved":false,"is_disabled":false,"rental_uris":{"android":"levelo://app?vid=9771df60-d2d2-4746-b0e3-95e3fcb7f44d","ios":"levelo://app?vid=9771df60-d2d2-4746-b0e3-95e3fcb7f44d"},"vehicle_type_id":"4","last_reported":1743178349,"current_range_meters":6000,"station_id":"ce4bhg12rcd13ifvqf80","pricing_plan_id":"cebpf4jnsgd1na2vs0mg"},{"bike_id":"f348a209-301b-4cfd-8ccf-49e9142a0251","system_id":"levelo_inurba_marseille","lat":43.32105,"lon":5.3678,"is_reserved":false,"is_disabled":false,"rental_uris":{"android":"levelo://app?vid=f348a209-301b-4cfd-8ccf-49e9142a0251","ios":"levelo://app?vid=f348a209-301b-4cfd-8ccf-49e9142a0251"},"vehicle_type_id":"4","last_reported":1743178349,"current_range_meters":6000,"station_id":"ce4bhrh2rcd13ifvqhug","pricing_plan_id":"cebpf4jnsgd1na2vs0mg"},{"bike_id":"12885f43-acd0-47ba-952b-99cdbeaf5093","system_id":"levelo_inurba_marseille","lat":43.295726,"lon":5.399822,"is_reserved":false,"is_disabled":false,"rental_uris":{"android":"levelo://app?vid=12885f43-acd0-47ba-952b-99cdbeaf5093","ios":"levelo://app?vid=12885f43-acd0-47ba-952b-99cdbeaf5093"},"vehicle_type_id":"4","last_reported":1743178349,"current_range_meters":6400,"station_id":"ce4bh312rcd13ifvqdj0","pricing_plan_id":"cebpf4jnsgd1na2vs0mg"},{"bike_id":"1d06e581-50ea-45a0-9003-93d8a8b1f823","system_id":"levelo_inurba_marseille","lat":43.28477,"lon":5.38431,"is_reserved":false,"is_disabled":false,"rental_uris":{"android":"levelo://app?vid=1d06e581-50ea-45a0-9003-93d8a8b1f823","ios":"levelo://app?vid=1d06e581-50ea-45a0-9003-93d8a8b1f823"},"vehicle_type_id":"4","last_reported":1743178349,"current_range_meters":6400,"station_id":"ce4bh512rcd13ifvqe3g","pricing_plan_id":"cebpf4jnsgd1na2vs0mg"},{"bike_id":"ddf96534-6867-495c-88b5-eff8c8163338","system_id":"levelo_inurba_marseille","lat":43.29006,"lon":5.356065,"is_reserved":false,"is_disabled":false,"rental_uris":{"android":"levelo://app?vid=ddf96534-6867-495c-88b5-eff8c8163338","ios":"levelo://app?vid=ddf96534-6867-495c-88b5-eff8c8163338"},"vehicle_type_id":"4","last_reported":1743178349,"current_range_meters":6400,"station_id":"ce4bhb92rcd13ifvqen0","pricing_plan_id":"cebpf4jnsgd1na2vs0mg"},{"bike_id":"29784f62-7c34-4f5d-ba90-5635581ea1b1","system_id":"levelo_inurba_marseille","lat":43.281571,"lon":5.426427,"is_reserved":false,"is_disabled":false,"rental_uris":{"android":"levelo://app?vid=29784f62-7c34-4f5d-ba90-5635581ea1b1","ios":"levelo://app?vid=29784f62-7c34-4f5d-ba90-5635581ea1b1"},"vehicle_type_id":"4","last_reported":1743178349,"current_range_meters":6400,"station_id":"ce4bhph2rcd13ifvqhdg","pricing_plan_id":"cebpf4jnsgd1na2vs0mg"},{"bike_id":"21b85743-d33b-401d-b4cc-b02ac98314e6","system_id":"levelo_inurba_marseille","lat":43.29551,"lon":5.42287,"is_reserved":false,"is_disabled":false,"rental_uris":{"android":"levelo://app?vid=21b85743-d33b-401d-b4cc-b02ac98314e6","ios":"levelo://app?vid=21b85743-d33b-401d-b4cc-b02ac98314e6"},"vehicle_type_id":"4","last_reported":1743178349,"current_range_meters":6400,"station_id":"ce4bhph2rcd13ifvqhdg","pricing_plan_id":"cebpf4jnsgd1na2vs0mg"},{"bike_id":"8610c0a7-54e0-46b6-b97c-eb43fd27f9ca","system_id":"levelo_inurba_marseille","lat":43.28606,"lon":5.37066,"is_reserved":false,"is_disabled":false,"rental_uris":{"android":"levelo://app?vid=8610c0a7-54e0-46b6-b97c-eb43fd27f9ca","ios":"levelo://app?vid=8610c0a7-54e0-46b6-b97c-eb43fd27f9ca"},"vehicle_type_id":"4","last_reported":1743178349,"current_range_meters":6400,"station_id":"ce4bht12rcd13ifvqi60","pricing_plan_id":"cebpf4jnsgd1na2vs0mg"},{"bike_id":"cef0cf03-6c43-4cf2-b390-948699f27aa3","system_id":"levelo_inurba_marseille","lat":43.29264,"lon":5.3763,"is_reserved":false,"is_disabled":false,"rental_uris":{"android":"levelo://app?vid=cef0cf03-6c43-4cf2-b390-948699f27aa3","ios":"levelo://app?vid=cef0cf03-6c43-4cf2-b390-948699f27aa3"},"vehicle_type_id":"4","last_reported":1743178349,"current_range_meters":6800,"station_id":"ce4bgi12rcd13ifvqb80","pricing_plan_id":"cebpf4jnsgd1na2vs0mg"},{"bike_id":"7a8a7134-4ce2-46c9-988b-343c0ada21b6","system_id":"levelo_inurba_marseille","lat":43.30149,"lon":5.38078,"is_reserved":false,"is_disabled":false,"rental_uris":{"android":"levelo://app?vid=7a8a7134-4ce2-46c9-988b-343c0ada21b6","ios":"levelo://app?vid=7a8a7134-4ce2-46c9-988b-343c0ada21b6"},"vehicle_type_id":"4","last_reported":1743178349,"current_range_meters":6800,"station_id":"ce4bgjp2rcd13ifvqbh0","pricing_plan_id":"cebpf4jnsgd1na2vs0mg"},{"bike_id":"d5f21151-e254-47f1-bd64-e7e465ea74d9","system_id":"levelo_inurba_marseille","lat":43.30799,"lon":5.38169,"is_reserved":false,"is_disabled":false,"rental_uris":{"android":"levelo://app?vid=d5f21151-e254-47f1-bd64-e7e465ea74d9","ios":"levelo://app?vid=d5f21151-e254-47f1-bd64-e7e465ea74d9"},"vehicle_type_id":"4","last_reported":1743178349,"current_range_meters":6800,"station_id":"ce4bgt12rcd13ifvqce0","pricing_plan_id":"cebpf4jnsgd1na2vs0mg"},{"bike_id":"a7fd0430-84b2-4582-9244-b4dc140857fc","system_id":"levelo_inurba_marseille","lat":43.29039,"lon":5.39972,"is_reserved":false,"is_disabled":false,"rental_uris":{"android":"levelo://app?vid=a7fd0430-84b2-4582-9244-b4dc140857fc","ios":"levelo://app?vid=a7fd0430-84b2-4582-9244-b4dc140857fc"},"vehicle_type_id":"4","last_reported":1743178349,"current_range_meters":6800,"station_id":"ce4bh392rcd13ifvqdm0","pricing_plan_id":"cebpf4jnsgd1na2vs0mg"},{"bike_id":"3f09f31b-4ea6-474f-a736-ad74104ed06b","system_id":"levelo_inurba_marseille","lat":43.26217,"lon":5.37454,"is_reserved":false,"is_disabled":false,"rental_uris":{"android":"levelo://app?vid=3f09f31b-4ea6-474f-a736-ad74104ed06b","ios":"levelo://app?vid=3f09f31b-4ea6-474f-a736-ad74104ed06b"},"vehicle_type_id":"4","last_reported":1743178349,"current_range_meters":6800,"station_id":"ce4bhgp2rcd13ifvqfc0","pricing_plan_id":"cebpf4jnsgd1na2vs0mg"},{"bike_id":"48e62357-03f4-417e-9ce3-7b91094d5308","system_id":"levelo_inurba_marseille","lat":43.25583,"lon":5.3823,"is_reserved":false,"is_disabled":false,"rental_uris":{"android":"levelo://app?vid=48e62357-03f4-417e-9ce3-7b91094d5308","ios":"levelo://app?vid=48e62357-03f4-417e-9ce3-7b91094d5308"},"vehicle_type_id":"4","last_reported":1743178349,"current_range_meters":6800,"station_id":"ce4bhih2rcd13ifvqfs0","pricing_plan_id":"cebpf4jnsgd1na2vs0mg"},{"bike_id":"2a54625a-c272-45bd-9b02-2bbb6b397434","system_id":"levelo_inurba_marseille","lat":43.25858,"lon":5.39904,"is_reserved":false,"is_disabled":false,"rental_uris":{"android":"levelo://app?vid=2a54625a-c272-45bd-9b02-2bbb6b397434","ios":"levelo://app?vid=2a54625a-c272-45bd-9b02-2bbb6b397434"},"vehicle_type_id":"4","last_reported":1743178349,"current_range_meters":6800,"station_id":"ce4bhl92rcd13ifvqghg","pricing_plan_id":"cebpf4jnsgd1na2vs0mg"},{"bike_id":"8aee5b5d-0fbd-4b4b-8186-32f39e3a0713","system_id":"levelo_inurba_marseille","lat":43.28074,"lon":5.39658,"is_reserved":false,"is_disabled":false,"rental_uris":{"android":"levelo://app?vid=8aee5b5d-0fbd-4b4b-8186-32f39e3a0713","ios":"levelo://app?vid=8aee5b5d-0fbd-4b4b-8186-32f39e3a0713"},"vehicle_type_id":"4","last_reported":1743178349,"current_range_meters":6800,"station_id":"ce4bho12rcd13ifvqh2g","pricing_plan_id":"cebpf4jnsgd1na2vs0mg"},{"bike_id":"597c4159-84ca-4ec5-b4f4-125fbc1c07ee","system_id":"levelo_inurba_marseille","lat":43.32022,"lon":5.38139,"is_reserved":false,"is_disabled":false,"rental_uris":{"android":"levelo://app?vid=597c4159-84ca-4ec5-b4f4-125fbc1c07ee","ios":"levelo://app?vid=597c4159-84ca-4ec5-b4f4-125fbc1c07ee"},"vehicle_type_id":"4","last_reported":1743178349,"current_range_meters":6800,"station_id":"ce4bhr12rcd13ifvqhpg","pricing_plan_id":"cebpf4jnsgd1na2vs0mg"},{"bike_id":"1fcd9cca-ff00-4b83-9f5b-8f4a915473fa","system_id":"levelo_inurba_marseille","lat":43.297288,"lon":5.376679,"is_reserved":false,"is_disabled":false,"rental_uris":{"android":"levelo://app?vid=1fcd9cca-ff00-4b83-9f5b-8f4a915473fa","ios":"levelo://app?vid=1fcd9cca-ff00-4b83-9f5b-8f4a915473fa"},"vehicle_type_id":"4","last_reported":1743178349,"current_range_meters":6800,"station_id":"ce4bhr12rcd13ifvqhqg","pricing_plan_id":"cebpf4jnsgd1na2vs0mg"},{"bike_id":"19221227-42ec-4f4b-8f04-42a0818e22f5","system_id":"levelo_inurba_marseille","lat":43.32094,"lon":5.36791,"is_reserved":false,"is_disabled":false,"rental_uris":{"android":"levelo://app?vid=19221227-42ec-4f4b-8f04-42a0818e22f5","ios":"levelo://app?vid=19221227-42ec-4f4b-8f04-42a0818e22f5"},"vehicle_type_id":"4","last_reported":1743178349,"current_range_meters":6800,"station_id":"ce4bhrh2rcd13ifvqhug","pricing_plan_id":"cebpf4jnsgd1na2vs0mg"},{"bike_id":"94ca468d-98d8-4584-af03-c6241dc80d86","system_id":"levelo_inurba_marseille","lat":43.29534,"lon":5.38544,"is_reserved":false,"is_disabled":false,"rental_uris":{"android":"levelo://app?vid=94ca468d-98d8-4584-af03-c6241dc80d86","ios":"levelo://app?vid=94ca468d-98d8-4584-af03-c6241dc80d86"},"vehicle_type_id":"4","last_reported":1743178349,"current_range_meters":7200,"station_id":"ce4bgih2rcd13ifvqba0","pricing_plan_id":"cebpf4jnsgd1na2vs0mg"},{"bike_id":"7fd4a515-35f0-465c-a7c8-433c10e85ee2","system_id":"levelo_inurba_marseille","lat":43.31106,"lon":5.37755,"is_reserved":false,"is_disabled":false,"rental_uris":{"android":"levelo://app?vid=7fd4a515-35f0-465c-a7c8-433c10e85ee2","ios":"levelo://app?vid=7fd4a515-35f0-465c-a7c8-433c10e85ee2"},"vehicle_type_id":"4","last_reported":1743178349,"current_range_meters":7200,"station_id":"ce4bgt92rcd13ifvqcg0","pricing_plan_id":"cebpf4jnsgd1na2vs0mg"},{"bike_id":"65d95aec-81e5-4637-82c1-01fd4130c51e","system_id":"levelo_inurba_marseille","lat":43.30301,"lon":5.37702,"is_reserved":false,"is_disabled":false,"rental_uris":{"android":"levelo://app?vid=65d95aec-81e5-4637-82c1-01fd4130c51e","ios":"levelo://app?vid=65d95aec-81e5-4637-82c1-01fd4130c51e"},"vehicle_type_id":"4","last_reported":1743178349,"current_range_meters":7200,"station_id":"ce4bguh2rcd13ifvqcj0","pricing_plan_id":"cebpf4jnsgd1na2vs0mg"},{"bike_id":"ec940620-2a09-4eae-aace-1a0a72b62180","system_id":"levelo_inurba_marseille","lat":43.30296,"lon":5.40087,"is_reserved":false,"is_disabled":false,"rental_uris":{"android":"levelo://app?vid=ec940620-2a09-4eae-aace-1a0a72b62180","ios":"levelo://app?vid=ec940620-2a09-4eae-aace-1a0a72b62180"},"vehicle_type_id":"4","last_reported":1743178349,"current_range_meters":7200,"station_id":"ce4bgvh2rcd13ifvqcs0","pricing_plan_id":"cebpf4jnsgd1na2vs0mg"},{"bike_id":"7b9923fd-ab38-4fed-afd6-4ab03c648adc","system_id":"levelo_inurba_marseille","lat":43.28998,"lon":5.35612,"is_reserved":false,"is_disabled":false,"rental_uris":{"android":"levelo://app?vid=7b9923fd-ab38-4fed-afd6-4ab03c648adc","ios":"levelo://app?vid=7b9923fd-ab38-4fed-afd6-4ab03c648adc"},"vehicle_type_id":"4","last_reported":1743178349,"current_range_meters":7200,"station_id":"ce4bhb92rcd13ifvqen0","pricing_plan_id":"cebpf4jnsgd1na2vs0mg"},{"bike_id":"e4bbbe96-abec-4488-bd81-64b37119a5b0","system_id":"levelo_inurba_marseille","lat":43.29011,"lon":5.35599,"is_reserved":false,"is_disabled":false,"rental_uris":{"android":"levelo://app?vid=e4bbbe96-abec-4488-bd81-64b37119a5b0","ios":"levelo://app?vid=e4bbbe96-abec-4488-bd81-64b37119a5b0"},"vehicle_type_id":"4","last_reported":1743178349,"current_range_meters":7200,"station_id":"ce4bhb92rcd13ifvqen0","pricing_plan_id":"cebpf4jnsgd1na2vs0mg"},{"bike_id":"ce2ec726-5395-47b6-9340-2c39feb627fb","system_id":"levelo_inurba_marseille","lat":43.27382,"lon":5.36259,"is_reserved":false,"is_disabled":false,"rental_uris":{"android":"levelo://app?vid=ce2ec726-5395-47b6-9340-2c39feb627fb","ios":"levelo://app?vid=ce2ec726-5395-47b6-9340-2c39feb627fb"},"vehicle_type_id":"4","last_reported":1743178349,"current_range_meters":7200,"station_id":"ce4bhbh2rcd13ifvqeo0","pricing_plan_id":"cebpf4jnsgd1na2vs0mg"},{"bike_id":"53d99e1d-7c46-4e0e-8ba8-8f1edf2cc507","system_id":"levelo_inurba_marseille","lat":43.27929,"lon":5.38004,"is_reserved":false,"is_disabled":false,"rental_uris":{"android":"levelo://app?vid=53d99e1d-7c46-4e0e-8ba8-8f1edf2cc507","ios":"levelo://app?vid=53d99e1d-7c46-4e0e-8ba8-8f1edf2cc507"},"vehicle_type_id":"4","last_reported":1743178349,"current_range_meters":7200,"station_id":"ce4bhf92rcd13ifvqf50","pricing_plan_id":"cebpf4jnsgd1na2vs0mg"},{"bike_id":"f6e1e63e-bad9-4816-9269-e6bb068a1f9b","system_id":"levelo_inurba_marseille","lat":43.286109,"lon":5.370608,"is_reserved":false,"is_disabled":false,"rental_uris":{"android":"levelo://app?vid=f6e1e63e-bad9-4816-9269-e6bb068a1f9b","ios":"levelo://app?vid=f6e1e63e-bad9-4816-9269-e6bb068a1f9b"},"vehicle_type_id":"4","last_reported":1743178349,"current_range_meters":7200,"station_id":"ce4bht12rcd13ifvqi60","pricing_plan_id":"cebpf4jnsgd1na2vs0mg"},{"bike_id":"0ac88cdf-dd3a-494f-aaa5-2b24d1ce393f","system_id":"levelo_inurba_marseille","lat":43.23191,"lon":5.35553,"is_reserved":false,"is_disabled":false,"rental_uris":{"android":"levelo://app?vid=0ac88cdf-dd3a-494f-aaa5-2b24d1ce393f","ios":"levelo://app?vid=0ac88cdf-dd3a-494f-aaa5-2b24d1ce393f"},"vehicle_type_id":"4","last_reported":1743178349,"current_range_meters":7200,"station_id":"ce4bhu92rcd13ifvqi70","pricing_plan_id":"cebpf4jnsgd1na2vs0mg"},{"bike_id":"1d7dcea0-dc16-496a-aa58-f096b93f78ce","system_id":"levelo_inurba_marseille","lat":43.30492,"lon":5.36624,"is_reserved":false,"is_disabled":false,"rental_uris":{"android":"levelo://app?vid=1d7dcea0-dc16-496a-aa58-f096b93f78ce","ios":"levelo://app?vid=1d7dcea0-dc16-496a-aa58-f096b93f78ce"},"vehicle_type_id":"4","last_reported":1743178349,"current_range_meters":8000,"station_id":"","pricing_plan_id":"cebpf4jnsgd1na2vs0mg"},{"bike_id":"8d03e719-94e6-47d9-8d17-410ab7926b87","system_id":"levelo_inurba_marseille","lat":43.2737,"lon":5.36254,"is_reserved":false,"is_disabled":false,"rental_uris":{"android":"levelo://app?vid=8d03e719-94e6-47d9-8d17-410ab7926b87","ios":"levelo://app?vid=8d03e719-94e6-47d9-8d17-410ab7926b87"},"vehicle_type_id":"4","last_reported":1743178349,"current_range_meters":8000,"station_id":"ce4bhbh2rcd13ifvqeo0","pricing_plan_id":"cebpf4jnsgd1na2vs0mg"},{"bike_id":"b5e37fe8-18a7-4c02-956b-68577b4c5dfe","system_id":"levelo_inurba_marseille","lat":43.28608,"lon":5.37061,"is_reserved":false,"is_disabled":false,"rental_uris":{"android":"levelo://app?vid=b5e37fe8-18a7-4c02-956b-68577b4c5dfe","ios":"levelo://app?vid=b5e37fe8-18a7-4c02-956b-68577b4c5dfe"},"vehicle_type_id":"4","last_reported":1743178349,"current_range_meters":8000,"station_id":"ce4bht12rcd13ifvqi60","pricing_plan_id":"cebpf4jnsgd1na2vs0mg"},{"bike_id":"37703b88-0681-4fe0-a352-8323ebd0e7ba","system_id":"levelo_inurba_marseille","lat":43.28611,"lon":5.37062,"is_reserved":false,"is_disabled":false,"rental_uris":{"android":"levelo://app?vid=37703b88-0681-4fe0-a352-8323ebd0e7ba","ios":"levelo://app?vid=37703b88-0681-4fe0-a352-8323ebd0e7ba"},"vehicle_type_id":"4","last_reported":1743178349,"current_range_meters":8000,"station_id":"ce4bht12rcd13ifvqi60","pricing_plan_id":"cebpf4jnsgd1na2vs0mg"},{"bike_id":"961245ca-8d90-4d71-b735-61afea929100","system_id":"levelo_inurba_marseille","lat":43.2416,"lon":5.36432,"is_reserved":false,"is_disabled":false,"rental_uris":{"android":"levelo://app?vid=961245ca-8d90-4d71-b735-61afea929100","ios":"levelo://app?vid=961245ca-8d90-4d71-b735-61afea929100"},"vehicle_type_id":"4","last_reported":1743178349,"current_range_meters":8000,"station_id":"cpo36qri1sfpv3e86is0","pricing_plan_id":"cebpf4jnsgd1na2vs0mg"},{"bike_id":"33dc3574-45db-4d06-8bc2-64fa96a9086d","system_id":"levelo_inurba_marseille","lat":43.2956,"lon":5.37513,"is_reserved":false,"is_disabled":false,"rental_uris":{"android":"levelo://app?vid=33dc3574-45db-4d06-8bc2-64fa96a9086d","ios":"levelo://app?vid=33dc3574-45db-4d06-8bc2-64fa96a9086d"},"vehicle_type_id":"4","last_reported":1743178349,"current_range_meters":8400,"station_id":"ce4bgh92rcd13ifvqb50","pricing_plan_id":"cebpf4jnsgd1na2vs0mg"},{"bike_id":"ed9c765d-b7a0-497f-a0ee-b2ba53fa63b2","system_id":"levelo_inurba_marseille","lat":43.23961,"lon":5.36643,"is_reserved":false,"is_disabled":false,"rental_uris":{"android":"levelo://app?vid=ed9c765d-b7a0-497f-a0ee-b2ba53fa63b2","ios":"levelo://app?vid=ed9c765d-b7a0-497f-a0ee-b2ba53fa63b2"},"vehicle_type_id":"4","last_reported":1743178349,"current_range_meters":8400,"station_id":"ce4bhi12rcd13ifvqfp0","pricing_plan_id":"cebpf4jnsgd1na2vs0mg"},{"bike_id":"dbff8265-11b7-49e6-adfc-0ff690c2bb88","system_id":"levelo_inurba_marseille","lat":43.285828,"lon":5.385576,"is_reserved":false,"is_disabled":false,"rental_uris":{"android":"levelo://app?vid=dbff8265-11b7-49e6-adfc-0ff690c2bb88","ios":"levelo://app?vid=dbff8265-11b7-49e6-adfc-0ff690c2bb88"},"vehicle_type_id":"4","last_reported":1743178349,"current_range_meters":8400,"station_id":"ce4bho92rcd13ifvqh4g","pricing_plan_id":"cebpf4jnsgd1na2vs0mg"},{"bike_id":"76638803-8aa9-4a11-b36e-d35e46ec91b1","system_id":"levelo_inurba_marseille","lat":43.3173,"lon":5.42412,"is_reserved":false,"is_disabled":false,"rental_uris":{"android":"levelo://app?vid=76638803-8aa9-4a11-b36e-d35e46ec91b1","ios":"levelo://app?vid=76638803-8aa9-4a11-b36e-d35e46ec91b1"},"vehicle_type_id":"4","last_reported":1743178349,"current_range_meters":8400,"station_id":"ce4bhp92rcd13ifvqhbg","pricing_plan_id":"cebpf4jnsgd1na2vs0mg"},{"bike_id":"54de44e6-fa0b-494c-99c1-c78cade3c2c3","system_id":"levelo_inurba_marseille","lat":43.32001,"lon":5.3816,"is_reserved":false,"is_disabled":false,"rental_uris":{"android":"levelo://app?vid=54de44e6-fa0b-494c-99c1-c78cade3c2c3","ios":"levelo://app?vid=54de44e6-fa0b-494c-99c1-c78cade3c2c3"},"vehicle_type_id":"4","last_reported":1743178349,"current_range_meters":8400,"station_id":"ce4bhr12rcd13ifvqhpg","pricing_plan_id":"cebpf4jnsgd1na2vs0mg"},{"bike_id":"813634ed-e21d-4b9e-88e8-aa8b87581eb3","system_id":"levelo_inurba_marseille","lat":43.32125,"lon":5.36784,"is_reserved":false,"is_disabled":false,"rental_uris":{"android":"levelo://app?vid=813634ed-e21d-4b9e-88e8-aa8b87581eb3","ios":"levelo://app?vid=813634ed-e21d-4b9e-88e8-aa8b87581eb3"},"vehicle_type_id":"4","last_reported":1743178349,"current_range_meters":8400,"station_id":"ce4bhrh2rcd13ifvqhug","pricing_plan_id":"cebpf4jnsgd1na2vs0mg"},{"bike_id":"b2fd8e70-5b37-4865-bf49-d30da2481695","system_id":"levelo_inurba_marseille","lat":43.23195,"lon":5.35551,"is_reserved":false,"is_disabled":false,"rental_uris":{"android":"levelo://app?vid=b2fd8e70-5b37-4865-bf49-d30da2481695","ios":"levelo://app?vid=b2fd8e70-5b37-4865-bf49-d30da2481695"},"vehicle_type_id":"4","last_reported":1743178349,"current_range_meters":8400,"station_id":"ce4bhu92rcd13ifvqi70","pricing_plan_id":"cebpf4jnsgd1na2vs0mg"},{"bike_id":"f782fffc-3d9e-4ae5-968a-8ceac901d78b","system_id":"levelo_inurba_marseille","lat":43.30608,"lon":5.37216,"is_reserved":false,"is_disabled":false,"rental_uris":{"android":"levelo://app?vid=f782fffc-3d9e-4ae5-968a-8ceac901d78b","ios":"levelo://app?vid=f782fffc-3d9e-4ae5-968a-8ceac901d78b"},"vehicle_type_id":"4","last_reported":1743178349,"current_range_meters":8800,"station_id":"ce4bgqh2rcd13ifvqc4g","pricing_plan_id":"cebpf4jnsgd1na2vs0mg"},{"bike_id":"c7f457c1-f733-4bb2-a4a5-53a636700f41","system_id":"levelo_inurba_marseille","lat":43.302155,"lon":5.394733,"is_reserved":false,"is_disabled":false,"rental_uris":{"android":"levelo://app?vid=c7f457c1-f733-4bb2-a4a5-53a636700f41","ios":"levelo://app?vid=c7f457c1-f733-4bb2-a4a5-53a636700f41"},"vehicle_type_id":"4","last_reported":1743178349,"current_range_meters":8800,"station_id":"ce4bh012rcd13ifvqcv0","pricing_plan_id":"cebpf4jnsgd1na2vs0mg"},{"bike_id":"67458cf1-b457-4502-afa1-714ee4aa130a","system_id":"levelo_inurba_marseille","lat":43.289946,"lon":5.378217,"is_reserved":false,"is_disabled":false,"rental_uris":{"android":"levelo://app?vid=67458cf1-b457-4502-afa1-714ee4aa130a","ios":"levelo://app?vid=67458cf1-b457-4502-afa1-714ee4aa130a"},"vehicle_type_id":"4","last_reported":1743178349,"current_range_meters":8800,"station_id":"ce4bh9p2rcd13ifvqed0","pricing_plan_id":"cebpf4jnsgd1na2vs0mg"},{"bike_id":"5d05a76b-6c23-4efa-bf31-85976b08af3b","system_id":"levelo_inurba_marseille","lat":43.27373,"lon":5.36253,"is_reserved":false,"is_disabled":false,"rental_uris":{"android":"levelo://app?vid=5d05a76b-6c23-4efa-bf31-85976b08af3b","ios":"levelo://app?vid=5d05a76b-6c23-4efa-bf31-85976b08af3b"},"vehicle_type_id":"4","last_reported":1743178349,"current_range_meters":8800,"station_id":"ce4bhbh2rcd13ifvqeo0","pricing_plan_id":"cebpf4jnsgd1na2vs0mg"},{"bike_id":"ff00b053-475a-4bd1-8862-3e1800e8b046","system_id":"levelo_inurba_marseille","lat":43.282676,"lon":5.350664,"is_reserved":false,"is_disabled":false,"rental_uris":{"android":"levelo://app?vid=ff00b053-475a-4bd1-8862-3e1800e8b046","ios":"levelo://app?vid=ff00b053-475a-4bd1-8862-3e1800e8b046"},"vehicle_type_id":"4","last_reported":1743178349,"current_range_meters":8800,"station_id":"ce4bhbp2rcd13ifvqerg","pricing_plan_id":"cebpf4jnsgd1na2vs0mg"},{"bike_id":"ac76297b-a26a-4395-ae29-fcdd0d122b2c","system_id":"levelo_inurba_marseille","lat":43.26072,"lon":5.39394,"is_reserved":false,"is_disabled":false,"rental_uris":{"android":"levelo://app?vid=ac76297b-a26a-4395-ae29-fcdd0d122b2c","ios":"levelo://app?vid=ac76297b-a26a-4395-ae29-fcdd0d122b2c"},"vehicle_type_id":"4","last_reported":1743178349,"current_range_meters":8800,"station_id":"ce4bhh92rcd13ifvqfj0","pricing_plan_id":"cebpf4jnsgd1na2vs0mg"},{"bike_id":"6a5faf51-2bec-4782-8a8f-e039ed407c9b","system_id":"levelo_inurba_marseille","lat":43.25104,"lon":5.39504,"is_reserved":false,"is_disabled":false,"rental_uris":{"android":"levelo://app?vid=6a5faf51-2bec-4782-8a8f-e039ed407c9b","ios":"levelo://app?vid=6a5faf51-2bec-4782-8a8f-e039ed407c9b"},"vehicle_type_id":"4","last_reported":1743178349,"current_range_meters":8800,"station_id":"ce4bhm12rcd13ifvqgkg","pricing_plan_id":"cebpf4jnsgd1na2vs0mg"},{"bike_id":"aa5c06ea-3b6e-4482-bb50-cb2fa0d437f8","system_id":"levelo_inurba_marseille","lat":43.284195,"lon":5.349747,"is_reserved":false,"is_disabled":false,"rental_uris":{"android":"levelo://app?vid=aa5c06ea-3b6e-4482-bb50-cb2fa0d437f8","ios":"levelo://app?vid=aa5c06ea-3b6e-4482-bb50-cb2fa0d437f8"},"vehicle_type_id":"4","last_reported":1743178349,"current_range_meters":8800,"station_id":"ce4bhnh2rcd13ifvqgug","pricing_plan_id":"cebpf4jnsgd1na2vs0mg"},{"bike_id":"ca759f99-0f1f-4c66-a932-f93c90ab408e","system_id":"levelo_inurba_marseille","lat":43.2408,"lon":5.3775,"is_reserved":false,"is_disabled":false,"rental_uris":{"android":"levelo://app?vid=ca759f99-0f1f-4c66-a932-f93c90ab408e","ios":"levelo://app?vid=ca759f99-0f1f-4c66-a932-f93c90ab408e"},"vehicle_type_id":"4","last_reported":1743178349,"current_range_meters":8800,"station_id":"ce4bhnp2rcd13ifvqgvg","pricing_plan_id":"cebpf4jnsgd1na2vs0mg"},{"bike_id":"1ba2879a-268e-480d-8eec-6b7433023a20","system_id":"levelo_inurba_marseille","lat":43.32375,"lon":5.38869,"is_reserved":false,"is_disabled":false,"rental_uris":{"android":"levelo://app?vid=1ba2879a-268e-480d-8eec-6b7433023a20","ios":"levelo://app?vid=1ba2879a-268e-480d-8eec-6b7433023a20"},"vehicle_type_id":"4","last_reported":1743178349,"current_range_meters":8800,"station_id":"ce4bhqp2rcd13ifvqhog","pricing_plan_id":"cebpf4jnsgd1na2vs0mg"},{"bike_id":"2e919ca5-ce98-4c47-a9d7-66e6ab7584e4","system_id":"levelo_inurba_marseille","lat":43.3211,"lon":5.36792,"is_reserved":false,"is_disabled":false,"rental_uris":{"android":"levelo://app?vid=2e919ca5-ce98-4c47-a9d7-66e6ab7584e4","ios":"levelo://app?vid=2e919ca5-ce98-4c47-a9d7-66e6ab7584e4"},"vehicle_type_id":"4","last_reported":1743178349,"current_range_meters":8800,"station_id":"ce4bhrh2rcd13ifvqhug","pricing_plan_id":"cebpf4jnsgd1na2vs0mg"},{"bike_id":"8c34c97f-9ce2-4886-9f40-ad2af9483ec9","system_id":"levelo_inurba_marseille","lat":43.28443,"lon":5.35037,"is_reserved":false,"is_disabled":false,"rental_uris":{"android":"levelo://app?vid=8c34c97f-9ce2-4886-9f40-ad2af9483ec9","ios":"levelo://app?vid=8c34c97f-9ce2-4886-9f40-ad2af9483ec9"},"vehicle_type_id":"4","last_reported":1743178349,"current_range_meters":9200,"station_id":"","pricing_plan_id":"cebpf4jnsgd1na2vs0mg"},{"bike_id":"cb952cc9-efae-48cd-8fed-acb08ce9c3fd","system_id":"levelo_inurba_marseille","lat":43.29905,"lon":5.3745,"is_reserved":false,"is_disabled":false,"rental_uris":{"android":"levelo://app?vid=cb952cc9-efae-48cd-8fed-acb08ce9c3fd","ios":"levelo://app?vid=cb952cc9-efae-48cd-8fed-acb08ce9c3fd"},"vehicle_type_id":"4","last_reported":1743178349,"current_range_meters":9200,"station_id":"ce4bgjh2rcd13ifvqbg0","pricing_plan_id":"cebpf4jnsgd1na2vs0mg"},{"bike_id":"b31a0fbd-4eff-47e2-ae6e-f21e3cf374bb","system_id":"levelo_inurba_marseille","lat":43.313457,"lon":5.367156,"is_reserved":false,"is_disabled":false,"rental_uris":{"android":"levelo://app?vid=b31a0fbd-4eff-47e2-ae6e-f21e3cf374bb","ios":"levelo://app?vid=b31a0fbd-4eff-47e2-ae6e-f21e3cf374bb"},"vehicle_type_id":"4","last_reported":1743178349,"current_range_meters":9200,"station_id":"ce4bgr92rcd13ifvqc6g","pricing_plan_id":"cebpf4jnsgd1na2vs0mg"},{"bike_id":"151269f7-c6af-465d-bb03-7225f0ff5728","system_id":"levelo_inurba_marseille","lat":43.31077,"lon":5.38365,"is_reserved":false,"is_disabled":false,"rental_uris":{"android":"levelo://app?vid=151269f7-c6af-465d-bb03-7225f0ff5728","ios":"levelo://app?vid=151269f7-c6af-465d-bb03-7225f0ff5728"},"vehicle_type_id":"4","last_reported":1743178349,"current_range_meters":9200,"station_id":"ce4bgv92rcd13ifvqcr0","pricing_plan_id":"cebpf4jnsgd1na2vs0mg"},{"bike_id":"755199dc-c395-47bc-823a-aa1c8017c311","system_id":"levelo_inurba_marseille","lat":43.31285,"lon":5.4017,"is_reserved":false,"is_disabled":false,"rental_uris":{"android":"levelo://app?vid=755199dc-c395-47bc-823a-aa1c8017c311","ios":"levelo://app?vid=755199dc-c395-47bc-823a-aa1c8017c311"},"vehicle_type_id":"4","last_reported":1743178349,"current_range_meters":9200,"station_id":"ce4bh092rcd13ifvqd30","pricing_plan_id":"cebpf4jnsgd1na2vs0mg"},{"bike_id":"7dc939fb-c52f-4cd6-ab9f-1306471e5d5b","system_id":"levelo_inurba_marseille","lat":43.28418,"lon":5.34986,"is_reserved":false,"is_disabled":false,"rental_uris":{"android":"levelo://app?vid=7dc939fb-c52f-4cd6-ab9f-1306471e5d5b","ios":"levelo://app?vid=7dc939fb-c52f-4cd6-ab9f-1306471e5d5b"},"vehicle_type_id":"4","last_reported":1743178349,"current_range_meters":9200,"station_id":"ce4bhbh2rcd13ifvqepg","pricing_plan_id":"cebpf4jnsgd1na2vs0mg"},{"bike_id":"fa847661-b485-46b4-9026-bbf7d7813924","system_id":"levelo_inurba_marseille","lat":43.28112,"lon":5.39661,"is_reserved":false,"is_disabled":false,"rental_uris":{"android":"levelo://app?vid=fa847661-b485-46b4-9026-bbf7d7813924","ios":"levelo://app?vid=fa847661-b485-46b4-9026-bbf7d7813924"},"vehicle_type_id":"4","last_reported":1743178349,"current_range_meters":9200,"station_id":"ce4bho12rcd13ifvqh2g","pricing_plan_id":"cebpf4jnsgd1na2vs0mg"},{"bike_id":"861ae205-c318-4688-ac53-947993e1b65f","system_id":"levelo_inurba_marseille","lat":43.2417,"lon":5.36404,"is_reserved":false,"is_disabled":false,"rental_uris":{"android":"levelo://app?vid=861ae205-c318-4688-ac53-947993e1b65f","ios":"levelo://app?vid=861ae205-c318-4688-ac53-947993e1b65f"},"vehicle_type_id":"4","last_reported":1743178349,"current_range_meters":9200,"station_id":"cpo36qri1sfpv3e86is0","pricing_plan_id":"cebpf4jnsgd1na2vs0mg"},{"bike_id":"93827fcd-5cbb-4a3a-aac2-5fb1e3fb986f","system_id":"levelo_inurba_marseille","lat":43.31118,"lon":5.37757,"is_reserved":false,"is_disabled":false,"rental_uris":{"android":"levelo://app?vid=93827fcd-5cbb-4a3a-aac2-5fb1e3fb986f","ios":"levelo://app?vid=93827fcd-5cbb-4a3a-aac2-5fb1e3fb986f"},"vehicle_type_id":"4","last_reported":1743178349,"current_range_meters":9600,"station_id":"ce4bgt92rcd13ifvqcg0","pricing_plan_id":"cebpf4jnsgd1na2vs0mg"},{"bike_id":"5180b9b7-b3ad-439d-b5d7-0b3868d68c3a","system_id":"levelo_inurba_marseille","lat":43.2868,"lon":5.37356,"is_reserved":false,"is_disabled":false,"rental_uris":{"android":"levelo://app?vid=5180b9b7-b3ad-439d-b5d7-0b3868d68c3a","ios":"levelo://app?vid=5180b9b7-b3ad-439d-b5d7-0b3868d68c3a"},"vehicle_type_id":"4","last_reported":1743178349,"current_range_meters":9600,"station_id":"ce4bh3p2rcd13ifvqdq0","pricing_plan_id":"cebpf4jnsgd1na2vs0mg"},{"bike_id":"9607e7d1-bbd9-4377-bdb2-57d14eb74907","system_id":"levelo_inurba_marseille","lat":43.28031,"lon":5.36946,"is_reserved":false,"is_disabled":false,"rental_uris":{"android":"levelo://app?vid=9607e7d1-bbd9-4377-bdb2-57d14eb74907","ios":"levelo://app?vid=9607e7d1-bbd9-4377-bdb2-57d14eb74907"},"vehicle_type_id":"4","last_reported":1743178349,"current_range_meters":9600,"station_id":"ce4bha12rcd13ifvqef0","pricing_plan_id":"cebpf4jnsgd1na2vs0mg"},{"bike_id":"c5887b5d-7662-4633-9b7e-c1f693b96552","system_id":"levelo_inurba_marseille","lat":43.27371,"lon":5.36245,"is_reserved":false,"is_disabled":false,"rental_uris":{"android":"levelo://app?vid=c5887b5d-7662-4633-9b7e-c1f693b96552","ios":"levelo://app?vid=c5887b5d-7662-4633-9b7e-c1f693b96552"},"vehicle_type_id":"4","last_reported":1743178349,"current_range_meters":9600,"station_id":"ce4bhbh2rcd13ifvqeo0","pricing_plan_id":"cebpf4jnsgd1na2vs0mg"},{"bike_id":"1c14bf9c-ada4-4a36-8853-740a1a2c000a","system_id":"levelo_inurba_marseille","lat":43.23193,"lon":5.35556,"is_reserved":false,"is_disabled":false,"rental_uris":{"android":"levelo://app?vid=1c14bf9c-ada4-4a36-8853-740a1a2c000a","ios":"levelo://app?vid=1c14bf9c-ada4-4a36-8853-740a1a2c000a"},"vehicle_type_id":"4","last_reported":1743178349,"current_range_meters":9600,"station_id":"ce4bhu92rcd13ifvqi70","pricing_plan_id":"cebpf4jnsgd1na2vs0mg"},{"bike_id":"c1523304-38a3-46ef-8e18-9a561146533b","system_id":"levelo_inurba_marseille","lat":43.28146,"lon":5.36908,"is_reserved":false,"is_disabled":false,"rental_uris":{"android":"levelo://app?vid=c1523304-38a3-46ef-8e18-9a561146533b","ios":"levelo://app?vid=c1523304-38a3-46ef-8e18-9a561146533b"},"vehicle_type_id":"4","last_reported":1743178349,"current_range_meters":10000,"station_id":"","pricing_plan_id":"cebpf4jnsgd1na2vs0mg"},{"bike_id":"5001e53d-54cb-4f10-8d6b-4d4be8c8cf42","system_id":"levelo_inurba_marseille","lat":43.29263,"lon":5.37619,"is_reserved":false,"is_disabled":false,"rental_uris":{"android":"levelo://app?vid=5001e53d-54cb-4f10-8d6b-4d4be8c8cf42","ios":"levelo://app?vid=5001e53d-54cb-4f10-8d6b-4d4be8c8cf42"},"vehicle_type_id":"4","last_reported":1743178349,"current_range_meters":10000,"station_id":"ce4bgi12rcd13ifvqb80","pricing_plan_id":"cebpf4jnsgd1na2vs0mg"},{"bike_id":"1813b078-e995-4712-8d54-d9ac8a11ef32","system_id":"levelo_inurba_marseille","lat":43.30551,"lon":5.36525,"is_reserved":false,"is_disabled":false,"rental_uris":{"android":"levelo://app?vid=1813b078-e995-4712-8d54-d9ac8a11ef32","ios":"levelo://app?vid=1813b078-e995-4712-8d54-d9ac8a11ef32"},"vehicle_type_id":"4","last_reported":1743178349,"current_range_meters":10000,"station_id":"ce4bgs12rcd13ifvqcag","pricing_plan_id":"cebpf4jnsgd1na2vs0mg"},{"bike_id":"b19bd17a-eb1d-45c0-84bf-0f241a48c476","system_id":"levelo_inurba_marseille","lat":43.28734,"lon":5.37924,"is_reserved":false,"is_disabled":false,"rental_uris":{"android":"levelo://app?vid=b19bd17a-eb1d-45c0-84bf-0f241a48c476","ios":"levelo://app?vid=b19bd17a-eb1d-45c0-84bf-0f241a48c476"},"vehicle_type_id":"4","last_reported":1743178349,"current_range_meters":10000,"station_id":"ce4bh9p2rcd13ifvqec0","pricing_plan_id":"cebpf4jnsgd1na2vs0mg"},{"bike_id":"9181cbd1-f71b-4e6c-8484-b35fc3d43643","system_id":"levelo_inurba_marseille","lat":43.28947,"lon":5.36637,"is_reserved":false,"is_disabled":false,"rental_uris":{"android":"levelo://app?vid=9181cbd1-f71b-4e6c-8484-b35fc3d43643","ios":"levelo://app?vid=9181cbd1-f71b-4e6c-8484-b35fc3d43643"},"vehicle_type_id":"4","last_reported":1743178349,"current_range_meters":10000,"station_id":"ce4bhap2rcd13ifvqek0","pricing_plan_id":"cebpf4jnsgd1na2vs0mg"},{"bike_id":"b80c291a-8650-4568-afa3-c78fe4ee7e60","system_id":"levelo_inurba_marseille","lat":43.29002,"lon":5.35611,"is_reserved":false,"is_disabled":false,"rental_uris":{"android":"levelo://app?vid=b80c291a-8650-4568-afa3-c78fe4ee7e60","ios":"levelo://app?vid=b80c291a-8650-4568-afa3-c78fe4ee7e60"},"vehicle_type_id":"4","last_reported":1743178349,"current_range_meters":10000,"station_id":"ce4bhb92rcd13ifvqen0","pricing_plan_id":"cebpf4jnsgd1na2vs0mg"},{"bike_id":"2a2406d4-639c-42de-a409-2fab7697463a","system_id":"levelo_inurba_marseille","lat":43.33726,"lon":5.39186,"is_reserved":false,"is_disabled":false,"rental_uris":{"android":"levelo://app?vid=2a2406d4-639c-42de-a409-2fab7697463a","ios":"levelo://app?vid=2a2406d4-639c-42de-a409-2fab7697463a"},"vehicle_type_id":"4","last_reported":1743178349,"current_range_meters":10000,"station_id":"ce4bhr92rcd13ifvqhsg","pricing_plan_id":"cebpf4jnsgd1na2vs0mg"},{"bike_id":"1c6fe0da-4209-459a-8470-3a6475bef14e","system_id":"levelo_inurba_marseille","lat":43.29531,"lon":5.39037,"is_reserved":false,"is_disabled":false,"rental_uris":{"android":"levelo://app?vid=1c6fe0da-4209-459a-8470-3a6475bef14e","ios":"levelo://app?vid=1c6fe0da-4209-459a-8470-3a6475bef14e"},"vehicle_type_id":"4","last_reported":1743178349,"current_range_meters":10800,"station_id":"ce4bh3p2rcd13ifvqdp0","pricing_plan_id":"cebpf4jnsgd1na2vs0mg"},{"bike_id":"dc21f7c4-0573-49c1-8a41-5c379c6c7b2c","system_id":"levelo_inurba_marseille","lat":43.29189,"lon":5.35798,"is_reserved":false,"is_disabled":false,"rental_uris":{"android":"levelo://app?vid=dc21f7c4-0573-49c1-8a41-5c379c6c7b2c","ios":"levelo://app?vid=dc21f7c4-0573-49c1-8a41-5c379c6c7b2c"},"vehicle_type_id":"4","last_reported":1743178349,"current_range_meters":10800,"station_id":"ce4bhb12rcd13ifvqel0","pricing_plan_id":"cebpf4jnsgd1na2vs0mg"},{"bike_id":"27bd4593-cc09-4a86-ae70-eff0e98868e6","system_id":"levelo_inurba_marseille","lat":43.29003,"lon":5.35613,"is_reserved":false,"is_disabled":false,"rental_uris":{"android":"levelo://app?vid=27bd4593-cc09-4a86-ae70-eff0e98868e6","ios":"levelo://app?vid=27bd4593-cc09-4a86-ae70-eff0e98868e6"},"vehicle_type_id":"4","last_reported":1743178349,"current_range_meters":10800,"station_id":"ce4bhb92rcd13ifvqen0","pricing_plan_id":"cebpf4jnsgd1na2vs0mg"},{"bike_id":"39ea9b72-b36d-4fca-9b38-2d6234508e2b","system_id":"levelo_inurba_marseille","lat":43.27372,"lon":5.36246,"is_reserved":false,"is_disabled":false,"rental_uris":{"android":"levelo://app?vid=39ea9b72-b36d-4fca-9b38-2d6234508e2b","ios":"levelo://app?vid=39ea9b72-b36d-4fca-9b38-2d6234508e2b"},"vehicle_type_id":"4","last_reported":1743178349,"current_range_meters":10800,"station_id":"ce4bhbh2rcd13ifvqeo0","pricing_plan_id":"cebpf4jnsgd1na2vs0mg"},{"bike_id":"661fa6de-24e3-4832-9e18-3d3a5339528f","system_id":"levelo_inurba_marseille","lat":43.2842,"lon":5.35,"is_reserved":false,"is_disabled":false,"rental_uris":{"android":"levelo://app?vid=661fa6de-24e3-4832-9e18-3d3a5339528f","ios":"levelo://app?vid=661fa6de-24e3-4832-9e18-3d3a5339528f"},"vehicle_type_id":"4","last_reported":1743178349,"current_range_meters":10800,"station_id":"ce4bhbh2rcd13ifvqepg","pricing_plan_id":"cebpf4jnsgd1na2vs0mg"},{"bike_id":"eba6cb31-8838-4237-b6dc-6f8ee35f140f","system_id":"levelo_inurba_marseille","lat":43.28411,"lon":5.34996,"is_reserved":false,"is_disabled":false,"rental_uris":{"android":"levelo://app?vid=eba6cb31-8838-4237-b6dc-6f8ee35f140f","ios":"levelo://app?vid=eba6cb31-8838-4237-b6dc-6f8ee35f140f"},"vehicle_type_id":"4","last_reported":1743178349,"current_range_meters":10800,"station_id":"ce4bhbh2rcd13ifvqepg","pricing_plan_id":"cebpf4jnsgd1na2vs0mg"},{"bike_id":"15ad341e-3f63-40a5-bcea-8b970e8d6870","system_id":"levelo_inurba_marseille","lat":43.27313,"lon":5.39078,"is_reserved":false,"is_disabled":false,"rental_uris":{"android":"levelo://app?vid=15ad341e-3f63-40a5-bcea-8b970e8d6870","ios":"levelo://app?vid=15ad341e-3f63-40a5-bcea-8b970e8d6870"},"vehicle_type_id":"4","last_reported":1743178349,"current_range_meters":10800,"station_id":"ce4bhgp2rcd13ifvqfe0","pricing_plan_id":"cebpf4jnsgd1na2vs0mg"},{"bike_id":"daf0185f-8c3f-407e-ae24-fa965e7c43cd","system_id":"levelo_inurba_marseille","lat":43.27208,"lon":5.39179,"is_reserved":false,"is_disabled":false,"rental_uris":{"android":"levelo://app?vid=daf0185f-8c3f-407e-ae24-fa965e7c43cd","ios":"levelo://app?vid=daf0185f-8c3f-407e-ae24-fa965e7c43cd"},"vehicle_type_id":"4","last_reported":1743178349,"current_range_meters":10800,"station_id":"ce4bhhp2rcd13ifvqfm0","pricing_plan_id":"cebpf4jnsgd1na2vs0mg"},{"bike_id":"e954144d-26fb-4ccb-b86e-67fb90c079bc","system_id":"levelo_inurba_marseille","lat":43.26505,"lon":5.39531,"is_reserved":false,"is_disabled":false,"rental_uris":{"android":"levelo://app?vid=e954144d-26fb-4ccb-b86e-67fb90c079bc","ios":"levelo://app?vid=e954144d-26fb-4ccb-b86e-67fb90c079bc"},"vehicle_type_id":"4","last_reported":1743178349,"current_range_meters":10800,"station_id":"ce4bhi12rcd13ifvqfq0","pricing_plan_id":"cebpf4jnsgd1na2vs0mg"},{"bike_id":"7351ff3b-1a35-49de-951e-fbf6145605fa","system_id":"levelo_inurba_marseille","lat":43.25589,"lon":5.38236,"is_reserved":false,"is_disabled":false,"rental_uris":{"android":"levelo://app?vid=7351ff3b-1a35-49de-951e-fbf6145605fa","ios":"levelo://app?vid=7351ff3b-1a35-49de-951e-fbf6145605fa"},"vehicle_type_id":"4","last_reported":1743178349,"current_range_meters":10800,"station_id":"ce4bhih2rcd13ifvqfs0","pricing_plan_id":"cebpf4jnsgd1na2vs0mg"},{"bike_id":"bc61c42e-59a8-4cc3-a29b-ec7e803012d5","system_id":"levelo_inurba_marseille","lat":43.28108,"lon":5.39656,"is_reserved":false,"is_disabled":false,"rental_uris":{"android":"levelo://app?vid=bc61c42e-59a8-4cc3-a29b-ec7e803012d5","ios":"levelo://app?vid=bc61c42e-59a8-4cc3-a29b-ec7e803012d5"},"vehicle_type_id":"4","last_reported":1743178349,"current_range_meters":10800,"station_id":"ce4bho12rcd13ifvqh2g","pricing_plan_id":"cebpf4jnsgd1na2vs0mg"},{"bike_id":"3fbcdfd8-5176-471d-aa84-e8e20bb4418e","system_id":"levelo_inurba_marseille","lat":43.32094,"lon":5.3675,"is_reserved":false,"is_disabled":false,"rental_uris":{"android":"levelo://app?vid=3fbcdfd8-5176-471d-aa84-e8e20bb4418e","ios":"levelo://app?vid=3fbcdfd8-5176-471d-aa84-e8e20bb4418e"},"vehicle_type_id":"4","last_reported":1743178349,"current_range_meters":10800,"station_id":"ce4bhrh2rcd13ifvqhug","pricing_plan_id":"cebpf4jnsgd1na2vs0mg"},{"bike_id":"68e9fc26-8998-4bf7-8da8-af47209f9b7c","system_id":"levelo_inurba_marseille","lat":43.32109,"lon":5.36761,"is_reserved":false,"is_disabled":false,"rental_uris":{"android":"levelo://app?vid=68e9fc26-8998-4bf7-8da8-af47209f9b7c","ios":"levelo://app?vid=68e9fc26-8998-4bf7-8da8-af47209f9b7c"},"vehicle_type_id":"4","last_reported":1743178349,"current_range_meters":10800,"station_id":"ce4bhrh2rcd13ifvqhug","pricing_plan_id":"cebpf4jnsgd1na2vs0mg"},{"bike_id":"65c86302-8ef0-46f4-ab6e-bac7149a2865","system_id":"levelo_inurba_marseille","lat":43.32107,"lon":5.36793,"is_reserved":false,"is_disabled":false,"rental_uris":{"android":"levelo://app?vid=65c86302-8ef0-46f4-ab6e-bac7149a2865","ios":"levelo://app?vid=65c86302-8ef0-46f4-ab6e-bac7149a2865"},"vehicle_type_id":"4","last_reported":1743178349,"current_range_meters":10800,"station_id":"ce4bhrh2rcd13ifvqhug","pricing_plan_id":"cebpf4jnsgd1na2vs0mg"},{"bike_id":"5fe2301d-3422-4831-9863-cc9203089b91","system_id":"levelo_inurba_marseille","lat":43.26807,"lon":5.40265,"is_reserved":false,"is_disabled":false,"rental_uris":{"android":"levelo://app?vid=5fe2301d-3422-4831-9863-cc9203089b91","ios":"levelo://app?vid=5fe2301d-3422-4831-9863-cc9203089b91"},"vehicle_type_id":"4","last_reported":1743178349,"current_range_meters":10800,"station_id":"ce501612rcd8frsf0b60","pricing_plan_id":"cebpf4jnsgd1na2vs0mg"},{"bike_id":"78232f5c-0aa5-4d6a-9018-e0a78e4aac6b","system_id":"levelo_inurba_marseille","lat":43.24836,"lon":5.37463,"is_reserved":false,"is_disabled":false,"rental_uris":{"android":"levelo://app?vid=78232f5c-0aa5-4d6a-9018-e0a78e4aac6b","ios":"levelo://app?vid=78232f5c-0aa5-4d6a-9018-e0a78e4aac6b"},"vehicle_type_id":"4","last_reported":1743178349,"current_range_meters":11200,"station_id":"","pricing_plan_id":"cebpf4jnsgd1na2vs0mg"},{"bike_id":"e8ba0a59-f121-44b2-a565-96ca45c6acbc","system_id":"levelo_inurba_marseille","lat":43.30534,"lon":5.38423,"is_reserved":false,"is_disabled":false,"rental_uris":{"android":"levelo://app?vid=e8ba0a59-f121-44b2-a565-96ca45c6acbc","ios":"levelo://app?vid=e8ba0a59-f121-44b2-a565-96ca45c6acbc"},"vehicle_type_id":"4","last_reported":1743178349,"current_range_meters":11200,"station_id":"ce4bgg92rcd13ifvqb30","pricing_plan_id":"cebpf4jnsgd1na2vs0mg"},{"bike_id":"a848073f-8792-476a-a036-3df5ad2ce41d","system_id":"levelo_inurba_marseille","lat":43.29712,"lon":5.37699,"is_reserved":false,"is_disabled":false,"rental_uris":{"android":"levelo://app?vid=a848073f-8792-476a-a036-3df5ad2ce41d","ios":"levelo://app?vid=a848073f-8792-476a-a036-3df5ad2ce41d"},"vehicle_type_id":"4","last_reported":1743178349,"current_range_meters":11200,"station_id":"ce4bgkh2rcd13ifvqbl0","pricing_plan_id":"cebpf4jnsgd1na2vs0mg"},{"bike_id":"36e7f8aa-4d05-4032-a232-f9bdcc625483","system_id":"levelo_inurba_marseille","lat":43.29609,"lon":5.38107,"is_reserved":false,"is_disabled":false,"rental_uris":{"android":"levelo://app?vid=36e7f8aa-4d05-4032-a232-f9bdcc625483","ios":"levelo://app?vid=36e7f8aa-4d05-4032-a232-f9bdcc625483"},"vehicle_type_id":"4","last_reported":1743178349,"current_range_meters":11200,"station_id":"ce4bgl12rcd13ifvqbo0","pricing_plan_id":"cebpf4jnsgd1na2vs0mg"},{"bike_id":"666a5757-babc-4df0-b8ed-a34bc6de5355","system_id":"levelo_inurba_marseille","lat":43.30812,"lon":5.38161,"is_reserved":false,"is_disabled":false,"rental_uris":{"android":"levelo://app?vid=666a5757-babc-4df0-b8ed-a34bc6de5355","ios":"levelo://app?vid=666a5757-babc-4df0-b8ed-a34bc6de5355"},"vehicle_type_id":"4","last_reported":1743178349,"current_range_meters":11200,"station_id":"ce4bgt12rcd13ifvqce0","pricing_plan_id":"cebpf4jnsgd1na2vs0mg"},{"bike_id":"ffea6b42-346e-459d-84bb-3db1b6fc970b","system_id":"levelo_inurba_marseille","lat":43.30602,"lon":5.39364,"is_reserved":false,"is_disabled":false,"rental_uris":{"android":"levelo://app?vid=ffea6b42-346e-459d-84bb-3db1b6fc970b","ios":"levelo://app?vid=ffea6b42-346e-459d-84bb-3db1b6fc970b"},"vehicle_type_id":"4","last_reported":1743178349,"current_range_meters":11200,"station_id":"ce4bh0p2rcd13ifvqd80","pricing_plan_id":"cebpf4jnsgd1na2vs0mg"},{"bike_id":"24f723dd-45e6-44e3-b98b-d700085c42ad","system_id":"levelo_inurba_marseille","lat":43.2657,"lon":5.39003,"is_reserved":false,"is_disabled":false,"rental_uris":{"android":"levelo://app?vid=24f723dd-45e6-44e3-b98b-d700085c42ad","ios":"levelo://app?vid=24f723dd-45e6-44e3-b98b-d700085c42ad"},"vehicle_type_id":"4","last_reported":1743178349,"current_range_meters":11200,"station_id":"ce4bhe12rcd13ifvqf30","pricing_plan_id":"cebpf4jnsgd1na2vs0mg"},{"bike_id":"498cb903-0e7b-4b46-898d-148c04832279","system_id":"levelo_inurba_marseille","lat":43.23965,"lon":5.36656,"is_reserved":false,"is_disabled":false,"rental_uris":{"android":"levelo://app?vid=498cb903-0e7b-4b46-898d-148c04832279","ios":"levelo://app?vid=498cb903-0e7b-4b46-898d-148c04832279"},"vehicle_type_id":"4","last_reported":1743178349,"current_range_meters":11200,"station_id":"ce4bhi12rcd13ifvqfp0","pricing_plan_id":"cebpf4jnsgd1na2vs0mg"},{"bike_id":"d2be6ce3-8e79-4804-b0d3-008c875e7b9d","system_id":"levelo_inurba_marseille","lat":43.26191,"lon":5.37934,"is_reserved":false,"is_disabled":false,"rental_uris":{"android":"levelo://app?vid=d2be6ce3-8e79-4804-b0d3-008c875e7b9d","ios":"levelo://app?vid=d2be6ce3-8e79-4804-b0d3-008c875e7b9d"},"vehicle_type_id":"4","last_reported":1743178349,"current_range_meters":11200,"station_id":"ce4bhjp2rcd13ifvqg90","pricing_plan_id":"cebpf4jnsgd1na2vs0mg"},{"bike_id":"6cbddcc1-9609-4503-9874-4b78c26df24e","system_id":"levelo_inurba_marseille","lat":43.32121,"lon":5.36776,"is_reserved":false,"is_disabled":false,"rental_uris":{"android":"levelo://app?vid=6cbddcc1-9609-4503-9874-4b78c26df24e","ios":"levelo://app?vid=6cbddcc1-9609-4503-9874-4b78c26df24e"},"vehicle_type_id":"4","last_reported":1743178349,"current_range_meters":11200,"station_id":"ce4bhrh2rcd13ifvqhug","pricing_plan_id":"cebpf4jnsgd1na2vs0mg"},{"bike_id":"eef75a29-8f94-45b0-b9d9-6991a77efccc","system_id":"levelo_inurba_marseille","lat":43.29259,"lon":5.37621,"is_reserved":false,"is_disabled":false,"rental_uris":{"android":"levelo://app?vid=eef75a29-8f94-45b0-b9d9-6991a77efccc","ios":"levelo://app?vid=eef75a29-8f94-45b0-b9d9-6991a77efccc"},"vehicle_type_id":"4","last_reported":1743178349,"current_range_meters":11600,"station_id":"ce4bgi12rcd13ifvqb80","pricing_plan_id":"cebpf4jnsgd1na2vs0mg"},{"bike_id":"a6582092-dece-476a-a46c-33349aa389a9","system_id":"levelo_inurba_marseille","lat":43.269196,"lon":5.393166,"is_reserved":false,"is_disabled":false,"rental_uris":{"android":"levelo://app?vid=a6582092-dece-476a-a46c-33349aa389a9","ios":"levelo://app?vid=a6582092-dece-476a-a46c-33349aa389a9"},"vehicle_type_id":"4","last_reported":1743178349,"current_range_meters":11600,"station_id":"ce4bhh12rcd13ifvqfg0","pricing_plan_id":"cebpf4jnsgd1na2vs0mg"},{"bike_id":"aed2caaf-e63e-4d9f-9fab-effd4b56045d","system_id":"levelo_inurba_marseille","lat":43.26263,"lon":5.40484,"is_reserved":false,"is_disabled":false,"rental_uris":{"android":"levelo://app?vid=aed2caaf-e63e-4d9f-9fab-effd4b56045d","ios":"levelo://app?vid=aed2caaf-e63e-4d9f-9fab-effd4b56045d"},"vehicle_type_id":"4","last_reported":1743178349,"current_range_meters":11600,"station_id":"ce4bhmh2rcd13ifvqgmg","pricing_plan_id":"cebpf4jnsgd1na2vs0mg"},{"bike_id":"fb348b09-6abb-47a4-a266-91f2eeaee291","system_id":"levelo_inurba_marseille","lat":43.32115,"lon":5.36785,"is_reserved":false,"is_disabled":false,"rental_uris":{"android":"levelo://app?vid=fb348b09-6abb-47a4-a266-91f2eeaee291","ios":"levelo://app?vid=fb348b09-6abb-47a4-a266-91f2eeaee291"},"vehicle_type_id":"4","last_reported":1743178349,"current_range_meters":11600,"station_id":"ce4bhrh2rcd13ifvqhug","pricing_plan_id":"cebpf4jnsgd1na2vs0mg"},{"bike_id":"c6c8fb31-86de-4758-859b-e74b70125ab7","system_id":"levelo_inurba_marseille","lat":43.32107,"lon":5.36788,"is_reserved":false,"is_disabled":false,"rental_uris":{"android":"levelo://app?vid=c6c8fb31-86de-4758-859b-e74b70125ab7","ios":"levelo://app?vid=c6c8fb31-86de-4758-859b-e74b70125ab7"},"vehicle_type_id":"4","last_reported":1743178349,"current_range_meters":11600,"station_id":"ce4bhrh2rcd13ifvqhug","pricing_plan_id":"cebpf4jnsgd1na2vs0mg"},{"bike_id":"6338a3c4-6025-419d-941d-39444e541112","system_id":"levelo_inurba_marseille","lat":43.29687,"lon":5.37301,"is_reserved":false,"is_disabled":false,"rental_uris":{"android":"levelo://app?vid=6338a3c4-6025-419d-941d-39444e541112","ios":"levelo://app?vid=6338a3c4-6025-419d-941d-39444e541112"},"vehicle_type_id":"4","last_reported":1743178349,"current_range_meters":12000,"station_id":"ce4bgk12rcd13ifvqbj0","pricing_plan_id":"cebpf4jnsgd1na2vs0mg"},{"bike_id":"9f4a7ed6-290f-4ac1-b05e-471b2f21c37d","system_id":"levelo_inurba_marseille","lat":43.27375,"lon":5.3625,"is_reserved":false,"is_disabled":false,"rental_uris":{"android":"levelo://app?vid=9f4a7ed6-290f-4ac1-b05e-471b2f21c37d","ios":"levelo://app?vid=9f4a7ed6-290f-4ac1-b05e-471b2f21c37d"},"vehicle_type_id":"4","last_reported":1743178349,"current_range_meters":12000,"station_id":"ce4bhbh2rcd13ifvqeo0","pricing_plan_id":"cebpf4jnsgd1na2vs0mg"},{"bike_id":"9fca3360-8e7b-45c5-b38d-719a2530d1b8","system_id":"levelo_inurba_marseille","lat":43.28418,"lon":5.34987,"is_reserved":false,"is_disabled":false,"rental_uris":{"android":"levelo://app?vid=9fca3360-8e7b-45c5-b38d-719a2530d1b8","ios":"levelo://app?vid=9fca3360-8e7b-45c5-b38d-719a2530d1b8"},"vehicle_type_id":"4","last_reported":1743178349,"current_range_meters":12000,"station_id":"ce4bhbh2rcd13ifvqepg","pricing_plan_id":"cebpf4jnsgd1na2vs0mg"},{"bike_id":"74d98461-2fa3-46a9-9ab1-2e9ef02abf96","system_id":"levelo_inurba_marseille","lat":43.27221,"lon":5.39189,"is_reserved":false,"is_disabled":false,"rental_uris":{"android":"levelo://app?vid=74d98461-2fa3-46a9-9ab1-2e9ef02abf96","ios":"levelo://app?vid=74d98461-2fa3-46a9-9ab1-2e9ef02abf96"},"vehicle_type_id":"4","last_reported":1743178349,"current_range_meters":12000,"station_id":"ce4bhhp2rcd13ifvqfm0","pricing_plan_id":"cebpf4jnsgd1na2vs0mg"},{"bike_id":"decc0192-b0ce-4f1a-bba7-3cb55400a2ea","system_id":"levelo_inurba_marseille","lat":43.27175,"lon":5.40995,"is_reserved":false,"is_disabled":false,"rental_uris":{"android":"levelo://app?vid=decc0192-b0ce-4f1a-bba7-3cb55400a2ea","ios":"levelo://app?vid=decc0192-b0ce-4f1a-bba7-3cb55400a2ea"},"vehicle_type_id":"4","last_reported":1743178349,"current_range_meters":12000,"station_id":"ce4bhl12rcd13ifvqgf0","pricing_plan_id":"cebpf4jnsgd1na2vs0mg"},{"bike_id":"3cb72f86-da57-4afd-af27-0469c8e7add3","system_id":"levelo_inurba_marseille","lat":43.32002,"lon":5.38172,"is_reserved":false,"is_disabled":false,"rental_uris":{"android":"levelo://app?vid=3cb72f86-da57-4afd-af27-0469c8e7add3","ios":"levelo://app?vid=3cb72f86-da57-4afd-af27-0469c8e7add3"},"vehicle_type_id":"4","last_reported":1743178349,"current_range_meters":12000,"station_id":"ce4bhr12rcd13ifvqhpg","pricing_plan_id":"cebpf4jnsgd1na2vs0mg"},{"bike_id":"78879d72-d868-43c9-a743-a6ab48dd9b11","system_id":"levelo_inurba_marseille","lat":43.28694,"lon":5.36109,"is_reserved":false,"is_disabled":false,"rental_uris":{"android":"levelo://app?vid=78879d72-d868-43c9-a743-a6ab48dd9b11","ios":"levelo://app?vid=78879d72-d868-43c9-a743-a6ab48dd9b11"},"vehicle_type_id":"4","last_reported":1743178349,"current_range_meters":12000,"station_id":"cki0cbj6b192h4jlfktg","pricing_plan_id":"cebpf4jnsgd1na2vs0mg"},{"bike_id":"9a55e35d-731a-481e-8081-29ec420f67db","system_id":"levelo_inurba_marseille","lat":43.2901,"lon":5.38633,"is_reserved":false,"is_disabled":false,"rental_uris":{"android":"levelo://app?vid=9a55e35d-731a-481e-8081-29ec420f67db","ios":"levelo://app?vid=9a55e35d-731a-481e-8081-29ec420f67db"},"vehicle_type_id":"4","last_reported":1743178349,"current_range_meters":12400,"station_id":"ce4bh4p2rcd13ifvqe0g","pricing_plan_id":"cebpf4jnsgd1na2vs0mg"},{"bike_id":"1cebea5c-cfeb-4552-a2b6-bf6db1cff8b1","system_id":"levelo_inurba_marseille","lat":43.291981,"lon":5.358042,"is_reserved":false,"is_disabled":false,"rental_uris":{"android":"levelo://app?vid=1cebea5c-cfeb-4552-a2b6-bf6db1cff8b1","ios":"levelo://app?vid=1cebea5c-cfeb-4552-a2b6-bf6db1cff8b1"},"vehicle_type_id":"4","last_reported":1743178349,"current_range_meters":12400,"station_id":"ce4bhb12rcd13ifvqel0","pricing_plan_id":"cebpf4jnsgd1na2vs0mg"},{"bike_id":"27c4ba6b-f9eb-4f55-857c-1c94105462f8","system_id":"levelo_inurba_marseille","lat":43.28411,"lon":5.34979,"is_reserved":false,"is_disabled":false,"rental_uris":{"android":"levelo://app?vid=27c4ba6b-f9eb-4f55-857c-1c94105462f8","ios":"levelo://app?vid=27c4ba6b-f9eb-4f55-857c-1c94105462f8"},"vehicle_type_id":"4","last_reported":1743178349,"current_range_meters":12400,"station_id":"ce4bhbh2rcd13ifvqepg","pricing_plan_id":"cebpf4jnsgd1na2vs0mg"},{"bike_id":"8bc2cbde-34c8-4c06-962a-d2135c8869d7","system_id":"levelo_inurba_marseille","lat":43.23967,"lon":5.36623,"is_reserved":false,"is_disabled":false,"rental_uris":{"android":"levelo://app?vid=8bc2cbde-34c8-4c06-962a-d2135c8869d7","ios":"levelo://app?vid=8bc2cbde-34c8-4c06-962a-d2135c8869d7"},"vehicle_type_id":"4","last_reported":1743178349,"current_range_meters":12400,"station_id":"ce4bhi12rcd13ifvqfp0","pricing_plan_id":"cebpf4jnsgd1na2vs0mg"},{"bike_id":"9f2583cf-461d-4d57-8c37-99ef1e89cade","system_id":"levelo_inurba_marseille","lat":43.23202,"lon":5.3555,"is_reserved":false,"is_disabled":false,"rental_uris":{"android":"levelo://app?vid=9f2583cf-461d-4d57-8c37-99ef1e89cade","ios":"levelo://app?vid=9f2583cf-461d-4d57-8c37-99ef1e89cade"},"vehicle_type_id":"4","last_reported":1743178349,"current_range_meters":12400,"station_id":"ce4bhu92rcd13ifvqi70","pricing_plan_id":"cebpf4jnsgd1na2vs0mg"},{"bike_id":"9a7b4e6a-fd8e-4005-b1f1-d848e9b15f63","system_id":"levelo_inurba_marseille","lat":43.29136,"lon":5.35701,"is_reserved":false,"is_disabled":false,"rental_uris":{"android":"levelo://app?vid=9a7b4e6a-fd8e-4005-b1f1-d848e9b15f63","ios":"levelo://app?vid=9a7b4e6a-fd8e-4005-b1f1-d848e9b15f63"},"vehicle_type_id":"4","last_reported":1743178349,"current_range_meters":12800,"station_id":"","pricing_plan_id":"cebpf4jnsgd1na2vs0mg"},{"bike_id":"59a7563b-5efa-40f9-8be7-b1d986a63985","system_id":"levelo_inurba_marseille","lat":43.29561,"lon":5.37522,"is_reserved":false,"is_disabled":false,"rental_uris":{"android":"levelo://app?vid=59a7563b-5efa-40f9-8be7-b1d986a63985","ios":"levelo://app?vid=59a7563b-5efa-40f9-8be7-b1d986a63985"},"vehicle_type_id":"4","last_reported":1743178349,"current_range_meters":12800,"station_id":"ce4bgh92rcd13ifvqb50","pricing_plan_id":"cebpf4jnsgd1na2vs0mg"},{"bike_id":"dfea6e04-8150-4ef7-80bb-e7c3bbcac8f0","system_id":"levelo_inurba_marseille","lat":43.30798,"lon":5.38163,"is_reserved":false,"is_disabled":false,"rental_uris":{"android":"levelo://app?vid=dfea6e04-8150-4ef7-80bb-e7c3bbcac8f0","ios":"levelo://app?vid=dfea6e04-8150-4ef7-80bb-e7c3bbcac8f0"},"vehicle_type_id":"4","last_reported":1743178349,"current_range_meters":12800,"station_id":"ce4bgt12rcd13ifvqce0","pricing_plan_id":"cebpf4jnsgd1na2vs0mg"},{"bike_id":"726673e0-2997-43f6-bee7-7726ef6857ac","system_id":"levelo_inurba_marseille","lat":43.29527,"lon":5.385419,"is_reserved":false,"is_disabled":false,"rental_uris":{"android":"levelo://app?vid=726673e0-2997-43f6-bee7-7726ef6857ac","ios":"levelo://app?vid=726673e0-2997-43f6-bee7-7726ef6857ac"},"vehicle_type_id":"4","last_reported":1743178349,"current_range_meters":12800,"station_id":"ce4bh312rcd13ifvqdj0","pricing_plan_id":"cebpf4jnsgd1na2vs0mg"},{"bike_id":"02d3ca5c-bdb6-485e-8f5d-546b0600ce04","system_id":"levelo_inurba_marseille","lat":43.291034,"lon":5.381178,"is_reserved":false,"is_disabled":false,"rental_uris":{"android":"levelo://app?vid=02d3ca5c-bdb6-485e-8f5d-546b0600ce04","ios":"levelo://app?vid=02d3ca5c-bdb6-485e-8f5d-546b0600ce04"},"vehicle_type_id":"4","last_reported":1743178349,"current_range_meters":12800,"station_id":"ce4bh512rcd13ifvqe2g","pricing_plan_id":"cebpf4jnsgd1na2vs0mg"},{"bike_id":"cef4d0b2-cb1e-442e-8588-e60cc118d812","system_id":"levelo_inurba_marseille","lat":43.28035,"lon":5.36946,"is_reserved":false,"is_disabled":false,"rental_uris":{"android":"levelo://app?vid=cef4d0b2-cb1e-442e-8588-e60cc118d812","ios":"levelo://app?vid=cef4d0b2-cb1e-442e-8588-e60cc118d812"},"vehicle_type_id":"4","last_reported":1743178349,"current_range_meters":12800,"station_id":"ce4bha12rcd13ifvqef0","pricing_plan_id":"cebpf4jnsgd1na2vs0mg"},{"bike_id":"31fcb7dc-4f6a-428c-b08c-fb6c0bdda347","system_id":"levelo_inurba_marseille","lat":43.24393,"lon":5.3706,"is_reserved":false,"is_disabled":false,"rental_uris":{"android":"levelo://app?vid=31fcb7dc-4f6a-428c-b08c-fb6c0bdda347","ios":"levelo://app?vid=31fcb7dc-4f6a-428c-b08c-fb6c0bdda347"},"vehicle_type_id":"4","last_reported":1743178349,"current_range_meters":12800,"station_id":"ce4bhhh2rcd13ifvqfk0","pricing_plan_id":"cebpf4jnsgd1na2vs0mg"},{"bike_id":"519f7d80-1f08-4dda-97da-6e94c40b3d40","system_id":"levelo_inurba_marseille","lat":43.23194,"lon":5.35563,"is_reserved":false,"is_disabled":false,"rental_uris":{"android":"levelo://app?vid=519f7d80-1f08-4dda-97da-6e94c40b3d40","ios":"levelo://app?vid=519f7d80-1f08-4dda-97da-6e94c40b3d40"},"vehicle_type_id":"4","last_reported":1743178349,"current_range_meters":12800,"station_id":"ce4bhu92rcd13ifvqi70","pricing_plan_id":"cebpf4jnsgd1na2vs0mg"},{"bike_id":"d67d8652-0f04-45a0-b34d-bbd8839b9d56","system_id":"levelo_inurba_marseille","lat":43.26324,"lon":5.38841,"is_reserved":false,"is_disabled":false,"rental_uris":{"android":"levelo://app?vid=d67d8652-0f04-45a0-b34d-bbd8839b9d56","ios":"levelo://app?vid=d67d8652-0f04-45a0-b34d-bbd8839b9d56"},"vehicle_type_id":"4","last_reported":1743178349,"current_range_meters":13600,"station_id":"","pricing_plan_id":"cebpf4jnsgd1na2vs0mg"},{"bike_id":"cec28d85-ffe3-4d5c-b75a-d87988f2be22","system_id":"levelo_inurba_marseille","lat":43.2957,"lon":5.37521,"is_reserved":false,"is_disabled":false,"rental_uris":{"android":"levelo://app?vid=cec28d85-ffe3-4d5c-b75a-d87988f2be22","ios":"levelo://app?vid=cec28d85-ffe3-4d5c-b75a-d87988f2be22"},"vehicle_type_id":"4","last_reported":1743178349,"current_range_meters":13600,"station_id":"ce4bgh92rcd13ifvqb50","pricing_plan_id":"cebpf4jnsgd1na2vs0mg"},{"bike_id":"c52bfc53-9dc3-4674-af50-c4a5cf819bc5","system_id":"levelo_inurba_marseille","lat":43.29903,"lon":5.37472,"is_reserved":false,"is_disabled":false,"rental_uris":{"android":"levelo://app?vid=c52bfc53-9dc3-4674-af50-c4a5cf819bc5","ios":"levelo://app?vid=c52bfc53-9dc3-4674-af50-c4a5cf819bc5"},"vehicle_type_id":"4","last_reported":1743178349,"current_range_meters":13600,"station_id":"ce4bgjh2rcd13ifvqbg0","pricing_plan_id":"cebpf4jnsgd1na2vs0mg"},{"bike_id":"a4ea4b88-713c-4324-a29b-83b47b220c49","system_id":"levelo_inurba_marseille","lat":43.27373,"lon":5.36258,"is_reserved":false,"is_disabled":false,"rental_uris":{"android":"levelo://app?vid=a4ea4b88-713c-4324-a29b-83b47b220c49","ios":"levelo://app?vid=a4ea4b88-713c-4324-a29b-83b47b220c49"},"vehicle_type_id":"4","last_reported":1743178349,"current_range_meters":13600,"station_id":"ce4bhbh2rcd13ifvqeo0","pricing_plan_id":"cebpf4jnsgd1na2vs0mg"},{"bike_id":"212c8e98-dbd0-430f-965c-a5211ae16902","system_id":"levelo_inurba_marseille","lat":43.25089,"lon":5.39519,"is_reserved":false,"is_disabled":false,"rental_uris":{"android":"levelo://app?vid=212c8e98-dbd0-430f-965c-a5211ae16902","ios":"levelo://app?vid=212c8e98-dbd0-430f-965c-a5211ae16902"},"vehicle_type_id":"4","last_reported":1743178349,"current_range_meters":13600,"station_id":"ce4bhm12rcd13ifvqgkg","pricing_plan_id":"cebpf4jnsgd1na2vs0mg"},{"bike_id":"983c4c9f-ee1a-4d13-8ce7-bfd36c479f46","system_id":"levelo_inurba_marseille","lat":43.2417,"lon":5.364,"is_reserved":false,"is_disabled":false,"rental_uris":{"android":"levelo://app?vid=983c4c9f-ee1a-4d13-8ce7-bfd36c479f46","ios":"levelo://app?vid=983c4c9f-ee1a-4d13-8ce7-bfd36c479f46"},"vehicle_type_id":"4","last_reported":1743178349,"current_range_meters":13600,"station_id":"cpo36qri1sfpv3e86is0","pricing_plan_id":"cebpf4jnsgd1na2vs0mg"},{"bike_id":"ad095ff6-2192-4acf-9d3b-75082cfc78be","system_id":"levelo_inurba_marseille","lat":43.29275,"lon":5.37728,"is_reserved":false,"is_disabled":false,"rental_uris":{"android":"levelo://app?vid=ad095ff6-2192-4acf-9d3b-75082cfc78be","ios":"levelo://app?vid=ad095ff6-2192-4acf-9d3b-75082cfc78be"},"vehicle_type_id":"4","last_reported":1743178349,"current_range_meters":14000,"station_id":"","pricing_plan_id":"cebpf4jnsgd1na2vs0mg"},{"bike_id":"11047ede-8627-4b58-8654-74109c89ff54","system_id":"levelo_inurba_marseille","lat":43.28947,"lon":5.36636,"is_reserved":false,"is_disabled":false,"rental_uris":{"android":"levelo://app?vid=11047ede-8627-4b58-8654-74109c89ff54","ios":"levelo://app?vid=11047ede-8627-4b58-8654-74109c89ff54"},"vehicle_type_id":"4","last_reported":1743178349,"current_range_meters":14000,"station_id":"ce4bhap2rcd13ifvqek0","pricing_plan_id":"cebpf4jnsgd1na2vs0mg"},{"bike_id":"980b1b8d-c114-4f00-88f8-a0ddccb8fb71","system_id":"levelo_inurba_marseille","lat":43.28641,"lon":5.35116,"is_reserved":false,"is_disabled":false,"rental_uris":{"android":"levelo://app?vid=980b1b8d-c114-4f00-88f8-a0ddccb8fb71","ios":"levelo://app?vid=980b1b8d-c114-4f00-88f8-a0ddccb8fb71"},"vehicle_type_id":"4","last_reported":1743178349,"current_range_meters":14000,"station_id":"ce4bhch2rcd13ifvqeug","pricing_plan_id":"cebpf4jnsgd1na2vs0mg"},{"bike_id":"d581deb9-90d8-40c4-bb18-6821f5f4a922","system_id":"levelo_inurba_marseille","lat":43.23966,"lon":5.36655,"is_reserved":false,"is_disabled":false,"rental_uris":{"android":"levelo://app?vid=d581deb9-90d8-40c4-bb18-6821f5f4a922","ios":"levelo://app?vid=d581deb9-90d8-40c4-bb18-6821f5f4a922"},"vehicle_type_id":"4","last_reported":1743178349,"current_range_meters":14000,"station_id":"ce4bhi12rcd13ifvqfp0","pricing_plan_id":"cebpf4jnsgd1na2vs0mg"},{"bike_id":"3a68c9f5-089c-4271-be7a-007f3c60dfb1","system_id":"levelo_inurba_marseille","lat":43.23184,"lon":5.3998,"is_reserved":false,"is_disabled":false,"rental_uris":{"android":"levelo://app?vid=3a68c9f5-089c-4271-be7a-007f3c60dfb1","ios":"levelo://app?vid=3a68c9f5-089c-4271-be7a-007f3c60dfb1"},"vehicle_type_id":"4","last_reported":1743178349,"current_range_meters":14000,"station_id":"ce4bhn12rcd13ifvqgqg","pricing_plan_id":"cebpf4jnsgd1na2vs0mg"},{"bike_id":"634f8619-0f67-41ba-8911-1c570f275abd","system_id":"levelo_inurba_marseille","lat":43.32001,"lon":5.38132,"is_reserved":false,"is_disabled":false,"rental_uris":{"android":"levelo://app?vid=634f8619-0f67-41ba-8911-1c570f275abd","ios":"levelo://app?vid=634f8619-0f67-41ba-8911-1c570f275abd"},"vehicle_type_id":"4","last_reported":1743178349,"current_range_meters":14000,"station_id":"ce4bhr12rcd13ifvqhpg","pricing_plan_id":"cebpf4jnsgd1na2vs0mg"},{"bike_id":"f8d53ef1-483c-412b-8649-cf1adb109034","system_id":"levelo_inurba_marseille","lat":43.2622,"lon":5.37445,"is_reserved":false,"is_disabled":false,"rental_uris":{"android":"levelo://app?vid=f8d53ef1-483c-412b-8649-cf1adb109034","ios":"levelo://app?vid=f8d53ef1-483c-412b-8649-cf1adb109034"},"vehicle_type_id":"4","last_reported":1743178349,"current_range_meters":14400,"station_id":"ce4bhgp2rcd13ifvqfc0","pricing_plan_id":"cebpf4jnsgd1na2vs0mg"},{"bike_id":"ee32161e-8dd0-4c04-9ddb-7e7068be431b","system_id":"levelo_inurba_marseille","lat":43.29874,"lon":5.39739,"is_reserved":false,"is_disabled":false,"rental_uris":{"android":"levelo://app?vid=ee32161e-8dd0-4c04-9ddb-7e7068be431b","ios":"levelo://app?vid=ee32161e-8dd0-4c04-9ddb-7e7068be431b"},"vehicle_type_id":"4","last_reported":1743178349,"current_range_meters":14800,"station_id":"ce4bh0h2rcd13ifvqd50","pricing_plan_id":"cebpf4jnsgd1na2vs0mg"},{"bike_id":"1b373974-663f-42cf-ab57-ce27a99f78ae","system_id":"levelo_inurba_marseille","lat":43.29537,"lon":5.38536,"is_reserved":false,"is_disabled":false,"rental_uris":{"android":"levelo://app?vid=1b373974-663f-42cf-ab57-ce27a99f78ae","ios":"levelo://app?vid=1b373974-663f-42cf-ab57-ce27a99f78ae"},"vehicle_type_id":"4","last_reported":1743178349,"current_range_meters":15200,"station_id":"ce4bgih2rcd13ifvqba0","pricing_plan_id":"cebpf4jnsgd1na2vs0mg"},{"bike_id":"8ccc6d11-0e1c-4fdb-981e-7e7cd806f3d4","system_id":"levelo_inurba_marseille","lat":43.29522,"lon":5.39399,"is_reserved":false,"is_disabled":false,"rental_uris":{"android":"levelo://app?vid=8ccc6d11-0e1c-4fdb-981e-7e7cd806f3d4","ios":"levelo://app?vid=8ccc6d11-0e1c-4fdb-981e-7e7cd806f3d4"},"vehicle_type_id":"4","last_reported":1743178349,"current_range_meters":15200,"station_id":"ce4bh292rcd13ifvqdf0","pricing_plan_id":"cebpf4jnsgd1na2vs0mg"},{"bike_id":"fef90057-592d-465b-b938-fd429f4632e5","system_id":"levelo_inurba_marseille","lat":43.24813,"lon":5.37447,"is_reserved":false,"is_disabled":false,"rental_uris":{"android":"levelo://app?vid=fef90057-592d-465b-b938-fd429f4632e5","ios":"levelo://app?vid=fef90057-592d-465b-b938-fd429f4632e5"},"vehicle_type_id":"4","last_reported":1743178349,"current_range_meters":15200,"station_id":"ce4bhgh2rcd13ifvqfb0","pricing_plan_id":"cebpf4jnsgd1na2vs0mg"},{"bike_id":"363e610a-53cc-4fc6-9f50-a79cc03a8dbf","system_id":"levelo_inurba_marseille","lat":43.30804,"lon":5.4352,"is_reserved":false,"is_disabled":false,"rental_uris":{"android":"levelo://app?vid=363e610a-53cc-4fc6-9f50-a79cc03a8dbf","ios":"levelo://app?vid=363e610a-53cc-4fc6-9f50-a79cc03a8dbf"},"vehicle_type_id":"4","last_reported":1743178349,"current_range_meters":15200,"station_id":"ce4bhph2rcd13ifvqheg","pricing_plan_id":"cebpf4jnsgd1na2vs0mg"},{"bike_id":"4586e23a-2d77-446c-8e8c-a15b6ae5de02","system_id":"levelo_inurba_marseille","lat":43.285985,"lon":5.381359,"is_reserved":false,"is_disabled":false,"rental_uris":{"android":"levelo://app?vid=4586e23a-2d77-446c-8e8c-a15b6ae5de02","ios":"levelo://app?vid=4586e23a-2d77-446c-8e8c-a15b6ae5de02"},"vehicle_type_id":"4","last_reported":1743178349,"current_range_meters":16000,"station_id":"","pricing_plan_id":"cebpf4jnsgd1na2vs0mg"},{"bike_id":"9ee6f63b-6213-4e1c-9a64-1694dc58c891","system_id":"levelo_inurba_marseille","lat":43.29198,"lon":5.35794,"is_reserved":false,"is_disabled":false,"rental_uris":{"android":"levelo://app?vid=9ee6f63b-6213-4e1c-9a64-1694dc58c891","ios":"levelo://app?vid=9ee6f63b-6213-4e1c-9a64-1694dc58c891"},"vehicle_type_id":"4","last_reported":1743178349,"current_range_meters":16000,"station_id":"","pricing_plan_id":"cebpf4jnsgd1na2vs0mg"},{"bike_id":"7fdcd55f-1c78-4ded-99ed-725169c92149","system_id":"levelo_inurba_marseille","lat":43.27412,"lon":5.38261,"is_reserved":false,"is_disabled":false,"rental_uris":{"android":"levelo://app?vid=7fdcd55f-1c78-4ded-99ed-725169c92149","ios":"levelo://app?vid=7fdcd55f-1c78-4ded-99ed-725169c92149"},"vehicle_type_id":"4","last_reported":1743178349,"current_range_meters":16000,"station_id":"","pricing_plan_id":"cebpf4jnsgd1na2vs0mg"},{"bike_id":"7ab0f6b6-94be-4f64-8491-e0519c5cc11c","system_id":"levelo_inurba_marseille","lat":43.29923,"lon":5.37459,"is_reserved":false,"is_disabled":false,"rental_uris":{"android":"levelo://app?vid=7ab0f6b6-94be-4f64-8491-e0519c5cc11c","ios":"levelo://app?vid=7ab0f6b6-94be-4f64-8491-e0519c5cc11c"},"vehicle_type_id":"4","last_reported":1743178349,"current_range_meters":16000,"station_id":"ce4bgjh2rcd13ifvqbg0","pricing_plan_id":"cebpf4jnsgd1na2vs0mg"},{"bike_id":"a83acefa-fc62-47c0-8bb2-8c850dc6c0b9","system_id":"levelo_inurba_marseille","lat":43.30147,"lon":5.38068,"is_reserved":false,"is_disabled":false,"rental_uris":{"android":"levelo://app?vid=a83acefa-fc62-47c0-8bb2-8c850dc6c0b9","ios":"levelo://app?vid=a83acefa-fc62-47c0-8bb2-8c850dc6c0b9"},"vehicle_type_id":"4","last_reported":1743178349,"current_range_meters":16000,"station_id":"ce4bgjp2rcd13ifvqbh0","pricing_plan_id":"cebpf4jnsgd1na2vs0mg"},{"bike_id":"a574d32f-c17d-42e4-8ffb-49833d2345c6","system_id":"levelo_inurba_marseille","lat":43.30436,"lon":5.38882,"is_reserved":false,"is_disabled":false,"rental_uris":{"android":"levelo://app?vid=a574d32f-c17d-42e4-8ffb-49833d2345c6","ios":"levelo://app?vid=a574d32f-c17d-42e4-8ffb-49833d2345c6"},"vehicle_type_id":"4","last_reported":1743178349,"current_range_meters":16000,"station_id":"ce4bgk12rcd13ifvqbi0","pricing_plan_id":"cebpf4jnsgd1na2vs0mg"},{"bike_id":"61af850e-c8c2-4acc-aea3-015b859f8432","system_id":"levelo_inurba_marseille","lat":43.28851,"lon":5.35841,"is_reserved":false,"is_disabled":false,"rental_uris":{"android":"levelo://app?vid=61af850e-c8c2-4acc-aea3-015b859f8432","ios":"levelo://app?vid=61af850e-c8c2-4acc-aea3-015b859f8432"},"vehicle_type_id":"4","last_reported":1743178349,"current_range_meters":16000,"station_id":"ce4bhb12rcd13ifvqem0","pricing_plan_id":"cebpf4jnsgd1na2vs0mg"},