{"last_updated":1733847151,"ttl":60,"version":"2.2","data":{"bikes":[{"bike_id":"54c17aac-561f-4034-b2ed-34ee91ebbe1e","system_id":"levelo_inurba_marseille","lat":43.29605,"lon":5.38108,"is_reserved":false,"is_disabled":false,"rental_uris":{"android":"levelo://app?vid=54c17aac-561f-4034-b2ed-34ee91ebbe1e","ios":"levelo://app?vid=54c17aac-561f-4034-b2ed-34ee91ebbe1e"},"vehicle_type_id":"4","last_reported":1733847151,"current_range_meters":36400,"station_id":"ce4bgl12rcd13ifvqbo0","pricing_plan_id":"cebpf4jnsgd1na2vs0mg"},{"bike_id":"125dec9f-331d-4aae-81df-831e528b1e4c","system_id":"levelo_inurba_marseille","lat":43.25722,"lon":5.41107,"is_reserved":false,"is_disabled":false,"rental_uris":{"android":"levelo://app?vid=125dec9f-331d-4aae-81df-831e528b1e4c","ios":"levelo://app?vid=125dec9f-331d-4aae-81df-831e528b1e4c"},"vehicle_type_id":"4","last_reported":1733847151,"current_range_meters":37600,"station_id":"ce4bhkp2rcd13ifvqgd0","pricing_plan_id":"cebpf4jnsgd1na2vs0mg"},{"bike_id":"9e840671-2878-4845-b8fb-114afd1f4bc9","system_id":"levelo_inurba_marseille","lat":43.26686,"lon":5.38274,"is_reserved":false,"is_disabled":true,"rental_uris":{"android":"levelo://app?vid=9e840671-2878-4845-b8fb-114afd1f4bc9","ios":"levelo://app?vid=9e840671-2878-4845-b8fb-114afd1f4bc9"},"vehicle_type_id":"4","last_reported":1733847151,"current_range_meters":800,"station_id":"ce4bhg92rcd13ifvqf90","pricing_plan_id":"cebpf4jnsgd1na2vs0mg"},{"bike_id":"8a8f5511-43b5-44ad-bbc3-c14c020cfc90","system_id":"levelo_inurba_marseille","lat":43.26557,"lon":5.37286,"is_reserved":false,"is_disabled":false,"rental_uris":{"android":"levelo://app?vid=8a8f5511-43b5-44ad-bbc3-c14c020cfc90","ios":"levelo://app?vid=8a8f5511-43b5-44ad-bbc3-c14c020cfc90"},"vehicle_type_id":"4","last_reported":1733847151,"current_range_meters":26800,"station_id":"ce4bhg12rcd13ifvqf70","pricing_plan_id":"cebpf4jnsgd1na2vs0mg"},{"bike_id":"8e029eaf-e104-4c5d-858d-6cd39de73d09","system_id":"levelo_inurba_marseille","lat":43.24153,"lon":5.36428,"is_reserved":false,"is_disabled":false,"rental_uris":{"android":"levelo://app?vid=8e029eaf-e104-4c5d-858d-6cd39de73d09","ios":"levelo://app?vid=8e029eaf-e104-4c5d-858d-6cd39de73d09"},"vehicle_type_id":"4","last_reported":1733847151,"current_range_meters":16000,"station_id":"cpo36qri1sfpv3e86is0","pricing_plan_id":"cebpf4jnsgd1na2vs0mg"},{"bike_id":"9fd0ac7c-0144-46a0-b1b2-f558ffbf21a2","system_id":"levelo_inurba_marseille","lat":43.25014,"lon":5.38934,"is_reserved":false,"is_disabled":false,"rental_uris":{"android":"levelo://app?vid=9fd0ac7c-0144-46a0-b1b2-f558ffbf21a2","ios":"levelo://app?vid=9fd0ac7c-0144-46a0-b1b2-f558ffbf21a2"},"vehicle_type_id":"4","last_reported":1733847151,"current_range_meters":33200,"station_id":"ce4bhgp2rcd13ifvqfd0","pricing_plan_id":"cebpf4jnsgd1na2vs0mg"},{"bike_id":"42330192-d9ea-44e9-ab4c-525b82fbd288","system_id":"levelo_inurba_marseille","lat":43.26211,"lon":5.37445,"is_reserved":false,"is_disabled":false,"rental_uris":{"android":"levelo://app?vid=42330192-d9ea-44e9-ab4c-525b82fbd288","ios":"levelo://app?vid=42330192-d9ea-44e9-ab4c-525b82fbd288"},"vehicle_type_id":"4","last_reported":1733847151,"current_range_meters":6400,"station_id":"ce4bhgp2rcd13ifvqfc0","pricing_plan_id":"cebpf4jnsgd1na2vs0mg"},{"bike_id":"014914cf-eb98-4b5d-8cd3-12a67a219c23","system_id":"levelo_inurba_marseille","lat":43.33618,"lon":5.41025,"is_reserved":false,"is_disabled":true,"rental_uris":{"android":"levelo://app?vid=014914cf-eb98-4b5d-8cd3-12a67a219c23","ios":"levelo://app?vid=014914cf-eb98-4b5d-8cd3-12a67a219c23"},"vehicle_type_id":"4","last_reported":1733847151,"current_range_meters":37600,"station_id":"ce4bhqh2rcd13ifvqhmg","pricing_plan_id":"cebpf4jnsgd1na2vs0mg"},{"bike_id":"bbfe7042-3668-421a-b9b3-1a1c7c7a355e","system_id":"levelo_inurba_marseille","lat":43.28717,"lon":5.37932,"is_reserved":false,"is_disabled":false,"rental_uris":{"android":"levelo://app?vid=bbfe7042-3668-421a-b9b3-1a1c7c7a355e","ios":"levelo://app?vid=bbfe7042-3668-421a-b9b3-1a1c7c7a355e"},"vehicle_type_id":"4","last_reported":1733847151,"current_range_meters":38400,"station_id":"ce4bh9p2rcd13ifvqec0","pricing_plan_id":"cebpf4jnsgd1na2vs0mg"},{"bike_id":"8bd642b2-0279-44c7-9ee2-fc3b57332c83","system_id":"levelo_inurba_marseille","lat":43.27455,"lon":5.40073,"is_reserved":false,"is_disabled":true,"rental_uris":{"android":"levelo://app?vid=8bd642b2-0279-44c7-9ee2-fc3b57332c83","ios":"levelo://app?vid=8bd642b2-0279-44c7-9ee2-fc3b57332c83"},"vehicle_type_id":"4","last_reported":1733847151,"current_range_meters":0,"station_id":"","pricing_plan_id":"cebpf4jnsgd1na2vs0mg"},{"bike_id":"59b0b34c-6f92-4349-9ebf-bf641fd76061","system_id":"levelo_inurba_marseille","lat":43.27071,"lon":5.4228,"is_reserved":false,"is_disabled":true,"rental_uris":{"android":"levelo://app?vid=59b0b34c-6f92-4349-9ebf-bf641fd76061","ios":"levelo://app?vid=59b0b34c-6f92-4349-9ebf-bf641fd76061"},"vehicle_type_id":"4","last_reported":1733847151,"current_range_meters":30800,"station_id":"ce4bhk92rcd13ifvqgb0","pricing_plan_id":"cebpf4jnsgd1na2vs0mg"},{"bike_id":"0e97a4f9-9494-4d18-8014-d897be428619","system_id":"levelo_inurba_marseille","lat":43.30552,"lon":5.40144,"is_reserved":false,"is_disabled":false,"rental_uris":{"android":"levelo://app?vid=0e97a4f9-9494-4d18-8014-d897be428619","ios":"levelo://app?vid=0e97a4f9-9494-4d18-8014-d897be428619"},"vehicle_type_id":"4","last_reported":1733847151,"current_range_meters":20800,"station_id":"","pricing_plan_id":"cebpf4jnsgd1na2vs0mg"},{"bike_id":"46f18573-ab31-435d-95a4-f4b71649f784","system_id":"levelo_inurba_marseille","lat":43.28434,"lon":5.3918,"is_reserved":false,"is_disabled":false,"rental_uris":{"android":"levelo://app?vid=46f18573-ab31-435d-95a4-f4b71649f784","ios":"levelo://app?vid=46f18573-ab31-435d-95a4-f4b71649f784"},"vehicle_type_id":"4","last_reported":1733847151,"current_range_meters":8800,"station_id":"ce4bhoh2rcd13ifvqh5g","pricing_plan_id":"cebpf4jnsgd1na2vs0mg"},{"bike_id":"ad24ae0b-80b2-4468-9212-90cb432d87a1","system_id":"levelo_inurba_marseille","lat":43.28658,"lon":5.36356,"is_reserved":false,"is_disabled":false,"rental_uris":{"android":"levelo://app?vid=ad24ae0b-80b2-4468-9212-90cb432d87a1","ios":"levelo://app?vid=ad24ae0b-80b2-4468-9212-90cb432d87a1"},"vehicle_type_id":"4","last_reported":1733847151,"current_range_meters":16000,"station_id":"ce4bhah2rcd13ifvqej0","pricing_plan_id":"cebpf4jnsgd1na2vs0mg"},{"bike_id":"f09914a1-032a-4233-965f-c73f49a269ba","system_id":"levelo_inurba_marseille","lat":43.337444,"lon":5.374475,"is_reserved":false,"is_disabled":true,"rental_uris":{"android":"levelo://app?vid=f09914a1-032a-4233-965f-c73f49a269ba","ios":"levelo://app?vid=f09914a1-032a-4233-965f-c73f49a269ba"},"vehicle_type_id":"4","last_reported":1733847151,"current_range_meters":0,"station_id":"","pricing_plan_id":"cebpf4jnsgd1na2vs0mg"},{"bike_id":"c1d3fdd9-090b-446a-9a55-c32b915bc6d3","system_id":"levelo_inurba_marseille","lat":43.29219,"lon":5.36057,"is_reserved":false,"is_disabled":false,"rental_uris":{"android":"levelo://app?vid=c1d3fdd9-090b-446a-9a55-c32b915bc6d3","ios":"levelo://app?vid=c1d3fdd9-090b-446a-9a55-c32b915bc6d3"},"vehicle_type_id":"4","last_reported":1733847151,"current_range_meters":25200,"station_id":"ce4bhbh2rcd13ifvqeqg","pricing_plan_id":"cebpf4jnsgd1na2vs0mg"},{"bike_id":"4232301f-62cf-4f72-99fa-7b7e52509b87","system_id":"levelo_inurba_marseille","lat":43.337444,"lon":5.374475,"is_reserved":false,"is_disabled":true,"rental_uris":{"android":"levelo://app?vid=4232301f-62cf-4f72-99fa-7b7e52509b87","ios":"levelo://app?vid=4232301f-62cf-4f72-99fa-7b7e52509b87"},"vehicle_type_id":"4","last_reported":1733847151,"current_range_meters":33200,"station_id":"ce4bhoh2rcd13ifvqh5g","pricing_plan_id":"cebpf4jnsgd1na2vs0mg"},{"bike_id":"f6ceca24-19af-4ed8-b20b-dad7699688ae","system_id":"levelo_inurba_marseille","lat":43.32481,"lon":5.36573,"is_reserved":false,"is_disabled":true,"rental_uris":{"android":"levelo://app?vid=f6ceca24-19af-4ed8-b20b-dad7699688ae","ios":"levelo://app?vid=f6ceca24-19af-4ed8-b20b-dad7699688ae"},"vehicle_type_id":"4","last_reported":1733847151,"current_range_meters":23200,"station_id":"ce4bhs12rcd13ifvqhvg","pricing_plan_id":"cebpf4jnsgd1na2vs0mg"},{"bike_id":"0ab5a541-9e46-49ec-b79b-93135b52147c","system_id":"levelo_inurba_marseille","lat":43.28723,"lon":5.37938,"is_reserved":false,"is_disabled":false,"rental_uris":{"android":"levelo://app?vid=0ab5a541-9e46-49ec-b79b-93135b52147c","ios":"levelo://app?vid=0ab5a541-9e46-49ec-b79b-93135b52147c"},"vehicle_type_id":"4","last_reported":1733847151,"current_range_meters":20400,"station_id":"ce4bh9p2rcd13ifvqec0","pricing_plan_id":"cebpf4jnsgd1na2vs0mg"},{"bike_id":"a66d1ce1-abaf-4cff-a673-f0bae9d377b2","system_id":"levelo_inurba_marseille","lat":43.3054,"lon":5.36544,"is_reserved":false,"is_disabled":false,"rental_uris":{"android":"levelo://app?vid=a66d1ce1-abaf-4cff-a673-f0bae9d377b2","ios":"levelo://app?vid=a66d1ce1-abaf-4cff-a673-f0bae9d377b2"},"vehicle_type_id":"4","last_reported":1733847151,"current_range_meters":6400,"station_id":"ce4bgs12rcd13ifvqcag","pricing_plan_id":"cebpf4jnsgd1na2vs0mg"},{"bike_id":"bc2e1824-e1d9-4509-9425-ac351c370f8c","system_id":"levelo_inurba_marseille","lat":43.28439,"lon":5.39189,"is_reserved":false,"is_disabled":false,"rental_uris":{"android":"levelo://app?vid=bc2e1824-e1d9-4509-9425-ac351c370f8c","ios":"levelo://app?vid=bc2e1824-e1d9-4509-9425-ac351c370f8c"},"vehicle_type_id":"4","last_reported":1733847151,"current_range_meters":23200,"station_id":"ce4bhoh2rcd13ifvqh5g","pricing_plan_id":"cebpf4jnsgd1na2vs0mg"},{"bike_id":"4623dcd7-40d3-471f-b9ac-75c58fba4eab","system_id":"levelo_inurba_marseille","lat":43.28473,"lon":5.38547,"is_reserved":false,"is_disabled":false,"rental_uris":{"android":"levelo://app?vid=4623dcd7-40d3-471f-b9ac-75c58fba4eab","ios":"levelo://app?vid=4623dcd7-40d3-471f-b9ac-75c58fba4eab"},"vehicle_type_id":"4","last_reported":1733847151,"current_range_meters":37600,"station_id":"ce4bh8p2rcd13ifvqeb0","pricing_plan_id":"cebpf4jnsgd1na2vs0mg"},{"bike_id":"13491675-3b79-4494-bdde-20f9b809ee0f","system_id":"levelo_inurba_marseille","lat":43.30595,"lon":5.37227,"is_reserved":false,"is_disabled":false,"rental_uris":{"android":"levelo://app?vid=13491675-3b79-4494-bdde-20f9b809ee0f","ios":"levelo://app?vid=13491675-3b79-4494-bdde-20f9b809ee0f"},"vehicle_type_id":"4","last_reported":1733847151,"current_range_meters":38800,"station_id":"ce4bgqh2rcd13ifvqc4g","pricing_plan_id":"cebpf4jnsgd1na2vs0mg"},{"bike_id":"9798a14a-cd61-47ed-aaf1-b8c85e3fdb91","system_id":"levelo_inurba_marseille","lat":43.2894,"lon":5.3663,"is_reserved":false,"is_disabled":true,"rental_uris":{"android":"levelo://app?vid=9798a14a-cd61-47ed-aaf1-b8c85e3fdb91","ios":"levelo://app?vid=9798a14a-cd61-47ed-aaf1-b8c85e3fdb91"},"vehicle_type_id":"4","last_reported":1733847151,"current_range_meters":5600,"station_id":"ce4bhap2rcd13ifvqek0","pricing_plan_id":"cebpf4jnsgd1na2vs0mg"},{"bike_id":"68baeeea-16c6-4cd9-a99c-aa85ba633bf6","system_id":"levelo_inurba_marseille","lat":43.29522,"lon":5.3904,"is_reserved":false,"is_disabled":false,"rental_uris":{"android":"levelo://app?vid=68baeeea-16c6-4cd9-a99c-aa85ba633bf6","ios":"levelo://app?vid=68baeeea-16c6-4cd9-a99c-aa85ba633bf6"},"vehicle_type_id":"4","last_reported":1733847151,"current_range_meters":38400,"station_id":"ce4bh3p2rcd13ifvqdp0","pricing_plan_id":"cebpf4jnsgd1na2vs0mg"},{"bike_id":"e8d6a65e-f535-4b14-8d99-b9e26864f42c","system_id":"levelo_inurba_marseille","lat":43.27916,"lon":5.39588,"is_reserved":false,"is_disabled":false,"rental_uris":{"android":"levelo://app?vid=e8d6a65e-f535-4b14-8d99-b9e26864f42c","ios":"levelo://app?vid=e8d6a65e-f535-4b14-8d99-b9e26864f42c"},"vehicle_type_id":"4","last_reported":1733847151,"current_range_meters":38800,"station_id":"ce4bhf92rcd13ifvqf40","pricing_plan_id":"cebpf4jnsgd1na2vs0mg"},{"bike_id":"98307136-80a4-466f-817c-d269e3457acc","system_id":"levelo_inurba_marseille","lat":43.32228,"lon":5.37627,"is_reserved":false,"is_disabled":false,"rental_uris":{"android":"levelo://app?vid=98307136-80a4-466f-817c-d269e3457acc","ios":"levelo://app?vid=98307136-80a4-466f-817c-d269e3457acc"},"vehicle_type_id":"4","last_reported":1733847151,"current_range_meters":32800,"station_id":"","pricing_plan_id":"cebpf4jnsgd1na2vs0mg"},{"bike_id":"320a7c82-42fc-49cd-9ccf-9fa69deb5a56","system_id":"levelo_inurba_marseille","lat":43.23198,"lon":5.35551,"is_reserved":false,"is_disabled":false,"rental_uris":{"android":"levelo://app?vid=320a7c82-42fc-49cd-9ccf-9fa69deb5a56","ios":"levelo://app?vid=320a7c82-42fc-49cd-9ccf-9fa69deb5a56"},"vehicle_type_id":"4","last_reported":1733847151,"current_range_meters":38400,"station_id":"ce4bhu92rcd13ifvqi70","pricing_plan_id":"cebpf4jnsgd1na2vs0mg"},{"bike_id":"d1bdcee4-3d65-4af4-a341-e1d2febdfb0e","system_id":"levelo_inurba_marseille","lat":43.32369,"lon":5.38885,"is_reserved":false,"is_disabled":false,"rental_uris":{"android":"levelo://app?vid=d1bdcee4-3d65-4af4-a341-e1d2febdfb0e","ios":"levelo://app?vid=d1bdcee4-3d65-4af4-a341-e1d2febdfb0e"},"vehicle_type_id":"4","last_reported":1733847151,"current_range_meters":19600,"station_id":"ce4bhqp2rcd13ifvqhog","pricing_plan_id":"cebpf4jnsgd1na2vs0mg"},{"bike_id":"5bab3bb3-bd0e-4013-9a9f-b6b562aef2c1","system_id":"levelo_inurba_marseille","lat":43.29948,"lon":5.36552,"is_reserved":false,"is_disabled":false,"rental_uris":{"android":"levelo://app?vid=5bab3bb3-bd0e-4013-9a9f-b6b562aef2c1","ios":"levelo://app?vid=5bab3bb3-bd0e-4013-9a9f-b6b562aef2c1"},"vehicle_type_id":"4","last_reported":1733847151,"current_range_meters":38800,"station_id":"ce4bgm92rcd13ifvqbr0","pricing_plan_id":"cebpf4jnsgd1na2vs0mg"},{"bike_id":"61a013f3-1d71-48c2-8eca-dfe11cb22708","system_id":"levelo_inurba_marseille","lat":43.29444,"lon":5.39747,"is_reserved":false,"is_disabled":false,"rental_uris":{"android":"levelo://app?vid=61a013f3-1d71-48c2-8eca-dfe11cb22708","ios":"levelo://app?vid=61a013f3-1d71-48c2-8eca-dfe11cb22708"},"vehicle_type_id":"4","last_reported":1733847151,"current_range_meters":38800,"station_id":"ce4bh3h2rcd13ifvqdo0","pricing_plan_id":"cebpf4jnsgd1na2vs0mg"},{"bike_id":"0d447e8e-3c5f-4c32-84da-e2f464c739bf","system_id":"levelo_inurba_marseille","lat":43.2978,"lon":5.37118,"is_reserved":false,"is_disabled":false,"rental_uris":{"android":"levelo://app?vid=0d447e8e-3c5f-4c32-84da-e2f464c739bf","ios":"levelo://app?vid=0d447e8e-3c5f-4c32-84da-e2f464c739bf"},"vehicle_type_id":"4","last_reported":1733847151,"current_range_meters":16000,"station_id":"ce4bgop2rcd13ifvqc1g","pricing_plan_id":"cebpf4jnsgd1na2vs0mg"},{"bike_id":"2f3968e7-9336-4ee4-ba78-8e92c0a818cc","system_id":"levelo_inurba_marseille","lat":43.31322,"lon":5.36647,"is_reserved":false,"is_disabled":true,"rental_uris":{"android":"levelo://app?vid=2f3968e7-9336-4ee4-ba78-8e92c0a818cc","ios":"levelo://app?vid=2f3968e7-9336-4ee4-ba78-8e92c0a818cc"},"vehicle_type_id":"4","last_reported":1733847151,"current_range_meters":0,"station_id":"","pricing_plan_id":"cebpf4jnsgd1na2vs0mg"},{"bike_id":"720d6b75-1bd4-490d-a90e-630f60be3be5","system_id":"levelo_inurba_marseille","lat":43.268565,"lon":5.39374,"is_reserved":false,"is_disabled":false,"rental_uris":{"android":"levelo://app?vid=720d6b75-1bd4-490d-a90e-630f60be3be5","ios":"levelo://app?vid=720d6b75-1bd4-490d-a90e-630f60be3be5"},"vehicle_type_id":"4","last_reported":1733847151,"current_range_meters":37600,"station_id":"ce4bhh12rcd13ifvqfg0","pricing_plan_id":"cebpf4jnsgd1na2vs0mg"},{"bike_id":"7f31f384-e337-4272-9da9-11946590de52","system_id":"levelo_inurba_marseille","lat":43.3289,"lon":5.3999,"is_reserved":false,"is_disabled":true,"rental_uris":{"android":"levelo://app?vid=7f31f384-e337-4272-9da9-11946590de52","ios":"levelo://app?vid=7f31f384-e337-4272-9da9-11946590de52"},"vehicle_type_id":"4","last_reported":1733847151,"current_range_meters":38800,"station_id":"","pricing_plan_id":"cebpf4jnsgd1na2vs0mg"},{"bike_id":"ce12a7b0-19f4-4644-8671-c4d4f1297f67","system_id":"levelo_inurba_marseille","lat":43.30848,"lon":5.36664,"is_reserved":false,"is_disabled":false,"rental_uris":{"android":"levelo://app?vid=ce12a7b0-19f4-4644-8671-c4d4f1297f67","ios":"levelo://app?vid=ce12a7b0-19f4-4644-8671-c4d4f1297f67"},"vehicle_type_id":"4","last_reported":1733847151,"current_range_meters":35600,"station_id":"","pricing_plan_id":"cebpf4jnsgd1na2vs0mg"},{"bike_id":"408bdc43-7297-4698-90e5-60b198e59f36","system_id":"levelo_inurba_marseille","lat":43.28661,"lon":5.36358,"is_reserved":false,"is_disabled":true,"rental_uris":{"android":"levelo://app?vid=408bdc43-7297-4698-90e5-60b198e59f36","ios":"levelo://app?vid=408bdc43-7297-4698-90e5-60b198e59f36"},"vehicle_type_id":"4","last_reported":1733847151,"current_range_meters":4000,"station_id":"ce4bhah2rcd13ifvqej0","pricing_plan_id":"cebpf4jnsgd1na2vs0mg"},{"bike_id":"2352bb63-e249-4b92-b6b6-9a188dc92b50","system_id":"levelo_inurba_marseille","lat":43.27073,"lon":5.42282,"is_reserved":false,"is_disabled":true,"rental_uris":{"android":"levelo://app?vid=2352bb63-e249-4b92-b6b6-9a188dc92b50","ios":"levelo://app?vid=2352bb63-e249-4b92-b6b6-9a188dc92b50"},"vehicle_type_id":"4","last_reported":1733847151,"current_range_meters":400,"station_id":"ce4bhk92rcd13ifvqgb0","pricing_plan_id":"cebpf4jnsgd1na2vs0mg"},{"bike_id":"481bd5a9-f781-4875-9a99-994c436613cc","system_id":"levelo_inurba_marseille","lat":43.30896,"lon":5.37189,"is_reserved":false,"is_disabled":false,"rental_uris":{"android":"levelo://app?vid=481bd5a9-f781-4875-9a99-994c436613cc","ios":"levelo://app?vid=481bd5a9-f781-4875-9a99-994c436613cc"},"vehicle_type_id":"4","last_reported":1733847151,"current_range_meters":9200,"station_id":"ce4bguh2rcd13ifvqckg","pricing_plan_id":"cebpf4jnsgd1na2vs0mg"},{"bike_id":"a822604e-5a8f-4665-b875-586d39d61022","system_id":"levelo_inurba_marseille","lat":43.32472,"lon":5.36556,"is_reserved":false,"is_disabled":false,"rental_uris":{"android":"levelo://app?vid=a822604e-5a8f-4665-b875-586d39d61022","ios":"levelo://app?vid=a822604e-5a8f-4665-b875-586d39d61022"},"vehicle_type_id":"4","last_reported":1733847151,"current_range_meters":28800,"station_id":"ce4bhs12rcd13ifvqhvg","pricing_plan_id":"cebpf4jnsgd1na2vs0mg"},{"bike_id":"882d40f1-f0b3-422f-a3a8-877bd9290be2","system_id":"levelo_inurba_marseille","lat":43.31063,"lon":5.38352,"is_reserved":false,"is_disabled":false,"rental_uris":{"android":"levelo://app?vid=882d40f1-f0b3-422f-a3a8-877bd9290be2","ios":"levelo://app?vid=882d40f1-f0b3-422f-a3a8-877bd9290be2"},"vehicle_type_id":"4","last_reported":1733847151,"current_range_meters":34000,"station_id":"ce4bgv92rcd13ifvqcr0","pricing_plan_id":"cebpf4jnsgd1na2vs0mg"},{"bike_id":"19630bd2-d188-45b1-9d4c-ec5fd7e6626a","system_id":"levelo_inurba_marseille","lat":43.29872,"lon":5.39727,"is_reserved":false,"is_disabled":true,"rental_uris":{"android":"levelo://app?vid=19630bd2-d188-45b1-9d4c-ec5fd7e6626a","ios":"levelo://app?vid=19630bd2-d188-45b1-9d4c-ec5fd7e6626a"},"vehicle_type_id":"4","last_reported":1733847151,"current_range_meters":800,"station_id":"ce4bh0h2rcd13ifvqd50","pricing_plan_id":"cebpf4jnsgd1na2vs0mg"},{"bike_id":"12add500-ea1f-403d-bb3c-de83ce61c6f3","system_id":"levelo_inurba_marseille","lat":43.28947,"lon":5.36631,"is_reserved":false,"is_disabled":true,"rental_uris":{"android":"levelo://app?vid=12add500-ea1f-403d-bb3c-de83ce61c6f3","ios":"levelo://app?vid=12add500-ea1f-403d-bb3c-de83ce61c6f3"},"vehicle_type_id":"4","last_reported":1733847151,"current_range_meters":35200,"station_id":"ce4bhap2rcd13ifvqek0","pricing_plan_id":"cebpf4jnsgd1na2vs0mg"},{"bike_id":"ab1765a6-6c00-420c-b72e-88228cba39da","system_id":"levelo_inurba_marseille","lat":43.27175,"lon":5.40996,"is_reserved":false,"is_disabled":false,"rental_uris":{"android":"levelo://app?vid=ab1765a6-6c00-420c-b72e-88228cba39da","ios":"levelo://app?vid=ab1765a6-6c00-420c-b72e-88228cba39da"},"vehicle_type_id":"4","last_reported":1733847151,"current_range_meters":36400,"station_id":"ce4bhl12rcd13ifvqgf0","pricing_plan_id":"cebpf4jnsgd1na2vs0mg"},{"bike_id":"c901a794-496e-44e0-9d84-45e9988be1b0","system_id":"levelo_inurba_marseille","lat":43.27181,"lon":5.40993,"is_reserved":false,"is_disabled":false,"rental_uris":{"android":"levelo://app?vid=c901a794-496e-44e0-9d84-45e9988be1b0","ios":"levelo://app?vid=c901a794-496e-44e0-9d84-45e9988be1b0"},"vehicle_type_id":"4","last_reported":1733847151,"current_range_meters":38800,"station_id":"ce4bhl12rcd13ifvqgf0","pricing_plan_id":"cebpf4jnsgd1na2vs0mg"},{"bike_id":"e997469b-c09d-4265-8ac9-928ed5aaab97","system_id":"levelo_inurba_marseille","lat":43.26953,"lon":5.38638,"is_reserved":false,"is_disabled":true,"rental_uris":{"android":"levelo://app?vid=e997469b-c09d-4265-8ac9-928ed5aaab97","ios":"levelo://app?vid=e997469b-c09d-4265-8ac9-928ed5aaab97"},"vehicle_type_id":"4","last_reported":1733847151,"current_range_meters":0,"station_id":"ce4bhh92rcd13ifvqfh0","pricing_plan_id":"cebpf4jnsgd1na2vs0mg"},{"bike_id":"ce93eba4-a260-4242-bfd1-eb4a1083d4a6","system_id":"levelo_inurba_marseille","lat":43.2737,"lon":5.36255,"is_reserved":false,"is_disabled":false,"rental_uris":{"android":"levelo://app?vid=ce93eba4-a260-4242-bfd1-eb4a1083d4a6","ios":"levelo://app?vid=ce93eba4-a260-4242-bfd1-eb4a1083d4a6"},"vehicle_type_id":"4","last_reported":1733847151,"current_range_meters":38800,"station_id":"ce4bhbh2rcd13ifvqeo0","pricing_plan_id":"cebpf4jnsgd1na2vs0mg"},{"bike_id":"d233d534-dd4b-447b-8675-3b41067b9ac6","system_id":"levelo_inurba_marseille","lat":43.29071,"lon":5.35919,"is_reserved":false,"is_disabled":false,"rental_uris":{"android":"levelo://app?vid=d233d534-dd4b-447b-8675-3b41067b9ac6","ios":"levelo://app?vid=d233d534-dd4b-447b-8675-3b41067b9ac6"},"vehicle_type_id":"4","last_reported":1733847151,"current_range_meters":38800,"station_id":"ce4bha92rcd13ifvqeg0","pricing_plan_id":"cebpf4jnsgd1na2vs0mg"},{"bike_id":"994e7113-cb39-4013-9c10-af4ea3792004","system_id":"levelo_inurba_marseille","lat":43.29611,"lon":5.37731,"is_reserved":false,"is_disabled":false,"rental_uris":{"android":"levelo://app?vid=994e7113-cb39-4013-9c10-af4ea3792004","ios":"levelo://app?vid=994e7113-cb39-4013-9c10-af4ea3792004"},"vehicle_type_id":"4","last_reported":1733847151,"current_range_meters":36000,"station_id":"ce4bgi92rcd13ifvqb90","pricing_plan_id":"cebpf4jnsgd1na2vs0mg"},{"bike_id":"1bb0ff37-ebd4-4687-901e-c9926b684aae","system_id":"levelo_inurba_marseille","lat":43.31118,"lon":5.37777,"is_reserved":false,"is_disabled":false,"rental_uris":{"android":"levelo://app?vid=1bb0ff37-ebd4-4687-901e-c9926b684aae","ios":"levelo://app?vid=1bb0ff37-ebd4-4687-901e-c9926b684aae"},"vehicle_type_id":"4","last_reported":1733847151,"current_range_meters":11200,"station_id":"ce4bgt92rcd13ifvqcg0","pricing_plan_id":"cebpf4jnsgd1na2vs0mg"},{"bike_id":"c1af07c0-ed11-49c8-aa2e-1104638a28b7","system_id":"levelo_inurba_marseille","lat":43.23065,"lon":5.35495,"is_reserved":false,"is_disabled":false,"rental_uris":{"android":"levelo://app?vid=c1af07c0-ed11-49c8-aa2e-1104638a28b7","ios":"levelo://app?vid=c1af07c0-ed11-49c8-aa2e-1104638a28b7"},"vehicle_type_id":"4","last_reported":1733847151,"current_range_meters":18000,"station_id":"cpo3342slgdg3j2ifvpg","pricing_plan_id":"cebpf4jnsgd1na2vs0mg"},{"bike_id":"fc022754-48b0-4547-9f79-b2438e2a4892","system_id":"levelo_inurba_marseille","lat":43.27051,"lon":5.40264,"is_reserved":false,"is_disabled":false,"rental_uris":{"android":"levelo://app?vid=fc022754-48b0-4547-9f79-b2438e2a4892","ios":"levelo://app?vid=fc022754-48b0-4547-9f79-b2438e2a4892"},"vehicle_type_id":"4","last_reported":1733847151,"current_range_meters":19600,"station_id":"ce4bhk92rcd13ifvqgc0","pricing_plan_id":"cebpf4jnsgd1na2vs0mg"},{"bike_id":"0084a9d1-9e1b-49bf-9a13-b2215967ad3d","system_id":"levelo_inurba_marseille","lat":43.24664,"lon":5.38167,"is_reserved":false,"is_disabled":true,"rental_uris":{"android":"levelo://app?vid=0084a9d1-9e1b-49bf-9a13-b2215967ad3d","ios":"levelo://app?vid=0084a9d1-9e1b-49bf-9a13-b2215967ad3d"},"vehicle_type_id":"4","last_reported":1733847151,"current_range_meters":0,"station_id":"ce4bhih2rcd13ifvqfr0","pricing_plan_id":"cebpf4jnsgd1na2vs0mg"},{"bike_id":"f9261bfc-6f51-46f7-896c-5f4644f17d84","system_id":"levelo_inurba_marseille","lat":43.268,"lon":5.40265,"is_reserved":false,"is_disabled":false,"rental_uris":{"android":"levelo://app?vid=f9261bfc-6f51-46f7-896c-5f4644f17d84","ios":"levelo://app?vid=f9261bfc-6f51-46f7-896c-5f4644f17d84"},"vehicle_type_id":"4","last_reported":1733847151,"current_range_meters":38800,"station_id":"ce501612rcd8frsf0b60","pricing_plan_id":"cebpf4jnsgd1na2vs0mg"},{"bike_id":"a9dde08b-6d06-4ebc-b232-3bba2d50b767","system_id":"levelo_inurba_marseille","lat":43.31757,"lon":5.39018,"is_reserved":false,"is_disabled":false,"rental_uris":{"android":"levelo://app?vid=a9dde08b-6d06-4ebc-b232-3bba2d50b767","ios":"levelo://app?vid=a9dde08b-6d06-4ebc-b232-3bba2d50b767"},"vehicle_type_id":"4","last_reported":1733847151,"current_range_meters":32400,"station_id":"ce4bhqp2rcd13ifvqhng","pricing_plan_id":"cebpf4jnsgd1na2vs0mg"},{"bike_id":"6f5aafc4-06b9-4dba-b612-5d926167490b","system_id":"levelo_inurba_marseille","lat":43.32477,"lon":5.36582,"is_reserved":false,"is_disabled":true,"rental_uris":{"android":"levelo://app?vid=6f5aafc4-06b9-4dba-b612-5d926167490b","ios":"levelo://app?vid=6f5aafc4-06b9-4dba-b612-5d926167490b"},"vehicle_type_id":"4","last_reported":1733847151,"current_range_meters":0,"station_id":"ce4bhs12rcd13ifvqhvg","pricing_plan_id":"cebpf4jnsgd1na2vs0mg"},{"bike_id":"cbc7068b-5c25-41e2-96c9-01451e348e9f","system_id":"levelo_inurba_marseille","lat":43.33023,"lon":5.39041,"is_reserved":false,"is_disabled":false,"rental_uris":{"android":"levelo://app?vid=cbc7068b-5c25-41e2-96c9-01451e348e9f","ios":"levelo://app?vid=cbc7068b-5c25-41e2-96c9-01451e348e9f"},"vehicle_type_id":"4","last_reported":1733847151,"current_range_meters":36800,"station_id":"ce4bhr92rcd13ifvqhrg","pricing_plan_id":"cebpf4jnsgd1na2vs0mg"},{"bike_id":"74ddbdc3-b082-4f44-a075-38dfc2e6b2cd","system_id":"levelo_inurba_marseille","lat":43.24167,"lon":5.36387,"is_reserved":false,"is_disabled":false,"rental_uris":{"android":"levelo://app?vid=74ddbdc3-b082-4f44-a075-38dfc2e6b2cd","ios":"levelo://app?vid=74ddbdc3-b082-4f44-a075-38dfc2e6b2cd"},"vehicle_type_id":"4","last_reported":1733847151,"current_range_meters":21600,"station_id":"cpo36qri1sfpv3e86is0","pricing_plan_id":"cebpf4jnsgd1na2vs0mg"},{"bike_id":"a1fd9fc0-1da5-4b32-9b7d-edaf53b031c4","system_id":"levelo_inurba_marseille","lat":43.30354,"lon":5.41878,"is_reserved":false,"is_disabled":true,"rental_uris":{"android":"levelo://app?vid=a1fd9fc0-1da5-4b32-9b7d-edaf53b031c4","ios":"levelo://app?vid=a1fd9fc0-1da5-4b32-9b7d-edaf53b031c4"},"vehicle_type_id":"4","last_reported":1733847151,"current_range_meters":38000,"station_id":"ce4bhop2rcd13ifvqh7g","pricing_plan_id":"cebpf4jnsgd1na2vs0mg"},{"bike_id":"9cd79aab-6f4c-4919-b570-803a9e8b35c5","system_id":"levelo_inurba_marseille","lat":43.30464,"lon":5.36709,"is_reserved":false,"is_disabled":true,"rental_uris":{"android":"levelo://app?vid=9cd79aab-6f4c-4919-b570-803a9e8b35c5","ios":"levelo://app?vid=9cd79aab-6f4c-4919-b570-803a9e8b35c5"},"vehicle_type_id":"4","last_reported":1733847151,"current_range_meters":23200,"station_id":"","pricing_plan_id":"cebpf4jnsgd1na2vs0mg"},{"bike_id":"55215069-a233-41e9-b0a2-4aa13560be48","system_id":"levelo_inurba_marseille","lat":43.28358,"lon":5.38105,"is_reserved":false,"is_disabled":false,"rental_uris":{"android":"levelo://app?vid=55215069-a233-41e9-b0a2-4aa13560be48","ios":"levelo://app?vid=55215069-a233-41e9-b0a2-4aa13560be48"},"vehicle_type_id":"4","last_reported":1733847151,"current_range_meters":38400,"station_id":"ce4bh412rcd13ifvqdr0","pricing_plan_id":"cebpf4jnsgd1na2vs0mg"},{"bike_id":"95381e5f-d6b7-4d89-ada8-652b4e8fa3ed","system_id":"levelo_inurba_marseille","lat":43.250865,"lon":5.395319,"is_reserved":false,"is_disabled":true,"rental_uris":{"android":"levelo://app?vid=95381e5f-d6b7-4d89-ada8-652b4e8fa3ed","ios":"levelo://app?vid=95381e5f-d6b7-4d89-ada8-652b4e8fa3ed"},"vehicle_type_id":"4","last_reported":1733847151,"current_range_meters":13600,"station_id":"ce4bhm12rcd13ifvqgkg","pricing_plan_id":"cebpf4jnsgd1na2vs0mg"},{"bike_id":"543ffcfa-aa63-4350-88ea-e89f19556564","system_id":"levelo_inurba_marseille","lat":43.27177,"lon":5.40998,"is_reserved":false,"is_disabled":false,"rental_uris":{"android":"levelo://app?vid=543ffcfa-aa63-4350-88ea-e89f19556564","ios":"levelo://app?vid=543ffcfa-aa63-4350-88ea-e89f19556564"},"vehicle_type_id":"4","last_reported":1733847151,"current_range_meters":36400,"station_id":"ce4bhl12rcd13ifvqgf0","pricing_plan_id":"cebpf4jnsgd1na2vs0mg"},{"bike_id":"f97ddc52-5758-4192-8ca1-71254ad1a77e","system_id":"levelo_inurba_marseille","lat":43.26196,"lon":5.37452,"is_reserved":false,"is_disabled":false,"rental_uris":{"android":"levelo://app?vid=f97ddc52-5758-4192-8ca1-71254ad1a77e","ios":"levelo://app?vid=f97ddc52-5758-4192-8ca1-71254ad1a77e"},"vehicle_type_id":"4","last_reported":1733847151,"current_range_meters":38800,"station_id":"ce4bhgp2rcd13ifvqfc0","pricing_plan_id":"cebpf4jnsgd1na2vs0mg"},{"bike_id":"11e86528-eb6b-4391-86a5-9b1822d069a4","system_id":"levelo_inurba_marseille","lat":43.278805,"lon":5.388003,"is_reserved":false,"is_disabled":true,"rental_uris":{"android":"levelo://app?vid=11e86528-eb6b-4391-86a5-9b1822d069a4","ios":"levelo://app?vid=11e86528-eb6b-4391-86a5-9b1822d069a4"},"vehicle_type_id":"4","last_reported":1733847151,"current_range_meters":0,"station_id":"","pricing_plan_id":"cebpf4jnsgd1na2vs0mg"},{"bike_id":"6cc6805f-c0ca-4585-bdf1-b5a0339762b0","system_id":"levelo_inurba_marseille","lat":43.29027,"lon":5.42744,"is_reserved":false,"is_disabled":true,"rental_uris":{"android":"levelo://app?vid=6cc6805f-c0ca-4585-bdf1-b5a0339762b0","ios":"levelo://app?vid=6cc6805f-c0ca-4585-bdf1-b5a0339762b0"},"vehicle_type_id":"4","last_reported":1733847151,"current_range_meters":0,"station_id":"","pricing_plan_id":"cebpf4jnsgd1na2vs0mg"},{"bike_id":"bb6131e3-4a72-4b3f-b529-873204563d38","system_id":"levelo_inurba_marseille","lat":43.29432,"lon":5.39759,"is_reserved":false,"is_disabled":true,"rental_uris":{"android":"levelo://app?vid=bb6131e3-4a72-4b3f-b529-873204563d38","ios":"levelo://app?vid=bb6131e3-4a72-4b3f-b529-873204563d38"},"vehicle_type_id":"4","last_reported":1733847151,"current_range_meters":400,"station_id":"ce4bh3h2rcd13ifvqdo0","pricing_plan_id":"cebpf4jnsgd1na2vs0mg"},{"bike_id":"e069ac01-6fd1-4791-b354-d75427625257","system_id":"levelo_inurba_marseille","lat":43.25002,"lon":5.38932,"is_reserved":false,"is_disabled":false,"rental_uris":{"android":"levelo://app?vid=e069ac01-6fd1-4791-b354-d75427625257","ios":"levelo://app?vid=e069ac01-6fd1-4791-b354-d75427625257"},"vehicle_type_id":"4","last_reported":1733847151,"current_range_meters":17200,"station_id":"ce4bhgp2rcd13ifvqfd0","pricing_plan_id":"cebpf4jnsgd1na2vs0mg"},{"bike_id":"9f03dca4-237a-49dc-8f4b-3b6a07909c99","system_id":"levelo_inurba_marseille","lat":43.23194,"lon":5.35555,"is_reserved":false,"is_disabled":false,"rental_uris":{"android":"levelo://app?vid=9f03dca4-237a-49dc-8f4b-3b6a07909c99","ios":"levelo://app?vid=9f03dca4-237a-49dc-8f4b-3b6a07909c99"},"vehicle_type_id":"4","last_reported":1733847151,"current_range_meters":37600,"station_id":"ce4bhu92rcd13ifvqi70","pricing_plan_id":"cebpf4jnsgd1na2vs0mg"},{"bike_id":"d0e9b0d9-b932-4d84-83c8-f81795e05f31","system_id":"levelo_inurba_marseille","lat":43.28479,"lon":5.38425,"is_reserved":false,"is_disabled":true,"rental_uris":{"android":"levelo://app?vid=d0e9b0d9-b932-4d84-83c8-f81795e05f31","ios":"levelo://app?vid=d0e9b0d9-b932-4d84-83c8-f81795e05f31"},"vehicle_type_id":"4","last_reported":1733847151,"current_range_meters":3200,"station_id":"ce4bh512rcd13ifvqe3g","pricing_plan_id":"cebpf4jnsgd1na2vs0mg"},{"bike_id":"253cb89a-06eb-4683-92cd-38429973b9ba","system_id":"levelo_inurba_marseille","lat":43.24807,"lon":5.37458,"is_reserved":false,"is_disabled":false,"rental_uris":{"android":"levelo://app?vid=253cb89a-06eb-4683-92cd-38429973b9ba","ios":"levelo://app?vid=253cb89a-06eb-4683-92cd-38429973b9ba"},"vehicle_type_id":"4","last_reported":1733847151,"current_range_meters":16000,"station_id":"ce4bhgh2rcd13ifvqfb0","pricing_plan_id":"cebpf4jnsgd1na2vs0mg"},{"bike_id":"65c83b21-fbdc-4dce-a932-7a5d95e3d472","system_id":"levelo_inurba_marseille","lat":43.301404,"lon":5.374232,"is_reserved":false,"is_disabled":false,"rental_uris":{"android":"levelo://app?vid=65c83b21-fbdc-4dce-a932-7a5d95e3d472","ios":"levelo://app?vid=65c83b21-fbdc-4dce-a932-7a5d95e3d472"},"vehicle_type_id":"4","last_reported":1733847151,"current_range_meters":9200,"station_id":"ce4bgs92rcd13ifvqcc0","pricing_plan_id":"cebpf4jnsgd1na2vs0mg"},{"bike_id":"328402e4-7a7c-4cfd-9a17-1a00a6d0b963","system_id":"levelo_inurba_marseille","lat":43.3108,"lon":5.42432,"is_reserved":false,"is_disabled":false,"rental_uris":{"android":"levelo://app?vid=328402e4-7a7c-4cfd-9a17-1a00a6d0b963","ios":"levelo://app?vid=328402e4-7a7c-4cfd-9a17-1a00a6d0b963"},"vehicle_type_id":"4","last_reported":1733847151,"current_range_meters":34000,"station_id":"ce4bhp92rcd13ifvqhag","pricing_plan_id":"cebpf4jnsgd1na2vs0mg"},{"bike_id":"1f79d3c5-4a16-4992-bfa2-d0413e34b4f6","system_id":"levelo_inurba_marseille","lat":43.26031,"lon":5.37552,"is_reserved":false,"is_disabled":false,"rental_uris":{"android":"levelo://app?vid=1f79d3c5-4a16-4992-bfa2-d0413e34b4f6","ios":"levelo://app?vid=1f79d3c5-4a16-4992-bfa2-d0413e34b4f6"},"vehicle_type_id":"4","last_reported":1733847151,"current_range_meters":39200,"station_id":"ce4bhgh2rcd13ifvqfa0","pricing_plan_id":"cebpf4jnsgd1na2vs0mg"},{"bike_id":"28ea0dce-b762-446b-970f-f3693c260d20","system_id":"levelo_inurba_marseille","lat":43.28451,"lon":5.35886,"is_reserved":false,"is_disabled":false,"rental_uris":{"android":"levelo://app?vid=28ea0dce-b762-446b-970f-f3693c260d20","ios":"levelo://app?vid=28ea0dce-b762-446b-970f-f3693c260d20"},"vehicle_type_id":"4","last_reported":1733847151,"current_range_meters":29600,"station_id":"ce4bhah2rcd13ifvqei0","pricing_plan_id":"cebpf4jnsgd1na2vs0mg"},{"bike_id":"71e5cc5f-dbe7-4c22-8fbb-13d337243911","system_id":"levelo_inurba_marseille","lat":43.30952,"lon":5.39033,"is_reserved":false,"is_disabled":true,"rental_uris":{"android":"levelo://app?vid=71e5cc5f-dbe7-4c22-8fbb-13d337243911","ios":"levelo://app?vid=71e5cc5f-dbe7-4c22-8fbb-13d337243911"},"vehicle_type_id":"4","last_reported":1733847151,"current_range_meters":800,"station_id":"ce4bgup2rcd13ifvqco0","pricing_plan_id":"cebpf4jnsgd1na2vs0mg"},{"bike_id":"5126f6c7-16e9-4afe-816e-e41841564274","system_id":"levelo_inurba_marseille","lat":43.29543,"lon":5.37497,"is_reserved":false,"is_disabled":false,"rental_uris":{"android":"levelo://app?vid=5126f6c7-16e9-4afe-816e-e41841564274","ios":"levelo://app?vid=5126f6c7-16e9-4afe-816e-e41841564274"},"vehicle_type_id":"4","last_reported":1733847151,"current_range_meters":24800,"station_id":"ce4bgkp2rcd13ifvqbmg","pricing_plan_id":"cebpf4jnsgd1na2vs0mg"},{"bike_id":"dd8874b8-dda6-4322-9a9b-440dfc27d930","system_id":"levelo_inurba_marseille","lat":43.26946,"lon":5.40256,"is_reserved":false,"is_disabled":false,"rental_uris":{"android":"levelo://app?vid=dd8874b8-dda6-4322-9a9b-440dfc27d930","ios":"levelo://app?vid=dd8874b8-dda6-4322-9a9b-440dfc27d930"},"vehicle_type_id":"4","last_reported":1733847151,"current_range_meters":3600,"station_id":"cjm6bp8fraef2m0cb0m0","pricing_plan_id":"cebpf4jnsgd1na2vs0mg"},{"bike_id":"b0a46ba0-c8bc-4621-808f-2274c3b3257e","system_id":"levelo_inurba_marseille","lat":43.32288,"lon":5.38271,"is_reserved":false,"is_disabled":false,"rental_uris":{"android":"levelo://app?vid=b0a46ba0-c8bc-4621-808f-2274c3b3257e","ios":"levelo://app?vid=b0a46ba0-c8bc-4621-808f-2274c3b3257e"},"vehicle_type_id":"4","last_reported":1733847151,"current_range_meters":38800,"station_id":"ce4bhr12rcd13ifvqhqg","pricing_plan_id":"cebpf4jnsgd1na2vs0mg"},{"bike_id":"72369e3c-7a31-4199-a732-76fa73093ac4","system_id":"levelo_inurba_marseille","lat":43.31341,"lon":5.36704,"is_reserved":false,"is_disabled":true,"rental_uris":{"android":"levelo://app?vid=72369e3c-7a31-4199-a732-76fa73093ac4","ios":"levelo://app?vid=72369e3c-7a31-4199-a732-76fa73093ac4"},"vehicle_type_id":"4","last_reported":1733847151,"current_range_meters":23200,"station_id":"ce4bgr92rcd13ifvqc6g","pricing_plan_id":"cebpf4jnsgd1na2vs0mg"},{"bike_id":"94fd1857-87a7-465b-8a7a-cc24038b7742","system_id":"levelo_inurba_marseille","lat":43.33028,"lon":5.39045,"is_reserved":false,"is_disabled":false,"rental_uris":{"android":"levelo://app?vid=94fd1857-87a7-465b-8a7a-cc24038b7742","ios":"levelo://app?vid=94fd1857-87a7-465b-8a7a-cc24038b7742"},"vehicle_type_id":"4","last_reported":1733847151,"current_range_meters":8800,"station_id":"ce4bhr92rcd13ifvqhrg","pricing_plan_id":"cebpf4jnsgd1na2vs0mg"},{"bike_id":"b6713112-3e17-4cc5-b622-27478e806336","system_id":"levelo_inurba_marseille","lat":43.25722,"lon":5.41107,"is_reserved":false,"is_disabled":false,"rental_uris":{"android":"levelo://app?vid=b6713112-3e17-4cc5-b622-27478e806336","ios":"levelo://app?vid=b6713112-3e17-4cc5-b622-27478e806336"},"vehicle_type_id":"4","last_reported":1733847151,"current_range_meters":6400,"station_id":"ce4bhkp2rcd13ifvqgd0","pricing_plan_id":"cebpf4jnsgd1na2vs0mg"},{"bike_id":"9d5ec257-ef95-4ddc-a311-fb7ff202dd60","system_id":"levelo_inurba_marseille","lat":43.28697,"lon":5.39992,"is_reserved":false,"is_disabled":false,"rental_uris":{"android":"levelo://app?vid=9d5ec257-ef95-4ddc-a311-fb7ff202dd60","ios":"levelo://app?vid=9d5ec257-ef95-4ddc-a311-fb7ff202dd60"},"vehicle_type_id":"4","last_reported":1733847151,"current_range_meters":32800,"station_id":"ce4bho92rcd13ifvqh3g","pricing_plan_id":"cebpf4jnsgd1na2vs0mg"},{"bike_id":"da1aefdb-caf1-4155-81fa-858ff49c920b","system_id":"levelo_inurba_marseille","lat":43.26212,"lon":5.37441,"is_reserved":false,"is_disabled":false,"rental_uris":{"android":"levelo://app?vid=da1aefdb-caf1-4155-81fa-858ff49c920b","ios":"levelo://app?vid=da1aefdb-caf1-4155-81fa-858ff49c920b"},"vehicle_type_id":"4","last_reported":1733847151,"current_range_meters":38800,"station_id":"ce4bhgp2rcd13ifvqfc0","pricing_plan_id":"cebpf4jnsgd1na2vs0mg"},{"bike_id":"8f06c957-ef76-4afc-bc51-a6b6cb8863e6","system_id":"levelo_inurba_marseille","lat":43.25087,"lon":5.3952,"is_reserved":false,"is_disabled":false,"rental_uris":{"android":"levelo://app?vid=8f06c957-ef76-4afc-bc51-a6b6cb8863e6","ios":"levelo://app?vid=8f06c957-ef76-4afc-bc51-a6b6cb8863e6"},"vehicle_type_id":"4","last_reported":1733847151,"current_range_meters":36800,"station_id":"ce4bhm12rcd13ifvqgkg","pricing_plan_id":"cebpf4jnsgd1na2vs0mg"},{"bike_id":"96bdb45b-90a6-4bf7-990f-ce95350b9ede","system_id":"levelo_inurba_marseille","lat":43.28097,"lon":5.37845,"is_reserved":false,"is_disabled":true,"rental_uris":{"android":"levelo://app?vid=96bdb45b-90a6-4bf7-990f-ce95350b9ede","ios":"levelo://app?vid=96bdb45b-90a6-4bf7-990f-ce95350b9ede"},"vehicle_type_id":"4","last_reported":1733847151,"current_range_meters":0,"station_id":"ce4bha12rcd13ifvqee0","pricing_plan_id":"cebpf4jnsgd1na2vs0mg"},{"bike_id":"896d4ccf-3d83-4122-b2f2-1a77a517b0e7","system_id":"levelo_inurba_marseille","lat":43.23958,"lon":5.36632,"is_reserved":false,"is_disabled":false,"rental_uris":{"android":"levelo://app?vid=896d4ccf-3d83-4122-b2f2-1a77a517b0e7","ios":"levelo://app?vid=896d4ccf-3d83-4122-b2f2-1a77a517b0e7"},"vehicle_type_id":"4","last_reported":1733847151,"current_range_meters":38800,"station_id":"ce4bhi12rcd13ifvqfp0","pricing_plan_id":"cebpf4jnsgd1na2vs0mg"},{"bike_id":"5ab05328-df2c-4301-8359-efac20f401a3","system_id":"levelo_inurba_marseille","lat":43.29357,"lon":5.3787,"is_reserved":false,"is_disabled":true,"rental_uris":{"android":"levelo://app?vid=5ab05328-df2c-4301-8359-efac20f401a3","ios":"levelo://app?vid=5ab05328-df2c-4301-8359-efac20f401a3"},"vehicle_type_id":"4","last_reported":1733847151,"current_range_meters":30000,"station_id":"ce4bgjh2rcd13ifvqbf0","pricing_plan_id":"cebpf4jnsgd1na2vs0mg"},{"bike_id":"6f238e05-aeb1-4d50-9b48-c4d94c08b9cc","system_id":"levelo_inurba_marseille","lat":43.278926,"lon":5.380373,"is_reserved":false,"is_disabled":false,"rental_uris":{"android":"levelo://app?vid=6f238e05-aeb1-4d50-9b48-c4d94c08b9cc","ios":"levelo://app?vid=6f238e05-aeb1-4d50-9b48-c4d94c08b9cc"},"vehicle_type_id":"4","last_reported":1733847151,"current_range_meters":7200,"station_id":"ce4bhf92rcd13ifvqf50","pricing_plan_id":"cebpf4jnsgd1na2vs0mg"},{"bike_id":"e536b925-1e73-44ed-bb91-eda722b70882","system_id":"levelo_inurba_marseille","lat":43.24995,"lon":5.38931,"is_reserved":false,"is_disabled":false,"rental_uris":{"android":"levelo://app?vid=e536b925-1e73-44ed-bb91-eda722b70882","ios":"levelo://app?vid=e536b925-1e73-44ed-bb91-eda722b70882"},"vehicle_type_id":"4","last_reported":1733847151,"current_range_meters":18000,"station_id":"ce4bhgp2rcd13ifvqfd0","pricing_plan_id":"cebpf4jnsgd1na2vs0mg"},{"bike_id":"86383499-5eec-4ae5-b72f-03854d87e7d0","system_id":"levelo_inurba_marseille","lat":43.29027,"lon":5.38647,"is_reserved":false,"is_disabled":false,"rental_uris":{"android":"levelo://app?vid=86383499-5eec-4ae5-b72f-03854d87e7d0","ios":"levelo://app?vid=86383499-5eec-4ae5-b72f-03854d87e7d0"},"vehicle_type_id":"4","last_reported":1733847151,"current_range_meters":39200,"station_id":"ce4bh4p2rcd13ifvqe0g","pricing_plan_id":"cebpf4jnsgd1na2vs0mg"},{"bike_id":"88675b6b-18ff-4c0c-b39a-0cf28901b90e","system_id":"levelo_inurba_marseille","lat":43.248,"lon":5.37456,"is_reserved":false,"is_disabled":false,"rental_uris":{"android":"levelo://app?vid=88675b6b-18ff-4c0c-b39a-0cf28901b90e","ios":"levelo://app?vid=88675b6b-18ff-4c0c-b39a-0cf28901b90e"},"vehicle_type_id":"4","last_reported":1733847151,"current_range_meters":38800,"station_id":"ce4bhgh2rcd13ifvqfb0","pricing_plan_id":"cebpf4jnsgd1na2vs0mg"},{"bike_id":"71ede6cb-3773-4924-948e-77ec53727c8f","system_id":"levelo_inurba_marseille","lat":43.31757,"lon":5.37615,"is_reserved":false,"is_disabled":false,"rental_uris":{"android":"levelo://app?vid=71ede6cb-3773-4924-948e-77ec53727c8f","ios":"levelo://app?vid=71ede6cb-3773-4924-948e-77ec53727c8f"},"vehicle_type_id":"4","last_reported":1733847151,"current_range_meters":38000,"station_id":"","pricing_plan_id":"cebpf4jnsgd1na2vs0mg"},{"bike_id":"33e48884-4b3d-4e17-8bfe-d8ab60a0c6ef","system_id":"levelo_inurba_marseille","lat":43.26063,"lon":5.39394,"is_reserved":false,"is_disabled":true,"rental_uris":{"android":"levelo://app?vid=33e48884-4b3d-4e17-8bfe-d8ab60a0c6ef","ios":"levelo://app?vid=33e48884-4b3d-4e17-8bfe-d8ab60a0c6ef"},"vehicle_type_id":"4","last_reported":1733847151,"current_range_meters":38400,"station_id":"ce4bhh92rcd13ifvqfj0","pricing_plan_id":"cebpf4jnsgd1na2vs0mg"},{"bike_id":"8a541c78-58b4-45d9-94a7-3d8383bc9bce","system_id":"levelo_inurba_marseille","lat":43.29413,"lon":5.38602,"is_reserved":false,"is_disabled":true,"rental_uris":{"android":"levelo://app?vid=8a541c78-58b4-45d9-94a7-3d8383bc9bce","ios":"levelo://app?vid=8a541c78-58b4-45d9-94a7-3d8383bc9bce"},"vehicle_type_id":"4","last_reported":1733847151,"current_range_meters":16400,"station_id":"ce4bh2h2rcd13ifvqdh0","pricing_plan_id":"cebpf4jnsgd1na2vs0mg"},{"bike_id":"3252d2d0-c1d6-484e-9d55-1152a8078dd3","system_id":"levelo_inurba_marseille","lat":43.29054,"lon":5.35919,"is_reserved":false,"is_disabled":false,"rental_uris":{"android":"levelo://app?vid=3252d2d0-c1d6-484e-9d55-1152a8078dd3","ios":"levelo://app?vid=3252d2d0-c1d6-484e-9d55-1152a8078dd3"},"vehicle_type_id":"4","last_reported":1733847151,"current_range_meters":38800,"station_id":"ce4bha92rcd13ifvqeg0","pricing_plan_id":"cebpf4jnsgd1na2vs0mg"},{"bike_id":"f01e87de-9596-4b23-b7c0-546801841d7c","system_id":"levelo_inurba_marseille","lat":43.29035,"lon":5.38649,"is_reserved":false,"is_disabled":false,"rental_uris":{"android":"levelo://app?vid=f01e87de-9596-4b23-b7c0-546801841d7c","ios":"levelo://app?vid=f01e87de-9596-4b23-b7c0-546801841d7c"},"vehicle_type_id":"4","last_reported":1733847151,"current_range_meters":33600,"station_id":"ce4bh4p2rcd13ifvqe0g","pricing_plan_id":"cebpf4jnsgd1na2vs0mg"},{"bike_id":"9e533191-da82-438a-a837-b070786255db","system_id":"levelo_inurba_marseille","lat":43.23969,"lon":5.36625,"is_reserved":false,"is_disabled":false,"rental_uris":{"android":"levelo://app?vid=9e533191-da82-438a-a837-b070786255db","ios":"levelo://app?vid=9e533191-da82-438a-a837-b070786255db"},"vehicle_type_id":"4","last_reported":1733847151,"current_range_meters":39200,"station_id":"ce4bhi12rcd13ifvqfp0","pricing_plan_id":"cebpf4jnsgd1na2vs0mg"},{"bike_id":"cfc5179a-0663-4a5f-8169-035ebaf55cc4","system_id":"levelo_inurba_marseille","lat":43.31528,"lon":5.38037,"is_reserved":false,"is_disabled":false,"rental_uris":{"android":"levelo://app?vid=cfc5179a-0663-4a5f-8169-035ebaf55cc4","ios":"levelo://app?vid=cfc5179a-0663-4a5f-8169-035ebaf55cc4"},"vehicle_type_id":"4","last_reported":1733847151,"current_range_meters":18000,"station_id":"ce4bhsp2rcd13ifvqi50","pricing_plan_id":"cebpf4jnsgd1na2vs0mg"},{"bike_id":"f1e1b83c-6b4c-4d52-9b3f-becfd8274a79","system_id":"levelo_inurba_marseille","lat":43.24998,"lon":5.38938,"is_reserved":false,"is_disabled":false,"rental_uris":{"android":"levelo://app?vid=f1e1b83c-6b4c-4d52-9b3f-becfd8274a79","ios":"levelo://app?vid=f1e1b83c-6b4c-4d52-9b3f-becfd8274a79"},"vehicle_type_id":"4","last_reported":1733847151,"current_range_meters":38400,"station_id":"ce4bhgp2rcd13ifvqfd0","pricing_plan_id":"cebpf4jnsgd1na2vs0mg"},{"bike_id":"be2932e9-b9ec-4de9-b906-f26df2926dfe","system_id":"levelo_inurba_marseille","lat":43.29005,"lon":5.35623,"is_reserved":false,"is_disabled":false,"rental_uris":{"android":"levelo://app?vid=be2932e9-b9ec-4de9-b906-f26df2926dfe","ios":"levelo://app?vid=be2932e9-b9ec-4de9-b906-f26df2926dfe"},"vehicle_type_id":"4","last_reported":1733847151,"current_range_meters":38800,"station_id":"ce4bhb92rcd13ifvqen0","pricing_plan_id":"cebpf4jnsgd1na2vs0mg"},{"bike_id":"e0251b32-b340-44b9-a685-42a1e27fe71d","system_id":"levelo_inurba_marseille","lat":43.25737,"lon":5.41107,"is_reserved":false,"is_disabled":true,"rental_uris":{"android":"levelo://app?vid=e0251b32-b340-44b9-a685-42a1e27fe71d","ios":"levelo://app?vid=e0251b32-b340-44b9-a685-42a1e27fe71d"},"vehicle_type_id":"4","last_reported":1733847151,"current_range_meters":0,"station_id":"ce4bhkp2rcd13ifvqgd0","pricing_plan_id":"cebpf4jnsgd1na2vs0mg"},{"bike_id":"feb8df89-ec90-4db2-83c1-1276a81a894e","system_id":"levelo_inurba_marseille","lat":43.29032,"lon":5.37554,"is_reserved":false,"is_disabled":true,"rental_uris":{"android":"levelo://app?vid=feb8df89-ec90-4db2-83c1-1276a81a894e","ios":"levelo://app?vid=feb8df89-ec90-4db2-83c1-1276a81a894e"},"vehicle_type_id":"4","last_reported":1733847151,"current_range_meters":6800,"station_id":"ce4bh692rcd13ifvqe90","pricing_plan_id":"cebpf4jnsgd1na2vs0mg"},{"bike_id":"2481dc09-09d8-47c5-b803-f3302c727412","system_id":"levelo_inurba_marseille","lat":43.27069,"lon":5.42277,"is_reserved":false,"is_disabled":false,"rental_uris":{"android":"levelo://app?vid=2481dc09-09d8-47c5-b803-f3302c727412","ios":"levelo://app?vid=2481dc09-09d8-47c5-b803-f3302c727412"},"vehicle_type_id":"4","last_reported":1733847151,"current_range_meters":38800,"station_id":"ce4bhk92rcd13ifvqgb0","pricing_plan_id":"cebpf4jnsgd1na2vs0mg"},{"bike_id":"6fe0577c-0308-48d1-ab62-1acfedf9ff4f","system_id":"levelo_inurba_marseille","lat":43.28512,"lon":5.38426,"is_reserved":false,"is_disabled":false,"rental_uris":{"android":"levelo://app?vid=6fe0577c-0308-48d1-ab62-1acfedf9ff4f","ios":"levelo://app?vid=6fe0577c-0308-48d1-ab62-1acfedf9ff4f"},"vehicle_type_id":"4","last_reported":1733847151,"current_range_meters":14800,"station_id":"ce4bh512rcd13ifvqe3g","pricing_plan_id":"cebpf4jnsgd1na2vs0mg"},{"bike_id":"b135bff0-8e87-4e47-af7a-2fa72d222280","system_id":"levelo_inurba_marseille","lat":43.2572,"lon":5.41113,"is_reserved":false,"is_disabled":false,"rental_uris":{"android":"levelo://app?vid=b135bff0-8e87-4e47-af7a-2fa72d222280","ios":"levelo://app?vid=b135bff0-8e87-4e47-af7a-2fa72d222280"},"vehicle_type_id":"4","last_reported":1733847151,"current_range_meters":32800,"station_id":"ce4bhkp2rcd13ifvqgd0","pricing_plan_id":"cebpf4jnsgd1na2vs0mg"},{"bike_id":"be7c7a47-dd3b-4609-ad73-2dad515e9c55","system_id":"levelo_inurba_marseille","lat":43.29714,"lon":5.36605,"is_reserved":false,"is_disabled":false,"rental_uris":{"android":"levelo://app?vid=be7c7a47-dd3b-4609-ad73-2dad515e9c55","ios":"levelo://app?vid=be7c7a47-dd3b-4609-ad73-2dad515e9c55"},"vehicle_type_id":"4","last_reported":1733847151,"current_range_meters":38800,"station_id":"ce4bgn12rcd13ifvqbt0","pricing_plan_id":"cebpf4jnsgd1na2vs0mg"},{"bike_id":"24038e93-6c8d-4dcb-8949-05294cdd45c2","system_id":"levelo_inurba_marseille","lat":43.26031,"lon":5.37545,"is_reserved":false,"is_disabled":false,"rental_uris":{"android":"levelo://app?vid=24038e93-6c8d-4dcb-8949-05294cdd45c2","ios":"levelo://app?vid=24038e93-6c8d-4dcb-8949-05294cdd45c2"},"vehicle_type_id":"4","last_reported":1733847151,"current_range_meters":38800,"station_id":"ce4bhgh2rcd13ifvqfa0","pricing_plan_id":"cebpf4jnsgd1na2vs0mg"},{"bike_id":"80fbd5c4-3bb4-4169-9ea9-000f0824025d","system_id":"levelo_inurba_marseille","lat":43.27917,"lon":5.39586,"is_reserved":false,"is_disabled":false,"rental_uris":{"android":"levelo://app?vid=80fbd5c4-3bb4-4169-9ea9-000f0824025d","ios":"levelo://app?vid=80fbd5c4-3bb4-4169-9ea9-000f0824025d"},"vehicle_type_id":"4","last_reported":1733847151,"current_range_meters":37600,"station_id":"ce4bhf92rcd13ifvqf40","pricing_plan_id":"cebpf4jnsgd1na2vs0mg"},{"bike_id":"1b2d4db1-cec0-4376-9abf-f3b964e5dcb7","system_id":"levelo_inurba_marseille","lat":43.23189,"lon":5.35541,"is_reserved":false,"is_disabled":false,"rental_uris":{"android":"levelo://app?vid=1b2d4db1-cec0-4376-9abf-f3b964e5dcb7","ios":"levelo://app?vid=1b2d4db1-cec0-4376-9abf-f3b964e5dcb7"},"vehicle_type_id":"4","last_reported":1733847151,"current_range_meters":39200,"station_id":"ce4bhu92rcd13ifvqi70","pricing_plan_id":"cebpf4jnsgd1na2vs0mg"},{"bike_id":"250067ad-4061-4d3b-abcb-afdebfcfdab8","system_id":"levelo_inurba_marseille","lat":43.30643,"lon":5.40076,"is_reserved":false,"is_disabled":true,"rental_uris":{"android":"levelo://app?vid=250067ad-4061-4d3b-abcb-afdebfcfdab8","ios":"levelo://app?vid=250067ad-4061-4d3b-abcb-afdebfcfdab8"},"vehicle_type_id":"4","last_reported":1733847151,"current_range_meters":0,"station_id":"ce4bh112rcd13ifvqda0","pricing_plan_id":"cebpf4jnsgd1na2vs0mg"},{"bike_id":"e867e4df-bdaf-4905-9f4f-695c75d7fdb0","system_id":"levelo_inurba_marseille","lat":43.26218,"lon":5.37436,"is_reserved":false,"is_disabled":false,"rental_uris":{"android":"levelo://app?vid=e867e4df-bdaf-4905-9f4f-695c75d7fdb0","ios":"levelo://app?vid=e867e4df-bdaf-4905-9f4f-695c75d7fdb0"},"vehicle_type_id":"4","last_reported":1733847151,"current_range_meters":39200,"station_id":"ce4bhgp2rcd13ifvqfc0","pricing_plan_id":"cebpf4jnsgd1na2vs0mg"},{"bike_id":"48e46c40-24b1-4cf5-90ba-ac0d2c51c8d8","system_id":"levelo_inurba_marseille","lat":43.28716,"lon":5.37922,"is_reserved":false,"is_disabled":false,"rental_uris":{"android":"levelo://app?vid=48e46c40-24b1-4cf5-90ba-ac0d2c51c8d8","ios":"levelo://app?vid=48e46c40-24b1-4cf5-90ba-ac0d2c51c8d8"},"vehicle_type_id":"4","last_reported":1733847151,"current_range_meters":4400,"station_id":"ce4bh9p2rcd13ifvqec0","pricing_plan_id":"cebpf4jnsgd1na2vs0mg"},{"bike_id":"6811f6ed-bf93-4519-b370-d607a1909b8c","system_id":"levelo_inurba_marseille","lat":43.25584,"lon":5.38237,"is_reserved":false,"is_disabled":false,"rental_uris":{"android":"levelo://app?vid=6811f6ed-bf93-4519-b370-d607a1909b8c","ios":"levelo://app?vid=6811f6ed-bf93-4519-b370-d607a1909b8c"},"vehicle_type_id":"4","last_reported":1733847151,"current_range_meters":19200,"station_id":"ce4bhih2rcd13ifvqfs0","pricing_plan_id":"cebpf4jnsgd1na2vs0mg"},{"bike_id":"a8d569c2-a624-46a2-971f-bfc933f69580","system_id":"levelo_inurba_marseille","lat":43.28482,"lon":5.38552,"is_reserved":false,"is_disabled":false,"rental_uris":{"android":"levelo://app?vid=a8d569c2-a624-46a2-971f-bfc933f69580","ios":"levelo://app?vid=a8d569c2-a624-46a2-971f-bfc933f69580"},"vehicle_type_id":"4","last_reported":1733847151,"current_range_meters":31200,"station_id":"ce4bh8p2rcd13ifvqeb0","pricing_plan_id":"cebpf4jnsgd1na2vs0mg"},{"bike_id":"5d9d33ed-3cf9-4f40-bcf4-4fd075009d99","system_id":"levelo_inurba_marseille","lat":43.2694,"lon":5.40255,"is_reserved":false,"is_disabled":false,"rental_uris":{"android":"levelo://app?vid=5d9d33ed-3cf9-4f40-bcf4-4fd075009d99","ios":"levelo://app?vid=5d9d33ed-3cf9-4f40-bcf4-4fd075009d99"},"vehicle_type_id":"4","last_reported":1733847151,"current_range_meters":38800,"station_id":"cjm6bp8fraef2m0cb0m0","pricing_plan_id":"cebpf4jnsgd1na2vs0mg"},{"bike_id":"e2e5fff8-dab3-4021-a87d-3c7c833d47d1","system_id":"levelo_inurba_marseille","lat":43.2621,"lon":5.37453,"is_reserved":false,"is_disabled":true,"rental_uris":{"android":"levelo://app?vid=e2e5fff8-dab3-4021-a87d-3c7c833d47d1","ios":"levelo://app?vid=e2e5fff8-dab3-4021-a87d-3c7c833d47d1"},"vehicle_type_id":"4","last_reported":1733847151,"current_range_meters":8400,"station_id":"ce4bhgp2rcd13ifvqfc0","pricing_plan_id":"cebpf4jnsgd1na2vs0mg"},{"bike_id":"7514894c-4b42-4402-ba7d-33a25549c829","system_id":"levelo_inurba_marseille","lat":43.25861,"lon":5.39902,"is_reserved":false,"is_disabled":false,"rental_uris":{"android":"levelo://app?vid=7514894c-4b42-4402-ba7d-33a25549c829","ios":"levelo://app?vid=7514894c-4b42-4402-ba7d-33a25549c829"},"vehicle_type_id":"4","last_reported":1733847151,"current_range_meters":24800,"station_id":"ce4bhl92rcd13ifvqghg","pricing_plan_id":"cebpf4jnsgd1na2vs0mg"},{"bike_id":"e927f7a0-7245-4bfb-a44a-db2e4bc13c63","system_id":"levelo_inurba_marseille","lat":43.27187,"lon":5.40994,"is_reserved":false,"is_disabled":false,"rental_uris":{"android":"levelo://app?vid=e927f7a0-7245-4bfb-a44a-db2e4bc13c63","ios":"levelo://app?vid=e927f7a0-7245-4bfb-a44a-db2e4bc13c63"},"vehicle_type_id":"4","last_reported":1733847151,"current_range_meters":16000,"station_id":"ce4bhl12rcd13ifvqgf0","pricing_plan_id":"cebpf4jnsgd1na2vs0mg"},{"bike_id":"64dafb22-107e-474a-b724-655a918df09f","system_id":"levelo_inurba_marseille","lat":43.29417,"lon":5.38625,"is_reserved":false,"is_disabled":false,"rental_uris":{"android":"levelo://app?vid=64dafb22-107e-474a-b724-655a918df09f","ios":"levelo://app?vid=64dafb22-107e-474a-b724-655a918df09f"},"vehicle_type_id":"4","last_reported":1733847151,"current_range_meters":32400,"station_id":"ce4bh2h2rcd13ifvqdh0","pricing_plan_id":"cebpf4jnsgd1na2vs0mg"},{"bike_id":"a4be6f92-a486-4066-8721-45d68bc2e82f","system_id":"levelo_inurba_marseille","lat":43.290034,"lon":5.356235,"is_reserved":false,"is_disabled":false,"rental_uris":{"android":"levelo://app?vid=a4be6f92-a486-4066-8721-45d68bc2e82f","ios":"levelo://app?vid=a4be6f92-a486-4066-8721-45d68bc2e82f"},"vehicle_type_id":"4","last_reported":1733847151,"current_range_meters":8800,"station_id":"ce4bhb92rcd13ifvqen0","pricing_plan_id":"cebpf4jnsgd1na2vs0mg"},{"bike_id":"6f73a1c0-97f3-47c2-a1d9-f0d7ea786a64","system_id":"levelo_inurba_marseille","lat":43.29787,"lon":5.3809,"is_reserved":false,"is_disabled":false,"rental_uris":{"android":"levelo://app?vid=6f73a1c0-97f3-47c2-a1d9-f0d7ea786a64","ios":"levelo://app?vid=6f73a1c0-97f3-47c2-a1d9-f0d7ea786a64"},"vehicle_type_id":"4","last_reported":1733847151,"current_range_meters":16800,"station_id":"ce4bgip2rcd13ifvqbb0","pricing_plan_id":"cebpf4jnsgd1na2vs0mg"},{"bike_id":"3ec42cca-2443-4977-a372-c9bb6f045a83","system_id":"levelo_inurba_marseille","lat":43.29033,"lon":5.35935,"is_reserved":false,"is_disabled":false,"rental_uris":{"android":"levelo://app?vid=3ec42cca-2443-4977-a372-c9bb6f045a83","ios":"levelo://app?vid=3ec42cca-2443-4977-a372-c9bb6f045a83"},"vehicle_type_id":"4","last_reported":1733847151,"current_range_meters":15200,"station_id":"ce4bha92rcd13ifvqeg0","pricing_plan_id":"cebpf4jnsgd1na2vs0mg"},{"bike_id":"08e46dca-c7ab-473d-8cd7-0439ec94df64","system_id":"levelo_inurba_marseille","lat":43.27204,"lon":5.39191,"is_reserved":false,"is_disabled":true,"rental_uris":{"android":"levelo://app?vid=08e46dca-c7ab-473d-8cd7-0439ec94df64","ios":"levelo://app?vid=08e46dca-c7ab-473d-8cd7-0439ec94df64"},"vehicle_type_id":"4","last_reported":1733847151,"current_range_meters":16800,"station_id":"ce4bhhp2rcd13ifvqfm0","pricing_plan_id":"cebpf4jnsgd1na2vs0mg"},{"bike_id":"16c7ecb0-580e-4357-a617-034686f06423","system_id":"levelo_inurba_marseille","lat":43.27816,"lon":5.40716,"is_reserved":false,"is_disabled":false,"rental_uris":{"android":"levelo://app?vid=16c7ecb0-580e-4357-a617-034686f06423","ios":"levelo://app?vid=16c7ecb0-580e-4357-a617-034686f06423"},"vehicle_type_id":"4","last_reported":1733847151,"current_range_meters":16000,"station_id":"ce4bhnh2rcd13ifvqgtg","pricing_plan_id":"cebpf4jnsgd1na2vs0mg"},{"bike_id":"3c73ed84-a8bd-40cb-8e87-c831744ddcf7","system_id":"levelo_inurba_marseille","lat":43.3236,"lon":5.38892,"is_reserved":false,"is_disabled":false,"rental_uris":{"android":"levelo://app?vid=3c73ed84-a8bd-40cb-8e87-c831744ddcf7","ios":"levelo://app?vid=3c73ed84-a8bd-40cb-8e87-c831744ddcf7"},"vehicle_type_id":"4","last_reported":1733847151,"current_range_meters":28000,"station_id":"ce4bhqp2rcd13ifvqhog","pricing_plan_id":"cebpf4jnsgd1na2vs0mg"},{"bike_id":"eb4e32cd-a02d-4e92-a013-1fdc0dd71ccb","system_id":"levelo_inurba_marseille","lat":43.324799,"lon":5.365716,"is_reserved":false,"is_disabled":true,"rental_uris":{"android":"levelo://app?vid=eb4e32cd-a02d-4e92-a013-1fdc0dd71ccb","ios":"levelo://app?vid=eb4e32cd-a02d-4e92-a013-1fdc0dd71ccb"},"vehicle_type_id":"4","last_reported":1733847151,"current_range_meters":0,"station_id":"","pricing_plan_id":"cebpf4jnsgd1na2vs0mg"},{"bike_id":"ad24f16e-2206-4a3c-9b57-73b59ffe17ba","system_id":"levelo_inurba_marseille","lat":43.241639,"lon":5.363839,"is_reserved":false,"is_disabled":false,"rental_uris":{"android":"levelo://app?vid=ad24f16e-2206-4a3c-9b57-73b59ffe17ba","ios":"levelo://app?vid=ad24f16e-2206-4a3c-9b57-73b59ffe17ba"},"vehicle_type_id":"4","last_reported":1733847151,"current_range_meters":34800,"station_id":"cpo36qri1sfpv3e86is0","pricing_plan_id":"cebpf4jnsgd1na2vs0mg"},{"bike_id":"421506d5-d95d-431f-b235-21732b1927af","system_id":"levelo_inurba_marseille","lat":43.30887,"lon":5.39638,"is_reserved":false,"is_disabled":false,"rental_uris":{"android":"levelo://app?vid=421506d5-d95d-431f-b235-21732b1927af","ios":"levelo://app?vid=421506d5-d95d-431f-b235-21732b1927af"},"vehicle_type_id":"4","last_reported":1733847151,"current_range_meters":36400,"station_id":"ce4bh012rcd13ifvqcv0","pricing_plan_id":"cebpf4jnsgd1na2vs0mg"},{"bike_id":"26924fb9-4179-4abe-8b03-e0d47c141d92","system_id":"levelo_inurba_marseille","lat":43.2718,"lon":5.40991,"is_reserved":false,"is_disabled":false,"rental_uris":{"android":"levelo://app?vid=26924fb9-4179-4abe-8b03-e0d47c141d92","ios":"levelo://app?vid=26924fb9-4179-4abe-8b03-e0d47c141d92"},"vehicle_type_id":"4","last_reported":1733847151,"current_range_meters":26800,"station_id":"ce4bhl12rcd13ifvqgf0","pricing_plan_id":"cebpf4jnsgd1na2vs0mg"},{"bike_id":"13413a55-efc9-4e48-bc2b-ad373df4b5d3","system_id":"levelo_inurba_marseille","lat":43.2481,"lon":5.37461,"is_reserved":false,"is_disabled":false,"rental_uris":{"android":"levelo://app?vid=13413a55-efc9-4e48-bc2b-ad373df4b5d3","ios":"levelo://app?vid=13413a55-efc9-4e48-bc2b-ad373df4b5d3"},"vehicle_type_id":"4","last_reported":1733847151,"current_range_meters":23200,"station_id":"ce4bhgh2rcd13ifvqfb0","pricing_plan_id":"cebpf4jnsgd1na2vs0mg"},{"bike_id":"2e51fb70-b1be-4661-b646-3870500c9133","system_id":"levelo_inurba_marseille","lat":43.29954,"lon":5.41337,"is_reserved":false,"is_disabled":false,"rental_uris":{"android":"levelo://app?vid=2e51fb70-b1be-4661-b646-3870500c9133","ios":"levelo://app?vid=2e51fb70-b1be-4661-b646-3870500c9133"},"vehicle_type_id":"4","last_reported":1733847151,"current_range_meters":33600,"station_id":"ce4bhp12rcd13ifvqh9g","pricing_plan_id":"cebpf4jnsgd1na2vs0mg"},{"bike_id":"7bdec345-eeec-47c0-a1aa-d0b0f44ab6d1","system_id":"levelo_inurba_marseille","lat":43.32661,"lon":5.40983,"is_reserved":false,"is_disabled":true,"rental_uris":{"android":"levelo://app?vid=7bdec345-eeec-47c0-a1aa-d0b0f44ab6d1","ios":"levelo://app?vid=7bdec345-eeec-47c0-a1aa-d0b0f44ab6d1"},"vehicle_type_id":"4","last_reported":1733847151,"current_range_meters":38400,"station_id":"ce4bhpp2rcd13ifvqhgg","pricing_plan_id":"cebpf4jnsgd1na2vs0mg"},{"bike_id":"59a90aed-a8d4-4a75-8677-ec72cd13f880","system_id":"levelo_inurba_marseille","lat":43.29794,"lon":5.38098,"is_reserved":false,"is_disabled":false,"rental_uris":{"android":"levelo://app?vid=59a90aed-a8d4-4a75-8677-ec72cd13f880","ios":"levelo://app?vid=59a90aed-a8d4-4a75-8677-ec72cd13f880"},"vehicle_type_id":"4","last_reported":1733847151,"current_range_meters":37600,"station_id":"ce4bgip2rcd13ifvqbb0","pricing_plan_id":"cebpf4jnsgd1na2vs0mg"},{"bike_id":"2863ce18-1ca3-4f4a-8605-6fd859872139","system_id":"levelo_inurba_marseille","lat":43.2315,"lon":5.43722,"is_reserved":false,"is_disabled":true,"rental_uris":{"android":"levelo://app?vid=2863ce18-1ca3-4f4a-8605-6fd859872139","ios":"levelo://app?vid=2863ce18-1ca3-4f4a-8605-6fd859872139"},"vehicle_type_id":"4","last_reported":1733847151,"current_range_meters":800,"station_id":"ce4bhmp2rcd13ifvqgog","pricing_plan_id":"cebpf4jnsgd1na2vs0mg"},{"bike_id":"947ff2c2-b756-464d-a3ee-c1c94e7397ab","system_id":"levelo_inurba_marseille","lat":43.29038,"lon":5.37576,"is_reserved":false,"is_disabled":false,"rental_uris":{"android":"levelo://app?vid=947ff2c2-b756-464d-a3ee-c1c94e7397ab","ios":"levelo://app?vid=947ff2c2-b756-464d-a3ee-c1c94e7397ab"},"vehicle_type_id":"4","last_reported":1733847151,"current_range_meters":12000,"station_id":"ce4bh692rcd13ifvqe90","pricing_plan_id":"cebpf4jnsgd1na2vs0mg"},{"bike_id":"e56a6e39-bd42-464a-881e-5ab9a67ff515","system_id":"levelo_inurba_marseille","lat":43.28457,"lon":5.3589,"is_reserved":false,"is_disabled":false,"rental_uris":{"android":"levelo://app?vid=e56a6e39-bd42-464a-881e-5ab9a67ff515","ios":"levelo://app?vid=e56a6e39-bd42-464a-881e-5ab9a67ff515"},"vehicle_type_id":"4","last_reported":1733847151,"current_range_meters":26000,"station_id":"ce4bhah2rcd13ifvqei0","pricing_plan_id":"cebpf4jnsgd1na2vs0mg"},{"bike_id":"c758d2e6-4cef-4394-80e2-cb12ac93859a","system_id":"levelo_inurba_marseille","lat":43.25,"lon":5.38929,"is_reserved":false,"is_disabled":false,"rental_uris":{"android":"levelo://app?vid=c758d2e6-4cef-4394-80e2-cb12ac93859a","ios":"levelo://app?vid=c758d2e6-4cef-4394-80e2-cb12ac93859a"},"vehicle_type_id":"4","last_reported":1733847151,"current_range_meters":36400,"station_id":"ce4bhgp2rcd13ifvqfd0","pricing_plan_id":"cebpf4jnsgd1na2vs0mg"},{"bike_id":"0ccd581d-9c76-4795-b702-2d923b116e9d","system_id":"levelo_inurba_marseille","lat":43.27176,"lon":5.40987,"is_reserved":false,"is_disabled":false,"rental_uris":{"android":"levelo://app?vid=0ccd581d-9c76-4795-b702-2d923b116e9d","ios":"levelo://app?vid=0ccd581d-9c76-4795-b702-2d923b116e9d"},"vehicle_type_id":"4","last_reported":1733847151,"current_range_meters":30400,"station_id":"ce4bhl12rcd13ifvqgf0","pricing_plan_id":"cebpf4jnsgd1na2vs0mg"},{"bike_id":"b8d9eaaa-26d8-473c-8d35-8435f9741a69","system_id":"levelo_inurba_marseille","lat":43.27054,"lon":5.40262,"is_reserved":false,"is_disabled":false,"rental_uris":{"android":"levelo://app?vid=b8d9eaaa-26d8-473c-8d35-8435f9741a69","ios":"levelo://app?vid=b8d9eaaa-26d8-473c-8d35-8435f9741a69"},"vehicle_type_id":"4","last_reported":1733847151,"current_range_meters":7200,"station_id":"ce4bhk92rcd13ifvqgc0","pricing_plan_id":"cebpf4jnsgd1na2vs0mg"},{"bike_id":"cda007dd-06bb-4a86-b841-00a7ca3fac29","system_id":"levelo_inurba_marseille","lat":43.31753,"lon":5.39015,"is_reserved":false,"is_disabled":false,"rental_uris":{"android":"levelo://app?vid=cda007dd-06bb-4a86-b841-00a7ca3fac29","ios":"levelo://app?vid=cda007dd-06bb-4a86-b841-00a7ca3fac29"},"vehicle_type_id":"4","last_reported":1733847151,"current_range_meters":34800,"station_id":"ce4bhqp2rcd13ifvqhng","pricing_plan_id":"cebpf4jnsgd1na2vs0mg"},{"bike_id":"95d8628d-10b1-47e7-9a42-9b126ec315c6","system_id":"levelo_inurba_marseille","lat":43.23199,"lon":5.35547,"is_reserved":false,"is_disabled":false,"rental_uris":{"android":"levelo://app?vid=95d8628d-10b1-47e7-9a42-9b126ec315c6","ios":"levelo://app?vid=95d8628d-10b1-47e7-9a42-9b126ec315c6"},"vehicle_type_id":"4","last_reported":1733847151,"current_range_meters":24000,"station_id":"ce4bhu92rcd13ifvqi70","pricing_plan_id":"cebpf4jnsgd1na2vs0mg"},{"bike_id":"ff157558-4762-4775-8ebe-d59ef36bd776","system_id":"levelo_inurba_marseille","lat":43.26553,"lon":5.37291,"is_reserved":false,"is_disabled":false,"rental_uris":{"android":"levelo://app?vid=ff157558-4762-4775-8ebe-d59ef36bd776","ios":"levelo://app?vid=ff157558-4762-4775-8ebe-d59ef36bd776"},"vehicle_type_id":"4","last_reported":1733847151,"current_range_meters":12800,"station_id":"ce4bhg12rcd13ifvqf70","pricing_plan_id":"cebpf4jnsgd1na2vs0mg"},{"bike_id":"f3913043-72ae-4fb5-9ce8-a8a23602c53e","system_id":"levelo_inurba_marseille","lat":43.29549,"lon":5.42277,"is_reserved":false,"is_disabled":false,"rental_uris":{"android":"levelo://app?vid=f3913043-72ae-4fb5-9ce8-a8a23602c53e","ios":"levelo://app?vid=f3913043-72ae-4fb5-9ce8-a8a23602c53e"},"vehicle_type_id":"4","last_reported":1733847151,"current_range_meters":6400,"station_id":"ce4bhph2rcd13ifvqhdg","pricing_plan_id":"cebpf4jnsgd1na2vs0mg"},{"bike_id":"570bad79-da0a-4f0e-bd71-fcfb4fde31b3","system_id":"levelo_inurba_marseille","lat":43.23962,"lon":5.36624,"is_reserved":false,"is_disabled":true,"rental_uris":{"android":"levelo://app?vid=570bad79-da0a-4f0e-bd71-fcfb4fde31b3","ios":"levelo://app?vid=570bad79-da0a-4f0e-bd71-fcfb4fde31b3"},"vehicle_type_id":"4","last_reported":1733847151,"current_range_meters":32400,"station_id":"ce4bhi12rcd13ifvqfp0","pricing_plan_id":"cebpf4jnsgd1na2vs0mg"},{"bike_id":"0f20b602-7b45-4989-92b6-4d1c64ab5468","system_id":"levelo_inurba_marseille","lat":43.26554,"lon":5.3729,"is_reserved":false,"is_disabled":false,"rental_uris":{"android":"levelo://app?vid=0f20b602-7b45-4989-92b6-4d1c64ab5468","ios":"levelo://app?vid=0f20b602-7b45-4989-92b6-4d1c64ab5468"},"vehicle_type_id":"4","last_reported":1733847151,"current_range_meters":32800,"station_id":"ce4bhg12rcd13ifvqf70","pricing_plan_id":"cebpf4jnsgd1na2vs0mg"},{"bike_id":"dae46362-210d-47a5-97f9-24d889256979","system_id":"levelo_inurba_marseille","lat":43.24667,"lon":5.38164,"is_reserved":false,"is_disabled":false,"rental_uris":{"android":"levelo://app?vid=dae46362-210d-47a5-97f9-24d889256979","ios":"levelo://app?vid=dae46362-210d-47a5-97f9-24d889256979"},"vehicle_type_id":"4","last_reported":1733847151,"current_range_meters":9600,"station_id":"ce4bhih2rcd13ifvqfr0","pricing_plan_id":"cebpf4jnsgd1na2vs0mg"},{"bike_id":"8f223178-6a38-4832-a975-4b3ff773e01b","system_id":"levelo_inurba_marseille","lat":43.2737,"lon":5.36255,"is_reserved":false,"is_disabled":false,"rental_uris":{"android":"levelo://app?vid=8f223178-6a38-4832-a975-4b3ff773e01b","ios":"levelo://app?vid=8f223178-6a38-4832-a975-4b3ff773e01b"},"vehicle_type_id":"4","last_reported":1733847151,"current_range_meters":37600,"station_id":"ce4bhbh2rcd13ifvqeo0","pricing_plan_id":"cebpf4jnsgd1na2vs0mg"},{"bike_id":"cbfd30df-92a1-4613-85c3-bd3e0c0e855c","system_id":"levelo_inurba_marseille","lat":43.27423,"lon":5.39418,"is_reserved":false,"is_disabled":false,"rental_uris":{"android":"levelo://app?vid=cbfd30df-92a1-4613-85c3-bd3e0c0e855c","ios":"levelo://app?vid=cbfd30df-92a1-4613-85c3-bd3e0c0e855c"},"vehicle_type_id":"4","last_reported":1733847151,"current_range_meters":27600,"station_id":"ce4bhdp2rcd13ifvqf20","pricing_plan_id":"cebpf4jnsgd1na2vs0mg"},{"bike_id":"83a29b94-79d2-493d-a6e5-58dd07b35d88","system_id":"levelo_inurba_marseille","lat":43.28941,"lon":5.3641,"is_reserved":false,"is_disabled":false,"rental_uris":{"android":"levelo://app?vid=83a29b94-79d2-493d-a6e5-58dd07b35d88","ios":"levelo://app?vid=83a29b94-79d2-493d-a6e5-58dd07b35d88"},"vehicle_type_id":"4","last_reported":1733847151,"current_range_meters":37600,"station_id":"ce4bhc92rcd13ifvqetg","pricing_plan_id":"cebpf4jnsgd1na2vs0mg"},{"bike_id":"b8e7f883-5b9b-422d-81e9-d00c2442da3b","system_id":"levelo_inurba_marseille","lat":43.23064,"lon":5.35494,"is_reserved":false,"is_disabled":false,"rental_uris":{"android":"levelo://app?vid=b8e7f883-5b9b-422d-81e9-d00c2442da3b","ios":"levelo://app?vid=b8e7f883-5b9b-422d-81e9-d00c2442da3b"},"vehicle_type_id":"4","last_reported":1733847151,"current_range_meters":36000,"station_id":"cpo3342slgdg3j2ifvpg","pricing_plan_id":"cebpf4jnsgd1na2vs0mg"},{"bike_id":"f52ff9b0-e64e-4e88-8b9b-fc11cb0ff79d","system_id":"levelo_inurba_marseille","lat":43.30294,"lon":5.39224,"is_reserved":false,"is_disabled":false,"rental_uris":{"android":"levelo://app?vid=f52ff9b0-e64e-4e88-8b9b-fc11cb0ff79d","ios":"levelo://app?vid=f52ff9b0-e64e-4e88-8b9b-fc11cb0ff79d"},"vehicle_type_id":"4","last_reported":1733847151,"current_range_meters":25600,"station_id":"ce4bgkh2rcd13ifvqbk0","pricing_plan_id":"cebpf4jnsgd1na2vs0mg"},{"bike_id":"cd1c4fb4-8eac-4868-9420-a9389a6402c9","system_id":"levelo_inurba_marseille","lat":43.28457,"lon":5.35883,"is_reserved":false,"is_disabled":false,"rental_uris":{"android":"levelo://app?vid=cd1c4fb4-8eac-4868-9420-a9389a6402c9","ios":"levelo://app?vid=cd1c4fb4-8eac-4868-9420-a9389a6402c9"},"vehicle_type_id":"4","last_reported":1733847151,"current_range_meters":27600,"station_id":"ce4bhah2rcd13ifvqei0","pricing_plan_id":"cebpf4jnsgd1na2vs0mg"},{"bike_id":"aac345db-d41e-475c-a96f-986bffa1163f","system_id":"levelo_inurba_marseille","lat":43.29605,"lon":5.37714,"is_reserved":false,"is_disabled":true,"rental_uris":{"android":"levelo://app?vid=aac345db-d41e-475c-a96f-986bffa1163f","ios":"levelo://app?vid=aac345db-d41e-475c-a96f-986bffa1163f"},"vehicle_type_id":"4","last_reported":1733847151,"current_range_meters":27600,"station_id":"ce4bgi92rcd13ifvqb90","pricing_plan_id":"cebpf4jnsgd1na2vs0mg"},{"bike_id":"818d0ed5-f0d9-4a40-826a-820c5adcf15c","system_id":"levelo_inurba_marseille","lat":43.29013,"lon":5.35607,"is_reserved":false,"is_disabled":false,"rental_uris":{"android":"levelo://app?vid=818d0ed5-f0d9-4a40-826a-820c5adcf15c","ios":"levelo://app?vid=818d0ed5-f0d9-4a40-826a-820c5adcf15c"},"vehicle_type_id":"4","last_reported":1733847151,"current_range_meters":23200,"station_id":"ce4bhb92rcd13ifvqen0","pricing_plan_id":"cebpf4jnsgd1na2vs0mg"},{"bike_id":"f87303ee-9caf-4586-b597-f6df1e71f0f8","system_id":"levelo_inurba_marseille","lat":43.27918,"lon":5.41708,"is_reserved":false,"is_disabled":false,"rental_uris":{"android":"levelo://app?vid=f87303ee-9caf-4586-b597-f6df1e71f0f8","ios":"levelo://app?vid=f87303ee-9caf-4586-b597-f6df1e71f0f8"},"vehicle_type_id":"4","last_reported":1733847151,"current_range_meters":26800,"station_id":"","pricing_plan_id":"cebpf4jnsgd1na2vs0mg"},{"bike_id":"a0b44e86-9121-4df3-b62a-0fc9a0d1110c","system_id":"levelo_inurba_marseille","lat":43.23063,"lon":5.35497,"is_reserved":false,"is_disabled":false,"rental_uris":{"android":"levelo://app?vid=a0b44e86-9121-4df3-b62a-0fc9a0d1110c","ios":"levelo://app?vid=a0b44e86-9121-4df3-b62a-0fc9a0d1110c"},"vehicle_type_id":"4","last_reported":1733847151,"current_range_meters":36000,"station_id":"cpo3342slgdg3j2ifvpg","pricing_plan_id":"cebpf4jnsgd1na2vs0mg"},{"bike_id":"127262d1-6a7c-4722-a817-f0ae38c2b2d7","system_id":"levelo_inurba_marseille","lat":43.25492,"lon":5.37648,"is_reserved":false,"is_disabled":false,"rental_uris":{"android":"levelo://app?vid=127262d1-6a7c-4722-a817-f0ae38c2b2d7","ios":"levelo://app?vid=127262d1-6a7c-4722-a817-f0ae38c2b2d7"},"vehicle_type_id":"4","last_reported":1733847151,"current_range_meters":38800,"station_id":"ce4bhh12rcd13ifvqff0","pricing_plan_id":"cebpf4jnsgd1na2vs0mg"},{"bike_id":"19594726-b774-42c6-b374-90bf898070a5","system_id":"levelo_inurba_marseille","lat":43.27841,"lon":5.39219,"is_reserved":false,"is_disabled":false,"rental_uris":{"android":"levelo://app?vid=19594726-b774-42c6-b374-90bf898070a5","ios":"levelo://app?vid=19594726-b774-42c6-b374-90bf898070a5"},"vehicle_type_id":"4","last_reported":1733847151,"current_range_meters":8800,"station_id":"ce4bhjp2rcd13ifvqga0","pricing_plan_id":"cebpf4jnsgd1na2vs0mg"},{"bike_id":"eab7c24e-3533-4637-b397-5e46bc48ccfd","system_id":"levelo_inurba_marseille","lat":43.23136,"lon":5.43709,"is_reserved":false,"is_disabled":true,"rental_uris":{"android":"levelo://app?vid=eab7c24e-3533-4637-b397-5e46bc48ccfd","ios":"levelo://app?vid=eab7c24e-3533-4637-b397-5e46bc48ccfd"},"vehicle_type_id":"4","last_reported":1733847151,"current_range_meters":4800,"station_id":"ce4bhmp2rcd13ifvqgog","pricing_plan_id":"cebpf4jnsgd1na2vs0mg"},{"bike_id":"4f134551-d6f6-408e-b379-86a79e3625e6","system_id":"levelo_inurba_marseille","lat":43.29001,"lon":5.35604,"is_reserved":false,"is_disabled":false,"rental_uris":{"android":"levelo://app?vid=4f134551-d6f6-408e-b379-86a79e3625e6","ios":"levelo://app?vid=4f134551-d6f6-408e-b379-86a79e3625e6"},"vehicle_type_id":"4","last_reported":1733847151,"current_range_meters":32800,"station_id":"ce4bhb92rcd13ifvqen0","pricing_plan_id":"cebpf4jnsgd1na2vs0mg"},{"bike_id":"8897d085-dff9-4abf-852d-e2af5085a337","system_id":"levelo_inurba_marseille","lat":43.29705,"lon":5.37693,"is_reserved":false,"is_disabled":false,"rental_uris":{"android":"levelo://app?vid=8897d085-dff9-4abf-852d-e2af5085a337","ios":"levelo://app?vid=8897d085-dff9-4abf-852d-e2af5085a337"},"vehicle_type_id":"4","last_reported":1733847151,"current_range_meters":26000,"station_id":"ce4bgkh2rcd13ifvqbl0","pricing_plan_id":"cebpf4jnsgd1na2vs0mg"},{"bike_id":"f79dfedf-4b7e-408a-8387-e2820973acf1","system_id":"levelo_inurba_marseille","lat":43.31108,"lon":5.37766,"is_reserved":false,"is_disabled":false,"rental_uris":{"android":"levelo://app?vid=f79dfedf-4b7e-408a-8387-e2820973acf1","ios":"levelo://app?vid=f79dfedf-4b7e-408a-8387-e2820973acf1"},"vehicle_type_id":"4","last_reported":1733847151,"current_range_meters":22800,"station_id":"ce4bgt92rcd13ifvqcg0","pricing_plan_id":"cebpf4jnsgd1na2vs0mg"},{"bike_id":"7f739767-6908-4c49-adbc-724120315dbc","system_id":"levelo_inurba_marseille","lat":43.28462,"lon":5.3588,"is_reserved":false,"is_disabled":false,"rental_uris":{"android":"levelo://app?vid=7f739767-6908-4c49-adbc-724120315dbc","ios":"levelo://app?vid=7f739767-6908-4c49-adbc-724120315dbc"},"vehicle_type_id":"4","last_reported":1733847151,"current_range_meters":38400,"station_id":"ce4bhah2rcd13ifvqei0","pricing_plan_id":"cebpf4jnsgd1na2vs0mg"},{"bike_id":"dce24533-db40-4669-b637-8a10fc5678b1","system_id":"levelo_inurba_marseille","lat":43.30142,"lon":5.38763,"is_reserved":false,"is_disabled":true,"rental_uris":{"android":"levelo://app?vid=dce24533-db40-4669-b637-8a10fc5678b1","ios":"levelo://app?vid=dce24533-db40-4669-b637-8a10fc5678b1"},"vehicle_type_id":"4","last_reported":1733847151,"current_range_meters":0,"station_id":"ce4bhoh2rcd13ifvqh6g","pricing_plan_id":"cebpf4jnsgd1na2vs0mg"},{"bike_id":"962a96b4-3298-40d0-92e0-1b449f02c0fe","system_id":"levelo_inurba_marseille","lat":43.25494,"lon":5.37647,"is_reserved":false,"is_disabled":true,"rental_uris":{"android":"levelo://app?vid=962a96b4-3298-40d0-92e0-1b449f02c0fe","ios":"levelo://app?vid=962a96b4-3298-40d0-92e0-1b449f02c0fe"},"vehicle_type_id":"4","last_reported":1733847151,"current_range_meters":36400,"station_id":"ce4bhh12rcd13ifvqff0","pricing_plan_id":"cebpf4jnsgd1na2vs0mg"},{"bike_id":"ff5bb9bf-d755-4966-8ca8-091d07aad035","system_id":"levelo_inurba_marseille","lat":43.30555,"lon":5.36557,"is_reserved":false,"is_disabled":false,"rental_uris":{"android":"levelo://app?vid=ff5bb9bf-d755-4966-8ca8-091d07aad035","ios":"levelo://app?vid=ff5bb9bf-d755-4966-8ca8-091d07aad035"},"vehicle_type_id":"4","last_reported":1733847151,"current_range_meters":34000,"station_id":"ce4bgs12rcd13ifvqcag","pricing_plan_id":"cebpf4jnsgd1na2vs0mg"},{"bike_id":"ba5e4c54-9e0f-419d-acd3-894b4507a88b","system_id":"levelo_inurba_marseille","lat":43.23055,"lon":5.35487,"is_reserved":false,"is_disabled":false,"rental_uris":{"android":"levelo://app?vid=ba5e4c54-9e0f-419d-acd3-894b4507a88b","ios":"levelo://app?vid=ba5e4c54-9e0f-419d-acd3-894b4507a88b"},"vehicle_type_id":"4","last_reported":1733847151,"current_range_meters":25200,"station_id":"cpo3342slgdg3j2ifvpg","pricing_plan_id":"cebpf4jnsgd1na2vs0mg"},{"bike_id":"fa8a2b88-8be8-4274-924c-b66521c4f580","system_id":"levelo_inurba_marseille","lat":43.25723,"lon":5.41117,"is_reserved":false,"is_disabled":false,"rental_uris":{"android":"levelo://app?vid=fa8a2b88-8be8-4274-924c-b66521c4f580","ios":"levelo://app?vid=fa8a2b88-8be8-4274-924c-b66521c4f580"},"vehicle_type_id":"4","last_reported":1733847151,"current_range_meters":10000,"station_id":"ce4bhkp2rcd13ifvqgd0","pricing_plan_id":"cebpf4jnsgd1na2vs0mg"},{"bike_id":"e06e5287-be76-4baa-ada6-562edc6a5557","system_id":"levelo_inurba_marseille","lat":43.23177,"lon":5.39985,"is_reserved":false,"is_disabled":false,"rental_uris":{"android":"levelo://app?vid=e06e5287-be76-4baa-ada6-562edc6a5557","ios":"levelo://app?vid=e06e5287-be76-4baa-ada6-562edc6a5557"},"vehicle_type_id":"4","last_reported":1733847151,"current_range_meters":19200,"station_id":"ce4bhn12rcd13ifvqgqg","pricing_plan_id":"cebpf4jnsgd1na2vs0mg"},{"bike_id":"acc52d82-ca31-4768-93c8-ce4b1de6e78d","system_id":"levelo_inurba_marseille","lat":43.28277,"lon":5.35061,"is_reserved":false,"is_disabled":false,"rental_uris":{"android":"levelo://app?vid=acc52d82-ca31-4768-93c8-ce4b1de6e78d","ios":"levelo://app?vid=acc52d82-ca31-4768-93c8-ce4b1de6e78d"},"vehicle_type_id":"4","last_reported":1733847151,"current_range_meters":34000,"station_id":"ce4bhbp2rcd13ifvqerg","pricing_plan_id":"cebpf4jnsgd1na2vs0mg"},{"bike_id":"fffa14be-58a4-4d6c-9582-c535b5f77ae9","system_id":"levelo_inurba_marseille","lat":43.27373,"lon":5.36266,"is_reserved":false,"is_disabled":false,"rental_uris":{"android":"levelo://app?vid=fffa14be-58a4-4d6c-9582-c535b5f77ae9","ios":"levelo://app?vid=fffa14be-58a4-4d6c-9582-c535b5f77ae9"},"vehicle_type_id":"4","last_reported":1733847151,"current_range_meters":38800,"station_id":"ce4bhbh2rcd13ifvqeo0","pricing_plan_id":"cebpf4jnsgd1na2vs0mg"},{"bike_id":"155e4552-adf3-45a5-aa6c-6e25fcaf05e5","system_id":"levelo_inurba_marseille","lat":43.27167,"lon":5.4099,"is_reserved":false,"is_disabled":false,"rental_uris":{"android":"levelo://app?vid=155e4552-adf3-45a5-aa6c-6e25fcaf05e5","ios":"levelo://app?vid=155e4552-adf3-45a5-aa6c-6e25fcaf05e5"},"vehicle_type_id":"4","last_reported":1733847151,"current_range_meters":39200,"station_id":"ce4bhl12rcd13ifvqgf0","pricing_plan_id":"cebpf4jnsgd1na2vs0mg"},{"bike_id":"3933b701-ca82-4b18-a882-72a61c67a1e4","system_id":"levelo_inurba_marseille","lat":43.24392,"lon":5.3706,"is_reserved":false,"is_disabled":true,"rental_uris":{"android":"levelo://app?vid=3933b701-ca82-4b18-a882-72a61c67a1e4","ios":"levelo://app?vid=3933b701-ca82-4b18-a882-72a61c67a1e4"},"vehicle_type_id":"4","last_reported":1733847151,"current_range_meters":36800,"station_id":"ce4bhhh2rcd13ifvqfk0","pricing_plan_id":"cebpf4jnsgd1na2vs0mg"},{"bike_id":"a35a897c-265a-41da-a93a-f0adbe19f49c","system_id":"levelo_inurba_marseille","lat":43.29033,"lon":5.38648,"is_reserved":false,"is_disabled":false,"rental_uris":{"android":"levelo://app?vid=a35a897c-265a-41da-a93a-f0adbe19f49c","ios":"levelo://app?vid=a35a897c-265a-41da-a93a-f0adbe19f49c"},"vehicle_type_id":"4","last_reported":1733847151,"current_range_meters":30800,"station_id":"ce4bh4p2rcd13ifvqe0g","pricing_plan_id":"cebpf4jnsgd1na2vs0mg"},{"bike_id":"3ac9185e-9b03-41f1-907c-092d1ee49d0f","system_id":"levelo_inurba_marseille","lat":43.30885,"lon":5.39638,"is_reserved":false,"is_disabled":false,"rental_uris":{"android":"levelo://app?vid=3ac9185e-9b03-41f1-907c-092d1ee49d0f","ios":"levelo://app?vid=3ac9185e-9b03-41f1-907c-092d1ee49d0f"},"vehicle_type_id":"4","last_reported":1733847151,"current_range_meters":17600,"station_id":"ce4bh012rcd13ifvqcv0","pricing_plan_id":"cebpf4jnsgd1na2vs0mg"},{"bike_id":"3dac4165-5751-47ed-889d-7735dd5c4c86","system_id":"levelo_inurba_marseille","lat":43.29195,"lon":5.35807,"is_reserved":false,"is_disabled":false,"rental_uris":{"android":"levelo://app?vid=3dac4165-5751-47ed-889d-7735dd5c4c86","ios":"levelo://app?vid=3dac4165-5751-47ed-889d-7735dd5c4c86"},"vehicle_type_id":"4","last_reported":1733847151,"current_range_meters":33200,"station_id":"ce4bhb12rcd13ifvqel0","pricing_plan_id":"cebpf4jnsgd1na2vs0mg"},{"bike_id":"b5ac3237-ddee-4001-9fb8-97e3c6c983db","system_id":"levelo_inurba_marseille","lat":43.28847,"lon":5.35845,"is_reserved":false,"is_disabled":false,"rental_uris":{"android":"levelo://app?vid=b5ac3237-ddee-4001-9fb8-97e3c6c983db","ios":"levelo://app?vid=b5ac3237-ddee-4001-9fb8-97e3c6c983db"},"vehicle_type_id":"4","last_reported":1733847151,"current_range_meters":14800,"station_id":"ce4bhb12rcd13ifvqem0","pricing_plan_id":"cebpf4jnsgd1na2vs0mg"},{"bike_id":"f56ba547-4af4-4a9a-b700-d9d8cd771152","system_id":"levelo_inurba_marseille","lat":43.31274,"lon":5.40173,"is_reserved":false,"is_disabled":false,"rental_uris":{"android":"levelo://app?vid=f56ba547-4af4-4a9a-b700-d9d8cd771152","ios":"levelo://app?vid=f56ba547-4af4-4a9a-b700-d9d8cd771152"},"vehicle_type_id":"4","last_reported":1733847151,"current_range_meters":27600,"station_id":"ce4bh092rcd13ifvqd30","pricing_plan_id":"cebpf4jnsgd1na2vs0mg"},{"bike_id":"0b42083b-58f4-4cf9-9761-b7a6c06e3388","system_id":"levelo_inurba_marseille","lat":43.31182,"lon":5.38714,"is_reserved":false,"is_disabled":false,"rental_uris":{"android":"levelo://app?vid=0b42083b-58f4-4cf9-9761-b7a6c06e3388","ios":"levelo://app?vid=0b42083b-58f4-4cf9-9761-b7a6c06e3388"},"vehicle_type_id":"4","last_reported":1733847151,"current_range_meters":3200,"station_id":"ce4bgv12rcd13ifvqcp0","pricing_plan_id":"cebpf4jnsgd1na2vs0mg"},{"bike_id":"e1fda08d-d206-439e-bb5b-f0e13b88697c","system_id":"levelo_inurba_marseille","lat":43.30525,"lon":5.36545,"is_reserved":false,"is_disabled":false,"rental_uris":{"android":"levelo://app?vid=e1fda08d-d206-439e-bb5b-f0e13b88697c","ios":"levelo://app?vid=e1fda08d-d206-439e-bb5b-f0e13b88697c"},"vehicle_type_id":"4","last_reported":1733847151,"current_range_meters":26000,"station_id":"ce4bgs12rcd13ifvqcag","pricing_plan_id":"cebpf4jnsgd1na2vs0mg"},{"bike_id":"8ea2c49d-76f2-4d30-b97d-000c28822813","system_id":"levelo_inurba_marseille","lat":43.26193,"lon":5.37448,"is_reserved":false,"is_disabled":false,"rental_uris":{"android":"levelo://app?vid=8ea2c49d-76f2-4d30-b97d-000c28822813","ios":"levelo://app?vid=8ea2c49d-76f2-4d30-b97d-000c28822813"},"vehicle_type_id":"4","last_reported":1733847151,"current_range_meters":33200,"station_id":"ce4bhgp2rcd13ifvqfc0","pricing_plan_id":"cebpf4jnsgd1na2vs0mg"},{"bike_id":"6149d10a-ee53-4413-9592-38357ced78cb","system_id":"levelo_inurba_marseille","lat":43.26195,"lon":5.37455,"is_reserved":false,"is_disabled":true,"rental_uris":{"android":"levelo://app?vid=6149d10a-ee53-4413-9592-38357ced78cb","ios":"levelo://app?vid=6149d10a-ee53-4413-9592-38357ced78cb"},"vehicle_type_id":"4","last_reported":1733847151,"current_range_meters":35600,"station_id":"ce4bhgp2rcd13ifvqfc0","pricing_plan_id":"cebpf4jnsgd1na2vs0mg"},{"bike_id":"f03a0fd2-8b78-4caf-823d-2d72f29eb1fc","system_id":"levelo_inurba_marseille","lat":43.27185,"lon":5.40992,"is_reserved":false,"is_disabled":false,"rental_uris":{"android":"levelo://app?vid=f03a0fd2-8b78-4caf-823d-2d72f29eb1fc","ios":"levelo://app?vid=f03a0fd2-8b78-4caf-823d-2d72f29eb1fc"},"vehicle_type_id":"4","last_reported":1733847151,"current_range_meters":39200,"station_id":"ce4bhl12rcd13ifvqgf0","pricing_plan_id":"cebpf4jnsgd1na2vs0mg"},{"bike_id":"20e9db8d-d68b-4418-94af-d9d63f8c2b96","system_id":"levelo_inurba_marseille","lat":43.337444,"lon":5.374475,"is_reserved":false,"is_disabled":true,"rental_uris":{"android":"levelo://app?vid=20e9db8d-d68b-4418-94af-d9d63f8c2b96","ios":"levelo://app?vid=20e9db8d-d68b-4418-94af-d9d63f8c2b96"},"vehicle_type_id":"4","last_reported":1733847151,"current_range_meters":0,"station_id":"","pricing_plan_id":"cebpf4jnsgd1na2vs0mg"},{"bike_id":"d1759abf-a816-44e9-9410-5d5b34634ccb","system_id":"levelo_inurba_marseille","lat":43.28273,"lon":5.35066,"is_reserved":false,"is_disabled":false,"rental_uris":{"android":"levelo://app?vid=d1759abf-a816-44e9-9410-5d5b34634ccb","ios":"levelo://app?vid=d1759abf-a816-44e9-9410-5d5b34634ccb"},"vehicle_type_id":"4","last_reported":1733847151,"current_range_meters":24000,"station_id":"ce4bhbp2rcd13ifvqerg","pricing_plan_id":"cebpf4jnsgd1na2vs0mg"},{"bike_id":"1ceb79ea-99ef-42d8-a032-62dba75864ef","system_id":"levelo_inurba_marseille","lat":43.29622,"lon":5.37758,"is_reserved":false,"is_disabled":false,"rental_uris":{"android":"levelo://app?vid=1ceb79ea-99ef-42d8-a032-62dba75864ef","ios":"levelo://app?vid=1ceb79ea-99ef-42d8-a032-62dba75864ef"},"vehicle_type_id":"4","last_reported":1733847151,"current_range_meters":4000,"station_id":"ce4bgi92rcd13ifvqb90","pricing_plan_id":"cebpf4jnsgd1na2vs0mg"},{"bike_id":"445ceb1b-e0a6-42cd-bb44-eb8e9b1da8ee","system_id":"levelo_inurba_marseille","lat":43.31742,"lon":5.38766,"is_reserved":false,"is_disabled":false,"rental_uris":{"android":"levelo://app?vid=445ceb1b-e0a6-42cd-bb44-eb8e9b1da8ee","ios":"levelo://app?vid=445ceb1b-e0a6-42cd-bb44-eb8e9b1da8ee"},"vehicle_type_id":"4","last_reported":1733847151,"current_range_meters":15200,"station_id":"","pricing_plan_id":"cebpf4jnsgd1na2vs0mg"},{"bike_id":"fe3ce4e7-06fb-45f7-9cc3-41c48a5aaca2","system_id":"levelo_inurba_marseille","lat":43.29188,"lon":5.39308,"is_reserved":false,"is_disabled":false,"rental_uris":{"android":"levelo://app?vid=fe3ce4e7-06fb-45f7-9cc3-41c48a5aaca2","ios":"levelo://app?vid=fe3ce4e7-06fb-45f7-9cc3-41c48a5aaca2"},"vehicle_type_id":"4","last_reported":1733847151,"current_range_meters":30400,"station_id":"ce4bh192rcd13ifvqdd0","pricing_plan_id":"cebpf4jnsgd1na2vs0mg"},{"bike_id":"f6f6210d-5e07-46dd-93e4-3e102dd7cb0e","system_id":"levelo_inurba_marseille","lat":43.29395,"lon":5.38885,"is_reserved":false,"is_disabled":true,"rental_uris":{"android":"levelo://app?vid=f6f6210d-5e07-46dd-93e4-3e102dd7cb0e","ios":"levelo://app?vid=f6f6210d-5e07-46dd-93e4-3e102dd7cb0e"},"vehicle_type_id":"4","last_reported":1733847151,"current_range_meters":0,"station_id":"","pricing_plan_id":"cebpf4jnsgd1na2vs0mg"},{"bike_id":"d3eb0e5f-7750-488a-8341-bdff8f6b4f7c","system_id":"levelo_inurba_marseille","lat":43.2991,"lon":5.37487,"is_reserved":false,"is_disabled":false,"rental_uris":{"android":"levelo://app?vid=d3eb0e5f-7750-488a-8341-bdff8f6b4f7c","ios":"levelo://app?vid=d3eb0e5f-7750-488a-8341-bdff8f6b4f7c"},"vehicle_type_id":"4","last_reported":1733847151,"current_range_meters":35200,"station_id":"ce4bgjh2rcd13ifvqbg0","pricing_plan_id":"cebpf4jnsgd1na2vs0mg"},{"bike_id":"c919cc4e-fe16-42a0-bbc5-360ce77b00cd","system_id":"levelo_inurba_marseille","lat":43.29519,"lon":5.39053,"is_reserved":false,"is_disabled":false,"rental_uris":{"android":"levelo://app?vid=c919cc4e-fe16-42a0-bbc5-360ce77b00cd","ios":"levelo://app?vid=c919cc4e-fe16-42a0-bbc5-360ce77b00cd"},"vehicle_type_id":"4","last_reported":1733847151,"current_range_meters":24000,"station_id":"ce4bh3p2rcd13ifvqdp0","pricing_plan_id":"cebpf4jnsgd1na2vs0mg"},{"bike_id":"8644d58c-bdb3-45ce-8954-43eaf41a639c","system_id":"levelo_inurba_marseille","lat":43.30145,"lon":5.3742,"is_reserved":false,"is_disabled":false,"rental_uris":{"android":"levelo://app?vid=8644d58c-bdb3-45ce-8954-43eaf41a639c","ios":"levelo://app?vid=8644d58c-bdb3-45ce-8954-43eaf41a639c"},"vehicle_type_id":"4","last_reported":1733847151,"current_range_meters":8000,"station_id":"ce4bgs92rcd13ifvqcc0","pricing_plan_id":"cebpf4jnsgd1na2vs0mg"},{"bike_id":"6c532ec2-971d-49fd-9e34-94f4ab4f0ca6","system_id":"levelo_inurba_marseille","lat":43.30533,"lon":5.36545,"is_reserved":false,"is_disabled":false,"rental_uris":{"android":"levelo://app?vid=6c532ec2-971d-49fd-9e34-94f4ab4f0ca6","ios":"levelo://app?vid=6c532ec2-971d-49fd-9e34-94f4ab4f0ca6"},"vehicle_type_id":"4","last_reported":1733847151,"current_range_meters":25600,"station_id":"ce4bgs12rcd13ifvqcag","pricing_plan_id":"cebpf4jnsgd1na2vs0mg"},{"bike_id":"5c5a83e6-78fd-428a-bec9-ee8dde4e8113","system_id":"levelo_inurba_marseille","lat":43.25499,"lon":5.37648,"is_reserved":false,"is_disabled":true,"rental_uris":{"android":"levelo://app?vid=5c5a83e6-78fd-428a-bec9-ee8dde4e8113","ios":"levelo://app?vid=5c5a83e6-78fd-428a-bec9-ee8dde4e8113"},"vehicle_type_id":"4","last_reported":1733847151,"current_range_meters":400,"station_id":"ce4bhh12rcd13ifvqff0","pricing_plan_id":"cebpf4jnsgd1na2vs0mg"},{"bike_id":"aeee9eb0-e288-4a80-bd5f-32984aaf7175","system_id":"levelo_inurba_marseille","lat":43.287128,"lon":5.379402,"is_reserved":false,"is_disabled":false,"rental_uris":{"android":"levelo://app?vid=aeee9eb0-e288-4a80-bd5f-32984aaf7175","ios":"levelo://app?vid=aeee9eb0-e288-4a80-bd5f-32984aaf7175"},"vehicle_type_id":"4","last_reported":1733847151,"current_range_meters":26800,"station_id":"ce4bh9p2rcd13ifvqec0","pricing_plan_id":"cebpf4jnsgd1na2vs0mg"},{"bike_id":"6c5ce0f2-c82b-4410-a0ea-fb564fc782e4","system_id":"levelo_inurba_marseille","lat":43.337444,"lon":5.374475,"is_reserved":false,"is_disabled":false,"rental_uris":{"android":"levelo://app?vid=6c5ce0f2-c82b-4410-a0ea-fb564fc782e4","ios":"levelo://app?vid=6c5ce0f2-c82b-4410-a0ea-fb564fc782e4"},"vehicle_type_id":"4","last_reported":1733847151,"current_range_meters":36800,"station_id":"","pricing_plan_id":"cebpf4jnsgd1na2vs0mg"},{"bike_id":"fd0805f5-a398-4cff-8d50-0b96555f8650","system_id":"levelo_inurba_marseille","lat":43.2947,"lon":5.37699,"is_reserved":false,"is_disabled":true,"rental_uris":{"android":"levelo://app?vid=fd0805f5-a398-4cff-8d50-0b96555f8650","ios":"levelo://app?vid=fd0805f5-a398-4cff-8d50-0b96555f8650"},"vehicle_type_id":"4","last_reported":1733847151,"current_range_meters":0,"station_id":"","pricing_plan_id":"cebpf4jnsgd1na2vs0mg"},{"bike_id":"88d700a1-f9a9-4c1f-9198-584b0729210d","system_id":"levelo_inurba_marseille","lat":43.23191,"lon":5.35556,"is_reserved":false,"is_disabled":false,"rental_uris":{"android":"levelo://app?vid=88d700a1-f9a9-4c1f-9198-584b0729210d","ios":"levelo://app?vid=88d700a1-f9a9-4c1f-9198-584b0729210d"},"vehicle_type_id":"4","last_reported":1733847151,"current_range_meters":3200,"station_id":"ce4bhu92rcd13ifvqi70","pricing_plan_id":"cebpf4jnsgd1na2vs0mg"},{"bike_id":"af105e11-682a-4b99-949a-cdec14d1e496","system_id":"levelo_inurba_marseille","lat":43.32332,"lon":5.40618,"is_reserved":false,"is_disabled":false,"rental_uris":{"android":"levelo://app?vid=af105e11-682a-4b99-949a-cdec14d1e496","ios":"levelo://app?vid=af105e11-682a-4b99-949a-cdec14d1e496"},"vehicle_type_id":"4","last_reported":1733847151,"current_range_meters":27200,"station_id":"ce4bhq92rcd13ifvqhjg","pricing_plan_id":"cebpf4jnsgd1na2vs0mg"},{"bike_id":"6eea5859-50f1-4ece-95de-3ffa564eddea","system_id":"levelo_inurba_marseille","lat":43.27434,"lon":5.39412,"is_reserved":false,"is_disabled":false,"rental_uris":{"android":"levelo://app?vid=6eea5859-50f1-4ece-95de-3ffa564eddea","ios":"levelo://app?vid=6eea5859-50f1-4ece-95de-3ffa564eddea"},"vehicle_type_id":"4","last_reported":1733847151,"current_range_meters":23200,"station_id":"ce4bhdp2rcd13ifvqf20","pricing_plan_id":"cebpf4jnsgd1na2vs0mg"},{"bike_id":"0bf8dd1c-24b0-406a-bdc5-9b916a7670bd","system_id":"levelo_inurba_marseille","lat":43.26209,"lon":5.37441,"is_reserved":false,"is_disabled":false,"rental_uris":{"android":"levelo://app?vid=0bf8dd1c-24b0-406a-bdc5-9b916a7670bd","ios":"levelo://app?vid=0bf8dd1c-24b0-406a-bdc5-9b916a7670bd"},"vehicle_type_id":"4","last_reported":1733847151,"current_range_meters":16000,"station_id":"ce4bhgp2rcd13ifvqfc0","pricing_plan_id":"cebpf4jnsgd1na2vs0mg"},{"bike_id":"633466e3-c57e-4424-bb70-58dea6ff4970","system_id":"levelo_inurba_marseille","lat":43.22933,"lon":5.35375,"is_reserved":false,"is_disabled":true,"rental_uris":{"android":"levelo://app?vid=633466e3-c57e-4424-bb70-58dea6ff4970","ios":"levelo://app?vid=633466e3-c57e-4424-bb70-58dea6ff4970"},"vehicle_type_id":"4","last_reported":1733847151,"current_range_meters":6400,"station_id":"cpo3532slgdg3j2ikp40","pricing_plan_id":"cebpf4jnsgd1na2vs0mg"},{"bike_id":"d63272f2-2835-4b54-a8ac-80eb207df7ea","system_id":"levelo_inurba_marseille","lat":43.28667,"lon":5.38654,"is_reserved":false,"is_disabled":false,"rental_uris":{"android":"levelo://app?vid=d63272f2-2835-4b54-a8ac-80eb207df7ea","ios":"levelo://app?vid=d63272f2-2835-4b54-a8ac-80eb207df7ea"},"vehicle_type_id":"4","last_reported":1733847151,"current_range_meters":28800,"station_id":"ce4bh492rcd13ifvqdug","pricing_plan_id":"cebpf4jnsgd1na2vs0mg"},{"bike_id":"ca20e888-b6b5-44e1-95fe-09d53cee6d1c","system_id":"levelo_inurba_marseille","lat":43.27943,"lon":5.41053,"is_reserved":false,"is_disabled":false,"rental_uris":{"android":"levelo://app?vid=ca20e888-b6b5-44e1-95fe-09d53cee6d1c","ios":"levelo://app?vid=ca20e888-b6b5-44e1-95fe-09d53cee6d1c"},"vehicle_type_id":"4","last_reported":1733847151,"current_range_meters":30400,"station_id":"ce4bhnp2rcd13ifvqh0g","pricing_plan_id":"cebpf4jnsgd1na2vs0mg"},{"bike_id":"192ec0f2-4fc6-4c2e-a127-97c8c012a668","system_id":"levelo_inurba_marseille","lat":43.28616,"lon":5.35103,"is_reserved":false,"is_disabled":false,"rental_uris":{"android":"levelo://app?vid=192ec0f2-4fc6-4c2e-a127-97c8c012a668","ios":"levelo://app?vid=192ec0f2-4fc6-4c2e-a127-97c8c012a668"},"vehicle_type_id":"4","last_reported":1733847151,"current_range_meters":26800,"station_id":"ce4bhch2rcd13ifvqeug","pricing_plan_id":"cebpf4jnsgd1na2vs0mg"},{"bike_id":"b4ff4c3e-f504-48f2-95ba-bebdaf22fd75","system_id":"levelo_inurba_marseille","lat":43.2841,"lon":5.428961,"is_reserved":false,"is_disabled":true,"rental_uris":{"android":"levelo://app?vid=b4ff4c3e-f504-48f2-95ba-bebdaf22fd75","ios":"levelo://app?vid=b4ff4c3e-f504-48f2-95ba-bebdaf22fd75"},"vehicle_type_id":"4","last_reported":1733847151,"current_range_meters":0,"station_id":"","pricing_plan_id":"cebpf4jnsgd1na2vs0mg"},{"bike_id":"f3f7ba32-b4ca-43e7-831f-f8e47d6aa7b9","system_id":"levelo_inurba_marseille","lat":43.29618,"lon":5.37154,"is_reserved":false,"is_disabled":false,"rental_uris":{"android":"levelo://app?vid=f3f7ba32-b4ca-43e7-831f-f8e47d6aa7b9","ios":"levelo://app?vid=f3f7ba32-b4ca-43e7-831f-f8e47d6aa7b9"},"vehicle_type_id":"4","last_reported":1733847151,"current_range_meters":38000,"station_id":"ce4bgnh2rcd13ifvqc0g","pricing_plan_id":"cebpf4jnsgd1na2vs0mg"},{"bike_id":"58a14421-f4dd-4774-b7bd-aa0cc6b3d7e9","system_id":"levelo_inurba_marseille","lat":43.27812,"lon":5.40711,"is_reserved":false,"is_disabled":false,"rental_uris":{"android":"levelo://app?vid=58a14421-f4dd-4774-b7bd-aa0cc6b3d7e9","ios":"levelo://app?vid=58a14421-f4dd-4774-b7bd-aa0cc6b3d7e9"},"vehicle_type_id":"4","last_reported":1733847151,"current_range_meters":11600,"station_id":"ce4bhnh2rcd13ifvqgtg","pricing_plan_id":"cebpf4jnsgd1na2vs0mg"},{"bike_id":"27bc9e67-e601-4496-b287-7f03c1781e2d","system_id":"levelo_inurba_marseille","lat":43.28609,"lon":5.37064,"is_reserved":false,"is_disabled":false,"rental_uris":{"android":"levelo://app?vid=27bc9e67-e601-4496-b287-7f03c1781e2d","ios":"levelo://app?vid=27bc9e67-e601-4496-b287-7f03c1781e2d"},"vehicle_type_id":"4","last_reported":1733847151,"current_range_meters":36800,"station_id":"ce4bht12rcd13ifvqi60","pricing_plan_id":"cebpf4jnsgd1na2vs0mg"},{"bike_id":"33e9e509-5635-4047-af70-82aae17362ca","system_id":"levelo_inurba_marseille","lat":43.23065,"lon":5.3549,"is_reserved":false,"is_disabled":false,"rental_uris":{"android":"levelo://app?vid=33e9e509-5635-4047-af70-82aae17362ca","ios":"levelo://app?vid=33e9e509-5635-4047-af70-82aae17362ca"},"vehicle_type_id":"4","last_reported":1733847151,"current_range_meters":16400,"station_id":"cpo3342slgdg3j2ifvpg","pricing_plan_id":"cebpf4jnsgd1na2vs0mg"},{"bike_id":"69c1800d-f38d-4fe4-9d38-33fb75caae6c","system_id":"levelo_inurba_marseille","lat":43.28725,"lon":5.36083,"is_reserved":false,"is_disabled":false,"rental_uris":{"android":"levelo://app?vid=69c1800d-f38d-4fe4-9d38-33fb75caae6c","ios":"levelo://app?vid=69c1800d-f38d-4fe4-9d38-33fb75caae6c"},"vehicle_type_id":"4","last_reported":1733847151,"current_range_meters":38800,"station_id":"cki0cbj6b192h4jlfktg","pricing_plan_id":"cebpf4jnsgd1na2vs0mg"},{"bike_id":"c119d723-2faf-40cc-9363-cec2d8098b7d","system_id":"levelo_inurba_marseille","lat":43.30423,"lon":5.41491,"is_reserved":false,"is_disabled":false,"rental_uris":{"android":"levelo://app?vid=c119d723-2faf-40cc-9363-cec2d8098b7d","ios":"levelo://app?vid=c119d723-2faf-40cc-9363-cec2d8098b7d"},"vehicle_type_id":"4","last_reported":1733847151,"current_range_meters":28800,"station_id":"","pricing_plan_id":"cebpf4jnsgd1na2vs0mg"},{"bike_id":"1655ebfb-fff9-4e70-8e87-9d393a7104df","system_id":"levelo_inurba_marseille","lat":43.29099,"lon":5.38144,"is_reserved":false,"is_disabled":true,"rental_uris":{"android":"levelo://app?vid=1655ebfb-fff9-4e70-8e87-9d393a7104df","ios":"levelo://app?vid=1655ebfb-fff9-4e70-8e87-9d393a7104df"},"vehicle_type_id":"4","last_reported":1733847151,"current_range_meters":30800,"station_id":"ce4bh512rcd13ifvqe2g","pricing_plan_id":"cebpf4jnsgd1na2vs0mg"},{"bike_id":"c6154393-48fd-48a4-add1-217536787f3b","system_id":"levelo_inurba_marseille","lat":43.25003,"lon":5.38927,"is_reserved":false,"is_disabled":true,"rental_uris":{"android":"levelo://app?vid=c6154393-48fd-48a4-add1-217536787f3b","ios":"levelo://app?vid=c6154393-48fd-48a4-add1-217536787f3b"},"vehicle_type_id":"4","last_reported":1733847151,"current_range_meters":1200,"station_id":"ce4bhgp2rcd13ifvqfd0","pricing_plan_id":"cebpf4jnsgd1na2vs0mg"},{"bike_id":"e1842d93-046c-4f2f-a21d-a8a9ad0802ac","system_id":"levelo_inurba_marseille","lat":43.28456,"lon":5.35888,"is_reserved":false,"is_disabled":false,"rental_uris":{"android":"levelo://app?vid=e1842d93-046c-4f2f-a21d-a8a9ad0802ac","ios":"levelo://app?vid=e1842d93-046c-4f2f-a21d-a8a9ad0802ac"},"vehicle_type_id":"4","last_reported":1733847151,"current_range_meters":38000,"station_id":"ce4bhah2rcd13ifvqei0","pricing_plan_id":"cebpf4jnsgd1na2vs0mg"},{"bike_id":"03d0ed64-ea6c-49a2-8b0e-4841b22272d3","system_id":"levelo_inurba_marseille","lat":43.27987,"lon":5.41658,"is_reserved":false,"is_disabled":true,"rental_uris":{"android":"levelo://app?vid=03d0ed64-ea6c-49a2-8b0e-4841b22272d3","ios":"levelo://app?vid=03d0ed64-ea6c-49a2-8b0e-4841b22272d3"},"vehicle_type_id":"4","last_reported":1733847151,"current_range_meters":0,"station_id":"ce4bho12rcd13ifvqh1g","pricing_plan_id":"cebpf4jnsgd1na2vs0mg"},{"bike_id":"e9738b1d-dbe2-4e85-8bf7-afab35832c25","system_id":"levelo_inurba_marseille","lat":43.28496,"lon":5.38573,"is_reserved":false,"is_disabled":true,"rental_uris":{"android":"levelo://app?vid=e9738b1d-dbe2-4e85-8bf7-afab35832c25","ios":"levelo://app?vid=e9738b1d-dbe2-4e85-8bf7-afab35832c25"},"vehicle_type_id":"4","last_reported":1733847151,"current_range_meters":2000,"station_id":"ce4bh8p2rcd13ifvqeb0","pricing_plan_id":"cebpf4jnsgd1na2vs0mg"},{"bike_id":"158dc986-a5f7-48a5-8823-ba52c021a115","system_id":"levelo_inurba_marseille","lat":43.3255,"lon":5.41434,"is_reserved":false,"is_disabled":false,"rental_uris":{"android":"levelo://app?vid=158dc986-a5f7-48a5-8823-ba52c021a115","ios":"levelo://app?vid=158dc986-a5f7-48a5-8823-ba52c021a115"},"vehicle_type_id":"4","last_reported":1733847151,"current_range_meters":9200,"station_id":"ce4bhq12rcd13ifvqhhg","pricing_plan_id":"cebpf4jnsgd1na2vs0mg"},{"bike_id":"7a1332ca-192c-48d9-b3ce-47ec2978eada","system_id":"levelo_inurba_marseille","lat":43.32337,"lon":5.40627,"is_reserved":false,"is_disabled":false,"rental_uris":{"android":"levelo://app?vid=7a1332ca-192c-48d9-b3ce-47ec2978eada","ios":"levelo://app?vid=7a1332ca-192c-48d9-b3ce-47ec2978eada"},