{"last_updated":1748203803,"ttl":60,"version":"2.2","data":{"bikes":[{"bike_id":"f574b1ea-bab7-411e-a021-28e9fe4ee1c0","system_id":"levelo_inurba_marseille","lat":43.26559,"lon":5.37289,"is_reserved":false,"is_disabled":false,"rental_uris":{"android":"levelo://app?vid=f574b1ea-bab7-411e-a021-28e9fe4ee1c0","ios":"levelo://app?vid=f574b1ea-bab7-411e-a021-28e9fe4ee1c0"},"vehicle_type_id":"4","last_reported":1748203804,"current_range_meters":2800,"station_id":"ce4bhg12rcd13ifvqf70","pricing_plan_id":"cebpf4jnsgd1na2vs0mg"},{"bike_id":"fa529a29-8d21-4f13-9783-e1708a99c344","system_id":"levelo_inurba_marseille","lat":43.246516,"lon":5.388955,"is_reserved":false,"is_disabled":true,"rental_uris":{"android":"levelo://app?vid=fa529a29-8d21-4f13-9783-e1708a99c344","ios":"levelo://app?vid=fa529a29-8d21-4f13-9783-e1708a99c344"},"vehicle_type_id":"4","last_reported":1748203804,"current_range_meters":2800,"station_id":"ce4bhlh2rcd13ifvqgig","pricing_plan_id":"cebpf4jnsgd1na2vs0mg"},{"bike_id":"695d5efa-57bb-40d2-83e2-8e9ed7eeafdb","system_id":"levelo_inurba_marseille","lat":43.297087,"lon":5.37706,"is_reserved":false,"is_disabled":true,"rental_uris":{"android":"levelo://app?vid=695d5efa-57bb-40d2-83e2-8e9ed7eeafdb","ios":"levelo://app?vid=695d5efa-57bb-40d2-83e2-8e9ed7eeafdb"},"vehicle_type_id":"4","last_reported":1748203804,"current_range_meters":2800,"station_id":"ce4bgkh2rcd13ifvqbl0","pricing_plan_id":"cebpf4jnsgd1na2vs0mg"},{"bike_id":"757c0c5f-e628-4578-ae97-938654a8725a","system_id":"levelo_inurba_marseille","lat":43.30941,"lon":5.40122,"is_reserved":false,"is_disabled":true,"rental_uris":{"android":"levelo://app?vid=757c0c5f-e628-4578-ae97-938654a8725a","ios":"levelo://app?vid=757c0c5f-e628-4578-ae97-938654a8725a"},"vehicle_type_id":"4","last_reported":1748203804,"current_range_meters":3200,"station_id":"ce4bgvp2rcd13ifvqct0","pricing_plan_id":"cebpf4jnsgd1na2vs0mg"},{"bike_id":"c16413fd-5d65-4ca2-8681-abb95bdf2d2a","system_id":"levelo_inurba_marseille","lat":43.30957,"lon":5.37124,"is_reserved":false,"is_disabled":false,"rental_uris":{"android":"levelo://app?vid=c16413fd-5d65-4ca2-8681-abb95bdf2d2a","ios":"levelo://app?vid=c16413fd-5d65-4ca2-8681-abb95bdf2d2a"},"vehicle_type_id":"4","last_reported":1748203804,"current_range_meters":3200,"station_id":"","pricing_plan_id":"cebpf4jnsgd1na2vs0mg"},{"bike_id":"39b0df74-8688-460e-bd90-5ed102bbe79f","system_id":"levelo_inurba_marseille","lat":43.29535,"lon":5.39394,"is_reserved":false,"is_disabled":false,"rental_uris":{"android":"levelo://app?vid=39b0df74-8688-460e-bd90-5ed102bbe79f","ios":"levelo://app?vid=39b0df74-8688-460e-bd90-5ed102bbe79f"},"vehicle_type_id":"4","last_reported":1748203804,"current_range_meters":3600,"station_id":"ce4bh292rcd13ifvqdf0","pricing_plan_id":"cebpf4jnsgd1na2vs0mg"},{"bike_id":"0a2a4041-7346-4b5c-992f-5cc1a096e24b","system_id":"levelo_inurba_marseille","lat":43.23196,"lon":5.35543,"is_reserved":false,"is_disabled":false,"rental_uris":{"android":"levelo://app?vid=0a2a4041-7346-4b5c-992f-5cc1a096e24b","ios":"levelo://app?vid=0a2a4041-7346-4b5c-992f-5cc1a096e24b"},"vehicle_type_id":"4","last_reported":1748203804,"current_range_meters":3600,"station_id":"ce4bhu92rcd13ifvqi70","pricing_plan_id":"cebpf4jnsgd1na2vs0mg"},{"bike_id":"259d09c8-52c0-453f-9388-5d4c91eabe7d","system_id":"levelo_inurba_marseille","lat":43.211899,"lon":5.350639,"is_reserved":false,"is_disabled":false,"rental_uris":{"android":"levelo://app?vid=259d09c8-52c0-453f-9388-5d4c91eabe7d","ios":"levelo://app?vid=259d09c8-52c0-453f-9388-5d4c91eabe7d"},"vehicle_type_id":"4","last_reported":1748203804,"current_range_meters":3600,"station_id":"st_cvj6sg6p6f1abm77japg","pricing_plan_id":"cebpf4jnsgd1na2vs0mg"},{"bike_id":"802a645f-ae98-4f4f-bb11-da77c472e2c9","system_id":"levelo_inurba_marseille","lat":43.3088,"lon":5.39642,"is_reserved":false,"is_disabled":true,"rental_uris":{"android":"levelo://app?vid=802a645f-ae98-4f4f-bb11-da77c472e2c9","ios":"levelo://app?vid=802a645f-ae98-4f4f-bb11-da77c472e2c9"},"vehicle_type_id":"4","last_reported":1748203804,"current_range_meters":3600,"station_id":"ce4bh012rcd13ifvqcv0","pricing_plan_id":"cebpf4jnsgd1na2vs0mg"},{"bike_id":"b3836e6a-b05b-4ba7-ae61-833bde9258fe","system_id":"levelo_inurba_marseille","lat":43.32943,"lon":5.45184,"is_reserved":false,"is_disabled":false,"rental_uris":{"android":"levelo://app?vid=b3836e6a-b05b-4ba7-ae61-833bde9258fe","ios":"levelo://app?vid=b3836e6a-b05b-4ba7-ae61-833bde9258fe"},"vehicle_type_id":"4","last_reported":1748203804,"current_range_meters":3600,"station_id":"","pricing_plan_id":"cebpf4jnsgd1na2vs0mg"},{"bike_id":"7b7a17cc-5c67-4c00-8696-ff5122a90419","system_id":"levelo_inurba_marseille","lat":43.29792,"lon":5.39353,"is_reserved":false,"is_disabled":true,"rental_uris":{"android":"levelo://app?vid=7b7a17cc-5c67-4c00-8696-ff5122a90419","ios":"levelo://app?vid=7b7a17cc-5c67-4c00-8696-ff5122a90419"},"vehicle_type_id":"4","last_reported":1748203804,"current_range_meters":3600,"station_id":"chh1huq6cuj3fo74tm60","pricing_plan_id":"cebpf4jnsgd1na2vs0mg"},{"bike_id":"ca2b1a70-c008-4a24-9535-c2cb2eabf8b9","system_id":"levelo_inurba_marseille","lat":43.29635,"lon":5.3716,"is_reserved":false,"is_disabled":false,"rental_uris":{"android":"levelo://app?vid=ca2b1a70-c008-4a24-9535-c2cb2eabf8b9","ios":"levelo://app?vid=ca2b1a70-c008-4a24-9535-c2cb2eabf8b9"},"vehicle_type_id":"4","last_reported":1748203804,"current_range_meters":3200,"station_id":"ce4bgnh2rcd13ifvqc0g","pricing_plan_id":"cebpf4jnsgd1na2vs0mg"},{"bike_id":"145749ae-64d8-4445-9dd6-c58ee2e815a6","system_id":"levelo_inurba_marseille","lat":43.29732,"lon":5.38149,"is_reserved":false,"is_disabled":false,"rental_uris":{"android":"levelo://app?vid=145749ae-64d8-4445-9dd6-c58ee2e815a6","ios":"levelo://app?vid=145749ae-64d8-4445-9dd6-c58ee2e815a6"},"vehicle_type_id":"4","last_reported":1748203804,"current_range_meters":4000,"station_id":"","pricing_plan_id":"cebpf4jnsgd1na2vs0mg"},{"bike_id":"c8f438cb-8794-4746-b8a8-d1a16160aa00","system_id":"levelo_inurba_marseille","lat":43.26033,"lon":5.37545,"is_reserved":false,"is_disabled":false,"rental_uris":{"android":"levelo://app?vid=c8f438cb-8794-4746-b8a8-d1a16160aa00","ios":"levelo://app?vid=c8f438cb-8794-4746-b8a8-d1a16160aa00"},"vehicle_type_id":"4","last_reported":1748203804,"current_range_meters":4000,"station_id":"ce4bhgh2rcd13ifvqfa0","pricing_plan_id":"cebpf4jnsgd1na2vs0mg"},{"bike_id":"40d5f5df-f4a7-41a4-b16d-63484ff0379d","system_id":"levelo_inurba_marseille","lat":43.3092,"lon":5.401612,"is_reserved":false,"is_disabled":true,"rental_uris":{"android":"levelo://app?vid=40d5f5df-f4a7-41a4-b16d-63484ff0379d","ios":"levelo://app?vid=40d5f5df-f4a7-41a4-b16d-63484ff0379d"},"vehicle_type_id":"4","last_reported":1748203804,"current_range_meters":4000,"station_id":"ce4bgvp2rcd13ifvqct0","pricing_plan_id":"cebpf4jnsgd1na2vs0mg"},{"bike_id":"ba7404c0-8732-4dfa-9f17-6c59e0a869da","system_id":"levelo_inurba_marseille","lat":43.278332,"lon":5.392086,"is_reserved":false,"is_disabled":true,"rental_uris":{"android":"levelo://app?vid=ba7404c0-8732-4dfa-9f17-6c59e0a869da","ios":"levelo://app?vid=ba7404c0-8732-4dfa-9f17-6c59e0a869da"},"vehicle_type_id":"4","last_reported":1748203804,"current_range_meters":4000,"station_id":"ce4bhjp2rcd13ifvqga0","pricing_plan_id":"cebpf4jnsgd1na2vs0mg"},{"bike_id":"b64f9d22-f1ef-44f5-a710-01fe035f75f9","system_id":"levelo_inurba_marseille","lat":43.28036,"lon":5.3695,"is_reserved":false,"is_disabled":false,"rental_uris":{"android":"levelo://app?vid=b64f9d22-f1ef-44f5-a710-01fe035f75f9","ios":"levelo://app?vid=b64f9d22-f1ef-44f5-a710-01fe035f75f9"},"vehicle_type_id":"4","last_reported":1748203804,"current_range_meters":4400,"station_id":"ce4bha12rcd13ifvqef0","pricing_plan_id":"cebpf4jnsgd1na2vs0mg"},{"bike_id":"8a947853-a27d-4b0a-9eec-cae6ccb0a13a","system_id":"levelo_inurba_marseille","lat":43.2622,"lon":5.40438,"is_reserved":false,"is_disabled":false,"rental_uris":{"android":"levelo://app?vid=8a947853-a27d-4b0a-9eec-cae6ccb0a13a","ios":"levelo://app?vid=8a947853-a27d-4b0a-9eec-cae6ccb0a13a"},"vehicle_type_id":"4","last_reported":1748203804,"current_range_meters":4400,"station_id":"ce4bhmh2rcd13ifvqgmg","pricing_plan_id":"cebpf4jnsgd1na2vs0mg"},{"bike_id":"7a64ee88-a427-4341-aef9-ad40b9faadd0","system_id":"levelo_inurba_marseille","lat":43.2823,"lon":5.3906,"is_reserved":false,"is_disabled":false,"rental_uris":{"android":"levelo://app?vid=7a64ee88-a427-4341-aef9-ad40b9faadd0","ios":"levelo://app?vid=7a64ee88-a427-4341-aef9-ad40b9faadd0"},"vehicle_type_id":"4","last_reported":1748203804,"current_range_meters":4800,"station_id":"","pricing_plan_id":"cebpf4jnsgd1na2vs0mg"},{"bike_id":"f7c901c8-08e7-4fa7-aff7-ef52f92e23ca","system_id":"levelo_inurba_marseille","lat":43.29534,"lon":5.39392,"is_reserved":false,"is_disabled":false,"rental_uris":{"android":"levelo://app?vid=f7c901c8-08e7-4fa7-aff7-ef52f92e23ca","ios":"levelo://app?vid=f7c901c8-08e7-4fa7-aff7-ef52f92e23ca"},"vehicle_type_id":"4","last_reported":1748203804,"current_range_meters":4800,"station_id":"ce4bh292rcd13ifvqdf0","pricing_plan_id":"cebpf4jnsgd1na2vs0mg"},{"bike_id":"13df4ad8-5d1b-49c5-a84d-2c28f6b7426e","system_id":"levelo_inurba_marseille","lat":43.29417,"lon":5.38621,"is_reserved":false,"is_disabled":false,"rental_uris":{"android":"levelo://app?vid=13df4ad8-5d1b-49c5-a84d-2c28f6b7426e","ios":"levelo://app?vid=13df4ad8-5d1b-49c5-a84d-2c28f6b7426e"},"vehicle_type_id":"4","last_reported":1748203804,"current_range_meters":8000,"station_id":"ce4bh2h2rcd13ifvqdh0","pricing_plan_id":"cebpf4jnsgd1na2vs0mg"},{"bike_id":"5e5dac88-2958-4a06-9510-bdfbf9cef837","system_id":"levelo_inurba_marseille","lat":43.27183,"lon":5.40991,"is_reserved":false,"is_disabled":false,"rental_uris":{"android":"levelo://app?vid=5e5dac88-2958-4a06-9510-bdfbf9cef837","ios":"levelo://app?vid=5e5dac88-2958-4a06-9510-bdfbf9cef837"},"vehicle_type_id":"4","last_reported":1748203804,"current_range_meters":5600,"station_id":"ce4bhl12rcd13ifvqgf0","pricing_plan_id":"cebpf4jnsgd1na2vs0mg"},{"bike_id":"a5395c68-fe8c-4dd1-beb4-fb162272b4d2","system_id":"levelo_inurba_marseille","lat":43.260393,"lon":5.375437,"is_reserved":false,"is_disabled":false,"rental_uris":{"android":"levelo://app?vid=a5395c68-fe8c-4dd1-beb4-fb162272b4d2","ios":"levelo://app?vid=a5395c68-fe8c-4dd1-beb4-fb162272b4d2"},"vehicle_type_id":"4","last_reported":1748203804,"current_range_meters":5600,"station_id":"","pricing_plan_id":"cebpf4jnsgd1na2vs0mg"},{"bike_id":"3b49418a-4eb4-4204-a554-606f881690aa","system_id":"levelo_inurba_marseille","lat":43.261924,"lon":5.374476,"is_reserved":false,"is_disabled":true,"rental_uris":{"android":"levelo://app?vid=3b49418a-4eb4-4204-a554-606f881690aa","ios":"levelo://app?vid=3b49418a-4eb4-4204-a554-606f881690aa"},"vehicle_type_id":"4","last_reported":1748203804,"current_range_meters":5600,"station_id":"ce4bhgp2rcd13ifvqfc0","pricing_plan_id":"cebpf4jnsgd1na2vs0mg"},{"bike_id":"1b36ebd6-1179-4f9e-8999-61f1463d8e5c","system_id":"levelo_inurba_marseille","lat":43.25357,"lon":5.39347,"is_reserved":false,"is_disabled":false,"rental_uris":{"android":"levelo://app?vid=1b36ebd6-1179-4f9e-8999-61f1463d8e5c","ios":"levelo://app?vid=1b36ebd6-1179-4f9e-8999-61f1463d8e5c"},"vehicle_type_id":"4","last_reported":1748203804,"current_range_meters":5600,"station_id":"","pricing_plan_id":"cebpf4jnsgd1na2vs0mg"},{"bike_id":"a7bb4e90-e719-4012-bd06-2564b0d55b57","system_id":"levelo_inurba_marseille","lat":43.31141,"lon":5.37745,"is_reserved":false,"is_disabled":false,"rental_uris":{"android":"levelo://app?vid=a7bb4e90-e719-4012-bd06-2564b0d55b57","ios":"levelo://app?vid=a7bb4e90-e719-4012-bd06-2564b0d55b57"},"vehicle_type_id":"4","last_reported":1748203804,"current_range_meters":6000,"station_id":"ce4bgt92rcd13ifvqcg0","pricing_plan_id":"cebpf4jnsgd1na2vs0mg"},{"bike_id":"87dc1d45-464b-416b-81d6-10b093bfc1ae","system_id":"levelo_inurba_marseille","lat":43.27087,"lon":5.42306,"is_reserved":false,"is_disabled":false,"rental_uris":{"android":"levelo://app?vid=87dc1d45-464b-416b-81d6-10b093bfc1ae","ios":"levelo://app?vid=87dc1d45-464b-416b-81d6-10b093bfc1ae"},"vehicle_type_id":"4","last_reported":1748203804,"current_range_meters":6000,"station_id":"ce4bhk92rcd13ifvqgb0","pricing_plan_id":"cebpf4jnsgd1na2vs0mg"},{"bike_id":"79fbf9f1-2892-4bd0-af2a-be9aa8bcf703","system_id":"levelo_inurba_marseille","lat":43.2408,"lon":5.37757,"is_reserved":false,"is_disabled":false,"rental_uris":{"android":"levelo://app?vid=79fbf9f1-2892-4bd0-af2a-be9aa8bcf703","ios":"levelo://app?vid=79fbf9f1-2892-4bd0-af2a-be9aa8bcf703"},"vehicle_type_id":"4","last_reported":1748203804,"current_range_meters":6000,"station_id":"ce4bhnp2rcd13ifvqgvg","pricing_plan_id":"cebpf4jnsgd1na2vs0mg"},{"bike_id":"e0e2f1de-9b44-49d6-9207-8183370c9b51","system_id":"levelo_inurba_marseille","lat":43.31487,"lon":5.37304,"is_reserved":false,"is_disabled":false,"rental_uris":{"android":"levelo://app?vid=e0e2f1de-9b44-49d6-9207-8183370c9b51","ios":"levelo://app?vid=e0e2f1de-9b44-49d6-9207-8183370c9b51"},"vehicle_type_id":"4","last_reported":1748203804,"current_range_meters":6000,"station_id":"ce4bgt12rcd13ifvqcd0","pricing_plan_id":"cebpf4jnsgd1na2vs0mg"},{"bike_id":"43948e8e-fb2f-4861-887a-9f2942244d51","system_id":"levelo_inurba_marseille","lat":43.29383,"lon":5.4024,"is_reserved":false,"is_disabled":false,"rental_uris":{"android":"levelo://app?vid=43948e8e-fb2f-4861-887a-9f2942244d51","ios":"levelo://app?vid=43948e8e-fb2f-4861-887a-9f2942244d51"},"vehicle_type_id":"4","last_reported":1748203804,"current_range_meters":6400,"station_id":"","pricing_plan_id":"cebpf4jnsgd1na2vs0mg"},{"bike_id":"3581c28c-41f2-4cb7-b494-0448776c0438","system_id":"levelo_inurba_marseille","lat":43.29652,"lon":5.36032,"is_reserved":false,"is_disabled":false,"rental_uris":{"android":"levelo://app?vid=3581c28c-41f2-4cb7-b494-0448776c0438","ios":"levelo://app?vid=3581c28c-41f2-4cb7-b494-0448776c0438"},"vehicle_type_id":"4","last_reported":1748203804,"current_range_meters":6400,"station_id":"","pricing_plan_id":"cebpf4jnsgd1na2vs0mg"},{"bike_id":"d33c0872-25a7-4d78-985f-6b36f60e8126","system_id":"levelo_inurba_marseille","lat":43.286655,"lon":5.363409,"is_reserved":false,"is_disabled":false,"rental_uris":{"android":"levelo://app?vid=d33c0872-25a7-4d78-985f-6b36f60e8126","ios":"levelo://app?vid=d33c0872-25a7-4d78-985f-6b36f60e8126"},"vehicle_type_id":"4","last_reported":1748203804,"current_range_meters":6400,"station_id":"ce4bhah2rcd13ifvqej0","pricing_plan_id":"cebpf4jnsgd1na2vs0mg"},{"bike_id":"0ddf2b5a-1565-4aab-be09-ecef369e20f0","system_id":"levelo_inurba_marseille","lat":43.29894,"lon":5.38111,"is_reserved":false,"is_disabled":true,"rental_uris":{"android":"levelo://app?vid=0ddf2b5a-1565-4aab-be09-ecef369e20f0","ios":"levelo://app?vid=0ddf2b5a-1565-4aab-be09-ecef369e20f0"},"vehicle_type_id":"4","last_reported":1748203804,"current_range_meters":6400,"station_id":"ce4bgj12rcd13ifvqbc0","pricing_plan_id":"cebpf4jnsgd1na2vs0mg"},{"bike_id":"84b1d1a2-2301-4f7e-8fde-ecd5a1274476","system_id":"levelo_inurba_marseille","lat":43.270897,"lon":5.422717,"is_reserved":false,"is_disabled":false,"rental_uris":{"android":"levelo://app?vid=84b1d1a2-2301-4f7e-8fde-ecd5a1274476","ios":"levelo://app?vid=84b1d1a2-2301-4f7e-8fde-ecd5a1274476"},"vehicle_type_id":"4","last_reported":1748203804,"current_range_meters":6400,"station_id":"ce4bhk92rcd13ifvqgb0","pricing_plan_id":"cebpf4jnsgd1na2vs0mg"},{"bike_id":"b425a27e-d512-4dcb-86ff-810895115c57","system_id":"levelo_inurba_marseille","lat":43.24388,"lon":5.37056,"is_reserved":false,"is_disabled":false,"rental_uris":{"android":"levelo://app?vid=b425a27e-d512-4dcb-86ff-810895115c57","ios":"levelo://app?vid=b425a27e-d512-4dcb-86ff-810895115c57"},"vehicle_type_id":"4","last_reported":1748203804,"current_range_meters":6400,"station_id":"ce4bhhh2rcd13ifvqfk0","pricing_plan_id":"cebpf4jnsgd1na2vs0mg"},{"bike_id":"4d18815d-035b-4827-a51e-58638fcfdfa3","system_id":"levelo_inurba_marseille","lat":43.23195,"lon":5.399941,"is_reserved":false,"is_disabled":true,"rental_uris":{"android":"levelo://app?vid=4d18815d-035b-4827-a51e-58638fcfdfa3","ios":"levelo://app?vid=4d18815d-035b-4827-a51e-58638fcfdfa3"},"vehicle_type_id":"4","last_reported":1748203804,"current_range_meters":6800,"station_id":"ce4bhn12rcd13ifvqgqg","pricing_plan_id":"cebpf4jnsgd1na2vs0mg"},{"bike_id":"fc8c72ad-ca61-42c6-ae90-f61b57e45328","system_id":"levelo_inurba_marseille","lat":43.279,"lon":5.41868,"is_reserved":false,"is_disabled":false,"rental_uris":{"android":"levelo://app?vid=fc8c72ad-ca61-42c6-ae90-f61b57e45328","ios":"levelo://app?vid=fc8c72ad-ca61-42c6-ae90-f61b57e45328"},"vehicle_type_id":"4","last_reported":1748203804,"current_range_meters":6800,"station_id":"","pricing_plan_id":"cebpf4jnsgd1na2vs0mg"},{"bike_id":"ceb5dae6-874b-4d60-9609-82bcf4c8d4ed","system_id":"levelo_inurba_marseille","lat":43.3045,"lon":5.38827,"is_reserved":false,"is_disabled":true,"rental_uris":{"android":"levelo://app?vid=ceb5dae6-874b-4d60-9609-82bcf4c8d4ed","ios":"levelo://app?vid=ceb5dae6-874b-4d60-9609-82bcf4c8d4ed"},"vehicle_type_id":"4","last_reported":1748203804,"current_range_meters":6800,"station_id":"","pricing_plan_id":"cebpf4jnsgd1na2vs0mg"},{"bike_id":"96de44a5-2352-4ae0-9071-a77b0638275a","system_id":"levelo_inurba_marseille","lat":43.24638,"lon":5.38908,"is_reserved":false,"is_disabled":false,"rental_uris":{"android":"levelo://app?vid=96de44a5-2352-4ae0-9071-a77b0638275a","ios":"levelo://app?vid=96de44a5-2352-4ae0-9071-a77b0638275a"},"vehicle_type_id":"4","last_reported":1748203804,"current_range_meters":6800,"station_id":"ce4bhg12rcd13ifvqf60","pricing_plan_id":"cebpf4jnsgd1na2vs0mg"},{"bike_id":"aeb9ef90-389d-4ef3-899b-0a0feff09a32","system_id":"levelo_inurba_marseille","lat":43.31354,"lon":5.38039,"is_reserved":false,"is_disabled":false,"rental_uris":{"android":"levelo://app?vid=aeb9ef90-389d-4ef3-899b-0a0feff09a32","ios":"levelo://app?vid=aeb9ef90-389d-4ef3-899b-0a0feff09a32"},"vehicle_type_id":"4","last_reported":1748203804,"current_range_meters":6800,"station_id":"","pricing_plan_id":"cebpf4jnsgd1na2vs0mg"},{"bike_id":"c3693970-0173-4f48-86b7-b4226fbb898a","system_id":"levelo_inurba_marseille","lat":43.23189,"lon":5.35547,"is_reserved":false,"is_disabled":false,"rental_uris":{"android":"levelo://app?vid=c3693970-0173-4f48-86b7-b4226fbb898a","ios":"levelo://app?vid=c3693970-0173-4f48-86b7-b4226fbb898a"},"vehicle_type_id":"4","last_reported":1748203804,"current_range_meters":6800,"station_id":"ce4bhu92rcd13ifvqi70","pricing_plan_id":"cebpf4jnsgd1na2vs0mg"},{"bike_id":"a00c3d9e-5eeb-4a32-8166-d93db0906f96","system_id":"levelo_inurba_marseille","lat":43.29529,"lon":5.37476,"is_reserved":false,"is_disabled":true,"rental_uris":{"android":"levelo://app?vid=a00c3d9e-5eeb-4a32-8166-d93db0906f96","ios":"levelo://app?vid=a00c3d9e-5eeb-4a32-8166-d93db0906f96"},"vehicle_type_id":"4","last_reported":1748203804,"current_range_meters":6800,"station_id":"ce4bgkp2rcd13ifvqbmg","pricing_plan_id":"cebpf4jnsgd1na2vs0mg"},{"bike_id":"bac4d4f2-cbac-4aef-88fb-c759c7b96d6f","system_id":"levelo_inurba_marseille","lat":43.26947,"lon":5.38632,"is_reserved":false,"is_disabled":true,"rental_uris":{"android":"levelo://app?vid=bac4d4f2-cbac-4aef-88fb-c759c7b96d6f","ios":"levelo://app?vid=bac4d4f2-cbac-4aef-88fb-c759c7b96d6f"},"vehicle_type_id":"4","last_reported":1748203804,"current_range_meters":6800,"station_id":"ce4bhh92rcd13ifvqfh0","pricing_plan_id":"cebpf4jnsgd1na2vs0mg"},{"bike_id":"88ac5a91-56d3-4573-b0f2-5c6bbb7d986b","system_id":"levelo_inurba_marseille","lat":43.26118,"lon":5.39724,"is_reserved":false,"is_disabled":false,"rental_uris":{"android":"levelo://app?vid=88ac5a91-56d3-4573-b0f2-5c6bbb7d986b","ios":"levelo://app?vid=88ac5a91-56d3-4573-b0f2-5c6bbb7d986b"},"vehicle_type_id":"4","last_reported":1748203804,"current_range_meters":6800,"station_id":"","pricing_plan_id":"cebpf4jnsgd1na2vs0mg"},{"bike_id":"8c489452-33ec-40fb-804e-08b0bc9dcc81","system_id":"levelo_inurba_marseille","lat":43.314342,"lon":5.373517,"is_reserved":false,"is_disabled":false,"rental_uris":{"android":"levelo://app?vid=8c489452-33ec-40fb-804e-08b0bc9dcc81","ios":"levelo://app?vid=8c489452-33ec-40fb-804e-08b0bc9dcc81"},"vehicle_type_id":"4","last_reported":1748203804,"current_range_meters":6800,"station_id":"","pricing_plan_id":"cebpf4jnsgd1na2vs0mg"},{"bike_id":"c02005db-9233-424b-8c14-0eea258c4ad1","system_id":"levelo_inurba_marseille","lat":43.29531,"lon":5.39052,"is_reserved":false,"is_disabled":false,"rental_uris":{"android":"levelo://app?vid=c02005db-9233-424b-8c14-0eea258c4ad1","ios":"levelo://app?vid=c02005db-9233-424b-8c14-0eea258c4ad1"},"vehicle_type_id":"4","last_reported":1748203804,"current_range_meters":6800,"station_id":"ce4bh3p2rcd13ifvqdp0","pricing_plan_id":"cebpf4jnsgd1na2vs0mg"},{"bike_id":"995a9238-6be3-4807-bc21-1c5e16e3da9f","system_id":"levelo_inurba_marseille","lat":43.292,"lon":5.39312,"is_reserved":false,"is_disabled":false,"rental_uris":{"android":"levelo://app?vid=995a9238-6be3-4807-bc21-1c5e16e3da9f","ios":"levelo://app?vid=995a9238-6be3-4807-bc21-1c5e16e3da9f"},"vehicle_type_id":"4","last_reported":1748203804,"current_range_meters":6400,"station_id":"ce4bh192rcd13ifvqdd0","pricing_plan_id":"cebpf4jnsgd1na2vs0mg"},{"bike_id":"d5ddd455-df57-470b-90b1-29664b7edf5f","system_id":"levelo_inurba_marseille","lat":43.334188,"lon":5.400672,"is_reserved":false,"is_disabled":false,"rental_uris":{"android":"levelo://app?vid=d5ddd455-df57-470b-90b1-29664b7edf5f","ios":"levelo://app?vid=d5ddd455-df57-470b-90b1-29664b7edf5f"},"vehicle_type_id":"4","last_reported":1748203804,"current_range_meters":6800,"station_id":"","pricing_plan_id":"cebpf4jnsgd1na2vs0mg"},{"bike_id":"ed3c3cf7-4b39-48ed-a53f-6ae98f5f6d5b","system_id":"levelo_inurba_marseille","lat":43.30436,"lon":5.38885,"is_reserved":false,"is_disabled":false,"rental_uris":{"android":"levelo://app?vid=ed3c3cf7-4b39-48ed-a53f-6ae98f5f6d5b","ios":"levelo://app?vid=ed3c3cf7-4b39-48ed-a53f-6ae98f5f6d5b"},"vehicle_type_id":"4","last_reported":1748203804,"current_range_meters":7200,"station_id":"ce4bgk12rcd13ifvqbi0","pricing_plan_id":"cebpf4jnsgd1na2vs0mg"},{"bike_id":"be056168-c1af-471e-b724-1992cbce9c45","system_id":"levelo_inurba_marseille","lat":43.29244,"lon":5.40147,"is_reserved":false,"is_disabled":false,"rental_uris":{"android":"levelo://app?vid=be056168-c1af-471e-b724-1992cbce9c45","ios":"levelo://app?vid=be056168-c1af-471e-b724-1992cbce9c45"},"vehicle_type_id":"4","last_reported":1748203804,"current_range_meters":7200,"station_id":"ce4bh312rcd13ifvqdk0","pricing_plan_id":"cebpf4jnsgd1na2vs0mg"},{"bike_id":"4b21239c-4264-43d2-9677-18eac578f916","system_id":"levelo_inurba_marseille","lat":43.278239,"lon":5.407202,"is_reserved":false,"is_disabled":true,"rental_uris":{"android":"levelo://app?vid=4b21239c-4264-43d2-9677-18eac578f916","ios":"levelo://app?vid=4b21239c-4264-43d2-9677-18eac578f916"},"vehicle_type_id":"4","last_reported":1748203804,"current_range_meters":7200,"station_id":"ce4bhnh2rcd13ifvqgtg","pricing_plan_id":"cebpf4jnsgd1na2vs0mg"},{"bike_id":"946fa5fb-74a7-4881-851c-3203de09bf3c","system_id":"levelo_inurba_marseille","lat":43.23965,"lon":5.36628,"is_reserved":false,"is_disabled":false,"rental_uris":{"android":"levelo://app?vid=946fa5fb-74a7-4881-851c-3203de09bf3c","ios":"levelo://app?vid=946fa5fb-74a7-4881-851c-3203de09bf3c"},"vehicle_type_id":"4","last_reported":1748203804,"current_range_meters":7200,"station_id":"ce4bhi12rcd13ifvqfp0","pricing_plan_id":"cebpf4jnsgd1na2vs0mg"},{"bike_id":"b72ccfd1-35cf-4b02-9c1a-90aef7c74e5f","system_id":"levelo_inurba_marseille","lat":43.24856,"lon":5.44208,"is_reserved":false,"is_disabled":false,"rental_uris":{"android":"levelo://app?vid=b72ccfd1-35cf-4b02-9c1a-90aef7c74e5f","ios":"levelo://app?vid=b72ccfd1-35cf-4b02-9c1a-90aef7c74e5f"},"vehicle_type_id":"4","last_reported":1748203804,"current_range_meters":7200,"station_id":"","pricing_plan_id":"cebpf4jnsgd1na2vs0mg"},{"bike_id":"70560b1c-7100-46da-ad95-4a6e70fb9ccb","system_id":"levelo_inurba_marseille","lat":43.270714,"lon":5.422804,"is_reserved":false,"is_disabled":false,"rental_uris":{"android":"levelo://app?vid=70560b1c-7100-46da-ad95-4a6e70fb9ccb","ios":"levelo://app?vid=70560b1c-7100-46da-ad95-4a6e70fb9ccb"},"vehicle_type_id":"4","last_reported":1748203804,"current_range_meters":7200,"station_id":"ce4bhk92rcd13ifvqgb0","pricing_plan_id":"cebpf4jnsgd1na2vs0mg"},{"bike_id":"a7ca18cb-5699-43ff-ae46-0141c2a756ff","system_id":"levelo_inurba_marseille","lat":43.29195,"lon":5.39334,"is_reserved":false,"is_disabled":false,"rental_uris":{"android":"levelo://app?vid=a7ca18cb-5699-43ff-ae46-0141c2a756ff","ios":"levelo://app?vid=a7ca18cb-5699-43ff-ae46-0141c2a756ff"},"vehicle_type_id":"4","last_reported":1748203804,"current_range_meters":8000,"station_id":"ce4bh192rcd13ifvqdd0","pricing_plan_id":"cebpf4jnsgd1na2vs0mg"},{"bike_id":"52576f65-a317-46bf-a8be-8b0e1f64c00c","system_id":"levelo_inurba_marseille","lat":43.28077,"lon":5.39656,"is_reserved":false,"is_disabled":false,"rental_uris":{"android":"levelo://app?vid=52576f65-a317-46bf-a8be-8b0e1f64c00c","ios":"levelo://app?vid=52576f65-a317-46bf-a8be-8b0e1f64c00c"},"vehicle_type_id":"4","last_reported":1748203804,"current_range_meters":8000,"station_id":"ce4bho12rcd13ifvqh2g","pricing_plan_id":"cebpf4jnsgd1na2vs0mg"},{"bike_id":"d9fa0449-e47c-4bbe-a91c-4939cab5d888","system_id":"levelo_inurba_marseille","lat":43.28498,"lon":5.42464,"is_reserved":false,"is_disabled":false,"rental_uris":{"android":"levelo://app?vid=d9fa0449-e47c-4bbe-a91c-4939cab5d888","ios":"levelo://app?vid=d9fa0449-e47c-4bbe-a91c-4939cab5d888"},"vehicle_type_id":"4","last_reported":1748203804,"current_range_meters":8000,"station_id":"","pricing_plan_id":"cebpf4jnsgd1na2vs0mg"},{"bike_id":"4c572631-4468-404e-b6c2-dd4a4b3174f2","system_id":"levelo_inurba_marseille","lat":43.2881,"lon":5.3632,"is_reserved":false,"is_disabled":false,"rental_uris":{"android":"levelo://app?vid=4c572631-4468-404e-b6c2-dd4a4b3174f2","ios":"levelo://app?vid=4c572631-4468-404e-b6c2-dd4a4b3174f2"},"vehicle_type_id":"4","last_reported":1748203804,"current_range_meters":8000,"station_id":"","pricing_plan_id":"cebpf4jnsgd1na2vs0mg"},{"bike_id":"cb7d324b-f1a4-4dd0-9cea-8a3d748cedd9","system_id":"levelo_inurba_marseille","lat":43.26031,"lon":5.37547,"is_reserved":false,"is_disabled":false,"rental_uris":{"android":"levelo://app?vid=cb7d324b-f1a4-4dd0-9cea-8a3d748cedd9","ios":"levelo://app?vid=cb7d324b-f1a4-4dd0-9cea-8a3d748cedd9"},"vehicle_type_id":"4","last_reported":1748203804,"current_range_meters":7200,"station_id":"ce4bhgh2rcd13ifvqfa0","pricing_plan_id":"cebpf4jnsgd1na2vs0mg"},{"bike_id":"927e3f29-24b9-4e3b-83cd-8df6b912e853","system_id":"levelo_inurba_marseille","lat":43.30277,"lon":5.37281,"is_reserved":false,"is_disabled":false,"rental_uris":{"android":"levelo://app?vid=927e3f29-24b9-4e3b-83cd-8df6b912e853","ios":"levelo://app?vid=927e3f29-24b9-4e3b-83cd-8df6b912e853"},"vehicle_type_id":"4","last_reported":1748203804,"current_range_meters":8000,"station_id":"","pricing_plan_id":"cebpf4jnsgd1na2vs0mg"},{"bike_id":"e8fa7405-1174-4ec6-ac79-104273598283","system_id":"levelo_inurba_marseille","lat":43.30645,"lon":5.40069,"is_reserved":false,"is_disabled":true,"rental_uris":{"android":"levelo://app?vid=e8fa7405-1174-4ec6-ac79-104273598283","ios":"levelo://app?vid=e8fa7405-1174-4ec6-ac79-104273598283"},"vehicle_type_id":"4","last_reported":1748203804,"current_range_meters":8400,"station_id":"ce4bh112rcd13ifvqda0","pricing_plan_id":"cebpf4jnsgd1na2vs0mg"},{"bike_id":"4855017c-c5a2-4164-ae8a-e31b54c290c1","system_id":"levelo_inurba_marseille","lat":43.25134,"lon":5.40354,"is_reserved":false,"is_disabled":false,"rental_uris":{"android":"levelo://app?vid=4855017c-c5a2-4164-ae8a-e31b54c290c1","ios":"levelo://app?vid=4855017c-c5a2-4164-ae8a-e31b54c290c1"},"vehicle_type_id":"4","last_reported":1748203804,"current_range_meters":8400,"station_id":"ce4bhlh2rcd13ifvqgig","pricing_plan_id":"cebpf4jnsgd1na2vs0mg"},{"bike_id":"da453a88-f81b-4e0f-9781-5a7f6c1d364c","system_id":"levelo_inurba_marseille","lat":43.337499,"lon":5.374469,"is_reserved":false,"is_disabled":false,"rental_uris":{"android":"levelo://app?vid=da453a88-f81b-4e0f-9781-5a7f6c1d364c","ios":"levelo://app?vid=da453a88-f81b-4e0f-9781-5a7f6c1d364c"},"vehicle_type_id":"4","last_reported":1748203804,"current_range_meters":8400,"station_id":"","pricing_plan_id":"cebpf4jnsgd1na2vs0mg"},{"bike_id":"38edd4be-0108-47a8-9817-c6d7876be1a3","system_id":"levelo_inurba_marseille","lat":43.306963,"lon":5.395785,"is_reserved":false,"is_disabled":false,"rental_uris":{"android":"levelo://app?vid=38edd4be-0108-47a8-9817-c6d7876be1a3","ios":"levelo://app?vid=38edd4be-0108-47a8-9817-c6d7876be1a3"},"vehicle_type_id":"4","last_reported":1748203804,"current_range_meters":8400,"station_id":"","pricing_plan_id":"cebpf4jnsgd1na2vs0mg"},{"bike_id":"d7ab41ec-159d-4e91-ad66-69e96c91aacd","system_id":"levelo_inurba_marseille","lat":43.22926,"lon":5.355,"is_reserved":false,"is_disabled":true,"rental_uris":{"android":"levelo://app?vid=d7ab41ec-159d-4e91-ad66-69e96c91aacd","ios":"levelo://app?vid=d7ab41ec-159d-4e91-ad66-69e96c91aacd"},"vehicle_type_id":"4","last_reported":1748203804,"current_range_meters":8400,"station_id":"cpo3532slgdg3j2ikp40","pricing_plan_id":"cebpf4jnsgd1na2vs0mg"},{"bike_id":"764aa4a5-fdf1-45d2-8d85-f92b7302018b","system_id":"levelo_inurba_marseille","lat":43.32202,"lon":5.4401,"is_reserved":false,"is_disabled":false,"rental_uris":{"android":"levelo://app?vid=764aa4a5-fdf1-45d2-8d85-f92b7302018b","ios":"levelo://app?vid=764aa4a5-fdf1-45d2-8d85-f92b7302018b"},"vehicle_type_id":"4","last_reported":1748203804,"current_range_meters":8400,"station_id":"","pricing_plan_id":"cebpf4jnsgd1na2vs0mg"},{"bike_id":"2ac48667-cdfb-4989-a605-1cb20ca5ab52","system_id":"levelo_inurba_marseille","lat":43.2799,"lon":5.41656,"is_reserved":false,"is_disabled":false,"rental_uris":{"android":"levelo://app?vid=2ac48667-cdfb-4989-a605-1cb20ca5ab52","ios":"levelo://app?vid=2ac48667-cdfb-4989-a605-1cb20ca5ab52"},"vehicle_type_id":"4","last_reported":1748203804,"current_range_meters":8400,"station_id":"ce4bho12rcd13ifvqh1g","pricing_plan_id":"cebpf4jnsgd1na2vs0mg"},{"bike_id":"a8f301c3-ad0f-4a3d-b668-8eee8822f595","system_id":"levelo_inurba_marseille","lat":43.29884,"lon":5.38906,"is_reserved":false,"is_disabled":false,"rental_uris":{"android":"levelo://app?vid=a8f301c3-ad0f-4a3d-b668-8eee8822f595","ios":"levelo://app?vid=a8f301c3-ad0f-4a3d-b668-8eee8822f595"},"vehicle_type_id":"4","last_reported":1748203804,"current_range_meters":8400,"station_id":"ce4bh392rcd13ifvqdl0","pricing_plan_id":"cebpf4jnsgd1na2vs0mg"},{"bike_id":"c1450594-a07e-481e-8ce6-065c5ef09f24","system_id":"levelo_inurba_marseille","lat":43.2466,"lon":5.3817,"is_reserved":false,"is_disabled":true,"rental_uris":{"android":"levelo://app?vid=c1450594-a07e-481e-8ce6-065c5ef09f24","ios":"levelo://app?vid=c1450594-a07e-481e-8ce6-065c5ef09f24"},"vehicle_type_id":"4","last_reported":1748203804,"current_range_meters":8400,"station_id":"ce4bhih2rcd13ifvqfr0","pricing_plan_id":"cebpf4jnsgd1na2vs0mg"},{"bike_id":"6bdbaf35-0aeb-4c34-8490-5c1e6efe90bc","system_id":"levelo_inurba_marseille","lat":43.279973,"lon":5.400195,"is_reserved":false,"is_disabled":false,"rental_uris":{"android":"levelo://app?vid=6bdbaf35-0aeb-4c34-8490-5c1e6efe90bc","ios":"levelo://app?vid=6bdbaf35-0aeb-4c34-8490-5c1e6efe90bc"},"vehicle_type_id":"4","last_reported":1748203804,"current_range_meters":8400,"station_id":"ce4bho92rcd13ifvqh4g","pricing_plan_id":"cebpf4jnsgd1na2vs0mg"},{"bike_id":"fcf9ed5d-aec3-48cd-8820-30bdf80666e0","system_id":"levelo_inurba_marseille","lat":43.29199,"lon":5.39315,"is_reserved":false,"is_disabled":false,"rental_uris":{"android":"levelo://app?vid=fcf9ed5d-aec3-48cd-8820-30bdf80666e0","ios":"levelo://app?vid=fcf9ed5d-aec3-48cd-8820-30bdf80666e0"},"vehicle_type_id":"4","last_reported":1748203804,"current_range_meters":8800,"station_id":"ce4bh192rcd13ifvqdd0","pricing_plan_id":"cebpf4jnsgd1na2vs0mg"},{"bike_id":"a55a9782-404f-462c-8cd4-727e37ec6e33","system_id":"levelo_inurba_marseille","lat":43.30039,"lon":5.38609,"is_reserved":false,"is_disabled":false,"rental_uris":{"android":"levelo://app?vid=a55a9782-404f-462c-8cd4-727e37ec6e33","ios":"levelo://app?vid=a55a9782-404f-462c-8cd4-727e37ec6e33"},"vehicle_type_id":"4","last_reported":1748203804,"current_range_meters":8800,"station_id":"","pricing_plan_id":"cebpf4jnsgd1na2vs0mg"},{"bike_id":"71c6f6c5-aa0d-40e2-801d-9f6d35dc2ebc","system_id":"levelo_inurba_marseille","lat":43.27993,"lon":5.4166,"is_reserved":false,"is_disabled":false,"rental_uris":{"android":"levelo://app?vid=71c6f6c5-aa0d-40e2-801d-9f6d35dc2ebc","ios":"levelo://app?vid=71c6f6c5-aa0d-40e2-801d-9f6d35dc2ebc"},"vehicle_type_id":"4","last_reported":1748203804,"current_range_meters":8800,"station_id":"ce4bho12rcd13ifvqh1g","pricing_plan_id":"cebpf4jnsgd1na2vs0mg"},{"bike_id":"0cecbd9c-06fd-4886-ab91-8a2a7cc9cbcf","system_id":"levelo_inurba_marseille","lat":43.30546,"lon":5.367,"is_reserved":false,"is_disabled":true,"rental_uris":{"android":"levelo://app?vid=0cecbd9c-06fd-4886-ab91-8a2a7cc9cbcf","ios":"levelo://app?vid=0cecbd9c-06fd-4886-ab91-8a2a7cc9cbcf"},"vehicle_type_id":"4","last_reported":1748203804,"current_range_meters":8800,"station_id":"","pricing_plan_id":"cebpf4jnsgd1na2vs0mg"},{"bike_id":"4ccaff61-1e4b-4f25-996a-763b2c1dc0ef","system_id":"levelo_inurba_marseille","lat":43.27812,"lon":5.40714,"is_reserved":false,"is_disabled":false,"rental_uris":{"android":"levelo://app?vid=4ccaff61-1e4b-4f25-996a-763b2c1dc0ef","ios":"levelo://app?vid=4ccaff61-1e4b-4f25-996a-763b2c1dc0ef"},"vehicle_type_id":"4","last_reported":1748203804,"current_range_meters":8800,"station_id":"ce4bhnh2rcd13ifvqgtg","pricing_plan_id":"cebpf4jnsgd1na2vs0mg"},{"bike_id":"0a263450-e142-4451-8361-08e83e2883e8","system_id":"levelo_inurba_marseille","lat":43.27981,"lon":5.41668,"is_reserved":false,"is_disabled":false,"rental_uris":{"android":"levelo://app?vid=0a263450-e142-4451-8361-08e83e2883e8","ios":"levelo://app?vid=0a263450-e142-4451-8361-08e83e2883e8"},"vehicle_type_id":"4","last_reported":1748203804,"current_range_meters":8800,"station_id":"ce4bho12rcd13ifvqh1g","pricing_plan_id":"cebpf4jnsgd1na2vs0mg"},{"bike_id":"6abb9ab4-3976-4e3e-b994-f2f72ee02055","system_id":"levelo_inurba_marseille","lat":43.31824,"lon":5.36841,"is_reserved":false,"is_disabled":false,"rental_uris":{"android":"levelo://app?vid=6abb9ab4-3976-4e3e-b994-f2f72ee02055","ios":"levelo://app?vid=6abb9ab4-3976-4e3e-b994-f2f72ee02055"},"vehicle_type_id":"4","last_reported":1748203804,"current_range_meters":8800,"station_id":"","pricing_plan_id":"cebpf4jnsgd1na2vs0mg"},{"bike_id":"c3289047-8b25-4e99-8a60-2e24493769f4","system_id":"levelo_inurba_marseille","lat":43.284768,"lon":5.384156,"is_reserved":false,"is_disabled":true,"rental_uris":{"android":"levelo://app?vid=c3289047-8b25-4e99-8a60-2e24493769f4","ios":"levelo://app?vid=c3289047-8b25-4e99-8a60-2e24493769f4"},"vehicle_type_id":"4","last_reported":1748203804,"current_range_meters":8800,"station_id":"ce4bh512rcd13ifvqe3g","pricing_plan_id":"cebpf4jnsgd1na2vs0mg"},{"bike_id":"0034e007-f5f1-44d1-9969-6b5e7e2a0461","system_id":"levelo_inurba_marseille","lat":43.23188,"lon":5.39977,"is_reserved":false,"is_disabled":false,"rental_uris":{"android":"levelo://app?vid=0034e007-f5f1-44d1-9969-6b5e7e2a0461","ios":"levelo://app?vid=0034e007-f5f1-44d1-9969-6b5e7e2a0461"},"vehicle_type_id":"4","last_reported":1748203804,"current_range_meters":8800,"station_id":"ce4bhn12rcd13ifvqgqg","pricing_plan_id":"cebpf4jnsgd1na2vs0mg"},{"bike_id":"69562211-f2e0-47f5-a5e8-cd86705b5266","system_id":"levelo_inurba_marseille","lat":43.290703,"lon":5.371715,"is_reserved":false,"is_disabled":false,"rental_uris":{"android":"levelo://app?vid=69562211-f2e0-47f5-a5e8-cd86705b5266","ios":"levelo://app?vid=69562211-f2e0-47f5-a5e8-cd86705b5266"},"vehicle_type_id":"4","last_reported":1748203804,"current_range_meters":9200,"station_id":"ce4bh5p2rcd13ifvqe4g","pricing_plan_id":"cebpf4jnsgd1na2vs0mg"},{"bike_id":"985dfe2e-48ab-4438-8b44-7034bccf028e","system_id":"levelo_inurba_marseille","lat":43.27006,"lon":5.39843,"is_reserved":false,"is_disabled":false,"rental_uris":{"android":"levelo://app?vid=985dfe2e-48ab-4438-8b44-7034bccf028e","ios":"levelo://app?vid=985dfe2e-48ab-4438-8b44-7034bccf028e"},"vehicle_type_id":"4","last_reported":1748203804,"current_range_meters":9200,"station_id":"","pricing_plan_id":"cebpf4jnsgd1na2vs0mg"},{"bike_id":"3850fd70-bc18-4c11-8473-90e02d666583","system_id":"levelo_inurba_marseille","lat":43.2977,"lon":5.45991,"is_reserved":false,"is_disabled":false,"rental_uris":{"android":"levelo://app?vid=3850fd70-bc18-4c11-8473-90e02d666583","ios":"levelo://app?vid=3850fd70-bc18-4c11-8473-90e02d666583"},"vehicle_type_id":"4","last_reported":1748203804,"current_range_meters":9200,"station_id":"","pricing_plan_id":"cebpf4jnsgd1na2vs0mg"},{"bike_id":"06e49eab-a1a4-4278-8ffa-8c11f8ed906f","system_id":"levelo_inurba_marseille","lat":43.260595,"lon":5.394046,"is_reserved":false,"is_disabled":false,"rental_uris":{"android":"levelo://app?vid=06e49eab-a1a4-4278-8ffa-8c11f8ed906f","ios":"levelo://app?vid=06e49eab-a1a4-4278-8ffa-8c11f8ed906f"},"vehicle_type_id":"4","last_reported":1748203804,"current_range_meters":8800,"station_id":"ce4bhh92rcd13ifvqfj0","pricing_plan_id":"cebpf4jnsgd1na2vs0mg"},{"bike_id":"750f6585-193a-4477-948c-580515d42c9e","system_id":"levelo_inurba_marseille","lat":43.32234,"lon":5.43964,"is_reserved":false,"is_disabled":false,"rental_uris":{"android":"levelo://app?vid=750f6585-193a-4477-948c-580515d42c9e","ios":"levelo://app?vid=750f6585-193a-4477-948c-580515d42c9e"},"vehicle_type_id":"4","last_reported":1748203804,"current_range_meters":9200,"station_id":"","pricing_plan_id":"cebpf4jnsgd1na2vs0mg"},{"bike_id":"814e7c07-604a-4195-8ff4-4c00419d32a5","system_id":"levelo_inurba_marseille","lat":43.27676,"lon":5.38896,"is_reserved":false,"is_disabled":false,"rental_uris":{"android":"levelo://app?vid=814e7c07-604a-4195-8ff4-4c00419d32a5","ios":"levelo://app?vid=814e7c07-604a-4195-8ff4-4c00419d32a5"},"vehicle_type_id":"4","last_reported":1748203804,"current_range_meters":9200,"station_id":"ce4bhi12rcd13ifvqfo0","pricing_plan_id":"cebpf4jnsgd1na2vs0mg"},{"bike_id":"820bbafc-5790-4ddd-934e-c4448a2b3403","system_id":"levelo_inurba_marseille","lat":43.29713,"lon":5.36589,"is_reserved":false,"is_disabled":false,"rental_uris":{"android":"levelo://app?vid=820bbafc-5790-4ddd-934e-c4448a2b3403","ios":"levelo://app?vid=820bbafc-5790-4ddd-934e-c4448a2b3403"},"vehicle_type_id":"4","last_reported":1748203804,"current_range_meters":9200,"station_id":"ce4bgn12rcd13ifvqbt0","pricing_plan_id":"cebpf4jnsgd1na2vs0mg"},{"bike_id":"79319067-4056-40c3-b6fc-25343a47010c","system_id":"levelo_inurba_marseille","lat":43.27971,"lon":5.41665,"is_reserved":false,"is_disabled":false,"rental_uris":{"android":"levelo://app?vid=79319067-4056-40c3-b6fc-25343a47010c","ios":"levelo://app?vid=79319067-4056-40c3-b6fc-25343a47010c"},"vehicle_type_id":"4","last_reported":1748203804,"current_range_meters":9200,"station_id":"ce4bho12rcd13ifvqh1g","pricing_plan_id":"cebpf4jnsgd1na2vs0mg"},{"bike_id":"6ea542cd-bd1f-400f-9487-7a1aeb2c6cf5","system_id":"levelo_inurba_marseille","lat":43.308033,"lon":5.381721,"is_reserved":false,"is_disabled":true,"rental_uris":{"android":"levelo://app?vid=6ea542cd-bd1f-400f-9487-7a1aeb2c6cf5","ios":"levelo://app?vid=6ea542cd-bd1f-400f-9487-7a1aeb2c6cf5"},"vehicle_type_id":"4","last_reported":1748203804,"current_range_meters":9600,"station_id":"ce4bgt12rcd13ifvqce0","pricing_plan_id":"cebpf4jnsgd1na2vs0mg"},{"bike_id":"1411bd08-2d28-4068-8e93-c05f0f1635fd","system_id":"levelo_inurba_marseille","lat":43.30419,"lon":5.39731,"is_reserved":false,"is_disabled":false,"rental_uris":{"android":"levelo://app?vid=1411bd08-2d28-4068-8e93-c05f0f1635fd","ios":"levelo://app?vid=1411bd08-2d28-4068-8e93-c05f0f1635fd"},"vehicle_type_id":"4","last_reported":1748203804,"current_range_meters":9200,"station_id":"ce4bh092rcd13ifvqd20","pricing_plan_id":"cebpf4jnsgd1na2vs0mg"},{"bike_id":"39ce1a52-e5ac-472b-bf0d-06a45686d5cc","system_id":"levelo_inurba_marseille","lat":43.29531,"lon":5.39394,"is_reserved":false,"is_disabled":false,"rental_uris":{"android":"levelo://app?vid=39ce1a52-e5ac-472b-bf0d-06a45686d5cc","ios":"levelo://app?vid=39ce1a52-e5ac-472b-bf0d-06a45686d5cc"},"vehicle_type_id":"4","last_reported":1748203804,"current_range_meters":9600,"station_id":"ce4bh292rcd13ifvqdf0","pricing_plan_id":"cebpf4jnsgd1na2vs0mg"},{"bike_id":"b2481e92-81b3-44e8-b36f-4f554a3e5626","system_id":"levelo_inurba_marseille","lat":43.29532,"lon":5.38544,"is_reserved":false,"is_disabled":true,"rental_uris":{"android":"levelo://app?vid=b2481e92-81b3-44e8-b36f-4f554a3e5626","ios":"levelo://app?vid=b2481e92-81b3-44e8-b36f-4f554a3e5626"},"vehicle_type_id":"4","last_reported":1748203804,"current_range_meters":9600,"station_id":"ce4bgih2rcd13ifvqba0","pricing_plan_id":"cebpf4jnsgd1na2vs0mg"},{"bike_id":"88618280-9787-4087-868e-eef2ad3fd538","system_id":"levelo_inurba_marseille","lat":43.2903,"lon":5.35905,"is_reserved":false,"is_disabled":true,"rental_uris":{"android":"levelo://app?vid=88618280-9787-4087-868e-eef2ad3fd538","ios":"levelo://app?vid=88618280-9787-4087-868e-eef2ad3fd538"},"vehicle_type_id":"4","last_reported":1748203804,"current_range_meters":9600,"station_id":"ce4bha92rcd13ifvqeg0","pricing_plan_id":"cebpf4jnsgd1na2vs0mg"},{"bike_id":"5abb8a77-fbf0-4d21-805b-29790cff0e49","system_id":"levelo_inurba_marseille","lat":43.3109,"lon":5.42452,"is_reserved":false,"is_disabled":false,"rental_uris":{"android":"levelo://app?vid=5abb8a77-fbf0-4d21-805b-29790cff0e49","ios":"levelo://app?vid=5abb8a77-fbf0-4d21-805b-29790cff0e49"},"vehicle_type_id":"4","last_reported":1748203804,"current_range_meters":9600,"station_id":"ce4bhp92rcd13ifvqhag","pricing_plan_id":"cebpf4jnsgd1na2vs0mg"},{"bike_id":"54a3bbf5-ebe4-4594-9532-519c0897eb70","system_id":"levelo_inurba_marseille","lat":43.2993,"lon":5.41361,"is_reserved":false,"is_disabled":true,"rental_uris":{"android":"levelo://app?vid=54a3bbf5-ebe4-4594-9532-519c0897eb70","ios":"levelo://app?vid=54a3bbf5-ebe4-4594-9532-519c0897eb70"},"vehicle_type_id":"4","last_reported":1748203804,"current_range_meters":10000,"station_id":"ce4bhp12rcd13ifvqh9g","pricing_plan_id":"cebpf4jnsgd1na2vs0mg"},{"bike_id":"265a619d-70e2-490e-b770-35c70e4b1754","system_id":"levelo_inurba_marseille","lat":43.29705,"lon":5.37698,"is_reserved":false,"is_disabled":false,"rental_uris":{"android":"levelo://app?vid=265a619d-70e2-490e-b770-35c70e4b1754","ios":"levelo://app?vid=265a619d-70e2-490e-b770-35c70e4b1754"},"vehicle_type_id":"4","last_reported":1748203804,"current_range_meters":10000,"station_id":"ce4bgkh2rcd13ifvqbl0","pricing_plan_id":"cebpf4jnsgd1na2vs0mg"},{"bike_id":"77f400c2-e328-4b6a-8d46-f0438a35aacb","system_id":"levelo_inurba_marseille","lat":43.28362,"lon":5.38097,"is_reserved":false,"is_disabled":false,"rental_uris":{"android":"levelo://app?vid=77f400c2-e328-4b6a-8d46-f0438a35aacb","ios":"levelo://app?vid=77f400c2-e328-4b6a-8d46-f0438a35aacb"},"vehicle_type_id":"4","last_reported":1748203804,"current_range_meters":10000,"station_id":"ce4bh412rcd13ifvqdr0","pricing_plan_id":"cebpf4jnsgd1na2vs0mg"},{"bike_id":"ad35d7fa-a2c3-4e55-aac0-809f81c12d57","system_id":"levelo_inurba_marseille","lat":43.23044,"lon":5.35504,"is_reserved":false,"is_disabled":false,"rental_uris":{"android":"levelo://app?vid=ad35d7fa-a2c3-4e55-aac0-809f81c12d57","ios":"levelo://app?vid=ad35d7fa-a2c3-4e55-aac0-809f81c12d57"},"vehicle_type_id":"4","last_reported":1748203804,"current_range_meters":10000,"station_id":"cpo3342slgdg3j2ifvpg","pricing_plan_id":"cebpf4jnsgd1na2vs0mg"},{"bike_id":"15a8deb0-e71e-443a-ae7a-c5c67bb48d92","system_id":"levelo_inurba_marseille","lat":43.29549,"lon":5.38543,"is_reserved":false,"is_disabled":false,"rental_uris":{"android":"levelo://app?vid=15a8deb0-e71e-443a-ae7a-c5c67bb48d92","ios":"levelo://app?vid=15a8deb0-e71e-443a-ae7a-c5c67bb48d92"},"vehicle_type_id":"4","last_reported":1748203804,"current_range_meters":10800,"station_id":"ce4bgih2rcd13ifvqba0","pricing_plan_id":"cebpf4jnsgd1na2vs0mg"},{"bike_id":"d13e78a2-7181-4cd4-bc5a-0fb5cb82c517","system_id":"levelo_inurba_marseille","lat":43.29525,"lon":5.39037,"is_reserved":false,"is_disabled":false,"rental_uris":{"android":"levelo://app?vid=d13e78a2-7181-4cd4-bc5a-0fb5cb82c517","ios":"levelo://app?vid=d13e78a2-7181-4cd4-bc5a-0fb5cb82c517"},"vehicle_type_id":"4","last_reported":1748203804,"current_range_meters":10000,"station_id":"ce4bh3p2rcd13ifvqdp0","pricing_plan_id":"cebpf4jnsgd1na2vs0mg"},{"bike_id":"7f0b3323-77a1-43c6-a91f-7eae2ece8cc3","system_id":"levelo_inurba_marseille","lat":43.3163,"lon":5.38956,"is_reserved":false,"is_disabled":false,"rental_uris":{"android":"levelo://app?vid=7f0b3323-77a1-43c6-a91f-7eae2ece8cc3","ios":"levelo://app?vid=7f0b3323-77a1-43c6-a91f-7eae2ece8cc3"},"vehicle_type_id":"4","last_reported":1748203804,"current_range_meters":10800,"station_id":"","pricing_plan_id":"cebpf4jnsgd1na2vs0mg"},{"bike_id":"e9496718-b841-4999-823d-28c5bee5d6f1","system_id":"levelo_inurba_marseille","lat":43.26555,"lon":5.38966,"is_reserved":false,"is_disabled":false,"rental_uris":{"android":"levelo://app?vid=e9496718-b841-4999-823d-28c5bee5d6f1","ios":"levelo://app?vid=e9496718-b841-4999-823d-28c5bee5d6f1"},"vehicle_type_id":"4","last_reported":1748203804,"current_range_meters":10800,"station_id":"ce4bhe12rcd13ifvqf30","pricing_plan_id":"cebpf4jnsgd1na2vs0mg"},{"bike_id":"926afc1e-13eb-41a3-b6d7-8eacbb4c3b98","system_id":"levelo_inurba_marseille","lat":43.306417,"lon":5.400807,"is_reserved":false,"is_disabled":false,"rental_uris":{"android":"levelo://app?vid=926afc1e-13eb-41a3-b6d7-8eacbb4c3b98","ios":"levelo://app?vid=926afc1e-13eb-41a3-b6d7-8eacbb4c3b98"},"vehicle_type_id":"4","last_reported":1748203804,"current_range_meters":10800,"station_id":"ce4bh112rcd13ifvqda0","pricing_plan_id":"cebpf4jnsgd1na2vs0mg"},{"bike_id":"f93b74c5-5226-4250-aaa8-c7e610f5fc0b","system_id":"levelo_inurba_marseille","lat":43.27054,"lon":5.42261,"is_reserved":false,"is_disabled":false,"rental_uris":{"android":"levelo://app?vid=f93b74c5-5226-4250-aaa8-c7e610f5fc0b","ios":"levelo://app?vid=f93b74c5-5226-4250-aaa8-c7e610f5fc0b"},"vehicle_type_id":"4","last_reported":1748203804,"current_range_meters":10800,"station_id":"ce4bhk92rcd13ifvqgb0","pricing_plan_id":"cebpf4jnsgd1na2vs0mg"},{"bike_id":"7d3bd24a-e5f9-4754-8ec6-3ba44c9c4f5b","system_id":"levelo_inurba_marseille","lat":43.24817,"lon":5.37468,"is_reserved":false,"is_disabled":true,"rental_uris":{"android":"levelo://app?vid=7d3bd24a-e5f9-4754-8ec6-3ba44c9c4f5b","ios":"levelo://app?vid=7d3bd24a-e5f9-4754-8ec6-3ba44c9c4f5b"},"vehicle_type_id":"4","last_reported":1748203804,"current_range_meters":10800,"station_id":"ce4bhgh2rcd13ifvqfb0","pricing_plan_id":"cebpf4jnsgd1na2vs0mg"},{"bike_id":"babf2536-6e8c-496c-84cd-ee0a1197143e","system_id":"levelo_inurba_marseille","lat":43.2926,"lon":5.40915,"is_reserved":false,"is_disabled":false,"rental_uris":{"android":"levelo://app?vid=babf2536-6e8c-496c-84cd-ee0a1197143e","ios":"levelo://app?vid=babf2536-6e8c-496c-84cd-ee0a1197143e"},"vehicle_type_id":"4","last_reported":1748203804,"current_range_meters":10800,"station_id":"ce4bh192rcd13ifvqdc0","pricing_plan_id":"cebpf4jnsgd1na2vs0mg"},{"bike_id":"78084e65-0f8a-4a63-bf1c-3fbde80b370d","system_id":"levelo_inurba_marseille","lat":43.294509,"lon":5.433639,"is_reserved":false,"is_disabled":true,"rental_uris":{"android":"levelo://app?vid=78084e65-0f8a-4a63-bf1c-3fbde80b370d","ios":"levelo://app?vid=78084e65-0f8a-4a63-bf1c-3fbde80b370d"},"vehicle_type_id":"4","last_reported":1748203804,"current_range_meters":10800,"station_id":"","pricing_plan_id":"cebpf4jnsgd1na2vs0mg"},{"bike_id":"8c24a1cc-9755-4ef3-aee7-aeff472999dc","system_id":"levelo_inurba_marseille","lat":43.28291,"lon":5.3507,"is_reserved":false,"is_disabled":true,"rental_uris":{"android":"levelo://app?vid=8c24a1cc-9755-4ef3-aee7-aeff472999dc","ios":"levelo://app?vid=8c24a1cc-9755-4ef3-aee7-aeff472999dc"},"vehicle_type_id":"4","last_reported":1748203804,"current_range_meters":10800,"station_id":"ce4bhbp2rcd13ifvqerg","pricing_plan_id":"cebpf4jnsgd1na2vs0mg"},{"bike_id":"dabc077c-bf8d-431d-a5ea-dcd441e9b7b1","system_id":"levelo_inurba_marseille","lat":43.2488,"lon":5.39723,"is_reserved":false,"is_disabled":false,"rental_uris":{"android":"levelo://app?vid=dabc077c-bf8d-431d-a5ea-dcd441e9b7b1","ios":"levelo://app?vid=dabc077c-bf8d-431d-a5ea-dcd441e9b7b1"},"vehicle_type_id":"4","last_reported":1748203804,"current_range_meters":10800,"station_id":"","pricing_plan_id":"cebpf4jnsgd1na2vs0mg"},{"bike_id":"f6d9f9c7-48a6-477b-be9d-e0c2a4dc6895","system_id":"levelo_inurba_marseille","lat":43.28572,"lon":5.39496,"is_reserved":false,"is_disabled":false,"rental_uris":{"android":"levelo://app?vid=f6d9f9c7-48a6-477b-be9d-e0c2a4dc6895","ios":"levelo://app?vid=f6d9f9c7-48a6-477b-be9d-e0c2a4dc6895"},"vehicle_type_id":"4","last_reported":1748203804,"current_range_meters":10800,"station_id":"ce4bh292rcd13ifvqdg0","pricing_plan_id":"cebpf4jnsgd1na2vs0mg"},{"bike_id":"e70e1a6d-f815-48b3-9091-3d1a5f8fd9dc","system_id":"levelo_inurba_marseille","lat":43.24389,"lon":5.37056,"is_reserved":false,"is_disabled":false,"rental_uris":{"android":"levelo://app?vid=e70e1a6d-f815-48b3-9091-3d1a5f8fd9dc","ios":"levelo://app?vid=e70e1a6d-f815-48b3-9091-3d1a5f8fd9dc"},"vehicle_type_id":"4","last_reported":1748203804,"current_range_meters":10800,"station_id":"ce4bhhh2rcd13ifvqfk0","pricing_plan_id":"cebpf4jnsgd1na2vs0mg"},{"bike_id":"473cdad8-e86f-436c-900c-612ff8b20c12","system_id":"levelo_inurba_marseille","lat":43.3171,"lon":5.43697,"is_reserved":false,"is_disabled":true,"rental_uris":{"android":"levelo://app?vid=473cdad8-e86f-436c-900c-612ff8b20c12","ios":"levelo://app?vid=473cdad8-e86f-436c-900c-612ff8b20c12"},"vehicle_type_id":"4","last_reported":1748203804,"current_range_meters":11200,"station_id":"ce4bhp92rcd13ifvqhcg","pricing_plan_id":"cebpf4jnsgd1na2vs0mg"},{"bike_id":"83ad7a20-5e0f-4da6-b016-33ad483df1ae","system_id":"levelo_inurba_marseille","lat":43.3079,"lon":5.37638,"is_reserved":false,"is_disabled":false,"rental_uris":{"android":"levelo://app?vid=83ad7a20-5e0f-4da6-b016-33ad483df1ae","ios":"levelo://app?vid=83ad7a20-5e0f-4da6-b016-33ad483df1ae"},"vehicle_type_id":"4","last_reported":1748203804,"current_range_meters":11200,"station_id":"ce4bgv92rcd13ifvqcq0","pricing_plan_id":"cebpf4jnsgd1na2vs0mg"},{"bike_id":"fb8a5899-9381-4f53-ae55-95564e4af8b9","system_id":"levelo_inurba_marseille","lat":43.29279,"lon":5.40109,"is_reserved":false,"is_disabled":false,"rental_uris":{"android":"levelo://app?vid=fb8a5899-9381-4f53-ae55-95564e4af8b9","ios":"levelo://app?vid=fb8a5899-9381-4f53-ae55-95564e4af8b9"},"vehicle_type_id":"4","last_reported":1748203804,"current_range_meters":11600,"station_id":"ce4bh312rcd13ifvqdk0","pricing_plan_id":"cebpf4jnsgd1na2vs0mg"},{"bike_id":"b1dd34d7-e1da-4718-b237-74f07f2bbef1","system_id":"levelo_inurba_marseille","lat":43.26062,"lon":5.39395,"is_reserved":false,"is_disabled":false,"rental_uris":{"android":"levelo://app?vid=b1dd34d7-e1da-4718-b237-74f07f2bbef1","ios":"levelo://app?vid=b1dd34d7-e1da-4718-b237-74f07f2bbef1"},"vehicle_type_id":"4","last_reported":1748203804,"current_range_meters":11200,"station_id":"ce4bhh92rcd13ifvqfj0","pricing_plan_id":"cebpf4jnsgd1na2vs0mg"},{"bike_id":"e26aa2b0-7df1-45dc-93f0-8478476038dc","system_id":"levelo_inurba_marseille","lat":43.27073,"lon":5.422736,"is_reserved":false,"is_disabled":false,"rental_uris":{"android":"levelo://app?vid=e26aa2b0-7df1-45dc-93f0-8478476038dc","ios":"levelo://app?vid=e26aa2b0-7df1-45dc-93f0-8478476038dc"},"vehicle_type_id":"4","last_reported":1748203804,"current_range_meters":11600,"station_id":"ce4bhk92rcd13ifvqgb0","pricing_plan_id":"cebpf4jnsgd1na2vs0mg"},{"bike_id":"d6f3bdef-5fc7-44d2-99a1-c19c25c32213","system_id":"levelo_inurba_marseille","lat":43.29066,"lon":5.37165,"is_reserved":false,"is_disabled":false,"rental_uris":{"android":"levelo://app?vid=d6f3bdef-5fc7-44d2-99a1-c19c25c32213","ios":"levelo://app?vid=d6f3bdef-5fc7-44d2-99a1-c19c25c32213"},"vehicle_type_id":"4","last_reported":1748203804,"current_range_meters":11600,"station_id":"ce4bh5p2rcd13ifvqe4g","pricing_plan_id":"cebpf4jnsgd1na2vs0mg"},{"bike_id":"3bf43e97-8f8f-4e30-b0d0-31bd8a7ef83d","system_id":"levelo_inurba_marseille","lat":43.29257,"lon":5.37609,"is_reserved":false,"is_disabled":false,"rental_uris":{"android":"levelo://app?vid=3bf43e97-8f8f-4e30-b0d0-31bd8a7ef83d","ios":"levelo://app?vid=3bf43e97-8f8f-4e30-b0d0-31bd8a7ef83d"},"vehicle_type_id":"4","last_reported":1748203804,"current_range_meters":11600,"station_id":"ce4bgi12rcd13ifvqb80","pricing_plan_id":"cebpf4jnsgd1na2vs0mg"},{"bike_id":"7600fb42-6ce1-463d-9757-886e3e3a39b4","system_id":"levelo_inurba_marseille","lat":43.29259,"lon":5.38436,"is_reserved":false,"is_disabled":false,"rental_uris":{"android":"levelo://app?vid=7600fb42-6ce1-463d-9757-886e3e3a39b4","ios":"levelo://app?vid=7600fb42-6ce1-463d-9757-886e3e3a39b4"},"vehicle_type_id":"4","last_reported":1748203804,"current_range_meters":11600,"station_id":"ce4bh692rcd13ifvqea0","pricing_plan_id":"cebpf4jnsgd1na2vs0mg"},{"bike_id":"b71e9d86-16c9-4b25-9ec6-30ee88bc8528","system_id":"levelo_inurba_marseille","lat":43.28701,"lon":5.37385,"is_reserved":false,"is_disabled":false,"rental_uris":{"android":"levelo://app?vid=b71e9d86-16c9-4b25-9ec6-30ee88bc8528","ios":"levelo://app?vid=b71e9d86-16c9-4b25-9ec6-30ee88bc8528"},"vehicle_type_id":"4","last_reported":1748203804,"current_range_meters":12000,"station_id":"ce4bh3p2rcd13ifvqdq0","pricing_plan_id":"cebpf4jnsgd1na2vs0mg"},{"bike_id":"4ecde69a-3a34-421d-8f3c-6a8fe1837c97","system_id":"levelo_inurba_marseille","lat":43.25727,"lon":5.41089,"is_reserved":false,"is_disabled":false,"rental_uris":{"android":"levelo://app?vid=4ecde69a-3a34-421d-8f3c-6a8fe1837c97","ios":"levelo://app?vid=4ecde69a-3a34-421d-8f3c-6a8fe1837c97"},"vehicle_type_id":"4","last_reported":1748203804,"current_range_meters":12000,"station_id":"ce4bhkp2rcd13ifvqgd0","pricing_plan_id":"cebpf4jnsgd1na2vs0mg"},{"bike_id":"ebcfcb73-45fd-4538-a1a0-b74a531cfee6","system_id":"levelo_inurba_marseille","lat":43.30144,"lon":5.37415,"is_reserved":false,"is_disabled":false,"rental_uris":{"android":"levelo://app?vid=ebcfcb73-45fd-4538-a1a0-b74a531cfee6","ios":"levelo://app?vid=ebcfcb73-45fd-4538-a1a0-b74a531cfee6"},"vehicle_type_id":"4","last_reported":1748203804,"current_range_meters":12000,"station_id":"ce4bgs92rcd13ifvqcc0","pricing_plan_id":"cebpf4jnsgd1na2vs0mg"},{"bike_id":"203aa19c-5810-43bb-8440-63b0d6edbf94","system_id":"levelo_inurba_marseille","lat":43.24087,"lon":5.37769,"is_reserved":false,"is_disabled":false,"rental_uris":{"android":"levelo://app?vid=203aa19c-5810-43bb-8440-63b0d6edbf94","ios":"levelo://app?vid=203aa19c-5810-43bb-8440-63b0d6edbf94"},"vehicle_type_id":"4","last_reported":1748203804,"current_range_meters":12000,"station_id":"ce4bhnp2rcd13ifvqgvg","pricing_plan_id":"cebpf4jnsgd1na2vs0mg"},{"bike_id":"f4635071-065e-413f-aebe-b3a3ab00d510","system_id":"levelo_inurba_marseille","lat":43.24185,"lon":5.39735,"is_reserved":false,"is_disabled":false,"rental_uris":{"android":"levelo://app?vid=f4635071-065e-413f-aebe-b3a3ab00d510","ios":"levelo://app?vid=f4635071-065e-413f-aebe-b3a3ab00d510"},"vehicle_type_id":"4","last_reported":1748203804,"current_range_meters":12000,"station_id":"ce4bhn12rcd13ifvqgpg","pricing_plan_id":"cebpf4jnsgd1na2vs0mg"},{"bike_id":"24a7b961-6b61-496b-a6ba-b8e8b52a21fa","system_id":"levelo_inurba_marseille","lat":43.29702,"lon":5.3769,"is_reserved":false,"is_disabled":false,"rental_uris":{"android":"levelo://app?vid=24a7b961-6b61-496b-a6ba-b8e8b52a21fa","ios":"levelo://app?vid=24a7b961-6b61-496b-a6ba-b8e8b52a21fa"},"vehicle_type_id":"4","last_reported":1748203804,"current_range_meters":12000,"station_id":"ce4bgkh2rcd13ifvqbl0","pricing_plan_id":"cebpf4jnsgd1na2vs0mg"},{"bike_id":"d0d44c4c-89a0-41bf-8cfa-b2b0e28248d6","system_id":"levelo_inurba_marseille","lat":43.29266,"lon":5.37618,"is_reserved":false,"is_disabled":false,"rental_uris":{"android":"levelo://app?vid=d0d44c4c-89a0-41bf-8cfa-b2b0e28248d6","ios":"levelo://app?vid=d0d44c4c-89a0-41bf-8cfa-b2b0e28248d6"},"vehicle_type_id":"4","last_reported":1748203804,"current_range_meters":12000,"station_id":"ce4bgi12rcd13ifvqb80","pricing_plan_id":"cebpf4jnsgd1na2vs0mg"},{"bike_id":"fc56555b-396d-4667-b896-0ad86036e39e","system_id":"levelo_inurba_marseille","lat":43.25905,"lon":5.38036,"is_reserved":false,"is_disabled":false,"rental_uris":{"android":"levelo://app?vid=fc56555b-396d-4667-b896-0ad86036e39e","ios":"levelo://app?vid=fc56555b-396d-4667-b896-0ad86036e39e"},"vehicle_type_id":"4","last_reported":1748203804,"current_range_meters":12400,"station_id":"","pricing_plan_id":"cebpf4jnsgd1na2vs0mg"},{"bike_id":"ba8c852d-d218-4446-b96c-d0fe3f7662b6","system_id":"levelo_inurba_marseille","lat":43.28918,"lon":5.36664,"is_reserved":false,"is_disabled":false,"rental_uris":{"android":"levelo://app?vid=ba8c852d-d218-4446-b96c-d0fe3f7662b6","ios":"levelo://app?vid=ba8c852d-d218-4446-b96c-d0fe3f7662b6"},"vehicle_type_id":"4","last_reported":1748203804,"current_range_meters":12400,"station_id":"ce4bhap2rcd13ifvqek0","pricing_plan_id":"cebpf4jnsgd1na2vs0mg"},{"bike_id":"fb14966c-dc81-4839-a094-ab8c755c3e53","system_id":"levelo_inurba_marseille","lat":43.28676,"lon":5.38711,"is_reserved":false,"is_disabled":false,"rental_uris":{"android":"levelo://app?vid=fb14966c-dc81-4839-a094-ab8c755c3e53","ios":"levelo://app?vid=fb14966c-dc81-4839-a094-ab8c755c3e53"},"vehicle_type_id":"4","last_reported":1748203804,"current_range_meters":12400,"station_id":"ce4bh492rcd13ifvqdug","pricing_plan_id":"cebpf4jnsgd1na2vs0mg"},{"bike_id":"767b7867-d9f9-4d2f-ba86-cf65013c135c","system_id":"levelo_inurba_marseille","lat":43.30351,"lon":5.41873,"is_reserved":false,"is_disabled":false,"rental_uris":{"android":"levelo://app?vid=767b7867-d9f9-4d2f-ba86-cf65013c135c","ios":"levelo://app?vid=767b7867-d9f9-4d2f-ba86-cf65013c135c"},"vehicle_type_id":"4","last_reported":1748203804,"current_range_meters":12000,"station_id":"ce4bhop2rcd13ifvqh7g","pricing_plan_id":"cebpf4jnsgd1na2vs0mg"},{"bike_id":"e89d3ec5-7ce0-47ab-9373-b4034d476e7c","system_id":"levelo_inurba_marseille","lat":43.27814,"lon":5.40715,"is_reserved":false,"is_disabled":false,"rental_uris":{"android":"levelo://app?vid=e89d3ec5-7ce0-47ab-9373-b4034d476e7c","ios":"levelo://app?vid=e89d3ec5-7ce0-47ab-9373-b4034d476e7c"},"vehicle_type_id":"4","last_reported":1748203804,"current_range_meters":12000,"station_id":"ce4bhnh2rcd13ifvqgtg","pricing_plan_id":"cebpf4jnsgd1na2vs0mg"},{"bike_id":"079c7469-6271-4a87-bc0c-d5d3c60c4291","system_id":"levelo_inurba_marseille","lat":43.27942,"lon":5.41038,"is_reserved":false,"is_disabled":false,"rental_uris":{"android":"levelo://app?vid=079c7469-6271-4a87-bc0c-d5d3c60c4291","ios":"levelo://app?vid=079c7469-6271-4a87-bc0c-d5d3c60c4291"},"vehicle_type_id":"4","last_reported":1748203804,"current_range_meters":12400,"station_id":"ce4bhnp2rcd13ifvqh0g","pricing_plan_id":"cebpf4jnsgd1na2vs0mg"},{"bike_id":"6a4612f8-d511-472f-9784-e69bac545256","system_id":"levelo_inurba_marseille","lat":43.290147,"lon":5.366187,"is_reserved":false,"is_disabled":false,"rental_uris":{"android":"levelo://app?vid=6a4612f8-d511-472f-9784-e69bac545256","ios":"levelo://app?vid=6a4612f8-d511-472f-9784-e69bac545256"},"vehicle_type_id":"4","last_reported":1748203804,"current_range_meters":12400,"station_id":"","pricing_plan_id":"cebpf4jnsgd1na2vs0mg"},{"bike_id":"53e9f07a-3fbc-448a-989d-a10af9396618","system_id":"levelo_inurba_marseille","lat":43.28456,"lon":5.35876,"is_reserved":false,"is_disabled":false,"rental_uris":{"android":"levelo://app?vid=53e9f07a-3fbc-448a-989d-a10af9396618","ios":"levelo://app?vid=53e9f07a-3fbc-448a-989d-a10af9396618"},"vehicle_type_id":"4","last_reported":1748203804,"current_range_meters":12000,"station_id":"ce4bhah2rcd13ifvqei0","pricing_plan_id":"cebpf4jnsgd1na2vs0mg"},{"bike_id":"75f4410e-35a5-433b-9917-b9f478a71d8a","system_id":"levelo_inurba_marseille","lat":43.2842,"lon":5.37499,"is_reserved":false,"is_disabled":false,"rental_uris":{"android":"levelo://app?vid=75f4410e-35a5-433b-9917-b9f478a71d8a","ios":"levelo://app?vid=75f4410e-35a5-433b-9917-b9f478a71d8a"},"vehicle_type_id":"4","last_reported":1748203804,"current_range_meters":12400,"station_id":"ce4bh412rcd13ifvqds0","pricing_plan_id":"cebpf4jnsgd1na2vs0mg"},{"bike_id":"57ef040f-42d8-4040-9411-f1a25cd045d3","system_id":"levelo_inurba_marseille","lat":43.30599,"lon":5.37215,"is_reserved":false,"is_disabled":false,"rental_uris":{"android":"levelo://app?vid=57ef040f-42d8-4040-9411-f1a25cd045d3","ios":"levelo://app?vid=57ef040f-42d8-4040-9411-f1a25cd045d3"},"vehicle_type_id":"4","last_reported":1748203804,"current_range_meters":12400,"station_id":"ce4bgqh2rcd13ifvqc4g","pricing_plan_id":"cebpf4jnsgd1na2vs0mg"},{"bike_id":"c09f3b14-08e4-4d3e-8e7c-25d11426c4bf","system_id":"levelo_inurba_marseille","lat":43.28786,"lon":5.48185,"is_reserved":false,"is_disabled":true,"rental_uris":{"android":"levelo://app?vid=c09f3b14-08e4-4d3e-8e7c-25d11426c4bf","ios":"levelo://app?vid=c09f3b14-08e4-4d3e-8e7c-25d11426c4bf"},"vehicle_type_id":"4","last_reported":1748203804,"current_range_meters":12400,"station_id":"","pricing_plan_id":"cebpf4jnsgd1na2vs0mg"},{"bike_id":"d7d43624-a641-4381-92fc-49cd4e58cb5d","system_id":"levelo_inurba_marseille","lat":43.28429,"lon":5.34984,"is_reserved":false,"is_disabled":true,"rental_uris":{"android":"levelo://app?vid=d7d43624-a641-4381-92fc-49cd4e58cb5d","ios":"levelo://app?vid=d7d43624-a641-4381-92fc-49cd4e58cb5d"},"vehicle_type_id":"4","last_reported":1748203804,"current_range_meters":12800,"station_id":"ce4bhbh2rcd13ifvqepg","pricing_plan_id":"cebpf4jnsgd1na2vs0mg"},{"bike_id":"a4aef2b9-b7e8-4e2d-8340-592d28bc6c85","system_id":"levelo_inurba_marseille","lat":43.337582,"lon":5.374479,"is_reserved":false,"is_disabled":false,"rental_uris":{"android":"levelo://app?vid=a4aef2b9-b7e8-4e2d-8340-592d28bc6c85","ios":"levelo://app?vid=a4aef2b9-b7e8-4e2d-8340-592d28bc6c85"},"vehicle_type_id":"4","last_reported":1748203804,"current_range_meters":12800,"station_id":"","pricing_plan_id":"cebpf4jnsgd1na2vs0mg"},{"bike_id":"8a6ab6c0-da12-4266-bb50-c9ce2206b3eb","system_id":"levelo_inurba_marseille","lat":43.28836,"lon":5.3932,"is_reserved":false,"is_disabled":false,"rental_uris":{"android":"levelo://app?vid=8a6ab6c0-da12-4266-bb50-c9ce2206b3eb","ios":"levelo://app?vid=8a6ab6c0-da12-4266-bb50-c9ce2206b3eb"},"vehicle_type_id":"4","last_reported":1748203804,"current_range_meters":12800,"station_id":"ce4bh2p2rcd13ifvqdi0","pricing_plan_id":"cebpf4jnsgd1na2vs0mg"},{"bike_id":"1dfee792-c42c-4907-b3eb-1eeef94c4523","system_id":"levelo_inurba_marseille","lat":43.29124,"lon":5.4262,"is_reserved":false,"is_disabled":true,"rental_uris":{"android":"levelo://app?vid=1dfee792-c42c-4907-b3eb-1eeef94c4523","ios":"levelo://app?vid=1dfee792-c42c-4907-b3eb-1eeef94c4523"},"vehicle_type_id":"4","last_reported":1748203804,"current_range_meters":12800,"station_id":"","pricing_plan_id":"cebpf4jnsgd1na2vs0mg"},{"bike_id":"3f59e938-32cd-4e08-9741-9a07276877af","system_id":"levelo_inurba_marseille","lat":43.28209,"lon":5.39051,"is_reserved":false,"is_disabled":false,"rental_uris":{"android":"levelo://app?vid=3f59e938-32cd-4e08-9741-9a07276877af","ios":"levelo://app?vid=3f59e938-32cd-4e08-9741-9a07276877af"},"vehicle_type_id":"4","last_reported":1748203804,"current_range_meters":12800,"station_id":"ce4bh492rcd13ifvqdug","pricing_plan_id":"cebpf4jnsgd1na2vs0mg"},{"bike_id":"82b7dbca-76e2-48fb-9279-419bd8847b66","system_id":"levelo_inurba_marseille","lat":43.26222,"lon":5.4046,"is_reserved":false,"is_disabled":false,"rental_uris":{"android":"levelo://app?vid=82b7dbca-76e2-48fb-9279-419bd8847b66","ios":"levelo://app?vid=82b7dbca-76e2-48fb-9279-419bd8847b66"},"vehicle_type_id":"4","last_reported":1748203804,"current_range_meters":12800,"station_id":"ce4bhmh2rcd13ifvqgmg","pricing_plan_id":"cebpf4jnsgd1na2vs0mg"},{"bike_id":"6cbaf781-b9b1-4c6f-9079-c3f68f511316","system_id":"levelo_inurba_marseille","lat":43.28695,"lon":5.37411,"is_reserved":false,"is_disabled":false,"rental_uris":{"android":"levelo://app?vid=6cbaf781-b9b1-4c6f-9079-c3f68f511316","ios":"levelo://app?vid=6cbaf781-b9b1-4c6f-9079-c3f68f511316"},"vehicle_type_id":"4","last_reported":1748203804,"current_range_meters":12800,"station_id":"ce4bh3p2rcd13ifvqdq0","pricing_plan_id":"cebpf4jnsgd1na2vs0mg"},{"bike_id":"9bb25ee6-860d-47ba-9d38-d35d2d625783","system_id":"levelo_inurba_marseille","lat":43.26034,"lon":5.37544,"is_reserved":false,"is_disabled":false,"rental_uris":{"android":"levelo://app?vid=9bb25ee6-860d-47ba-9d38-d35d2d625783","ios":"levelo://app?vid=9bb25ee6-860d-47ba-9d38-d35d2d625783"},"vehicle_type_id":"4","last_reported":1748203804,"current_range_meters":12400,"station_id":"ce4bhgh2rcd13ifvqfa0","pricing_plan_id":"cebpf4jnsgd1na2vs0mg"},{"bike_id":"06e17948-9eb2-43bd-bbcd-322933b741bc","system_id":"levelo_inurba_marseille","lat":43.2781,"lon":5.40711,"is_reserved":false,"is_disabled":false,"rental_uris":{"android":"levelo://app?vid=06e17948-9eb2-43bd-bbcd-322933b741bc","ios":"levelo://app?vid=06e17948-9eb2-43bd-bbcd-322933b741bc"},"vehicle_type_id":"4","last_reported":1748203804,"current_range_meters":12800,"station_id":"ce4bhnh2rcd13ifvqgtg","pricing_plan_id":"cebpf4jnsgd1na2vs0mg"},{"bike_id":"44e0a32c-3e75-4ca3-b6f4-71e4a5eec80c","system_id":"levelo_inurba_marseille","lat":43.29018,"lon":5.38132,"is_reserved":false,"is_disabled":false,"rental_uris":{"android":"levelo://app?vid=44e0a32c-3e75-4ca3-b6f4-71e4a5eec80c","ios":"levelo://app?vid=44e0a32c-3e75-4ca3-b6f4-71e4a5eec80c"},"vehicle_type_id":"4","last_reported":1748203804,"current_range_meters":12800,"station_id":"ce4bh4p2rcd13ifvqe1g","pricing_plan_id":"cebpf4jnsgd1na2vs0mg"},{"bike_id":"330090cb-7666-4b1d-b970-329a0e8671eb","system_id":"levelo_inurba_marseille","lat":43.29525,"lon":5.38536,"is_reserved":false,"is_disabled":false,"rental_uris":{"android":"levelo://app?vid=330090cb-7666-4b1d-b970-329a0e8671eb","ios":"levelo://app?vid=330090cb-7666-4b1d-b970-329a0e8671eb"},"vehicle_type_id":"4","last_reported":1748203804,"current_range_meters":12800,"station_id":"ce4bgih2rcd13ifvqba0","pricing_plan_id":"cebpf4jnsgd1na2vs0mg"},{"bike_id":"874fba91-fbda-4288-b17f-8759eec81e80","system_id":"levelo_inurba_marseille","lat":43.2709,"lon":5.42303,"is_reserved":false,"is_disabled":false,"rental_uris":{"android":"levelo://app?vid=874fba91-fbda-4288-b17f-8759eec81e80","ios":"levelo://app?vid=874fba91-fbda-4288-b17f-8759eec81e80"},"vehicle_type_id":"4","last_reported":1748203804,"current_range_meters":12800,"station_id":"ce4bhk92rcd13ifvqgb0","pricing_plan_id":"cebpf4jnsgd1na2vs0mg"},{"bike_id":"14a2c449-41af-4cd1-80ba-5ea0b6210ec5","system_id":"levelo_inurba_marseille","lat":43.29244,"lon":5.36555,"is_reserved":false,"is_disabled":false,"rental_uris":{"android":"levelo://app?vid=14a2c449-41af-4cd1-80ba-5ea0b6210ec5","ios":"levelo://app?vid=14a2c449-41af-4cd1-80ba-5ea0b6210ec5"},"vehicle_type_id":"4","last_reported":1748203804,"current_range_meters":12800,"station_id":"","pricing_plan_id":"cebpf4jnsgd1na2vs0mg"},{"bike_id":"81f94c6d-edf9-42cc-b4fa-a0c2cd27e68d","system_id":"levelo_inurba_marseille","lat":43.28074,"lon":5.39653,"is_reserved":false,"is_disabled":false,"rental_uris":{"android":"levelo://app?vid=81f94c6d-edf9-42cc-b4fa-a0c2cd27e68d","ios":"levelo://app?vid=81f94c6d-edf9-42cc-b4fa-a0c2cd27e68d"},"vehicle_type_id":"4","last_reported":1748203804,"current_range_meters":12800,"station_id":"ce4bho12rcd13ifvqh2g","pricing_plan_id":"cebpf4jnsgd1na2vs0mg"},{"bike_id":"530bbe3c-9943-40a0-b2ab-5031f93ebaf7","system_id":"levelo_inurba_marseille","lat":43.28715,"lon":5.37947,"is_reserved":false,"is_disabled":false,"rental_uris":{"android":"levelo://app?vid=530bbe3c-9943-40a0-b2ab-5031f93ebaf7","ios":"levelo://app?vid=530bbe3c-9943-40a0-b2ab-5031f93ebaf7"},"vehicle_type_id":"4","last_reported":1748203804,"current_range_meters":13600,"station_id":"ce4bh9p2rcd13ifvqec0","pricing_plan_id":"cebpf4jnsgd1na2vs0mg"},{"bike_id":"253b3b17-68d6-420d-8d9a-7767e509688e","system_id":"levelo_inurba_marseille","lat":43.21762,"lon":5.3461,"is_reserved":false,"is_disabled":true,"rental_uris":{"android":"levelo://app?vid=253b3b17-68d6-420d-8d9a-7767e509688e","ios":"levelo://app?vid=253b3b17-68d6-420d-8d9a-7767e509688e"},"vehicle_type_id":"4","last_reported":1748203804,"current_range_meters":13600,"station_id":"st_cvj6r9ubvosntc0bgbag","pricing_plan_id":"cebpf4jnsgd1na2vs0mg"},{"bike_id":"19120bb0-e590-41a2-8b5a-1dcf846e07ad","system_id":"levelo_inurba_marseille","lat":43.31895,"lon":5.40736,"is_reserved":false,"is_disabled":false,"rental_uris":{"android":"levelo://app?vid=19120bb0-e590-41a2-8b5a-1dcf846e07ad","ios":"levelo://app?vid=19120bb0-e590-41a2-8b5a-1dcf846e07ad"},"vehicle_type_id":"4","last_reported":1748203804,"current_range_meters":12800,"station_id":"ce4bhq12rcd13ifvqhig","pricing_plan_id":"cebpf4jnsgd1na2vs0mg"},{"bike_id":"a46a1e93-b38a-420e-a6e8-156a20f5273e","system_id":"levelo_inurba_marseille","lat":43.25117,"lon":5.40318,"is_reserved":false,"is_disabled":false,"rental_uris":{"android":"levelo://app?vid=a46a1e93-b38a-420e-a6e8-156a20f5273e","ios":"levelo://app?vid=a46a1e93-b38a-420e-a6e8-156a20f5273e"},"vehicle_type_id":"4","last_reported":1748203804,"current_range_meters":13600,"station_id":"ce4bhlh2rcd13ifvqgig","pricing_plan_id":"cebpf4jnsgd1na2vs0mg"},{"bike_id":"e5040cc6-5912-44c1-a358-57f34154615c","system_id":"levelo_inurba_marseille","lat":43.28099,"lon":5.38659,"is_reserved":false,"is_disabled":true,"rental_uris":{"android":"levelo://app?vid=e5040cc6-5912-44c1-a358-57f34154615c","ios":"levelo://app?vid=e5040cc6-5912-44c1-a358-57f34154615c"},"vehicle_type_id":"4","last_reported":1748203804,"current_range_meters":13600,"station_id":"","pricing_plan_id":"cebpf4jnsgd1na2vs0mg"},{"bike_id":"c6586961-6c76-498d-aa17-e64b6b3660d2","system_id":"levelo_inurba_marseille","lat":43.27079,"lon":5.42273,"is_reserved":false,"is_disabled":false,"rental_uris":{"android":"levelo://app?vid=c6586961-6c76-498d-aa17-e64b6b3660d2","ios":"levelo://app?vid=c6586961-6c76-498d-aa17-e64b6b3660d2"},"vehicle_type_id":"4","last_reported":1748203804,"current_range_meters":13600,"station_id":"ce4bhk92rcd13ifvqgb0","pricing_plan_id":"cebpf4jnsgd1na2vs0mg"},{"bike_id":"77027032-b906-4366-bb72-cb614853bc75","system_id":"levelo_inurba_marseille","lat":43.28414,"lon":5.3752,"is_reserved":false,"is_disabled":false,"rental_uris":{"android":"levelo://app?vid=77027032-b906-4366-bb72-cb614853bc75","ios":"levelo://app?vid=77027032-b906-4366-bb72-cb614853bc75"},"vehicle_type_id":"4","last_reported":1748203804,"current_range_meters":13600,"station_id":"ce4bh412rcd13ifvqds0","pricing_plan_id":"cebpf4jnsgd1na2vs0mg"},{"bike_id":"1e8eecb9-97da-4959-9907-19a5c61ec5e2","system_id":"levelo_inurba_marseille","lat":43.29557,"lon":5.42294,"is_reserved":false,"is_disabled":false,"rental_uris":{"android":"levelo://app?vid=1e8eecb9-97da-4959-9907-19a5c61ec5e2","ios":"levelo://app?vid=1e8eecb9-97da-4959-9907-19a5c61ec5e2"},"vehicle_type_id":"4","last_reported":1748203804,"current_range_meters":13600,"station_id":"ce4bhph2rcd13ifvqhdg","pricing_plan_id":"cebpf4jnsgd1na2vs0mg"},{"bike_id":"f6c6d614-57aa-42d2-bd57-8b2141b94c79","system_id":"levelo_inurba_marseille","lat":43.25712,"lon":5.41085,"is_reserved":false,"is_disabled":false,"rental_uris":{"android":"levelo://app?vid=f6c6d614-57aa-42d2-bd57-8b2141b94c79","ios":"levelo://app?vid=f6c6d614-57aa-42d2-bd57-8b2141b94c79"},"vehicle_type_id":"4","last_reported":1748203804,"current_range_meters":13600,"station_id":"ce4bhkp2rcd13ifvqgd0","pricing_plan_id":"cebpf4jnsgd1na2vs0mg"},{"bike_id":"2c2854c1-2316-4744-9622-02cc51a7fc45","system_id":"levelo_inurba_marseille","lat":43.24179,"lon":5.39733,"is_reserved":false,"is_disabled":false,"rental_uris":{"android":"levelo://app?vid=2c2854c1-2316-4744-9622-02cc51a7fc45","ios":"levelo://app?vid=2c2854c1-2316-4744-9622-02cc51a7fc45"},"vehicle_type_id":"4","last_reported":1748203804,"current_range_meters":14000,"station_id":"ce4bhn12rcd13ifvqgpg","pricing_plan_id":"cebpf4jnsgd1na2vs0mg"},{"bike_id":"d37940eb-34ec-4cce-b9ac-c49f4c2ce6e4","system_id":"levelo_inurba_marseille","lat":43.29442,"lon":5.39751,"is_reserved":false,"is_disabled":false,"rental_uris":{"android":"levelo://app?vid=d37940eb-34ec-4cce-b9ac-c49f4c2ce6e4","ios":"levelo://app?vid=d37940eb-34ec-4cce-b9ac-c49f4c2ce6e4"},"vehicle_type_id":"4","last_reported":1748203804,"current_range_meters":14000,"station_id":"ce4bh3h2rcd13ifvqdo0","pricing_plan_id":"cebpf4jnsgd1na2vs0mg"},{"bike_id":"91d32573-60eb-4871-92d5-3537fae28e5d","system_id":"levelo_inurba_marseille","lat":43.29527,"lon":5.39398,"is_reserved":false,"is_disabled":false,"rental_uris":{"android":"levelo://app?vid=91d32573-60eb-4871-92d5-3537fae28e5d","ios":"levelo://app?vid=91d32573-60eb-4871-92d5-3537fae28e5d"},"vehicle_type_id":"4","last_reported":1748203804,"current_range_meters":14000,"station_id":"ce4bh292rcd13ifvqdf0","pricing_plan_id":"cebpf4jnsgd1na2vs0mg"},{"bike_id":"41d795fd-6b15-4eca-98cc-80356500dbfe","system_id":"levelo_inurba_marseille","lat":43.2419,"lon":5.36402,"is_reserved":false,"is_disabled":true,"rental_uris":{"android":"levelo://app?vid=41d795fd-6b15-4eca-98cc-80356500dbfe","ios":"levelo://app?vid=41d795fd-6b15-4eca-98cc-80356500dbfe"},"vehicle_type_id":"4","last_reported":1748203804,"current_range_meters":14000,"station_id":"cpo36qri1sfpv3e86is0","pricing_plan_id":"cebpf4jnsgd1na2vs0mg"},{"bike_id":"0617c5a1-3ef6-4928-a63d-8d3f25bdb887","system_id":"levelo_inurba_marseille","lat":43.287026,"lon":5.37387,"is_reserved":false,"is_disabled":false,"rental_uris":{"android":"levelo://app?vid=0617c5a1-3ef6-4928-a63d-8d3f25bdb887","ios":"levelo://app?vid=0617c5a1-3ef6-4928-a63d-8d3f25bdb887"},"vehicle_type_id":"4","last_reported":1748203804,"current_range_meters":14400,"station_id":"ce4bh3p2rcd13ifvqdq0","pricing_plan_id":"cebpf4jnsgd1na2vs0mg"},{"bike_id":"80339a0f-8894-4df8-9875-3aab731875be","system_id":"levelo_inurba_marseille","lat":43.27019,"lon":5.40616,"is_reserved":false,"is_disabled":false,"rental_uris":{"android":"levelo://app?vid=80339a0f-8894-4df8-9875-3aab731875be","ios":"levelo://app?vid=80339a0f-8894-4df8-9875-3aab731875be"},"vehicle_type_id":"4","last_reported":1748203804,"current_range_meters":14400,"station_id":"","pricing_plan_id":"cebpf4jnsgd1na2vs0mg"},{"bike_id":"e51fa0e9-7b3b-4f6b-a357-e924b9bb32e7","system_id":"levelo_inurba_marseille","lat":43.30423,"lon":5.39734,"is_reserved":false,"is_disabled":false,"rental_uris":{"android":"levelo://app?vid=e51fa0e9-7b3b-4f6b-a357-e924b9bb32e7","ios":"levelo://app?vid=e51fa0e9-7b3b-4f6b-a357-e924b9bb32e7"},"vehicle_type_id":"4","last_reported":1748203804,"current_range_meters":14400,"station_id":"ce4bh092rcd13ifvqd20","pricing_plan_id":"cebpf4jnsgd1na2vs0mg"},{"bike_id":"770d7625-e164-4732-b38c-e0e240ffa8af","system_id":"levelo_inurba_marseille","lat":43.32344,"lon":5.38886,"is_reserved":false,"is_disabled":false,"rental_uris":{"android":"levelo://app?vid=770d7625-e164-4732-b38c-e0e240ffa8af","ios":"levelo://app?vid=770d7625-e164-4732-b38c-e0e240ffa8af"},"vehicle_type_id":"4","last_reported":1748203804,"current_range_meters":14400,"station_id":"ce4bhqp2rcd13ifvqhog","pricing_plan_id":"cebpf4jnsgd1na2vs0mg"},{"bike_id":"6c14a896-6295-42d2-a483-eac1c73f7807","system_id":"levelo_inurba_marseille","lat":43.317,"lon":5.3772,"is_reserved":false,"is_disabled":false,"rental_uris":{"android":"levelo://app?vid=6c14a896-6295-42d2-a483-eac1c73f7807","ios":"levelo://app?vid=6c14a896-6295-42d2-a483-eac1c73f7807"},"vehicle_type_id":"4","last_reported":1748203804,"current_range_meters":14400,"station_id":"ce4bgth2rcd13ifvqch0","pricing_plan_id":"cebpf4jnsgd1na2vs0mg"},{"bike_id":"0ac1567d-f449-45bf-bef1-f3a6ddda127c","system_id":"levelo_inurba_marseille","lat":43.28005,"lon":5.40011,"is_reserved":false,"is_disabled":false,"rental_uris":{"android":"levelo://app?vid=0ac1567d-f449-45bf-bef1-f3a6ddda127c","ios":"levelo://app?vid=0ac1567d-f449-45bf-bef1-f3a6ddda127c"},"vehicle_type_id":"4","last_reported":1748203804,"current_range_meters":14400,"station_id":"ce4bho92rcd13ifvqh4g","pricing_plan_id":"cebpf4jnsgd1na2vs0mg"},{"bike_id":"46ce4279-e482-4f1b-b8b3-fcaaac133d04","system_id":"levelo_inurba_marseille","lat":43.32621,"lon":5.41051,"is_reserved":false,"is_disabled":false,"rental_uris":{"android":"levelo://app?vid=46ce4279-e482-4f1b-b8b3-fcaaac133d04","ios":"levelo://app?vid=46ce4279-e482-4f1b-b8b3-fcaaac133d04"},"vehicle_type_id":"4","last_reported":1748203804,"current_range_meters":14800,"station_id":"","pricing_plan_id":"cebpf4jnsgd1na2vs0mg"},{"bike_id":"b744080c-dd77-486d-9609-00c9cf60c1ad","system_id":"levelo_inurba_marseille","lat":43.23692,"lon":5.39072,"is_reserved":false,"is_disabled":false,"rental_uris":{"android":"levelo://app?vid=b744080c-dd77-486d-9609-00c9cf60c1ad","ios":"levelo://app?vid=b744080c-dd77-486d-9609-00c9cf60c1ad"},"vehicle_type_id":"4","last_reported":1748203804,"current_range_meters":14800,"station_id":"","pricing_plan_id":"cebpf4jnsgd1na2vs0mg"},{"bike_id":"8d6fbe6b-5f04-4594-950e-185a1468d282","system_id":"levelo_inurba_marseille","lat":43.29867,"lon":5.37378,"is_reserved":false,"is_disabled":false,"rental_uris":{"android":"levelo://app?vid=8d6fbe6b-5f04-4594-950e-185a1468d282","ios":"levelo://app?vid=8d6fbe6b-5f04-4594-950e-185a1468d282"},"vehicle_type_id":"4","last_reported":1748203804,"current_range_meters":14800,"station_id":"","pricing_plan_id":"cebpf4jnsgd1na2vs0mg"},{"bike_id":"c706e410-a4fc-472d-a06b-14a11e14f6ad","system_id":"levelo_inurba_marseille","lat":43.29967,"lon":5.37168,"is_reserved":false,"is_disabled":false,"rental_uris":{"android":"levelo://app?vid=c706e410-a4fc-472d-a06b-14a11e14f6ad","ios":"levelo://app?vid=c706e410-a4fc-472d-a06b-14a11e14f6ad"},"vehicle_type_id":"4","last_reported":1748203804,"current_range_meters":14400,"station_id":"ce4bgr92rcd13ifvqc7g","pricing_plan_id":"cebpf4jnsgd1na2vs0mg"},{"bike_id":"71412ce8-63a9-4c0d-9e69-192fcd03c65e","system_id":"levelo_inurba_marseille","lat":43.29102,"lon":5.38136,"is_reserved":false,"is_disabled":false,"rental_uris":{"android":"levelo://app?vid=71412ce8-63a9-4c0d-9e69-192fcd03c65e","ios":"levelo://app?vid=71412ce8-63a9-4c0d-9e69-192fcd03c65e"},"vehicle_type_id":"4","last_reported":1748203804,"current_range_meters":14400,"station_id":"ce4bh512rcd13ifvqe2g","pricing_plan_id":"cebpf4jnsgd1na2vs0mg"},{"bike_id":"230714bc-727a-4934-b66e-6d15f2cdb3d9","system_id":"levelo_inurba_marseille","lat":43.29368,"lon":5.37843,"is_reserved":false,"is_disabled":false,"rental_uris":{"android":"levelo://app?vid=230714bc-727a-4934-b66e-6d15f2cdb3d9","ios":"levelo://app?vid=230714bc-727a-4934-b66e-6d15f2cdb3d9"},"vehicle_type_id":"4","last_reported":1748203804,"current_range_meters":14800,"station_id":"ce4bgjh2rcd13ifvqbf0","pricing_plan_id":"cebpf4jnsgd1na2vs0mg"},{"bike_id":"1d096833-0502-470b-974a-88cab75734c7","system_id":"levelo_inurba_marseille","lat":43.31688,"lon":5.40484,"is_reserved":false,"is_disabled":false,"rental_uris":{"android":"levelo://app?vid=1d096833-0502-470b-974a-88cab75734c7","ios":"levelo://app?vid=1d096833-0502-470b-974a-88cab75734c7"},"vehicle_type_id":"4","last_reported":1748203804,"current_range_meters":15200,"station_id":"ce4bh012rcd13ifvqd00","pricing_plan_id":"cebpf4jnsgd1na2vs0mg"},{"bike_id":"04adad7e-15a7-4893-8ef9-1193cc91c9df","system_id":"levelo_inurba_marseille","lat":43.27936,"lon":5.41045,"is_reserved":false,"is_disabled":false,"rental_uris":{"android":"levelo://app?vid=04adad7e-15a7-4893-8ef9-1193cc91c9df","ios":"levelo://app?vid=04adad7e-15a7-4893-8ef9-1193cc91c9df"},"vehicle_type_id":"4","last_reported":1748203804,"current_range_meters":15200,"station_id":"ce4bhnp2rcd13ifvqh0g","pricing_plan_id":"cebpf4jnsgd1na2vs0mg"},{"bike_id":"5148f8b2-1ecb-4c76-b37d-928f8d5cde64","system_id":"levelo_inurba_marseille","lat":43.32365,"lon":5.36759,"is_reserved":false,"is_disabled":false,"rental_uris":{"android":"levelo://app?vid=5148f8b2-1ecb-4c76-b37d-928f8d5cde64","ios":"levelo://app?vid=5148f8b2-1ecb-4c76-b37d-928f8d5cde64"},"vehicle_type_id":"4","last_reported":1748203804,"current_range_meters":15200,"station_id":"ce4bhsh2rcd13ifvqi2g","pricing_plan_id":"cebpf4jnsgd1na2vs0mg"},{"bike_id":"b7086b3d-f7b5-49fb-8ff6-2709ccdf068e","system_id":"levelo_inurba_marseille","lat":43.24168,"lon":5.3639,"is_reserved":false,"is_disabled":false,"rental_uris":{"android":"levelo://app?vid=b7086b3d-f7b5-49fb-8ff6-2709ccdf068e","ios":"levelo://app?vid=b7086b3d-f7b5-49fb-8ff6-2709ccdf068e"},"vehicle_type_id":"4","last_reported":1748203804,"current_range_meters":15200,"station_id":"cpo36qri1sfpv3e86is0","pricing_plan_id":"cebpf4jnsgd1na2vs0mg"},{"bike_id":"e00e2700-bc57-4c18-9058-1eaa60412882","system_id":"levelo_inurba_marseille","lat":43.26193,"lon":5.374393,"is_reserved":false,"is_disabled":true,"rental_uris":{"android":"levelo://app?vid=e00e2700-bc57-4c18-9058-1eaa60412882","ios":"levelo://app?vid=e00e2700-bc57-4c18-9058-1eaa60412882"},"vehicle_type_id":"4","last_reported":1748203804,"current_range_meters":15200,"station_id":"ce4bhgp2rcd13ifvqfc0","pricing_plan_id":"cebpf4jnsgd1na2vs0mg"},{"bike_id":"9e919c94-3d86-4b4f-8fe0-fabaa52de69d","system_id":"levelo_inurba_marseille","lat":43.2885,"lon":5.39319,"is_reserved":false,"is_disabled":false,"rental_uris":{"android":"levelo://app?vid=9e919c94-3d86-4b4f-8fe0-fabaa52de69d","ios":"levelo://app?vid=9e919c94-3d86-4b4f-8fe0-fabaa52de69d"},"vehicle_type_id":"4","last_reported":1748203804,"current_range_meters":15200,"station_id":"ce4bh2p2rcd13ifvqdi0","pricing_plan_id":"cebpf4jnsgd1na2vs0mg"},{"bike_id":"a1cad742-c462-4135-a3f0-0311fa3b7596","system_id":"levelo_inurba_marseille","lat":43.29316,"lon":5.37472,"is_reserved":false,"is_disabled":true,"rental_uris":{"android":"levelo://app?vid=a1cad742-c462-4135-a3f0-0311fa3b7596","ios":"levelo://app?vid=a1cad742-c462-4135-a3f0-0311fa3b7596"},"vehicle_type_id":"4","last_reported":1748203804,"current_range_meters":15200,"station_id":"ce4bgi12rcd13ifvqb70","pricing_plan_id":"cebpf4jnsgd1na2vs0mg"},{"bike_id":"4d5ade31-7c02-46cb-9a21-abda57341fed","system_id":"levelo_inurba_marseille","lat":43.31682,"lon":5.40466,"is_reserved":false,"is_disabled":false,"rental_uris":{"android":"levelo://app?vid=4d5ade31-7c02-46cb-9a21-abda57341fed","ios":"levelo://app?vid=4d5ade31-7c02-46cb-9a21-abda57341fed"},"vehicle_type_id":"4","last_reported":1748203804,"current_range_meters":15200,"station_id":"ce4bh012rcd13ifvqd00","pricing_plan_id":"cebpf4jnsgd1na2vs0mg"},{"bike_id":"6a80eafc-dc8a-4308-b7e6-93095fe84323","system_id":"levelo_inurba_marseille","lat":43.29257,"lon":5.40895,"is_reserved":false,"is_disabled":false,"rental_uris":{"android":"levelo://app?vid=6a80eafc-dc8a-4308-b7e6-93095fe84323","ios":"levelo://app?vid=6a80eafc-dc8a-4308-b7e6-93095fe84323"},"vehicle_type_id":"4","last_reported":1748203804,"current_range_meters":14800,"station_id":"ce4bh192rcd13ifvqdc0","pricing_plan_id":"cebpf4jnsgd1na2vs0mg"},{"bike_id":"149da10d-6eaa-4811-88f1-d1dead375b83","system_id":"levelo_inurba_marseille","lat":43.295208,"lon":5.393871,"is_reserved":false,"is_disabled":true,"rental_uris":{"android":"levelo://app?vid=149da10d-6eaa-4811-88f1-d1dead375b83","ios":"levelo://app?vid=149da10d-6eaa-4811-88f1-d1dead375b83"},"vehicle_type_id":"4","last_reported":1748203804,"current_range_meters":16000,"station_id":"ce4bh292rcd13ifvqdf0","pricing_plan_id":"cebpf4jnsgd1na2vs0mg"},{"bike_id":"65a0882c-af17-4e2c-9054-dca3847acaa2","system_id":"levelo_inurba_marseille","lat":43.29532,"lon":5.38539,"is_reserved":false,"is_disabled":false,"rental_uris":{"android":"levelo://app?vid=65a0882c-af17-4e2c-9054-dca3847acaa2","ios":"levelo://app?vid=65a0882c-af17-4e2c-9054-dca3847acaa2"},"vehicle_type_id":"4","last_reported":1748203804,"current_range_meters":16000,"station_id":"ce4bgih2rcd13ifvqba0","pricing_plan_id":"cebpf4jnsgd1na2vs0mg"},{"bike_id":"18ffc3f0-f700-44a6-930b-8675a62b7c62","system_id":"levelo_inurba_marseille","lat":43.30777,"lon":5.37636,"is_reserved":false,"is_disabled":true,"rental_uris":{"android":"levelo://app?vid=18ffc3f0-f700-44a6-930b-8675a62b7c62","ios":"levelo://app?vid=18ffc3f0-f700-44a6-930b-8675a62b7c62"},"vehicle_type_id":"4","last_reported":1748203804,"current_range_meters":16000,"station_id":"ce4bgv92rcd13ifvqcq0","pricing_plan_id":"cebpf4jnsgd1na2vs0mg"},{"bike_id":"f0db987f-7a9b-45df-8e26-1d773e43b6e4","system_id":"levelo_inurba_marseille","lat":43.31718,"lon":5.437025,"is_reserved":false,"is_disabled":false,"rental_uris":{"android":"levelo://app?vid=f0db987f-7a9b-45df-8e26-1d773e43b6e4","ios":"levelo://app?vid=f0db987f-7a9b-45df-8e26-1d773e43b6e4"},"vehicle_type_id":"4","last_reported":1748203804,"current_range_meters":16000,"station_id":"ce4bhp92rcd13ifvqhcg","pricing_plan_id":"cebpf4jnsgd1na2vs0mg"},{"bike_id":"4ef899f0-3200-4631-95b1-dadbaa04c417","system_id":"levelo_inurba_marseille","lat":43.29194,"lon":5.35789,"is_reserved":false,"is_disabled":true,"rental_uris":{"android":"levelo://app?vid=4ef899f0-3200-4631-95b1-dadbaa04c417","ios":"levelo://app?vid=4ef899f0-3200-4631-95b1-dadbaa04c417"},"vehicle_type_id":"4","last_reported":1748203804,"current_range_meters":16000,"station_id":"ce4bhb12rcd13ifvqel0","pricing_plan_id":"cebpf4jnsgd1na2vs0mg"},{"bike_id":"e93e9707-a463-4556-90a9-4a2d7ed89f61","system_id":"levelo_inurba_marseille","lat":43.28567,"lon":5.39491,"is_reserved":false,"is_disabled":false,"rental_uris":{"android":"levelo://app?vid=e93e9707-a463-4556-90a9-4a2d7ed89f61","ios":"levelo://app?vid=e93e9707-a463-4556-90a9-4a2d7ed89f61"},"vehicle_type_id":"4","last_reported":1748203804,"current_range_meters":16000,"station_id":"ce4bh292rcd13ifvqdg0","pricing_plan_id":"cebpf4jnsgd1na2vs0mg"},{"bike_id":"75d3564b-3491-4896-be11-b16d84f6c3c3","system_id":"levelo_inurba_marseille","lat":43.27993,"lon":5.40004,"is_reserved":false,"is_disabled":false,"rental_uris":{"android":"levelo://app?vid=75d3564b-3491-4896-be11-b16d84f6c3c3","ios":"levelo://app?vid=75d3564b-3491-4896-be11-b16d84f6c3c3"},"vehicle_type_id":"4","last_reported":1748203804,"current_range_meters":16000,"station_id":"ce4bho92rcd13ifvqh4g","pricing_plan_id":"cebpf4jnsgd1na2vs0mg"},{"bike_id":"29bff24e-c898-49da-9ffa-90cdf1d535e8","system_id":"levelo_inurba_marseille","lat":43.2954,"lon":5.39397,"is_reserved":false,"is_disabled":true,"rental_uris":{"android":"levelo://app?vid=29bff24e-c898-49da-9ffa-90cdf1d535e8","ios":"levelo://app?vid=29bff24e-c898-49da-9ffa-90cdf1d535e8"},"vehicle_type_id":"4","last_reported":1748203804,"current_range_meters":16000,"station_id":"ce4bh292rcd13ifvqdf0","pricing_plan_id":"cebpf4jnsgd1na2vs0mg"},{"bike_id":"b4f55865-d2c7-4348-8cd8-a5f681fde877","system_id":"levelo_inurba_marseille","lat":43.29575,"lon":5.37502,"is_reserved":false,"is_disabled":true,"rental_uris":{"android":"levelo://app?vid=b4f55865-d2c7-4348-8cd8-a5f681fde877","ios":"levelo://app?vid=b4f55865-d2c7-4348-8cd8-a5f681fde877"},"vehicle_type_id":"4","last_reported":1748203804,"current_range_meters":16000,"station_id":"ce4bgh92rcd13ifvqb50","pricing_plan_id":"cebpf4jnsgd1na2vs0mg"},{"bike_id":"e38b04f7-29c0-43e3-a304-e78ae32b0a4d","system_id":"levelo_inurba_marseille","lat":43.22497,"lon":5.34771,"is_reserved":false,"is_disabled":false,"rental_uris":{"android":"levelo://app?vid=e38b04f7-29c0-43e3-a304-e78ae32b0a4d","ios":"levelo://app?vid=e38b04f7-29c0-43e3-a304-e78ae32b0a4d"},"vehicle_type_id":"4","last_reported":1748203804,"current_range_meters":16000,"station_id":"","pricing_plan_id":"cebpf4jnsgd1na2vs0mg"},{"bike_id":"5fc9e37e-7ebc-4d1a-abfc-0d0f6cdf88a7","system_id":"levelo_inurba_marseille","lat":43.29451,"lon":5.39754,"is_reserved":false,"is_disabled":false,"rental_uris":{"android":"levelo://app?vid=5fc9e37e-7ebc-4d1a-abfc-0d0f6cdf88a7","ios":"levelo://app?vid=5fc9e37e-7ebc-4d1a-abfc-0d0f6cdf88a7"},"vehicle_type_id":"4","last_reported":1748203804,"current_range_meters":16000,"station_id":"ce4bh3h2rcd13ifvqdo0","pricing_plan_id":"cebpf4jnsgd1na2vs0mg"},{"bike_id":"e6edbb3c-3cca-4f02-b483-734348479651","system_id":"levelo_inurba_marseille","lat":43.29006,"lon":5.36585,"is_reserved":false,"is_disabled":false,"rental_uris":{"android":"levelo://app?vid=e6edbb3c-3cca-4f02-b483-734348479651","ios":"levelo://app?vid=e6edbb3c-3cca-4f02-b483-734348479651"},"vehicle_type_id":"4","last_reported":1748203804,"current_range_meters":16000,"station_id":"","pricing_plan_id":"cebpf4jnsgd1na2vs0mg"},{"bike_id":"eee6497e-1d3c-4e2f-9fa6-1fa56db25561","system_id":"levelo_inurba_marseille","lat":43.28962,"lon":5.36631,"is_reserved":false,"is_disabled":false,"rental_uris":{"android":"levelo://app?vid=eee6497e-1d3c-4e2f-9fa6-1fa56db25561","ios":"levelo://app?vid=eee6497e-1d3c-4e2f-9fa6-1fa56db25561"},"vehicle_type_id":"4","last_reported":1748203804,"current_range_meters":16000,"station_id":"ce4bhap2rcd13ifvqek0","pricing_plan_id":"cebpf4jnsgd1na2vs0mg"},{"bike_id":"1a0998e5-8bb9-474f-a827-53cad24c9e8f","system_id":"levelo_inurba_marseille","lat":43.32048,"lon":5.44937,"is_reserved":false,"is_disabled":false,"rental_uris":{"android":"levelo://app?vid=1a0998e5-8bb9-474f-a827-53cad24c9e8f","ios":"levelo://app?vid=1a0998e5-8bb9-474f-a827-53cad24c9e8f"},"vehicle_type_id":"4","last_reported":1748203804,"current_range_meters":16400,"station_id":"","pricing_plan_id":"cebpf4jnsgd1na2vs0mg"},{"bike_id":"50a69795-9993-47aa-b272-9f90192e11bf","system_id":"levelo_inurba_marseille","lat":43.28709,"lon":5.37936,"is_reserved":false,"is_disabled":false,"rental_uris":{"android":"levelo://app?vid=50a69795-9993-47aa-b272-9f90192e11bf","ios":"levelo://app?vid=50a69795-9993-47aa-b272-9f90192e11bf"},"vehicle_type_id":"4","last_reported":1748203804,"current_range_meters":16000,"station_id":"ce4bh9p2rcd13ifvqec0","pricing_plan_id":"cebpf4jnsgd1na2vs0mg"},{"bike_id":"f6e494b9-d4d7-42df-bbae-b4a567d9146d","system_id":"levelo_inurba_marseille","lat":43.26499,"lon":5.39532,"is_reserved":false,"is_disabled":false,"rental_uris":{"android":"levelo://app?vid=f6e494b9-d4d7-42df-bbae-b4a567d9146d","ios":"levelo://app?vid=f6e494b9-d4d7-42df-bbae-b4a567d9146d"},"vehicle_type_id":"4","last_reported":1748203804,"current_range_meters":16400,"station_id":"ce4bhi12rcd13ifvqfq0","pricing_plan_id":"cebpf4jnsgd1na2vs0mg"},{"bike_id":"36fa0e2c-281e-441e-847d-b93503ba6146","system_id":"levelo_inurba_marseille","lat":43.28442,"lon":5.35899,"is_reserved":false,"is_disabled":true,"rental_uris":{"android":"levelo://app?vid=36fa0e2c-281e-441e-847d-b93503ba6146","ios":"levelo://app?vid=36fa0e2c-281e-441e-847d-b93503ba6146"},"vehicle_type_id":"4","last_reported":1748203804,"current_range_meters":16400,"station_id":"ce4bhah2rcd13ifvqei0","pricing_plan_id":"cebpf4jnsgd1na2vs0mg"},{"bike_id":"2531383d-4610-4902-9039-3fae65609991","system_id":"levelo_inurba_marseille","lat":43.2511,"lon":5.3954,"is_reserved":false,"is_disabled":false,"rental_uris":{"android":"levelo://app?vid=2531383d-4610-4902-9039-3fae65609991","ios":"levelo://app?vid=2531383d-4610-4902-9039-3fae65609991"},"vehicle_type_id":"4","last_reported":1748203804,"current_range_meters":16400,"station_id":"ce4bhm12rcd13ifvqgkg","pricing_plan_id":"cebpf4jnsgd1na2vs0mg"},{"bike_id":"0518511e-c603-4e70-b2c0-0200eb78e687","system_id":"levelo_inurba_marseille","lat":43.22502,"lon":5.34779,"is_reserved":false,"is_disabled":false,"rental_uris":{"android":"levelo://app?vid=0518511e-c603-4e70-b2c0-0200eb78e687","ios":"levelo://app?vid=0518511e-c603-4e70-b2c0-0200eb78e687"},"vehicle_type_id":"4","last_reported":1748203804,"current_range_meters":16400,"station_id":"st_cvj5dfep6f1abm77gieg","pricing_plan_id":"cebpf4jnsgd1na2vs0mg"},{"bike_id":"1d29480f-5ed7-4039-aa57-2954627b3a43","system_id":"levelo_inurba_marseille","lat":43.31686,"lon":5.40472,"is_reserved":false,"is_disabled":false,"rental_uris":{"android":"levelo://app?vid=1d29480f-5ed7-4039-aa57-2954627b3a43","ios":"levelo://app?vid=1d29480f-5ed7-4039-aa57-2954627b3a43"},"vehicle_type_id":"4","last_reported":1748203804,"current_range_meters":16400,"station_id":"ce4bh012rcd13ifvqd00","pricing_plan_id":"cebpf4jnsgd1na2vs0mg"},{"bike_id":"bb5c0188-26fd-400e-ac6f-0d3066aecef7","system_id":"levelo_inurba_marseille","lat":43.24984,"lon":5.38935,"is_reserved":false,"is_disabled":false,"rental_uris":{"android":"levelo://app?vid=bb5c0188-26fd-400e-ac6f-0d3066aecef7","ios":"levelo://app?vid=bb5c0188-26fd-400e-ac6f-0d3066aecef7"},"vehicle_type_id":"4","last_reported":1748203804,"current_range_meters":16000,"station_id":"ce4bhgp2rcd13ifvqfd0","pricing_plan_id":"cebpf4jnsgd1na2vs0mg"},{"bike_id":"f280abb1-3596-4f62-be82-61d2a004db67","system_id":"levelo_inurba_marseille","lat":43.29601,"lon":5.37329,"is_reserved":false,"is_disabled":false,"rental_uris":{"android":"levelo://app?vid=f280abb1-3596-4f62-be82-61d2a004db67","ios":"levelo://app?vid=f280abb1-3596-4f62-be82-61d2a004db67"},"vehicle_type_id":"4","last_reported":1748203804,"current_range_meters":16800,"station_id":"","pricing_plan_id":"cebpf4jnsgd1na2vs0mg"},{"bike_id":"393bb026-2978-44df-b6d2-3150874b2dc1","system_id":"levelo_inurba_marseille","lat":43.31718,"lon":5.37753,"is_reserved":false,"is_disabled":false,"rental_uris":{"android":"levelo://app?vid=393bb026-2978-44df-b6d2-3150874b2dc1","ios":"levelo://app?vid=393bb026-2978-44df-b6d2-3150874b2dc1"},"vehicle_type_id":"4","last_reported":1748203804,"current_range_meters":16400,"station_id":"ce4bgth2rcd13ifvqch0","pricing_plan_id":"cebpf4jnsgd1na2vs0mg"},{"bike_id":"76dadaf6-6c92-4248-9dcd-254c348349b1","system_id":"levelo_inurba_marseille","lat":43.29989,"lon":5.38494,"is_reserved":false,"is_disabled":false,"rental_uris":{"android":"levelo://app?vid=76dadaf6-6c92-4248-9dcd-254c348349b1","ios":"levelo://app?vid=76dadaf6-6c92-4248-9dcd-254c348349b1"},"vehicle_type_id":"4","last_reported":1748203804,"current_range_meters":16400,"station_id":"ce4bgj92rcd13ifvqbd0","pricing_plan_id":"cebpf4jnsgd1na2vs0mg"},{"bike_id":"6f1c556a-957e-483e-b58e-5e6baa2722a6","system_id":"levelo_inurba_marseille","lat":43.248129,"lon":5.374532,"is_reserved":false,"is_disabled":true,"rental_uris":{"android":"levelo://app?vid=6f1c556a-957e-483e-b58e-5e6baa2722a6","ios":"levelo://app?vid=6f1c556a-957e-483e-b58e-5e6baa2722a6"},"vehicle_type_id":"4","last_reported":1748203804,"current_range_meters":16400,"station_id":"ce4bhgh2rcd13ifvqfb0","pricing_plan_id":"cebpf4jnsgd1na2vs0mg"},{"bike_id":"35070d47-8864-49c7-a023-dc0cc96b9ab6","system_id":"levelo_inurba_marseille","lat":43.23083,"lon":5.3547,"is_reserved":false,"is_disabled":false,"rental_uris":{"android":"levelo://app?vid=35070d47-8864-49c7-a023-dc0cc96b9ab6","ios":"levelo://app?vid=35070d47-8864-49c7-a023-dc0cc96b9ab6"},"vehicle_type_id":"4","last_reported":1748203804,"current_range_meters":16400,"station_id":"cpo3342slgdg3j2ifvpg","pricing_plan_id":"cebpf4jnsgd1na2vs0mg"},{"bike_id":"eb72fc4f-7681-4f15-aaf1-8ecb0d2fc9f7","system_id":"levelo_inurba_marseille","lat":43.29964,"lon":5.38484,"is_reserved":false,"is_disabled":false,"rental_uris":{"android":"levelo://app?vid=eb72fc4f-7681-4f15-aaf1-8ecb0d2fc9f7","ios":"levelo://app?vid=eb72fc4f-7681-4f15-aaf1-8ecb0d2fc9f7"},"vehicle_type_id":"4","last_reported":1748203804,"current_range_meters":16400,"station_id":"ce4bgj92rcd13ifvqbd0","pricing_plan_id":"cebpf4jnsgd1na2vs0mg"},{"bike_id":"5206c9ae-389f-46b5-9fee-f59c0f51c3f1","system_id":"levelo_inurba_marseille","lat":43.29787,"lon":5.39347,"is_reserved":false,"is_disabled":false,"rental_uris":{"android":"levelo://app?vid=5206c9ae-389f-46b5-9fee-f59c0f51c3f1","ios":"levelo://app?vid=5206c9ae-389f-46b5-9fee-f59c0f51c3f1"},"vehicle_type_id":"4","last_reported":1748203804,"current_range_meters":16400,"station_id":"chh1huq6cuj3fo74tm60","pricing_plan_id":"cebpf4jnsgd1na2vs0mg"},{"bike_id":"34b437a9-aceb-4c3f-af6e-ac9c8a4be8e9","system_id":"levelo_inurba_marseille","lat":43.286805,"lon":5.38662,"is_reserved":false,"is_disabled":false,"rental_uris":{"android":"levelo://app?vid=34b437a9-aceb-4c3f-af6e-ac9c8a4be8e9","ios":"levelo://app?vid=34b437a9-aceb-4c3f-af6e-ac9c8a4be8e9"},"vehicle_type_id":"4","last_reported":1748203804,"current_range_meters":16800,"station_id":"ce4bh492rcd13ifvqdug","pricing_plan_id":"cebpf4jnsgd1na2vs0mg"},{"bike_id":"ae6e6868-2635-4f49-b7c1-b03759c58ec7","system_id":"levelo_inurba_marseille","lat":43.2729,"lon":5.41603,"is_reserved":false,"is_disabled":false,"rental_uris":{"android":"levelo://app?vid=ae6e6868-2635-4f49-b7c1-b03759c58ec7","ios":"levelo://app?vid=ae6e6868-2635-4f49-b7c1-b03759c58ec7"},"vehicle_type_id":"4","last_reported":1748203804,"current_range_meters":16800,"station_id":"","pricing_plan_id":"cebpf4jnsgd1na2vs0mg"},{"bike_id":"f8221895-ab5f-46e7-b177-153a00098359","system_id":"levelo_inurba_marseille","lat":43.21756,"lon":5.34616,"is_reserved":false,"is_disabled":true,"rental_uris":{"android":"levelo://app?vid=f8221895-ab5f-46e7-b177-153a00098359","ios":"levelo://app?vid=f8221895-ab5f-46e7-b177-153a00098359"},"vehicle_type_id":"4","last_reported":1748203804,"current_range_meters":16800,"station_id":"st_cvj6r9ubvosntc0bgbag","pricing_plan_id":"cebpf4jnsgd1na2vs0mg"},{"bike_id":"14347fcb-41ca-442d-8f8c-222de35ebc79","system_id":"levelo_inurba_marseille","lat":43.28576,"lon":5.39495,"is_reserved":false,"is_disabled":false,"rental_uris":{"android":"levelo://app?vid=14347fcb-41ca-442d-8f8c-222de35ebc79","ios":"levelo://app?vid=14347fcb-41ca-442d-8f8c-222de35ebc79"},"vehicle_type_id":"4","last_reported":1748203804,"current_range_meters":16800,"station_id":"ce4bh292rcd13ifvqdg0","pricing_plan_id":"cebpf4jnsgd1na2vs0mg"},{"bike_id":"4264e0e2-7ada-41ff-b500-b9720932f008","system_id":"levelo_inurba_marseille","lat":43.29084,"lon":5.37166,"is_reserved":false,"is_disabled":false,"rental_uris":{"android":"levelo://app?vid=4264e0e2-7ada-41ff-b500-b9720932f008","ios":"levelo://app?vid=4264e0e2-7ada-41ff-b500-b9720932f008"},"vehicle_type_id":"4","last_reported":1748203804,"current_range_meters":16800,"station_id":"ce4bh5p2rcd13ifvqe4g","pricing_plan_id":"cebpf4jnsgd1na2vs0mg"},{"bike_id":"bd841f4f-bdf2-42ac-9daa-7aba615eaa19","system_id":"levelo_inurba_marseille","lat":43.28085,"lon":5.39642,"is_reserved":false,"is_disabled":false,"rental_uris":{"android":"levelo://app?vid=bd841f4f-bdf2-42ac-9daa-7aba615eaa19","ios":"levelo://app?vid=bd841f4f-bdf2-42ac-9daa-7aba615eaa19"},"vehicle_type_id":"4","last_reported":1748203804,"current_range_meters":16800,"station_id":"ce4bho12rcd13ifvqh2g","pricing_plan_id":"cebpf4jnsgd1na2vs0mg"},{"bike_id":"1238d8e6-f0c7-43e3-9cd6-fc0ab14bca79","system_id":"levelo_inurba_marseille","lat":43.29956,"lon":5.385225,"is_reserved":false,"is_disabled":true,"rental_uris":{"android":"levelo://app?vid=1238d8e6-f0c7-43e3-9cd6-fc0ab14bca79","ios":"levelo://app?vid=1238d8e6-f0c7-43e3-9cd6-fc0ab14bca79"},"vehicle_type_id":"4","last_reported":1748203804,"current_range_meters":16800,"station_id":"ce4bgj92rcd13ifvqbd0","pricing_plan_id":"cebpf4jnsgd1na2vs0mg"},{"bike_id":"4eec2387-408e-4d18-98e3-4dd7bb80f20b","system_id":"levelo_inurba_marseille","lat":43.28719,"lon":5.3794,"is_reserved":false,"is_disabled":false,"rental_uris":{"android":"levelo://app?vid=4eec2387-408e-4d18-98e3-4dd7bb80f20b","ios":"levelo://app?vid=4eec2387-408e-4d18-98e3-4dd7bb80f20b"},"vehicle_type_id":"4","last_reported":1748203804,"current_range_meters":16800,"station_id":"ce4bh9p2rcd13ifvqec0","pricing_plan_id":"cebpf4jnsgd1na2vs0mg"},{"bike_id":"39d43419-a25d-4c00-870f-557567326e79","system_id":"levelo_inurba_marseille","lat":43.23195,"lon":5.35552,"is_reserved":false,"is_disabled":false,"rental_uris":{"android":"levelo://app?vid=39d43419-a25d-4c00-870f-557567326e79","ios":"levelo://app?vid=39d43419-a25d-4c00-870f-557567326e79"},