{"last_updated":1727089643,"ttl":30,"version":"2.2","data":{"bikes":[{"bike_id":"fb7cf372-aff8-4595-aa82-7dfba300d440","system_id":"levelo_inurba_marseille","lat":43.27063,"lon":5.40263,"is_reserved":false,"is_disabled":false,"rental_uris":{"android":"levelo://app?vid=fb7cf372-aff8-4595-aa82-7dfba300d440","ios":"levelo://app?vid=fb7cf372-aff8-4595-aa82-7dfba300d440"},"vehicle_type_id":"4","last_reported":1727089644,"current_range_meters":8000,"station_id":"ce4bhk92rcd13ifvqgc0","pricing_plan_id":"cebpf4jnsgd1na2vs0mg"},{"bike_id":"57e9a344-0c6a-48c0-8213-b6caabd527a3","system_id":"levelo_inurba_marseille","lat":43.29866,"lon":5.39745,"is_reserved":false,"is_disabled":false,"rental_uris":{"android":"levelo://app?vid=57e9a344-0c6a-48c0-8213-b6caabd527a3","ios":"levelo://app?vid=57e9a344-0c6a-48c0-8213-b6caabd527a3"},"vehicle_type_id":"4","last_reported":1727089644,"current_range_meters":23200,"station_id":"ce4bh0h2rcd13ifvqd50","pricing_plan_id":"cebpf4jnsgd1na2vs0mg"},{"bike_id":"c3092ca8-ae64-4d17-8b92-19e1ce991720","system_id":"levelo_inurba_marseille","lat":43.26063,"lon":5.39393,"is_reserved":false,"is_disabled":false,"rental_uris":{"android":"levelo://app?vid=c3092ca8-ae64-4d17-8b92-19e1ce991720","ios":"levelo://app?vid=c3092ca8-ae64-4d17-8b92-19e1ce991720"},"vehicle_type_id":"4","last_reported":1727089644,"current_range_meters":28800,"station_id":"ce4bhh92rcd13ifvqfj0","pricing_plan_id":"cebpf4jnsgd1na2vs0mg"},{"bike_id":"f650b302-6b7f-485e-99ad-1b17a43081ad","system_id":"levelo_inurba_marseille","lat":43.27429,"lon":5.39417,"is_reserved":false,"is_disabled":false,"rental_uris":{"android":"levelo://app?vid=f650b302-6b7f-485e-99ad-1b17a43081ad","ios":"levelo://app?vid=f650b302-6b7f-485e-99ad-1b17a43081ad"},"vehicle_type_id":"4","last_reported":1727089644,"current_range_meters":27200,"station_id":"ce4bhdp2rcd13ifvqf20","pricing_plan_id":"cebpf4jnsgd1na2vs0mg"},{"bike_id":"41943479-b0a0-4887-9ba9-a78455b211da","system_id":"levelo_inurba_marseille","lat":43.3266,"lon":5.40994,"is_reserved":false,"is_disabled":false,"rental_uris":{"android":"levelo://app?vid=41943479-b0a0-4887-9ba9-a78455b211da","ios":"levelo://app?vid=41943479-b0a0-4887-9ba9-a78455b211da"},"vehicle_type_id":"4","last_reported":1727089644,"current_range_meters":32400,"station_id":"ce4bhpp2rcd13ifvqhgg","pricing_plan_id":"cebpf4jnsgd1na2vs0mg"},{"bike_id":"80e38618-c34f-42eb-8980-fd2068621005","system_id":"levelo_inurba_marseille","lat":43.292297,"lon":5.401659,"is_reserved":false,"is_disabled":false,"rental_uris":{"android":"levelo://app?vid=80e38618-c34f-42eb-8980-fd2068621005","ios":"levelo://app?vid=80e38618-c34f-42eb-8980-fd2068621005"},"vehicle_type_id":"4","last_reported":1727089644,"current_range_meters":20800,"station_id":"ce4bh312rcd13ifvqdk0","pricing_plan_id":"cebpf4jnsgd1na2vs0mg"},{"bike_id":"d6480dac-04a9-4d02-a963-882fb6929f55","system_id":"levelo_inurba_marseille","lat":43.30146,"lon":5.37426,"is_reserved":false,"is_disabled":false,"rental_uris":{"android":"levelo://app?vid=d6480dac-04a9-4d02-a963-882fb6929f55","ios":"levelo://app?vid=d6480dac-04a9-4d02-a963-882fb6929f55"},"vehicle_type_id":"4","last_reported":1727089644,"current_range_meters":25200,"station_id":"ce4bgs92rcd13ifvqcc0","pricing_plan_id":"cebpf4jnsgd1na2vs0mg"},{"bike_id":"2922a8af-9c83-4a11-9558-d66c1cc8a004","system_id":"levelo_inurba_marseille","lat":43.29166,"lon":5.37175,"is_reserved":false,"is_disabled":false,"rental_uris":{"android":"levelo://app?vid=2922a8af-9c83-4a11-9558-d66c1cc8a004","ios":"levelo://app?vid=2922a8af-9c83-4a11-9558-d66c1cc8a004"},"vehicle_type_id":"4","last_reported":1727089644,"current_range_meters":20800,"station_id":"ce4bha92rcd13ifvqeh0","pricing_plan_id":"cebpf4jnsgd1na2vs0mg"},{"bike_id":"f56110b2-fa0c-4a89-a30e-78140f32ee11","system_id":"levelo_inurba_marseille","lat":43.29936,"lon":5.36549,"is_reserved":false,"is_disabled":false,"rental_uris":{"android":"levelo://app?vid=f56110b2-fa0c-4a89-a30e-78140f32ee11","ios":"levelo://app?vid=f56110b2-fa0c-4a89-a30e-78140f32ee11"},"vehicle_type_id":"4","last_reported":1727089644,"current_range_meters":38800,"station_id":"ce4bgm92rcd13ifvqbr0","pricing_plan_id":"cebpf4jnsgd1na2vs0mg"},{"bike_id":"f93783c1-483b-4be3-a13d-638761853638","system_id":"levelo_inurba_marseille","lat":43.31711,"lon":5.43707,"is_reserved":false,"is_disabled":false,"rental_uris":{"android":"levelo://app?vid=f93783c1-483b-4be3-a13d-638761853638","ios":"levelo://app?vid=f93783c1-483b-4be3-a13d-638761853638"},"vehicle_type_id":"4","last_reported":1727089644,"current_range_meters":15200,"station_id":"ce4bhp92rcd13ifvqhcg","pricing_plan_id":"cebpf4jnsgd1na2vs0mg"},{"bike_id":"526b20eb-a75f-40c5-bb76-a03dedac1a2d","system_id":"levelo_inurba_marseille","lat":43.29507,"lon":5.37513,"is_reserved":false,"is_disabled":false,"rental_uris":{"android":"levelo://app?vid=526b20eb-a75f-40c5-bb76-a03dedac1a2d","ios":"levelo://app?vid=526b20eb-a75f-40c5-bb76-a03dedac1a2d"},"vehicle_type_id":"4","last_reported":1727089644,"current_range_meters":27600,"station_id":"ce4bgkp2rcd13ifvqbmg","pricing_plan_id":"cebpf4jnsgd1na2vs0mg"},{"bike_id":"2f356ece-8da4-40cf-9f5e-2feb2d17fd23","system_id":"levelo_inurba_marseille","lat":43.30268,"lon":5.37672,"is_reserved":false,"is_disabled":false,"rental_uris":{"android":"levelo://app?vid=2f356ece-8da4-40cf-9f5e-2feb2d17fd23","ios":"levelo://app?vid=2f356ece-8da4-40cf-9f5e-2feb2d17fd23"},"vehicle_type_id":"4","last_reported":1727089644,"current_range_meters":32400,"station_id":"ce4bguh2rcd13ifvqcj0","pricing_plan_id":"cebpf4jnsgd1na2vs0mg"},{"bike_id":"cb1c9e11-54ff-42ef-894a-43a5bcdde81a","system_id":"levelo_inurba_marseille","lat":43.290204,"lon":5.386599,"is_reserved":false,"is_disabled":false,"rental_uris":{"android":"levelo://app?vid=cb1c9e11-54ff-42ef-894a-43a5bcdde81a","ios":"levelo://app?vid=cb1c9e11-54ff-42ef-894a-43a5bcdde81a"},"vehicle_type_id":"4","last_reported":1727089644,"current_range_meters":36800,"station_id":"ce4bh4p2rcd13ifvqe0g","pricing_plan_id":"cebpf4jnsgd1na2vs0mg"},{"bike_id":"715c43e9-5c1a-4667-a4f1-e4643db4f845","system_id":"levelo_inurba_marseille","lat":43.29417,"lon":5.38625,"is_reserved":false,"is_disabled":false,"rental_uris":{"android":"levelo://app?vid=715c43e9-5c1a-4667-a4f1-e4643db4f845","ios":"levelo://app?vid=715c43e9-5c1a-4667-a4f1-e4643db4f845"},"vehicle_type_id":"4","last_reported":1727089644,"current_range_meters":7200,"station_id":"ce4bh2h2rcd13ifvqdh0","pricing_plan_id":"cebpf4jnsgd1na2vs0mg"},{"bike_id":"7d0ac1e9-3b42-4d8c-8aee-61de2dad8e3b","system_id":"levelo_inurba_marseille","lat":43.299683,"lon":5.384737,"is_reserved":false,"is_disabled":false,"rental_uris":{"android":"levelo://app?vid=7d0ac1e9-3b42-4d8c-8aee-61de2dad8e3b","ios":"levelo://app?vid=7d0ac1e9-3b42-4d8c-8aee-61de2dad8e3b"},"vehicle_type_id":"4","last_reported":1727089644,"current_range_meters":38800,"station_id":"ce4bgj92rcd13ifvqbd0","pricing_plan_id":"cebpf4jnsgd1na2vs0mg"},{"bike_id":"dfecea0a-0422-4bc0-a57a-bf86bc071c86","system_id":"levelo_inurba_marseille","lat":43.25933,"lon":5.40908,"is_reserved":false,"is_disabled":false,"rental_uris":{"android":"levelo://app?vid=dfecea0a-0422-4bc0-a57a-bf86bc071c86","ios":"levelo://app?vid=dfecea0a-0422-4bc0-a57a-bf86bc071c86"},"vehicle_type_id":"4","last_reported":1727089644,"current_range_meters":24400,"station_id":"ce4bhm92rcd13ifvqglg","pricing_plan_id":"cebpf4jnsgd1na2vs0mg"},{"bike_id":"f3e1b1ff-1082-4a8a-ae3b-df52be5c988a","system_id":"levelo_inurba_marseille","lat":43.28152,"lon":5.4265,"is_reserved":false,"is_disabled":false,"rental_uris":{"android":"levelo://app?vid=f3e1b1ff-1082-4a8a-ae3b-df52be5c988a","ios":"levelo://app?vid=f3e1b1ff-1082-4a8a-ae3b-df52be5c988a"},"vehicle_type_id":"4","last_reported":1727089644,"current_range_meters":38800,"station_id":"ce4bhnh2rcd13ifvqgug","pricing_plan_id":"cebpf4jnsgd1na2vs0mg"},{"bike_id":"18ec8830-6b01-48f2-a7d7-2188544ece93","system_id":"levelo_inurba_marseille","lat":43.29573,"lon":5.37525,"is_reserved":false,"is_disabled":false,"rental_uris":{"android":"levelo://app?vid=18ec8830-6b01-48f2-a7d7-2188544ece93","ios":"levelo://app?vid=18ec8830-6b01-48f2-a7d7-2188544ece93"},"vehicle_type_id":"4","last_reported":1727089644,"current_range_meters":34000,"station_id":"ce4bgh92rcd13ifvqb50","pricing_plan_id":"cebpf4jnsgd1na2vs0mg"},{"bike_id":"9e491187-6eae-4713-bd6c-e99251300247","system_id":"levelo_inurba_marseille","lat":43.2594,"lon":5.40901,"is_reserved":false,"is_disabled":false,"rental_uris":{"android":"levelo://app?vid=9e491187-6eae-4713-bd6c-e99251300247","ios":"levelo://app?vid=9e491187-6eae-4713-bd6c-e99251300247"},"vehicle_type_id":"4","last_reported":1727089644,"current_range_meters":28400,"station_id":"ce4bhm92rcd13ifvqglg","pricing_plan_id":"cebpf4jnsgd1na2vs0mg"},{"bike_id":"b74d4339-288f-449c-baa3-5d28a28093ba","system_id":"levelo_inurba_marseille","lat":43.2866,"lon":5.38678,"is_reserved":false,"is_disabled":false,"rental_uris":{"android":"levelo://app?vid=b74d4339-288f-449c-baa3-5d28a28093ba","ios":"levelo://app?vid=b74d4339-288f-449c-baa3-5d28a28093ba"},"vehicle_type_id":"4","last_reported":1727089644,"current_range_meters":28400,"station_id":"ce4bh492rcd13ifvqdug","pricing_plan_id":"cebpf4jnsgd1na2vs0mg"},{"bike_id":"20a042f1-81aa-4cde-8548-4f002e395336","system_id":"levelo_inurba_marseille","lat":43.30196,"lon":5.39823,"is_reserved":false,"is_disabled":false,"rental_uris":{"android":"levelo://app?vid=20a042f1-81aa-4cde-8548-4f002e395336","ios":"levelo://app?vid=20a042f1-81aa-4cde-8548-4f002e395336"},"vehicle_type_id":"4","last_reported":1727089644,"current_range_meters":30800,"station_id":"ce4bgvp2rcd13ifvqct0","pricing_plan_id":"cebpf4jnsgd1na2vs0mg"},{"bike_id":"a0fa56b4-330c-4370-9008-b02cc5ee30b6","system_id":"levelo_inurba_marseille","lat":43.27942,"lon":5.41043,"is_reserved":false,"is_disabled":false,"rental_uris":{"android":"levelo://app?vid=a0fa56b4-330c-4370-9008-b02cc5ee30b6","ios":"levelo://app?vid=a0fa56b4-330c-4370-9008-b02cc5ee30b6"},"vehicle_type_id":"4","last_reported":1727089644,"current_range_meters":27200,"station_id":"ce4bhnp2rcd13ifvqh0g","pricing_plan_id":"cebpf4jnsgd1na2vs0mg"},{"bike_id":"20b7e6e0-ac6f-467a-b23b-fb93493f485f","system_id":"levelo_inurba_marseille","lat":43.30545,"lon":5.36562,"is_reserved":false,"is_disabled":false,"rental_uris":{"android":"levelo://app?vid=20b7e6e0-ac6f-467a-b23b-fb93493f485f","ios":"levelo://app?vid=20b7e6e0-ac6f-467a-b23b-fb93493f485f"},"vehicle_type_id":"4","last_reported":1727089644,"current_range_meters":14400,"station_id":"ce4bgs12rcd13ifvqcag","pricing_plan_id":"cebpf4jnsgd1na2vs0mg"},{"bike_id":"5fbf34c0-bb6f-44cb-9e01-b199d5bd4276","system_id":"levelo_inurba_marseille","lat":43.29417,"lon":5.38626,"is_reserved":false,"is_disabled":false,"rental_uris":{"android":"levelo://app?vid=5fbf34c0-bb6f-44cb-9e01-b199d5bd4276","ios":"levelo://app?vid=5fbf34c0-bb6f-44cb-9e01-b199d5bd4276"},"vehicle_type_id":"4","last_reported":1727089644,"current_range_meters":38800,"station_id":"ce4bh2h2rcd13ifvqdh0","pricing_plan_id":"cebpf4jnsgd1na2vs0mg"},{"bike_id":"12eef59f-e9d4-435a-94ad-abce81dbebcc","system_id":"levelo_inurba_marseille","lat":43.2827,"lon":5.35074,"is_reserved":false,"is_disabled":false,"rental_uris":{"android":"levelo://app?vid=12eef59f-e9d4-435a-94ad-abce81dbebcc","ios":"levelo://app?vid=12eef59f-e9d4-435a-94ad-abce81dbebcc"},"vehicle_type_id":"4","last_reported":1727089644,"current_range_meters":29600,"station_id":"ce4bhbp2rcd13ifvqerg","pricing_plan_id":"cebpf4jnsgd1na2vs0mg"},{"bike_id":"f7adb0ea-e195-40b9-9d71-9b4f032c7ddb","system_id":"levelo_inurba_marseille","lat":43.23151,"lon":5.43707,"is_reserved":false,"is_disabled":false,"rental_uris":{"android":"levelo://app?vid=f7adb0ea-e195-40b9-9d71-9b4f032c7ddb","ios":"levelo://app?vid=f7adb0ea-e195-40b9-9d71-9b4f032c7ddb"},"vehicle_type_id":"4","last_reported":1727089644,"current_range_meters":38400,"station_id":"ce4bhmp2rcd13ifvqgog","pricing_plan_id":"cebpf4jnsgd1na2vs0mg"},{"bike_id":"80eca223-4a73-4a65-a903-bcf7afbbc7bd","system_id":"levelo_inurba_marseille","lat":43.23151,"lon":5.43709,"is_reserved":false,"is_disabled":false,"rental_uris":{"android":"levelo://app?vid=80eca223-4a73-4a65-a903-bcf7afbbc7bd","ios":"levelo://app?vid=80eca223-4a73-4a65-a903-bcf7afbbc7bd"},"vehicle_type_id":"4","last_reported":1727089644,"current_range_meters":38800,"station_id":"ce4bhmp2rcd13ifvqgog","pricing_plan_id":"cebpf4jnsgd1na2vs0mg"},{"bike_id":"1f1f13cc-72ab-45bc-92d5-7872d5d302ee","system_id":"levelo_inurba_marseille","lat":43.337583,"lon":5.374568,"is_reserved":false,"is_disabled":false,"rental_uris":{"android":"levelo://app?vid=1f1f13cc-72ab-45bc-92d5-7872d5d302ee","ios":"levelo://app?vid=1f1f13cc-72ab-45bc-92d5-7872d5d302ee"},"vehicle_type_id":"4","last_reported":1727089644,"current_range_meters":37600,"station_id":"","pricing_plan_id":"cebpf4jnsgd1na2vs0mg"},{"bike_id":"52553e47-2c41-4fae-b028-2d1e8c5c6c51","system_id":"levelo_inurba_marseille","lat":43.29894,"lon":5.43671,"is_reserved":false,"is_disabled":false,"rental_uris":{"android":"levelo://app?vid=52553e47-2c41-4fae-b028-2d1e8c5c6c51","ios":"levelo://app?vid=52553e47-2c41-4fae-b028-2d1e8c5c6c51"},"vehicle_type_id":"4","last_reported":1727089644,"current_range_meters":22000,"station_id":"ce4bhpp2rcd13ifvqhfg","pricing_plan_id":"cebpf4jnsgd1na2vs0mg"},{"bike_id":"2c9b4c79-5eab-440b-a215-2fc850d0e94c","system_id":"levelo_inurba_marseille","lat":43.28365,"lon":5.38634,"is_reserved":false,"is_disabled":false,"rental_uris":{"android":"levelo://app?vid=2c9b4c79-5eab-440b-a215-2fc850d0e94c","ios":"levelo://app?vid=2c9b4c79-5eab-440b-a215-2fc850d0e94c"},"vehicle_type_id":"4","last_reported":1727089644,"current_range_meters":2800,"station_id":"ce4bh492rcd13ifvqdvg","pricing_plan_id":"cebpf4jnsgd1na2vs0mg"},{"bike_id":"4d47fd67-3128-48f3-b0cc-dcc4ccaff878","system_id":"levelo_inurba_marseille","lat":43.30242,"lon":5.40083,"is_reserved":false,"is_disabled":false,"rental_uris":{"android":"levelo://app?vid=4d47fd67-3128-48f3-b0cc-dcc4ccaff878","ios":"levelo://app?vid=4d47fd67-3128-48f3-b0cc-dcc4ccaff878"},"vehicle_type_id":"4","last_reported":1727089644,"current_range_meters":6000,"station_id":"ce4bgvh2rcd13ifvqcs0","pricing_plan_id":"cebpf4jnsgd1na2vs0mg"},{"bike_id":"b552371a-0122-4213-9584-437f80c7ecc3","system_id":"levelo_inurba_marseille","lat":43.29027,"lon":5.38646,"is_reserved":false,"is_disabled":false,"rental_uris":{"android":"levelo://app?vid=b552371a-0122-4213-9584-437f80c7ecc3","ios":"levelo://app?vid=b552371a-0122-4213-9584-437f80c7ecc3"},"vehicle_type_id":"4","last_reported":1727089644,"current_range_meters":24800,"station_id":"ce4bh4p2rcd13ifvqe0g","pricing_plan_id":"cebpf4jnsgd1na2vs0mg"},{"bike_id":"4117225d-fbf7-489f-a9f9-a7903758f15d","system_id":"levelo_inurba_marseille","lat":43.337444,"lon":5.374475,"is_reserved":false,"is_disabled":false,"rental_uris":{"android":"levelo://app?vid=4117225d-fbf7-489f-a9f9-a7903758f15d","ios":"levelo://app?vid=4117225d-fbf7-489f-a9f9-a7903758f15d"},"vehicle_type_id":"4","last_reported":1727089644,"current_range_meters":26800,"station_id":"","pricing_plan_id":"cebpf4jnsgd1na2vs0mg"},{"bike_id":"03a4c3c6-8245-4aea-bffb-e5a159133019","system_id":"levelo_inurba_marseille","lat":43.31327,"lon":5.39696,"is_reserved":false,"is_disabled":false,"rental_uris":{"android":"levelo://app?vid=03a4c3c6-8245-4aea-bffb-e5a159133019","ios":"levelo://app?vid=03a4c3c6-8245-4aea-bffb-e5a159133019"},"vehicle_type_id":"4","last_reported":1727089644,"current_range_meters":19200,"station_id":"ce4bgvp2rcd13ifvqcu0","pricing_plan_id":"cebpf4jnsgd1na2vs0mg"},{"bike_id":"a61c23d9-d61c-4365-bc08-d37166eaf4e1","system_id":"levelo_inurba_marseille","lat":43.30319,"lon":5.40451,"is_reserved":false,"is_disabled":false,"rental_uris":{"android":"levelo://app?vid=a61c23d9-d61c-4365-bc08-d37166eaf4e1","ios":"levelo://app?vid=a61c23d9-d61c-4365-bc08-d37166eaf4e1"},"vehicle_type_id":"4","last_reported":1727089644,"current_range_meters":36400,"station_id":"ce4bh012rcd13ifvqd10","pricing_plan_id":"cebpf4jnsgd1na2vs0mg"},{"bike_id":"cf929d59-7f66-468e-b51f-0224f6d0d277","system_id":"levelo_inurba_marseille","lat":43.29886,"lon":5.38912,"is_reserved":false,"is_disabled":false,"rental_uris":{"android":"levelo://app?vid=cf929d59-7f66-468e-b51f-0224f6d0d277","ios":"levelo://app?vid=cf929d59-7f66-468e-b51f-0224f6d0d277"},"vehicle_type_id":"4","last_reported":1727089644,"current_range_meters":24000,"station_id":"ce4bh392rcd13ifvqdl0","pricing_plan_id":"cebpf4jnsgd1na2vs0mg"},{"bike_id":"2fc34bba-a2b4-4632-bf54-64bcff937e6e","system_id":"levelo_inurba_marseille","lat":43.32478,"lon":5.36564,"is_reserved":false,"is_disabled":false,"rental_uris":{"android":"levelo://app?vid=2fc34bba-a2b4-4632-bf54-64bcff937e6e","ios":"levelo://app?vid=2fc34bba-a2b4-4632-bf54-64bcff937e6e"},"vehicle_type_id":"4","last_reported":1727089644,"current_range_meters":22800,"station_id":"ce4bhs12rcd13ifvqhvg","pricing_plan_id":"cebpf4jnsgd1na2vs0mg"},{"bike_id":"23ca7a8f-e35c-4afc-8c57-aaf8717d5c66","system_id":"levelo_inurba_marseille","lat":43.29965,"lon":5.38467,"is_reserved":false,"is_disabled":false,"rental_uris":{"android":"levelo://app?vid=23ca7a8f-e35c-4afc-8c57-aaf8717d5c66","ios":"levelo://app?vid=23ca7a8f-e35c-4afc-8c57-aaf8717d5c66"},"vehicle_type_id":"4","last_reported":1727089644,"current_range_meters":35600,"station_id":"ce4bgj92rcd13ifvqbd0","pricing_plan_id":"cebpf4jnsgd1na2vs0mg"},{"bike_id":"a0edd235-9112-4738-ae17-f58c690ab2f4","system_id":"levelo_inurba_marseille","lat":43.32483,"lon":5.36559,"is_reserved":false,"is_disabled":false,"rental_uris":{"android":"levelo://app?vid=a0edd235-9112-4738-ae17-f58c690ab2f4","ios":"levelo://app?vid=a0edd235-9112-4738-ae17-f58c690ab2f4"},"vehicle_type_id":"4","last_reported":1727089644,"current_range_meters":40000,"station_id":"ce4bhs12rcd13ifvqhvg","pricing_plan_id":"cebpf4jnsgd1na2vs0mg"},{"bike_id":"ca29249d-a00e-4920-8848-2306ac76f184","system_id":"levelo_inurba_marseille","lat":43.27655,"lon":5.388748,"is_reserved":false,"is_disabled":false,"rental_uris":{"android":"levelo://app?vid=ca29249d-a00e-4920-8848-2306ac76f184","ios":"levelo://app?vid=ca29249d-a00e-4920-8848-2306ac76f184"},"vehicle_type_id":"4","last_reported":1727089644,"current_range_meters":8800,"station_id":"ce4bhh12rcd13ifvqfg0","pricing_plan_id":"cebpf4jnsgd1na2vs0mg"},{"bike_id":"197e473c-a40c-4f10-98ba-3c1ac5df1028","system_id":"levelo_inurba_marseille","lat":43.29934,"lon":5.36538,"is_reserved":false,"is_disabled":false,"rental_uris":{"android":"levelo://app?vid=197e473c-a40c-4f10-98ba-3c1ac5df1028","ios":"levelo://app?vid=197e473c-a40c-4f10-98ba-3c1ac5df1028"},"vehicle_type_id":"4","last_reported":1727089644,"current_range_meters":28000,"station_id":"ce4bgm92rcd13ifvqbr0","pricing_plan_id":"cebpf4jnsgd1na2vs0mg"},{"bike_id":"b40cf0c5-cf06-4c2c-a4b6-8b279f429441","system_id":"levelo_inurba_marseille","lat":43.31707,"lon":5.40456,"is_reserved":false,"is_disabled":false,"rental_uris":{"android":"levelo://app?vid=b40cf0c5-cf06-4c2c-a4b6-8b279f429441","ios":"levelo://app?vid=b40cf0c5-cf06-4c2c-a4b6-8b279f429441"},"vehicle_type_id":"4","last_reported":1727089644,"current_range_meters":27600,"station_id":"ce4bh012rcd13ifvqd00","pricing_plan_id":"cebpf4jnsgd1na2vs0mg"},{"bike_id":"3c079497-4f0f-4dd3-8bef-c3f7cdf08ea0","system_id":"levelo_inurba_marseille","lat":43.24075,"lon":5.37753,"is_reserved":false,"is_disabled":false,"rental_uris":{"android":"levelo://app?vid=3c079497-4f0f-4dd3-8bef-c3f7cdf08ea0","ios":"levelo://app?vid=3c079497-4f0f-4dd3-8bef-c3f7cdf08ea0"},"vehicle_type_id":"4","last_reported":1727089644,"current_range_meters":36800,"station_id":"ce4bhnp2rcd13ifvqgvg","pricing_plan_id":"cebpf4jnsgd1na2vs0mg"},{"bike_id":"5156bfd9-5b06-45e8-9a61-373dc2e7191a","system_id":"levelo_inurba_marseille","lat":43.24175,"lon":5.39733,"is_reserved":false,"is_disabled":false,"rental_uris":{"android":"levelo://app?vid=5156bfd9-5b06-45e8-9a61-373dc2e7191a","ios":"levelo://app?vid=5156bfd9-5b06-45e8-9a61-373dc2e7191a"},"vehicle_type_id":"4","last_reported":1727089644,"current_range_meters":12400,"station_id":"ce4bhn12rcd13ifvqgpg","pricing_plan_id":"cebpf4jnsgd1na2vs0mg"},{"bike_id":"860c8e9d-4001-4aaa-b1f1-ab02b2cccfa4","system_id":"levelo_inurba_marseille","lat":43.32476,"lon":5.36565,"is_reserved":false,"is_disabled":false,"rental_uris":{"android":"levelo://app?vid=860c8e9d-4001-4aaa-b1f1-ab02b2cccfa4","ios":"levelo://app?vid=860c8e9d-4001-4aaa-b1f1-ab02b2cccfa4"},"vehicle_type_id":"4","last_reported":1727089644,"current_range_meters":24800,"station_id":"ce4bhs12rcd13ifvqhvg","pricing_plan_id":"cebpf4jnsgd1na2vs0mg"},{"bike_id":"11658d4c-2567-4b0f-8e71-8ec83d6896ed","system_id":"levelo_inurba_marseille","lat":43.30541,"lon":5.3655,"is_reserved":false,"is_disabled":false,"rental_uris":{"android":"levelo://app?vid=11658d4c-2567-4b0f-8e71-8ec83d6896ed","ios":"levelo://app?vid=11658d4c-2567-4b0f-8e71-8ec83d6896ed"},"vehicle_type_id":"4","last_reported":1727089644,"current_range_meters":39200,"station_id":"ce4bgs12rcd13ifvqcag","pricing_plan_id":"cebpf4jnsgd1na2vs0mg"},{"bike_id":"3b5aa061-daa9-4a14-82e9-3c9afe9eee59","system_id":"levelo_inurba_marseille","lat":43.2815,"lon":5.42648,"is_reserved":false,"is_disabled":false,"rental_uris":{"android":"levelo://app?vid=3b5aa061-daa9-4a14-82e9-3c9afe9eee59","ios":"levelo://app?vid=3b5aa061-daa9-4a14-82e9-3c9afe9eee59"},"vehicle_type_id":"4","last_reported":1727089644,"current_range_meters":10000,"station_id":"ce4bhnh2rcd13ifvqgug","pricing_plan_id":"cebpf4jnsgd1na2vs0mg"},{"bike_id":"d8d08a38-4880-47fb-8687-597f7d2ff570","system_id":"levelo_inurba_marseille","lat":43.30011,"lon":5.38454,"is_reserved":false,"is_disabled":false,"rental_uris":{"android":"levelo://app?vid=d8d08a38-4880-47fb-8687-597f7d2ff570","ios":"levelo://app?vid=d8d08a38-4880-47fb-8687-597f7d2ff570"},"vehicle_type_id":"4","last_reported":1727089644,"current_range_meters":30400,"station_id":"ce4bgj92rcd13ifvqbd0","pricing_plan_id":"cebpf4jnsgd1na2vs0mg"},{"bike_id":"c4c39e66-9ed5-447d-9a70-518b2971b8fd","system_id":"levelo_inurba_marseille","lat":43.30559,"lon":5.3655,"is_reserved":false,"is_disabled":false,"rental_uris":{"android":"levelo://app?vid=c4c39e66-9ed5-447d-9a70-518b2971b8fd","ios":"levelo://app?vid=c4c39e66-9ed5-447d-9a70-518b2971b8fd"},"vehicle_type_id":"4","last_reported":1727089644,"current_range_meters":25600,"station_id":"ce4bgs12rcd13ifvqcag","pricing_plan_id":"cebpf4jnsgd1na2vs0mg"},{"bike_id":"3ebaaaec-15d2-494c-ab9e-13e8bcbe1874","system_id":"levelo_inurba_marseille","lat":43.29276,"lon":5.3686,"is_reserved":false,"is_disabled":false,"rental_uris":{"android":"levelo://app?vid=3ebaaaec-15d2-494c-ab9e-13e8bcbe1874","ios":"levelo://app?vid=3ebaaaec-15d2-494c-ab9e-13e8bcbe1874"},"vehicle_type_id":"4","last_reported":1727089644,"current_range_meters":30800,"station_id":"ce4bhbp2rcd13ifvqesg","pricing_plan_id":"cebpf4jnsgd1na2vs0mg"},{"bike_id":"30556e8b-e5d2-407f-8217-22daf4fa38ce","system_id":"levelo_inurba_marseille","lat":43.31492,"lon":5.37309,"is_reserved":false,"is_disabled":false,"rental_uris":{"android":"levelo://app?vid=30556e8b-e5d2-407f-8217-22daf4fa38ce","ios":"levelo://app?vid=30556e8b-e5d2-407f-8217-22daf4fa38ce"},"vehicle_type_id":"4","last_reported":1727089644,"current_range_meters":22800,"station_id":"ce4bgt12rcd13ifvqcd0","pricing_plan_id":"cebpf4jnsgd1na2vs0mg"},{"bike_id":"5632390e-03af-4541-960f-fec03f55a325","system_id":"levelo_inurba_marseille","lat":43.27067,"lon":5.42286,"is_reserved":false,"is_disabled":false,"rental_uris":{"android":"levelo://app?vid=5632390e-03af-4541-960f-fec03f55a325","ios":"levelo://app?vid=5632390e-03af-4541-960f-fec03f55a325"},"vehicle_type_id":"4","last_reported":1727089644,"current_range_meters":12000,"station_id":"ce4bhk92rcd13ifvqgb0","pricing_plan_id":"cebpf4jnsgd1na2vs0mg"},{"bike_id":"de29b561-59b2-44dc-ae00-0f630a9bf7cb","system_id":"levelo_inurba_marseille","lat":43.337625,"lon":5.374797,"is_reserved":false,"is_disabled":false,"rental_uris":{"android":"levelo://app?vid=de29b561-59b2-44dc-ae00-0f630a9bf7cb","ios":"levelo://app?vid=de29b561-59b2-44dc-ae00-0f630a9bf7cb"},"vehicle_type_id":"4","last_reported":1727089644,"current_range_meters":16000,"station_id":"","pricing_plan_id":"cebpf4jnsgd1na2vs0mg"},{"bike_id":"2b26ac36-e341-4854-a9d6-915450d3500a","system_id":"levelo_inurba_marseille","lat":43.2707,"lon":5.42275,"is_reserved":false,"is_disabled":false,"rental_uris":{"android":"levelo://app?vid=2b26ac36-e341-4854-a9d6-915450d3500a","ios":"levelo://app?vid=2b26ac36-e341-4854-a9d6-915450d3500a"},"vehicle_type_id":"4","last_reported":1727089644,"current_range_meters":37600,"station_id":"ce4bhk92rcd13ifvqgb0","pricing_plan_id":"cebpf4jnsgd1na2vs0mg"},{"bike_id":"5ac02ac5-91f4-4bb5-a9b4-f7275115ed59","system_id":"levelo_inurba_marseille","lat":43.23153,"lon":5.43711,"is_reserved":false,"is_disabled":false,"rental_uris":{"android":"levelo://app?vid=5ac02ac5-91f4-4bb5-a9b4-f7275115ed59","ios":"levelo://app?vid=5ac02ac5-91f4-4bb5-a9b4-f7275115ed59"},"vehicle_type_id":"4","last_reported":1727089644,"current_range_meters":24000,"station_id":"ce4bhmp2rcd13ifvqgog","pricing_plan_id":"cebpf4jnsgd1na2vs0mg"},{"bike_id":"5d042633-1734-43bb-a3ce-e00e32158946","system_id":"levelo_inurba_marseille","lat":43.29934,"lon":5.36539,"is_reserved":false,"is_disabled":false,"rental_uris":{"android":"levelo://app?vid=5d042633-1734-43bb-a3ce-e00e32158946","ios":"levelo://app?vid=5d042633-1734-43bb-a3ce-e00e32158946"},"vehicle_type_id":"4","last_reported":1727089644,"current_range_meters":6400,"station_id":"ce4bgm92rcd13ifvqbr0","pricing_plan_id":"cebpf4jnsgd1na2vs0mg"},{"bike_id":"cfdf47df-04ba-4ead-a3c2-9387793389d6","system_id":"levelo_inurba_marseille","lat":43.27371,"lon":5.3626,"is_reserved":false,"is_disabled":false,"rental_uris":{"android":"levelo://app?vid=cfdf47df-04ba-4ead-a3c2-9387793389d6","ios":"levelo://app?vid=cfdf47df-04ba-4ead-a3c2-9387793389d6"},"vehicle_type_id":"4","last_reported":1727089644,"current_range_meters":33600,"station_id":"ce4bhbh2rcd13ifvqeo0","pricing_plan_id":"cebpf4jnsgd1na2vs0mg"},{"bike_id":"7217d458-0eb3-4405-b646-b65d0dcff88e","system_id":"levelo_inurba_marseille","lat":43.26943,"lon":5.40249,"is_reserved":false,"is_disabled":false,"rental_uris":{"android":"levelo://app?vid=7217d458-0eb3-4405-b646-b65d0dcff88e","ios":"levelo://app?vid=7217d458-0eb3-4405-b646-b65d0dcff88e"},"vehicle_type_id":"4","last_reported":1727089644,"current_range_meters":8400,"station_id":"cjm6bp8fraef2m0cb0m0","pricing_plan_id":"cebpf4jnsgd1na2vs0mg"},{"bike_id":"53fa2c97-9230-49e1-be31-123091ff05a0","system_id":"levelo_inurba_marseille","lat":43.24055,"lon":5.37768,"is_reserved":false,"is_disabled":false,"rental_uris":{"android":"levelo://app?vid=53fa2c97-9230-49e1-be31-123091ff05a0","ios":"levelo://app?vid=53fa2c97-9230-49e1-be31-123091ff05a0"},"vehicle_type_id":"4","last_reported":1727089644,"current_range_meters":27600,"station_id":"ce4bhnp2rcd13ifvqgvg","pricing_plan_id":"cebpf4jnsgd1na2vs0mg"},{"bike_id":"36c416da-9158-44af-aa3a-06b103bea7bf","system_id":"levelo_inurba_marseille","lat":43.337444,"lon":5.374475,"is_reserved":false,"is_disabled":false,"rental_uris":{"android":"levelo://app?vid=36c416da-9158-44af-aa3a-06b103bea7bf","ios":"levelo://app?vid=36c416da-9158-44af-aa3a-06b103bea7bf"},"vehicle_type_id":"4","last_reported":1727089644,"current_range_meters":24000,"station_id":"","pricing_plan_id":"cebpf4jnsgd1na2vs0mg"},{"bike_id":"18fae2e4-2399-43e9-ae57-8d2c1d0079a0","system_id":"levelo_inurba_marseille","lat":43.24083,"lon":5.37756,"is_reserved":false,"is_disabled":false,"rental_uris":{"android":"levelo://app?vid=18fae2e4-2399-43e9-ae57-8d2c1d0079a0","ios":"levelo://app?vid=18fae2e4-2399-43e9-ae57-8d2c1d0079a0"},"vehicle_type_id":"4","last_reported":1727089644,"current_range_meters":32000,"station_id":"ce4bhnp2rcd13ifvqgvg","pricing_plan_id":"cebpf4jnsgd1na2vs0mg"},{"bike_id":"b6db7f04-3d81-48b5-ac7e-5298acde5f0d","system_id":"levelo_inurba_marseille","lat":43.2649,"lon":5.39549,"is_reserved":false,"is_disabled":false,"rental_uris":{"android":"levelo://app?vid=b6db7f04-3d81-48b5-ac7e-5298acde5f0d","ios":"levelo://app?vid=b6db7f04-3d81-48b5-ac7e-5298acde5f0d"},"vehicle_type_id":"4","last_reported":1727089644,"current_range_meters":33200,"station_id":"ce4bhi12rcd13ifvqfq0","pricing_plan_id":"cebpf4jnsgd1na2vs0mg"},{"bike_id":"dca116e1-becc-4cc1-b63c-e024d941dc63","system_id":"levelo_inurba_marseille","lat":43.30597,"lon":5.37224,"is_reserved":false,"is_disabled":false,"rental_uris":{"android":"levelo://app?vid=dca116e1-becc-4cc1-b63c-e024d941dc63","ios":"levelo://app?vid=dca116e1-becc-4cc1-b63c-e024d941dc63"},"vehicle_type_id":"4","last_reported":1727089644,"current_range_meters":36000,"station_id":"ce4bgqh2rcd13ifvqc4g","pricing_plan_id":"cebpf4jnsgd1na2vs0mg"},{"bike_id":"dcf3d7bc-c35f-4647-a9ab-733122a04faf","system_id":"levelo_inurba_marseille","lat":43.25111,"lon":5.40322,"is_reserved":false,"is_disabled":false,"rental_uris":{"android":"levelo://app?vid=dcf3d7bc-c35f-4647-a9ab-733122a04faf","ios":"levelo://app?vid=dcf3d7bc-c35f-4647-a9ab-733122a04faf"},"vehicle_type_id":"4","last_reported":1727089644,"current_range_meters":37600,"station_id":"ce4bhlh2rcd13ifvqgig","pricing_plan_id":"cebpf4jnsgd1na2vs0mg"},{"bike_id":"8e975919-49f3-4c9f-8eda-6d98788fb7bc","system_id":"levelo_inurba_marseille","lat":43.337444,"lon":5.374475,"is_reserved":false,"is_disabled":false,"rental_uris":{"android":"levelo://app?vid=8e975919-49f3-4c9f-8eda-6d98788fb7bc","ios":"levelo://app?vid=8e975919-49f3-4c9f-8eda-6d98788fb7bc"},"vehicle_type_id":"4","last_reported":1727089644,"current_range_meters":15200,"station_id":"","pricing_plan_id":"cebpf4jnsgd1na2vs0mg"},{"bike_id":"88894a41-6cdf-4226-9ff3-ab3b84ed661f","system_id":"levelo_inurba_marseille","lat":43.31709,"lon":5.4371,"is_reserved":false,"is_disabled":false,"rental_uris":{"android":"levelo://app?vid=88894a41-6cdf-4226-9ff3-ab3b84ed661f","ios":"levelo://app?vid=88894a41-6cdf-4226-9ff3-ab3b84ed661f"},"vehicle_type_id":"4","last_reported":1727089644,"current_range_meters":20400,"station_id":"ce4bhp92rcd13ifvqhcg","pricing_plan_id":"cebpf4jnsgd1na2vs0mg"},{"bike_id":"9535c4c1-db43-4da9-bd59-0e6bec13b4df","system_id":"levelo_inurba_marseille","lat":43.23149,"lon":5.43711,"is_reserved":false,"is_disabled":false,"rental_uris":{"android":"levelo://app?vid=9535c4c1-db43-4da9-bd59-0e6bec13b4df","ios":"levelo://app?vid=9535c4c1-db43-4da9-bd59-0e6bec13b4df"},"vehicle_type_id":"4","last_reported":1727089644,"current_range_meters":8800,"station_id":"ce4bhmp2rcd13ifvqgog","pricing_plan_id":"cebpf4jnsgd1na2vs0mg"},{"bike_id":"43043176-26c4-426a-b720-127ae8f9740f","system_id":"levelo_inurba_marseille","lat":43.23149,"lon":5.43716,"is_reserved":false,"is_disabled":false,"rental_uris":{"android":"levelo://app?vid=43043176-26c4-426a-b720-127ae8f9740f","ios":"levelo://app?vid=43043176-26c4-426a-b720-127ae8f9740f"},"vehicle_type_id":"4","last_reported":1727089644,"current_range_meters":38800,"station_id":"ce4bhmp2rcd13ifvqgog","pricing_plan_id":"cebpf4jnsgd1na2vs0mg"},{"bike_id":"ffdfd3be-10a2-41dc-a4fb-9d6dac959d04","system_id":"levelo_inurba_marseille","lat":43.30328,"lon":5.40445,"is_reserved":false,"is_disabled":false,"rental_uris":{"android":"levelo://app?vid=ffdfd3be-10a2-41dc-a4fb-9d6dac959d04","ios":"levelo://app?vid=ffdfd3be-10a2-41dc-a4fb-9d6dac959d04"},"vehicle_type_id":"4","last_reported":1727089644,"current_range_meters":24800,"station_id":"ce4bh012rcd13ifvqd10","pricing_plan_id":"cebpf4jnsgd1na2vs0mg"},{"bike_id":"690627a1-8e57-4b02-bc7a-dd9bcf49489f","system_id":"levelo_inurba_marseille","lat":43.29582,"lon":5.36735,"is_reserved":false,"is_disabled":false,"rental_uris":{"android":"levelo://app?vid=690627a1-8e57-4b02-bc7a-dd9bcf49489f","ios":"levelo://app?vid=690627a1-8e57-4b02-bc7a-dd9bcf49489f"},"vehicle_type_id":"4","last_reported":1727089644,"current_range_meters":39200,"station_id":"ce4bgph2rcd13ifvqc2g","pricing_plan_id":"cebpf4jnsgd1na2vs0mg"},{"bike_id":"0764ac8f-d26d-4ded-9610-282db06212aa","system_id":"levelo_inurba_marseille","lat":43.28565,"lon":5.39491,"is_reserved":false,"is_disabled":false,"rental_uris":{"android":"levelo://app?vid=0764ac8f-d26d-4ded-9610-282db06212aa","ios":"levelo://app?vid=0764ac8f-d26d-4ded-9610-282db06212aa"},"vehicle_type_id":"4","last_reported":1727089644,"current_range_meters":32000,"station_id":"ce4bh292rcd13ifvqdg0","pricing_plan_id":"cebpf4jnsgd1na2vs0mg"},{"bike_id":"149779fc-bc45-458a-857f-33707eedaf6a","system_id":"levelo_inurba_marseille","lat":43.23196,"lon":5.3555,"is_reserved":false,"is_disabled":false,"rental_uris":{"android":"levelo://app?vid=149779fc-bc45-458a-857f-33707eedaf6a","ios":"levelo://app?vid=149779fc-bc45-458a-857f-33707eedaf6a"},"vehicle_type_id":"4","last_reported":1727089644,"current_range_meters":9200,"station_id":"ce4bhu92rcd13ifvqi70","pricing_plan_id":"cebpf4jnsgd1na2vs0mg"},{"bike_id":"6ec8732e-87cf-46c9-aceb-5e0f45774ee5","system_id":"levelo_inurba_marseille","lat":43.29581,"lon":5.3674,"is_reserved":false,"is_disabled":false,"rental_uris":{"android":"levelo://app?vid=6ec8732e-87cf-46c9-aceb-5e0f45774ee5","ios":"levelo://app?vid=6ec8732e-87cf-46c9-aceb-5e0f45774ee5"},"vehicle_type_id":"4","last_reported":1727089644,"current_range_meters":32000,"station_id":"ce4bgph2rcd13ifvqc2g","pricing_plan_id":"cebpf4jnsgd1na2vs0mg"},{"bike_id":"dcd9b5d2-0de8-47f5-a370-a19a6ea66e01","system_id":"levelo_inurba_marseille","lat":43.28267,"lon":5.35072,"is_reserved":false,"is_disabled":false,"rental_uris":{"android":"levelo://app?vid=dcd9b5d2-0de8-47f5-a370-a19a6ea66e01","ios":"levelo://app?vid=dcd9b5d2-0de8-47f5-a370-a19a6ea66e01"},"vehicle_type_id":"4","last_reported":1727089644,"current_range_meters":32800,"station_id":"ce4bhbp2rcd13ifvqerg","pricing_plan_id":"cebpf4jnsgd1na2vs0mg"},{"bike_id":"8620dcac-2c9a-44f0-8283-969c0a44894d","system_id":"levelo_inurba_marseille","lat":43.2408,"lon":5.37756,"is_reserved":false,"is_disabled":false,"rental_uris":{"android":"levelo://app?vid=8620dcac-2c9a-44f0-8283-969c0a44894d","ios":"levelo://app?vid=8620dcac-2c9a-44f0-8283-969c0a44894d"},"vehicle_type_id":"4","last_reported":1727089644,"current_range_meters":30400,"station_id":"ce4bhnp2rcd13ifvqgvg","pricing_plan_id":"cebpf4jnsgd1na2vs0mg"},{"bike_id":"a26009ca-19fd-40f1-9a97-33c2f9a91c0a","system_id":"levelo_inurba_marseille","lat":43.30945,"lon":5.39037,"is_reserved":false,"is_disabled":false,"rental_uris":{"android":"levelo://app?vid=a26009ca-19fd-40f1-9a97-33c2f9a91c0a","ios":"levelo://app?vid=a26009ca-19fd-40f1-9a97-33c2f9a91c0a"},"vehicle_type_id":"4","last_reported":1727089644,"current_range_meters":30800,"station_id":"ce4bgup2rcd13ifvqco0","pricing_plan_id":"cebpf4jnsgd1na2vs0mg"},{"bike_id":"9cef8447-5675-4f8e-856f-e3eb549f0790","system_id":"levelo_inurba_marseille","lat":43.28438,"lon":5.39187,"is_reserved":false,"is_disabled":false,"rental_uris":{"android":"levelo://app?vid=9cef8447-5675-4f8e-856f-e3eb549f0790","ios":"levelo://app?vid=9cef8447-5675-4f8e-856f-e3eb549f0790"},"vehicle_type_id":"4","last_reported":1727089644,"current_range_meters":38400,"station_id":"ce4bhoh2rcd13ifvqh5g","pricing_plan_id":"cebpf4jnsgd1na2vs0mg"},{"bike_id":"74d330bb-3710-4f6b-8e63-c4e765da3e6f","system_id":"levelo_inurba_marseille","lat":43.33756,"lon":5.37461,"is_reserved":false,"is_disabled":false,"rental_uris":{"android":"levelo://app?vid=74d330bb-3710-4f6b-8e63-c4e765da3e6f","ios":"levelo://app?vid=74d330bb-3710-4f6b-8e63-c4e765da3e6f"},"vehicle_type_id":"4","last_reported":1727089644,"current_range_meters":37600,"station_id":"","pricing_plan_id":"cebpf4jnsgd1na2vs0mg"},{"bike_id":"b3d3e468-1bb5-4e6c-9cba-f7e0b829f97a","system_id":"levelo_inurba_marseille","lat":43.296341,"lon":5.377397,"is_reserved":false,"is_disabled":false,"rental_uris":{"android":"levelo://app?vid=b3d3e468-1bb5-4e6c-9cba-f7e0b829f97a","ios":"levelo://app?vid=b3d3e468-1bb5-4e6c-9cba-f7e0b829f97a"},"vehicle_type_id":"4","last_reported":1727089644,"current_range_meters":30400,"station_id":"ce4bgi92rcd13ifvqb90","pricing_plan_id":"cebpf4jnsgd1na2vs0mg"},{"bike_id":"e21ad265-fb62-4702-bf4b-09f708506797","system_id":"levelo_inurba_marseille","lat":43.30131,"lon":5.38793,"is_reserved":false,"is_disabled":false,"rental_uris":{"android":"levelo://app?vid=e21ad265-fb62-4702-bf4b-09f708506797","ios":"levelo://app?vid=e21ad265-fb62-4702-bf4b-09f708506797"},"vehicle_type_id":"4","last_reported":1727089644,"current_range_meters":22400,"station_id":"ce4bghh2rcd13ifvqb60","pricing_plan_id":"cebpf4jnsgd1na2vs0mg"},{"bike_id":"5e0960b3-5ac4-4497-b4a1-ff8a3f37f64c","system_id":"levelo_inurba_marseille","lat":43.24083,"lon":5.37749,"is_reserved":false,"is_disabled":false,"rental_uris":{"android":"levelo://app?vid=5e0960b3-5ac4-4497-b4a1-ff8a3f37f64c","ios":"levelo://app?vid=5e0960b3-5ac4-4497-b4a1-ff8a3f37f64c"},"vehicle_type_id":"4","last_reported":1727089644,"current_range_meters":38800,"station_id":"ce4bhnp2rcd13ifvqgvg","pricing_plan_id":"cebpf4jnsgd1na2vs0mg"},{"bike_id":"cafc1892-d38a-400e-9753-0536b0eb5bd7","system_id":"levelo_inurba_marseille","lat":43.27493,"lon":5.42458,"is_reserved":false,"is_disabled":false,"rental_uris":{"android":"levelo://app?vid=cafc1892-d38a-400e-9753-0536b0eb5bd7","ios":"levelo://app?vid=cafc1892-d38a-400e-9753-0536b0eb5bd7"},"vehicle_type_id":"4","last_reported":1727089644,"current_range_meters":10000,"station_id":"ce4bhn92rcd13ifvqgrg","pricing_plan_id":"cebpf4jnsgd1na2vs0mg"},{"bike_id":"a1130285-14c1-471d-a411-fb2eed577eff","system_id":"levelo_inurba_marseille","lat":43.23141,"lon":5.43724,"is_reserved":false,"is_disabled":false,"rental_uris":{"android":"levelo://app?vid=a1130285-14c1-471d-a411-fb2eed577eff","ios":"levelo://app?vid=a1130285-14c1-471d-a411-fb2eed577eff"},"vehicle_type_id":"4","last_reported":1727089644,"current_range_meters":28400,"station_id":"ce4bhmp2rcd13ifvqgog","pricing_plan_id":"cebpf4jnsgd1na2vs0mg"},{"bike_id":"7068fc2e-0cd0-47f4-ba85-f022a0c15606","system_id":"levelo_inurba_marseille","lat":43.337444,"lon":5.374475,"is_reserved":false,"is_disabled":false,"rental_uris":{"android":"levelo://app?vid=7068fc2e-0cd0-47f4-ba85-f022a0c15606","ios":"levelo://app?vid=7068fc2e-0cd0-47f4-ba85-f022a0c15606"},"vehicle_type_id":"4","last_reported":1727089644,"current_range_meters":14800,"station_id":"","pricing_plan_id":"cebpf4jnsgd1na2vs0mg"},{"bike_id":"2a58cdfb-f240-4535-8c96-efa17ae0387f","system_id":"levelo_inurba_marseille","lat":43.28439,"lon":5.39185,"is_reserved":false,"is_disabled":false,"rental_uris":{"android":"levelo://app?vid=2a58cdfb-f240-4535-8c96-efa17ae0387f","ios":"levelo://app?vid=2a58cdfb-f240-4535-8c96-efa17ae0387f"},"vehicle_type_id":"4","last_reported":1727089644,"current_range_meters":37600,"station_id":"ce4bhoh2rcd13ifvqh5g","pricing_plan_id":"cebpf4jnsgd1na2vs0mg"},{"bike_id":"d632a906-64c1-4fce-adf1-c28a728a509f","system_id":"levelo_inurba_marseille","lat":43.29198,"lon":5.39315,"is_reserved":false,"is_disabled":false,"rental_uris":{"android":"levelo://app?vid=d632a906-64c1-4fce-adf1-c28a728a509f","ios":"levelo://app?vid=d632a906-64c1-4fce-adf1-c28a728a509f"},"vehicle_type_id":"4","last_reported":1727089644,"current_range_meters":12800,"station_id":"ce4bh192rcd13ifvqdd0","pricing_plan_id":"cebpf4jnsgd1na2vs0mg"},{"bike_id":"75c228dd-5d22-472e-8a3b-5da67fad73ae","system_id":"levelo_inurba_marseille","lat":43.3054,"lon":5.36701,"is_reserved":false,"is_disabled":false,"rental_uris":{"android":"levelo://app?vid=75c228dd-5d22-472e-8a3b-5da67fad73ae","ios":"levelo://app?vid=75c228dd-5d22-472e-8a3b-5da67fad73ae"},"vehicle_type_id":"4","last_reported":1727089644,"current_range_meters":17200,"station_id":"ce4bgrp2rcd13ifvqc9g","pricing_plan_id":"cebpf4jnsgd1na2vs0mg"},{"bike_id":"a478c4e2-b12d-45da-a8a8-14e5ecfa0723","system_id":"levelo_inurba_marseille","lat":43.30537,"lon":5.36701,"is_reserved":false,"is_disabled":false,"rental_uris":{"android":"levelo://app?vid=a478c4e2-b12d-45da-a8a8-14e5ecfa0723","ios":"levelo://app?vid=a478c4e2-b12d-45da-a8a8-14e5ecfa0723"},"vehicle_type_id":"4","last_reported":1727089644,"current_range_meters":9600,"station_id":"ce4bgrp2rcd13ifvqc9g","pricing_plan_id":"cebpf4jnsgd1na2vs0mg"},{"bike_id":"c0bf08f8-39b8-43bf-8302-ac2a4dd5ad58","system_id":"levelo_inurba_marseille","lat":43.29559,"lon":5.4229,"is_reserved":false,"is_disabled":false,"rental_uris":{"android":"levelo://app?vid=c0bf08f8-39b8-43bf-8302-ac2a4dd5ad58","ios":"levelo://app?vid=c0bf08f8-39b8-43bf-8302-ac2a4dd5ad58"},"vehicle_type_id":"4","last_reported":1727089644,"current_range_meters":28000,"station_id":"ce4bhph2rcd13ifvqhdg","pricing_plan_id":"cebpf4jnsgd1na2vs0mg"},{"bike_id":"88e4c0fa-72f1-440f-996a-774d6383e494","system_id":"levelo_inurba_marseille","lat":43.29844,"lon":5.36272,"is_reserved":false,"is_disabled":false,"rental_uris":{"android":"levelo://app?vid=88e4c0fa-72f1-440f-996a-774d6383e494","ios":"levelo://app?vid=88e4c0fa-72f1-440f-996a-774d6383e494"},"vehicle_type_id":"4","last_reported":1727089644,"current_range_meters":39200,"station_id":"ce4bgpp2rcd13ifvqc3g","pricing_plan_id":"cebpf4jnsgd1na2vs0mg"},{"bike_id":"44b50cd5-9fec-40b7-88e0-c89ccba3762c","system_id":"levelo_inurba_marseille","lat":43.2315,"lon":5.43707,"is_reserved":false,"is_disabled":false,"rental_uris":{"android":"levelo://app?vid=44b50cd5-9fec-40b7-88e0-c89ccba3762c","ios":"levelo://app?vid=44b50cd5-9fec-40b7-88e0-c89ccba3762c"},"vehicle_type_id":"4","last_reported":1727089644,"current_range_meters":39200,"station_id":"ce4bhmp2rcd13ifvqgog","pricing_plan_id":"cebpf4jnsgd1na2vs0mg"},{"bike_id":"cd4e2e72-c963-40bd-a174-7e445adb2a74","system_id":"levelo_inurba_marseille","lat":43.28274,"lon":5.35071,"is_reserved":false,"is_disabled":false,"rental_uris":{"android":"levelo://app?vid=cd4e2e72-c963-40bd-a174-7e445adb2a74","ios":"levelo://app?vid=cd4e2e72-c963-40bd-a174-7e445adb2a74"},"vehicle_type_id":"4","last_reported":1727089644,"current_range_meters":36800,"station_id":"ce4bhbp2rcd13ifvqerg","pricing_plan_id":"cebpf4jnsgd1na2vs0mg"},{"bike_id":"063dca6e-6eb8-46ef-af7f-523f85db002f","system_id":"levelo_inurba_marseille","lat":43.24076,"lon":5.37754,"is_reserved":false,"is_disabled":false,"rental_uris":{"android":"levelo://app?vid=063dca6e-6eb8-46ef-af7f-523f85db002f","ios":"levelo://app?vid=063dca6e-6eb8-46ef-af7f-523f85db002f"},"vehicle_type_id":"4","last_reported":1727089644,"current_range_meters":37600,"station_id":"ce4bhnp2rcd13ifvqgvg","pricing_plan_id":"cebpf4jnsgd1na2vs0mg"},{"bike_id":"45b239bd-ddc1-4849-a223-afba4bdbdcbc","system_id":"levelo_inurba_marseille","lat":43.23173,"lon":5.39993,"is_reserved":false,"is_disabled":false,"rental_uris":{"android":"levelo://app?vid=45b239bd-ddc1-4849-a223-afba4bdbdcbc","ios":"levelo://app?vid=45b239bd-ddc1-4849-a223-afba4bdbdcbc"},"vehicle_type_id":"4","last_reported":1727089644,"current_range_meters":11200,"station_id":"ce4bhn12rcd13ifvqgqg","pricing_plan_id":"cebpf4jnsgd1na2vs0mg"},{"bike_id":"b4f760a0-df26-4194-b826-f47c306854c0","system_id":"levelo_inurba_marseille","lat":43.2767,"lon":5.38892,"is_reserved":false,"is_disabled":false,"rental_uris":{"android":"levelo://app?vid=b4f760a0-df26-4194-b826-f47c306854c0","ios":"levelo://app?vid=b4f760a0-df26-4194-b826-f47c306854c0"},"vehicle_type_id":"4","last_reported":1727089644,"current_range_meters":36800,"station_id":"ce4bhi12rcd13ifvqfo0","pricing_plan_id":"cebpf4jnsgd1na2vs0mg"},{"bike_id":"3c62f824-7506-4c44-a7ff-d78b1c251a88","system_id":"levelo_inurba_marseille","lat":43.23194,"lon":5.35549,"is_reserved":false,"is_disabled":false,"rental_uris":{"android":"levelo://app?vid=3c62f824-7506-4c44-a7ff-d78b1c251a88","ios":"levelo://app?vid=3c62f824-7506-4c44-a7ff-d78b1c251a88"},"vehicle_type_id":"4","last_reported":1727089644,"current_range_meters":26000,"station_id":"ce4bhu92rcd13ifvqi70","pricing_plan_id":"cebpf4jnsgd1na2vs0mg"},{"bike_id":"6cbc2fdc-96a1-4bca-b822-56394ecb85a1","system_id":"levelo_inurba_marseille","lat":43.29552,"lon":5.42282,"is_reserved":false,"is_disabled":false,"rental_uris":{"android":"levelo://app?vid=6cbc2fdc-96a1-4bca-b822-56394ecb85a1","ios":"levelo://app?vid=6cbc2fdc-96a1-4bca-b822-56394ecb85a1"},"vehicle_type_id":"4","last_reported":1727089644,"current_range_meters":38000,"station_id":"ce4bhph2rcd13ifvqhdg","pricing_plan_id":"cebpf4jnsgd1na2vs0mg"},{"bike_id":"47582e93-95c9-4fa0-b589-7df1e3f081a5","system_id":"levelo_inurba_marseille","lat":43.28267,"lon":5.35078,"is_reserved":false,"is_disabled":false,"rental_uris":{"android":"levelo://app?vid=47582e93-95c9-4fa0-b589-7df1e3f081a5","ios":"levelo://app?vid=47582e93-95c9-4fa0-b589-7df1e3f081a5"},"vehicle_type_id":"4","last_reported":1727089644,"current_range_meters":38800,"station_id":"ce4bhbp2rcd13ifvqerg","pricing_plan_id":"cebpf4jnsgd1na2vs0mg"},{"bike_id":"98e97cb2-7219-48dd-b8b7-acb9c25bdbe9","system_id":"levelo_inurba_marseille","lat":43.30139,"lon":5.38769,"is_reserved":false,"is_disabled":false,"rental_uris":{"android":"levelo://app?vid=98e97cb2-7219-48dd-b8b7-acb9c25bdbe9","ios":"levelo://app?vid=98e97cb2-7219-48dd-b8b7-acb9c25bdbe9"},"vehicle_type_id":"4","last_reported":1727089644,"current_range_meters":27600,"station_id":"ce4bghh2rcd13ifvqb60","pricing_plan_id":"cebpf4jnsgd1na2vs0mg"},{"bike_id":"35844281-0643-4f2e-93a6-84686c9081a2","system_id":"levelo_inurba_marseille","lat":43.285005,"lon":5.385738,"is_reserved":false,"is_disabled":false,"rental_uris":{"android":"levelo://app?vid=35844281-0643-4f2e-93a6-84686c9081a2","ios":"levelo://app?vid=35844281-0643-4f2e-93a6-84686c9081a2"},"vehicle_type_id":"4","last_reported":1727089644,"current_range_meters":4000,"station_id":"ce4bh8p2rcd13ifvqeb0","pricing_plan_id":"cebpf4jnsgd1na2vs0mg"},{"bike_id":"5524e161-1116-48ae-a9c2-520fcecf51a9","system_id":"levelo_inurba_marseille","lat":43.24079,"lon":5.37755,"is_reserved":false,"is_disabled":false,"rental_uris":{"android":"levelo://app?vid=5524e161-1116-48ae-a9c2-520fcecf51a9","ios":"levelo://app?vid=5524e161-1116-48ae-a9c2-520fcecf51a9"},"vehicle_type_id":"4","last_reported":1727089644,"current_range_meters":28400,"station_id":"ce4bhnp2rcd13ifvqgvg","pricing_plan_id":"cebpf4jnsgd1na2vs0mg"},{"bike_id":"5e43abb1-7db1-435e-a343-e4d467dda962","system_id":"levelo_inurba_marseille","lat":43.3054,"lon":5.36708,"is_reserved":false,"is_disabled":false,"rental_uris":{"android":"levelo://app?vid=5e43abb1-7db1-435e-a343-e4d467dda962","ios":"levelo://app?vid=5e43abb1-7db1-435e-a343-e4d467dda962"},"vehicle_type_id":"4","last_reported":1727089644,"current_range_meters":38800,"station_id":"ce4bgrp2rcd13ifvqc9g","pricing_plan_id":"cebpf4jnsgd1na2vs0mg"},{"bike_id":"ed54be99-fc57-4d5a-a64d-283a09df8194","system_id":"levelo_inurba_marseille","lat":43.27408,"lon":5.36196,"is_reserved":false,"is_disabled":false,"rental_uris":{"android":"levelo://app?vid=ed54be99-fc57-4d5a-a64d-283a09df8194","ios":"levelo://app?vid=ed54be99-fc57-4d5a-a64d-283a09df8194"},"vehicle_type_id":"4","last_reported":1727089644,"current_range_meters":37600,"station_id":"","pricing_plan_id":"cebpf4jnsgd1na2vs0mg"},{"bike_id":"44099741-035e-4534-8c91-80464f84937f","system_id":"levelo_inurba_marseille","lat":43.26029,"lon":5.37548,"is_reserved":false,"is_disabled":false,"rental_uris":{"android":"levelo://app?vid=44099741-035e-4534-8c91-80464f84937f","ios":"levelo://app?vid=44099741-035e-4534-8c91-80464f84937f"},"vehicle_type_id":"4","last_reported":1727089644,"current_range_meters":7200,"station_id":"ce4bhgh2rcd13ifvqfa0","pricing_plan_id":"cebpf4jnsgd1na2vs0mg"},{"bike_id":"bd1ef516-4cae-43e3-b0e9-33efd0f426fa","system_id":"levelo_inurba_marseille","lat":43.29885,"lon":5.38904,"is_reserved":false,"is_disabled":false,"rental_uris":{"android":"levelo://app?vid=bd1ef516-4cae-43e3-b0e9-33efd0f426fa","ios":"levelo://app?vid=bd1ef516-4cae-43e3-b0e9-33efd0f426fa"},"vehicle_type_id":"4","last_reported":1727089644,"current_range_meters":8800,"station_id":"ce4bh392rcd13ifvqdl0","pricing_plan_id":"cebpf4jnsgd1na2vs0mg"},{"bike_id":"9f74c506-a96c-44c2-93ad-6bba4f81808b","system_id":"levelo_inurba_marseille","lat":43.25118,"lon":5.40322,"is_reserved":false,"is_disabled":false,"rental_uris":{"android":"levelo://app?vid=9f74c506-a96c-44c2-93ad-6bba4f81808b","ios":"levelo://app?vid=9f74c506-a96c-44c2-93ad-6bba4f81808b"},"vehicle_type_id":"4","last_reported":1727089644,"current_range_meters":4400,"station_id":"ce4bhlh2rcd13ifvqgig","pricing_plan_id":"cebpf4jnsgd1na2vs0mg"},{"bike_id":"02fb3837-a894-42e7-8da0-359817344021","system_id":"levelo_inurba_marseille","lat":43.25725,"lon":5.41107,"is_reserved":false,"is_disabled":false,"rental_uris":{"android":"levelo://app?vid=02fb3837-a894-42e7-8da0-359817344021","ios":"levelo://app?vid=02fb3837-a894-42e7-8da0-359817344021"},"vehicle_type_id":"4","last_reported":1727089644,"current_range_meters":10000,"station_id":"ce4bhkp2rcd13ifvqgd0","pricing_plan_id":"cebpf4jnsgd1na2vs0mg"},{"bike_id":"3b2b32b1-081b-464a-b5e2-ce0b7792839b","system_id":"levelo_inurba_marseille","lat":43.26814,"lon":5.38031,"is_reserved":false,"is_disabled":false,"rental_uris":{"android":"levelo://app?vid=3b2b32b1-081b-464a-b5e2-ce0b7792839b","ios":"levelo://app?vid=3b2b32b1-081b-464a-b5e2-ce0b7792839b"},"vehicle_type_id":"4","last_reported":1727089644,"current_range_meters":24800,"station_id":"","pricing_plan_id":"cebpf4jnsgd1na2vs0mg"},{"bike_id":"3740c6df-06cd-419b-9ae6-b8d9e5eff548","system_id":"levelo_inurba_marseille","lat":43.2753,"lon":5.40935,"is_reserved":false,"is_disabled":false,"rental_uris":{"android":"levelo://app?vid=3740c6df-06cd-419b-9ae6-b8d9e5eff548","ios":"levelo://app?vid=3740c6df-06cd-419b-9ae6-b8d9e5eff548"},"vehicle_type_id":"4","last_reported":1727089644,"current_range_meters":9200,"station_id":"","pricing_plan_id":"cebpf4jnsgd1na2vs0mg"},{"bike_id":"97e6906f-d788-40c5-b4a7-5b3a7cb00b37","system_id":"levelo_inurba_marseille","lat":43.29971,"lon":5.38495,"is_reserved":false,"is_disabled":false,"rental_uris":{"android":"levelo://app?vid=97e6906f-d788-40c5-b4a7-5b3a7cb00b37","ios":"levelo://app?vid=97e6906f-d788-40c5-b4a7-5b3a7cb00b37"},"vehicle_type_id":"4","last_reported":1727089644,"current_range_meters":24400,"station_id":"ce4bgj92rcd13ifvqbd0","pricing_plan_id":"cebpf4jnsgd1na2vs0mg"},{"bike_id":"37cfea08-a4a9-4194-96d9-f325f70d9e4d","system_id":"levelo_inurba_marseille","lat":43.25576,"lon":5.38244,"is_reserved":false,"is_disabled":false,"rental_uris":{"android":"levelo://app?vid=37cfea08-a4a9-4194-96d9-f325f70d9e4d","ios":"levelo://app?vid=37cfea08-a4a9-4194-96d9-f325f70d9e4d"},"vehicle_type_id":"4","last_reported":1727089644,"current_range_meters":8000,"station_id":"ce4bhih2rcd13ifvqfs0","pricing_plan_id":"cebpf4jnsgd1na2vs0mg"},{"bike_id":"1190a69f-3376-4c5c-8353-291b41658ea5","system_id":"levelo_inurba_marseille","lat":43.28708,"lon":5.37955,"is_reserved":false,"is_disabled":false,"rental_uris":{"android":"levelo://app?vid=1190a69f-3376-4c5c-8353-291b41658ea5","ios":"levelo://app?vid=1190a69f-3376-4c5c-8353-291b41658ea5"},"vehicle_type_id":"4","last_reported":1727089644,"current_range_meters":25600,"station_id":"ce4bh9p2rcd13ifvqec0","pricing_plan_id":"cebpf4jnsgd1na2vs0mg"},{"bike_id":"fea683b7-0b42-4db3-b2c4-48550e41f392","system_id":"levelo_inurba_marseille","lat":43.31482,"lon":5.37309,"is_reserved":false,"is_disabled":false,"rental_uris":{"android":"levelo://app?vid=fea683b7-0b42-4db3-b2c4-48550e41f392","ios":"levelo://app?vid=fea683b7-0b42-4db3-b2c4-48550e41f392"},"vehicle_type_id":"4","last_reported":1727089644,"current_range_meters":38800,"station_id":"ce4bgt12rcd13ifvqcd0","pricing_plan_id":"cebpf4jnsgd1na2vs0mg"},{"bike_id":"6b1bfc7c-4a19-4e40-a1e6-7bc55c265373","system_id":"levelo_inurba_marseille","lat":43.27093,"lon":5.39667,"is_reserved":false,"is_disabled":false,"rental_uris":{"android":"levelo://app?vid=6b1bfc7c-4a19-4e40-a1e6-7bc55c265373","ios":"levelo://app?vid=6b1bfc7c-4a19-4e40-a1e6-7bc55c265373"},"vehicle_type_id":"4","last_reported":1727089644,"current_range_meters":22800,"station_id":"","pricing_plan_id":"cebpf4jnsgd1na2vs0mg"},{"bike_id":"715c4804-6a86-4398-98ec-b57358573177","system_id":"levelo_inurba_marseille","lat":43.22931,"lon":5.35374,"is_reserved":false,"is_disabled":false,"rental_uris":{"android":"levelo://app?vid=715c4804-6a86-4398-98ec-b57358573177","ios":"levelo://app?vid=715c4804-6a86-4398-98ec-b57358573177"},"vehicle_type_id":"4","last_reported":1727089644,"current_range_meters":35600,"station_id":"cpo3532slgdg3j2ikp40","pricing_plan_id":"cebpf4jnsgd1na2vs0mg"},{"bike_id":"c2c8b4bd-929e-4f8a-b69e-68ba0205cfea","system_id":"levelo_inurba_marseille","lat":43.3149,"lon":5.3731,"is_reserved":false,"is_disabled":false,"rental_uris":{"android":"levelo://app?vid=c2c8b4bd-929e-4f8a-b69e-68ba0205cfea","ios":"levelo://app?vid=c2c8b4bd-929e-4f8a-b69e-68ba0205cfea"},"vehicle_type_id":"4","last_reported":1727089644,"current_range_meters":34000,"station_id":"ce4bgt12rcd13ifvqcd0","pricing_plan_id":"cebpf4jnsgd1na2vs0mg"},{"bike_id":"b484494a-6b24-41ec-8e19-aba88dc7da89","system_id":"levelo_inurba_marseille","lat":43.3056,"lon":5.36543,"is_reserved":false,"is_disabled":false,"rental_uris":{"android":"levelo://app?vid=b484494a-6b24-41ec-8e19-aba88dc7da89","ios":"levelo://app?vid=b484494a-6b24-41ec-8e19-aba88dc7da89"},"vehicle_type_id":"4","last_reported":1727089644,"current_range_meters":38800,"station_id":"ce4bgs12rcd13ifvqcag","pricing_plan_id":"cebpf4jnsgd1na2vs0mg"},{"bike_id":"a66fdcf8-6386-4cf6-a8f5-8820087cebbc","system_id":"levelo_inurba_marseille","lat":43.29582,"lon":5.36739,"is_reserved":false,"is_disabled":false,"rental_uris":{"android":"levelo://app?vid=a66fdcf8-6386-4cf6-a8f5-8820087cebbc","ios":"levelo://app?vid=a66fdcf8-6386-4cf6-a8f5-8820087cebbc"},"vehicle_type_id":"4","last_reported":1727089644,"current_range_meters":38800,"station_id":"ce4bgph2rcd13ifvqc2g","pricing_plan_id":"cebpf4jnsgd1na2vs0mg"},{"bike_id":"ba2542eb-4a30-47aa-b57a-68ac954d789a","system_id":"levelo_inurba_marseille","lat":43.23185,"lon":5.35553,"is_reserved":false,"is_disabled":false,"rental_uris":{"android":"levelo://app?vid=ba2542eb-4a30-47aa-b57a-68ac954d789a","ios":"levelo://app?vid=ba2542eb-4a30-47aa-b57a-68ac954d789a"},"vehicle_type_id":"4","last_reported":1727089644,"current_range_meters":18800,"station_id":"ce4bhu92rcd13ifvqi70","pricing_plan_id":"cebpf4jnsgd1na2vs0mg"},{"bike_id":"a2d3faf4-b282-4fa3-b4c8-567a9f539c1c","system_id":"levelo_inurba_marseille","lat":43.24078,"lon":5.37747,"is_reserved":false,"is_disabled":false,"rental_uris":{"android":"levelo://app?vid=a2d3faf4-b282-4fa3-b4c8-567a9f539c1c","ios":"levelo://app?vid=a2d3faf4-b282-4fa3-b4c8-567a9f539c1c"},"vehicle_type_id":"4","last_reported":1727089644,"current_range_meters":3200,"station_id":"ce4bhnp2rcd13ifvqgvg","pricing_plan_id":"cebpf4jnsgd1na2vs0mg"},{"bike_id":"2c5bc1f7-3bbb-4b1b-a5f7-fd35e581d9dd","system_id":"levelo_inurba_marseille","lat":43.29967,"lon":5.38522,"is_reserved":false,"is_disabled":false,"rental_uris":{"android":"levelo://app?vid=2c5bc1f7-3bbb-4b1b-a5f7-fd35e581d9dd","ios":"levelo://app?vid=2c5bc1f7-3bbb-4b1b-a5f7-fd35e581d9dd"},"vehicle_type_id":"4","last_reported":1727089644,"current_range_meters":30000,"station_id":"ce4bgj92rcd13ifvqbd0","pricing_plan_id":"cebpf4jnsgd1na2vs0mg"},{"bike_id":"5b8380ad-8ffb-4129-aca8-98aebd209607","system_id":"levelo_inurba_marseille","lat":43.30648,"lon":5.40079,"is_reserved":false,"is_disabled":false,"rental_uris":{"android":"levelo://app?vid=5b8380ad-8ffb-4129-aca8-98aebd209607","ios":"levelo://app?vid=5b8380ad-8ffb-4129-aca8-98aebd209607"},"vehicle_type_id":"4","last_reported":1727089644,"current_range_meters":38800,"station_id":"ce4bh112rcd13ifvqda0","pricing_plan_id":"cebpf4jnsgd1na2vs0mg"},{"bike_id":"6dd65d0e-8b7a-4b77-9bf9-ede98b693613","system_id":"levelo_inurba_marseille","lat":43.30312,"lon":5.36911,"is_reserved":false,"is_disabled":false,"rental_uris":{"android":"levelo://app?vid=6dd65d0e-8b7a-4b77-9bf9-ede98b693613","ios":"levelo://app?vid=6dd65d0e-8b7a-4b77-9bf9-ede98b693613"},"vehicle_type_id":"4","last_reported":1727089644,"current_range_meters":32800,"station_id":"ce4bgqh2rcd13ifvqc5g","pricing_plan_id":"cebpf4jnsgd1na2vs0mg"},{"bike_id":"d2aca468-aeb0-491e-a9c5-f94af58e91ce","system_id":"levelo_inurba_marseille","lat":43.28619,"lon":5.35103,"is_reserved":false,"is_disabled":false,"rental_uris":{"android":"levelo://app?vid=d2aca468-aeb0-491e-a9c5-f94af58e91ce","ios":"levelo://app?vid=d2aca468-aeb0-491e-a9c5-f94af58e91ce"},"vehicle_type_id":"4","last_reported":1727089644,"current_range_meters":24800,"station_id":"ce4bhch2rcd13ifvqeug","pricing_plan_id":"cebpf4jnsgd1na2vs0mg"},{"bike_id":"3932ae45-29fe-41b6-966a-76877a4662ba","system_id":"levelo_inurba_marseille","lat":43.29361,"lon":5.37838,"is_reserved":false,"is_disabled":false,"rental_uris":{"android":"levelo://app?vid=3932ae45-29fe-41b6-966a-76877a4662ba","ios":"levelo://app?vid=3932ae45-29fe-41b6-966a-76877a4662ba"},"vehicle_type_id":"4","last_reported":1727089644,"current_range_meters":22000,"station_id":"ce4bgjh2rcd13ifvqbf0","pricing_plan_id":"cebpf4jnsgd1na2vs0mg"},{"bike_id":"a5d6eea8-70db-4349-b3c3-e1c6cf854821","system_id":"levelo_inurba_marseille","lat":43.29025,"lon":5.38649,"is_reserved":false,"is_disabled":false,"rental_uris":{"android":"levelo://app?vid=a5d6eea8-70db-4349-b3c3-e1c6cf854821","ios":"levelo://app?vid=a5d6eea8-70db-4349-b3c3-e1c6cf854821"},"vehicle_type_id":"4","last_reported":1727089644,"current_range_meters":4400,"station_id":"ce4bh4p2rcd13ifvqe0g","pricing_plan_id":"cebpf4jnsgd1na2vs0mg"},{"bike_id":"f54900d9-1283-4d9f-9f2f-be1388193312","system_id":"levelo_inurba_marseille","lat":43.29047,"lon":5.38762,"is_reserved":false,"is_disabled":false,"rental_uris":{"android":"levelo://app?vid=f54900d9-1283-4d9f-9f2f-be1388193312","ios":"levelo://app?vid=f54900d9-1283-4d9f-9f2f-be1388193312"},"vehicle_type_id":"4","last_reported":1727089644,"current_range_meters":22000,"station_id":"ce4bh2h2rcd13ifvqdh0","pricing_plan_id":"cebpf4jnsgd1na2vs0mg"},{"bike_id":"88de7929-7efa-466d-9e2a-ea683c637482","system_id":"levelo_inurba_marseille","lat":43.25576,"lon":5.38241,"is_reserved":false,"is_disabled":false,"rental_uris":{"android":"levelo://app?vid=88de7929-7efa-466d-9e2a-ea683c637482","ios":"levelo://app?vid=88de7929-7efa-466d-9e2a-ea683c637482"},"vehicle_type_id":"4","last_reported":1727089644,"current_range_meters":32400,"station_id":"ce4bhih2rcd13ifvqfs0","pricing_plan_id":"cebpf4jnsgd1na2vs0mg"},{"bike_id":"1575e777-51f8-479e-bd95-714cef91a125","system_id":"levelo_inurba_marseille","lat":43.24182,"lon":5.39726,"is_reserved":false,"is_disabled":false,"rental_uris":{"android":"levelo://app?vid=1575e777-51f8-479e-bd95-714cef91a125","ios":"levelo://app?vid=1575e777-51f8-479e-bd95-714cef91a125"},"vehicle_type_id":"4","last_reported":1727089644,"current_range_meters":22800,"station_id":"ce4bhn12rcd13ifvqgpg","pricing_plan_id":"cebpf4jnsgd1na2vs0mg"},{"bike_id":"ee1f9b0f-dd8b-4d52-9818-385c51c4ad5f","system_id":"levelo_inurba_marseille","lat":43.26025,"lon":5.37553,"is_reserved":false,"is_disabled":false,"rental_uris":{"android":"levelo://app?vid=ee1f9b0f-dd8b-4d52-9818-385c51c4ad5f","ios":"levelo://app?vid=ee1f9b0f-dd8b-4d52-9818-385c51c4ad5f"},"vehicle_type_id":"4","last_reported":1727089644,"current_range_meters":18000,"station_id":"ce4bhgh2rcd13ifvqfa0","pricing_plan_id":"cebpf4jnsgd1na2vs0mg"},{"bike_id":"e4b7e210-150b-4995-bb32-b8af16bbf921","system_id":"levelo_inurba_marseille","lat":43.27205,"lon":5.39181,"is_reserved":false,"is_disabled":false,"rental_uris":{"android":"levelo://app?vid=e4b7e210-150b-4995-bb32-b8af16bbf921","ios":"levelo://app?vid=e4b7e210-150b-4995-bb32-b8af16bbf921"},"vehicle_type_id":"4","last_reported":1727089644,"current_range_meters":17600,"station_id":"ce4bhhp2rcd13ifvqfm0","pricing_plan_id":"cebpf4jnsgd1na2vs0mg"},{"bike_id":"6d016537-c83f-4e9b-900e-ae9bbb806041","system_id":"levelo_inurba_marseille","lat":43.281,"lon":5.37846,"is_reserved":false,"is_disabled":false,"rental_uris":{"android":"levelo://app?vid=6d016537-c83f-4e9b-900e-ae9bbb806041","ios":"levelo://app?vid=6d016537-c83f-4e9b-900e-ae9bbb806041"},"vehicle_type_id":"4","last_reported":1727089644,"current_range_meters":7200,"station_id":"ce4bha12rcd13ifvqee0","pricing_plan_id":"cebpf4jnsgd1na2vs0mg"},{"bike_id":"2c3baefd-e174-4a0f-b3c0-c1acdaa422ad","system_id":"levelo_inurba_marseille","lat":43.25936,"lon":5.40912,"is_reserved":false,"is_disabled":false,"rental_uris":{"android":"levelo://app?vid=2c3baefd-e174-4a0f-b3c0-c1acdaa422ad","ios":"levelo://app?vid=2c3baefd-e174-4a0f-b3c0-c1acdaa422ad"},"vehicle_type_id":"4","last_reported":1727089644,"current_range_meters":33600,"station_id":"ce4bhm92rcd13ifvqglg","pricing_plan_id":"cebpf4jnsgd1na2vs0mg"},{"bike_id":"c815ee80-a483-4c27-9b31-f971086af366","system_id":"levelo_inurba_marseille","lat":43.337444,"lon":5.374475,"is_reserved":false,"is_disabled":false,"rental_uris":{"android":"levelo://app?vid=c815ee80-a483-4c27-9b31-f971086af366","ios":"levelo://app?vid=c815ee80-a483-4c27-9b31-f971086af366"},"vehicle_type_id":"4","last_reported":1727089644,"current_range_meters":30800,"station_id":"ce4bgj92rcd13ifvqbd0","pricing_plan_id":"cebpf4jnsgd1na2vs0mg"},{"bike_id":"54db8160-556f-4838-beec-11d78ced79da","system_id":"levelo_inurba_marseille","lat":43.28153,"lon":5.4264,"is_reserved":false,"is_disabled":false,"rental_uris":{"android":"levelo://app?vid=54db8160-556f-4838-beec-11d78ced79da","ios":"levelo://app?vid=54db8160-556f-4838-beec-11d78ced79da"},"vehicle_type_id":"4","last_reported":1727089644,"current_range_meters":11600,"station_id":"ce4bhnh2rcd13ifvqgug","pricing_plan_id":"cebpf4jnsgd1na2vs0mg"},{"bike_id":"cf904d8e-dd56-4449-9634-5ec8fcd061ab","system_id":"levelo_inurba_marseille","lat":43.3375,"lon":5.37453,"is_reserved":false,"is_disabled":false,"rental_uris":{"android":"levelo://app?vid=cf904d8e-dd56-4449-9634-5ec8fcd061ab","ios":"levelo://app?vid=cf904d8e-dd56-4449-9634-5ec8fcd061ab"},"vehicle_type_id":"4","last_reported":1727089644,"current_range_meters":38400,"station_id":"","pricing_plan_id":"cebpf4jnsgd1na2vs0mg"},{"bike_id":"567c1d1a-885b-42b6-bd84-b4d37a5a7454","system_id":"levelo_inurba_marseille","lat":43.24079,"lon":5.37754,"is_reserved":false,"is_disabled":false,"rental_uris":{"android":"levelo://app?vid=567c1d1a-885b-42b6-bd84-b4d37a5a7454","ios":"levelo://app?vid=567c1d1a-885b-42b6-bd84-b4d37a5a7454"},"vehicle_type_id":"4","last_reported":1727089644,"current_range_meters":26800,"station_id":"ce4bhnp2rcd13ifvqgvg","pricing_plan_id":"cebpf4jnsgd1na2vs0mg"},{"bike_id":"d765ecc6-f24e-4e18-aeb0-429ef33b50a7","system_id":"levelo_inurba_marseille","lat":43.23186,"lon":5.39978,"is_reserved":false,"is_disabled":false,"rental_uris":{"android":"levelo://app?vid=d765ecc6-f24e-4e18-aeb0-429ef33b50a7","ios":"levelo://app?vid=d765ecc6-f24e-4e18-aeb0-429ef33b50a7"},"vehicle_type_id":"4","last_reported":1727089644,"current_range_meters":38800,"station_id":"ce4bhn12rcd13ifvqgqg","pricing_plan_id":"cebpf4jnsgd1na2vs0mg"},{"bike_id":"0f6a8764-ee7b-4cb5-b7ae-c2b325e36cbe","system_id":"levelo_inurba_marseille","lat":43.30317,"lon":5.40451,"is_reserved":false,"is_disabled":false,"rental_uris":{"android":"levelo://app?vid=0f6a8764-ee7b-4cb5-b7ae-c2b325e36cbe","ios":"levelo://app?vid=0f6a8764-ee7b-4cb5-b7ae-c2b325e36cbe"},"vehicle_type_id":"4","last_reported":1727089644,"current_range_meters":32400,"station_id":"ce4bh012rcd13ifvqd10","pricing_plan_id":"cebpf4jnsgd1na2vs0mg"},{"bike_id":"feb42740-c719-4916-9efa-d99f861e0e6d","system_id":"levelo_inurba_marseille","lat":43.32481,"lon":5.36575,"is_reserved":false,"is_disabled":false,"rental_uris":{"android":"levelo://app?vid=feb42740-c719-4916-9efa-d99f861e0e6d","ios":"levelo://app?vid=feb42740-c719-4916-9efa-d99f861e0e6d"},"vehicle_type_id":"4","last_reported":1727089644,"current_range_meters":30400,"station_id":"ce4bhs12rcd13ifvqhvg","pricing_plan_id":"cebpf4jnsgd1na2vs0mg"},{"bike_id":"914ae7ef-1ebe-4882-be25-0c3aa3dad21f","system_id":"levelo_inurba_marseille","lat":43.30534,"lon":5.36702,"is_reserved":false,"is_disabled":false,"rental_uris":{"android":"levelo://app?vid=914ae7ef-1ebe-4882-be25-0c3aa3dad21f","ios":"levelo://app?vid=914ae7ef-1ebe-4882-be25-0c3aa3dad21f"},"vehicle_type_id":"4","last_reported":1727089644,"current_range_meters":26800,"station_id":"ce4bgrp2rcd13ifvqc9g","pricing_plan_id":"cebpf4jnsgd1na2vs0mg"},{"bike_id":"744b0695-a299-4670-b5e8-e5bcab6e47eb","system_id":"levelo_inurba_marseille","lat":43.29564,"lon":5.37512,"is_reserved":false,"is_disabled":false,"rental_uris":{"android":"levelo://app?vid=744b0695-a299-4670-b5e8-e5bcab6e47eb","ios":"levelo://app?vid=744b0695-a299-4670-b5e8-e5bcab6e47eb"},"vehicle_type_id":"4","last_reported":1727089644,"current_range_meters":34800,"station_id":"ce4bgh92rcd13ifvqb50","pricing_plan_id":"cebpf4jnsgd1na2vs0mg"},{"bike_id":"f9b985b7-47cf-4e6f-b371-03f5518e0667","system_id":"levelo_inurba_marseille","lat":43.29221,"lon":5.36054,"is_reserved":false,"is_disabled":false,"rental_uris":{"android":"levelo://app?vid=f9b985b7-47cf-4e6f-b371-03f5518e0667","ios":"levelo://app?vid=f9b985b7-47cf-4e6f-b371-03f5518e0667"},"vehicle_type_id":"4","last_reported":1727089644,"current_range_meters":34000,"station_id":"ce4bhbh2rcd13ifvqeqg","pricing_plan_id":"cebpf4jnsgd1na2vs0mg"},{"bike_id":"3b7312f9-6244-4b71-a8bc-65ca3c008c21","system_id":"levelo_inurba_marseille","lat":43.30596,"lon":5.37254,"is_reserved":false,"is_disabled":false,"rental_uris":{"android":"levelo://app?vid=3b7312f9-6244-4b71-a8bc-65ca3c008c21","ios":"levelo://app?vid=3b7312f9-6244-4b71-a8bc-65ca3c008c21"},"vehicle_type_id":"4","last_reported":1727089644,"current_range_meters":22800,"station_id":"ce4bgqh2rcd13ifvqc4g","pricing_plan_id":"cebpf4jnsgd1na2vs0mg"},{"bike_id":"2cb4d48c-c41a-4327-844b-c5c0fd6c0242","system_id":"levelo_inurba_marseille","lat":43.31483,"lon":5.37313,"is_reserved":false,"is_disabled":false,"rental_uris":{"android":"levelo://app?vid=2cb4d48c-c41a-4327-844b-c5c0fd6c0242","ios":"levelo://app?vid=2cb4d48c-c41a-4327-844b-c5c0fd6c0242"},"vehicle_type_id":"4","last_reported":1727089644,"current_range_meters":16400,"station_id":"ce4bgt12rcd13ifvqcd0","pricing_plan_id":"cebpf4jnsgd1na2vs0mg"},{"bike_id":"fce734b4-6c36-4cb6-983c-c95238702258","system_id":"levelo_inurba_marseille","lat":43.31076,"lon":5.38107,"is_reserved":false,"is_disabled":false,"rental_uris":{"android":"levelo://app?vid=fce734b4-6c36-4cb6-983c-c95238702258","ios":"levelo://app?vid=fce734b4-6c36-4cb6-983c-c95238702258"},"vehicle_type_id":"4","last_reported":1727089644,"current_range_meters":8000,"station_id":"","pricing_plan_id":"cebpf4jnsgd1na2vs0mg"},{"bike_id":"0eded60f-e68f-4a98-80b5-0d2cd0597902","system_id":"levelo_inurba_marseille","lat":43.29679,"lon":5.3731,"is_reserved":false,"is_disabled":false,"rental_uris":{"android":"levelo://app?vid=0eded60f-e68f-4a98-80b5-0d2cd0597902","ios":"levelo://app?vid=0eded60f-e68f-4a98-80b5-0d2cd0597902"},"vehicle_type_id":"4","last_reported":1727089644,"current_range_meters":36800,"station_id":"","pricing_plan_id":"cebpf4jnsgd1na2vs0mg"},{"bike_id":"7d47358c-8d2d-4ef8-a232-0b42b37efe8f","system_id":"levelo_inurba_marseille","lat":43.296102,"lon":5.371526,"is_reserved":false,"is_disabled":false,"rental_uris":{"android":"levelo://app?vid=7d47358c-8d2d-4ef8-a232-0b42b37efe8f","ios":"levelo://app?vid=7d47358c-8d2d-4ef8-a232-0b42b37efe8f"},"vehicle_type_id":"4","last_reported":1727089644,"current_range_meters":33200,"station_id":"ce4bgnh2rcd13ifvqc0g","pricing_plan_id":"cebpf4jnsgd1na2vs0mg"},{"bike_id":"5393dfca-d1c2-49f4-980e-52463377cc8e","system_id":"levelo_inurba_marseille","lat":43.3018,"lon":5.36622,"is_reserved":false,"is_disabled":false,"rental_uris":{"android":"levelo://app?vid=5393dfca-d1c2-49f4-980e-52463377cc8e","ios":"levelo://app?vid=5393dfca-d1c2-49f4-980e-52463377cc8e"},"vehicle_type_id":"4","last_reported":1727089644,"current_range_meters":35600,"station_id":"ce4bgrh2rcd13ifvqc8g","pricing_plan_id":"cebpf4jnsgd1na2vs0mg"},{"bike_id":"79b384ac-b917-4159-acb1-340284376a3c","system_id":"levelo_inurba_marseille","lat":43.29849,"lon":5.36282,"is_reserved":false,"is_disabled":false,"rental_uris":{"android":"levelo://app?vid=79b384ac-b917-4159-acb1-340284376a3c","ios":"levelo://app?vid=79b384ac-b917-4159-acb1-340284376a3c"},"vehicle_type_id":"4","last_reported":1727089644,"current_range_meters":21600,"station_id":"ce4bgpp2rcd13ifvqc3g","pricing_plan_id":"cebpf4jnsgd1na2vs0mg"},{"bike_id":"e9ff8a04-d08a-4e53-ba15-13ed3974ebbf","system_id":"levelo_inurba_marseille","lat":43.29902,"lon":5.43672,"is_reserved":false,"is_disabled":false,"rental_uris":{"android":"levelo://app?vid=e9ff8a04-d08a-4e53-ba15-13ed3974ebbf","ios":"levelo://app?vid=e9ff8a04-d08a-4e53-ba15-13ed3974ebbf"},"vehicle_type_id":"4","last_reported":1727089644,"current_range_meters":10000,"station_id":"ce4bhpp2rcd13ifvqhfg","pricing_plan_id":"cebpf4jnsgd1na2vs0mg"},{"bike_id":"e5afe0f9-2845-4770-8a8a-1f97c66f27dc","system_id":"levelo_inurba_marseille","lat":43.25934,"lon":5.40915,"is_reserved":false,"is_disabled":false,"rental_uris":{"android":"levelo://app?vid=e5afe0f9-2845-4770-8a8a-1f97c66f27dc","ios":"levelo://app?vid=e5afe0f9-2845-4770-8a8a-1f97c66f27dc"},"vehicle_type_id":"4","last_reported":1727089644,"current_range_meters":28800,"station_id":"ce4bhm92rcd13ifvqglg","pricing_plan_id":"cebpf4jnsgd1na2vs0mg"},{"bike_id":"d2a62294-38a1-4770-9dd9-f79aea41ae19","system_id":"levelo_inurba_marseille","lat":43.29569,"lon":5.37526,"is_reserved":false,"is_disabled":false,"rental_uris":{"android":"levelo://app?vid=d2a62294-38a1-4770-9dd9-f79aea41ae19","ios":"levelo://app?vid=d2a62294-38a1-4770-9dd9-f79aea41ae19"},"vehicle_type_id":"4","last_reported":1727089644,"current_range_meters":30400,"station_id":"ce4bgh92rcd13ifvqb50","pricing_plan_id":"cebpf4jnsgd1na2vs0mg"},{"bike_id":"6e3f1c76-110c-4206-8065-75afc7d2fd09","system_id":"levelo_inurba_marseille","lat":43.24665,"lon":5.38173,"is_reserved":false,"is_disabled":false,"rental_uris":{"android":"levelo://app?vid=6e3f1c76-110c-4206-8065-75afc7d2fd09","ios":"levelo://app?vid=6e3f1c76-110c-4206-8065-75afc7d2fd09"},"vehicle_type_id":"4","last_reported":1727089644,"current_range_meters":9600,"station_id":"ce4bhih2rcd13ifvqfr0","pricing_plan_id":"cebpf4jnsgd1na2vs0mg"},{"bike_id":"28284f2d-af6a-41fc-ad17-2d5e99e0773a","system_id":"levelo_inurba_marseille","lat":43.30541,"lon":5.36549,"is_reserved":false,"is_disabled":false,"rental_uris":{"android":"levelo://app?vid=28284f2d-af6a-41fc-ad17-2d5e99e0773a","ios":"levelo://app?vid=28284f2d-af6a-41fc-ad17-2d5e99e0773a"},"vehicle_type_id":"4","last_reported":1727089644,"current_range_meters":38800,"station_id":"ce4bgs12rcd13ifvqcag","pricing_plan_id":"cebpf4jnsgd1na2vs0mg"},{"bike_id":"effd8d86-e6b4-4eb5-a698-dd8d37ea6e0b","system_id":"levelo_inurba_marseille","lat":43.33749,"lon":5.37457,"is_reserved":false,"is_disabled":false,"rental_uris":{"android":"levelo://app?vid=effd8d86-e6b4-4eb5-a698-dd8d37ea6e0b","ios":"levelo://app?vid=effd8d86-e6b4-4eb5-a698-dd8d37ea6e0b"},"vehicle_type_id":"4","last_reported":1727089644,"current_range_meters":26800,"station_id":"","pricing_plan_id":"cebpf4jnsgd1na2vs0mg"},{"bike_id":"792ff2f7-c377-489e-8842-0a279001b119","system_id":"levelo_inurba_marseille","lat":43.27502,"lon":5.42461,"is_reserved":false,"is_disabled":false,"rental_uris":{"android":"levelo://app?vid=792ff2f7-c377-489e-8842-0a279001b119","ios":"levelo://app?vid=792ff2f7-c377-489e-8842-0a279001b119"},"vehicle_type_id":"4","last_reported":1727089644,"current_range_meters":36000,"station_id":"ce4bhn92rcd13ifvqgrg","pricing_plan_id":"cebpf4jnsgd1na2vs0mg"},{"bike_id":"34df8aa9-be12-4f9c-b6d2-1b6cc746d9b0","system_id":"levelo_inurba_marseille","lat":43.2866,"lon":5.3867,"is_reserved":false,"is_disabled":false,"rental_uris":{"android":"levelo://app?vid=34df8aa9-be12-4f9c-b6d2-1b6cc746d9b0","ios":"levelo://app?vid=34df8aa9-be12-4f9c-b6d2-1b6cc746d9b0"},"vehicle_type_id":"4","last_reported":1727089644,"current_range_meters":16800,"station_id":"ce4bh492rcd13ifvqdug","pricing_plan_id":"cebpf4jnsgd1na2vs0mg"},{"bike_id":"dc2f87b8-717f-4d58-a2e0-482f2021233f","system_id":"levelo_inurba_marseille","lat":43.31324,"lon":5.39687,"is_reserved":false,"is_disabled":false,"rental_uris":{"android":"levelo://app?vid=dc2f87b8-717f-4d58-a2e0-482f2021233f","ios":"levelo://app?vid=dc2f87b8-717f-4d58-a2e0-482f2021233f"},"vehicle_type_id":"4","last_reported":1727089644,"current_range_meters":27200,"station_id":"ce4bgvp2rcd13ifvqcu0","pricing_plan_id":"cebpf4jnsgd1na2vs0mg"},{"bike_id":"c0716314-ea9c-4255-a3a3-3a3ddadbeaf2","system_id":"levelo_inurba_marseille","lat":43.240936,"lon":5.377344,"is_reserved":false,"is_disabled":false,"rental_uris":{"android":"levelo://app?vid=c0716314-ea9c-4255-a3a3-3a3ddadbeaf2","ios":"levelo://app?vid=c0716314-ea9c-4255-a3a3-3a3ddadbeaf2"},"vehicle_type_id":"4","last_reported":1727089644,"current_range_meters":37600,"station_id":"ce4bhnp2rcd13ifvqgvg","pricing_plan_id":"cebpf4jnsgd1na2vs0mg"},{"bike_id":"7f41fee8-6658-44d0-a5c8-37f96ff88950","system_id":"levelo_inurba_marseille","lat":43.27961,"lon":5.38708,"is_reserved":false,"is_disabled":false,"rental_uris":{"android":"levelo://app?vid=7f41fee8-6658-44d0-a5c8-37f96ff88950","ios":"levelo://app?vid=7f41fee8-6658-44d0-a5c8-37f96ff88950"},"vehicle_type_id":"4","last_reported":1727089644,"current_range_meters":34800,"station_id":"ce4bhg12rcd13ifvqf80","pricing_plan_id":"cebpf4jnsgd1na2vs0mg"},{"bike_id":"337c057b-c4e8-40f8-b985-ad180801a757","system_id":"levelo_inurba_marseille","lat":43.29361,"lon":5.37835,"is_reserved":false,"is_disabled":false,"rental_uris":{"android":"levelo://app?vid=337c057b-c4e8-40f8-b985-ad180801a757","ios":"levelo://app?vid=337c057b-c4e8-40f8-b985-ad180801a757"},"vehicle_type_id":"4","last_reported":1727089644,"current_range_meters":24000,"station_id":"ce4bgjh2rcd13ifvqbf0","pricing_plan_id":"cebpf4jnsgd1na2vs0mg"},{"bike_id":"4969c739-40f5-4812-874b-bf034fb3e5a7","system_id":"levelo_inurba_marseille","lat":43.29715,"lon":5.376898,"is_reserved":false,"is_disabled":false,"rental_uris":{"android":"levelo://app?vid=4969c739-40f5-4812-874b-bf034fb3e5a7","ios":"levelo://app?vid=4969c739-40f5-4812-874b-bf034fb3e5a7"},"vehicle_type_id":"4","last_reported":1727089644,"current_range_meters":38800,"station_id":"ce4bgkh2rcd13ifvqbl0","pricing_plan_id":"cebpf4jnsgd1na2vs0mg"},{"bike_id":"4fbb5250-9647-470b-8d93-052750ba4685","system_id":"levelo_inurba_marseille","lat":43.287806,"lon":5.373697,"is_reserved":false,"is_disabled":false,"rental_uris":{"android":"levelo://app?vid=4fbb5250-9647-470b-8d93-052750ba4685","ios":"levelo://app?vid=4fbb5250-9647-470b-8d93-052750ba4685"},"vehicle_type_id":"4","last_reported":1727089644,"current_range_meters":19600,"station_id":"ce4bh692rcd13ifvqe90","pricing_plan_id":"cebpf4jnsgd1na2vs0mg"},{"bike_id":"c4d81431-ee19-4b2b-9a19-a027dc40bf9b","system_id":"levelo_inurba_marseille","lat":43.27069,"lon":5.42272,"is_reserved":false,"is_disabled":false,"rental_uris":{"android":"levelo://app?vid=c4d81431-ee19-4b2b-9a19-a027dc40bf9b","ios":"levelo://app?vid=c4d81431-ee19-4b2b-9a19-a027dc40bf9b"},"vehicle_type_id":"4","last_reported":1727089644,"current_range_meters":28800,"station_id":"ce4bhk92rcd13ifvqgb0","pricing_plan_id":"cebpf4jnsgd1na2vs0mg"},{"bike_id":"28268f0f-377c-485c-96b5-54ba39c4c5df","system_id":"levelo_inurba_marseille","lat":43.28272,"lon":5.35072,"is_reserved":false,"is_disabled":false,"rental_uris":{"android":"levelo://app?vid=28268f0f-377c-485c-96b5-54ba39c4c5df","ios":"levelo://app?vid=28268f0f-377c-485c-96b5-54ba39c4c5df"},"vehicle_type_id":"4","last_reported":1727089644,"current_range_meters":30000,"station_id":"ce4bhbp2rcd13ifvqerg","pricing_plan_id":"cebpf4jnsgd1na2vs0mg"},{"bike_id":"fa690805-233a-4a70-a9f3-33f1b67cdb1f","system_id":"levelo_inurba_marseille","lat":43.32287,"lon":5.38266,"is_reserved":false,"is_disabled":false,"rental_uris":{"android":"levelo://app?vid=fa690805-233a-4a70-a9f3-33f1b67cdb1f","ios":"levelo://app?vid=fa690805-233a-4a70-a9f3-33f1b67cdb1f"},"vehicle_type_id":"4","last_reported":1727089644,"current_range_meters":38000,"station_id":"ce4bhr12rcd13ifvqhqg","pricing_plan_id":"cebpf4jnsgd1na2vs0mg"},{"bike_id":"bc5a8036-7b59-43c3-8172-5e36e8c8cac4","system_id":"levelo_inurba_marseille","lat":43.29968,"lon":5.38507,"is_reserved":false,"is_disabled":false,"rental_uris":{"android":"levelo://app?vid=bc5a8036-7b59-43c3-8172-5e36e8c8cac4","ios":"levelo://app?vid=bc5a8036-7b59-43c3-8172-5e36e8c8cac4"},"vehicle_type_id":"4","last_reported":1727089644,"current_range_meters":33600,"station_id":"ce4bgj92rcd13ifvqbd0","pricing_plan_id":"cebpf4jnsgd1na2vs0mg"},{"bike_id":"721311a6-9353-43a3-8d25-a0aa23aef6e4","system_id":"levelo_inurba_marseille","lat":43.30141,"lon":5.37426,"is_reserved":false,"is_disabled":false,"rental_uris":{"android":"levelo://app?vid=721311a6-9353-43a3-8d25-a0aa23aef6e4","ios":"levelo://app?vid=721311a6-9353-43a3-8d25-a0aa23aef6e4"},"vehicle_type_id":"4","last_reported":1727089644,"current_range_meters":31200,"station_id":"ce4bgs92rcd13ifvqcc0","pricing_plan_id":"cebpf4jnsgd1na2vs0mg"},{"bike_id":"7de67f75-7e3b-4a49-9cf3-b09ec2ff7e13","system_id":"levelo_inurba_marseille","lat":43.26025,"lon":5.3755,"is_reserved":false,"is_disabled":false,"rental_uris":{"android":"levelo://app?vid=7de67f75-7e3b-4a49-9cf3-b09ec2ff7e13","ios":"levelo://app?vid=7de67f75-7e3b-4a49-9cf3-b09ec2ff7e13"},"vehicle_type_id":"4","last_reported":1727089644,"current_range_meters":37600,"station_id":"ce4bhgh2rcd13ifvqfa0","pricing_plan_id":"cebpf4jnsgd1na2vs0mg"},{"bike_id":"f59676be-05ac-495a-ba2f-168babba0c35","system_id":"levelo_inurba_marseille","lat":43.296303,"lon":5.377032,"is_reserved":false,"is_disabled":false,"rental_uris":{"android":"levelo://app?vid=f59676be-05ac-495a-ba2f-168babba0c35","ios":"levelo://app?vid=f59676be-05ac-495a-ba2f-168babba0c35"},"vehicle_type_id":"4","last_reported":1727089644,"current_range_meters":27600,"station_id":"ce4bgi92rcd13ifvqb90","pricing_plan_id":"cebpf4jnsgd1na2vs0mg"},{"bike_id":"06a2735c-7b33-4e3d-8902-1f04bba0459d","system_id":"levelo_inurba_marseille","lat":43.28855,"lon":5.35839,"is_reserved":false,"is_disabled":false,"rental_uris":{"android":"levelo://app?vid=06a2735c-7b33-4e3d-8902-1f04bba0459d","ios":"levelo://app?vid=06a2735c-7b33-4e3d-8902-1f04bba0459d"},"vehicle_type_id":"4","last_reported":1727089644,"current_range_meters":34800,"station_id":"ce4bhb12rcd13ifvqem0","pricing_plan_id":"cebpf4jnsgd1na2vs0mg"},{"bike_id":"f24673b6-28dd-4e9b-a052-27bdbe7ed3ec","system_id":"levelo_inurba_marseille","lat":43.26557,"lon":5.37285,"is_reserved":false,"is_disabled":false,"rental_uris":{"android":"levelo://app?vid=f24673b6-28dd-4e9b-a052-27bdbe7ed3ec","ios":"levelo://app?vid=f24673b6-28dd-4e9b-a052-27bdbe7ed3ec"},"vehicle_type_id":"4","last_reported":1727089644,"current_range_meters":26800,"station_id":"ce4bhg12rcd13ifvqf70","pricing_plan_id":"cebpf4jnsgd1na2vs0mg"},{"bike_id":"be0fde4f-1a57-4e0b-818f-2aa97bb94e12","system_id":"levelo_inurba_marseille","lat":43.29604,"lon":5.38101,"is_reserved":false,"is_disabled":false,"rental_uris":{"android":"levelo://app?vid=be0fde4f-1a57-4e0b-818f-2aa97bb94e12","ios":"levelo://app?vid=be0fde4f-1a57-4e0b-818f-2aa97bb94e12"},"vehicle_type_id":"4","last_reported":1727089644,"current_range_meters":20800,"station_id":"ce4bgl12rcd13ifvqbo0","pricing_plan_id":"cebpf4jnsgd1na2vs0mg"},{"bike_id":"63837e2f-9e9e-4ca3-8127-3738fe4726e5","system_id":"levelo_inurba_marseille","lat":43.27486,"lon":5.4246,"is_reserved":false,"is_disabled":false,"rental_uris":{"android":"levelo://app?vid=63837e2f-9e9e-4ca3-8127-3738fe4726e5","ios":"levelo://app?vid=63837e2f-9e9e-4ca3-8127-3738fe4726e5"},"vehicle_type_id":"4","last_reported":1727089644,"current_range_meters":38000,"station_id":"ce4bhn92rcd13ifvqgrg","pricing_plan_id":"cebpf4jnsgd1na2vs0mg"},{"bike_id":"b9676bc6-39c1-4a22-94b4-02bce4ff8d0c","system_id":"levelo_inurba_marseille","lat":43.30537,"lon":5.36539,"is_reserved":false,"is_disabled":false,"rental_uris":{"android":"levelo://app?vid=b9676bc6-39c1-4a22-94b4-02bce4ff8d0c","ios":"levelo://app?vid=b9676bc6-39c1-4a22-94b4-02bce4ff8d0c"},"vehicle_type_id":"4","last_reported":1727089644,"current_range_meters":31200,"station_id":"ce4bgs12rcd13ifvqcag","pricing_plan_id":"cebpf4jnsgd1na2vs0mg"},{"bike_id":"e4b101f4-371e-47a9-8e6f-9947f18b2624","system_id":"levelo_inurba_marseille","lat":43.272186,"lon":5.391928,"is_reserved":false,"is_disabled":false,"rental_uris":{"android":"levelo://app?vid=e4b101f4-371e-47a9-8e6f-9947f18b2624","ios":"levelo://app?vid=e4b101f4-371e-47a9-8e6f-9947f18b2624"},"vehicle_type_id":"4","last_reported":1727089644,"current_range_meters":27200,"station_id":"ce4bhhp2rcd13ifvqfm0","pricing_plan_id":"cebpf4jnsgd1na2vs0mg"},{"bike_id":"7ee89815-3f87-4dc0-ac87-de45448091bf","system_id":"levelo_inurba_marseille","lat":43.26032,"lon":5.37547,"is_reserved":false,"is_disabled":false,"rental_uris":{"android":"levelo://app?vid=7ee89815-3f87-4dc0-ac87-de45448091bf","ios":"levelo://app?vid=7ee89815-3f87-4dc0-ac87-de45448091bf"},"vehicle_type_id":"4","last_reported":1727089644,"current_range_meters":36000,"station_id":"ce4bhgh2rcd13ifvqfa0","pricing_plan_id":"cebpf4jnsgd1na2vs0mg"},{"bike_id":"3fb8e4b8-d0ae-4853-bcac-cdfc1170c666","system_id":"levelo_inurba_marseille","lat":43.27917,"lon":5.39573,"is_reserved":false,"is_disabled":false,"rental_uris":{"android":"levelo://app?vid=3fb8e4b8-d0ae-4853-bcac-cdfc1170c666","ios":"levelo://app?vid=3fb8e4b8-d0ae-4853-bcac-cdfc1170c666"},"vehicle_type_id":"4","last_reported":1727089644,"current_range_meters":4400,"station_id":"ce4bhf92rcd13ifvqf40","pricing_plan_id":"cebpf4jnsgd1na2vs0mg"},{"bike_id":"7cbca4d7-7fd2-4bc6-8b5b-ef602e08574e","system_id":"levelo_inurba_marseille","lat":43.29534,"lon":5.38557,"is_reserved":false,"is_disabled":false,"rental_uris":{"android":"levelo://app?vid=7cbca4d7-7fd2-4bc6-8b5b-ef602e08574e","ios":"levelo://app?vid=7cbca4d7-7fd2-4bc6-8b5b-ef602e08574e"},"vehicle_type_id":"4","last_reported":1727089644,"current_range_meters":32000,"station_id":"ce4bgih2rcd13ifvqba0","pricing_plan_id":"cebpf4jnsgd1na2vs0mg"},{"bike_id":"85d649fa-68c6-4dd0-8e34-0988c7e58de8","system_id":"levelo_inurba_marseille","lat":43.30536,"lon":5.36695,"is_reserved":false,"is_disabled":false,"rental_uris":{"android":"levelo://app?vid=85d649fa-68c6-4dd0-8e34-0988c7e58de8","ios":"levelo://app?vid=85d649fa-68c6-4dd0-8e34-0988c7e58de8"},"vehicle_type_id":"4","last_reported":1727089644,"current_range_meters":9600,"station_id":"ce4bgrp2rcd13ifvqc9g","pricing_plan_id":"cebpf4jnsgd1na2vs0mg"},{"bike_id":"cfeee407-8b39-4bc1-8323-7a8cae6f5d1d","system_id":"levelo_inurba_marseille","lat":43.3248,"lon":5.36569,"is_reserved":false,"is_disabled":false,"rental_uris":{"android":"levelo://app?vid=cfeee407-8b39-4bc1-8323-7a8cae6f5d1d","ios":"levelo://app?vid=cfeee407-8b39-4bc1-8323-7a8cae6f5d1d"},"vehicle_type_id":"4","last_reported":1727089644,"current_range_meters":22400,"station_id":"ce4bhs12rcd13ifvqhvg","pricing_plan_id":"cebpf4jnsgd1na2vs0mg"},{"bike_id":"9b632e8a-c450-4de6-9b5d-cc84e83f086f","system_id":"levelo_inurba_marseille","lat":43.272484,"lon":5.424023,"is_reserved":false,"is_disabled":false,"rental_uris":{"android":"levelo://app?vid=9b632e8a-c450-4de6-9b5d-cc84e83f086f","ios":"levelo://app?vid=9b632e8a-c450-4de6-9b5d-cc84e83f086f"},"vehicle_type_id":"4","last_reported":1727089644,"current_range_meters":12400,"station_id":"ce4bhn92rcd13ifvqgrg","pricing_plan_id":"cebpf4jnsgd1na2vs0mg"},{"bike_id":"73c95d91-4339-4d75-b1c4-461a3daf1b5f","system_id":"levelo_inurba_marseille","lat":43.29562,"lon":5.42297,"is_reserved":false,"is_disabled":false,"rental_uris":{"android":"levelo://app?vid=73c95d91-4339-4d75-b1c4-461a3daf1b5f","ios":"levelo://app?vid=73c95d91-4339-4d75-b1c4-461a3daf1b5f"},"vehicle_type_id":"4","last_reported":1727089644,"current_range_meters":37600,"station_id":"ce4bhph2rcd13ifvqhdg","pricing_plan_id":"cebpf4jnsgd1na2vs0mg"},{"bike_id":"89d06f35-646a-40de-9bf5-2547140e2de4","system_id":"levelo_inurba_marseille","lat":43.32657,"lon":5.40995,"is_reserved":false,"is_disabled":false,"rental_uris":{"android":"levelo://app?vid=89d06f35-646a-40de-9bf5-2547140e2de4","ios":"levelo://app?vid=89d06f35-646a-40de-9bf5-2547140e2de4"},"vehicle_type_id":"4","last_reported":1727089644,"current_range_meters":25200,"station_id":"ce4bhpp2rcd13ifvqhgg","pricing_plan_id":"cebpf4jnsgd1na2vs0mg"},{"bike_id":"19b5c341-205c-4126-a6dd-582a4b58e0e1","system_id":"levelo_inurba_marseille","lat":43.29566,"lon":5.39977,"is_reserved":false,"is_disabled":false,"rental_uris":{"android":"levelo://app?vid=19b5c341-205c-4126-a6dd-582a4b58e0e1","ios":"levelo://app?vid=19b5c341-205c-4126-a6dd-582a4b58e0e1"},"vehicle_type_id":"4","last_reported":1727089644,"current_range_meters":34000,"station_id":"ce4bh312rcd13ifvqdj0","pricing_plan_id":"cebpf4jnsgd1na2vs0mg"},{"bike_id":"eee05696-6b55-4ea5-a62a-8149d3287208","system_id":"levelo_inurba_marseille","lat":43.30536,"lon":5.36551,"is_reserved":false,"is_disabled":false,"rental_uris":{"android":"levelo://app?vid=eee05696-6b55-4ea5-a62a-8149d3287208","ios":"levelo://app?vid=eee05696-6b55-4ea5-a62a-8149d3287208"},"vehicle_type_id":"4","last_reported":1727089644,"current_range_meters":39200,"station_id":"ce4bgs12rcd13ifvqcag","pricing_plan_id":"cebpf4jnsgd1na2vs0mg"},{"bike_id":"ee11e717-8e40-4aad-9856-6500b9b4a49a","system_id":"levelo_inurba_marseille","lat":43.29923,"lon":5.37461,"is_reserved":false,"is_disabled":false,"rental_uris":{"android":"levelo://app?vid=ee11e717-8e40-4aad-9856-6500b9b4a49a","ios":"levelo://app?vid=ee11e717-8e40-4aad-9856-6500b9b4a49a"},"vehicle_type_id":"4","last_reported":1727089644,"current_range_meters":19600,"station_id":"ce4bgjh2rcd13ifvqbg0","pricing_plan_id":"cebpf4jnsgd1na2vs0mg"},{"bike_id":"60dbe42c-e0ae-4ae1-a67a-7090cc620c0b","system_id":"levelo_inurba_marseille","lat":43.32652,"lon":5.41,"is_reserved":false,"is_disabled":false,"rental_uris":{"android":"levelo://app?vid=60dbe42c-e0ae-4ae1-a67a-7090cc620c0b","ios":"levelo://app?vid=60dbe42c-e0ae-4ae1-a67a-7090cc620c0b"},"vehicle_type_id":"4","last_reported":1727089644,"current_range_meters":33200,"station_id":"ce4bhpp2rcd13ifvqhgg","pricing_plan_id":"cebpf4jnsgd1na2vs0mg"},{"bike_id":"2c6abc3e-881e-45d1-806a-b5bf56a25d0c","system_id":"levelo_inurba_marseille","lat":43.281036,"lon":5.378308,"is_reserved":false,"is_disabled":false,"rental_uris":{"android":"levelo://app?vid=2c6abc3e-881e-45d1-806a-b5bf56a25d0c","ios":"levelo://app?vid=2c6abc3e-881e-45d1-806a-b5bf56a25d0c"},"vehicle_type_id":"4","last_reported":1727089644,"current_range_meters":20000,"station_id":"ce4bha12rcd13ifvqee0","pricing_plan_id":"cebpf4jnsgd1na2vs0mg"},{"bike_id":"0d5117fa-48e6-4c99-bac7-54dd507d77c2","system_id":"levelo_inurba_marseille","lat":43.28852,"lon":5.35866,"is_reserved":false,"is_disabled":false,"rental_uris":{"android":"levelo://app?vid=0d5117fa-48e6-4c99-bac7-54dd507d77c2","ios":"levelo://app?vid=0d5117fa-48e6-4c99-bac7-54dd507d77c2"},"vehicle_type_id":"4","last_reported":1727089644,"current_range_meters":37600,"station_id":"ce4bhb12rcd13ifvqem0","pricing_plan_id":"cebpf4jnsgd1na2vs0mg"},{"bike_id":"5d646be7-6f08-4485-8caa-430922346353","system_id":"levelo_inurba_marseille","lat":43.32481,"lon":5.36572,"is_reserved":false,"is_disabled":false,"rental_uris":{"android":"levelo://app?vid=5d646be7-6f08-4485-8caa-430922346353","ios":"levelo://app?vid=5d646be7-6f08-4485-8caa-430922346353"},"vehicle_type_id":"4","last_reported":1727089644,"current_range_meters":38800,"station_id":"ce4bhs12rcd13ifvqhvg","pricing_plan_id":"cebpf4jnsgd1na2vs0mg"},{"bike_id":"8a710329-63e7-441c-8c56-4fc169aebd00","system_id":"levelo_inurba_marseille","lat":43.29789,"lon":5.39367,"is_reserved":false,"is_disabled":false,"rental_uris":{"android":"levelo://app?vid=8a710329-63e7-441c-8c56-4fc169aebd00","ios":"levelo://app?vid=8a710329-63e7-441c-8c56-4fc169aebd00"},"vehicle_type_id":"4","last_reported":1727089644,"current_range_meters":37600,"station_id":"chh1huq6cuj3fo74tm60","pricing_plan_id":"cebpf4jnsgd1na2vs0mg"},{"bike_id":"c0cd145c-70f9-4c61-b515-da2b36f8d04f","system_id":"levelo_inurba_marseille","lat":43.298431,"lon":5.362825,"is_reserved":false,"is_disabled":false,"rental_uris":{"android":"levelo://app?vid=c0cd145c-70f9-4c61-b515-da2b36f8d04f","ios":"levelo://app?vid=c0cd145c-70f9-4c61-b515-da2b36f8d04f"},"vehicle_type_id":"4","last_reported":1727089644,"current_range_meters":22800,"station_id":"ce4bgpp2rcd13ifvqc3g","pricing_plan_id":"cebpf4jnsgd1na2vs0mg"},{"bike_id":"ade268f0-dff7-4857-ba65-71fa14d830ec","system_id":"levelo_inurba_marseille","lat":43.30277,"lon":5.37696,"is_reserved":false,"is_disabled":false,"rental_uris":{"android":"levelo://app?vid=ade268f0-dff7-4857-ba65-71fa14d830ec","ios":"levelo://app?vid=ade268f0-dff7-4857-ba65-71fa14d830ec"},"vehicle_type_id":"4","last_reported":1727089644,"current_range_meters":21600,"station_id":"ce4bguh2rcd13ifvqcj0","pricing_plan_id":"cebpf4jnsgd1na2vs0mg"},{"bike_id":"3a19030d-3607-4273-b80a-5184a27534db","system_id":"levelo_inurba_marseille","lat":43.31122,"lon":5.37767,"is_reserved":false,"is_disabled":false,"rental_uris":{"android":"levelo://app?vid=3a19030d-3607-4273-b80a-5184a27534db","ios":"levelo://app?vid=3a19030d-3607-4273-b80a-5184a27534db"},"vehicle_type_id":"4","last_reported":1727089644,"current_range_meters":38000,"station_id":"ce4bgt92rcd13ifvqcg0","pricing_plan_id":"cebpf4jnsgd1na2vs0mg"},{"bike_id":"960b2180-d517-48a6-9c35-f3b501f03b32","system_id":"levelo_inurba_marseille","lat":43.30266,"lon":5.37729,"is_reserved":false,"is_disabled":false,"rental_uris":{"android":"levelo://app?vid=960b2180-d517-48a6-9c35-f3b501f03b32","ios":"levelo://app?vid=960b2180-d517-48a6-9c35-f3b501f03b32"},"vehicle_type_id":"4","last_reported":1727089644,"current_range_meters":33600,"station_id":"ce4bguh2rcd13ifvqcj0","pricing_plan_id":"cebpf4jnsgd1na2vs0mg"},{"bike_id":"668432ca-de92-4367-8eb2-c8bbe00db90d","system_id":"levelo_inurba_marseille","lat":43.30541,"lon":5.36542,"is_reserved":false,"is_disabled":false,"rental_uris":{"android":"levelo://app?vid=668432ca-de92-4367-8eb2-c8bbe00db90d","ios":"levelo://app?vid=668432ca-de92-4367-8eb2-c8bbe00db90d"},"vehicle_type_id":"4","last_reported":1727089644,"current_range_meters":28800,"station_id":"ce4bgs12rcd13ifvqcag","pricing_plan_id":"cebpf4jnsgd1na2vs0mg"},{"bike_id":"d65e9956-795e-43be-8fa8-4bf3303658b4","system_id":"levelo_inurba_marseille","lat":43.28343,"lon":5.38111,"is_reserved":false,"is_disabled":false,"rental_uris":{"android":"levelo://app?vid=d65e9956-795e-43be-8fa8-4bf3303658b4","ios":"levelo://app?vid=d65e9956-795e-43be-8fa8-4bf3303658b4"},"vehicle_type_id":"4","last_reported":1727089644,"current_range_meters":25200,"station_id":"ce4bh412rcd13ifvqdr0","pricing_plan_id":"cebpf4jnsgd1na2vs0mg"},{"bike_id":"a9ab80af-6118-44e6-9e2a-8aa27c4f46e3","system_id":"levelo_inurba_marseille","lat":43.30588,"lon":5.39353,"is_reserved":false,"is_disabled":false,"rental_uris":{"android":"levelo://app?vid=a9ab80af-6118-44e6-9e2a-8aa27c4f46e3","ios":"levelo://app?vid=a9ab80af-6118-44e6-9e2a-8aa27c4f46e3"},"vehicle_type_id":"4","last_reported":1727089644,"current_range_meters":14000,"station_id":"ce4bh0p2rcd13ifvqd80","pricing_plan_id":"cebpf4jnsgd1na2vs0mg"},{"bike_id":"8c57bda6-75e9-4c16-9b27-9c90d5609ca2","system_id":"levelo_inurba_marseille","lat":43.30542,"lon":5.365379,"is_reserved":false,"is_disabled":false,"rental_uris":{"android":"levelo://app?vid=8c57bda6-75e9-4c16-9b27-9c90d5609ca2","ios":"levelo://app?vid=8c57bda6-75e9-4c16-9b27-9c90d5609ca2"},"vehicle_type_id":"4","last_reported":1727089644,"current_range_meters":15200,"station_id":"ce4bgpp2rcd13ifvqc3g","pricing_plan_id":"cebpf4jnsgd1na2vs0mg"},{"bike_id":"3ee63676-a67e-4a02-8a42-380f7a031643","system_id":"levelo_inurba_marseille","lat":43.284695,"lon":5.384109,"is_reserved":false,"is_disabled":false,"rental_uris":{"android":"levelo://app?vid=3ee63676-a67e-4a02-8a42-380f7a031643","ios":"levelo://app?vid=3ee63676-a67e-4a02-8a42-380f7a031643"},"vehicle_type_id":"4","last_reported":1727089644,"current_range_meters":36400,"station_id":"ce4bh512rcd13ifvqe3g","pricing_plan_id":"cebpf4jnsgd1na2vs0mg"},{"bike_id":"973963d7-cd5f-4c62-aa49-892fbc9f75f4","system_id":"levelo_inurba_marseille","lat":43.25505,"lon":5.3765,"is_reserved":false,"is_disabled":false,"rental_uris":{"android":"levelo://app?vid=973963d7-cd5f-4c62-aa49-892fbc9f75f4","ios":"levelo://app?vid=973963d7-cd5f-4c62-aa49-892fbc9f75f4"},"vehicle_type_id":"4","last_reported":1727089644,"current_range_meters":12800,"station_id":"ce4bhh12rcd13ifvqff0","pricing_plan_id":"cebpf4jnsgd1na2vs0mg"},{"bike_id":"ba47a78a-93e4-42c6-8648-5fe55789ed33","system_id":"levelo_inurba_marseille","lat":43.23966,"lon":5.36636,"is_reserved":false,"is_disabled":false,"rental_uris":{"android":"levelo://app?vid=ba47a78a-93e4-42c6-8648-5fe55789ed33","ios":"levelo://app?vid=ba47a78a-93e4-42c6-8648-5fe55789ed33"},"vehicle_type_id":"4","last_reported":1727089644,"current_range_meters":29600,"station_id":"ce4bhi12rcd13ifvqfp0","pricing_plan_id":"cebpf4jnsgd1na2vs0mg"},{"bike_id":"98317e9d-9c27-46f9-a4da-cf59250e8820","system_id":"levelo_inurba_marseille","lat":43.24071,"lon":5.37764,"is_reserved":false,"is_disabled":false,"rental_uris":{"android":"levelo://app?vid=98317e9d-9c27-46f9-a4da-cf59250e8820","ios":"levelo://app?vid=98317e9d-9c27-46f9-a4da-cf59250e8820"},"vehicle_type_id":"4","last_reported":1727089644,"current_range_meters":38800,"station_id":"ce4bhnp2rcd13ifvqgvg","pricing_plan_id":"cebpf4jnsgd1na2vs0mg"},{"bike_id":"5409ee97-910d-4031-a395-074ded714555","system_id":"levelo_inurba_marseille","lat":43.27999,"lon":5.40013,"is_reserved":false,"is_disabled":false,"rental_uris":{"android":"levelo://app?vid=5409ee97-910d-4031-a395-074ded714555","ios":"levelo://app?vid=5409ee97-910d-4031-a395-074ded714555"},"vehicle_type_id":"4","last_reported":1727089644,"current_range_meters":30400,"station_id":"ce4bho92rcd13ifvqh4g","pricing_plan_id":"cebpf4jnsgd1na2vs0mg"},{"bike_id":"05e80a70-ba96-4b46-9cb2-731d2e6eccb1","system_id":"levelo_inurba_marseille","lat":43.298615,"lon":5.397403,"is_reserved":false,"is_disabled":false,"rental_uris":{"android":"levelo://app?vid=05e80a70-ba96-4b46-9cb2-731d2e6eccb1","ios":"levelo://app?vid=05e80a70-ba96-4b46-9cb2-731d2e6eccb1"},"vehicle_type_id":"4","last_reported":1727089644,"current_range_meters":5600,"station_id":"ce4bh0h2rcd13ifvqd50","pricing_plan_id":"cebpf4jnsgd1na2vs0mg"},{"bike_id":"7759aee3-aa5f-49dd-8a98-797f21ec82a0","system_id":"levelo_inurba_marseille","lat":43.29275,"lon":5.40117,"is_reserved":false,"is_disabled":false,"rental_uris":{"android":"levelo://app?vid=7759aee3-aa5f-49dd-8a98-797f21ec82a0","ios":"levelo://app?vid=7759aee3-aa5f-49dd-8a98-797f21ec82a0"},"vehicle_type_id":"4","last_reported":1727089644,"current_range_meters":16800,"station_id":"ce4bh312rcd13ifvqdk0","pricing_plan_id":"cebpf4jnsgd1na2vs0mg"},{"bike_id":"f8f68a1a-c75e-4c1a-9a5e-d79cc450605c","system_id":"levelo_inurba_marseille","lat":43.30137,"lon":5.3877,"is_reserved":false,"is_disabled":false,"rental_uris":{"android":"levelo://app?vid=f8f68a1a-c75e-4c1a-9a5e-d79cc450605c","ios":"levelo://app?vid=f8f68a1a-c75e-4c1a-9a5e-d79cc450605c"},"vehicle_type_id":"4","last_reported":1727089644,"current_range_meters":36000,"station_id":"ce4bghh2rcd13ifvqb60","pricing_plan_id":"cebpf4jnsgd1na2vs0mg"},{"bike_id":"840f3e47-074d-4b22-ab80-8cfe985e5e84","system_id":"levelo_inurba_marseille","lat":43.24081,"lon":5.3775,"is_reserved":false,"is_disabled":false,"rental_uris":{"android":"levelo://app?vid=840f3e47-074d-4b22-ab80-8cfe985e5e84","ios":"levelo://app?vid=840f3e47-074d-4b22-ab80-8cfe985e5e84"},"vehicle_type_id":"4","last_reported":1727089644,"current_range_meters":30000,"station_id":"ce4bhnp2rcd13ifvqgvg","pricing_plan_id":"cebpf4jnsgd1na2vs0mg"},{"bike_id":"00c79597-54a4-431e-a932-719e1ad49b52","system_id":"levelo_inurba_marseille","lat":43.29574,"lon":5.39978,"is_reserved":false,"is_disabled":false,"rental_uris":{"android":"levelo://app?vid=00c79597-54a4-431e-a932-719e1ad49b52","ios":"levelo://app?vid=00c79597-54a4-431e-a932-719e1ad49b52"},"vehicle_type_id":"4","last_reported":1727089644,"current_range_meters":16000,"station_id":"ce4bh312rcd13ifvqdj0","pricing_plan_id":"cebpf4jnsgd1na2vs0mg"},{"bike_id":"f6f2dcd5-9f8b-486f-bf33-85c68932231b","system_id":"levelo_inurba_marseille","lat":43.26194,"lon":5.37447,"is_reserved":false,"is_disabled":false,"rental_uris":{"android":"levelo://app?vid=f6f2dcd5-9f8b-486f-bf33-85c68932231b","ios":"levelo://app?vid=f6f2dcd5-9f8b-486f-bf33-85c68932231b"},"vehicle_type_id":"4","last_reported":1727089644,"current_range_meters":28800,"station_id":"ce4bhgp2rcd13ifvqfc0","pricing_plan_id":"cebpf4jnsgd1na2vs0mg"},{"bike_id":"0ac942a9-4377-4c05-af5d-e46d62db16de","system_id":"levelo_inurba_marseille","lat":43.316948,"lon":5.404702,"is_reserved":false,"is_disabled":false,"rental_uris":{"android":"levelo://app?vid=0ac942a9-4377-4c05-af5d-e46d62db16de","ios":"levelo://app?vid=0ac942a9-4377-4c05-af5d-e46d62db16de"},"vehicle_type_id":"4","last_reported":1727089644,"current_range_meters":28400,"station_id":"ce4bh012rcd13ifvqd00","pricing_plan_id":"cebpf4jnsgd1na2vs0mg"},{"bike_id":"5047bacc-eaa7-417e-b1d4-e8cc8077ab3f","system_id":"levelo_inurba_marseille","lat":43.33012,"lon":5.39048,"is_reserved":false,"is_disabled":false,"rental_uris":{"android":"levelo://app?vid=5047bacc-eaa7-417e-b1d4-e8cc8077ab3f","ios":"levelo://app?vid=5047bacc-eaa7-417e-b1d4-e8cc8077ab3f"},"vehicle_type_id":"4","last_reported":1727089644,"current_range_meters":28000,"station_id":"ce4bhr92rcd13ifvqhrg","pricing_plan_id":"cebpf4jnsgd1na2vs0mg"},{"bike_id":"a78461ae-1846-443a-b93e-e37d4b38ef38","system_id":"levelo_inurba_marseille","lat":43.2794,"lon":5.41049,"is_reserved":false,"is_disabled":false,"rental_uris":{"android":"levelo://app?vid=a78461ae-1846-443a-b93e-e37d4b38ef38","ios":"levelo://app?vid=a78461ae-1846-443a-b93e-e37d4b38ef38"},"vehicle_type_id":"4","last_reported":1727089644,"current_range_meters":16400,"station_id":"ce4bhnp2rcd13ifvqh0g","pricing_plan_id":"cebpf4jnsgd1na2vs0mg"},{"bike_id":"a8ee775e-9f98-44af-9a84-36198c01c6ad","system_id":"levelo_inurba_marseille","lat":43.289748,"lon":5.378395,"is_reserved":false,"is_disabled":false,"rental_uris":{"android":"levelo://app?vid=a8ee775e-9f98-44af-9a84-36198c01c6ad","ios":"levelo://app?vid=a8ee775e-9f98-44af-9a84-36198c01c6ad"},"vehicle_type_id":"4","last_reported":1727089644,"current_range_meters":36400,"station_id":"ce4bh9p2rcd13ifvqed0","pricing_plan_id":"cebpf4jnsgd1na2vs0mg"},{"bike_id":"ca55d571-1a05-4f1d-962f-fc9315caeeed","system_id":"levelo_inurba_marseille","lat":43.337444,"lon":5.374475,"is_reserved":false,"is_disabled":false,"rental_uris":{"android":"levelo://app?vid=ca55d571-1a05-4f1d-962f-fc9315caeeed","ios":"levelo://app?vid=ca55d571-1a05-4f1d-962f-fc9315caeeed"},"vehicle_type_id":"4","last_reported":1727089644,"current_range_meters":38800,"station_id":"","pricing_plan_id":"cebpf4jnsgd1na2vs0mg"},{"bike_id":"ccc81689-c5ae-478e-8931-f02ad604f095","system_id":"levelo_inurba_marseille","lat":43.29029,"lon":5.3999,"is_reserved":false,"is_disabled":false,"rental_uris":{"android":"levelo://app?vid=ccc81689-c5ae-478e-8931-f02ad604f095","ios":"levelo://app?vid=ccc81689-c5ae-478e-8931-f02ad604f095"},"vehicle_type_id":"4","last_reported":1727089644,"current_range_meters":37600,"station_id":"ce4bh392rcd13ifvqdm0","pricing_plan_id":"cebpf4jnsgd1na2vs0mg"},{"bike_id":"b58e185e-73c9-4032-928f-9be53c49f4f5","system_id":"levelo_inurba_marseille","lat":43.295992,"lon":5.376407,"is_reserved":false,"is_disabled":false,"rental_uris":{"android":"levelo://app?vid=b58e185e-73c9-4032-928f-9be53c49f4f5","ios":"levelo://app?vid=b58e185e-73c9-4032-928f-9be53c49f4f5"},"vehicle_type_id":"4","last_reported":1727089644,"current_range_meters":29600,"station_id":"ce4bgi92rcd13ifvqb90","pricing_plan_id":"cebpf4jnsgd1na2vs0mg"},