{"last_updated":1683942937,"ttl":30,"version":"2.2","data":{"bikes":[{"bike_id":"587d7e94-da37-4de2-80e1-426004de5738","system_id":"levelo_inurba_marseille","lat":43.313391,"lon":5.36706,"is_reserved":false,"is_disabled":false,"rental_uris":{"android":"levelo://app?vid=587d7e94-da37-4de2-80e1-426004de5738","ios":"levelo://app?vid=587d7e94-da37-4de2-80e1-426004de5738"},"vehicle_type_id":"4","last_reported":1683942937,"current_range_meters":30400,"station_id":"ce4bgr92rcd13ifvqc6g","pricing_plan_id":"free"},{"bike_id":"caf62a47-260f-4ea6-957c-2cd2b8faadb8","system_id":"levelo_inurba_marseille","lat":43.312239,"lon":5.368562,"is_reserved":false,"is_disabled":false,"rental_uris":{"android":"levelo://app?vid=caf62a47-260f-4ea6-957c-2cd2b8faadb8","ios":"levelo://app?vid=caf62a47-260f-4ea6-957c-2cd2b8faadb8"},"vehicle_type_id":"4","last_reported":1683942937,"current_range_meters":30400,"station_id":"ce4bgl92rcd13ifvqbq0","pricing_plan_id":"free"},{"bike_id":"6b7c3507-e295-43af-a5ca-a2173ed82b2f","system_id":"levelo_inurba_marseille","lat":43.312239,"lon":5.368562,"is_reserved":false,"is_disabled":false,"rental_uris":{"android":"levelo://app?vid=6b7c3507-e295-43af-a5ca-a2173ed82b2f","ios":"levelo://app?vid=6b7c3507-e295-43af-a5ca-a2173ed82b2f"},"vehicle_type_id":"4","last_reported":1683942937,"current_range_meters":27200,"station_id":"ce4bgl92rcd13ifvqbq0","pricing_plan_id":"free"},{"bike_id":"86756992-852a-42a4-9e35-bcac14aa4c2d","system_id":"levelo_inurba_marseille","lat":43.312239,"lon":5.368562,"is_reserved":false,"is_disabled":false,"rental_uris":{"android":"levelo://app?vid=86756992-852a-42a4-9e35-bcac14aa4c2d","ios":"levelo://app?vid=86756992-852a-42a4-9e35-bcac14aa4c2d"},"vehicle_type_id":"4","last_reported":1683942937,"current_range_meters":19200,"station_id":"ce4bgl92rcd13ifvqbq0","pricing_plan_id":"free"},{"bike_id":"74b03030-f764-44f2-a651-9c6e9c253c21","system_id":"levelo_inurba_marseille","lat":43.312239,"lon":5.368562,"is_reserved":false,"is_disabled":false,"rental_uris":{"android":"levelo://app?vid=74b03030-f764-44f2-a651-9c6e9c253c21","ios":"levelo://app?vid=74b03030-f764-44f2-a651-9c6e9c253c21"},"vehicle_type_id":"4","last_reported":1683942937,"current_range_meters":24800,"station_id":"ce4bgl92rcd13ifvqbq0","pricing_plan_id":"free"},{"bike_id":"4f3a7203-80f9-4d51-95b1-7cbb9b13118c","system_id":"levelo_inurba_marseille","lat":43.312239,"lon":5.368562,"is_reserved":false,"is_disabled":false,"rental_uris":{"android":"levelo://app?vid=4f3a7203-80f9-4d51-95b1-7cbb9b13118c","ios":"levelo://app?vid=4f3a7203-80f9-4d51-95b1-7cbb9b13118c"},"vehicle_type_id":"4","last_reported":1683942937,"current_range_meters":0,"station_id":"ce4bgl92rcd13ifvqbq0","pricing_plan_id":"free"},{"bike_id":"bb32fc1d-f279-4cbc-89e7-1481eca91c2c","system_id":"levelo_inurba_marseille","lat":43.314811,"lon":5.373103,"is_reserved":false,"is_disabled":false,"rental_uris":{"android":"levelo://app?vid=bb32fc1d-f279-4cbc-89e7-1481eca91c2c","ios":"levelo://app?vid=bb32fc1d-f279-4cbc-89e7-1481eca91c2c"},"vehicle_type_id":"4","last_reported":1683942937,"current_range_meters":31600,"station_id":"ce4bgt12rcd13ifvqcd0","pricing_plan_id":"free"},{"bike_id":"23a5928b-efc8-4079-96db-b2cf36516d93","system_id":"levelo_inurba_marseille","lat":43.314811,"lon":5.373103,"is_reserved":false,"is_disabled":false,"rental_uris":{"android":"levelo://app?vid=23a5928b-efc8-4079-96db-b2cf36516d93","ios":"levelo://app?vid=23a5928b-efc8-4079-96db-b2cf36516d93"},"vehicle_type_id":"4","last_reported":1683942937,"current_range_meters":31200,"station_id":"ce4bgt12rcd13ifvqcd0","pricing_plan_id":"free"},{"bike_id":"8ca62d06-aaef-4fe4-8a79-f8e1c3e6e068","system_id":"levelo_inurba_marseille","lat":43.314811,"lon":5.373104,"is_reserved":false,"is_disabled":false,"rental_uris":{"android":"levelo://app?vid=8ca62d06-aaef-4fe4-8a79-f8e1c3e6e068","ios":"levelo://app?vid=8ca62d06-aaef-4fe4-8a79-f8e1c3e6e068"},"vehicle_type_id":"4","last_reported":1683942937,"current_range_meters":30000,"station_id":"ce4bgt12rcd13ifvqcd0","pricing_plan_id":"free"},{"bike_id":"e06b7c01-10cd-4080-a6ed-e0b3680e3e3d","system_id":"levelo_inurba_marseille","lat":43.314811,"lon":5.373103,"is_reserved":false,"is_disabled":false,"rental_uris":{"android":"levelo://app?vid=e06b7c01-10cd-4080-a6ed-e0b3680e3e3d","ios":"levelo://app?vid=e06b7c01-10cd-4080-a6ed-e0b3680e3e3d"},"vehicle_type_id":"4","last_reported":1683942937,"current_range_meters":19200,"station_id":"ce4bgt12rcd13ifvqcd0","pricing_plan_id":"free"},{"bike_id":"9fba2d74-e12d-467e-bb49-3618cc52e11c","system_id":"levelo_inurba_marseille","lat":43.308614,"lon":5.372098,"is_reserved":false,"is_disabled":false,"rental_uris":{"android":"levelo://app?vid=9fba2d74-e12d-467e-bb49-3618cc52e11c","ios":"levelo://app?vid=9fba2d74-e12d-467e-bb49-3618cc52e11c"},"vehicle_type_id":"4","last_reported":1683942937,"current_range_meters":7600,"station_id":"ce4bguh2rcd13ifvqckg","pricing_plan_id":"free"},{"bike_id":"8048eea1-a21f-447e-ac45-82c78ea043e7","system_id":"levelo_inurba_marseille","lat":43.308614,"lon":5.372098,"is_reserved":false,"is_disabled":false,"rental_uris":{"android":"levelo://app?vid=8048eea1-a21f-447e-ac45-82c78ea043e7","ios":"levelo://app?vid=8048eea1-a21f-447e-ac45-82c78ea043e7"},"vehicle_type_id":"4","last_reported":1683942937,"current_range_meters":22400,"station_id":"ce4bguh2rcd13ifvqckg","pricing_plan_id":"free"},{"bike_id":"c62c9ca2-ae81-49ed-80b7-19de36aedda8","system_id":"levelo_inurba_marseille","lat":43.308614,"lon":5.372098,"is_reserved":false,"is_disabled":false,"rental_uris":{"android":"levelo://app?vid=c62c9ca2-ae81-49ed-80b7-19de36aedda8","ios":"levelo://app?vid=c62c9ca2-ae81-49ed-80b7-19de36aedda8"},"vehicle_type_id":"4","last_reported":1683942937,"current_range_meters":2400,"station_id":"ce4bguh2rcd13ifvqckg","pricing_plan_id":"free"},{"bike_id":"511d2a5e-2a61-4bbc-88f9-c1a7797768bf","system_id":"levelo_inurba_marseille","lat":43.30887,"lon":5.37187,"is_reserved":false,"is_disabled":false,"rental_uris":{"android":"levelo://app?vid=511d2a5e-2a61-4bbc-88f9-c1a7797768bf","ios":"levelo://app?vid=511d2a5e-2a61-4bbc-88f9-c1a7797768bf"},"vehicle_type_id":"4","last_reported":1683942937,"current_range_meters":31200,"station_id":"","pricing_plan_id":"free"},{"bike_id":"e719c882-3281-4031-85fe-6e5791a0dc68","system_id":"levelo_inurba_marseille","lat":43.30885,"lon":5.37186,"is_reserved":false,"is_disabled":false,"rental_uris":{"android":"levelo://app?vid=e719c882-3281-4031-85fe-6e5791a0dc68","ios":"levelo://app?vid=e719c882-3281-4031-85fe-6e5791a0dc68"},"vehicle_type_id":"4","last_reported":1683942937,"current_range_meters":0,"station_id":"","pricing_plan_id":"free"},{"bike_id":"712d80da-4d8c-4f0b-845a-1ba448167734","system_id":"levelo_inurba_marseille","lat":43.308614,"lon":5.372098,"is_reserved":false,"is_disabled":false,"rental_uris":{"android":"levelo://app?vid=712d80da-4d8c-4f0b-845a-1ba448167734","ios":"levelo://app?vid=712d80da-4d8c-4f0b-845a-1ba448167734"},"vehicle_type_id":"4","last_reported":1683942937,"current_range_meters":18000,"station_id":"ce4bguh2rcd13ifvqckg","pricing_plan_id":"free"},{"bike_id":"5759ed38-a7c3-4776-ad5b-cfeaa09b7df1","system_id":"levelo_inurba_marseille","lat":43.305989,"lon":5.37225,"is_reserved":false,"is_disabled":false,"rental_uris":{"android":"levelo://app?vid=5759ed38-a7c3-4776-ad5b-cfeaa09b7df1","ios":"levelo://app?vid=5759ed38-a7c3-4776-ad5b-cfeaa09b7df1"},"vehicle_type_id":"4","last_reported":1683942937,"current_range_meters":22000,"station_id":"ce4bgqh2rcd13ifvqc4g","pricing_plan_id":"free"},{"bike_id":"f29a238c-9961-4aa3-bb8f-7e97e880b74b","system_id":"levelo_inurba_marseille","lat":43.305989,"lon":5.37225,"is_reserved":false,"is_disabled":false,"rental_uris":{"android":"levelo://app?vid=f29a238c-9961-4aa3-bb8f-7e97e880b74b","ios":"levelo://app?vid=f29a238c-9961-4aa3-bb8f-7e97e880b74b"},"vehicle_type_id":"4","last_reported":1683942937,"current_range_meters":10000,"station_id":"ce4bgqh2rcd13ifvqc4g","pricing_plan_id":"free"},{"bike_id":"f8ee7ff3-b0d2-4a78-a900-68376d65fea8","system_id":"levelo_inurba_marseille","lat":43.305989,"lon":5.37225,"is_reserved":false,"is_disabled":false,"rental_uris":{"android":"levelo://app?vid=f8ee7ff3-b0d2-4a78-a900-68376d65fea8","ios":"levelo://app?vid=f8ee7ff3-b0d2-4a78-a900-68376d65fea8"},"vehicle_type_id":"4","last_reported":1683942937,"current_range_meters":13600,"station_id":"ce4bgqh2rcd13ifvqc4g","pricing_plan_id":"free"},{"bike_id":"151d50bc-3aee-48d5-9527-783274464e00","system_id":"levelo_inurba_marseille","lat":43.31175,"lon":5.37748,"is_reserved":false,"is_disabled":false,"rental_uris":{"android":"levelo://app?vid=151d50bc-3aee-48d5-9527-783274464e00","ios":"levelo://app?vid=151d50bc-3aee-48d5-9527-783274464e00"},"vehicle_type_id":"4","last_reported":1683942937,"current_range_meters":14800,"station_id":"","pricing_plan_id":"free"},{"bike_id":"f0efbac9-c44e-43a0-b949-c5984588d242","system_id":"levelo_inurba_marseille","lat":43.305989,"lon":5.37225,"is_reserved":false,"is_disabled":false,"rental_uris":{"android":"levelo://app?vid=f0efbac9-c44e-43a0-b949-c5984588d242","ios":"levelo://app?vid=f0efbac9-c44e-43a0-b949-c5984588d242"},"vehicle_type_id":"4","last_reported":1683942937,"current_range_meters":18000,"station_id":"ce4bgqh2rcd13ifvqc4g","pricing_plan_id":"free"},{"bike_id":"dcb777f5-c93d-46e6-8967-aef776ce9b3b","system_id":"levelo_inurba_marseille","lat":43.31124,"lon":5.37756,"is_reserved":false,"is_disabled":false,"rental_uris":{"android":"levelo://app?vid=dcb777f5-c93d-46e6-8967-aef776ce9b3b","ios":"levelo://app?vid=dcb777f5-c93d-46e6-8967-aef776ce9b3b"},"vehicle_type_id":"4","last_reported":1683942937,"current_range_meters":7600,"station_id":"ce4bgt92rcd13ifvqcg0","pricing_plan_id":"free"},{"bike_id":"30751950-d1dd-48b7-a194-28aeee355b9e","system_id":"levelo_inurba_marseille","lat":43.31122,"lon":5.37761,"is_reserved":false,"is_disabled":false,"rental_uris":{"android":"levelo://app?vid=30751950-d1dd-48b7-a194-28aeee355b9e","ios":"levelo://app?vid=30751950-d1dd-48b7-a194-28aeee355b9e"},"vehicle_type_id":"4","last_reported":1683942937,"current_range_meters":31200,"station_id":"ce4bgt92rcd13ifvqcg0","pricing_plan_id":"free"},{"bike_id":"f1ebae10-053d-4b1f-9466-86718871b05f","system_id":"levelo_inurba_marseille","lat":43.311131,"lon":5.377651,"is_reserved":false,"is_disabled":false,"rental_uris":{"android":"levelo://app?vid=f1ebae10-053d-4b1f-9466-86718871b05f","ios":"levelo://app?vid=f1ebae10-053d-4b1f-9466-86718871b05f"},"vehicle_type_id":"4","last_reported":1683942937,"current_range_meters":12800,"station_id":"ce4bgt92rcd13ifvqcg0","pricing_plan_id":"free"},{"bike_id":"09b7fd57-61d9-419a-a4e8-674a7a827b6a","system_id":"levelo_inurba_marseille","lat":43.303046,"lon":5.368981,"is_reserved":false,"is_disabled":false,"rental_uris":{"android":"levelo://app?vid=09b7fd57-61d9-419a-a4e8-674a7a827b6a","ios":"levelo://app?vid=09b7fd57-61d9-419a-a4e8-674a7a827b6a"},"vehicle_type_id":"4","last_reported":1683942937,"current_range_meters":2000,"station_id":"ce4bgqh2rcd13ifvqc5g","pricing_plan_id":"free"},{"bike_id":"c9b37341-8f4b-48d8-8568-05ad77ebc863","system_id":"levelo_inurba_marseille","lat":43.303046,"lon":5.368981,"is_reserved":false,"is_disabled":false,"rental_uris":{"android":"levelo://app?vid=c9b37341-8f4b-48d8-8568-05ad77ebc863","ios":"levelo://app?vid=c9b37341-8f4b-48d8-8568-05ad77ebc863"},"vehicle_type_id":"4","last_reported":1683942937,"current_range_meters":30400,"station_id":"ce4bgqh2rcd13ifvqc5g","pricing_plan_id":"free"},{"bike_id":"1e248d74-616b-4ef7-ba2a-219360266c23","system_id":"levelo_inurba_marseille","lat":43.303046,"lon":5.368981,"is_reserved":false,"is_disabled":false,"rental_uris":{"android":"levelo://app?vid=1e248d74-616b-4ef7-ba2a-219360266c23","ios":"levelo://app?vid=1e248d74-616b-4ef7-ba2a-219360266c23"},"vehicle_type_id":"4","last_reported":1683942937,"current_range_meters":21600,"station_id":"ce4bgqh2rcd13ifvqc5g","pricing_plan_id":"free"},{"bike_id":"7cd36b5b-615d-4ca8-b40b-53db2d40326b","system_id":"levelo_inurba_marseille","lat":43.315293,"lon":5.380349,"is_reserved":false,"is_disabled":false,"rental_uris":{"android":"levelo://app?vid=7cd36b5b-615d-4ca8-b40b-53db2d40326b","ios":"levelo://app?vid=7cd36b5b-615d-4ca8-b40b-53db2d40326b"},"vehicle_type_id":"4","last_reported":1683942937,"current_range_meters":26800,"station_id":"ce4bhsp2rcd13ifvqi50","pricing_plan_id":"free"},{"bike_id":"d1f7da52-f8f0-4ddf-abb3-24dd9a46784d","system_id":"levelo_inurba_marseille","lat":43.315289,"lon":5.380349,"is_reserved":false,"is_disabled":false,"rental_uris":{"android":"levelo://app?vid=d1f7da52-f8f0-4ddf-abb3-24dd9a46784d","ios":"levelo://app?vid=d1f7da52-f8f0-4ddf-abb3-24dd9a46784d"},"vehicle_type_id":"4","last_reported":1683942937,"current_range_meters":25600,"station_id":"ce4bhsp2rcd13ifvqi50","pricing_plan_id":"free"},{"bike_id":"0b6a217f-8dd3-4ba7-90db-3a9931b2e4d0","system_id":"levelo_inurba_marseille","lat":43.308012,"lon":5.381511,"is_reserved":false,"is_disabled":false,"rental_uris":{"android":"levelo://app?vid=0b6a217f-8dd3-4ba7-90db-3a9931b2e4d0","ios":"levelo://app?vid=0b6a217f-8dd3-4ba7-90db-3a9931b2e4d0"},"vehicle_type_id":"4","last_reported":1683942937,"current_range_meters":16400,"station_id":"ce4bgt12rcd13ifvqce0","pricing_plan_id":"free"},{"bike_id":"4d07815b-babd-4a31-840a-7d3d7821ae9a","system_id":"levelo_inurba_marseille","lat":43.308012,"lon":5.381511,"is_reserved":false,"is_disabled":false,"rental_uris":{"android":"levelo://app?vid=4d07815b-babd-4a31-840a-7d3d7821ae9a","ios":"levelo://app?vid=4d07815b-babd-4a31-840a-7d3d7821ae9a"},"vehicle_type_id":"4","last_reported":1683942937,"current_range_meters":31200,"station_id":"ce4bgt12rcd13ifvqce0","pricing_plan_id":"free"},{"bike_id":"30cbc4c1-0c9e-470c-b991-c015b19fe276","system_id":"levelo_inurba_marseille","lat":43.308012,"lon":5.381511,"is_reserved":false,"is_disabled":false,"rental_uris":{"android":"levelo://app?vid=30cbc4c1-0c9e-470c-b991-c015b19fe276","ios":"levelo://app?vid=30cbc4c1-0c9e-470c-b991-c015b19fe276"},"vehicle_type_id":"4","last_reported":1683942937,"current_range_meters":29600,"station_id":"ce4bgt12rcd13ifvqce0","pricing_plan_id":"free"},{"bike_id":"21e46545-d0bf-449c-99a8-0262d6d1aaa9","system_id":"levelo_inurba_marseille","lat":43.308012,"lon":5.381511,"is_reserved":false,"is_disabled":false,"rental_uris":{"android":"levelo://app?vid=21e46545-d0bf-449c-99a8-0262d6d1aaa9","ios":"levelo://app?vid=21e46545-d0bf-449c-99a8-0262d6d1aaa9"},"vehicle_type_id":"4","last_reported":1683942937,"current_range_meters":3600,"station_id":"ce4bgt12rcd13ifvqce0","pricing_plan_id":"free"},{"bike_id":"7e261393-262d-49cc-8cb2-f0fe6733e131","system_id":"levelo_inurba_marseille","lat":43.308012,"lon":5.381511,"is_reserved":false,"is_disabled":false,"rental_uris":{"android":"levelo://app?vid=7e261393-262d-49cc-8cb2-f0fe6733e131","ios":"levelo://app?vid=7e261393-262d-49cc-8cb2-f0fe6733e131"},"vehicle_type_id":"4","last_reported":1683942937,"current_range_meters":17200,"station_id":"ce4bgt12rcd13ifvqce0","pricing_plan_id":"free"},{"bike_id":"997dc477-794d-4a5a-b09f-12d545877bc9","system_id":"levelo_inurba_marseille","lat":43.308012,"lon":5.381511,"is_reserved":false,"is_disabled":false,"rental_uris":{"android":"levelo://app?vid=997dc477-794d-4a5a-b09f-12d545877bc9","ios":"levelo://app?vid=997dc477-794d-4a5a-b09f-12d545877bc9"},"vehicle_type_id":"4","last_reported":1683942937,"current_range_meters":20800,"station_id":"ce4bgt12rcd13ifvqce0","pricing_plan_id":"free"},{"bike_id":"375ee297-7422-4381-8dd9-0bae5fc1dc97","system_id":"levelo_inurba_marseille","lat":43.308012,"lon":5.381511,"is_reserved":false,"is_disabled":false,"rental_uris":{"android":"levelo://app?vid=375ee297-7422-4381-8dd9-0bae5fc1dc97","ios":"levelo://app?vid=375ee297-7422-4381-8dd9-0bae5fc1dc97"},"vehicle_type_id":"4","last_reported":1683942937,"current_range_meters":6400,"station_id":"ce4bgt12rcd13ifvqce0","pricing_plan_id":"free"},{"bike_id":"f372d349-3e90-45f5-a171-8686a9db365e","system_id":"levelo_inurba_marseille","lat":43.308012,"lon":5.381511,"is_reserved":false,"is_disabled":false,"rental_uris":{"android":"levelo://app?vid=f372d349-3e90-45f5-a171-8686a9db365e","ios":"levelo://app?vid=f372d349-3e90-45f5-a171-8686a9db365e"},"vehicle_type_id":"4","last_reported":1683942937,"current_range_meters":18400,"station_id":"ce4bgt12rcd13ifvqce0","pricing_plan_id":"free"},{"bike_id":"d99457f2-5198-41f9-9c5d-9c6b84e590b6","system_id":"levelo_inurba_marseille","lat":43.308012,"lon":5.381511,"is_reserved":false,"is_disabled":false,"rental_uris":{"android":"levelo://app?vid=d99457f2-5198-41f9-9c5d-9c6b84e590b6","ios":"levelo://app?vid=d99457f2-5198-41f9-9c5d-9c6b84e590b6"},"vehicle_type_id":"4","last_reported":1683942937,"current_range_meters":6000,"station_id":"ce4bgt12rcd13ifvqce0","pricing_plan_id":"free"},{"bike_id":"003d582e-7e5f-4a87-a622-32e3086b14b0","system_id":"levelo_inurba_marseille","lat":43.304606,"lon":5.379026,"is_reserved":false,"is_disabled":false,"rental_uris":{"android":"levelo://app?vid=003d582e-7e5f-4a87-a622-32e3086b14b0","ios":"levelo://app?vid=003d582e-7e5f-4a87-a622-32e3086b14b0"},"vehicle_type_id":"4","last_reported":1683942937,"current_range_meters":27200,"station_id":"ce4bgup2rcd13ifvqcn0","pricing_plan_id":"free"},{"bike_id":"a4a2d40c-6c2a-4656-89de-26352f215cd2","system_id":"levelo_inurba_marseille","lat":43.313571,"lon":5.384829,"is_reserved":false,"is_disabled":false,"rental_uris":{"android":"levelo://app?vid=a4a2d40c-6c2a-4656-89de-26352f215cd2","ios":"levelo://app?vid=a4a2d40c-6c2a-4656-89de-26352f215cd2"},"vehicle_type_id":"4","last_reported":1683942937,"current_range_meters":13200,"station_id":"ce4bgt92rcd13ifvqcf0","pricing_plan_id":"free"},{"bike_id":"e9c39692-397c-4ec8-8473-869bdca448e7","system_id":"levelo_inurba_marseille","lat":43.299222,"lon":5.365554,"is_reserved":false,"is_disabled":false,"rental_uris":{"android":"levelo://app?vid=e9c39692-397c-4ec8-8473-869bdca448e7","ios":"levelo://app?vid=e9c39692-397c-4ec8-8473-869bdca448e7"},"vehicle_type_id":"4","last_reported":1683942937,"current_range_meters":18000,"station_id":"ce4bgm92rcd13ifvqbr0","pricing_plan_id":"free"},{"bike_id":"02f53e3d-6eae-4d26-873d-ed902c566d70","system_id":"levelo_inurba_marseille","lat":43.299222,"lon":5.365554,"is_reserved":false,"is_disabled":false,"rental_uris":{"android":"levelo://app?vid=02f53e3d-6eae-4d26-873d-ed902c566d70","ios":"levelo://app?vid=02f53e3d-6eae-4d26-873d-ed902c566d70"},"vehicle_type_id":"4","last_reported":1683942937,"current_range_meters":28800,"station_id":"ce4bgm92rcd13ifvqbr0","pricing_plan_id":"free"},{"bike_id":"4ed84ca8-c8a7-4a74-8679-e8e36ea6c06f","system_id":"levelo_inurba_marseille","lat":43.299222,"lon":5.365554,"is_reserved":false,"is_disabled":false,"rental_uris":{"android":"levelo://app?vid=4ed84ca8-c8a7-4a74-8679-e8e36ea6c06f","ios":"levelo://app?vid=4ed84ca8-c8a7-4a74-8679-e8e36ea6c06f"},"vehicle_type_id":"4","last_reported":1683942937,"current_range_meters":25200,"station_id":"ce4bgm92rcd13ifvqbr0","pricing_plan_id":"free"},{"bike_id":"9a64bc52-f3e6-4ae3-a19b-23a40b6b88fa","system_id":"levelo_inurba_marseille","lat":43.298433,"lon":5.362774,"is_reserved":false,"is_disabled":false,"rental_uris":{"android":"levelo://app?vid=9a64bc52-f3e6-4ae3-a19b-23a40b6b88fa","ios":"levelo://app?vid=9a64bc52-f3e6-4ae3-a19b-23a40b6b88fa"},"vehicle_type_id":"4","last_reported":1683942937,"current_range_meters":31600,"station_id":"ce4bgpp2rcd13ifvqc3g","pricing_plan_id":"free"},{"bike_id":"69c0d559-90b4-46a0-918a-22bc8dda7204","system_id":"levelo_inurba_marseille","lat":43.298433,"lon":5.362774,"is_reserved":false,"is_disabled":false,"rental_uris":{"android":"levelo://app?vid=69c0d559-90b4-46a0-918a-22bc8dda7204","ios":"levelo://app?vid=69c0d559-90b4-46a0-918a-22bc8dda7204"},"vehicle_type_id":"4","last_reported":1683942937,"current_range_meters":31600,"station_id":"ce4bgpp2rcd13ifvqc3g","pricing_plan_id":"free"},{"bike_id":"391f8dd7-0f3a-4146-8736-d720741cd62b","system_id":"levelo_inurba_marseille","lat":43.305364,"lon":5.384119,"is_reserved":false,"is_disabled":false,"rental_uris":{"android":"levelo://app?vid=391f8dd7-0f3a-4146-8736-d720741cd62b","ios":"levelo://app?vid=391f8dd7-0f3a-4146-8736-d720741cd62b"},"vehicle_type_id":"4","last_reported":1683942937,"current_range_meters":22000,"station_id":"ce4bgg92rcd13ifvqb30","pricing_plan_id":"free"},{"bike_id":"a2ab2fd4-edc6-4ebb-b40c-3a7d41b5c42c","system_id":"levelo_inurba_marseille","lat":43.305364,"lon":5.384119,"is_reserved":false,"is_disabled":false,"rental_uris":{"android":"levelo://app?vid=a2ab2fd4-edc6-4ebb-b40c-3a7d41b5c42c","ios":"levelo://app?vid=a2ab2fd4-edc6-4ebb-b40c-3a7d41b5c42c"},"vehicle_type_id":"4","last_reported":1683942937,"current_range_meters":6400,"station_id":"ce4bgg92rcd13ifvqb30","pricing_plan_id":"free"},{"bike_id":"39e82324-ce26-420e-807d-c375523e0c86","system_id":"levelo_inurba_marseille","lat":43.30537,"lon":5.38418,"is_reserved":false,"is_disabled":false,"rental_uris":{"android":"levelo://app?vid=39e82324-ce26-420e-807d-c375523e0c86","ios":"levelo://app?vid=39e82324-ce26-420e-807d-c375523e0c86"},"vehicle_type_id":"4","last_reported":1683942937,"current_range_meters":14000,"station_id":"ce4bgg92rcd13ifvqb30","pricing_plan_id":"free"},{"bike_id":"612aec48-3a2c-4b02-b048-4c25d76ac3d1","system_id":"levelo_inurba_marseille","lat":43.305364,"lon":5.384119,"is_reserved":false,"is_disabled":false,"rental_uris":{"android":"levelo://app?vid=612aec48-3a2c-4b02-b048-4c25d76ac3d1","ios":"levelo://app?vid=612aec48-3a2c-4b02-b048-4c25d76ac3d1"},"vehicle_type_id":"4","last_reported":1683942937,"current_range_meters":23200,"station_id":"ce4bgg92rcd13ifvqb30","pricing_plan_id":"free"},{"bike_id":"afd3edc7-6e13-4ea1-b01b-2a2ff6008a5a","system_id":"levelo_inurba_marseille","lat":43.298433,"lon":5.362774,"is_reserved":false,"is_disabled":false,"rental_uris":{"android":"levelo://app?vid=afd3edc7-6e13-4ea1-b01b-2a2ff6008a5a","ios":"levelo://app?vid=afd3edc7-6e13-4ea1-b01b-2a2ff6008a5a"},"vehicle_type_id":"4","last_reported":1683942937,"current_range_meters":31600,"station_id":"ce4bgpp2rcd13ifvqc3g","pricing_plan_id":"free"},{"bike_id":"26f32692-33bb-4247-8538-a769f738431b","system_id":"levelo_inurba_marseille","lat":43.311722,"lon":5.387247,"is_reserved":false,"is_disabled":false,"rental_uris":{"android":"levelo://app?vid=26f32692-33bb-4247-8538-a769f738431b","ios":"levelo://app?vid=26f32692-33bb-4247-8538-a769f738431b"},"vehicle_type_id":"4","last_reported":1683942937,"current_range_meters":2400,"station_id":"ce4bgv12rcd13ifvqcp0","pricing_plan_id":"free"},{"bike_id":"2f96f4b7-d3f1-4b87-b98f-caf50ba6d13d","system_id":"levelo_inurba_marseille","lat":43.32768,"lon":5.36696,"is_reserved":false,"is_disabled":false,"rental_uris":{"android":"levelo://app?vid=2f96f4b7-d3f1-4b87-b98f-caf50ba6d13d","ios":"levelo://app?vid=2f96f4b7-d3f1-4b87-b98f-caf50ba6d13d"},"vehicle_type_id":"4","last_reported":1683942937,"current_range_meters":14000,"station_id":"","pricing_plan_id":"free"},{"bike_id":"7a070e52-967e-4cda-a050-dbf621e582d9","system_id":"levelo_inurba_marseille","lat":43.297794,"lon":5.370888,"is_reserved":false,"is_disabled":false,"rental_uris":{"android":"levelo://app?vid=7a070e52-967e-4cda-a050-dbf621e582d9","ios":"levelo://app?vid=7a070e52-967e-4cda-a050-dbf621e582d9"},"vehicle_type_id":"4","last_reported":1683942937,"current_range_meters":0,"station_id":"ce4bgop2rcd13ifvqc1g","pricing_plan_id":"free"},{"bike_id":"c7034e41-23d5-4534-bc14-c716046c6963","system_id":"levelo_inurba_marseille","lat":43.297774,"lon":5.370875,"is_reserved":false,"is_disabled":false,"rental_uris":{"android":"levelo://app?vid=c7034e41-23d5-4534-bc14-c716046c6963","ios":"levelo://app?vid=c7034e41-23d5-4534-bc14-c716046c6963"},"vehicle_type_id":"4","last_reported":1683942937,"current_range_meters":28400,"station_id":"ce4bgop2rcd13ifvqc1g","pricing_plan_id":"free"},{"bike_id":"f06866c8-2b14-4969-acd0-4b9d8db8f035","system_id":"levelo_inurba_marseille","lat":43.297794,"lon":5.370888,"is_reserved":false,"is_disabled":false,"rental_uris":{"android":"levelo://app?vid=f06866c8-2b14-4969-acd0-4b9d8db8f035","ios":"levelo://app?vid=f06866c8-2b14-4969-acd0-4b9d8db8f035"},"vehicle_type_id":"4","last_reported":1683942937,"current_range_meters":26000,"station_id":"ce4bgop2rcd13ifvqc1g","pricing_plan_id":"free"},{"bike_id":"0ac450e0-cf62-4e8d-85d5-744a554be123","system_id":"levelo_inurba_marseille","lat":43.297794,"lon":5.370888,"is_reserved":false,"is_disabled":false,"rental_uris":{"android":"levelo://app?vid=0ac450e0-cf62-4e8d-85d5-744a554be123","ios":"levelo://app?vid=0ac450e0-cf62-4e8d-85d5-744a554be123"},"vehicle_type_id":"4","last_reported":1683942937,"current_range_meters":31600,"station_id":"ce4bgop2rcd13ifvqc1g","pricing_plan_id":"free"},{"bike_id":"b4926d2f-e76d-4984-9c71-c6f34e018a37","system_id":"levelo_inurba_marseille","lat":43.297794,"lon":5.370888,"is_reserved":false,"is_disabled":false,"rental_uris":{"android":"levelo://app?vid=b4926d2f-e76d-4984-9c71-c6f34e018a37","ios":"levelo://app?vid=b4926d2f-e76d-4984-9c71-c6f34e018a37"},"vehicle_type_id":"4","last_reported":1683942937,"current_range_meters":30400,"station_id":"ce4bgop2rcd13ifvqc1g","pricing_plan_id":"free"},{"bike_id":"8d556473-a37e-478c-9308-cdfdfc56f8fe","system_id":"levelo_inurba_marseille","lat":43.297794,"lon":5.370888,"is_reserved":false,"is_disabled":false,"rental_uris":{"android":"levelo://app?vid=8d556473-a37e-478c-9308-cdfdfc56f8fe","ios":"levelo://app?vid=8d556473-a37e-478c-9308-cdfdfc56f8fe"},"vehicle_type_id":"4","last_reported":1683942937,"current_range_meters":27600,"station_id":"ce4bgop2rcd13ifvqc1g","pricing_plan_id":"free"},{"bike_id":"4e8d495f-48a2-4a59-a0a4-e2a0bd5ad11a","system_id":"levelo_inurba_marseille","lat":43.328371,"lon":5.366912,"is_reserved":false,"is_disabled":false,"rental_uris":{"android":"levelo://app?vid=4e8d495f-48a2-4a59-a0a4-e2a0bd5ad11a","ios":"levelo://app?vid=4e8d495f-48a2-4a59-a0a4-e2a0bd5ad11a"},"vehicle_type_id":"4","last_reported":1683942937,"current_range_meters":800,"station_id":"ce4bhs92rcd13ifvqi0g","pricing_plan_id":"free"},{"bike_id":"d2fd4a69-1781-4d10-b230-5796d7806c38","system_id":"levelo_inurba_marseille","lat":43.328371,"lon":5.366912,"is_reserved":false,"is_disabled":false,"rental_uris":{"android":"levelo://app?vid=d2fd4a69-1781-4d10-b230-5796d7806c38","ios":"levelo://app?vid=d2fd4a69-1781-4d10-b230-5796d7806c38"},"vehicle_type_id":"4","last_reported":1683942937,"current_range_meters":4000,"station_id":"ce4bhs92rcd13ifvqi0g","pricing_plan_id":"free"},{"bike_id":"053fa0fe-d0b8-4b77-9e9a-95a5b916daf2","system_id":"levelo_inurba_marseille","lat":43.328371,"lon":5.366912,"is_reserved":false,"is_disabled":false,"rental_uris":{"android":"levelo://app?vid=053fa0fe-d0b8-4b77-9e9a-95a5b916daf2","ios":"levelo://app?vid=053fa0fe-d0b8-4b77-9e9a-95a5b916daf2"},"vehicle_type_id":"4","last_reported":1683942937,"current_range_meters":2400,"station_id":"ce4bhs92rcd13ifvqi0g","pricing_plan_id":"free"},{"bike_id":"173c35b5-642e-4cd5-9a42-cf3fc117f00c","system_id":"levelo_inurba_marseille","lat":43.328371,"lon":5.366912,"is_reserved":false,"is_disabled":false,"rental_uris":{"android":"levelo://app?vid=173c35b5-642e-4cd5-9a42-cf3fc117f00c","ios":"levelo://app?vid=173c35b5-642e-4cd5-9a42-cf3fc117f00c"},"vehicle_type_id":"4","last_reported":1683942937,"current_range_meters":20000,"station_id":"ce4bhs92rcd13ifvqi0g","pricing_plan_id":"free"},{"bike_id":"86719306-0ddc-4576-a656-570a4d550f46","system_id":"levelo_inurba_marseille","lat":43.328371,"lon":5.366912,"is_reserved":false,"is_disabled":false,"rental_uris":{"android":"levelo://app?vid=86719306-0ddc-4576-a656-570a4d550f46","ios":"levelo://app?vid=86719306-0ddc-4576-a656-570a4d550f46"},"vehicle_type_id":"4","last_reported":1683942937,"current_range_meters":30800,"station_id":"ce4bhs92rcd13ifvqi0g","pricing_plan_id":"free"},{"bike_id":"35c64b45-67cb-4db8-8dde-84eb3cae14a9","system_id":"levelo_inurba_marseille","lat":43.328371,"lon":5.366912,"is_reserved":false,"is_disabled":false,"rental_uris":{"android":"levelo://app?vid=35c64b45-67cb-4db8-8dde-84eb3cae14a9","ios":"levelo://app?vid=35c64b45-67cb-4db8-8dde-84eb3cae14a9"},"vehicle_type_id":"4","last_reported":1683942937,"current_range_meters":30800,"station_id":"ce4bhs92rcd13ifvqi0g","pricing_plan_id":"free"},{"bike_id":"05dd3660-fb8d-4649-b95f-77a48f876534","system_id":"levelo_inurba_marseille","lat":43.32831,"lon":5.36682,"is_reserved":false,"is_disabled":false,"rental_uris":{"android":"levelo://app?vid=05dd3660-fb8d-4649-b95f-77a48f876534","ios":"levelo://app?vid=05dd3660-fb8d-4649-b95f-77a48f876534"},"vehicle_type_id":"4","last_reported":1683942937,"current_range_meters":4800,"station_id":"ce4bhs92rcd13ifvqi0g","pricing_plan_id":"free"},{"bike_id":"2ede4aa6-cb68-4708-8adb-810b72dccf8e","system_id":"levelo_inurba_marseille","lat":43.328371,"lon":5.366912,"is_reserved":false,"is_disabled":false,"rental_uris":{"android":"levelo://app?vid=2ede4aa6-cb68-4708-8adb-810b72dccf8e","ios":"levelo://app?vid=2ede4aa6-cb68-4708-8adb-810b72dccf8e"},"vehicle_type_id":"4","last_reported":1683942937,"current_range_meters":7200,"station_id":"ce4bhs92rcd13ifvqi0g","pricing_plan_id":"free"},{"bike_id":"8ea15e6b-0302-4f6b-a369-2130aebae5f9","system_id":"levelo_inurba_marseille","lat":43.328371,"lon":5.366912,"is_reserved":false,"is_disabled":false,"rental_uris":{"android":"levelo://app?vid=8ea15e6b-0302-4f6b-a369-2130aebae5f9","ios":"levelo://app?vid=8ea15e6b-0302-4f6b-a369-2130aebae5f9"},"vehicle_type_id":"4","last_reported":1683942937,"current_range_meters":14800,"station_id":"ce4bhs92rcd13ifvqi0g","pricing_plan_id":"free"},{"bike_id":"2f534b25-3d76-4ad4-bcb9-91101064834c","system_id":"levelo_inurba_marseille","lat":43.328371,"lon":5.366912,"is_reserved":false,"is_disabled":false,"rental_uris":{"android":"levelo://app?vid=2f534b25-3d76-4ad4-bcb9-91101064834c","ios":"levelo://app?vid=2f534b25-3d76-4ad4-bcb9-91101064834c"},"vehicle_type_id":"4","last_reported":1683942937,"current_range_meters":20000,"station_id":"ce4bhs92rcd13ifvqi0g","pricing_plan_id":"free"},{"bike_id":"0a5c6e50-cd6f-4800-a0e5-993347926bc8","system_id":"levelo_inurba_marseille","lat":43.328371,"lon":5.366912,"is_reserved":false,"is_disabled":false,"rental_uris":{"android":"levelo://app?vid=0a5c6e50-cd6f-4800-a0e5-993347926bc8","ios":"levelo://app?vid=0a5c6e50-cd6f-4800-a0e5-993347926bc8"},"vehicle_type_id":"4","last_reported":1683942937,"current_range_meters":14000,"station_id":"ce4bhs92rcd13ifvqi0g","pricing_plan_id":"free"},{"bike_id":"cef99b37-ce75-4b46-b1cf-0a1901f32937","system_id":"levelo_inurba_marseille","lat":43.29713,"lon":5.36611,"is_reserved":false,"is_disabled":false,"rental_uris":{"android":"levelo://app?vid=cef99b37-ce75-4b46-b1cf-0a1901f32937","ios":"levelo://app?vid=cef99b37-ce75-4b46-b1cf-0a1901f32937"},"vehicle_type_id":"4","last_reported":1683942937,"current_range_meters":0,"station_id":"","pricing_plan_id":"free"},{"bike_id":"8fc320a9-8d4d-4a0e-9ce0-be0eba272515","system_id":"levelo_inurba_marseille","lat":43.29686,"lon":5.36356,"is_reserved":false,"is_disabled":false,"rental_uris":{"android":"levelo://app?vid=8fc320a9-8d4d-4a0e-9ce0-be0eba272515","ios":"levelo://app?vid=8fc320a9-8d4d-4a0e-9ce0-be0eba272515"},"vehicle_type_id":"4","last_reported":1683942937,"current_range_meters":0,"station_id":"ce4bhop2rcd13ifvqh8g","pricing_plan_id":"free"},{"bike_id":"6448c133-4cd4-412c-ab72-14f60d954e8f","system_id":"levelo_inurba_marseille","lat":43.31528,"lon":5.38922,"is_reserved":false,"is_disabled":false,"rental_uris":{"android":"levelo://app?vid=6448c133-4cd4-412c-ab72-14f60d954e8f","ios":"levelo://app?vid=6448c133-4cd4-412c-ab72-14f60d954e8f"},"vehicle_type_id":"4","last_reported":1683942937,"current_range_meters":28400,"station_id":"","pricing_plan_id":"free"},{"bike_id":"69943245-a356-4d5c-b0a9-cd3bd6aa4169","system_id":"levelo_inurba_marseille","lat":43.296129,"lon":5.370777,"is_reserved":false,"is_disabled":false,"rental_uris":{"android":"levelo://app?vid=69943245-a356-4d5c-b0a9-cd3bd6aa4169","ios":"levelo://app?vid=69943245-a356-4d5c-b0a9-cd3bd6aa4169"},"vehicle_type_id":"4","last_reported":1683942937,"current_range_meters":18000,"station_id":"ce4bgnh2rcd13ifvqc0g","pricing_plan_id":"free"},{"bike_id":"b02d8ef8-e06c-4da1-97d4-22f1778d2702","system_id":"levelo_inurba_marseille","lat":43.29573,"lon":5.367355,"is_reserved":false,"is_disabled":false,"rental_uris":{"android":"levelo://app?vid=b02d8ef8-e06c-4da1-97d4-22f1778d2702","ios":"levelo://app?vid=b02d8ef8-e06c-4da1-97d4-22f1778d2702"},"vehicle_type_id":"4","last_reported":1683942937,"current_range_meters":30800,"station_id":"ce4bgph2rcd13ifvqc2g","pricing_plan_id":"free"},{"bike_id":"e62a4019-15e5-4aa8-ac87-39c5d1aaa8ba","system_id":"levelo_inurba_marseille","lat":43.30007,"lon":5.38245,"is_reserved":false,"is_disabled":false,"rental_uris":{"android":"levelo://app?vid=e62a4019-15e5-4aa8-ac87-39c5d1aaa8ba","ios":"levelo://app?vid=e62a4019-15e5-4aa8-ac87-39c5d1aaa8ba"},"vehicle_type_id":"4","last_reported":1683942937,"current_range_meters":2000,"station_id":"","pricing_plan_id":"free"},{"bike_id":"4575b7ac-e9a8-4cc0-a77a-7d893f503fcb","system_id":"levelo_inurba_marseille","lat":43.29728,"lon":5.37686,"is_reserved":false,"is_disabled":false,"rental_uris":{"android":"levelo://app?vid=4575b7ac-e9a8-4cc0-a77a-7d893f503fcb","ios":"levelo://app?vid=4575b7ac-e9a8-4cc0-a77a-7d893f503fcb"},"vehicle_type_id":"4","last_reported":1683942937,"current_range_meters":30400,"station_id":"","pricing_plan_id":"free"},{"bike_id":"ffb7a901-3afd-46cb-be11-97db12aac0c0","system_id":"levelo_inurba_marseille","lat":43.309589,"lon":5.390258,"is_reserved":false,"is_disabled":false,"rental_uris":{"android":"levelo://app?vid=ffb7a901-3afd-46cb-be11-97db12aac0c0","ios":"levelo://app?vid=ffb7a901-3afd-46cb-be11-97db12aac0c0"},"vehicle_type_id":"4","last_reported":1683942937,"current_range_meters":23600,"station_id":"ce4bgup2rcd13ifvqco0","pricing_plan_id":"free"},{"bike_id":"ae0c65f9-8b5b-42a8-8e73-e446a6a2d059","system_id":"levelo_inurba_marseille","lat":43.309589,"lon":5.390258,"is_reserved":false,"is_disabled":false,"rental_uris":{"android":"levelo://app?vid=ae0c65f9-8b5b-42a8-8e73-e446a6a2d059","ios":"levelo://app?vid=ae0c65f9-8b5b-42a8-8e73-e446a6a2d059"},"vehicle_type_id":"4","last_reported":1683942937,"current_range_meters":30800,"station_id":"ce4bgup2rcd13ifvqco0","pricing_plan_id":"free"},{"bike_id":"ebb64d41-4b06-49bb-a55c-b83574a6111f","system_id":"levelo_inurba_marseille","lat":43.31759,"lon":5.39005,"is_reserved":false,"is_disabled":false,"rental_uris":{"android":"levelo://app?vid=ebb64d41-4b06-49bb-a55c-b83574a6111f","ios":"levelo://app?vid=ebb64d41-4b06-49bb-a55c-b83574a6111f"},"vehicle_type_id":"4","last_reported":1683942937,"current_range_meters":4800,"station_id":"ce4bhqp2rcd13ifvqhng","pricing_plan_id":"free"},{"bike_id":"0650e49a-015b-44f1-924c-a1a866ca9995","system_id":"levelo_inurba_marseille","lat":43.31763,"lon":5.39008,"is_reserved":false,"is_disabled":false,"rental_uris":{"android":"levelo://app?vid=0650e49a-015b-44f1-924c-a1a866ca9995","ios":"levelo://app?vid=0650e49a-015b-44f1-924c-a1a866ca9995"},"vehicle_type_id":"4","last_reported":1683942937,"current_range_meters":31200,"station_id":"ce4bhqp2rcd13ifvqhng","pricing_plan_id":"free"},{"bike_id":"eb214527-8203-4410-a520-f2f2d1c67bb7","system_id":"levelo_inurba_marseille","lat":43.317557,"lon":5.390173,"is_reserved":false,"is_disabled":false,"rental_uris":{"android":"levelo://app?vid=eb214527-8203-4410-a520-f2f2d1c67bb7","ios":"levelo://app?vid=eb214527-8203-4410-a520-f2f2d1c67bb7"},"vehicle_type_id":"4","last_reported":1683942937,"current_range_meters":14000,"station_id":"ce4bhqp2rcd13ifvqhng","pricing_plan_id":"free"},{"bike_id":"8d249c4e-5841-43df-a8c1-1ee71a14ff90","system_id":"levelo_inurba_marseille","lat":43.31764,"lon":5.3901,"is_reserved":false,"is_disabled":false,"rental_uris":{"android":"levelo://app?vid=8d249c4e-5841-43df-a8c1-1ee71a14ff90","ios":"levelo://app?vid=8d249c4e-5841-43df-a8c1-1ee71a14ff90"},"vehicle_type_id":"4","last_reported":1683942937,"current_range_meters":31200,"station_id":"ce4bhqp2rcd13ifvqhng","pricing_plan_id":"free"},{"bike_id":"80b60f6f-28ee-4635-a30c-377c46bb9c86","system_id":"levelo_inurba_marseille","lat":43.317557,"lon":5.390173,"is_reserved":false,"is_disabled":false,"rental_uris":{"android":"levelo://app?vid=80b60f6f-28ee-4635-a30c-377c46bb9c86","ios":"levelo://app?vid=80b60f6f-28ee-4635-a30c-377c46bb9c86"},"vehicle_type_id":"4","last_reported":1683942937,"current_range_meters":18800,"station_id":"ce4bhqp2rcd13ifvqhng","pricing_plan_id":"free"},{"bike_id":"9b073571-1a2c-4358-b603-d58c72325fd8","system_id":"levelo_inurba_marseille","lat":43.31757,"lon":5.39014,"is_reserved":false,"is_disabled":false,"rental_uris":{"android":"levelo://app?vid=9b073571-1a2c-4358-b603-d58c72325fd8","ios":"levelo://app?vid=9b073571-1a2c-4358-b603-d58c72325fd8"},"vehicle_type_id":"4","last_reported":1683942937,"current_range_meters":13200,"station_id":"ce4bhqp2rcd13ifvqhng","pricing_plan_id":"free"},{"bike_id":"dd1c1a76-3fb2-4e01-9b5d-f3e6dd4c9e52","system_id":"levelo_inurba_marseille","lat":43.31763,"lon":5.39012,"is_reserved":false,"is_disabled":false,"rental_uris":{"android":"levelo://app?vid=dd1c1a76-3fb2-4e01-9b5d-f3e6dd4c9e52","ios":"levelo://app?vid=dd1c1a76-3fb2-4e01-9b5d-f3e6dd4c9e52"},"vehicle_type_id":"4","last_reported":1683942937,"current_range_meters":19200,"station_id":"ce4bhqp2rcd13ifvqhng","pricing_plan_id":"free"},{"bike_id":"7e101d88-7926-4513-a08a-b2a6fdb92c65","system_id":"levelo_inurba_marseille","lat":43.3176,"lon":5.39016,"is_reserved":false,"is_disabled":false,"rental_uris":{"android":"levelo://app?vid=7e101d88-7926-4513-a08a-b2a6fdb92c65","ios":"levelo://app?vid=7e101d88-7926-4513-a08a-b2a6fdb92c65"},"vehicle_type_id":"4","last_reported":1683942937,"current_range_meters":31200,"station_id":"ce4bhqp2rcd13ifvqhng","pricing_plan_id":"free"},{"bike_id":"1b8e8455-d974-44bb-9a4e-7e7867c76231","system_id":"levelo_inurba_marseille","lat":43.31763,"lon":5.39015,"is_reserved":false,"is_disabled":false,"rental_uris":{"android":"levelo://app?vid=1b8e8455-d974-44bb-9a4e-7e7867c76231","ios":"levelo://app?vid=1b8e8455-d974-44bb-9a4e-7e7867c76231"},"vehicle_type_id":"4","last_reported":1683942937,"current_range_meters":19200,"station_id":"ce4bhqp2rcd13ifvqhng","pricing_plan_id":"free"},{"bike_id":"536c91de-508f-41d3-bf9e-c825307fadf9","system_id":"levelo_inurba_marseille","lat":43.31764,"lon":5.39015,"is_reserved":false,"is_disabled":false,"rental_uris":{"android":"levelo://app?vid=536c91de-508f-41d3-bf9e-c825307fadf9","ios":"levelo://app?vid=536c91de-508f-41d3-bf9e-c825307fadf9"},"vehicle_type_id":"4","last_reported":1683942937,"current_range_meters":30800,"station_id":"ce4bhqp2rcd13ifvqhng","pricing_plan_id":"free"},{"bike_id":"01208a13-824a-4a94-be8d-2a48a5b6b683","system_id":"levelo_inurba_marseille","lat":43.3176,"lon":5.39026,"is_reserved":false,"is_disabled":false,"rental_uris":{"android":"levelo://app?vid=01208a13-824a-4a94-be8d-2a48a5b6b683","ios":"levelo://app?vid=01208a13-824a-4a94-be8d-2a48a5b6b683"},"vehicle_type_id":"4","last_reported":1683942937,"current_range_meters":11200,"station_id":"ce4bhqp2rcd13ifvqhng","pricing_plan_id":"free"},{"bike_id":"7ac9fe96-5fdf-44a5-bae3-0fa5f5331420","system_id":"levelo_inurba_marseille","lat":43.304278,"lon":5.388868,"is_reserved":false,"is_disabled":false,"rental_uris":{"android":"levelo://app?vid=7ac9fe96-5fdf-44a5-bae3-0fa5f5331420","ios":"levelo://app?vid=7ac9fe96-5fdf-44a5-bae3-0fa5f5331420"},"vehicle_type_id":"4","last_reported":1683942937,"current_range_meters":25600,"station_id":"ce4bgk12rcd13ifvqbi0","pricing_plan_id":"free"},{"bike_id":"afdbe2ea-a5ab-4b0b-94f7-ca102e4de36b","system_id":"levelo_inurba_marseille","lat":43.30441,"lon":5.38902,"is_reserved":false,"is_disabled":false,"rental_uris":{"android":"levelo://app?vid=afdbe2ea-a5ab-4b0b-94f7-ca102e4de36b","ios":"levelo://app?vid=afdbe2ea-a5ab-4b0b-94f7-ca102e4de36b"},"vehicle_type_id":"4","last_reported":1683942937,"current_range_meters":400,"station_id":"ce4bgk12rcd13ifvqbi0","pricing_plan_id":"free"},{"bike_id":"e58f389f-323e-4f9b-bcdc-1f9e400512d9","system_id":"levelo_inurba_marseille","lat":43.29971,"lon":5.38493,"is_reserved":false,"is_disabled":false,"rental_uris":{"android":"levelo://app?vid=e58f389f-323e-4f9b-bcdc-1f9e400512d9","ios":"levelo://app?vid=e58f389f-323e-4f9b-bcdc-1f9e400512d9"},"vehicle_type_id":"4","last_reported":1683942937,"current_range_meters":21200,"station_id":"ce4bgj92rcd13ifvqbd0","pricing_plan_id":"free"},{"bike_id":"dfe99f53-cb6f-41e9-ad71-605fb4e4dc5c","system_id":"levelo_inurba_marseille","lat":43.299724,"lon":5.384848,"is_reserved":false,"is_disabled":false,"rental_uris":{"android":"levelo://app?vid=dfe99f53-cb6f-41e9-ad71-605fb4e4dc5c","ios":"levelo://app?vid=dfe99f53-cb6f-41e9-ad71-605fb4e4dc5c"},"vehicle_type_id":"4","last_reported":1683942937,"current_range_meters":32000,"station_id":"ce4bgj92rcd13ifvqbd0","pricing_plan_id":"free"},{"bike_id":"f1c11bf8-70ef-4286-932e-6e369312ed0e","system_id":"levelo_inurba_marseille","lat":43.299724,"lon":5.384848,"is_reserved":false,"is_disabled":false,"rental_uris":{"android":"levelo://app?vid=f1c11bf8-70ef-4286-932e-6e369312ed0e","ios":"levelo://app?vid=f1c11bf8-70ef-4286-932e-6e369312ed0e"},"vehicle_type_id":"4","last_reported":1683942937,"current_range_meters":5600,"station_id":"ce4bgj92rcd13ifvqbd0","pricing_plan_id":"free"},{"bike_id":"98d43089-ff1e-40ee-a123-f18e174ce1c4","system_id":"levelo_inurba_marseille","lat":43.31447,"lon":5.39277,"is_reserved":false,"is_disabled":false,"rental_uris":{"android":"levelo://app?vid=98d43089-ff1e-40ee-a123-f18e174ce1c4","ios":"levelo://app?vid=98d43089-ff1e-40ee-a123-f18e174ce1c4"},"vehicle_type_id":"4","last_reported":1683942937,"current_range_meters":5600,"station_id":"","pricing_plan_id":"free"},{"bike_id":"6f6b02ce-a50b-443a-a31d-aed834771e7b","system_id":"levelo_inurba_marseille","lat":43.31443,"lon":5.39288,"is_reserved":false,"is_disabled":false,"rental_uris":{"android":"levelo://app?vid=6f6b02ce-a50b-443a-a31d-aed834771e7b","ios":"levelo://app?vid=6f6b02ce-a50b-443a-a31d-aed834771e7b"},"vehicle_type_id":"4","last_reported":1683942937,"current_range_meters":8000,"station_id":"","pricing_plan_id":"free"},{"bike_id":"df7647b1-99a9-4742-b9f2-9d2bc408c020","system_id":"levelo_inurba_marseille","lat":43.29479,"lon":5.37865,"is_reserved":false,"is_disabled":false,"rental_uris":{"android":"levelo://app?vid=df7647b1-99a9-4742-b9f2-9d2bc408c020","ios":"levelo://app?vid=df7647b1-99a9-4742-b9f2-9d2bc408c020"},"vehicle_type_id":"4","last_reported":1683942937,"current_range_meters":26800,"station_id":"","pricing_plan_id":"free"},{"bike_id":"c31ed706-acb7-4590-bf93-18221a0610f1","system_id":"levelo_inurba_marseille","lat":43.305994,"lon":5.393687,"is_reserved":false,"is_disabled":false,"rental_uris":{"android":"levelo://app?vid=c31ed706-acb7-4590-bf93-18221a0610f1","ios":"levelo://app?vid=c31ed706-acb7-4590-bf93-18221a0610f1"},"vehicle_type_id":"4","last_reported":1683942937,"current_range_meters":22800,"station_id":"ce4bh0p2rcd13ifvqd80","pricing_plan_id":"free"},{"bike_id":"64e78328-f834-493a-bf00-dea47e7a2b79","system_id":"levelo_inurba_marseille","lat":43.305994,"lon":5.393687,"is_reserved":false,"is_disabled":false,"rental_uris":{"android":"levelo://app?vid=64e78328-f834-493a-bf00-dea47e7a2b79","ios":"levelo://app?vid=64e78328-f834-493a-bf00-dea47e7a2b79"},"vehicle_type_id":"4","last_reported":1683942937,"current_range_meters":5600,"station_id":"ce4bh0p2rcd13ifvqd80","pricing_plan_id":"free"},{"bike_id":"8cf907cb-4e6d-4705-95c9-9edcf344d7a9","system_id":"levelo_inurba_marseille","lat":43.305994,"lon":5.393687,"is_reserved":false,"is_disabled":false,"rental_uris":{"android":"levelo://app?vid=8cf907cb-4e6d-4705-95c9-9edcf344d7a9","ios":"levelo://app?vid=8cf907cb-4e6d-4705-95c9-9edcf344d7a9"},"vehicle_type_id":"4","last_reported":1683942937,"current_range_meters":28000,"station_id":"ce4bh0p2rcd13ifvqd80","pricing_plan_id":"free"},{"bike_id":"fa6c3f47-d0d7-4161-a001-9330bdf69277","system_id":"levelo_inurba_marseille","lat":43.305994,"lon":5.393687,"is_reserved":false,"is_disabled":false,"rental_uris":{"android":"levelo://app?vid=fa6c3f47-d0d7-4161-a001-9330bdf69277","ios":"levelo://app?vid=fa6c3f47-d0d7-4161-a001-9330bdf69277"},"vehicle_type_id":"4","last_reported":1683942937,"current_range_meters":9600,"station_id":"ce4bh0p2rcd13ifvqd80","pricing_plan_id":"free"},{"bike_id":"ee5e4d6f-0246-4778-83bf-aef29022fe97","system_id":"levelo_inurba_marseille","lat":43.302992,"lon":5.392136,"is_reserved":false,"is_disabled":false,"rental_uris":{"android":"levelo://app?vid=ee5e4d6f-0246-4778-83bf-aef29022fe97","ios":"levelo://app?vid=ee5e4d6f-0246-4778-83bf-aef29022fe97"},"vehicle_type_id":"4","last_reported":1683942937,"current_range_meters":7600,"station_id":"ce4bgkh2rcd13ifvqbk0","pricing_plan_id":"free"},{"bike_id":"94cfdd85-7708-4d18-8858-9edd985a492a","system_id":"levelo_inurba_marseille","lat":43.309038,"lon":5.396546,"is_reserved":false,"is_disabled":false,"rental_uris":{"android":"levelo://app?vid=94cfdd85-7708-4d18-8858-9edd985a492a","ios":"levelo://app?vid=94cfdd85-7708-4d18-8858-9edd985a492a"},"vehicle_type_id":"4","last_reported":1683942937,"current_range_meters":31200,"station_id":"ce4bh012rcd13ifvqcv0","pricing_plan_id":"free"},{"bike_id":"ebe7a3c3-9add-4be2-9d92-63b05eb0fafe","system_id":"levelo_inurba_marseille","lat":43.309038,"lon":5.396546,"is_reserved":false,"is_disabled":false,"rental_uris":{"android":"levelo://app?vid=ebe7a3c3-9add-4be2-9d92-63b05eb0fafe","ios":"levelo://app?vid=ebe7a3c3-9add-4be2-9d92-63b05eb0fafe"},"vehicle_type_id":"4","last_reported":1683942937,"current_range_meters":5600,"station_id":"ce4bh012rcd13ifvqcv0","pricing_plan_id":"free"},{"bike_id":"eddbf360-b344-4aa6-ae3b-7ce9c881ea10","system_id":"levelo_inurba_marseille","lat":43.309038,"lon":5.396546,"is_reserved":false,"is_disabled":false,"rental_uris":{"android":"levelo://app?vid=eddbf360-b344-4aa6-ae3b-7ce9c881ea10","ios":"levelo://app?vid=eddbf360-b344-4aa6-ae3b-7ce9c881ea10"},"vehicle_type_id":"4","last_reported":1683942937,"current_range_meters":16400,"station_id":"ce4bh012rcd13ifvqcv0","pricing_plan_id":"free"},{"bike_id":"0d17488f-4cc0-4c1b-a45d-b7eabcae8585","system_id":"levelo_inurba_marseille","lat":43.292,"lon":5.35804,"is_reserved":false,"is_disabled":false,"rental_uris":{"android":"levelo://app?vid=0d17488f-4cc0-4c1b-a45d-b7eabcae8585","ios":"levelo://app?vid=0d17488f-4cc0-4c1b-a45d-b7eabcae8585"},"vehicle_type_id":"4","last_reported":1683942937,"current_range_meters":6000,"station_id":"","pricing_plan_id":"free"},{"bike_id":"1fc2ebab-8602-40c6-ad3d-33e08383f9df","system_id":"levelo_inurba_marseille","lat":43.309038,"lon":5.396546,"is_reserved":false,"is_disabled":false,"rental_uris":{"android":"levelo://app?vid=1fc2ebab-8602-40c6-ad3d-33e08383f9df","ios":"levelo://app?vid=1fc2ebab-8602-40c6-ad3d-33e08383f9df"},"vehicle_type_id":"4","last_reported":1683942937,"current_range_meters":15200,"station_id":"ce4bh012rcd13ifvqcv0","pricing_plan_id":"free"},{"bike_id":"1f08c3cb-ba17-4d1b-9c29-da16e9aaf7c4","system_id":"levelo_inurba_marseille","lat":43.309038,"lon":5.396546,"is_reserved":false,"is_disabled":false,"rental_uris":{"android":"levelo://app?vid=1f08c3cb-ba17-4d1b-9c29-da16e9aaf7c4","ios":"levelo://app?vid=1f08c3cb-ba17-4d1b-9c29-da16e9aaf7c4"},"vehicle_type_id":"4","last_reported":1683942937,"current_range_meters":16000,"station_id":"ce4bh012rcd13ifvqcv0","pricing_plan_id":"free"},{"bike_id":"24c62268-52e4-43c5-a578-1a2673aa3ec8","system_id":"levelo_inurba_marseille","lat":43.309038,"lon":5.396546,"is_reserved":false,"is_disabled":false,"rental_uris":{"android":"levelo://app?vid=24c62268-52e4-43c5-a578-1a2673aa3ec8","ios":"levelo://app?vid=24c62268-52e4-43c5-a578-1a2673aa3ec8"},"vehicle_type_id":"4","last_reported":1683942937,"current_range_meters":12400,"station_id":"ce4bh012rcd13ifvqcv0","pricing_plan_id":"free"},{"bike_id":"560ea34e-feb5-4660-9bff-cf551c95db90","system_id":"levelo_inurba_marseille","lat":43.309038,"lon":5.396546,"is_reserved":false,"is_disabled":false,"rental_uris":{"android":"levelo://app?vid=560ea34e-feb5-4660-9bff-cf551c95db90","ios":"levelo://app?vid=560ea34e-feb5-4660-9bff-cf551c95db90"},"vehicle_type_id":"4","last_reported":1683942937,"current_range_meters":17600,"station_id":"ce4bh012rcd13ifvqcv0","pricing_plan_id":"free"},{"bike_id":"53227ca6-0425-4d55-aa20-ae2d700371fc","system_id":"levelo_inurba_marseille","lat":43.309038,"lon":5.396546,"is_reserved":false,"is_disabled":false,"rental_uris":{"android":"levelo://app?vid=53227ca6-0425-4d55-aa20-ae2d700371fc","ios":"levelo://app?vid=53227ca6-0425-4d55-aa20-ae2d700371fc"},"vehicle_type_id":"4","last_reported":1683942937,"current_range_meters":18800,"station_id":"ce4bh012rcd13ifvqcv0","pricing_plan_id":"free"},{"bike_id":"09f9f13c-b260-4bf3-b060-fb742ab550de","system_id":"levelo_inurba_marseille","lat":43.309038,"lon":5.396546,"is_reserved":false,"is_disabled":false,"rental_uris":{"android":"levelo://app?vid=09f9f13c-b260-4bf3-b060-fb742ab550de","ios":"levelo://app?vid=09f9f13c-b260-4bf3-b060-fb742ab550de"},"vehicle_type_id":"4","last_reported":1683942937,"current_range_meters":9600,"station_id":"ce4bh012rcd13ifvqcv0","pricing_plan_id":"free"},{"bike_id":"d75cf240-9da0-47cb-81a1-8e3a47f18ac4","system_id":"levelo_inurba_marseille","lat":43.309038,"lon":5.396546,"is_reserved":false,"is_disabled":false,"rental_uris":{"android":"levelo://app?vid=d75cf240-9da0-47cb-81a1-8e3a47f18ac4","ios":"levelo://app?vid=d75cf240-9da0-47cb-81a1-8e3a47f18ac4"},"vehicle_type_id":"4","last_reported":1683942937,"current_range_meters":22800,"station_id":"ce4bh012rcd13ifvqcv0","pricing_plan_id":"free"},{"bike_id":"0bbb37bf-7d4e-4900-9190-22e7fc2aba37","system_id":"levelo_inurba_marseille","lat":43.309038,"lon":5.396546,"is_reserved":false,"is_disabled":false,"rental_uris":{"android":"levelo://app?vid=0bbb37bf-7d4e-4900-9190-22e7fc2aba37","ios":"levelo://app?vid=0bbb37bf-7d4e-4900-9190-22e7fc2aba37"},"vehicle_type_id":"4","last_reported":1683942937,"current_range_meters":10800,"station_id":"ce4bh012rcd13ifvqcv0","pricing_plan_id":"free"},{"bike_id":"6bb621e5-1f68-49c0-8542-522f8f921701","system_id":"levelo_inurba_marseille","lat":43.313291,"lon":5.396838,"is_reserved":false,"is_disabled":false,"rental_uris":{"android":"levelo://app?vid=6bb621e5-1f68-49c0-8542-522f8f921701","ios":"levelo://app?vid=6bb621e5-1f68-49c0-8542-522f8f921701"},"vehicle_type_id":"4","last_reported":1683942937,"current_range_meters":23200,"station_id":"ce4bgvp2rcd13ifvqcu0","pricing_plan_id":"free"},{"bike_id":"ebc73a4d-3b94-494c-90e9-f157a2b3e2b4","system_id":"levelo_inurba_marseille","lat":43.313291,"lon":5.396838,"is_reserved":false,"is_disabled":false,"rental_uris":{"android":"levelo://app?vid=ebc73a4d-3b94-494c-90e9-f157a2b3e2b4","ios":"levelo://app?vid=ebc73a4d-3b94-494c-90e9-f157a2b3e2b4"},"vehicle_type_id":"4","last_reported":1683942937,"current_range_meters":0,"station_id":"ce4bgvp2rcd13ifvqcu0","pricing_plan_id":"free"},{"bike_id":"43ea94fb-f0bc-48af-bd2d-c866d6def370","system_id":"levelo_inurba_marseille","lat":43.29195,"lon":5.35793,"is_reserved":false,"is_disabled":false,"rental_uris":{"android":"levelo://app?vid=43ea94fb-f0bc-48af-bd2d-c866d6def370","ios":"levelo://app?vid=43ea94fb-f0bc-48af-bd2d-c866d6def370"},"vehicle_type_id":"4","last_reported":1683942937,"current_range_meters":22400,"station_id":"ce4bhb12rcd13ifvqel0","pricing_plan_id":"free"},{"bike_id":"5e0fe48c-9999-435d-8555-0880eb5fe992","system_id":"levelo_inurba_marseille","lat":43.29195,"lon":5.3579,"is_reserved":false,"is_disabled":false,"rental_uris":{"android":"levelo://app?vid=5e0fe48c-9999-435d-8555-0880eb5fe992","ios":"levelo://app?vid=5e0fe48c-9999-435d-8555-0880eb5fe992"},"vehicle_type_id":"4","last_reported":1683942937,"current_range_meters":26000,"station_id":"ce4bhb12rcd13ifvqel0","pricing_plan_id":"free"},{"bike_id":"9e44de62-a7d8-4edf-8023-596538001931","system_id":"levelo_inurba_marseille","lat":43.31331,"lon":5.39689,"is_reserved":false,"is_disabled":false,"rental_uris":{"android":"levelo://app?vid=9e44de62-a7d8-4edf-8023-596538001931","ios":"levelo://app?vid=9e44de62-a7d8-4edf-8023-596538001931"},"vehicle_type_id":"4","last_reported":1683942937,"current_range_meters":2400,"station_id":"ce4bgvp2rcd13ifvqcu0","pricing_plan_id":"free"},{"bike_id":"52340b16-2be2-42b5-97f1-1ada32a028a4","system_id":"levelo_inurba_marseille","lat":43.313291,"lon":5.396838,"is_reserved":false,"is_disabled":false,"rental_uris":{"android":"levelo://app?vid=52340b16-2be2-42b5-97f1-1ada32a028a4","ios":"levelo://app?vid=52340b16-2be2-42b5-97f1-1ada32a028a4"},"vehicle_type_id":"4","last_reported":1683942937,"current_range_meters":22800,"station_id":"ce4bgvp2rcd13ifvqcu0","pricing_plan_id":"free"},{"bike_id":"54558b69-c4ac-4523-b52f-5d2188aa05a7","system_id":"levelo_inurba_marseille","lat":43.313291,"lon":5.396838,"is_reserved":false,"is_disabled":false,"rental_uris":{"android":"levelo://app?vid=54558b69-c4ac-4523-b52f-5d2188aa05a7","ios":"levelo://app?vid=54558b69-c4ac-4523-b52f-5d2188aa05a7"},"vehicle_type_id":"4","last_reported":1683942937,"current_range_meters":13200,"station_id":"ce4bgvp2rcd13ifvqcu0","pricing_plan_id":"free"},{"bike_id":"b1dbe5d2-9911-4db5-b317-0332f405d3d1","system_id":"levelo_inurba_marseille","lat":43.29191,"lon":5.35798,"is_reserved":false,"is_disabled":false,"rental_uris":{"android":"levelo://app?vid=b1dbe5d2-9911-4db5-b317-0332f405d3d1","ios":"levelo://app?vid=b1dbe5d2-9911-4db5-b317-0332f405d3d1"},"vehicle_type_id":"4","last_reported":1683942937,"current_range_meters":7600,"station_id":"","pricing_plan_id":"free"},{"bike_id":"0e82fd84-418d-454b-8e14-8643e766a0fd","system_id":"levelo_inurba_marseille","lat":43.309038,"lon":5.396546,"is_reserved":false,"is_disabled":false,"rental_uris":{"android":"levelo://app?vid=0e82fd84-418d-454b-8e14-8643e766a0fd","ios":"levelo://app?vid=0e82fd84-418d-454b-8e14-8643e766a0fd"},"vehicle_type_id":"4","last_reported":1683942937,"current_range_meters":21600,"station_id":"ce4bh012rcd13ifvqcv0","pricing_plan_id":"free"},{"bike_id":"d558ad10-29e7-4da3-9ee1-d9b891a8f7cd","system_id":"levelo_inurba_marseille","lat":43.313291,"lon":5.396838,"is_reserved":false,"is_disabled":false,"rental_uris":{"android":"levelo://app?vid=d558ad10-29e7-4da3-9ee1-d9b891a8f7cd","ios":"levelo://app?vid=d558ad10-29e7-4da3-9ee1-d9b891a8f7cd"},"vehicle_type_id":"4","last_reported":1683942937,"current_range_meters":11200,"station_id":"ce4bgvp2rcd13ifvqcu0","pricing_plan_id":"free"},{"bike_id":"a7ebd004-1e3c-4880-b2ba-b7d2ecce3f80","system_id":"levelo_inurba_marseille","lat":43.31328,"lon":5.39695,"is_reserved":false,"is_disabled":false,"rental_uris":{"android":"levelo://app?vid=a7ebd004-1e3c-4880-b2ba-b7d2ecce3f80","ios":"levelo://app?vid=a7ebd004-1e3c-4880-b2ba-b7d2ecce3f80"},"vehicle_type_id":"4","last_reported":1683942937,"current_range_meters":2800,"station_id":"ce4bgvp2rcd13ifvqcu0","pricing_plan_id":"free"},{"bike_id":"9e407051-9c0b-40fc-bdef-6d710c7134dd","system_id":"levelo_inurba_marseille","lat":43.302008,"lon":5.394694,"is_reserved":false,"is_disabled":false,"rental_uris":{"android":"levelo://app?vid=9e407051-9c0b-40fc-bdef-6d710c7134dd","ios":"levelo://app?vid=9e407051-9c0b-40fc-bdef-6d710c7134dd"},"vehicle_type_id":"4","last_reported":1683942937,"current_range_meters":6400,"station_id":"ce4bh0p2rcd13ifvqd70","pricing_plan_id":"free"},{"bike_id":"4cc07a8e-1da3-4356-8751-f1f628ad9061","system_id":"levelo_inurba_marseille","lat":43.302008,"lon":5.394694,"is_reserved":false,"is_disabled":false,"rental_uris":{"android":"levelo://app?vid=4cc07a8e-1da3-4356-8751-f1f628ad9061","ios":"levelo://app?vid=4cc07a8e-1da3-4356-8751-f1f628ad9061"},"vehicle_type_id":"4","last_reported":1683942937,"current_range_meters":27600,"station_id":"ce4bh0p2rcd13ifvqd70","pricing_plan_id":"free"},{"bike_id":"28637bd6-8dbc-47e8-9b76-4f5f79c950b2","system_id":"levelo_inurba_marseille","lat":43.302008,"lon":5.394694,"is_reserved":false,"is_disabled":false,"rental_uris":{"android":"levelo://app?vid=28637bd6-8dbc-47e8-9b76-4f5f79c950b2","ios":"levelo://app?vid=28637bd6-8dbc-47e8-9b76-4f5f79c950b2"},"vehicle_type_id":"4","last_reported":1683942937,"current_range_meters":16000,"station_id":"ce4bh0p2rcd13ifvqd70","pricing_plan_id":"free"},{"bike_id":"4751a8d1-aa0d-47d5-94dd-01d6a01b4e2d","system_id":"levelo_inurba_marseille","lat":43.302008,"lon":5.394694,"is_reserved":false,"is_disabled":false,"rental_uris":{"android":"levelo://app?vid=4751a8d1-aa0d-47d5-94dd-01d6a01b4e2d","ios":"levelo://app?vid=4751a8d1-aa0d-47d5-94dd-01d6a01b4e2d"},"vehicle_type_id":"4","last_reported":1683942937,"current_range_meters":5200,"station_id":"ce4bh0p2rcd13ifvqd70","pricing_plan_id":"free"},{"bike_id":"108358c4-ff24-4094-8b22-74ebdfce5a5d","system_id":"levelo_inurba_marseille","lat":43.290624,"lon":5.359245,"is_reserved":false,"is_disabled":false,"rental_uris":{"android":"levelo://app?vid=108358c4-ff24-4094-8b22-74ebdfce5a5d","ios":"levelo://app?vid=108358c4-ff24-4094-8b22-74ebdfce5a5d"},"vehicle_type_id":"4","last_reported":1683942937,"current_range_meters":31600,"station_id":"ce4bha92rcd13ifvqeg0","pricing_plan_id":"free"},{"bike_id":"9f129774-36e1-42f1-8229-a7c2be11d89e","system_id":"levelo_inurba_marseille","lat":43.30492,"lon":5.39697,"is_reserved":false,"is_disabled":false,"rental_uris":{"android":"levelo://app?vid=9f129774-36e1-42f1-8229-a7c2be11d89e","ios":"levelo://app?vid=9f129774-36e1-42f1-8229-a7c2be11d89e"},"vehicle_type_id":"4","last_reported":1683942937,"current_range_meters":22000,"station_id":"","pricing_plan_id":"free"},{"bike_id":"bedee10e-5dfc-450e-8b51-ca83bf1109a6","system_id":"levelo_inurba_marseille","lat":43.30493,"lon":5.397,"is_reserved":false,"is_disabled":false,"rental_uris":{"android":"levelo://app?vid=bedee10e-5dfc-450e-8b51-ca83bf1109a6","ios":"levelo://app?vid=bedee10e-5dfc-450e-8b51-ca83bf1109a6"},"vehicle_type_id":"4","last_reported":1683942937,"current_range_meters":4800,"station_id":"","pricing_plan_id":"free"},{"bike_id":"61231e31-1dc5-4e62-9c0e-94062e78d852","system_id":"levelo_inurba_marseille","lat":43.29411,"lon":5.38614,"is_reserved":false,"is_disabled":false,"rental_uris":{"android":"levelo://app?vid=61231e31-1dc5-4e62-9c0e-94062e78d852","ios":"levelo://app?vid=61231e31-1dc5-4e62-9c0e-94062e78d852"},"vehicle_type_id":"4","last_reported":1683942937,"current_range_meters":4800,"station_id":"ce4bh112rcd13ifvqda0","pricing_plan_id":"free"},{"bike_id":"f6c188ff-05a2-4446-86d5-f5f746dcb954","system_id":"levelo_inurba_marseille","lat":43.28945,"lon":5.36632,"is_reserved":false,"is_disabled":false,"rental_uris":{"android":"levelo://app?vid=f6c188ff-05a2-4446-86d5-f5f746dcb954","ios":"levelo://app?vid=f6c188ff-05a2-4446-86d5-f5f746dcb954"},"vehicle_type_id":"4","last_reported":1683942937,"current_range_meters":23600,"station_id":"","pricing_plan_id":"free"},{"bike_id":"3dd0b3bc-f06e-40f4-be2b-e6dfd7420021","system_id":"levelo_inurba_marseille","lat":43.28943,"lon":5.36629,"is_reserved":false,"is_disabled":false,"rental_uris":{"android":"levelo://app?vid=3dd0b3bc-f06e-40f4-be2b-e6dfd7420021","ios":"levelo://app?vid=3dd0b3bc-f06e-40f4-be2b-e6dfd7420021"},"vehicle_type_id":"4","last_reported":1683942937,"current_range_meters":31200,"station_id":"","pricing_plan_id":"free"},{"bike_id":"74143c33-6eb8-4cef-bea3-c1c98ef59721","system_id":"levelo_inurba_marseille","lat":43.28938,"lon":5.36634,"is_reserved":false,"is_disabled":false,"rental_uris":{"android":"levelo://app?vid=74143c33-6eb8-4cef-bea3-c1c98ef59721","ios":"levelo://app?vid=74143c33-6eb8-4cef-bea3-c1c98ef59721"},"vehicle_type_id":"4","last_reported":1683942937,"current_range_meters":22000,"station_id":"ce4bhap2rcd13ifvqek0","pricing_plan_id":"free"},{"bike_id":"d1e26f83-36d5-4390-bcad-2ce49be85a32","system_id":"levelo_inurba_marseille","lat":43.28937,"lon":5.36625,"is_reserved":false,"is_disabled":false,"rental_uris":{"android":"levelo://app?vid=d1e26f83-36d5-4390-bcad-2ce49be85a32","ios":"levelo://app?vid=d1e26f83-36d5-4390-bcad-2ce49be85a32"},"vehicle_type_id":"4","last_reported":1683942937,"current_range_meters":31200,"station_id":"ce4bhap2rcd13ifvqek0","pricing_plan_id":"free"},{"bike_id":"9d22aa05-9386-4e54-ba29-93ba515876d0","system_id":"levelo_inurba_marseille","lat":43.28937,"lon":5.36623,"is_reserved":false,"is_disabled":false,"rental_uris":{"android":"levelo://app?vid=9d22aa05-9386-4e54-ba29-93ba515876d0","ios":"levelo://app?vid=9d22aa05-9386-4e54-ba29-93ba515876d0"},"vehicle_type_id":"4","last_reported":1683942937,"current_range_meters":0,"station_id":"ce4bhap2rcd13ifvqek0","pricing_plan_id":"free"},{"bike_id":"c91410ec-2afb-4195-ba1e-128fb207a1e8","system_id":"levelo_inurba_marseille","lat":43.289184,"lon":5.366408,"is_reserved":false,"is_disabled":false,"rental_uris":{"android":"levelo://app?vid=c91410ec-2afb-4195-ba1e-128fb207a1e8","ios":"levelo://app?vid=c91410ec-2afb-4195-ba1e-128fb207a1e8"},"vehicle_type_id":"4","last_reported":1683942937,"current_range_meters":10400,"station_id":"ce4bhap2rcd13ifvqek0","pricing_plan_id":"free"},{"bike_id":"3a751574-2c55-4cb4-b48d-f43e7e2dfb83","system_id":"levelo_inurba_marseille","lat":43.289184,"lon":5.366408,"is_reserved":false,"is_disabled":false,"rental_uris":{"android":"levelo://app?vid=3a751574-2c55-4cb4-b48d-f43e7e2dfb83","ios":"levelo://app?vid=3a751574-2c55-4cb4-b48d-f43e7e2dfb83"},"vehicle_type_id":"4","last_reported":1683942937,"current_range_meters":3200,"station_id":"ce4bhap2rcd13ifvqek0","pricing_plan_id":"free"},{"bike_id":"3cacd10a-194d-4ff1-b6ed-416a601252e4","system_id":"levelo_inurba_marseille","lat":43.289184,"lon":5.366408,"is_reserved":false,"is_disabled":false,"rental_uris":{"android":"levelo://app?vid=3cacd10a-194d-4ff1-b6ed-416a601252e4","ios":"levelo://app?vid=3cacd10a-194d-4ff1-b6ed-416a601252e4"},"vehicle_type_id":"4","last_reported":1683942937,"current_range_meters":31600,"station_id":"ce4bhap2rcd13ifvqek0","pricing_plan_id":"free"},{"bike_id":"be659864-5c02-4d66-9524-060b146bc46a","system_id":"levelo_inurba_marseille","lat":43.2938,"lon":5.385874,"is_reserved":false,"is_disabled":false,"rental_uris":{"android":"levelo://app?vid=be659864-5c02-4d66-9524-060b146bc46a","ios":"levelo://app?vid=be659864-5c02-4d66-9524-060b146bc46a"},"vehicle_type_id":"4","last_reported":1683942937,"current_range_meters":27200,"station_id":"","pricing_plan_id":"free"},{"bike_id":"6f2daaf5-e681-4b56-870e-341f26850771","system_id":"levelo_inurba_marseille","lat":43.289184,"lon":5.366408,"is_reserved":false,"is_disabled":false,"rental_uris":{"android":"levelo://app?vid=6f2daaf5-e681-4b56-870e-341f26850771","ios":"levelo://app?vid=6f2daaf5-e681-4b56-870e-341f26850771"},"vehicle_type_id":"4","last_reported":1683942937,"current_range_meters":29200,"station_id":"ce4bhap2rcd13ifvqek0","pricing_plan_id":"free"},{"bike_id":"05b7eebc-cb2a-4b19-b944-079b21ca91c1","system_id":"levelo_inurba_marseille","lat":43.289184,"lon":5.366408,"is_reserved":false,"is_disabled":false,"rental_uris":{"android":"levelo://app?vid=05b7eebc-cb2a-4b19-b944-079b21ca91c1","ios":"levelo://app?vid=05b7eebc-cb2a-4b19-b944-079b21ca91c1"},"vehicle_type_id":"4","last_reported":1683942937,"current_range_meters":29200,"station_id":"ce4bhap2rcd13ifvqek0","pricing_plan_id":"free"},{"bike_id":"10a1106d-dcdc-4f65-812f-064798fa3892","system_id":"levelo_inurba_marseille","lat":43.289468,"lon":5.363719,"is_reserved":false,"is_disabled":false,"rental_uris":{"android":"levelo://app?vid=10a1106d-dcdc-4f65-812f-064798fa3892","ios":"levelo://app?vid=10a1106d-dcdc-4f65-812f-064798fa3892"},"vehicle_type_id":"4","last_reported":1683942937,"current_range_meters":27200,"station_id":"ce4bhc92rcd13ifvqetg","pricing_plan_id":"free"},{"bike_id":"0f21ed00-5fe3-492d-b845-cbabd5c58595","system_id":"levelo_inurba_marseille","lat":43.289468,"lon":5.363719,"is_reserved":false,"is_disabled":false,"rental_uris":{"android":"levelo://app?vid=0f21ed00-5fe3-492d-b845-cbabd5c58595","ios":"levelo://app?vid=0f21ed00-5fe3-492d-b845-cbabd5c58595"},"vehicle_type_id":"4","last_reported":1683942937,"current_range_meters":28800,"station_id":"ce4bhc92rcd13ifvqetg","pricing_plan_id":"free"},{"bike_id":"d9c65fb5-b538-43a6-8b06-cce8ee9f5b2a","system_id":"levelo_inurba_marseille","lat":43.33043,"lon":5.38919,"is_reserved":false,"is_disabled":false,"rental_uris":{"android":"levelo://app?vid=d9c65fb5-b538-43a6-8b06-cce8ee9f5b2a","ios":"levelo://app?vid=d9c65fb5-b538-43a6-8b06-cce8ee9f5b2a"},"vehicle_type_id":"4","last_reported":1683942937,"current_range_meters":30400,"station_id":"ce4bhr92rcd13ifvqhrg","pricing_plan_id":"free"},{"bike_id":"4bd08121-01c0-44b3-b00a-2ecfcb89cc44","system_id":"levelo_inurba_marseille","lat":43.33046,"lon":5.38918,"is_reserved":false,"is_disabled":false,"rental_uris":{"android":"levelo://app?vid=4bd08121-01c0-44b3-b00a-2ecfcb89cc44","ios":"levelo://app?vid=4bd08121-01c0-44b3-b00a-2ecfcb89cc44"},"vehicle_type_id":"4","last_reported":1683942937,"current_range_meters":1200,"station_id":"ce4bhr92rcd13ifvqhrg","pricing_plan_id":"free"},{"bike_id":"99d11ff8-cd4f-4243-907c-822c17bc769b","system_id":"levelo_inurba_marseille","lat":43.33048,"lon":5.38915,"is_reserved":false,"is_disabled":false,"rental_uris":{"android":"levelo://app?vid=99d11ff8-cd4f-4243-907c-822c17bc769b","ios":"levelo://app?vid=99d11ff8-cd4f-4243-907c-822c17bc769b"},"vehicle_type_id":"4","last_reported":1683942937,"current_range_meters":22400,"station_id":"ce4bhr92rcd13ifvqhrg","pricing_plan_id":"free"},{"bike_id":"754ef565-0150-4f0d-8c0d-a8a5d6927613","system_id":"levelo_inurba_marseille","lat":43.33045,"lon":5.38923,"is_reserved":false,"is_disabled":false,"rental_uris":{"android":"levelo://app?vid=754ef565-0150-4f0d-8c0d-a8a5d6927613","ios":"levelo://app?vid=754ef565-0150-4f0d-8c0d-a8a5d6927613"},"vehicle_type_id":"4","last_reported":1683942937,"current_range_meters":21200,"station_id":"ce4bhr92rcd13ifvqhrg","pricing_plan_id":"free"},{"bike_id":"7acd5cc0-0437-4831-beeb-33c425da9dc9","system_id":"levelo_inurba_marseille","lat":43.28856,"lon":5.358371,"is_reserved":false,"is_disabled":false,"rental_uris":{"android":"levelo://app?vid=7acd5cc0-0437-4831-beeb-33c425da9dc9","ios":"levelo://app?vid=7acd5cc0-0437-4831-beeb-33c425da9dc9"},"vehicle_type_id":"4","last_reported":1683942937,"current_range_meters":22800,"station_id":"ce4bhb12rcd13ifvqem0","pricing_plan_id":"free"},{"bike_id":"915f3e87-56b0-45c7-94e1-33fbf7fb2c5c","system_id":"levelo_inurba_marseille","lat":43.28856,"lon":5.358371,"is_reserved":false,"is_disabled":false,"rental_uris":{"android":"levelo://app?vid=915f3e87-56b0-45c7-94e1-33fbf7fb2c5c","ios":"levelo://app?vid=915f3e87-56b0-45c7-94e1-33fbf7fb2c5c"},"vehicle_type_id":"4","last_reported":1683942937,"current_range_meters":23600,"station_id":"ce4bhb12rcd13ifvqem0","pricing_plan_id":"free"},{"bike_id":"f99c4a06-ba5a-4742-ab61-1e61f4fb774b","system_id":"levelo_inurba_marseille","lat":43.28856,"lon":5.358371,"is_reserved":false,"is_disabled":false,"rental_uris":{"android":"levelo://app?vid=f99c4a06-ba5a-4742-ab61-1e61f4fb774b","ios":"levelo://app?vid=f99c4a06-ba5a-4742-ab61-1e61f4fb774b"},"vehicle_type_id":"4","last_reported":1683942937,"current_range_meters":26000,"station_id":"ce4bhb12rcd13ifvqem0","pricing_plan_id":"free"},{"bike_id":"24317b23-d7ec-468d-af0f-1f6fb65d0270","system_id":"levelo_inurba_marseille","lat":43.28856,"lon":5.358371,"is_reserved":false,"is_disabled":false,"rental_uris":{"android":"levelo://app?vid=24317b23-d7ec-468d-af0f-1f6fb65d0270","ios":"levelo://app?vid=24317b23-d7ec-468d-af0f-1f6fb65d0270"},"vehicle_type_id":"4","last_reported":1683942937,"current_range_meters":27600,"station_id":"ce4bhb12rcd13ifvqem0","pricing_plan_id":"free"},{"bike_id":"a2d8ae18-2c78-4a73-9e47-dc3caa42da4e","system_id":"levelo_inurba_marseille","lat":43.28856,"lon":5.358371,"is_reserved":false,"is_disabled":false,"rental_uris":{"android":"levelo://app?vid=a2d8ae18-2c78-4a73-9e47-dc3caa42da4e","ios":"levelo://app?vid=a2d8ae18-2c78-4a73-9e47-dc3caa42da4e"},"vehicle_type_id":"4","last_reported":1683942937,"current_range_meters":31600,"station_id":"ce4bhb12rcd13ifvqem0","pricing_plan_id":"free"},{"bike_id":"e34260ef-ab5c-4e78-8353-d031933de927","system_id":"levelo_inurba_marseille","lat":43.28845,"lon":5.35837,"is_reserved":false,"is_disabled":false,"rental_uris":{"android":"levelo://app?vid=e34260ef-ab5c-4e78-8353-d031933de927","ios":"levelo://app?vid=e34260ef-ab5c-4e78-8353-d031933de927"},"vehicle_type_id":"4","last_reported":1683942937,"current_range_meters":31200,"station_id":"ce4bhb12rcd13ifvqem0","pricing_plan_id":"free"},{"bike_id":"97ca297c-8cf8-4bea-9b9e-5054b8a498d2","system_id":"levelo_inurba_marseille","lat":43.28856,"lon":5.358371,"is_reserved":false,"is_disabled":false,"rental_uris":{"android":"levelo://app?vid=97ca297c-8cf8-4bea-9b9e-5054b8a498d2","ios":"levelo://app?vid=97ca297c-8cf8-4bea-9b9e-5054b8a498d2"},"vehicle_type_id":"4","last_reported":1683942937,"current_range_meters":31600,"station_id":"ce4bhb12rcd13ifvqem0","pricing_plan_id":"free"},{"bike_id":"8ab6919d-42a0-4d41-bcb9-a08605ad6fcb","system_id":"levelo_inurba_marseille","lat":43.30642,"lon":5.401031,"is_reserved":false,"is_disabled":false,"rental_uris":{"android":"levelo://app?vid=8ab6919d-42a0-4d41-bcb9-a08605ad6fcb","ios":"levelo://app?vid=8ab6919d-42a0-4d41-bcb9-a08605ad6fcb"},"vehicle_type_id":"4","last_reported":1683942937,"current_range_meters":25200,"station_id":"ce4bh112rcd13ifvqda0","pricing_plan_id":"free"},{"bike_id":"92cd6143-29ea-47eb-af37-64baad7d96a6","system_id":"levelo_inurba_marseille","lat":43.30642,"lon":5.401031,"is_reserved":false,"is_disabled":false,"rental_uris":{"android":"levelo://app?vid=92cd6143-29ea-47eb-af37-64baad7d96a6","ios":"levelo://app?vid=92cd6143-29ea-47eb-af37-64baad7d96a6"},"vehicle_type_id":"4","last_reported":1683942937,"current_range_meters":13200,"station_id":"ce4bh112rcd13ifvqda0","pricing_plan_id":"free"},{"bike_id":"223e2a8d-ac17-43e9-9b2c-12d2e7b6e679","system_id":"levelo_inurba_marseille","lat":43.30642,"lon":5.401031,"is_reserved":false,"is_disabled":false,"rental_uris":{"android":"levelo://app?vid=223e2a8d-ac17-43e9-9b2c-12d2e7b6e679","ios":"levelo://app?vid=223e2a8d-ac17-43e9-9b2c-12d2e7b6e679"},"vehicle_type_id":"4","last_reported":1683942937,"current_range_meters":20800,"station_id":"ce4bh112rcd13ifvqda0","pricing_plan_id":"free"},{"bike_id":"50b5244a-06b4-4d47-b990-bc579a5aeee8","system_id":"levelo_inurba_marseille","lat":43.33747,"lon":5.37472,"is_reserved":false,"is_disabled":false,"rental_uris":{"android":"levelo://app?vid=50b5244a-06b4-4d47-b990-bc579a5aeee8","ios":"levelo://app?vid=50b5244a-06b4-4d47-b990-bc579a5aeee8"},"vehicle_type_id":"4","last_reported":1683942937,"current_range_meters":30800,"station_id":"","pricing_plan_id":"free"},{"bike_id":"9fbc3d55-1138-42b2-a376-4bc021291936","system_id":"levelo_inurba_marseille","lat":43.30642,"lon":5.401031,"is_reserved":false,"is_disabled":false,"rental_uris":{"android":"levelo://app?vid=9fbc3d55-1138-42b2-a376-4bc021291936","ios":"levelo://app?vid=9fbc3d55-1138-42b2-a376-4bc021291936"},"vehicle_type_id":"4","last_reported":1683942937,"current_range_meters":31600,"station_id":"ce4bh112rcd13ifvqda0","pricing_plan_id":"free"},{"bike_id":"64c62719-fb1a-42d2-bc39-a910b9837715","system_id":"levelo_inurba_marseille","lat":43.30642,"lon":5.401031,"is_reserved":false,"is_disabled":false,"rental_uris":{"android":"levelo://app?vid=64c62719-fb1a-42d2-bc39-a910b9837715","ios":"levelo://app?vid=64c62719-fb1a-42d2-bc39-a910b9837715"},"vehicle_type_id":"4","last_reported":1683942937,"current_range_meters":31600,"station_id":"ce4bh112rcd13ifvqda0","pricing_plan_id":"free"},{"bike_id":"e9c2c288-9384-47da-addb-79bcbd1e0132","system_id":"levelo_inurba_marseille","lat":43.30642,"lon":5.401031,"is_reserved":false,"is_disabled":false,"rental_uris":{"android":"levelo://app?vid=e9c2c288-9384-47da-addb-79bcbd1e0132","ios":"levelo://app?vid=e9c2c288-9384-47da-addb-79bcbd1e0132"},"vehicle_type_id":"4","last_reported":1683942937,"current_range_meters":15200,"station_id":"ce4bh112rcd13ifvqda0","pricing_plan_id":"free"},{"bike_id":"e6c9d3cd-2360-43e7-a0ea-c6cb7b1853ef","system_id":"levelo_inurba_marseille","lat":43.30642,"lon":5.401031,"is_reserved":false,"is_disabled":false,"rental_uris":{"android":"levelo://app?vid=e6c9d3cd-2360-43e7-a0ea-c6cb7b1853ef","ios":"levelo://app?vid=e6c9d3cd-2360-43e7-a0ea-c6cb7b1853ef"},"vehicle_type_id":"4","last_reported":1683942937,"current_range_meters":31600,"station_id":"ce4bh112rcd13ifvqda0","pricing_plan_id":"free"},{"bike_id":"dcf0a8c7-0856-4697-b5f4-085b6e499fa5","system_id":"levelo_inurba_marseille","lat":43.30642,"lon":5.401031,"is_reserved":false,"is_disabled":false,"rental_uris":{"android":"levelo://app?vid=dcf0a8c7-0856-4697-b5f4-085b6e499fa5","ios":"levelo://app?vid=dcf0a8c7-0856-4697-b5f4-085b6e499fa5"},"vehicle_type_id":"4","last_reported":1683942937,"current_range_meters":2400,"station_id":"ce4bh112rcd13ifvqda0","pricing_plan_id":"free"},{"bike_id":"c2f47a43-1a25-412e-bad2-1279deeebbba","system_id":"levelo_inurba_marseille","lat":43.30642,"lon":5.401031,"is_reserved":false,"is_disabled":false,"rental_uris":{"android":"levelo://app?vid=c2f47a43-1a25-412e-bad2-1279deeebbba","ios":"levelo://app?vid=c2f47a43-1a25-412e-bad2-1279deeebbba"},"vehicle_type_id":"4","last_reported":1683942937,"current_range_meters":24000,"station_id":"ce4bh112rcd13ifvqda0","pricing_plan_id":"free"},{"bike_id":"0c2d2bb7-5401-4d5a-8a06-22375ff5ed7f","system_id":"levelo_inurba_marseille","lat":43.30642,"lon":5.401031,"is_reserved":false,"is_disabled":false,"rental_uris":{"android":"levelo://app?vid=0c2d2bb7-5401-4d5a-8a06-22375ff5ed7f","ios":"levelo://app?vid=0c2d2bb7-5401-4d5a-8a06-22375ff5ed7f"},"vehicle_type_id":"4","last_reported":1683942937,"current_range_meters":23200,"station_id":"ce4bh112rcd13ifvqda0","pricing_plan_id":"free"},{"bike_id":"0d583740-5793-4e68-a80e-a1d17de335ef","system_id":"levelo_inurba_marseille","lat":43.30642,"lon":5.401031,"is_reserved":false,"is_disabled":false,"rental_uris":{"android":"levelo://app?vid=0d583740-5793-4e68-a80e-a1d17de335ef","ios":"levelo://app?vid=0d583740-5793-4e68-a80e-a1d17de335ef"},"vehicle_type_id":"4","last_reported":1683942937,"current_range_meters":30800,"station_id":"ce4bh112rcd13ifvqda0","pricing_plan_id":"free"},{"bike_id":"33071b10-ab97-4d30-8f71-2cebc2ee2470","system_id":"levelo_inurba_marseille","lat":43.30642,"lon":5.401031,"is_reserved":false,"is_disabled":false,"rental_uris":{"android":"levelo://app?vid=33071b10-ab97-4d30-8f71-2cebc2ee2470","ios":"levelo://app?vid=33071b10-ab97-4d30-8f71-2cebc2ee2470"},"vehicle_type_id":"4","last_reported":1683942937,"current_range_meters":19200,"station_id":"ce4bh112rcd13ifvqda0","pricing_plan_id":"free"},{"bike_id":"58c75385-e42e-4a55-9764-48cdd5e34239","system_id":"levelo_inurba_marseille","lat":43.30642,"lon":5.401031,"is_reserved":false,"is_disabled":false,"rental_uris":{"android":"levelo://app?vid=58c75385-e42e-4a55-9764-48cdd5e34239","ios":"levelo://app?vid=58c75385-e42e-4a55-9764-48cdd5e34239"},"vehicle_type_id":"4","last_reported":1683942937,"current_range_meters":17200,"station_id":"ce4bh112rcd13ifvqda0","pricing_plan_id":"free"},{"bike_id":"8bc305ae-216a-4d6d-81a3-9c194a97b1f5","system_id":"levelo_inurba_marseille","lat":43.301117,"lon":5.398795,"is_reserved":false,"is_disabled":false,"rental_uris":{"android":"levelo://app?vid=8bc305ae-216a-4d6d-81a3-9c194a97b1f5","ios":"levelo://app?vid=8bc305ae-216a-4d6d-81a3-9c194a97b1f5"},"vehicle_type_id":"4","last_reported":1683942937,"current_range_meters":26800,"station_id":"ce4bh0h2rcd13ifvqd40","pricing_plan_id":"free"},{"bike_id":"4b812778-e94f-4f21-9be0-8d700e3bfbb2","system_id":"levelo_inurba_marseille","lat":43.301117,"lon":5.398795,"is_reserved":false,"is_disabled":false,"rental_uris":{"android":"levelo://app?vid=4b812778-e94f-4f21-9be0-8d700e3bfbb2","ios":"levelo://app?vid=4b812778-e94f-4f21-9be0-8d700e3bfbb2"},"vehicle_type_id":"4","last_reported":1683942937,"current_range_meters":28000,"station_id":"ce4bh0h2rcd13ifvqd40","pricing_plan_id":"free"},{"bike_id":"1efab4e9-42c8-4a38-a166-647c42ab35ab","system_id":"levelo_inurba_marseille","lat":43.301117,"lon":5.398795,"is_reserved":false,"is_disabled":false,"rental_uris":{"android":"levelo://app?vid=1efab4e9-42c8-4a38-a166-647c42ab35ab","ios":"levelo://app?vid=1efab4e9-42c8-4a38-a166-647c42ab35ab"},"vehicle_type_id":"4","last_reported":1683942937,"current_range_meters":18400,"station_id":"ce4bh0h2rcd13ifvqd40","pricing_plan_id":"free"},{"bike_id":"f1a1c85c-209d-480e-9dc8-4c07450f7de1","system_id":"levelo_inurba_marseille","lat":43.301117,"lon":5.398795,"is_reserved":false,"is_disabled":false,"rental_uris":{"android":"levelo://app?vid=f1a1c85c-209d-480e-9dc8-4c07450f7de1","ios":"levelo://app?vid=f1a1c85c-209d-480e-9dc8-4c07450f7de1"},"vehicle_type_id":"4","last_reported":1683942937,"current_range_meters":18800,"station_id":"ce4bh0h2rcd13ifvqd40","pricing_plan_id":"free"},{"bike_id":"3270acdd-556e-4246-b11b-748ba1d64719","system_id":"levelo_inurba_marseille","lat":43.301117,"lon":5.398795,"is_reserved":false,"is_disabled":false,"rental_uris":{"android":"levelo://app?vid=3270acdd-556e-4246-b11b-748ba1d64719","ios":"levelo://app?vid=3270acdd-556e-4246-b11b-748ba1d64719"},"vehicle_type_id":"4","last_reported":1683942937,"current_range_meters":31600,"station_id":"ce4bh0h2rcd13ifvqd40","pricing_plan_id":"free"},{"bike_id":"f0de8547-c215-4a7c-9a5d-98a33e3b7c54","system_id":"levelo_inurba_marseille","lat":43.301117,"lon":5.398795,"is_reserved":false,"is_disabled":false,"rental_uris":{"android":"levelo://app?vid=f0de8547-c215-4a7c-9a5d-98a33e3b7c54","ios":"levelo://app?vid=f0de8547-c215-4a7c-9a5d-98a33e3b7c54"},"vehicle_type_id":"4","last_reported":1683942937,"current_range_meters":30800,"station_id":"ce4bh0h2rcd13ifvqd40","pricing_plan_id":"free"},{"bike_id":"cde86d52-673d-4e33-ba7e-c92b8339f92d","system_id":"levelo_inurba_marseille","lat":43.301117,"lon":5.398795,"is_reserved":false,"is_disabled":false,"rental_uris":{"android":"levelo://app?vid=cde86d52-673d-4e33-ba7e-c92b8339f92d","ios":"levelo://app?vid=cde86d52-673d-4e33-ba7e-c92b8339f92d"},"vehicle_type_id":"4","last_reported":1683942937,"current_range_meters":19600,"station_id":"ce4bh0h2rcd13ifvqd40","pricing_plan_id":"free"},{"bike_id":"9e9e22f2-e301-4d56-96df-2bff1df0a5e3","system_id":"levelo_inurba_marseille","lat":43.301117,"lon":5.398795,"is_reserved":false,"is_disabled":false,"rental_uris":{"android":"levelo://app?vid=9e9e22f2-e301-4d56-96df-2bff1df0a5e3","ios":"levelo://app?vid=9e9e22f2-e301-4d56-96df-2bff1df0a5e3"},"vehicle_type_id":"4","last_reported":1683942937,"current_range_meters":10400,"station_id":"ce4bh0h2rcd13ifvqd40","pricing_plan_id":"free"},{"bike_id":"5f4c3671-8a26-40d3-9be7-c4cc2a8622d7","system_id":"levelo_inurba_marseille","lat":43.301117,"lon":5.398795,"is_reserved":false,"is_disabled":false,"rental_uris":{"android":"levelo://app?vid=5f4c3671-8a26-40d3-9be7-c4cc2a8622d7","ios":"levelo://app?vid=5f4c3671-8a26-40d3-9be7-c4cc2a8622d7"},"vehicle_type_id":"4","last_reported":1683942937,"current_range_meters":8000,"station_id":"ce4bh0h2rcd13ifvqd40","pricing_plan_id":"free"},{"bike_id":"cf66a268-3e7d-4c31-9c75-bf0669ff4c60","system_id":"levelo_inurba_marseille","lat":43.298681,"lon":5.397225,"is_reserved":false,"is_disabled":false,"rental_uris":{"android":"levelo://app?vid=cf66a268-3e7d-4c31-9c75-bf0669ff4c60","ios":"levelo://app?vid=cf66a268-3e7d-4c31-9c75-bf0669ff4c60"},"vehicle_type_id":"4","last_reported":1683942937,"current_range_meters":23200,"station_id":"ce4bh0h2rcd13ifvqd50","pricing_plan_id":"free"},{"bike_id":"f0a9c211-7fe7-44e0-9cf4-8df9763f7ece","system_id":"levelo_inurba_marseille","lat":43.298681,"lon":5.397225,"is_reserved":false,"is_disabled":false,"rental_uris":{"android":"levelo://app?vid=f0a9c211-7fe7-44e0-9cf4-8df9763f7ece","ios":"levelo://app?vid=f0a9c211-7fe7-44e0-9cf4-8df9763f7ece"},"vehicle_type_id":"4","last_reported":1683942937,"current_range_meters":25200,"station_id":"ce4bh0h2rcd13ifvqd50","pricing_plan_id":"free"},{"bike_id":"61bca358-c96b-4474-903f-1e43e4a5906b","system_id":"levelo_inurba_marseille","lat":43.298681,"lon":5.397225,"is_reserved":false,"is_disabled":false,"rental_uris":{"android":"levelo://app?vid=61bca358-c96b-4474-903f-1e43e4a5906b","ios":"levelo://app?vid=61bca358-c96b-4474-903f-1e43e4a5906b"},"vehicle_type_id":"4","last_reported":1683942937,"current_range_meters":24400,"station_id":"ce4bh0h2rcd13ifvqd50","pricing_plan_id":"free"},{"bike_id":"d5e8455f-f565-4ec3-9b74-ebc53e3154e5","system_id":"levelo_inurba_marseille","lat":43.298681,"lon":5.397225,"is_reserved":false,"is_disabled":false,"rental_uris":{"android":"levelo://app?vid=d5e8455f-f565-4ec3-9b74-ebc53e3154e5","ios":"levelo://app?vid=d5e8455f-f565-4ec3-9b74-ebc53e3154e5"},"vehicle_type_id":"4","last_reported":1683942937,"current_range_meters":27200,"station_id":"ce4bh0h2rcd13ifvqd50","pricing_plan_id":"free"},{"bike_id":"64a83d8d-9505-4ab9-8ba3-f7d354abfd37","system_id":"levelo_inurba_marseille","lat":43.298681,"lon":5.397225,"is_reserved":false,"is_disabled":false,"rental_uris":{"android":"levelo://app?vid=64a83d8d-9505-4ab9-8ba3-f7d354abfd37","ios":"levelo://app?vid=64a83d8d-9505-4ab9-8ba3-f7d354abfd37"},"vehicle_type_id":"4","last_reported":1683942937,"current_range_meters":29600,"station_id":"ce4bh0h2rcd13ifvqd50","pricing_plan_id":"free"},{"bike_id":"208fe7e5-8005-421f-ab2a-609510e2c210","system_id":"levelo_inurba_marseille","lat":43.308958,"lon":5.402522,"is_reserved":false,"is_disabled":false,"rental_uris":{"android":"levelo://app?vid=208fe7e5-8005-421f-ab2a-609510e2c210","ios":"levelo://app?vid=208fe7e5-8005-421f-ab2a-609510e2c210"},"vehicle_type_id":"4","last_reported":1683942937,"current_range_meters":13200,"station_id":"","pricing_plan_id":"free"},{"bike_id":"de1d2a6f-ea08-4bd5-ab1d-c7eb75fb683a","system_id":"levelo_inurba_marseille","lat":43.286591,"lon":5.363346,"is_reserved":false,"is_disabled":false,"rental_uris":{"android":"levelo://app?vid=de1d2a6f-ea08-4bd5-ab1d-c7eb75fb683a","ios":"levelo://app?vid=de1d2a6f-ea08-4bd5-ab1d-c7eb75fb683a"},"vehicle_type_id":"4","last_reported":1683942937,"current_range_meters":31200,"station_id":"ce4bhah2rcd13ifvqej0","pricing_plan_id":"free"},{"bike_id":"ac2dec49-25f3-4715-b3d5-be556a5cacc4","system_id":"levelo_inurba_marseille","lat":43.298681,"lon":5.397225,"is_reserved":false,"is_disabled":false,"rental_uris":{"android":"levelo://app?vid=ac2dec49-25f3-4715-b3d5-be556a5cacc4","ios":"levelo://app?vid=ac2dec49-25f3-4715-b3d5-be556a5cacc4"},"vehicle_type_id":"4","last_reported":1683942937,"current_range_meters":31600,"station_id":"ce4bh0h2rcd13ifvqd50","pricing_plan_id":"free"},{"bike_id":"82702313-9d36-40e5-a17f-8d8fc6b16290","system_id":"levelo_inurba_marseille","lat":43.298681,"lon":5.397225,"is_reserved":false,"is_disabled":false,"rental_uris":{"android":"levelo://app?vid=82702313-9d36-40e5-a17f-8d8fc6b16290","ios":"levelo://app?vid=82702313-9d36-40e5-a17f-8d8fc6b16290"},"vehicle_type_id":"4","last_reported":1683942937,"current_range_meters":30800,"station_id":"ce4bh0h2rcd13ifvqd50","pricing_plan_id":"free"},{"bike_id":"eac308ef-a173-4d80-b6b5-502efc82aabd","system_id":"levelo_inurba_marseille","lat":43.298681,"lon":5.397225,"is_reserved":false,"is_disabled":false,"rental_uris":{"android":"levelo://app?vid=eac308ef-a173-4d80-b6b5-502efc82aabd","ios":"levelo://app?vid=eac308ef-a173-4d80-b6b5-502efc82aabd"},"vehicle_type_id":"4","last_reported":1683942937,"current_range_meters":16400,"station_id":"ce4bh0h2rcd13ifvqd50","pricing_plan_id":"free"},{"bike_id":"3f28ad14-1123-45ce-a65b-ee25d5acc8be","system_id":"levelo_inurba_marseille","lat":43.298681,"lon":5.397225,"is_reserved":false,"is_disabled":false,"rental_uris":{"android":"levelo://app?vid=3f28ad14-1123-45ce-a65b-ee25d5acc8be","ios":"levelo://app?vid=3f28ad14-1123-45ce-a65b-ee25d5acc8be"},"vehicle_type_id":"4","last_reported":1683942937,"current_range_meters":30400,"station_id":"ce4bh0h2rcd13ifvqd50","pricing_plan_id":"free"},{"bike_id":"40d1af8d-0635-4bd8-93fd-96f09f110e1c","system_id":"levelo_inurba_marseille","lat":43.286591,"lon":5.363346,"is_reserved":false,"is_disabled":false,"rental_uris":{"android":"levelo://app?vid=40d1af8d-0635-4bd8-93fd-96f09f110e1c","ios":"levelo://app?vid=40d1af8d-0635-4bd8-93fd-96f09f110e1c"},"vehicle_type_id":"4","last_reported":1683942937,"current_range_meters":31600,"station_id":"ce4bhah2rcd13ifvqej0","pricing_plan_id":"free"},{"bike_id":"597d531c-89d8-4004-8ce7-612a553a5e38","system_id":"levelo_inurba_marseille","lat":43.286593,"lon":5.363346,"is_reserved":false,"is_disabled":false,"rental_uris":{"android":"levelo://app?vid=597d531c-89d8-4004-8ce7-612a553a5e38","ios":"levelo://app?vid=597d531c-89d8-4004-8ce7-612a553a5e38"},"vehicle_type_id":"4","last_reported":1683942937,"current_range_meters":30800,"station_id":"ce4bhah2rcd13ifvqej0","pricing_plan_id":"free"},{"bike_id":"73a6c017-fce9-40f4-a115-10f67526b06f","system_id":"levelo_inurba_marseille","lat":43.286593,"lon":5.363346,"is_reserved":false,"is_disabled":false,"rental_uris":{"android":"levelo://app?vid=73a6c017-fce9-40f4-a115-10f67526b06f","ios":"levelo://app?vid=73a6c017-fce9-40f4-a115-10f67526b06f"},"vehicle_type_id":"4","last_reported":1683942937,"current_range_meters":28400,"station_id":"ce4bhah2rcd13ifvqej0","pricing_plan_id":"free"},{"bike_id":"3e52a627-76fe-4310-b8d8-77141f88a3c2","system_id":"levelo_inurba_marseille","lat":43.286591,"lon":5.363346,"is_reserved":false,"is_disabled":false,"rental_uris":{"android":"levelo://app?vid=3e52a627-76fe-4310-b8d8-77141f88a3c2","ios":"levelo://app?vid=3e52a627-76fe-4310-b8d8-77141f88a3c2"},"vehicle_type_id":"4","last_reported":1683942937,"current_range_meters":31200,"station_id":"ce4bhah2rcd13ifvqej0","pricing_plan_id":"free"},{"bike_id":"55643b25-e6c1-4269-9ea5-913d982e1fc1","system_id":"levelo_inurba_marseille","lat":43.286593,"lon":5.363346,"is_reserved":false,"is_disabled":false,"rental_uris":{"android":"levelo://app?vid=55643b25-e6c1-4269-9ea5-913d982e1fc1","ios":"levelo://app?vid=55643b25-e6c1-4269-9ea5-913d982e1fc1"},"vehicle_type_id":"4","last_reported":1683942937,"current_range_meters":30400,"station_id":"ce4bhah2rcd13ifvqej0","pricing_plan_id":"free"},{"bike_id":"1fd8dc62-d899-44d4-9a43-26677c9c5aad","system_id":"levelo_inurba_marseille","lat":43.295194,"lon":5.39397,"is_reserved":false,"is_disabled":false,"rental_uris":{"android":"levelo://app?vid=1fd8dc62-d899-44d4-9a43-26677c9c5aad","ios":"levelo://app?vid=1fd8dc62-d899-44d4-9a43-26677c9c5aad"},"vehicle_type_id":"4","last_reported":1683942937,"current_range_meters":16400,"station_id":"ce4bh292rcd13ifvqdf0","pricing_plan_id":"free"},{"bike_id":"5aa1dfda-a1b1-4f60-90f5-8e5c6c24ec75","system_id":"levelo_inurba_marseille","lat":43.295194,"lon":5.39397,"is_reserved":false,"is_disabled":false,"rental_uris":{"android":"levelo://app?vid=5aa1dfda-a1b1-4f60-90f5-8e5c6c24ec75","ios":"levelo://app?vid=5aa1dfda-a1b1-4f60-90f5-8e5c6c24ec75"},"vehicle_type_id":"4","last_reported":1683942937,"current_range_meters":18000,"station_id":"ce4bh292rcd13ifvqdf0","pricing_plan_id":"free"},{"bike_id":"0a0d015d-1260-4cab-90a3-61cfb4493dd1","system_id":"levelo_inurba_marseille","lat":43.302759,"lon":5.400793,"is_reserved":false,"is_disabled":false,"rental_uris":{"android":"levelo://app?vid=0a0d015d-1260-4cab-90a3-61cfb4493dd1","ios":"levelo://app?vid=0a0d015d-1260-4cab-90a3-61cfb4493dd1"},"vehicle_type_id":"4","last_reported":1683942937,"current_range_meters":16400,"station_id":"ce4bgvh2rcd13ifvqcs0","pricing_plan_id":"free"},{"bike_id":"d87d5834-e3d8-4d3e-865d-fe9ab96adc36","system_id":"levelo_inurba_marseille","lat":43.302759,"lon":5.400793,"is_reserved":false,"is_disabled":false,"rental_uris":{"android":"levelo://app?vid=d87d5834-e3d8-4d3e-865d-fe9ab96adc36","ios":"levelo://app?vid=d87d5834-e3d8-4d3e-865d-fe9ab96adc36"},"vehicle_type_id":"4","last_reported":1683942937,"current_range_meters":31600,"station_id":"ce4bgvh2rcd13ifvqcs0","pricing_plan_id":"free"},{"bike_id":"c8cc8e1f-4d03-4d9d-af31-a2affa0c02e6","system_id":"levelo_inurba_marseille","lat":43.302759,"lon":5.400793,"is_reserved":false,"is_disabled":false,"rental_uris":{"android":"levelo://app?vid=c8cc8e1f-4d03-4d9d-af31-a2affa0c02e6","ios":"levelo://app?vid=c8cc8e1f-4d03-4d9d-af31-a2affa0c02e6"},"vehicle_type_id":"4","last_reported":1683942937,"current_range_meters":31600,"station_id":"ce4bgvh2rcd13ifvqcs0","pricing_plan_id":"free"},{"bike_id":"e5b2995f-c846-4343-bf16-74b2b7376351","system_id":"levelo_inurba_marseille","lat":43.302759,"lon":5.400793,"is_reserved":false,"is_disabled":false,"rental_uris":{"android":"levelo://app?vid=e5b2995f-c846-4343-bf16-74b2b7376351","ios":"levelo://app?vid=e5b2995f-c846-4343-bf16-74b2b7376351"},"vehicle_type_id":"4","last_reported":1683942937,"current_range_meters":400,"station_id":"ce4bgvh2rcd13ifvqcs0","pricing_plan_id":"free"},{"bike_id":"d9e0821c-e2dd-4e7a-abe7-d40d1f86b5a0","system_id":"levelo_inurba_marseille","lat":43.302759,"lon":5.400793,"is_reserved":false,"is_disabled":false,"rental_uris":{"android":"levelo://app?vid=d9e0821c-e2dd-4e7a-abe7-d40d1f86b5a0","ios":"levelo://app?vid=d9e0821c-e2dd-4e7a-abe7-d40d1f86b5a0"},"vehicle_type_id":"4","last_reported":1683942937,"current_range_meters":14400,"station_id":"ce4bgvh2rcd13ifvqcs0","pricing_plan_id":"free"},{"bike_id":"4e5b5664-b4d2-4105-853f-c66cc68bf66d","system_id":"levelo_inurba_marseille","lat":43.302759,"lon":5.400793,"is_reserved":false,"is_disabled":false,"rental_uris":{"android":"levelo://app?vid=4e5b5664-b4d2-4105-853f-c66cc68bf66d","ios":"levelo://app?vid=4e5b5664-b4d2-4105-853f-c66cc68bf66d"},"vehicle_type_id":"4","last_reported":1683942937,"current_range_meters":18400,"station_id":"ce4bgvh2rcd13ifvqcs0","pricing_plan_id":"free"},{"bike_id":"dcaf555e-6bd6-422d-b910-29a059a5efcd","system_id":"levelo_inurba_marseille","lat":43.302759,"lon":5.400793,"is_reserved":false,"is_disabled":false,"rental_uris":{"android":"levelo://app?vid=dcaf555e-6bd6-422d-b910-29a059a5efcd","ios":"levelo://app?vid=dcaf555e-6bd6-422d-b910-29a059a5efcd"},"vehicle_type_id":"4","last_reported":1683942937,"current_range_meters":7600,"station_id":"ce4bgvh2rcd13ifvqcs0","pricing_plan_id":"free"},{"bike_id":"fadf8d75-db1f-4143-8a60-feb1d36da3db","system_id":"levelo_inurba_marseille","lat":43.302759,"lon":5.400793,"is_reserved":false,"is_disabled":false,"rental_uris":{"android":"levelo://app?vid=fadf8d75-db1f-4143-8a60-feb1d36da3db","ios":"levelo://app?vid=fadf8d75-db1f-4143-8a60-feb1d36da3db"},"vehicle_type_id":"4","last_reported":1683942937,"current_range_meters":1600,"station_id":"ce4bgvh2rcd13ifvqcs0","pricing_plan_id":"free"},{"bike_id":"d728d7b1-50c3-4279-9a71-814cd1a5adbf","system_id":"levelo_inurba_marseille","lat":43.302759,"lon":5.400793,"is_reserved":false,"is_disabled":false,"rental_uris":{"android":"levelo://app?vid=d728d7b1-50c3-4279-9a71-814cd1a5adbf","ios":"levelo://app?vid=d728d7b1-50c3-4279-9a71-814cd1a5adbf"},"vehicle_type_id":"4","last_reported":1683942937,"current_range_meters":31600,"station_id":"ce4bgvh2rcd13ifvqcs0","pricing_plan_id":"free"},{"bike_id":"a1ece2b2-5a9a-447d-be78-32a223d3f638","system_id":"levelo_inurba_marseille","lat":43.302759,"lon":5.400793,"is_reserved":false,"is_disabled":false,"rental_uris":{"android":"levelo://app?vid=a1ece2b2-5a9a-447d-be78-32a223d3f638","ios":"levelo://app?vid=a1ece2b2-5a9a-447d-be78-32a223d3f638"},"vehicle_type_id":"4","last_reported":1683942937,"current_range_meters":32000,"station_id":"ce4bgvh2rcd13ifvqcs0","pricing_plan_id":"free"},{"bike_id":"8e852bb4-d6f4-4a26-8ab5-35c6194331cf","system_id":"levelo_inurba_marseille","lat":43.302759,"lon":5.400793,"is_reserved":false,"is_disabled":false,"rental_uris":{"android":"levelo://app?vid=8e852bb4-d6f4-4a26-8ab5-35c6194331cf","ios":"levelo://app?vid=8e852bb4-d6f4-4a26-8ab5-35c6194331cf"},"vehicle_type_id":"4","last_reported":1683942937,"current_range_meters":23600,"station_id":"ce4bgvh2rcd13ifvqcs0","pricing_plan_id":"free"},{"bike_id":"6a80ca46-f2fc-45dd-a83e-39e46948f48f","system_id":"levelo_inurba_marseille","lat":43.302759,"lon":5.400793,"is_reserved":false,"is_disabled":false,"rental_uris":{"android":"levelo://app?vid=6a80ca46-f2fc-45dd-a83e-39e46948f48f","ios":"levelo://app?vid=6a80ca46-f2fc-45dd-a83e-39e46948f48f"},"vehicle_type_id":"4","last_reported":1683942937,"current_range_meters":5600,"station_id":"ce4bgvh2rcd13ifvqcs0","pricing_plan_id":"free"},{"bike_id":"25862674-9661-42c7-883d-3dd8fe5b132a","system_id":"levelo_inurba_marseille","lat":43.302759,"lon":5.400793,"is_reserved":false,"is_disabled":false,"rental_uris":{"android":"levelo://app?vid=25862674-9661-42c7-883d-3dd8fe5b132a","ios":"levelo://app?vid=25862674-9661-42c7-883d-3dd8fe5b132a"},"vehicle_type_id":"4","last_reported":1683942937,"current_range_meters":22000,"station_id":"ce4bgvh2rcd13ifvqcs0","pricing_plan_id":"free"},{"bike_id":"8caccb38-a8ba-4686-a40e-36d8ee2c114b","system_id":"levelo_inurba_marseille","lat":43.286039,"lon":5.370681,"is_reserved":false,"is_disabled":false,"rental_uris":{"android":"levelo://app?vid=8caccb38-a8ba-4686-a40e-36d8ee2c114b","ios":"levelo://app?vid=8caccb38-a8ba-4686-a40e-36d8ee2c114b"},"vehicle_type_id":"4","last_reported":1683942937,"current_range_meters":30400,"station_id":"ce4bht12rcd13ifvqi60","pricing_plan_id":"free"},{"bike_id":"3efa8b6e-5634-4eb2-a7c4-4a6121c66cf2","system_id":"levelo_inurba_marseille","lat":43.286039,"lon":5.370679,"is_reserved":false,"is_disabled":false,"rental_uris":{"android":"levelo://app?vid=3efa8b6e-5634-4eb2-a7c4-4a6121c66cf2","ios":"levelo://app?vid=3efa8b6e-5634-4eb2-a7c4-4a6121c66cf2"},"vehicle_type_id":"4","last_reported":1683942937,"current_range_meters":20800,"station_id":"ce4bht12rcd13ifvqi60","pricing_plan_id":"free"},{"bike_id":"92ed0a29-816f-4209-aa0c-cf99590b62a5","system_id":"levelo_inurba_marseille","lat":43.286039,"lon":5.370681,"is_reserved":false,"is_disabled":false,"rental_uris":{"android":"levelo://app?vid=92ed0a29-816f-4209-aa0c-cf99590b62a5","ios":"levelo://app?vid=92ed0a29-816f-4209-aa0c-cf99590b62a5"},"vehicle_type_id":"4","last_reported":1683942937,"current_range_meters":26400,"station_id":"ce4bht12rcd13ifvqi60","pricing_plan_id":"free"},{"bike_id":"e9f7ea12-3908-4fd2-a5c6-8d688edfe329","system_id":"levelo_inurba_marseille","lat":43.286039,"lon":5.370681,"is_reserved":false,"is_disabled":false,"rental_uris":{"android":"levelo://app?vid=e9f7ea12-3908-4fd2-a5c6-8d688edfe329","ios":"levelo://app?vid=e9f7ea12-3908-4fd2-a5c6-8d688edfe329"},"vehicle_type_id":"4","last_reported":1683942937,"current_range_meters":16400,"station_id":"ce4bht12rcd13ifvqi60","pricing_plan_id":"free"},{"bike_id":"f36ba521-5556-4c4a-9946-934f38d1b136","system_id":"levelo_inurba_marseille","lat":43.286039,"lon":5.370681,"is_reserved":false,"is_disabled":false,"rental_uris":{"android":"levelo://app?vid=f36ba521-5556-4c4a-9946-934f38d1b136","ios":"levelo://app?vid=f36ba521-5556-4c4a-9946-934f38d1b136"},"vehicle_type_id":"4","last_reported":1683942937,"current_range_meters":30000,"station_id":"ce4bht12rcd13ifvqi60","pricing_plan_id":"free"},{"bike_id":"3e7dc3e6-535b-4a53-8e18-85254c573983","system_id":"levelo_inurba_marseille","lat":43.286039,"lon":5.370681,"is_reserved":false,"is_disabled":false,"rental_uris":{"android":"levelo://app?vid=3e7dc3e6-535b-4a53-8e18-85254c573983","ios":"levelo://app?vid=3e7dc3e6-535b-4a53-8e18-85254c573983"},"vehicle_type_id":"4","last_reported":1683942937,"current_range_meters":29200,"station_id":"ce4bht12rcd13ifvqi60","pricing_plan_id":"free"},{"bike_id":"c294f617-9acf-43ef-a5ab-0547bc9d2835","system_id":"levelo_inurba_marseille","lat":43.286039,"lon":5.370681,"is_reserved":false,"is_disabled":false,"rental_uris":{"android":"levelo://app?vid=c294f617-9acf-43ef-a5ab-0547bc9d2835","ios":"levelo://app?vid=c294f617-9acf-43ef-a5ab-0547bc9d2835"},"vehicle_type_id":"4","last_reported":1683942937,"current_range_meters":31600,"station_id":"ce4bht12rcd13ifvqi60","pricing_plan_id":"free"},{"bike_id":"5d2e53db-c736-441a-9c8a-20e95578ce6d","system_id":"levelo_inurba_marseille","lat":43.316517,"lon":5.404375,"is_reserved":false,"is_disabled":false,"rental_uris":{"android":"levelo://app?vid=5d2e53db-c736-441a-9c8a-20e95578ce6d","ios":"levelo://app?vid=5d2e53db-c736-441a-9c8a-20e95578ce6d"},"vehicle_type_id":"4","last_reported":1683942937,"current_range_meters":11600,"station_id":"ce4bh012rcd13ifvqd00","pricing_plan_id":"free"},{"bike_id":"c8dbdda9-bd53-40fd-82cb-005756ce43fd","system_id":"levelo_inurba_marseille","lat":43.31648,"lon":5.40437,"is_reserved":false,"is_disabled":false,"rental_uris":{"android":"levelo://app?vid=c8dbdda9-bd53-40fd-82cb-005756ce43fd","ios":"levelo://app?vid=c8dbdda9-bd53-40fd-82cb-005756ce43fd"},"vehicle_type_id":"4","last_reported":1683942937,"current_range_meters":31200,"station_id":"","pricing_plan_id":"free"},{"bike_id":"06d873f8-cdbb-42a3-9869-602175d22845","system_id":"levelo_inurba_marseille","lat":43.316517,"lon":5.404375,"is_reserved":false,"is_disabled":false,"rental_uris":{"android":"levelo://app?vid=06d873f8-cdbb-42a3-9869-602175d22845","ios":"levelo://app?vid=06d873f8-cdbb-42a3-9869-602175d22845"},"vehicle_type_id":"4","last_reported":1683942937,"current_range_meters":14000,"station_id":"ce4bh012rcd13ifvqd00","pricing_plan_id":"free"},{"bike_id":"b48dacb0-d06b-4660-b4bc-9e0867d19d28","system_id":"levelo_inurba_marseille","lat":43.316517,"lon":5.404375,"is_reserved":false,"is_disabled":false,"rental_uris":{"android":"levelo://app?vid=b48dacb0-d06b-4660-b4bc-9e0867d19d28","ios":"levelo://app?vid=b48dacb0-d06b-4660-b4bc-9e0867d19d28"},"vehicle_type_id":"4","last_reported":1683942937,"current_range_meters":4000,"station_id":"ce4bh012rcd13ifvqd00","pricing_plan_id":"free"},{"bike_id":"28d1604c-aa5b-402d-8805-c2e77c7af928","system_id":"levelo_inurba_marseille","lat":43.316517,"lon":5.404375,"is_reserved":false,"is_disabled":false,"rental_uris":{"android":"levelo://app?vid=28d1604c-aa5b-402d-8805-c2e77c7af928","ios":"levelo://app?vid=28d1604c-aa5b-402d-8805-c2e77c7af928"},"vehicle_type_id":"4","last_reported":1683942937,"current_range_meters":20400,"station_id":"ce4bh012rcd13ifvqd00","pricing_plan_id":"free"},{"bike_id":"e5efd3c2-f981-4128-bdb6-1d2d6594c81a","system_id":"levelo_inurba_marseille","lat":43.28467,"lon":5.3749,"is_reserved":false,"is_disabled":false,"rental_uris":{"android":"levelo://app?vid=e5efd3c2-f981-4128-bdb6-1d2d6594c81a","ios":"levelo://app?vid=e5efd3c2-f981-4128-bdb6-1d2d6594c81a"},"vehicle_type_id":"4","last_reported":1683942937,"current_range_meters":14800,"station_id":"","pricing_plan_id":"free"},{"bike_id":"fb69110e-1b06-45af-a648-27571497dc99","system_id":"levelo_inurba_marseille","lat":43.28466,"lon":5.35887,"is_reserved":false,"is_disabled":false,"rental_uris":{"android":"levelo://app?vid=fb69110e-1b06-45af-a648-27571497dc99","ios":"levelo://app?vid=fb69110e-1b06-45af-a648-27571497dc99"},"vehicle_type_id":"4","last_reported":1683942937,"current_range_meters":14800,"station_id":"ce4bhah2rcd13ifvqei0","pricing_plan_id":"free"},{"bike_id":"3aa14959-0699-44d9-a765-767a3b19e25f","system_id":"levelo_inurba_marseille","lat":43.28465,"lon":5.35886,"is_reserved":false,"is_disabled":false,"rental_uris":{"android":"levelo://app?vid=3aa14959-0699-44d9-a765-767a3b19e25f","ios":"levelo://app?vid=3aa14959-0699-44d9-a765-767a3b19e25f"},"vehicle_type_id":"4","last_reported":1683942937,"current_range_meters":30000,"station_id":"ce4bhah2rcd13ifvqei0","pricing_plan_id":"free"},{"bike_id":"a0a0e9c9-aa1c-44e9-9009-028ba0aff3ff","system_id":"levelo_inurba_marseille","lat":43.28464,"lon":5.35891,"is_reserved":false,"is_disabled":false,"rental_uris":{"android":"levelo://app?vid=a0a0e9c9-aa1c-44e9-9009-028ba0aff3ff","ios":"levelo://app?vid=a0a0e9c9-aa1c-44e9-9009-028ba0aff3ff"},"vehicle_type_id":"4","last_reported":1683942937,"current_range_meters":14000,"station_id":"ce4bhah2rcd13ifvqei0","pricing_plan_id":"free"},