{"last_updated":1722183055,"ttl":30,"version":"2.2","data":{"bikes":[{"bike_id":"d14fd40f-82cc-478b-b5f6-2b2bf7dee627","system_id":"levelo_inurba_marseille","lat":43.312239,"lon":5.368562,"is_reserved":false,"is_disabled":false,"rental_uris":{"android":"levelo://app?vid=d14fd40f-82cc-478b-b5f6-2b2bf7dee627","ios":"levelo://app?vid=d14fd40f-82cc-478b-b5f6-2b2bf7dee627"},"vehicle_type_id":"4","last_reported":1722183055,"current_range_meters":2000,"station_id":"ce4bgl92rcd13ifvqbq0","pricing_plan_id":"cebpf4jnsgd1na2vs0mg"},{"bike_id":"978a0795-7438-4c64-9a6a-b1e426d188d6","system_id":"levelo_inurba_marseille","lat":43.31758,"lon":5.36872,"is_reserved":false,"is_disabled":false,"rental_uris":{"android":"levelo://app?vid=978a0795-7438-4c64-9a6a-b1e426d188d6","ios":"levelo://app?vid=978a0795-7438-4c64-9a6a-b1e426d188d6"},"vehicle_type_id":"4","last_reported":1722183055,"current_range_meters":2000,"station_id":"","pricing_plan_id":"cebpf4jnsgd1na2vs0mg"},{"bike_id":"e31b7490-3e3e-448d-983c-d14bde2bf611","system_id":"levelo_inurba_marseille","lat":43.30706,"lon":5.37307,"is_reserved":false,"is_disabled":false,"rental_uris":{"android":"levelo://app?vid=e31b7490-3e3e-448d-983c-d14bde2bf611","ios":"levelo://app?vid=e31b7490-3e3e-448d-983c-d14bde2bf611"},"vehicle_type_id":"4","last_reported":1722183055,"current_range_meters":2400,"station_id":"","pricing_plan_id":"cebpf4jnsgd1na2vs0mg"},{"bike_id":"fd17bc1a-9536-42e4-9601-3ca69577c3e0","system_id":"levelo_inurba_marseille","lat":43.305714,"lon":5.365633,"is_reserved":false,"is_disabled":false,"rental_uris":{"android":"levelo://app?vid=fd17bc1a-9536-42e4-9601-3ca69577c3e0","ios":"levelo://app?vid=fd17bc1a-9536-42e4-9601-3ca69577c3e0"},"vehicle_type_id":"4","last_reported":1722183055,"current_range_meters":0,"station_id":"ce4bgs12rcd13ifvqcag","pricing_plan_id":"cebpf4jnsgd1na2vs0mg"},{"bike_id":"c43d1fe1-f679-4aa5-a18e-c2c846e4c28b","system_id":"levelo_inurba_marseille","lat":43.305714,"lon":5.365633,"is_reserved":false,"is_disabled":false,"rental_uris":{"android":"levelo://app?vid=c43d1fe1-f679-4aa5-a18e-c2c846e4c28b","ios":"levelo://app?vid=c43d1fe1-f679-4aa5-a18e-c2c846e4c28b"},"vehicle_type_id":"4","last_reported":1722183055,"current_range_meters":2400,"station_id":"ce4bgs12rcd13ifvqcag","pricing_plan_id":"cebpf4jnsgd1na2vs0mg"},{"bike_id":"536e7a9e-c1ed-46de-b8bd-05c791f4109c","system_id":"levelo_inurba_marseille","lat":43.305714,"lon":5.365633,"is_reserved":false,"is_disabled":false,"rental_uris":{"android":"levelo://app?vid=536e7a9e-c1ed-46de-b8bd-05c791f4109c","ios":"levelo://app?vid=536e7a9e-c1ed-46de-b8bd-05c791f4109c"},"vehicle_type_id":"4","last_reported":1722183055,"current_range_meters":16800,"station_id":"ce4bgs12rcd13ifvqcag","pricing_plan_id":"cebpf4jnsgd1na2vs0mg"},{"bike_id":"079172d4-2c9e-402f-ad91-caf3fab112d2","system_id":"levelo_inurba_marseille","lat":43.305989,"lon":5.37225,"is_reserved":false,"is_disabled":false,"rental_uris":{"android":"levelo://app?vid=079172d4-2c9e-402f-ad91-caf3fab112d2","ios":"levelo://app?vid=079172d4-2c9e-402f-ad91-caf3fab112d2"},"vehicle_type_id":"4","last_reported":1722183055,"current_range_meters":0,"station_id":"ce4bgqh2rcd13ifvqc4g","pricing_plan_id":"cebpf4jnsgd1na2vs0mg"},{"bike_id":"27ce9016-4403-4c8b-baa1-83d59044bc87","system_id":"levelo_inurba_marseille","lat":43.311131,"lon":5.377651,"is_reserved":false,"is_disabled":false,"rental_uris":{"android":"levelo://app?vid=27ce9016-4403-4c8b-baa1-83d59044bc87","ios":"levelo://app?vid=27ce9016-4403-4c8b-baa1-83d59044bc87"},"vehicle_type_id":"4","last_reported":1722183055,"current_range_meters":21200,"station_id":"ce4bgt92rcd13ifvqcg0","pricing_plan_id":"cebpf4jnsgd1na2vs0mg"},{"bike_id":"bc52c906-28a7-4f04-a31a-9dec27fbe996","system_id":"levelo_inurba_marseille","lat":43.305368,"lon":5.367343,"is_reserved":false,"is_disabled":false,"rental_uris":{"android":"levelo://app?vid=bc52c906-28a7-4f04-a31a-9dec27fbe996","ios":"levelo://app?vid=bc52c906-28a7-4f04-a31a-9dec27fbe996"},"vehicle_type_id":"4","last_reported":1722183055,"current_range_meters":400,"station_id":"ce4bgrp2rcd13ifvqc9g","pricing_plan_id":"cebpf4jnsgd1na2vs0mg"},{"bike_id":"6172cf91-3d04-4d34-b3eb-3a7bd79a506a","system_id":"levelo_inurba_marseille","lat":43.303046,"lon":5.368981,"is_reserved":false,"is_disabled":false,"rental_uris":{"android":"levelo://app?vid=6172cf91-3d04-4d34-b3eb-3a7bd79a506a","ios":"levelo://app?vid=6172cf91-3d04-4d34-b3eb-3a7bd79a506a"},"vehicle_type_id":"4","last_reported":1722183055,"current_range_meters":3200,"station_id":"ce4bgqh2rcd13ifvqc5g","pricing_plan_id":"cebpf4jnsgd1na2vs0mg"},{"bike_id":"33cb5af7-c6a8-4037-bead-4c99e1eb0b41","system_id":"levelo_inurba_marseille","lat":43.315289,"lon":5.380349,"is_reserved":false,"is_disabled":false,"rental_uris":{"android":"levelo://app?vid=33cb5af7-c6a8-4037-bead-4c99e1eb0b41","ios":"levelo://app?vid=33cb5af7-c6a8-4037-bead-4c99e1eb0b41"},"vehicle_type_id":"4","last_reported":1722183055,"current_range_meters":8000,"station_id":"ce4bhsp2rcd13ifvqi50","pricing_plan_id":"cebpf4jnsgd1na2vs0mg"},{"bike_id":"2363439b-3461-47d6-b2e5-381a915058f1","system_id":"levelo_inurba_marseille","lat":43.304606,"lon":5.379026,"is_reserved":false,"is_disabled":false,"rental_uris":{"android":"levelo://app?vid=2363439b-3461-47d6-b2e5-381a915058f1","ios":"levelo://app?vid=2363439b-3461-47d6-b2e5-381a915058f1"},"vehicle_type_id":"4","last_reported":1722183055,"current_range_meters":0,"station_id":"ce4bgup2rcd13ifvqcn0","pricing_plan_id":"cebpf4jnsgd1na2vs0mg"},{"bike_id":"c9627781-812f-46fa-991a-70cf19f2c3a4","system_id":"levelo_inurba_marseille","lat":43.30457,"lon":5.37901,"is_reserved":false,"is_disabled":false,"rental_uris":{"android":"levelo://app?vid=c9627781-812f-46fa-991a-70cf19f2c3a4","ios":"levelo://app?vid=c9627781-812f-46fa-991a-70cf19f2c3a4"},"vehicle_type_id":"4","last_reported":1722183055,"current_range_meters":0,"station_id":"ce4bgup2rcd13ifvqcn0","pricing_plan_id":"cebpf4jnsgd1na2vs0mg"},{"bike_id":"4aaa3bef-b7fc-4cb8-961f-d3630f1db2c0","system_id":"levelo_inurba_marseille","lat":43.32483,"lon":5.36567,"is_reserved":false,"is_disabled":false,"rental_uris":{"android":"levelo://app?vid=4aaa3bef-b7fc-4cb8-961f-d3630f1db2c0","ios":"levelo://app?vid=4aaa3bef-b7fc-4cb8-961f-d3630f1db2c0"},"vehicle_type_id":"4","last_reported":1722183055,"current_range_meters":28800,"station_id":"ce4bhs12rcd13ifvqhvg","pricing_plan_id":"cebpf4jnsgd1na2vs0mg"},{"bike_id":"da535827-0883-4959-b125-135aab87750b","system_id":"levelo_inurba_marseille","lat":43.324771,"lon":5.36557,"is_reserved":false,"is_disabled":false,"rental_uris":{"android":"levelo://app?vid=da535827-0883-4959-b125-135aab87750b","ios":"levelo://app?vid=da535827-0883-4959-b125-135aab87750b"},"vehicle_type_id":"4","last_reported":1722183055,"current_range_meters":27600,"station_id":"ce4bhs12rcd13ifvqhvg","pricing_plan_id":"cebpf4jnsgd1na2vs0mg"},{"bike_id":"8add2df5-9e48-4842-a4c4-c9ad89537666","system_id":"levelo_inurba_marseille","lat":43.310804,"lon":5.38359,"is_reserved":false,"is_disabled":false,"rental_uris":{"android":"levelo://app?vid=8add2df5-9e48-4842-a4c4-c9ad89537666","ios":"levelo://app?vid=8add2df5-9e48-4842-a4c4-c9ad89537666"},"vehicle_type_id":"4","last_reported":1722183055,"current_range_meters":0,"station_id":"ce4bgv92rcd13ifvqcr0","pricing_plan_id":"cebpf4jnsgd1na2vs0mg"},{"bike_id":"0e91c7c2-fe35-4e93-bda8-4c17bb399266","system_id":"levelo_inurba_marseille","lat":43.301429,"lon":5.37413,"is_reserved":false,"is_disabled":false,"rental_uris":{"android":"levelo://app?vid=0e91c7c2-fe35-4e93-bda8-4c17bb399266","ios":"levelo://app?vid=0e91c7c2-fe35-4e93-bda8-4c17bb399266"},"vehicle_type_id":"4","last_reported":1722183055,"current_range_meters":24800,"station_id":"ce4bgs92rcd13ifvqcc0","pricing_plan_id":"cebpf4jnsgd1na2vs0mg"},{"bike_id":"64efb8ba-933f-47fc-b58f-b13d857f90b0","system_id":"levelo_inurba_marseille","lat":43.31609,"lon":5.38381,"is_reserved":false,"is_disabled":false,"rental_uris":{"android":"levelo://app?vid=64efb8ba-933f-47fc-b58f-b13d857f90b0","ios":"levelo://app?vid=64efb8ba-933f-47fc-b58f-b13d857f90b0"},"vehicle_type_id":"4","last_reported":1722183055,"current_range_meters":28000,"station_id":"","pricing_plan_id":"cebpf4jnsgd1na2vs0mg"},{"bike_id":"ba751eab-e386-4f42-b81e-204bfba1b413","system_id":"levelo_inurba_marseille","lat":43.319935,"lon":5.381699,"is_reserved":false,"is_disabled":false,"rental_uris":{"android":"levelo://app?vid=ba751eab-e386-4f42-b81e-204bfba1b413","ios":"levelo://app?vid=ba751eab-e386-4f42-b81e-204bfba1b413"},"vehicle_type_id":"4","last_reported":1722183055,"current_range_meters":24400,"station_id":"ce4bhr12rcd13ifvqhpg","pricing_plan_id":"cebpf4jnsgd1na2vs0mg"},{"bike_id":"4d6b4c40-7b62-48e5-8564-aedcc4292781","system_id":"levelo_inurba_marseille","lat":43.319935,"lon":5.381699,"is_reserved":false,"is_disabled":false,"rental_uris":{"android":"levelo://app?vid=4d6b4c40-7b62-48e5-8564-aedcc4292781","ios":"levelo://app?vid=4d6b4c40-7b62-48e5-8564-aedcc4292781"},"vehicle_type_id":"4","last_reported":1722183055,"current_range_meters":5200,"station_id":"ce4bhr12rcd13ifvqhpg","pricing_plan_id":"cebpf4jnsgd1na2vs0mg"},{"bike_id":"34d5f260-e33f-4b30-b4e5-1d675d64a8a0","system_id":"levelo_inurba_marseille","lat":43.319935,"lon":5.381699,"is_reserved":false,"is_disabled":false,"rental_uris":{"android":"levelo://app?vid=34d5f260-e33f-4b30-b4e5-1d675d64a8a0","ios":"levelo://app?vid=34d5f260-e33f-4b30-b4e5-1d675d64a8a0"},"vehicle_type_id":"4","last_reported":1722183055,"current_range_meters":13600,"station_id":"ce4bhr12rcd13ifvqhpg","pricing_plan_id":"cebpf4jnsgd1na2vs0mg"},{"bike_id":"19008cde-9a12-4135-abc5-dabb76ecd2c7","system_id":"levelo_inurba_marseille","lat":43.319935,"lon":5.381699,"is_reserved":false,"is_disabled":false,"rental_uris":{"android":"levelo://app?vid=19008cde-9a12-4135-abc5-dabb76ecd2c7","ios":"levelo://app?vid=19008cde-9a12-4135-abc5-dabb76ecd2c7"},"vehicle_type_id":"4","last_reported":1722183055,"current_range_meters":8400,"station_id":"ce4bhr12rcd13ifvqhpg","pricing_plan_id":"cebpf4jnsgd1na2vs0mg"},{"bike_id":"f73d42c2-6d9c-4913-89c7-97ceecc472ae","system_id":"levelo_inurba_marseille","lat":43.319935,"lon":5.381699,"is_reserved":false,"is_disabled":false,"rental_uris":{"android":"levelo://app?vid=f73d42c2-6d9c-4913-89c7-97ceecc472ae","ios":"levelo://app?vid=f73d42c2-6d9c-4913-89c7-97ceecc472ae"},"vehicle_type_id":"4","last_reported":1722183055,"current_range_meters":6000,"station_id":"ce4bhr12rcd13ifvqhpg","pricing_plan_id":"cebpf4jnsgd1na2vs0mg"},{"bike_id":"b900571e-7a3e-4ee5-b10b-e13162b21dfc","system_id":"levelo_inurba_marseille","lat":43.313571,"lon":5.384829,"is_reserved":false,"is_disabled":false,"rental_uris":{"android":"levelo://app?vid=b900571e-7a3e-4ee5-b10b-e13162b21dfc","ios":"levelo://app?vid=b900571e-7a3e-4ee5-b10b-e13162b21dfc"},"vehicle_type_id":"4","last_reported":1722183055,"current_range_meters":10800,"station_id":"ce4bgt92rcd13ifvqcf0","pricing_plan_id":"cebpf4jnsgd1na2vs0mg"},{"bike_id":"7595351b-6aa3-41b8-aa5e-a1f9d61851e6","system_id":"levelo_inurba_marseille","lat":43.313571,"lon":5.384829,"is_reserved":false,"is_disabled":false,"rental_uris":{"android":"levelo://app?vid=7595351b-6aa3-41b8-aa5e-a1f9d61851e6","ios":"levelo://app?vid=7595351b-6aa3-41b8-aa5e-a1f9d61851e6"},"vehicle_type_id":"4","last_reported":1722183055,"current_range_meters":23600,"station_id":"ce4bgt92rcd13ifvqcf0","pricing_plan_id":"cebpf4jnsgd1na2vs0mg"},{"bike_id":"67a05b44-1b02-4bba-81fe-17dbe92868b5","system_id":"levelo_inurba_marseille","lat":43.309443,"lon":5.386309,"is_reserved":false,"is_disabled":false,"rental_uris":{"android":"levelo://app?vid=67a05b44-1b02-4bba-81fe-17dbe92868b5","ios":"levelo://app?vid=67a05b44-1b02-4bba-81fe-17dbe92868b5"},"vehicle_type_id":"4","last_reported":1722183055,"current_range_meters":21600,"station_id":"","pricing_plan_id":"cebpf4jnsgd1na2vs0mg"},{"bike_id":"59627be0-b034-4c18-9b38-577255708329","system_id":"levelo_inurba_marseille","lat":43.299243,"lon":5.37481,"is_reserved":false,"is_disabled":false,"rental_uris":{"android":"levelo://app?vid=59627be0-b034-4c18-9b38-577255708329","ios":"levelo://app?vid=59627be0-b034-4c18-9b38-577255708329"},"vehicle_type_id":"4","last_reported":1722183055,"current_range_meters":23200,"station_id":"ce4bgjh2rcd13ifvqbg0","pricing_plan_id":"cebpf4jnsgd1na2vs0mg"},{"bike_id":"40487929-b3bd-47d9-8936-14d89d6d8adb","system_id":"levelo_inurba_marseille","lat":43.29921,"lon":5.37471,"is_reserved":false,"is_disabled":false,"rental_uris":{"android":"levelo://app?vid=40487929-b3bd-47d9-8936-14d89d6d8adb","ios":"levelo://app?vid=40487929-b3bd-47d9-8936-14d89d6d8adb"},"vehicle_type_id":"4","last_reported":1722183055,"current_range_meters":0,"station_id":"ce4bgjh2rcd13ifvqbg0","pricing_plan_id":"cebpf4jnsgd1na2vs0mg"},{"bike_id":"7b5c20cd-b229-450b-ae21-6ed578052507","system_id":"levelo_inurba_marseille","lat":43.299243,"lon":5.374807,"is_reserved":false,"is_disabled":false,"rental_uris":{"android":"levelo://app?vid=7b5c20cd-b229-450b-ae21-6ed578052507","ios":"levelo://app?vid=7b5c20cd-b229-450b-ae21-6ed578052507"},"vehicle_type_id":"4","last_reported":1722183055,"current_range_meters":17600,"station_id":"ce4bgjh2rcd13ifvqbg0","pricing_plan_id":"cebpf4jnsgd1na2vs0mg"},{"bike_id":"7a974165-301b-43ed-a5b4-1871a5ea524d","system_id":"levelo_inurba_marseille","lat":43.2979,"lon":5.37105,"is_reserved":false,"is_disabled":false,"rental_uris":{"android":"levelo://app?vid=7a974165-301b-43ed-a5b4-1871a5ea524d","ios":"levelo://app?vid=7a974165-301b-43ed-a5b4-1871a5ea524d"},"vehicle_type_id":"4","last_reported":1722183055,"current_range_meters":400,"station_id":"ce4bgop2rcd13ifvqc1g","pricing_plan_id":"cebpf4jnsgd1na2vs0mg"},{"bike_id":"71d2f5de-be2e-4354-807d-a4ad51e118b4","system_id":"levelo_inurba_marseille","lat":43.297774,"lon":5.370875,"is_reserved":false,"is_disabled":false,"rental_uris":{"android":"levelo://app?vid=71d2f5de-be2e-4354-807d-a4ad51e118b4","ios":"levelo://app?vid=71d2f5de-be2e-4354-807d-a4ad51e118b4"},"vehicle_type_id":"4","last_reported":1722183055,"current_range_meters":15200,"station_id":"ce4bgop2rcd13ifvqc1g","pricing_plan_id":"cebpf4jnsgd1na2vs0mg"},{"bike_id":"5aa48966-c231-4791-8578-e14a8abea024","system_id":"levelo_inurba_marseille","lat":43.322872,"lon":5.382756,"is_reserved":false,"is_disabled":false,"rental_uris":{"android":"levelo://app?vid=5aa48966-c231-4791-8578-e14a8abea024","ios":"levelo://app?vid=5aa48966-c231-4791-8578-e14a8abea024"},"vehicle_type_id":"4","last_reported":1722183055,"current_range_meters":26000,"station_id":"ce4bhr12rcd13ifvqhqg","pricing_plan_id":"cebpf4jnsgd1na2vs0mg"},{"bike_id":"159637fe-bc24-4cf9-88b7-46c4bdf23e61","system_id":"levelo_inurba_marseille","lat":43.322872,"lon":5.382756,"is_reserved":false,"is_disabled":false,"rental_uris":{"android":"levelo://app?vid=159637fe-bc24-4cf9-88b7-46c4bdf23e61","ios":"levelo://app?vid=159637fe-bc24-4cf9-88b7-46c4bdf23e61"},"vehicle_type_id":"4","last_reported":1722183055,"current_range_meters":10800,"station_id":"ce4bhr12rcd13ifvqhqg","pricing_plan_id":"cebpf4jnsgd1na2vs0mg"},{"bike_id":"22e41778-51bb-4239-91a8-cf2d50ed1db8","system_id":"levelo_inurba_marseille","lat":43.31894,"lon":5.38638,"is_reserved":false,"is_disabled":false,"rental_uris":{"android":"levelo://app?vid=22e41778-51bb-4239-91a8-cf2d50ed1db8","ios":"levelo://app?vid=22e41778-51bb-4239-91a8-cf2d50ed1db8"},"vehicle_type_id":"4","last_reported":1722183055,"current_range_meters":27600,"station_id":"","pricing_plan_id":"cebpf4jnsgd1na2vs0mg"},{"bike_id":"abf020ab-5a6c-4766-ad02-8cb07fbd9afa","system_id":"levelo_inurba_marseille","lat":43.297163,"lon":5.365866,"is_reserved":false,"is_disabled":false,"rental_uris":{"android":"levelo://app?vid=abf020ab-5a6c-4766-ad02-8cb07fbd9afa","ios":"levelo://app?vid=abf020ab-5a6c-4766-ad02-8cb07fbd9afa"},"vehicle_type_id":"4","last_reported":1722183055,"current_range_meters":28800,"station_id":"ce4bgn12rcd13ifvqbt0","pricing_plan_id":"cebpf4jnsgd1na2vs0mg"},{"bike_id":"186c20ca-ac54-46bc-ac9a-01e3dbf8f679","system_id":"levelo_inurba_marseille","lat":43.297163,"lon":5.365866,"is_reserved":false,"is_disabled":false,"rental_uris":{"android":"levelo://app?vid=186c20ca-ac54-46bc-ac9a-01e3dbf8f679","ios":"levelo://app?vid=186c20ca-ac54-46bc-ac9a-01e3dbf8f679"},"vehicle_type_id":"4","last_reported":1722183055,"current_range_meters":2800,"station_id":"ce4bgn12rcd13ifvqbt0","pricing_plan_id":"cebpf4jnsgd1na2vs0mg"},{"bike_id":"23d31136-e4af-406a-9a96-3eba9710458a","system_id":"levelo_inurba_marseille","lat":43.296467,"lon":5.36609,"is_reserved":false,"is_disabled":false,"rental_uris":{"android":"levelo://app?vid=23d31136-e4af-406a-9a96-3eba9710458a","ios":"levelo://app?vid=23d31136-e4af-406a-9a96-3eba9710458a"},"vehicle_type_id":"4","last_reported":1722183055,"current_range_meters":0,"station_id":"","pricing_plan_id":"cebpf4jnsgd1na2vs0mg"},{"bike_id":"77ebd6f7-0e15-4246-8feb-b1d720ac899a","system_id":"levelo_inurba_marseille","lat":43.30059,"lon":5.38222,"is_reserved":false,"is_disabled":false,"rental_uris":{"android":"levelo://app?vid=77ebd6f7-0e15-4246-8feb-b1d720ac899a","ios":"levelo://app?vid=77ebd6f7-0e15-4246-8feb-b1d720ac899a"},"vehicle_type_id":"4","last_reported":1722183055,"current_range_meters":14800,"station_id":"","pricing_plan_id":"cebpf4jnsgd1na2vs0mg"},{"bike_id":"8bf29445-d131-46ef-91fa-c9e654b1cc38","system_id":"levelo_inurba_marseille","lat":43.29573,"lon":5.367355,"is_reserved":false,"is_disabled":false,"rental_uris":{"android":"levelo://app?vid=8bf29445-d131-46ef-91fa-c9e654b1cc38","ios":"levelo://app?vid=8bf29445-d131-46ef-91fa-c9e654b1cc38"},"vehicle_type_id":"4","last_reported":1722183055,"current_range_meters":0,"station_id":"ce4bgph2rcd13ifvqc2g","pricing_plan_id":"cebpf4jnsgd1na2vs0mg"},{"bike_id":"5a0727c4-ecca-485c-942f-b8d1e43d5b0d","system_id":"levelo_inurba_marseille","lat":43.296921,"lon":5.376579,"is_reserved":false,"is_disabled":false,"rental_uris":{"android":"levelo://app?vid=5a0727c4-ecca-485c-942f-b8d1e43d5b0d","ios":"levelo://app?vid=5a0727c4-ecca-485c-942f-b8d1e43d5b0d"},"vehicle_type_id":"4","last_reported":1722183055,"current_range_meters":31200,"station_id":"ce4bgkh2rcd13ifvqbl0","pricing_plan_id":"cebpf4jnsgd1na2vs0mg"},{"bike_id":"7a46cb3f-bfd9-4ab1-8d48-0ab6e238fcfa","system_id":"levelo_inurba_marseille","lat":43.29615,"lon":5.36131,"is_reserved":false,"is_disabled":false,"rental_uris":{"android":"levelo://app?vid=7a46cb3f-bfd9-4ab1-8d48-0ab6e238fcfa","ios":"levelo://app?vid=7a46cb3f-bfd9-4ab1-8d48-0ab6e238fcfa"},"vehicle_type_id":"4","last_reported":1722183055,"current_range_meters":26000,"station_id":"","pricing_plan_id":"cebpf4jnsgd1na2vs0mg"},{"bike_id":"26fff7c4-5da7-433d-ac60-a3b8631696f1","system_id":"levelo_inurba_marseille","lat":43.30952,"lon":5.39027,"is_reserved":false,"is_disabled":false,"rental_uris":{"android":"levelo://app?vid=26fff7c4-5da7-433d-ac60-a3b8631696f1","ios":"levelo://app?vid=26fff7c4-5da7-433d-ac60-a3b8631696f1"},"vehicle_type_id":"4","last_reported":1722183055,"current_range_meters":800,"station_id":"ce4bgup2rcd13ifvqco0","pricing_plan_id":"cebpf4jnsgd1na2vs0mg"},{"bike_id":"3c8db580-0ce6-4d6e-8a83-1222532c1004","system_id":"levelo_inurba_marseille","lat":43.309589,"lon":5.390258,"is_reserved":false,"is_disabled":false,"rental_uris":{"android":"levelo://app?vid=3c8db580-0ce6-4d6e-8a83-1222532c1004","ios":"levelo://app?vid=3c8db580-0ce6-4d6e-8a83-1222532c1004"},"vehicle_type_id":"4","last_reported":1722183055,"current_range_meters":14000,"station_id":"ce4bgup2rcd13ifvqco0","pricing_plan_id":"cebpf4jnsgd1na2vs0mg"},{"bike_id":"6515f95a-5f45-4135-912a-c2c4fb72819c","system_id":"levelo_inurba_marseille","lat":43.309589,"lon":5.390258,"is_reserved":false,"is_disabled":false,"rental_uris":{"android":"levelo://app?vid=6515f95a-5f45-4135-912a-c2c4fb72819c","ios":"levelo://app?vid=6515f95a-5f45-4135-912a-c2c4fb72819c"},"vehicle_type_id":"4","last_reported":1722183055,"current_range_meters":0,"station_id":"ce4bgup2rcd13ifvqco0","pricing_plan_id":"cebpf4jnsgd1na2vs0mg"},{"bike_id":"f0a64381-22a7-47ca-b742-fb6761e96883","system_id":"levelo_inurba_marseille","lat":43.309589,"lon":5.390258,"is_reserved":false,"is_disabled":false,"rental_uris":{"android":"levelo://app?vid=f0a64381-22a7-47ca-b742-fb6761e96883","ios":"levelo://app?vid=f0a64381-22a7-47ca-b742-fb6761e96883"},"vehicle_type_id":"4","last_reported":1722183055,"current_range_meters":24800,"station_id":"ce4bgup2rcd13ifvqco0","pricing_plan_id":"cebpf4jnsgd1na2vs0mg"},{"bike_id":"865fcc44-c144-4782-ad64-88f28333599e","system_id":"levelo_inurba_marseille","lat":43.317557,"lon":5.390173,"is_reserved":false,"is_disabled":false,"rental_uris":{"android":"levelo://app?vid=865fcc44-c144-4782-ad64-88f28333599e","ios":"levelo://app?vid=865fcc44-c144-4782-ad64-88f28333599e"},"vehicle_type_id":"4","last_reported":1722183055,"current_range_meters":24800,"station_id":"ce4bhqp2rcd13ifvqhng","pricing_plan_id":"cebpf4jnsgd1na2vs0mg"},{"bike_id":"78239700-18de-4937-849c-4777c9e522de","system_id":"levelo_inurba_marseille","lat":43.317557,"lon":5.390173,"is_reserved":false,"is_disabled":false,"rental_uris":{"android":"levelo://app?vid=78239700-18de-4937-849c-4777c9e522de","ios":"levelo://app?vid=78239700-18de-4937-849c-4777c9e522de"},"vehicle_type_id":"4","last_reported":1722183055,"current_range_meters":23200,"station_id":"ce4bhqp2rcd13ifvqhng","pricing_plan_id":"cebpf4jnsgd1na2vs0mg"},{"bike_id":"e8ee1af2-a465-4b95-8d2a-1165ecbf8673","system_id":"levelo_inurba_marseille","lat":43.29795,"lon":5.38091,"is_reserved":false,"is_disabled":false,"rental_uris":{"android":"levelo://app?vid=e8ee1af2-a465-4b95-8d2a-1165ecbf8673","ios":"levelo://app?vid=e8ee1af2-a465-4b95-8d2a-1165ecbf8673"},"vehicle_type_id":"4","last_reported":1722183055,"current_range_meters":0,"station_id":"ce4bgip2rcd13ifvqbb0","pricing_plan_id":"cebpf4jnsgd1na2vs0mg"},{"bike_id":"5a4c5e89-2a35-4017-8e8e-a45edd600d7a","system_id":"levelo_inurba_marseille","lat":43.29569,"lon":5.37497,"is_reserved":false,"is_disabled":false,"rental_uris":{"android":"levelo://app?vid=5a4c5e89-2a35-4017-8e8e-a45edd600d7a","ios":"levelo://app?vid=5a4c5e89-2a35-4017-8e8e-a45edd600d7a"},"vehicle_type_id":"4","last_reported":1722183055,"current_range_meters":0,"station_id":"ce4bgh92rcd13ifvqb50","pricing_plan_id":"cebpf4jnsgd1na2vs0mg"},{"bike_id":"817841b4-9fd1-4959-a721-6c51e2cdf1b2","system_id":"levelo_inurba_marseille","lat":43.2979,"lon":5.38103,"is_reserved":false,"is_disabled":false,"rental_uris":{"android":"levelo://app?vid=817841b4-9fd1-4959-a721-6c51e2cdf1b2","ios":"levelo://app?vid=817841b4-9fd1-4959-a721-6c51e2cdf1b2"},"vehicle_type_id":"4","last_reported":1722183055,"current_range_meters":0,"station_id":"ce4bgip2rcd13ifvqbb0","pricing_plan_id":"cebpf4jnsgd1na2vs0mg"},{"bike_id":"a073323a-a81a-4c8a-a0aa-01ec9137dfaa","system_id":"levelo_inurba_marseille","lat":43.296277,"lon":5.377108,"is_reserved":false,"is_disabled":false,"rental_uris":{"android":"levelo://app?vid=a073323a-a81a-4c8a-a0aa-01ec9137dfaa","ios":"levelo://app?vid=a073323a-a81a-4c8a-a0aa-01ec9137dfaa"},"vehicle_type_id":"4","last_reported":1722183055,"current_range_meters":0,"station_id":"ce4bgi92rcd13ifvqb90","pricing_plan_id":"cebpf4jnsgd1na2vs0mg"},{"bike_id":"2177bd78-c3e6-4641-8b97-3baf2d68ef49","system_id":"levelo_inurba_marseille","lat":43.304278,"lon":5.388868,"is_reserved":false,"is_disabled":false,"rental_uris":{"android":"levelo://app?vid=2177bd78-c3e6-4641-8b97-3baf2d68ef49","ios":"levelo://app?vid=2177bd78-c3e6-4641-8b97-3baf2d68ef49"},"vehicle_type_id":"4","last_reported":1722183055,"current_range_meters":4000,"station_id":"ce4bgk12rcd13ifvqbi0","pricing_plan_id":"cebpf4jnsgd1na2vs0mg"},{"bike_id":"7c7b2435-b44d-4dfd-9e8b-61c000db8540","system_id":"levelo_inurba_marseille","lat":43.296277,"lon":5.377108,"is_reserved":false,"is_disabled":false,"rental_uris":{"android":"levelo://app?vid=7c7b2435-b44d-4dfd-9e8b-61c000db8540","ios":"levelo://app?vid=7c7b2435-b44d-4dfd-9e8b-61c000db8540"},"vehicle_type_id":"4","last_reported":1722183055,"current_range_meters":0,"station_id":"ce4bgi92rcd13ifvqb90","pricing_plan_id":"cebpf4jnsgd1na2vs0mg"},{"bike_id":"39f6638b-d3cb-4b6a-8ad1-696828dfcf16","system_id":"levelo_inurba_marseille","lat":43.296263,"lon":5.377094,"is_reserved":false,"is_disabled":false,"rental_uris":{"android":"levelo://app?vid=39f6638b-d3cb-4b6a-8ad1-696828dfcf16","ios":"levelo://app?vid=39f6638b-d3cb-4b6a-8ad1-696828dfcf16"},"vehicle_type_id":"4","last_reported":1722183055,"current_range_meters":15200,"station_id":"ce4bgi92rcd13ifvqb90","pricing_plan_id":"cebpf4jnsgd1na2vs0mg"},{"bike_id":"61f3168e-87b2-4b47-908c-db8e7a9a91ff","system_id":"levelo_inurba_marseille","lat":43.30396,"lon":5.38917,"is_reserved":false,"is_disabled":false,"rental_uris":{"android":"levelo://app?vid=61f3168e-87b2-4b47-908c-db8e7a9a91ff","ios":"levelo://app?vid=61f3168e-87b2-4b47-908c-db8e7a9a91ff"},"vehicle_type_id":"4","last_reported":1722183055,"current_range_meters":14000,"station_id":"ce4bgk12rcd13ifvqbi0","pricing_plan_id":"cebpf4jnsgd1na2vs0mg"},{"bike_id":"310461b5-5f86-41f5-a698-2364264332b9","system_id":"levelo_inurba_marseille","lat":43.29971,"lon":5.384873,"is_reserved":false,"is_disabled":false,"rental_uris":{"android":"levelo://app?vid=310461b5-5f86-41f5-a698-2364264332b9","ios":"levelo://app?vid=310461b5-5f86-41f5-a698-2364264332b9"},"vehicle_type_id":"4","last_reported":1722183055,"current_range_meters":0,"station_id":"ce4bgj92rcd13ifvqbd0","pricing_plan_id":"cebpf4jnsgd1na2vs0mg"},{"bike_id":"ffddf3af-e267-4e89-808a-8f4aedcda0a1","system_id":"levelo_inurba_marseille","lat":43.29973,"lon":5.38495,"is_reserved":false,"is_disabled":false,"rental_uris":{"android":"levelo://app?vid=ffddf3af-e267-4e89-808a-8f4aedcda0a1","ios":"levelo://app?vid=ffddf3af-e267-4e89-808a-8f4aedcda0a1"},"vehicle_type_id":"4","last_reported":1722183055,"current_range_meters":0,"station_id":"ce4bgj92rcd13ifvqbd0","pricing_plan_id":"cebpf4jnsgd1na2vs0mg"},{"bike_id":"423766c5-a260-4840-97a9-08b7ea7d1ca1","system_id":"levelo_inurba_marseille","lat":43.295162,"lon":5.375087,"is_reserved":false,"is_disabled":false,"rental_uris":{"android":"levelo://app?vid=423766c5-a260-4840-97a9-08b7ea7d1ca1","ios":"levelo://app?vid=423766c5-a260-4840-97a9-08b7ea7d1ca1"},"vehicle_type_id":"4","last_reported":1722183055,"current_range_meters":0,"station_id":"ce4bgkp2rcd13ifvqbmg","pricing_plan_id":"cebpf4jnsgd1na2vs0mg"},{"bike_id":"c7b2f27a-d3d4-41a7-b051-a50ecbf97e91","system_id":"levelo_inurba_marseille","lat":43.299717,"lon":5.384845,"is_reserved":false,"is_disabled":false,"rental_uris":{"android":"levelo://app?vid=c7b2f27a-d3d4-41a7-b051-a50ecbf97e91","ios":"levelo://app?vid=c7b2f27a-d3d4-41a7-b051-a50ecbf97e91"},"vehicle_type_id":"4","last_reported":1722183055,"current_range_meters":0,"station_id":"ce4bgj92rcd13ifvqbd0","pricing_plan_id":"cebpf4jnsgd1na2vs0mg"},{"bike_id":"b4d10148-523b-40ce-b2ee-f52a20f2e72e","system_id":"levelo_inurba_marseille","lat":43.32367,"lon":5.388836,"is_reserved":false,"is_disabled":false,"rental_uris":{"android":"levelo://app?vid=b4d10148-523b-40ce-b2ee-f52a20f2e72e","ios":"levelo://app?vid=b4d10148-523b-40ce-b2ee-f52a20f2e72e"},"vehicle_type_id":"4","last_reported":1722183055,"current_range_meters":21600,"station_id":"ce4bhqp2rcd13ifvqhog","pricing_plan_id":"cebpf4jnsgd1na2vs0mg"},{"bike_id":"7b3f765e-0107-47dd-9c6a-f6453cf46522","system_id":"levelo_inurba_marseille","lat":43.32367,"lon":5.388836,"is_reserved":false,"is_disabled":false,"rental_uris":{"android":"levelo://app?vid=7b3f765e-0107-47dd-9c6a-f6453cf46522","ios":"levelo://app?vid=7b3f765e-0107-47dd-9c6a-f6453cf46522"},"vehicle_type_id":"4","last_reported":1722183055,"current_range_meters":19200,"station_id":"ce4bhqp2rcd13ifvqhog","pricing_plan_id":"cebpf4jnsgd1na2vs0mg"},{"bike_id":"6a60a62a-575f-4518-830c-e8e47c8b46dd","system_id":"levelo_inurba_marseille","lat":43.32367,"lon":5.388836,"is_reserved":false,"is_disabled":false,"rental_uris":{"android":"levelo://app?vid=6a60a62a-575f-4518-830c-e8e47c8b46dd","ios":"levelo://app?vid=6a60a62a-575f-4518-830c-e8e47c8b46dd"},"vehicle_type_id":"4","last_reported":1722183055,"current_range_meters":0,"station_id":"ce4bhqp2rcd13ifvqhog","pricing_plan_id":"cebpf4jnsgd1na2vs0mg"},{"bike_id":"c15b24c4-b77e-49a6-bf53-30269e940a61","system_id":"levelo_inurba_marseille","lat":43.32367,"lon":5.388836,"is_reserved":false,"is_disabled":false,"rental_uris":{"android":"levelo://app?vid=c15b24c4-b77e-49a6-bf53-30269e940a61","ios":"levelo://app?vid=c15b24c4-b77e-49a6-bf53-30269e940a61"},"vehicle_type_id":"4","last_reported":1722183055,"current_range_meters":8800,"station_id":"ce4bhqp2rcd13ifvqhog","pricing_plan_id":"cebpf4jnsgd1na2vs0mg"},{"bike_id":"fff9ce80-e3a6-4300-a750-f133cdb858c3","system_id":"levelo_inurba_marseille","lat":43.29351,"lon":5.37132,"is_reserved":false,"is_disabled":false,"rental_uris":{"android":"levelo://app?vid=fff9ce80-e3a6-4300-a750-f133cdb858c3","ios":"levelo://app?vid=fff9ce80-e3a6-4300-a750-f133cdb858c3"},"vehicle_type_id":"4","last_reported":1722183055,"current_range_meters":10000,"station_id":"","pricing_plan_id":"cebpf4jnsgd1na2vs0mg"},{"bike_id":"689281a6-766e-4e43-8a38-efb7f1131332","system_id":"levelo_inurba_marseille","lat":43.293259,"lon":5.371586,"is_reserved":false,"is_disabled":false,"rental_uris":{"android":"levelo://app?vid=689281a6-766e-4e43-8a38-efb7f1131332","ios":"levelo://app?vid=689281a6-766e-4e43-8a38-efb7f1131332"},"vehicle_type_id":"4","last_reported":1722183055,"current_range_meters":0,"station_id":"ce4bgh92rcd13ifvqb40","pricing_plan_id":"cebpf4jnsgd1na2vs0mg"},{"bike_id":"3aa26121-22a8-4ad9-98e3-7fa34bfd0889","system_id":"levelo_inurba_marseille","lat":43.293259,"lon":5.371586,"is_reserved":false,"is_disabled":false,"rental_uris":{"android":"levelo://app?vid=3aa26121-22a8-4ad9-98e3-7fa34bfd0889","ios":"levelo://app?vid=3aa26121-22a8-4ad9-98e3-7fa34bfd0889"},"vehicle_type_id":"4","last_reported":1722183055,"current_range_meters":1600,"station_id":"ce4bgh92rcd13ifvqb40","pricing_plan_id":"cebpf4jnsgd1na2vs0mg"},{"bike_id":"3fb7346a-df43-42d1-9b6b-e7ba852a7eed","system_id":"levelo_inurba_marseille","lat":43.293259,"lon":5.371586,"is_reserved":false,"is_disabled":false,"rental_uris":{"android":"levelo://app?vid=3fb7346a-df43-42d1-9b6b-e7ba852a7eed","ios":"levelo://app?vid=3fb7346a-df43-42d1-9b6b-e7ba852a7eed"},"vehicle_type_id":"4","last_reported":1722183055,"current_range_meters":2000,"station_id":"ce4bgh92rcd13ifvqb40","pricing_plan_id":"cebpf4jnsgd1na2vs0mg"},{"bike_id":"5ebaa9c6-5739-48c2-bdd7-ff159f839415","system_id":"levelo_inurba_marseille","lat":43.292749,"lon":5.368402,"is_reserved":false,"is_disabled":false,"rental_uris":{"android":"levelo://app?vid=5ebaa9c6-5739-48c2-bdd7-ff159f839415","ios":"levelo://app?vid=5ebaa9c6-5739-48c2-bdd7-ff159f839415"},"vehicle_type_id":"4","last_reported":1722183055,"current_range_meters":17600,"station_id":"ce4bhbp2rcd13ifvqesg","pricing_plan_id":"cebpf4jnsgd1na2vs0mg"},{"bike_id":"df3b622b-fe6a-4405-a3a9-af4f7236cbfd","system_id":"levelo_inurba_marseille","lat":43.296277,"lon":5.377108,"is_reserved":false,"is_disabled":false,"rental_uris":{"android":"levelo://app?vid=df3b622b-fe6a-4405-a3a9-af4f7236cbfd","ios":"levelo://app?vid=df3b622b-fe6a-4405-a3a9-af4f7236cbfd"},"vehicle_type_id":"4","last_reported":1722183055,"current_range_meters":6400,"station_id":"ce4bgi92rcd13ifvqb90","pricing_plan_id":"cebpf4jnsgd1na2vs0mg"},{"bike_id":"342f0699-f9e6-476d-b789-90fea19795c7","system_id":"levelo_inurba_marseille","lat":43.293009,"lon":5.374584,"is_reserved":false,"is_disabled":false,"rental_uris":{"android":"levelo://app?vid=342f0699-f9e6-476d-b789-90fea19795c7","ios":"levelo://app?vid=342f0699-f9e6-476d-b789-90fea19795c7"},"vehicle_type_id":"4","last_reported":1722183055,"current_range_meters":0,"station_id":"ce4bgi12rcd13ifvqb70","pricing_plan_id":"cebpf4jnsgd1na2vs0mg"},{"bike_id":"1aa37b57-bb2c-4485-81f8-f04a7fcbd11a","system_id":"levelo_inurba_marseille","lat":43.305994,"lon":5.393687,"is_reserved":false,"is_disabled":false,"rental_uris":{"android":"levelo://app?vid=1aa37b57-bb2c-4485-81f8-f04a7fcbd11a","ios":"levelo://app?vid=1aa37b57-bb2c-4485-81f8-f04a7fcbd11a"},"vehicle_type_id":"4","last_reported":1722183055,"current_range_meters":800,"station_id":"ce4bh0p2rcd13ifvqd80","pricing_plan_id":"cebpf4jnsgd1na2vs0mg"},{"bike_id":"6e2708ec-4dd5-43e2-901a-a1d5982f6d53","system_id":"levelo_inurba_marseille","lat":43.29226,"lon":5.36264,"is_reserved":false,"is_disabled":false,"rental_uris":{"android":"levelo://app?vid=6e2708ec-4dd5-43e2-901a-a1d5982f6d53","ios":"levelo://app?vid=6e2708ec-4dd5-43e2-901a-a1d5982f6d53"},"vehicle_type_id":"4","last_reported":1722183055,"current_range_meters":0,"station_id":"","pricing_plan_id":"cebpf4jnsgd1na2vs0mg"},{"bike_id":"0c72de02-b448-4907-988b-5c90a78add41","system_id":"levelo_inurba_marseille","lat":43.29372,"lon":5.37861,"is_reserved":false,"is_disabled":false,"rental_uris":{"android":"levelo://app?vid=0c72de02-b448-4907-988b-5c90a78add41","ios":"levelo://app?vid=0c72de02-b448-4907-988b-5c90a78add41"},"vehicle_type_id":"4","last_reported":1722183055,"current_range_meters":15200,"station_id":"ce4bgjh2rcd13ifvqbf0","pricing_plan_id":"cebpf4jnsgd1na2vs0mg"},{"bike_id":"480a20c5-96fd-4934-930c-49f1fe22c1d4","system_id":"levelo_inurba_marseille","lat":43.292311,"lon":5.360731,"is_reserved":false,"is_disabled":false,"rental_uris":{"android":"levelo://app?vid=480a20c5-96fd-4934-930c-49f1fe22c1d4","ios":"levelo://app?vid=480a20c5-96fd-4934-930c-49f1fe22c1d4"},"vehicle_type_id":"4","last_reported":1722183055,"current_range_meters":0,"station_id":"ce4bhbh2rcd13ifvqeqg","pricing_plan_id":"cebpf4jnsgd1na2vs0mg"},{"bike_id":"7c199215-6f70-499d-a5db-f6d6e5e46ebd","system_id":"levelo_inurba_marseille","lat":43.29228,"lon":5.36055,"is_reserved":false,"is_disabled":false,"rental_uris":{"android":"levelo://app?vid=7c199215-6f70-499d-a5db-f6d6e5e46ebd","ios":"levelo://app?vid=7c199215-6f70-499d-a5db-f6d6e5e46ebd"},"vehicle_type_id":"4","last_reported":1722183055,"current_range_meters":30400,"station_id":"ce4bhbh2rcd13ifvqeqg","pricing_plan_id":"cebpf4jnsgd1na2vs0mg"},{"bike_id":"a5196313-73ba-4e6c-87a5-ca42198c21fa","system_id":"levelo_inurba_marseille","lat":43.29225,"lon":5.36054,"is_reserved":false,"is_disabled":false,"rental_uris":{"android":"levelo://app?vid=a5196313-73ba-4e6c-87a5-ca42198c21fa","ios":"levelo://app?vid=a5196313-73ba-4e6c-87a5-ca42198c21fa"},"vehicle_type_id":"4","last_reported":1722183055,"current_range_meters":0,"station_id":"ce4bhbh2rcd13ifvqeqg","pricing_plan_id":"cebpf4jnsgd1na2vs0mg"},{"bike_id":"b8c35b4a-306c-44f5-92e5-8ed387b66205","system_id":"levelo_inurba_marseille","lat":43.291671,"lon":5.371575,"is_reserved":false,"is_disabled":false,"rental_uris":{"android":"levelo://app?vid=b8c35b4a-306c-44f5-92e5-8ed387b66205","ios":"levelo://app?vid=b8c35b4a-306c-44f5-92e5-8ed387b66205"},"vehicle_type_id":"4","last_reported":1722183055,"current_range_meters":1200,"station_id":"ce4bha92rcd13ifvqeh0","pricing_plan_id":"cebpf4jnsgd1na2vs0mg"},{"bike_id":"b27a82ad-a505-4b11-a89a-ee05cc727eaa","system_id":"levelo_inurba_marseille","lat":43.313318,"lon":5.396763,"is_reserved":false,"is_disabled":false,"rental_uris":{"android":"levelo://app?vid=b27a82ad-a505-4b11-a89a-ee05cc727eaa","ios":"levelo://app?vid=b27a82ad-a505-4b11-a89a-ee05cc727eaa"},"vehicle_type_id":"4","last_reported":1722183055,"current_range_meters":0,"station_id":"ce4bgvp2rcd13ifvqcu0","pricing_plan_id":"cebpf4jnsgd1na2vs0mg"},{"bike_id":"8153fc68-7d45-4800-85b3-613726f39639","system_id":"levelo_inurba_marseille","lat":43.291994,"lon":5.357886,"is_reserved":false,"is_disabled":false,"rental_uris":{"android":"levelo://app?vid=8153fc68-7d45-4800-85b3-613726f39639","ios":"levelo://app?vid=8153fc68-7d45-4800-85b3-613726f39639"},"vehicle_type_id":"4","last_reported":1722183055,"current_range_meters":0,"station_id":"ce4bhb12rcd13ifvqel0","pricing_plan_id":"cebpf4jnsgd1na2vs0mg"},{"bike_id":"dcf53570-fc67-4ff9-b7a7-a224d749bf77","system_id":"levelo_inurba_marseille","lat":43.291941,"lon":5.358006,"is_reserved":false,"is_disabled":false,"rental_uris":{"android":"levelo://app?vid=dcf53570-fc67-4ff9-b7a7-a224d749bf77","ios":"levelo://app?vid=dcf53570-fc67-4ff9-b7a7-a224d749bf77"},"vehicle_type_id":"4","last_reported":1722183055,"current_range_meters":27200,"station_id":"ce4bhb12rcd13ifvqel0","pricing_plan_id":"cebpf4jnsgd1na2vs0mg"},{"bike_id":"a606d7cc-5611-4012-9d3d-8d5673e0e06d","system_id":"levelo_inurba_marseille","lat":43.309038,"lon":5.396546,"is_reserved":false,"is_disabled":false,"rental_uris":{"android":"levelo://app?vid=a606d7cc-5611-4012-9d3d-8d5673e0e06d","ios":"levelo://app?vid=a606d7cc-5611-4012-9d3d-8d5673e0e06d"},"vehicle_type_id":"4","last_reported":1722183055,"current_range_meters":7200,"station_id":"ce4bh012rcd13ifvqcv0","pricing_plan_id":"cebpf4jnsgd1na2vs0mg"},{"bike_id":"7f30daa3-5786-4b7e-a162-3b8bdb99966c","system_id":"levelo_inurba_marseille","lat":43.309038,"lon":5.396546,"is_reserved":false,"is_disabled":false,"rental_uris":{"android":"levelo://app?vid=7f30daa3-5786-4b7e-a162-3b8bdb99966c","ios":"levelo://app?vid=7f30daa3-5786-4b7e-a162-3b8bdb99966c"},"vehicle_type_id":"4","last_reported":1722183055,"current_range_meters":24000,"station_id":"ce4bh012rcd13ifvqcv0","pricing_plan_id":"cebpf4jnsgd1na2vs0mg"},{"bike_id":"1d06edf1-49e5-4ef4-8308-2bec3415e70e","system_id":"levelo_inurba_marseille","lat":43.29529,"lon":5.385581,"is_reserved":false,"is_disabled":false,"rental_uris":{"android":"levelo://app?vid=1d06edf1-49e5-4ef4-8308-2bec3415e70e","ios":"levelo://app?vid=1d06edf1-49e5-4ef4-8308-2bec3415e70e"},"vehicle_type_id":"4","last_reported":1722183055,"current_range_meters":14000,"station_id":"ce4bgih2rcd13ifvqba0","pricing_plan_id":"cebpf4jnsgd1na2vs0mg"},{"bike_id":"30b65a3d-0a4a-4402-8438-38d03592a369","system_id":"levelo_inurba_marseille","lat":43.290779,"lon":5.371482,"is_reserved":false,"is_disabled":false,"rental_uris":{"android":"levelo://app?vid=30b65a3d-0a4a-4402-8438-38d03592a369","ios":"levelo://app?vid=30b65a3d-0a4a-4402-8438-38d03592a369"},"vehicle_type_id":"4","last_reported":1722183055,"current_range_meters":22400,"station_id":"ce4bh5p2rcd13ifvqe4g","pricing_plan_id":"cebpf4jnsgd1na2vs0mg"},{"bike_id":"fefb25ee-dd5d-4869-bf85-a94fdbd2b455","system_id":"levelo_inurba_marseille","lat":43.294153,"lon":5.386305,"is_reserved":false,"is_disabled":false,"rental_uris":{"android":"levelo://app?vid=fefb25ee-dd5d-4869-bf85-a94fdbd2b455","ios":"levelo://app?vid=fefb25ee-dd5d-4869-bf85-a94fdbd2b455"},"vehicle_type_id":"4","last_reported":1722183055,"current_range_meters":27200,"station_id":"ce4bh2h2rcd13ifvqdh0","pricing_plan_id":"cebpf4jnsgd1na2vs0mg"},{"bike_id":"38480a56-230a-4e4a-8ca5-80311e9f43dc","system_id":"levelo_inurba_marseille","lat":43.294162,"lon":5.386292,"is_reserved":false,"is_disabled":false,"rental_uris":{"android":"levelo://app?vid=38480a56-230a-4e4a-8ca5-80311e9f43dc","ios":"levelo://app?vid=38480a56-230a-4e4a-8ca5-80311e9f43dc"},"vehicle_type_id":"4","last_reported":1722183055,"current_range_meters":1200,"station_id":"ce4bh2h2rcd13ifvqdh0","pricing_plan_id":"cebpf4jnsgd1na2vs0mg"},{"bike_id":"2ea1a122-673d-40a0-99aa-4f23e72440ef","system_id":"levelo_inurba_marseille","lat":43.294162,"lon":5.386292,"is_reserved":false,"is_disabled":false,"rental_uris":{"android":"levelo://app?vid=2ea1a122-673d-40a0-99aa-4f23e72440ef","ios":"levelo://app?vid=2ea1a122-673d-40a0-99aa-4f23e72440ef"},"vehicle_type_id":"4","last_reported":1722183055,"current_range_meters":30000,"station_id":"ce4bh2h2rcd13ifvqdh0","pricing_plan_id":"cebpf4jnsgd1na2vs0mg"},{"bike_id":"a68f207d-eac5-493b-80c4-cd6cdc0ea7cc","system_id":"levelo_inurba_marseille","lat":43.294162,"lon":5.386292,"is_reserved":false,"is_disabled":false,"rental_uris":{"android":"levelo://app?vid=a68f207d-eac5-493b-80c4-cd6cdc0ea7cc","ios":"levelo://app?vid=a68f207d-eac5-493b-80c4-cd6cdc0ea7cc"},"vehicle_type_id":"4","last_reported":1722183055,"current_range_meters":23200,"station_id":"ce4bh2h2rcd13ifvqdh0","pricing_plan_id":"cebpf4jnsgd1na2vs0mg"},{"bike_id":"ec82bbf4-9ac8-4a2d-89ae-b30cccffd85b","system_id":"levelo_inurba_marseille","lat":43.289468,"lon":5.363719,"is_reserved":false,"is_disabled":false,"rental_uris":{"android":"levelo://app?vid=ec82bbf4-9ac8-4a2d-89ae-b30cccffd85b","ios":"levelo://app?vid=ec82bbf4-9ac8-4a2d-89ae-b30cccffd85b"},"vehicle_type_id":"4","last_reported":1722183055,"current_range_meters":0,"station_id":"ce4bhc92rcd13ifvqetg","pricing_plan_id":"cebpf4jnsgd1na2vs0mg"},{"bike_id":"bda4d333-53a1-46ad-a2e3-c40074c839bd","system_id":"levelo_inurba_marseille","lat":43.289184,"lon":5.366408,"is_reserved":false,"is_disabled":false,"rental_uris":{"android":"levelo://app?vid=bda4d333-53a1-46ad-a2e3-c40074c839bd","ios":"levelo://app?vid=bda4d333-53a1-46ad-a2e3-c40074c839bd"},"vehicle_type_id":"4","last_reported":1722183055,"current_range_meters":19600,"station_id":"ce4bhap2rcd13ifvqek0","pricing_plan_id":"cebpf4jnsgd1na2vs0mg"},{"bike_id":"98189221-205a-4301-8b72-f2c9d6037c24","system_id":"levelo_inurba_marseille","lat":43.2928,"lon":5.38451,"is_reserved":false,"is_disabled":false,"rental_uris":{"android":"levelo://app?vid=98189221-205a-4301-8b72-f2c9d6037c24","ios":"levelo://app?vid=98189221-205a-4301-8b72-f2c9d6037c24"},"vehicle_type_id":"4","last_reported":1722183055,"current_range_meters":6400,"station_id":"ce4bh692rcd13ifvqea0","pricing_plan_id":"cebpf4jnsgd1na2vs0mg"},{"bike_id":"be7e9817-6508-4467-9c51-25ba5546ccad","system_id":"levelo_inurba_marseille","lat":43.292642,"lon":5.384254,"is_reserved":false,"is_disabled":false,"rental_uris":{"android":"levelo://app?vid=be7e9817-6508-4467-9c51-25ba5546ccad","ios":"levelo://app?vid=be7e9817-6508-4467-9c51-25ba5546ccad"},"vehicle_type_id":"4","last_reported":1722183055,"current_range_meters":3600,"station_id":"ce4bh692rcd13ifvqea0","pricing_plan_id":"cebpf4jnsgd1na2vs0mg"},{"bike_id":"a61096bd-81bc-4a25-beb4-d88e488bd109","system_id":"levelo_inurba_marseille","lat":43.29011,"lon":5.35612,"is_reserved":false,"is_disabled":false,"rental_uris":{"android":"levelo://app?vid=a61096bd-81bc-4a25-beb4-d88e488bd109","ios":"levelo://app?vid=a61096bd-81bc-4a25-beb4-d88e488bd109"},"vehicle_type_id":"4","last_reported":1722183055,"current_range_meters":0,"station_id":"ce4bhb92rcd13ifvqen0","pricing_plan_id":"cebpf4jnsgd1na2vs0mg"},{"bike_id":"9baac01f-914c-4041-82ca-fe618194d156","system_id":"levelo_inurba_marseille","lat":43.290104,"lon":5.356111,"is_reserved":false,"is_disabled":false,"rental_uris":{"android":"levelo://app?vid=9baac01f-914c-4041-82ca-fe618194d156","ios":"levelo://app?vid=9baac01f-914c-4041-82ca-fe618194d156"},"vehicle_type_id":"4","last_reported":1722183055,"current_range_meters":10400,"station_id":"ce4bhb92rcd13ifvqen0","pricing_plan_id":"cebpf4jnsgd1na2vs0mg"},{"bike_id":"b9ebb108-ca17-46a7-b62b-97c09d72f798","system_id":"levelo_inurba_marseille","lat":43.290103,"lon":5.356114,"is_reserved":false,"is_disabled":false,"rental_uris":{"android":"levelo://app?vid=b9ebb108-ca17-46a7-b62b-97c09d72f798","ios":"levelo://app?vid=b9ebb108-ca17-46a7-b62b-97c09d72f798"},"vehicle_type_id":"4","last_reported":1722183055,"current_range_meters":0,"station_id":"ce4bhb92rcd13ifvqen0","pricing_plan_id":"cebpf4jnsgd1na2vs0mg"},{"bike_id":"d2c126b5-656a-44af-9b21-3d7ed62eaa03","system_id":"levelo_inurba_marseille","lat":43.290103,"lon":5.356114,"is_reserved":false,"is_disabled":false,"rental_uris":{"android":"levelo://app?vid=d2c126b5-656a-44af-9b21-3d7ed62eaa03","ios":"levelo://app?vid=d2c126b5-656a-44af-9b21-3d7ed62eaa03"},"vehicle_type_id":"4","last_reported":1722183055,"current_range_meters":0,"station_id":"ce4bhb92rcd13ifvqen0","pricing_plan_id":"cebpf4jnsgd1na2vs0mg"},{"bike_id":"b295bae0-edc7-4c95-a67c-325effda7a19","system_id":"levelo_inurba_marseille","lat":43.29015,"lon":5.35511,"is_reserved":false,"is_disabled":false,"rental_uris":{"android":"levelo://app?vid=b295bae0-edc7-4c95-a67c-325effda7a19","ios":"levelo://app?vid=b295bae0-edc7-4c95-a67c-325effda7a19"},"vehicle_type_id":"4","last_reported":1722183055,"current_range_meters":2800,"station_id":"","pricing_plan_id":"cebpf4jnsgd1na2vs0mg"},{"bike_id":"7d6b26af-315e-46dd-bcfa-54c96215d83b","system_id":"levelo_inurba_marseille","lat":43.297807,"lon":5.393533,"is_reserved":false,"is_disabled":false,"rental_uris":{"android":"levelo://app?vid=7d6b26af-315e-46dd-bcfa-54c96215d83b","ios":"levelo://app?vid=7d6b26af-315e-46dd-bcfa-54c96215d83b"},"vehicle_type_id":"4","last_reported":1722183055,"current_range_meters":4000,"station_id":"chh1huq6cuj3fo74tm60","pricing_plan_id":"cebpf4jnsgd1na2vs0mg"},{"bike_id":"630c53a7-1810-4b50-b930-da01c4088ffe","system_id":"levelo_inurba_marseille","lat":43.297815,"lon":5.393548,"is_reserved":false,"is_disabled":false,"rental_uris":{"android":"levelo://app?vid=630c53a7-1810-4b50-b930-da01c4088ffe","ios":"levelo://app?vid=630c53a7-1810-4b50-b930-da01c4088ffe"},"vehicle_type_id":"4","last_reported":1722183055,"current_range_meters":6400,"station_id":"chh1huq6cuj3fo74tm60","pricing_plan_id":"cebpf4jnsgd1na2vs0mg"},{"bike_id":"b24e44d9-b199-4f34-9a3c-032f6ee24dbe","system_id":"levelo_inurba_marseille","lat":43.297807,"lon":5.393533,"is_reserved":false,"is_disabled":false,"rental_uris":{"android":"levelo://app?vid=b24e44d9-b199-4f34-9a3c-032f6ee24dbe","ios":"levelo://app?vid=b24e44d9-b199-4f34-9a3c-032f6ee24dbe"},"vehicle_type_id":"4","last_reported":1722183055,"current_range_meters":23200,"station_id":"chh1huq6cuj3fo74tm60","pricing_plan_id":"cebpf4jnsgd1na2vs0mg"},{"bike_id":"7bfe8c9a-ba5f-438f-8de7-9a54c2071b59","system_id":"levelo_inurba_marseille","lat":43.330442,"lon":5.389148,"is_reserved":false,"is_disabled":false,"rental_uris":{"android":"levelo://app?vid=7bfe8c9a-ba5f-438f-8de7-9a54c2071b59","ios":"levelo://app?vid=7bfe8c9a-ba5f-438f-8de7-9a54c2071b59"},"vehicle_type_id":"4","last_reported":1722183055,"current_range_meters":31600,"station_id":"ce4bhr92rcd13ifvqhrg","pricing_plan_id":"cebpf4jnsgd1na2vs0mg"},{"bike_id":"f5c76050-d96f-4ba2-acf3-ea9af220bfc0","system_id":"levelo_inurba_marseille","lat":43.330442,"lon":5.389148,"is_reserved":false,"is_disabled":false,"rental_uris":{"android":"levelo://app?vid=f5c76050-d96f-4ba2-acf3-ea9af220bfc0","ios":"levelo://app?vid=f5c76050-d96f-4ba2-acf3-ea9af220bfc0"},"vehicle_type_id":"4","last_reported":1722183055,"current_range_meters":14800,"station_id":"ce4bhr92rcd13ifvqhrg","pricing_plan_id":"cebpf4jnsgd1na2vs0mg"},{"bike_id":"14f76fc4-cbe7-4938-a9e2-9287ec528ebb","system_id":"levelo_inurba_marseille","lat":43.330442,"lon":5.389148,"is_reserved":false,"is_disabled":false,"rental_uris":{"android":"levelo://app?vid=14f76fc4-cbe7-4938-a9e2-9287ec528ebb","ios":"levelo://app?vid=14f76fc4-cbe7-4938-a9e2-9287ec528ebb"},"vehicle_type_id":"4","last_reported":1722183055,"current_range_meters":8000,"station_id":"ce4bhr92rcd13ifvqhrg","pricing_plan_id":"cebpf4jnsgd1na2vs0mg"},{"bike_id":"a0439e65-fd09-4e16-96a4-850f9e3fa4d8","system_id":"levelo_inurba_marseille","lat":43.3303,"lon":5.39043,"is_reserved":false,"is_disabled":false,"rental_uris":{"android":"levelo://app?vid=a0439e65-fd09-4e16-96a4-850f9e3fa4d8","ios":"levelo://app?vid=a0439e65-fd09-4e16-96a4-850f9e3fa4d8"},"vehicle_type_id":"4","last_reported":1722183055,"current_range_meters":2400,"station_id":"ce4bhr92rcd13ifvqhrg","pricing_plan_id":"cebpf4jnsgd1na2vs0mg"},{"bike_id":"c0cc1738-32d5-464e-9246-eb94b314aa43","system_id":"levelo_inurba_marseille","lat":43.2901,"lon":5.381269,"is_reserved":false,"is_disabled":false,"rental_uris":{"android":"levelo://app?vid=c0cc1738-32d5-464e-9246-eb94b314aa43","ios":"levelo://app?vid=c0cc1738-32d5-464e-9246-eb94b314aa43"},"vehicle_type_id":"4","last_reported":1722183055,"current_range_meters":0,"station_id":"ce4bh4p2rcd13ifvqe1g","pricing_plan_id":"cebpf4jnsgd1na2vs0mg"},{"bike_id":"e63591d3-915d-49b2-bc9f-6f65908bac79","system_id":"levelo_inurba_marseille","lat":43.2901,"lon":5.381269,"is_reserved":false,"is_disabled":false,"rental_uris":{"android":"levelo://app?vid=e63591d3-915d-49b2-bc9f-6f65908bac79","ios":"levelo://app?vid=e63591d3-915d-49b2-bc9f-6f65908bac79"},"vehicle_type_id":"4","last_reported":1722183055,"current_range_meters":800,"station_id":"ce4bh4p2rcd13ifvqe1g","pricing_plan_id":"cebpf4jnsgd1na2vs0mg"},{"bike_id":"90a14470-381a-467d-9c09-f5f2bd0b940b","system_id":"levelo_inurba_marseille","lat":43.3068,"lon":5.40015,"is_reserved":false,"is_disabled":false,"rental_uris":{"android":"levelo://app?vid=90a14470-381a-467d-9c09-f5f2bd0b940b","ios":"levelo://app?vid=90a14470-381a-467d-9c09-f5f2bd0b940b"},"vehicle_type_id":"4","last_reported":1722183055,"current_range_meters":0,"station_id":"","pricing_plan_id":"cebpf4jnsgd1na2vs0mg"},{"bike_id":"b06c8394-ceac-4d47-9465-0230a73be60c","system_id":"levelo_inurba_marseille","lat":43.28856,"lon":5.358371,"is_reserved":false,"is_disabled":false,"rental_uris":{"android":"levelo://app?vid=b06c8394-ceac-4d47-9465-0230a73be60c","ios":"levelo://app?vid=b06c8394-ceac-4d47-9465-0230a73be60c"},"vehicle_type_id":"4","last_reported":1722183055,"current_range_meters":23200,"station_id":"ce4bhb12rcd13ifvqem0","pricing_plan_id":"cebpf4jnsgd1na2vs0mg"},{"bike_id":"3e79250c-7764-488c-b465-61fd16d31170","system_id":"levelo_inurba_marseille","lat":43.33736,"lon":5.37477,"is_reserved":false,"is_disabled":false,"rental_uris":{"android":"levelo://app?vid=3e79250c-7764-488c-b465-61fd16d31170","ios":"levelo://app?vid=3e79250c-7764-488c-b465-61fd16d31170"},"vehicle_type_id":"4","last_reported":1722183055,"current_range_meters":24800,"station_id":"","pricing_plan_id":"cebpf4jnsgd1na2vs0mg"},{"bike_id":"e92bf1d5-b1ca-44cd-9b31-a0496082825d","system_id":"levelo_inurba_marseille","lat":43.33733,"lon":5.37507,"is_reserved":false,"is_disabled":false,"rental_uris":{"android":"levelo://app?vid=e92bf1d5-b1ca-44cd-9b31-a0496082825d","ios":"levelo://app?vid=e92bf1d5-b1ca-44cd-9b31-a0496082825d"},"vehicle_type_id":"4","last_reported":1722183055,"current_range_meters":25200,"station_id":"","pricing_plan_id":"cebpf4jnsgd1na2vs0mg"},{"bike_id":"f8e8dd66-c7d6-4bd0-91ac-ef4274ae24f3","system_id":"levelo_inurba_marseille","lat":43.337401,"lon":5.374668,"is_reserved":false,"is_disabled":false,"rental_uris":{"android":"levelo://app?vid=f8e8dd66-c7d6-4bd0-91ac-ef4274ae24f3","ios":"levelo://app?vid=f8e8dd66-c7d6-4bd0-91ac-ef4274ae24f3"},"vehicle_type_id":"4","last_reported":1722183055,"current_range_meters":15600,"station_id":"","pricing_plan_id":"cebpf4jnsgd1na2vs0mg"},{"bike_id":"20a7bf81-31fd-4cb5-b454-68d5314a31b8","system_id":"levelo_inurba_marseille","lat":43.337402,"lon":5.374695,"is_reserved":false,"is_disabled":false,"rental_uris":{"android":"levelo://app?vid=20a7bf81-31fd-4cb5-b454-68d5314a31b8","ios":"levelo://app?vid=20a7bf81-31fd-4cb5-b454-68d5314a31b8"},"vehicle_type_id":"4","last_reported":1722183055,"current_range_meters":26800,"station_id":"","pricing_plan_id":"cebpf4jnsgd1na2vs0mg"},{"bike_id":"6ff48f3c-927a-470d-a08e-7714539082f0","system_id":"levelo_inurba_marseille","lat":43.33741,"lon":5.37468,"is_reserved":false,"is_disabled":false,"rental_uris":{"android":"levelo://app?vid=6ff48f3c-927a-470d-a08e-7714539082f0","ios":"levelo://app?vid=6ff48f3c-927a-470d-a08e-7714539082f0"},"vehicle_type_id":"4","last_reported":1722183055,"current_range_meters":0,"station_id":"","pricing_plan_id":"cebpf4jnsgd1na2vs0mg"},{"bike_id":"28ff567c-281c-4a43-913e-e1206badf942","system_id":"levelo_inurba_marseille","lat":43.337405,"lon":5.374718,"is_reserved":false,"is_disabled":false,"rental_uris":{"android":"levelo://app?vid=28ff567c-281c-4a43-913e-e1206badf942","ios":"levelo://app?vid=28ff567c-281c-4a43-913e-e1206badf942"},"vehicle_type_id":"4","last_reported":1722183055,"current_range_meters":18400,"station_id":"","pricing_plan_id":"cebpf4jnsgd1na2vs0mg"},{"bike_id":"0aa226e6-2195-431b-bdc4-34bf44420451","system_id":"levelo_inurba_marseille","lat":43.337467,"lon":5.374397,"is_reserved":false,"is_disabled":false,"rental_uris":{"android":"levelo://app?vid=0aa226e6-2195-431b-bdc4-34bf44420451","ios":"levelo://app?vid=0aa226e6-2195-431b-bdc4-34bf44420451"},"vehicle_type_id":"4","last_reported":1722183055,"current_range_meters":22800,"station_id":"","pricing_plan_id":"cebpf4jnsgd1na2vs0mg"},{"bike_id":"cb14359b-816f-4515-8726-5a401d49dcd6","system_id":"levelo_inurba_marseille","lat":43.309371,"lon":5.401449,"is_reserved":false,"is_disabled":false,"rental_uris":{"android":"levelo://app?vid=cb14359b-816f-4515-8726-5a401d49dcd6","ios":"levelo://app?vid=cb14359b-816f-4515-8726-5a401d49dcd6"},"vehicle_type_id":"4","last_reported":1722183055,"current_range_meters":20400,"station_id":"ce4bgvp2rcd13ifvqct0","pricing_plan_id":"cebpf4jnsgd1na2vs0mg"},{"bike_id":"f0338c4f-2f14-449f-abf8-25e44f36ca55","system_id":"levelo_inurba_marseille","lat":43.337503,"lon":5.374507,"is_reserved":false,"is_disabled":false,"rental_uris":{"android":"levelo://app?vid=f0338c4f-2f14-449f-abf8-25e44f36ca55","ios":"levelo://app?vid=f0338c4f-2f14-449f-abf8-25e44f36ca55"},"vehicle_type_id":"4","last_reported":1722183055,"current_range_meters":25600,"station_id":"","pricing_plan_id":"cebpf4jnsgd1na2vs0mg"},{"bike_id":"6cf0c176-f7c0-4e29-a014-f3a3b29e1d2a","system_id":"levelo_inurba_marseille","lat":43.337523,"lon":5.374406,"is_reserved":false,"is_disabled":false,"rental_uris":{"android":"levelo://app?vid=6cf0c176-f7c0-4e29-a014-f3a3b29e1d2a","ios":"levelo://app?vid=6cf0c176-f7c0-4e29-a014-f3a3b29e1d2a"},"vehicle_type_id":"4","last_reported":1722183055,"current_range_meters":24000,"station_id":"","pricing_plan_id":"cebpf4jnsgd1na2vs0mg"},{"bike_id":"ce2a281f-6b17-464e-8289-d463ea4cfa07","system_id":"levelo_inurba_marseille","lat":43.337553,"lon":5.374554,"is_reserved":false,"is_disabled":false,"rental_uris":{"android":"levelo://app?vid=ce2a281f-6b17-464e-8289-d463ea4cfa07","ios":"levelo://app?vid=ce2a281f-6b17-464e-8289-d463ea4cfa07"},"vehicle_type_id":"4","last_reported":1722183055,"current_range_meters":25600,"station_id":"","pricing_plan_id":"cebpf4jnsgd1na2vs0mg"},{"bike_id":"96827327-48c7-42ac-87e6-d2827b4b5e65","system_id":"levelo_inurba_marseille","lat":43.286961,"lon":5.373785,"is_reserved":false,"is_disabled":false,"rental_uris":{"android":"levelo://app?vid=96827327-48c7-42ac-87e6-d2827b4b5e65","ios":"levelo://app?vid=96827327-48c7-42ac-87e6-d2827b4b5e65"},"vehicle_type_id":"4","last_reported":1722183055,"current_range_meters":0,"station_id":"ce4bh3p2rcd13ifvqdq0","pricing_plan_id":"cebpf4jnsgd1na2vs0mg"},{"bike_id":"f1bb9bee-e968-433b-89de-cd2592a264f2","system_id":"levelo_inurba_marseille","lat":43.286961,"lon":5.373785,"is_reserved":false,"is_disabled":false,"rental_uris":{"android":"levelo://app?vid=f1bb9bee-e968-433b-89de-cd2592a264f2","ios":"levelo://app?vid=f1bb9bee-e968-433b-89de-cd2592a264f2"},"vehicle_type_id":"4","last_reported":1722183055,"current_range_meters":8800,"station_id":"ce4bh3p2rcd13ifvqdq0","pricing_plan_id":"cebpf4jnsgd1na2vs0mg"},{"bike_id":"7d923782-04a0-4426-bd56-2c212d97b664","system_id":"levelo_inurba_marseille","lat":43.286961,"lon":5.373785,"is_reserved":false,"is_disabled":false,"rental_uris":{"android":"levelo://app?vid=7d923782-04a0-4426-bd56-2c212d97b664","ios":"levelo://app?vid=7d923782-04a0-4426-bd56-2c212d97b664"},"vehicle_type_id":"4","last_reported":1722183055,"current_range_meters":0,"station_id":"ce4bh3p2rcd13ifvqdq0","pricing_plan_id":"cebpf4jnsgd1na2vs0mg"},{"bike_id":"f32e09aa-3235-4a57-9b9a-bcff103b3ba6","system_id":"levelo_inurba_marseille","lat":43.289307,"lon":5.38406,"is_reserved":false,"is_disabled":false,"rental_uris":{"android":"levelo://app?vid=f32e09aa-3235-4a57-9b9a-bcff103b3ba6","ios":"levelo://app?vid=f32e09aa-3235-4a57-9b9a-bcff103b3ba6"},"vehicle_type_id":"4","last_reported":1722183055,"current_range_meters":14800,"station_id":"ce4bh612rcd13ifvqe6g","pricing_plan_id":"cebpf4jnsgd1na2vs0mg"},{"bike_id":"ca5240aa-4d08-406b-b6f3-24af32ced310","system_id":"levelo_inurba_marseille","lat":43.286961,"lon":5.373785,"is_reserved":false,"is_disabled":false,"rental_uris":{"android":"levelo://app?vid=ca5240aa-4d08-406b-b6f3-24af32ced310","ios":"levelo://app?vid=ca5240aa-4d08-406b-b6f3-24af32ced310"},"vehicle_type_id":"4","last_reported":1722183055,"current_range_meters":4800,"station_id":"ce4bh3p2rcd13ifvqdq0","pricing_plan_id":"cebpf4jnsgd1na2vs0mg"},{"bike_id":"ebbe02ca-d3df-42b3-9600-f9ec96c9b28a","system_id":"levelo_inurba_marseille","lat":43.286961,"lon":5.373785,"is_reserved":false,"is_disabled":false,"rental_uris":{"android":"levelo://app?vid=ebbe02ca-d3df-42b3-9600-f9ec96c9b28a","ios":"levelo://app?vid=ebbe02ca-d3df-42b3-9600-f9ec96c9b28a"},"vehicle_type_id":"4","last_reported":1722183055,"current_range_meters":800,"station_id":"ce4bh3p2rcd13ifvqdq0","pricing_plan_id":"cebpf4jnsgd1na2vs0mg"},{"bike_id":"4e5e1b84-2be8-46bb-b476-8a017edc7c92","system_id":"levelo_inurba_marseille","lat":43.286961,"lon":5.373785,"is_reserved":false,"is_disabled":false,"rental_uris":{"android":"levelo://app?vid=4e5e1b84-2be8-46bb-b476-8a017edc7c92","ios":"levelo://app?vid=4e5e1b84-2be8-46bb-b476-8a017edc7c92"},"vehicle_type_id":"4","last_reported":1722183055,"current_range_meters":16400,"station_id":"ce4bh3p2rcd13ifvqdq0","pricing_plan_id":"cebpf4jnsgd1na2vs0mg"},{"bike_id":"44949e70-3636-4536-9692-49a05cb315aa","system_id":"levelo_inurba_marseille","lat":43.302759,"lon":5.400793,"is_reserved":false,"is_disabled":false,"rental_uris":{"android":"levelo://app?vid=44949e70-3636-4536-9692-49a05cb315aa","ios":"levelo://app?vid=44949e70-3636-4536-9692-49a05cb315aa"},"vehicle_type_id":"4","last_reported":1722183055,"current_range_meters":0,"station_id":"ce4bgvh2rcd13ifvqcs0","pricing_plan_id":"cebpf4jnsgd1na2vs0mg"},{"bike_id":"841df269-dc84-4a7f-b67b-3705bec32f78","system_id":"levelo_inurba_marseille","lat":43.28612,"lon":5.370673,"is_reserved":false,"is_disabled":false,"rental_uris":{"android":"levelo://app?vid=841df269-dc84-4a7f-b67b-3705bec32f78","ios":"levelo://app?vid=841df269-dc84-4a7f-b67b-3705bec32f78"},"vehicle_type_id":"4","last_reported":1722183055,"current_range_meters":12800,"station_id":"","pricing_plan_id":"cebpf4jnsgd1na2vs0mg"},{"bike_id":"28b47e74-812f-473f-b1de-1ebfdeb5f79e","system_id":"levelo_inurba_marseille","lat":43.286039,"lon":5.370679,"is_reserved":false,"is_disabled":false,"rental_uris":{"android":"levelo://app?vid=28b47e74-812f-473f-b1de-1ebfdeb5f79e","ios":"levelo://app?vid=28b47e74-812f-473f-b1de-1ebfdeb5f79e"},"vehicle_type_id":"4","last_reported":1722183055,"current_range_meters":25200,"station_id":"ce4bht12rcd13ifvqi60","pricing_plan_id":"cebpf4jnsgd1na2vs0mg"},{"bike_id":"17c6f313-b997-4fa6-aeac-a7dd0ac0117c","system_id":"levelo_inurba_marseille","lat":43.2861,"lon":5.37068,"is_reserved":false,"is_disabled":false,"rental_uris":{"android":"levelo://app?vid=17c6f313-b997-4fa6-aeac-a7dd0ac0117c","ios":"levelo://app?vid=17c6f313-b997-4fa6-aeac-a7dd0ac0117c"},"vehicle_type_id":"4","last_reported":1722183055,"current_range_meters":17600,"station_id":"ce4bht12rcd13ifvqi60","pricing_plan_id":"cebpf4jnsgd1na2vs0mg"},{"bike_id":"a1d06a17-b023-4f78-8491-edc6e5534902","system_id":"levelo_inurba_marseille","lat":43.312609,"lon":5.401662,"is_reserved":false,"is_disabled":false,"rental_uris":{"android":"levelo://app?vid=a1d06a17-b023-4f78-8491-edc6e5534902","ios":"levelo://app?vid=a1d06a17-b023-4f78-8491-edc6e5534902"},"vehicle_type_id":"4","last_reported":1722183055,"current_range_meters":400,"station_id":"ce4bh092rcd13ifvqd30","pricing_plan_id":"cebpf4jnsgd1na2vs0mg"},{"bike_id":"ce8a2633-6fed-4830-98e7-5b1ec165cb24","system_id":"levelo_inurba_marseille","lat":43.286039,"lon":5.370679,"is_reserved":false,"is_disabled":false,"rental_uris":{"android":"levelo://app?vid=ce8a2633-6fed-4830-98e7-5b1ec165cb24","ios":"levelo://app?vid=ce8a2633-6fed-4830-98e7-5b1ec165cb24"},"vehicle_type_id":"4","last_reported":1722183055,"current_range_meters":26800,"station_id":"ce4bht12rcd13ifvqi60","pricing_plan_id":"cebpf4jnsgd1na2vs0mg"},{"bike_id":"63e00777-d82c-459f-a006-cbdc4602c558","system_id":"levelo_inurba_marseille","lat":43.287184,"lon":5.37937,"is_reserved":false,"is_disabled":false,"rental_uris":{"android":"levelo://app?vid=63e00777-d82c-459f-a006-cbdc4602c558","ios":"levelo://app?vid=63e00777-d82c-459f-a006-cbdc4602c558"},"vehicle_type_id":"4","last_reported":1722183055,"current_range_meters":8800,"station_id":"ce4bh9p2rcd13ifvqec0","pricing_plan_id":"cebpf4jnsgd1na2vs0mg"},{"bike_id":"6c947458-2210-4a35-9dde-ab2cdccf48ff","system_id":"levelo_inurba_marseille","lat":43.287184,"lon":5.37937,"is_reserved":false,"is_disabled":false,"rental_uris":{"android":"levelo://app?vid=6c947458-2210-4a35-9dde-ab2cdccf48ff","ios":"levelo://app?vid=6c947458-2210-4a35-9dde-ab2cdccf48ff"},"vehicle_type_id":"4","last_reported":1722183055,"current_range_meters":23200,"station_id":"ce4bh9p2rcd13ifvqec0","pricing_plan_id":"cebpf4jnsgd1na2vs0mg"},{"bike_id":"84bb5619-1d9f-43ec-b101-dda4ac1e967b","system_id":"levelo_inurba_marseille","lat":43.33449,"lon":5.3906,"is_reserved":false,"is_disabled":false,"rental_uris":{"android":"levelo://app?vid=84bb5619-1d9f-43ec-b101-dda4ac1e967b","ios":"levelo://app?vid=84bb5619-1d9f-43ec-b101-dda4ac1e967b"},"vehicle_type_id":"4","last_reported":1722183055,"current_range_meters":24800,"station_id":"","pricing_plan_id":"cebpf4jnsgd1na2vs0mg"},{"bike_id":"e380dfe3-4049-4b0a-bf14-c4c108b80d15","system_id":"levelo_inurba_marseille","lat":43.291994,"lon":5.392907,"is_reserved":false,"is_disabled":false,"rental_uris":{"android":"levelo://app?vid=e380dfe3-4049-4b0a-bf14-c4c108b80d15","ios":"levelo://app?vid=e380dfe3-4049-4b0a-bf14-c4c108b80d15"},"vehicle_type_id":"4","last_reported":1722183055,"current_range_meters":8000,"station_id":"ce4bh192rcd13ifvqdd0","pricing_plan_id":"cebpf4jnsgd1na2vs0mg"},{"bike_id":"56182ee8-c963-446a-bddb-7417e49c45e8","system_id":"levelo_inurba_marseille","lat":43.284538,"lon":5.358657,"is_reserved":false,"is_disabled":false,"rental_uris":{"android":"levelo://app?vid=56182ee8-c963-446a-bddb-7417e49c45e8","ios":"levelo://app?vid=56182ee8-c963-446a-bddb-7417e49c45e8"},"vehicle_type_id":"4","last_reported":1722183055,"current_range_meters":15600,"station_id":"ce4bhah2rcd13ifvqei0","pricing_plan_id":"cebpf4jnsgd1na2vs0mg"},{"bike_id":"c7eff304-3124-41cb-8ee3-f483a9f82220","system_id":"levelo_inurba_marseille","lat":43.2846,"lon":5.35897,"is_reserved":false,"is_disabled":false,"rental_uris":{"android":"levelo://app?vid=c7eff304-3124-41cb-8ee3-f483a9f82220","ios":"levelo://app?vid=c7eff304-3124-41cb-8ee3-f483a9f82220"},"vehicle_type_id":"4","last_reported":1722183055,"current_range_meters":5200,"station_id":"ce4bhah2rcd13ifvqei0","pricing_plan_id":"cebpf4jnsgd1na2vs0mg"},{"bike_id":"5969bf55-254a-4e04-8f96-27bdc76ba32d","system_id":"levelo_inurba_marseille","lat":43.28613,"lon":5.35112,"is_reserved":false,"is_disabled":false,"rental_uris":{"android":"levelo://app?vid=5969bf55-254a-4e04-8f96-27bdc76ba32d","ios":"levelo://app?vid=5969bf55-254a-4e04-8f96-27bdc76ba32d"},"vehicle_type_id":"4","last_reported":1722183055,"current_range_meters":16400,"station_id":"ce4bhch2rcd13ifvqeug","pricing_plan_id":"cebpf4jnsgd1na2vs0mg"},{"bike_id":"c7a10c39-2781-4bbf-abca-9320614b5a26","system_id":"levelo_inurba_marseille","lat":43.28614,"lon":5.35108,"is_reserved":false,"is_disabled":false,"rental_uris":{"android":"levelo://app?vid=c7a10c39-2781-4bbf-abca-9320614b5a26","ios":"levelo://app?vid=c7a10c39-2781-4bbf-abca-9320614b5a26"},"vehicle_type_id":"4","last_reported":1722183055,"current_range_meters":15600,"station_id":"ce4bhch2rcd13ifvqeug","pricing_plan_id":"cebpf4jnsgd1na2vs0mg"},{"bike_id":"bb3bf093-cf6e-4efc-a3fc-254a372e24c5","system_id":"levelo_inurba_marseille","lat":43.28614,"lon":5.35107,"is_reserved":false,"is_disabled":false,"rental_uris":{"android":"levelo://app?vid=bb3bf093-cf6e-4efc-a3fc-254a372e24c5","ios":"levelo://app?vid=bb3bf093-cf6e-4efc-a3fc-254a372e24c5"},"vehicle_type_id":"4","last_reported":1722183055,"current_range_meters":0,"station_id":"ce4bhch2rcd13ifvqeug","pricing_plan_id":"cebpf4jnsgd1na2vs0mg"},{"bike_id":"5132d6ff-ea20-41d4-a9ea-00c869fedde4","system_id":"levelo_inurba_marseille","lat":43.28615,"lon":5.35098,"is_reserved":false,"is_disabled":false,"rental_uris":{"android":"levelo://app?vid=5132d6ff-ea20-41d4-a9ea-00c869fedde4","ios":"levelo://app?vid=5132d6ff-ea20-41d4-a9ea-00c869fedde4"},"vehicle_type_id":"4","last_reported":1722183055,"current_range_meters":0,"station_id":"","pricing_plan_id":"cebpf4jnsgd1na2vs0mg"},{"bike_id":"e713833f-d87a-46f1-b21e-8b92cd854c12","system_id":"levelo_inurba_marseille","lat":43.294314,"lon":5.397498,"is_reserved":false,"is_disabled":false,"rental_uris":{"android":"levelo://app?vid=e713833f-d87a-46f1-b21e-8b92cd854c12","ios":"levelo://app?vid=e713833f-d87a-46f1-b21e-8b92cd854c12"},"vehicle_type_id":"4","last_reported":1722183055,"current_range_meters":8400,"station_id":"ce4bh3h2rcd13ifvqdo0","pricing_plan_id":"cebpf4jnsgd1na2vs0mg"},{"bike_id":"c56809b1-cf8d-4a10-a7cb-5f7a3392507a","system_id":"levelo_inurba_marseille","lat":43.29567,"lon":5.39954,"is_reserved":false,"is_disabled":false,"rental_uris":{"android":"levelo://app?vid=c56809b1-cf8d-4a10-a7cb-5f7a3392507a","ios":"levelo://app?vid=c56809b1-cf8d-4a10-a7cb-5f7a3392507a"},"vehicle_type_id":"4","last_reported":1722183055,"current_range_meters":23200,"station_id":"ce4bh312rcd13ifvqdj0","pricing_plan_id":"cebpf4jnsgd1na2vs0mg"},{"bike_id":"83a79a86-ef93-4fd2-a4b8-9930671d0640","system_id":"levelo_inurba_marseille","lat":43.283998,"lon":5.375062,"is_reserved":false,"is_disabled":false,"rental_uris":{"android":"levelo://app?vid=83a79a86-ef93-4fd2-a4b8-9930671d0640","ios":"levelo://app?vid=83a79a86-ef93-4fd2-a4b8-9930671d0640"},"vehicle_type_id":"4","last_reported":1722183055,"current_range_meters":26000,"station_id":"ce4bh412rcd13ifvqds0","pricing_plan_id":"cebpf4jnsgd1na2vs0mg"},{"bike_id":"8ceb0171-bebf-4cc0-817d-9e327a1e6a9b","system_id":"levelo_inurba_marseille","lat":43.29575,"lon":5.39967,"is_reserved":false,"is_disabled":false,"rental_uris":{"android":"levelo://app?vid=8ceb0171-bebf-4cc0-817d-9e327a1e6a9b","ios":"levelo://app?vid=8ceb0171-bebf-4cc0-817d-9e327a1e6a9b"},"vehicle_type_id":"4","last_reported":1722183055,"current_range_meters":7600,"station_id":"ce4bh312rcd13ifvqdj0","pricing_plan_id":"cebpf4jnsgd1na2vs0mg"},{"bike_id":"68f4bf79-c99c-4c22-a2e7-381e80a108cb","system_id":"levelo_inurba_marseille","lat":43.28409,"lon":5.37513,"is_reserved":false,"is_disabled":false,"rental_uris":{"android":"levelo://app?vid=68f4bf79-c99c-4c22-a2e7-381e80a108cb","ios":"levelo://app?vid=68f4bf79-c99c-4c22-a2e7-381e80a108cb"},"vehicle_type_id":"4","last_reported":1722183055,"current_range_meters":8800,"station_id":"ce4bh412rcd13ifvqds0","pricing_plan_id":"cebpf4jnsgd1na2vs0mg"},{"bike_id":"e77da700-674a-43e4-ab46-6e08512623d3","system_id":"levelo_inurba_marseille","lat":43.283998,"lon":5.375062,"is_reserved":false,"is_disabled":false,"rental_uris":{"android":"levelo://app?vid=e77da700-674a-43e4-ab46-6e08512623d3","ios":"levelo://app?vid=e77da700-674a-43e4-ab46-6e08512623d3"},"vehicle_type_id":"4","last_reported":1722183055,"current_range_meters":30400,"station_id":"ce4bh412rcd13ifvqds0","pricing_plan_id":"cebpf4jnsgd1na2vs0mg"},{"bike_id":"1432d178-b50a-4154-962b-ed8a7717b4a6","system_id":"levelo_inurba_marseille","lat":43.295713,"lon":5.399639,"is_reserved":false,"is_disabled":false,"rental_uris":{"android":"levelo://app?vid=1432d178-b50a-4154-962b-ed8a7717b4a6","ios":"levelo://app?vid=1432d178-b50a-4154-962b-ed8a7717b4a6"},"vehicle_type_id":"4","last_reported":1722183055,"current_range_meters":4000,"station_id":"ce4bh312rcd13ifvqdj0","pricing_plan_id":"cebpf4jnsgd1na2vs0mg"},{"bike_id":"d692fc51-958e-419d-a433-e0dd2d87a87b","system_id":"levelo_inurba_marseille","lat":43.29572,"lon":5.39974,"is_reserved":false,"is_disabled":false,"rental_uris":{"android":"levelo://app?vid=d692fc51-958e-419d-a433-e0dd2d87a87b","ios":"levelo://app?vid=d692fc51-958e-419d-a433-e0dd2d87a87b"},"vehicle_type_id":"4","last_reported":1722183055,"current_range_meters":0,"station_id":"ce4bh312rcd13ifvqdj0","pricing_plan_id":"cebpf4jnsgd1na2vs0mg"},{"bike_id":"75c60099-934f-40fb-9e89-9bd19d3952b2","system_id":"levelo_inurba_marseille","lat":43.283998,"lon":5.375062,"is_reserved":false,"is_disabled":false,"rental_uris":{"android":"levelo://app?vid=75c60099-934f-40fb-9e89-9bd19d3952b2","ios":"levelo://app?vid=75c60099-934f-40fb-9e89-9bd19d3952b2"},"vehicle_type_id":"4","last_reported":1722183055,"current_range_meters":30800,"station_id":"ce4bh412rcd13ifvqds0","pricing_plan_id":"cebpf4jnsgd1na2vs0mg"},{"bike_id":"fa958f03-0bf7-435e-a875-d6e1b3be7f7e","system_id":"levelo_inurba_marseille","lat":43.286735,"lon":5.386647,"is_reserved":false,"is_disabled":false,"rental_uris":{"android":"levelo://app?vid=fa958f03-0bf7-435e-a875-d6e1b3be7f7e","ios":"levelo://app?vid=fa958f03-0bf7-435e-a875-d6e1b3be7f7e"},"vehicle_type_id":"4","last_reported":1722183055,"current_range_meters":0,"station_id":"ce4bh492rcd13ifvqdug","pricing_plan_id":"cebpf4jnsgd1na2vs0mg"},{"bike_id":"a98c3093-fa86-43f0-9c29-260214e82de6","system_id":"levelo_inurba_marseille","lat":43.319179,"lon":5.407725,"is_reserved":false,"is_disabled":false,"rental_uris":{"android":"levelo://app?vid=a98c3093-fa86-43f0-9c29-260214e82de6","ios":"levelo://app?vid=a98c3093-fa86-43f0-9c29-260214e82de6"},"vehicle_type_id":"4","last_reported":1722183055,"current_range_meters":28400,"station_id":"ce4bhq12rcd13ifvqhig","pricing_plan_id":"cebpf4jnsgd1na2vs0mg"},{"bike_id":"9b8782e3-a07f-4924-9af8-dcf8c29a49c0","system_id":"levelo_inurba_marseille","lat":43.33717,"lon":5.391857,"is_reserved":false,"is_disabled":false,"rental_uris":{"android":"levelo://app?vid=9b8782e3-a07f-4924-9af8-dcf8c29a49c0","ios":"levelo://app?vid=9b8782e3-a07f-4924-9af8-dcf8c29a49c0"},"vehicle_type_id":"4","last_reported":1722183055,"current_range_meters":21600,"station_id":"ce4bhr92rcd13ifvqhsg","pricing_plan_id":"cebpf4jnsgd1na2vs0mg"},{"bike_id":"3439f520-7411-4a89-bbd2-a2c4b4d4923d","system_id":"levelo_inurba_marseille","lat":43.337168,"lon":5.391825,"is_reserved":false,"is_disabled":false,"rental_uris":{"android":"levelo://app?vid=3439f520-7411-4a89-bbd2-a2c4b4d4923d","ios":"levelo://app?vid=3439f520-7411-4a89-bbd2-a2c4b4d4923d"},"vehicle_type_id":"4","last_reported":1722183055,"current_range_meters":31200,"station_id":"ce4bhr92rcd13ifvqhsg","pricing_plan_id":"cebpf4jnsgd1na2vs0mg"},{"bike_id":"33c31675-ac0d-4206-a91f-466561d1591e","system_id":"levelo_inurba_marseille","lat":43.319179,"lon":5.407725,"is_reserved":false,"is_disabled":false,"rental_uris":{"android":"levelo://app?vid=33c31675-ac0d-4206-a91f-466561d1591e","ios":"levelo://app?vid=33c31675-ac0d-4206-a91f-466561d1591e"},"vehicle_type_id":"4","last_reported":1722183055,"current_range_meters":16000,"station_id":"ce4bhq12rcd13ifvqhig","pricing_plan_id":"cebpf4jnsgd1na2vs0mg"},{"bike_id":"156787cb-d488-460b-b98a-1f0b1ec7bdea","system_id":"levelo_inurba_marseille","lat":43.337168,"lon":5.391825,"is_reserved":false,"is_disabled":false,"rental_uris":{"android":"levelo://app?vid=156787cb-d488-460b-b98a-1f0b1ec7bdea","ios":"levelo://app?vid=156787cb-d488-460b-b98a-1f0b1ec7bdea"},"vehicle_type_id":"4","last_reported":1722183055,"current_range_meters":800,"station_id":"ce4bhr92rcd13ifvqhsg","pricing_plan_id":"cebpf4jnsgd1na2vs0mg"},{"bike_id":"7f01dd8a-1b78-48de-afce-818f130ababd","system_id":"levelo_inurba_marseille","lat":43.284793,"lon":5.384113,"is_reserved":false,"is_disabled":false,"rental_uris":{"android":"levelo://app?vid=7f01dd8a-1b78-48de-afce-818f130ababd","ios":"levelo://app?vid=7f01dd8a-1b78-48de-afce-818f130ababd"},"vehicle_type_id":"4","last_reported":1722183055,"current_range_meters":0,"station_id":"ce4bh512rcd13ifvqe3g","pricing_plan_id":"cebpf4jnsgd1na2vs0mg"},{"bike_id":"23510792-6b78-4f9d-a348-92186691797e","system_id":"levelo_inurba_marseille","lat":43.283494,"lon":5.380945,"is_reserved":false,"is_disabled":false,"rental_uris":{"android":"levelo://app?vid=23510792-6b78-4f9d-a348-92186691797e","ios":"levelo://app?vid=23510792-6b78-4f9d-a348-92186691797e"},"vehicle_type_id":"4","last_reported":1722183055,"current_range_meters":15200,"station_id":"ce4bh412rcd13ifvqdr0","pricing_plan_id":"cebpf4jnsgd1na2vs0mg"},{"bike_id":"444d7f98-0160-4f53-9468-7fdcf4e6d608","system_id":"levelo_inurba_marseille","lat":43.284217,"lon":5.349697,"is_reserved":false,"is_disabled":false,"rental_uris":{"android":"levelo://app?vid=444d7f98-0160-4f53-9468-7fdcf4e6d608","ios":"levelo://app?vid=444d7f98-0160-4f53-9468-7fdcf4e6d608"},"vehicle_type_id":"4","last_reported":1722183055,"current_range_meters":18800,"station_id":"ce4bhbh2rcd13ifvqepg","pricing_plan_id":"cebpf4jnsgd1na2vs0mg"},{"bike_id":"e62fe7f6-c54b-4177-84a9-8816aec8da63","system_id":"levelo_inurba_marseille","lat":43.2842,"lon":5.34991,"is_reserved":false,"is_disabled":false,"rental_uris":{"android":"levelo://app?vid=e62fe7f6-c54b-4177-84a9-8816aec8da63","ios":"levelo://app?vid=e62fe7f6-c54b-4177-84a9-8816aec8da63"},"vehicle_type_id":"4","last_reported":1722183055,"current_range_meters":0,"station_id":"ce4bhbh2rcd13ifvqepg","pricing_plan_id":"cebpf4jnsgd1na2vs0mg"},{"bike_id":"c32fea04-49e6-4daf-aa73-6234027fda4f","system_id":"levelo_inurba_marseille","lat":43.284217,"lon":5.349697,"is_reserved":false,"is_disabled":false,"rental_uris":{"android":"levelo://app?vid=c32fea04-49e6-4daf-aa73-6234027fda4f","ios":"levelo://app?vid=c32fea04-49e6-4daf-aa73-6234027fda4f"},"vehicle_type_id":"4","last_reported":1722183055,"current_range_meters":400,"station_id":"ce4bhbh2rcd13ifvqepg","pricing_plan_id":"cebpf4jnsgd1na2vs0mg"},{"bike_id":"31b05b3c-102e-4bb3-9e94-97a9e4215424","system_id":"levelo_inurba_marseille","lat":43.284217,"lon":5.349697,"is_reserved":false,"is_disabled":false,"rental_uris":{"android":"levelo://app?vid=31b05b3c-102e-4bb3-9e94-97a9e4215424","ios":"levelo://app?vid=31b05b3c-102e-4bb3-9e94-97a9e4215424"},"vehicle_type_id":"4","last_reported":1722183055,"current_range_meters":0,"station_id":"ce4bhbh2rcd13ifvqepg","pricing_plan_id":"cebpf4jnsgd1na2vs0mg"},{"bike_id":"ac989c52-2535-4df7-a034-6fd0195866c1","system_id":"levelo_inurba_marseille","lat":43.29041,"lon":5.399634,"is_reserved":false,"is_disabled":false,"rental_uris":{"android":"levelo://app?vid=ac989c52-2535-4df7-a034-6fd0195866c1","ios":"levelo://app?vid=ac989c52-2535-4df7-a034-6fd0195866c1"},"vehicle_type_id":"4","last_reported":1722183055,"current_range_meters":12800,"station_id":"ce4bh392rcd13ifvqdm0","pricing_plan_id":"cebpf4jnsgd1na2vs0mg"},{"bike_id":"17439842-f51a-46ba-a0b2-44e4b92dc3c3","system_id":"levelo_inurba_marseille","lat":43.28938,"lon":5.39614,"is_reserved":false,"is_disabled":false,"rental_uris":{"android":"levelo://app?vid=17439842-f51a-46ba-a0b2-44e4b92dc3c3","ios":"levelo://app?vid=17439842-f51a-46ba-a0b2-44e4b92dc3c3"},"vehicle_type_id":"4","last_reported":1722183055,"current_range_meters":31200,"station_id":"ce4bh3h2rcd13ifvqdn0","pricing_plan_id":"cebpf4jnsgd1na2vs0mg"},{"bike_id":"43c40efa-9407-46ea-9500-b0d26fdf520f","system_id":"levelo_inurba_marseille","lat":43.283502,"lon":5.386471,"is_reserved":false,"is_disabled":false,"rental_uris":{"android":"levelo://app?vid=43c40efa-9407-46ea-9500-b0d26fdf520f","ios":"levelo://app?vid=43c40efa-9407-46ea-9500-b0d26fdf520f"},"vehicle_type_id":"4","last_reported":1722183055,"current_range_meters":12000,"station_id":"ce4bh492rcd13ifvqdvg","pricing_plan_id":"cebpf4jnsgd1na2vs0mg"},{"bike_id":"ae407a93-fd50-42e9-818c-0c9b073f6284","system_id":"levelo_inurba_marseille","lat":43.282744,"lon":5.350533,"is_reserved":false,"is_disabled":false,"rental_uris":{"android":"levelo://app?vid=ae407a93-fd50-42e9-818c-0c9b073f6284","ios":"levelo://app?vid=ae407a93-fd50-42e9-818c-0c9b073f6284"},"vehicle_type_id":"4","last_reported":1722183055,"current_range_meters":31200,"station_id":"ce4bhbp2rcd13ifvqerg","pricing_plan_id":"cebpf4jnsgd1na2vs0mg"},{"bike_id":"69b58638-2a35-4e26-9f3d-1ddcf0bdb3d6","system_id":"levelo_inurba_marseille","lat":43.283502,"lon":5.386471,"is_reserved":false,"is_disabled":false,"rental_uris":{"android":"levelo://app?vid=69b58638-2a35-4e26-9f3d-1ddcf0bdb3d6","ios":"levelo://app?vid=69b58638-2a35-4e26-9f3d-1ddcf0bdb3d6"},"vehicle_type_id":"4","last_reported":1722183055,"current_range_meters":2800,"station_id":"ce4bh492rcd13ifvqdvg","pricing_plan_id":"cebpf4jnsgd1na2vs0mg"},{"bike_id":"a7916a8c-6890-4e9a-8f42-aa2c4147317f","system_id":"levelo_inurba_marseille","lat":43.282744,"lon":5.350533,"is_reserved":false,"is_disabled":false,"rental_uris":{"android":"levelo://app?vid=a7916a8c-6890-4e9a-8f42-aa2c4147317f","ios":"levelo://app?vid=a7916a8c-6890-4e9a-8f42-aa2c4147317f"},"vehicle_type_id":"4","last_reported":1722183055,"current_range_meters":16400,"station_id":"ce4bhbp2rcd13ifvqerg","pricing_plan_id":"cebpf4jnsgd1na2vs0mg"},{"bike_id":"1571a19d-aef6-472f-bb5c-50dc2e933d2d","system_id":"levelo_inurba_marseille","lat":43.28264,"lon":5.35074,"is_reserved":false,"is_disabled":false,"rental_uris":{"android":"levelo://app?vid=1571a19d-aef6-472f-bb5c-50dc2e933d2d","ios":"levelo://app?vid=1571a19d-aef6-472f-bb5c-50dc2e933d2d"},"vehicle_type_id":"4","last_reported":1722183055,"current_range_meters":31200,"station_id":"ce4bhbp2rcd13ifvqerg","pricing_plan_id":"cebpf4jnsgd1na2vs0mg"},{"bike_id":"e23ad267-2208-418a-8f03-1e1b68af5518","system_id":"levelo_inurba_marseille","lat":43.283502,"lon":5.386471,"is_reserved":false,"is_disabled":false,"rental_uris":{"android":"levelo://app?vid=e23ad267-2208-418a-8f03-1e1b68af5518","ios":"levelo://app?vid=e23ad267-2208-418a-8f03-1e1b68af5518"},"vehicle_type_id":"4","last_reported":1722183055,"current_range_meters":1600,"station_id":"ce4bh492rcd13ifvqdvg","pricing_plan_id":"cebpf4jnsgd1na2vs0mg"},{"bike_id":"2bd13106-ba87-482e-85c9-6eeb3a850f67","system_id":"levelo_inurba_marseille","lat":43.280382,"lon":5.369291,"is_reserved":false,"is_disabled":false,"rental_uris":{"android":"levelo://app?vid=2bd13106-ba87-482e-85c9-6eeb3a850f67","ios":"levelo://app?vid=2bd13106-ba87-482e-85c9-6eeb3a850f67"},"vehicle_type_id":"4","last_reported":1722183055,"current_range_meters":0,"station_id":"ce4bha12rcd13ifvqef0","pricing_plan_id":"cebpf4jnsgd1na2vs0mg"},{"bike_id":"e80a68d4-0aa3-4780-aebb-b850792d396f","system_id":"levelo_inurba_marseille","lat":43.29043,"lon":5.39962,"is_reserved":false,"is_disabled":false,"rental_uris":{"android":"levelo://app?vid=e80a68d4-0aa3-4780-aebb-b850792d396f","ios":"levelo://app?vid=e80a68d4-0aa3-4780-aebb-b850792d396f"},"vehicle_type_id":"4","last_reported":1722183055,"current_range_meters":18000,"station_id":"ce4bh392rcd13ifvqdm0","pricing_plan_id":"cebpf4jnsgd1na2vs0mg"},{"bike_id":"0847027e-1c2a-4ced-91e5-f43fd2a162a3","system_id":"levelo_inurba_marseille","lat":43.29033,"lon":5.39975,"is_reserved":false,"is_disabled":false,"rental_uris":{"android":"levelo://app?vid=0847027e-1c2a-4ced-91e5-f43fd2a162a3","ios":"levelo://app?vid=0847027e-1c2a-4ced-91e5-f43fd2a162a3"},"vehicle_type_id":"4","last_reported":1722183055,"current_range_meters":5600,"station_id":"ce4bh392rcd13ifvqdm0","pricing_plan_id":"cebpf4jnsgd1na2vs0mg"},{"bike_id":"e8080547-572f-47d1-bde8-ffc26f12c275","system_id":"levelo_inurba_marseille","lat":43.34091,"lon":5.39103,"is_reserved":false,"is_disabled":false,"rental_uris":{"android":"levelo://app?vid=e8080547-572f-47d1-bde8-ffc26f12c275","ios":"levelo://app?vid=e8080547-572f-47d1-bde8-ffc26f12c275"},"vehicle_type_id":"4","last_reported":1722183055,"current_range_meters":8400,"station_id":"","pricing_plan_id":"cebpf4jnsgd1na2vs0mg"},{"bike_id":"0dc23daf-ceb0-4558-b491-50503b89d50f","system_id":"levelo_inurba_marseille","lat":43.282744,"lon":5.350533,"is_reserved":false,"is_disabled":false,"rental_uris":{"android":"levelo://app?vid=0dc23daf-ceb0-4558-b491-50503b89d50f","ios":"levelo://app?vid=0dc23daf-ceb0-4558-b491-50503b89d50f"},"vehicle_type_id":"4","last_reported":1722183055,"current_range_meters":0,"station_id":"ce4bhbp2rcd13ifvqerg","pricing_plan_id":"cebpf4jnsgd1na2vs0mg"},{"bike_id":"ffa7b6a0-d120-42af-9ae8-6b738c4464d9","system_id":"levelo_inurba_marseille","lat":43.284463,"lon":5.391946,"is_reserved":false,"is_disabled":false,"rental_uris":{"android":"levelo://app?vid=ffa7b6a0-d120-42af-9ae8-6b738c4464d9","ios":"levelo://app?vid=ffa7b6a0-d120-42af-9ae8-6b738c4464d9"},"vehicle_type_id":"4","last_reported":1722183055,"current_range_meters":31200,"station_id":"ce4bhoh2rcd13ifvqh5g","pricing_plan_id":"cebpf4jnsgd1na2vs0mg"},{"bike_id":"f861ecb0-07b5-4a32-9366-6c648935f671","system_id":"levelo_inurba_marseille","lat":43.285742,"lon":5.395004,"is_reserved":false,"is_disabled":false,"rental_uris":{"android":"levelo://app?vid=f861ecb0-07b5-4a32-9366-6c648935f671","ios":"levelo://app?vid=f861ecb0-07b5-4a32-9366-6c648935f671"},"vehicle_type_id":"4","last_reported":1722183055,"current_range_meters":32000,"station_id":"ce4bh292rcd13ifvqdg0","pricing_plan_id":"cebpf4jnsgd1na2vs0mg"},{"bike_id":"5bf6ec2c-3e0d-4649-ac6f-890bae0f1ca2","system_id":"levelo_inurba_marseille","lat":43.28573,"lon":5.394992,"is_reserved":false,"is_disabled":false,"rental_uris":{"android":"levelo://app?vid=5bf6ec2c-3e0d-4649-ac6f-890bae0f1ca2","ios":"levelo://app?vid=5bf6ec2c-3e0d-4649-ac6f-890bae0f1ca2"},"vehicle_type_id":"4","last_reported":1722183055,"current_range_meters":22000,"station_id":"ce4bh292rcd13ifvqdg0","pricing_plan_id":"cebpf4jnsgd1na2vs0mg"},{"bike_id":"c7eba45c-cd25-44d0-ac75-2045b8cf2836","system_id":"levelo_inurba_marseille","lat":43.285742,"lon":5.395004,"is_reserved":false,"is_disabled":false,"rental_uris":{"android":"levelo://app?vid=c7eba45c-cd25-44d0-ac75-2045b8cf2836","ios":"levelo://app?vid=c7eba45c-cd25-44d0-ac75-2045b8cf2836"},"vehicle_type_id":"4","last_reported":1722183055,"current_range_meters":0,"station_id":"ce4bh292rcd13ifvqdg0","pricing_plan_id":"cebpf4jnsgd1na2vs0mg"},{"bike_id":"b0234a75-169f-41ea-be0e-15bea9759db8","system_id":"levelo_inurba_marseille","lat":43.326605,"lon":5.409903,"is_reserved":false,"is_disabled":false,"rental_uris":{"android":"levelo://app?vid=b0234a75-169f-41ea-be0e-15bea9759db8","ios":"levelo://app?vid=b0234a75-169f-41ea-be0e-15bea9759db8"},"vehicle_type_id":"4","last_reported":1722183055,"current_range_meters":6400,"station_id":"ce4bhpp2rcd13ifvqhgg","pricing_plan_id":"cebpf4jnsgd1na2vs0mg"},{"bike_id":"19c54ae4-974f-482c-841d-45709d12a739","system_id":"levelo_inurba_marseille","lat":43.326605,"lon":5.409903,"is_reserved":false,"is_disabled":false,"rental_uris":{"android":"levelo://app?vid=19c54ae4-974f-482c-841d-45709d12a739","ios":"levelo://app?vid=19c54ae4-974f-482c-841d-45709d12a739"},"vehicle_type_id":"4","last_reported":1722183055,"current_range_meters":16400,"station_id":"ce4bhpp2rcd13ifvqhgg","pricing_plan_id":"cebpf4jnsgd1na2vs0mg"},{"bike_id":"5e7507f3-3b31-469b-9152-cf5012c7a714","system_id":"levelo_inurba_marseille","lat":43.326605,"lon":5.409903,"is_reserved":false,"is_disabled":false,"rental_uris":{"android":"levelo://app?vid=5e7507f3-3b31-469b-9152-cf5012c7a714","ios":"levelo://app?vid=5e7507f3-3b31-469b-9152-cf5012c7a714"},"vehicle_type_id":"4","last_reported":1722183055,"current_range_meters":15600,"station_id":"ce4bhpp2rcd13ifvqhgg","pricing_plan_id":"cebpf4jnsgd1na2vs0mg"},{"bike_id":"fe0b1f51-dfcf-4466-ba44-f4d79120b9e1","system_id":"levelo_inurba_marseille","lat":43.304188,"lon":5.412904,"is_reserved":false,"is_disabled":false,"rental_uris":{"android":"levelo://app?vid=fe0b1f51-dfcf-4466-ba44-f4d79120b9e1","ios":"levelo://app?vid=fe0b1f51-dfcf-4466-ba44-f4d79120b9e1"},"vehicle_type_id":"4","last_reported":1722183055,"current_range_meters":14400,"station_id":"ce4bhop2rcd13ifvqh8g","pricing_plan_id":"cebpf4jnsgd1na2vs0mg"},{"bike_id":"bbe9a88d-92e9-4144-86c6-c87edc6838cc","system_id":"levelo_inurba_marseille","lat":43.279087,"lon":5.380114,"is_reserved":false,"is_disabled":false,"rental_uris":{"android":"levelo://app?vid=bbe9a88d-92e9-4144-86c6-c87edc6838cc","ios":"levelo://app?vid=bbe9a88d-92e9-4144-86c6-c87edc6838cc"},"vehicle_type_id":"4","last_reported":1722183055,"current_range_meters":25200,"station_id":"ce4bhf92rcd13ifvqf50","pricing_plan_id":"cebpf4jnsgd1na2vs0mg"},{"bike_id":"48868a67-daba-4d8f-8aef-700d9d70d8f1","system_id":"levelo_inurba_marseille","lat":43.347814,"lon":5.373732,"is_reserved":false,"is_disabled":false,"rental_uris":{"android":"levelo://app?vid=48868a67-daba-4d8f-8aef-700d9d70d8f1","ios":"levelo://app?vid=48868a67-daba-4d8f-8aef-700d9d70d8f1"},"vehicle_type_id":"4","last_reported":1722183055,"current_range_meters":8000,"station_id":"","pricing_plan_id":"cebpf4jnsgd1na2vs0mg"},{"bike_id":"ca8446b3-3d73-4e59-a44b-7656a0803b53","system_id":"levelo_inurba_marseille","lat":43.279742,"lon":5.38744,"is_reserved":false,"is_disabled":false,"rental_uris":{"android":"levelo://app?vid=ca8446b3-3d73-4e59-a44b-7656a0803b53","ios":"levelo://app?vid=ca8446b3-3d73-4e59-a44b-7656a0803b53"},"vehicle_type_id":"4","last_reported":1722183055,"current_range_meters":22400,"station_id":"ce4bhg12rcd13ifvqf80","pricing_plan_id":"cebpf4jnsgd1na2vs0mg"},{"bike_id":"b474f2cc-bd28-4351-a434-660d65770e90","system_id":"levelo_inurba_marseille","lat":43.279742,"lon":5.38744,"is_reserved":false,"is_disabled":false,"rental_uris":{"android":"levelo://app?vid=b474f2cc-bd28-4351-a434-660d65770e90","ios":"levelo://app?vid=b474f2cc-bd28-4351-a434-660d65770e90"},"vehicle_type_id":"4","last_reported":1722183055,"current_range_meters":0,"station_id":"ce4bhg12rcd13ifvqf80","pricing_plan_id":"cebpf4jnsgd1na2vs0mg"},{"bike_id":"15fa1d91-b802-459c-9017-50c18091f010","system_id":"levelo_inurba_marseille","lat":43.279742,"lon":5.38744,"is_reserved":false,"is_disabled":false,"rental_uris":{"android":"levelo://app?vid=15fa1d91-b802-459c-9017-50c18091f010","ios":"levelo://app?vid=15fa1d91-b802-459c-9017-50c18091f010"},"vehicle_type_id":"4","last_reported":1722183055,"current_range_meters":14800,"station_id":"ce4bhg12rcd13ifvqf80","pricing_plan_id":"cebpf4jnsgd1na2vs0mg"},{"bike_id":"f7e8a52e-44d7-4c06-a22a-98c85b4cbc83","system_id":"levelo_inurba_marseille","lat":43.279742,"lon":5.38744,"is_reserved":false,"is_disabled":false,"rental_uris":{"android":"levelo://app?vid=f7e8a52e-44d7-4c06-a22a-98c85b4cbc83","ios":"levelo://app?vid=f7e8a52e-44d7-4c06-a22a-98c85b4cbc83"},"vehicle_type_id":"4","last_reported":1722183055,"current_range_meters":6000,"station_id":"ce4bhg12rcd13ifvqf80","pricing_plan_id":"cebpf4jnsgd1na2vs0mg"},{"bike_id":"517b4365-d468-4f71-8611-68d1e91ccf41","system_id":"levelo_inurba_marseille","lat":43.320442,"lon":5.415671,"is_reserved":false,"is_disabled":false,"rental_uris":{"android":"levelo://app?vid=517b4365-d468-4f71-8611-68d1e91ccf41","ios":"levelo://app?vid=517b4365-d468-4f71-8611-68d1e91ccf41"},"vehicle_type_id":"4","last_reported":1722183055,"current_range_meters":2800,"station_id":"ce4bhq92rcd13ifvqhkg","pricing_plan_id":"cebpf4jnsgd1na2vs0mg"},{"bike_id":"1100654e-439b-4f5b-8a5d-31ef7b1a0e29","system_id":"levelo_inurba_marseille","lat":43.292571,"lon":5.409107,"is_reserved":false,"is_disabled":false,"rental_uris":{"android":"levelo://app?vid=1100654e-439b-4f5b-8a5d-31ef7b1a0e29","ios":"levelo://app?vid=1100654e-439b-4f5b-8a5d-31ef7b1a0e29"},"vehicle_type_id":"4","last_reported":1722183055,"current_range_meters":31200,"station_id":"ce4bh192rcd13ifvqdc0","pricing_plan_id":"cebpf4jnsgd1na2vs0mg"},{"bike_id":"017c58af-86b0-4e4b-9dbd-6cfcc77e87fe","system_id":"levelo_inurba_marseille","lat":43.292571,"lon":5.409107,"is_reserved":false,"is_disabled":false,"rental_uris":{"android":"levelo://app?vid=017c58af-86b0-4e4b-9dbd-6cfcc77e87fe","ios":"levelo://app?vid=017c58af-86b0-4e4b-9dbd-6cfcc77e87fe"},"vehicle_type_id":"4","last_reported":1722183055,"current_range_meters":31200,"station_id":"ce4bh192rcd13ifvqdc0","pricing_plan_id":"cebpf4jnsgd1na2vs0mg"},{"bike_id":"48547892-e257-4079-af67-fbd20c771d28","system_id":"levelo_inurba_marseille","lat":43.276179,"lon":5.361009,"is_reserved":false,"is_disabled":false,"rental_uris":{"android":"levelo://app?vid=48547892-e257-4079-af67-fbd20c771d28","ios":"levelo://app?vid=48547892-e257-4079-af67-fbd20c771d28"},"vehicle_type_id":"4","last_reported":1722183055,"current_range_meters":26400,"station_id":"ce4bgj92rcd13ifvqbe0","pricing_plan_id":"cebpf4jnsgd1na2vs0mg"},{"bike_id":"ad68280f-919e-448b-8d6b-efbb7beba03d","system_id":"levelo_inurba_marseille","lat":43.325233,"lon":5.414318,"is_reserved":false,"is_disabled":false,"rental_uris":{"android":"levelo://app?vid=ad68280f-919e-448b-8d6b-efbb7beba03d","ios":"levelo://app?vid=ad68280f-919e-448b-8d6b-efbb7beba03d"},"vehicle_type_id":"4","last_reported":1722183055,"current_range_meters":32000,"station_id":"ce4bhq12rcd13ifvqhhg","pricing_plan_id":"cebpf4jnsgd1na2vs0mg"},{"bike_id":"ee4fb559-e42f-4919-8ed5-07ccd20a5c34","system_id":"levelo_inurba_marseille","lat":43.276179,"lon":5.361009,"is_reserved":false,"is_disabled":false,"rental_uris":{"android":"levelo://app?vid=ee4fb559-e42f-4919-8ed5-07ccd20a5c34","ios":"levelo://app?vid=ee4fb559-e42f-4919-8ed5-07ccd20a5c34"},"vehicle_type_id":"4","last_reported":1722183055,"current_range_meters":8400,"station_id":"ce4bgj92rcd13ifvqbe0","pricing_plan_id":"cebpf4jnsgd1na2vs0mg"},{"bike_id":"a17bbf28-ba85-454f-95c5-58d5dfe850b6","system_id":"levelo_inurba_marseille","lat":43.325233,"lon":5.414318,"is_reserved":false,"is_disabled":false,"rental_uris":{"android":"levelo://app?vid=a17bbf28-ba85-454f-95c5-58d5dfe850b6","ios":"levelo://app?vid=a17bbf28-ba85-454f-95c5-58d5dfe850b6"},"vehicle_type_id":"4","last_reported":1722183055,"current_range_meters":13200,"station_id":"ce4bhq12rcd13ifvqhhg","pricing_plan_id":"cebpf4jnsgd1na2vs0mg"},{"bike_id":"8a0587e3-b110-40ef-91fb-5a8bd9542733","system_id":"levelo_inurba_marseille","lat":43.276179,"lon":5.361009,"is_reserved":false,"is_disabled":false,"rental_uris":{"android":"levelo://app?vid=8a0587e3-b110-40ef-91fb-5a8bd9542733","ios":"levelo://app?vid=8a0587e3-b110-40ef-91fb-5a8bd9542733"},"vehicle_type_id":"4","last_reported":1722183055,"current_range_meters":12400,"station_id":"ce4bgj92rcd13ifvqbe0","pricing_plan_id":"cebpf4jnsgd1na2vs0mg"},{"bike_id":"5c23f9fd-83c4-4f91-86d8-bfef4570f5a0","system_id":"levelo_inurba_marseille","lat":43.276179,"lon":5.361009,"is_reserved":false,"is_disabled":false,"rental_uris":{"android":"levelo://app?vid=5c23f9fd-83c4-4f91-86d8-bfef4570f5a0","ios":"levelo://app?vid=5c23f9fd-83c4-4f91-86d8-bfef4570f5a0"},"vehicle_type_id":"4","last_reported":1722183055,"current_range_meters":5200,"station_id":"ce4bgj92rcd13ifvqbe0","pricing_plan_id":"cebpf4jnsgd1na2vs0mg"},{"bike_id":"2b9468c1-d213-4bfc-9af7-4f29373d4513","system_id":"levelo_inurba_marseille","lat":43.325312,"lon":5.414548,"is_reserved":false,"is_disabled":false,"rental_uris":{"android":"levelo://app?vid=2b9468c1-d213-4bfc-9af7-4f29373d4513","ios":"levelo://app?vid=2b9468c1-d213-4bfc-9af7-4f29373d4513"},"vehicle_type_id":"4","last_reported":1722183055,"current_range_meters":26400,"station_id":"ce4bhq12rcd13ifvqhhg","pricing_plan_id":"cebpf4jnsgd1na2vs0mg"},{"bike_id":"6ae12ebe-49de-485c-8ee1-831b14ec683e","system_id":"levelo_inurba_marseille","lat":43.325243,"lon":5.414326,"is_reserved":false,"is_disabled":false,"rental_uris":{"android":"levelo://app?vid=6ae12ebe-49de-485c-8ee1-831b14ec683e","ios":"levelo://app?vid=6ae12ebe-49de-485c-8ee1-831b14ec683e"},"vehicle_type_id":"4","last_reported":1722183055,"current_range_meters":28400,"station_id":"ce4bhq12rcd13ifvqhhg","pricing_plan_id":"cebpf4jnsgd1na2vs0mg"},{"bike_id":"96de632e-6e11-4f7e-93e3-6e171162e656","system_id":"levelo_inurba_marseille","lat":43.325243,"lon":5.414326,"is_reserved":false,"is_disabled":false,"rental_uris":{"android":"levelo://app?vid=96de632e-6e11-4f7e-93e3-6e171162e656","ios":"levelo://app?vid=96de632e-6e11-4f7e-93e3-6e171162e656"},"vehicle_type_id":"4","last_reported":1722183055,"current_range_meters":29200,"station_id":"ce4bhq12rcd13ifvqhhg","pricing_plan_id":"cebpf4jnsgd1na2vs0mg"},{"bike_id":"6c628daa-1d77-4127-ba38-6a5806482df2","system_id":"levelo_inurba_marseille","lat":43.276179,"lon":5.361009,"is_reserved":false,"is_disabled":false,"rental_uris":{"android":"levelo://app?vid=6c628daa-1d77-4127-ba38-6a5806482df2","ios":"levelo://app?vid=6c628daa-1d77-4127-ba38-6a5806482df2"},"vehicle_type_id":"4","last_reported":1722183055,"current_range_meters":11600,"station_id":"ce4bgj92rcd13ifvqbe0","pricing_plan_id":"cebpf4jnsgd1na2vs0mg"},{"bike_id":"95d57aa2-2a48-43d3-8928-a00832ce31b9","system_id":"levelo_inurba_marseille","lat":43.276179,"lon":5.361009,"is_reserved":false,"is_disabled":false,"rental_uris":{"android":"levelo://app?vid=95d57aa2-2a48-43d3-8928-a00832ce31b9","ios":"levelo://app?vid=95d57aa2-2a48-43d3-8928-a00832ce31b9"},"vehicle_type_id":"4","last_reported":1722183055,"current_range_meters":28000,"station_id":"ce4bgj92rcd13ifvqbe0","pricing_plan_id":"cebpf4jnsgd1na2vs0mg"},{"bike_id":"d1e02b7a-94d0-4b12-8367-9944be1e9e10","system_id":"levelo_inurba_marseille","lat":43.280784,"lon":5.396622,"is_reserved":false,"is_disabled":false,"rental_uris":{"android":"levelo://app?vid=d1e02b7a-94d0-4b12-8367-9944be1e9e10","ios":"levelo://app?vid=d1e02b7a-94d0-4b12-8367-9944be1e9e10"},"vehicle_type_id":"4","last_reported":1722183055,"current_range_meters":7600,"station_id":"ce4bho12rcd13ifvqh2g","pricing_plan_id":"cebpf4jnsgd1na2vs0mg"},{"bike_id":"8caa0c08-9012-4489-bfa3-14d6247658ce","system_id":"levelo_inurba_marseille","lat":43.303837,"lon":5.418724,"is_reserved":false,"is_disabled":false,"rental_uris":{"android":"levelo://app?vid=8caa0c08-9012-4489-bfa3-14d6247658ce","ios":"levelo://app?vid=8caa0c08-9012-4489-bfa3-14d6247658ce"},"vehicle_type_id":"4","last_reported":1722183055,"current_range_meters":27600,"station_id":"ce4bhop2rcd13ifvqh7g","pricing_plan_id":"cebpf4jnsgd1na2vs0mg"},{"bike_id":"f576396b-c816-44d7-b7b1-55d8667ca06a","system_id":"levelo_inurba_marseille","lat":43.27384,"lon":5.3625,"is_reserved":false,"is_disabled":false,"rental_uris":{"android":"levelo://app?vid=f576396b-c816-44d7-b7b1-55d8667ca06a","ios":"levelo://app?vid=f576396b-c816-44d7-b7b1-55d8667ca06a"},"vehicle_type_id":"4","last_reported":1722183055,"current_range_meters":11200,"station_id":"ce4bhbh2rcd13ifvqeo0","pricing_plan_id":"cebpf4jnsgd1na2vs0mg"},{"bike_id":"b6780959-67b5-4826-8a3a-d070e4065927","system_id":"levelo_inurba_marseille","lat":43.27382,"lon":5.36252,"is_reserved":false,"is_disabled":false,"rental_uris":{"android":"levelo://app?vid=b6780959-67b5-4826-8a3a-d070e4065927","ios":"levelo://app?vid=b6780959-67b5-4826-8a3a-d070e4065927"},"vehicle_type_id":"4","last_reported":1722183055,"current_range_meters":0,"station_id":"ce4bhbh2rcd13ifvqeo0","pricing_plan_id":"cebpf4jnsgd1na2vs0mg"},{"bike_id":"6825f8c9-721d-4fd4-ac6d-d023bb5091bd","system_id":"levelo_inurba_marseille","lat":43.27381,"lon":5.36252,"is_reserved":false,"is_disabled":false,"rental_uris":{"android":"levelo://app?vid=6825f8c9-721d-4fd4-ac6d-d023bb5091bd","ios":"levelo://app?vid=6825f8c9-721d-4fd4-ac6d-d023bb5091bd"},"vehicle_type_id":"4","last_reported":1722183055,"current_range_meters":28800,"station_id":"ce4bhbh2rcd13ifvqeo0","pricing_plan_id":"cebpf4jnsgd1na2vs0mg"},{"bike_id":"0df11bdb-75bf-44ef-8d65-df733279c4ba","system_id":"levelo_inurba_marseille","lat":43.2738,"lon":5.36252,"is_reserved":false,"is_disabled":false,"rental_uris":{"android":"levelo://app?vid=0df11bdb-75bf-44ef-8d65-df733279c4ba","ios":"levelo://app?vid=0df11bdb-75bf-44ef-8d65-df733279c4ba"},"vehicle_type_id":"4","last_reported":1722183055,"current_range_meters":8000,"station_id":"ce4bhbh2rcd13ifvqeo0","pricing_plan_id":"cebpf4jnsgd1na2vs0mg"},{"bike_id":"bdd96703-5b48-4cb2-bb7d-42544dd3ab32","system_id":"levelo_inurba_marseille","lat":43.2738,"lon":5.36243,"is_reserved":false,"is_disabled":false,"rental_uris":{"android":"levelo://app?vid=bdd96703-5b48-4cb2-bb7d-42544dd3ab32","ios":"levelo://app?vid=bdd96703-5b48-4cb2-bb7d-42544dd3ab32"},"vehicle_type_id":"4","last_reported":1722183055,"current_range_meters":31200,"station_id":"ce4bhbh2rcd13ifvqeo0","pricing_plan_id":"cebpf4jnsgd1na2vs0mg"},{"bike_id":"4bbb56a7-d872-4523-87f8-b1483d602276","system_id":"levelo_inurba_marseille","lat":43.27378,"lon":5.36276,"is_reserved":false,"is_disabled":false,"rental_uris":{"android":"levelo://app?vid=4bbb56a7-d872-4523-87f8-b1483d602276","ios":"levelo://app?vid=4bbb56a7-d872-4523-87f8-b1483d602276"},"vehicle_type_id":"4","last_reported":1722183055,"current_range_meters":10000,"station_id":"ce4bhbh2rcd13ifvqeo0","pricing_plan_id":"cebpf4jnsgd1na2vs0mg"},{"bike_id":"e7b9209a-c176-4593-9ed0-de17d466d447","system_id":"levelo_inurba_marseille","lat":43.273783,"lon":5.362423,"is_reserved":false,"is_disabled":false,"rental_uris":{"android":"levelo://app?vid=e7b9209a-c176-4593-9ed0-de17d466d447","ios":"levelo://app?vid=e7b9209a-c176-4593-9ed0-de17d466d447"},"vehicle_type_id":"4","last_reported":1722183055,"current_range_meters":0,"station_id":"ce4bhbh2rcd13ifvqeo0","pricing_plan_id":"cebpf4jnsgd1na2vs0mg"},{"bike_id":"b98e1df4-843f-4cea-8c57-198f84d9ade2","system_id":"levelo_inurba_marseille","lat":43.27377,"lon":5.36255,"is_reserved":false,"is_disabled":false,"rental_uris":{"android":"levelo://app?vid=b98e1df4-843f-4cea-8c57-198f84d9ade2","ios":"levelo://app?vid=b98e1df4-843f-4cea-8c57-198f84d9ade2"},"vehicle_type_id":"4","last_reported":1722183055,"current_range_meters":14000,"station_id":"ce4bhbh2rcd13ifvqeo0","pricing_plan_id":"cebpf4jnsgd1na2vs0mg"},{"bike_id":"c22c3148-9626-4697-9b74-09ecb3599334","system_id":"levelo_inurba_marseille","lat":43.273609,"lon":5.362708,"is_reserved":false,"is_disabled":false,"rental_uris":{"android":"levelo://app?vid=c22c3148-9626-4697-9b74-09ecb3599334","ios":"levelo://app?vid=c22c3148-9626-4697-9b74-09ecb3599334"},"vehicle_type_id":"4","last_reported":1722183055,"current_range_meters":0,"station_id":"ce4bhbh2rcd13ifvqeo0","pricing_plan_id":"cebpf4jnsgd1na2vs0mg"},{"bike_id":"e890b519-7098-483e-a329-0d090ec5d7a4","system_id":"levelo_inurba_marseille","lat":43.27376,"lon":5.36258,"is_reserved":false,"is_disabled":false,"rental_uris":{"android":"levelo://app?vid=e890b519-7098-483e-a329-0d090ec5d7a4","ios":"levelo://app?vid=e890b519-7098-483e-a329-0d090ec5d7a4"},"vehicle_type_id":"4","last_reported":1722183055,"current_range_meters":15200,"station_id":"ce4bhbh2rcd13ifvqeo0","pricing_plan_id":"cebpf4jnsgd1na2vs0mg"},{"bike_id":"bbeb9cbe-01b6-43ef-b918-71d84ee9cec9","system_id":"levelo_inurba_marseille","lat":43.27376,"lon":5.36255,"is_reserved":false,"is_disabled":false,"rental_uris":{"android":"levelo://app?vid=bbeb9cbe-01b6-43ef-b918-71d84ee9cec9","ios":"levelo://app?vid=bbeb9cbe-01b6-43ef-b918-71d84ee9cec9"},"vehicle_type_id":"4","last_reported":1722183055,"current_range_meters":0,"station_id":"ce4bhbh2rcd13ifvqeo0","pricing_plan_id":"cebpf4jnsgd1na2vs0mg"},{"bike_id":"64438f0a-c07b-4147-925f-0e333844439e","system_id":"levelo_inurba_marseille","lat":43.273613,"lon":5.362705,"is_reserved":false,"is_disabled":false,"rental_uris":{"android":"levelo://app?vid=64438f0a-c07b-4147-925f-0e333844439e","ios":"levelo://app?vid=64438f0a-c07b-4147-925f-0e333844439e"},"vehicle_type_id":"4","last_reported":1722183055,"current_range_meters":19600,"station_id":"ce4bhbh2rcd13ifvqeo0","pricing_plan_id":"cebpf4jnsgd1na2vs0mg"},{"bike_id":"5bbf1954-1d1b-4c4d-9a57-6964cc5a0e30","system_id":"levelo_inurba_marseille","lat":43.27374,"lon":5.36266,"is_reserved":false,"is_disabled":false,"rental_uris":{"android":"levelo://app?vid=5bbf1954-1d1b-4c4d-9a57-6964cc5a0e30","ios":"levelo://app?vid=5bbf1954-1d1b-4c4d-9a57-6964cc5a0e30"},"vehicle_type_id":"4","last_reported":1722183055,"current_range_meters":0,"station_id":"ce4bhbh2rcd13ifvqeo0","pricing_plan_id":"cebpf4jnsgd1na2vs0mg"},{"bike_id":"def25728-b1dc-4031-839a-50d56bb0ed1c","system_id":"levelo_inurba_marseille","lat":43.273609,"lon":5.362708,"is_reserved":false,"is_disabled":false,"rental_uris":{"android":"levelo://app?vid=def25728-b1dc-4031-839a-50d56bb0ed1c","ios":"levelo://app?vid=def25728-b1dc-4031-839a-50d56bb0ed1c"},