{"last_updated":1742613742,"ttl":60,"version":"2.2","data":{"bikes":[{"bike_id":"95f794ff-ed81-4ba7-a37f-bc3285ce441f","system_id":"levelo_inurba_marseille","lat":43.26817,"lon":5.41508,"is_reserved":false,"is_disabled":false,"rental_uris":{"android":"levelo://app?vid=95f794ff-ed81-4ba7-a37f-bc3285ce441f","ios":"levelo://app?vid=95f794ff-ed81-4ba7-a37f-bc3285ce441f"},"vehicle_type_id":"4","last_reported":1742613743,"current_range_meters":2800,"station_id":"","pricing_plan_id":"cebpf4jnsgd1na2vs0mg"},{"bike_id":"8c9fa4ba-3022-472d-a524-2b34aef0abf8","system_id":"levelo_inurba_marseille","lat":43.29994,"lon":5.37177,"is_reserved":false,"is_disabled":true,"rental_uris":{"android":"levelo://app?vid=8c9fa4ba-3022-472d-a524-2b34aef0abf8","ios":"levelo://app?vid=8c9fa4ba-3022-472d-a524-2b34aef0abf8"},"vehicle_type_id":"4","last_reported":1742613743,"current_range_meters":2800,"station_id":"ce4bgr92rcd13ifvqc7g","pricing_plan_id":"cebpf4jnsgd1na2vs0mg"},{"bike_id":"a61850fc-fa78-440e-8fa6-4b9a471ca393","system_id":"levelo_inurba_marseille","lat":43.28152,"lon":5.42647,"is_reserved":false,"is_disabled":false,"rental_uris":{"android":"levelo://app?vid=a61850fc-fa78-440e-8fa6-4b9a471ca393","ios":"levelo://app?vid=a61850fc-fa78-440e-8fa6-4b9a471ca393"},"vehicle_type_id":"4","last_reported":1742613743,"current_range_meters":3200,"station_id":"ce4bhnh2rcd13ifvqgug","pricing_plan_id":"cebpf4jnsgd1na2vs0mg"},{"bike_id":"b266faba-4e26-4c50-b078-a54d17773ddd","system_id":"levelo_inurba_marseille","lat":43.245424,"lon":5.395204,"is_reserved":false,"is_disabled":false,"rental_uris":{"android":"levelo://app?vid=b266faba-4e26-4c50-b078-a54d17773ddd","ios":"levelo://app?vid=b266faba-4e26-4c50-b078-a54d17773ddd"},"vehicle_type_id":"4","last_reported":1742613743,"current_range_meters":3600,"station_id":"ce4bhlp2rcd13ifvqgjg","pricing_plan_id":"cebpf4jnsgd1na2vs0mg"},{"bike_id":"220a38ae-dd25-49b3-b224-d1389545c8ea","system_id":"levelo_inurba_marseille","lat":43.25821,"lon":5.3942,"is_reserved":false,"is_disabled":true,"rental_uris":{"android":"levelo://app?vid=220a38ae-dd25-49b3-b224-d1389545c8ea","ios":"levelo://app?vid=220a38ae-dd25-49b3-b224-d1389545c8ea"},"vehicle_type_id":"4","last_reported":1742613743,"current_range_meters":4000,"station_id":"ce4bhip2rcd13ifvqft0","pricing_plan_id":"cebpf4jnsgd1na2vs0mg"},{"bike_id":"8add24a7-3105-4545-8308-ae4365c570a9","system_id":"levelo_inurba_marseille","lat":43.29711,"lon":5.3661,"is_reserved":false,"is_disabled":false,"rental_uris":{"android":"levelo://app?vid=8add24a7-3105-4545-8308-ae4365c570a9","ios":"levelo://app?vid=8add24a7-3105-4545-8308-ae4365c570a9"},"vehicle_type_id":"4","last_reported":1742613743,"current_range_meters":4000,"station_id":"ce4bgn12rcd13ifvqbt0","pricing_plan_id":"cebpf4jnsgd1na2vs0mg"},{"bike_id":"1bb93a8f-b158-4722-a0a5-d7d909368045","system_id":"levelo_inurba_marseille","lat":43.239608,"lon":5.366246,"is_reserved":false,"is_disabled":false,"rental_uris":{"android":"levelo://app?vid=1bb93a8f-b158-4722-a0a5-d7d909368045","ios":"levelo://app?vid=1bb93a8f-b158-4722-a0a5-d7d909368045"},"vehicle_type_id":"4","last_reported":1742613743,"current_range_meters":4000,"station_id":"ce4bhi12rcd13ifvqfp0","pricing_plan_id":"cebpf4jnsgd1na2vs0mg"},{"bike_id":"b9e4bdd0-024c-4547-9a94-39d0c7923642","system_id":"levelo_inurba_marseille","lat":43.241724,"lon":5.36399,"is_reserved":false,"is_disabled":false,"rental_uris":{"android":"levelo://app?vid=b9e4bdd0-024c-4547-9a94-39d0c7923642","ios":"levelo://app?vid=b9e4bdd0-024c-4547-9a94-39d0c7923642"},"vehicle_type_id":"4","last_reported":1742613743,"current_range_meters":4000,"station_id":"cpo36qri1sfpv3e86is0","pricing_plan_id":"cebpf4jnsgd1na2vs0mg"},{"bike_id":"c5bb5dca-1dc9-450e-9a3d-9fa737cf345d","system_id":"levelo_inurba_marseille","lat":43.246414,"lon":5.388982,"is_reserved":false,"is_disabled":false,"rental_uris":{"android":"levelo://app?vid=c5bb5dca-1dc9-450e-9a3d-9fa737cf345d","ios":"levelo://app?vid=c5bb5dca-1dc9-450e-9a3d-9fa737cf345d"},"vehicle_type_id":"4","last_reported":1742613743,"current_range_meters":4000,"station_id":"ce4bhg12rcd13ifvqf60","pricing_plan_id":"cebpf4jnsgd1na2vs0mg"},{"bike_id":"89118a19-3b0e-435d-8cb3-6ec0853a9b66","system_id":"levelo_inurba_marseille","lat":43.2862,"lon":5.35088,"is_reserved":false,"is_disabled":false,"rental_uris":{"android":"levelo://app?vid=89118a19-3b0e-435d-8cb3-6ec0853a9b66","ios":"levelo://app?vid=89118a19-3b0e-435d-8cb3-6ec0853a9b66"},"vehicle_type_id":"4","last_reported":1742613743,"current_range_meters":4400,"station_id":"ce4bhch2rcd13ifvqeug","pricing_plan_id":"cebpf4jnsgd1na2vs0mg"},{"bike_id":"94ff3081-8f37-4098-9788-7ad312d90e99","system_id":"levelo_inurba_marseille","lat":43.32313,"lon":5.38966,"is_reserved":false,"is_disabled":false,"rental_uris":{"android":"levelo://app?vid=94ff3081-8f37-4098-9788-7ad312d90e99","ios":"levelo://app?vid=94ff3081-8f37-4098-9788-7ad312d90e99"},"vehicle_type_id":"4","last_reported":1742613743,"current_range_meters":4400,"station_id":"","pricing_plan_id":"cebpf4jnsgd1na2vs0mg"},{"bike_id":"23b2e3d8-60a3-497b-8e4a-831fece3c0e6","system_id":"levelo_inurba_marseille","lat":43.28004,"lon":5.4002,"is_reserved":false,"is_disabled":false,"rental_uris":{"android":"levelo://app?vid=23b2e3d8-60a3-497b-8e4a-831fece3c0e6","ios":"levelo://app?vid=23b2e3d8-60a3-497b-8e4a-831fece3c0e6"},"vehicle_type_id":"4","last_reported":1742613743,"current_range_meters":4800,"station_id":"ce4bho92rcd13ifvqh4g","pricing_plan_id":"cebpf4jnsgd1na2vs0mg"},{"bike_id":"c42603fe-293b-4b02-849a-d59d42f31299","system_id":"levelo_inurba_marseille","lat":43.30601,"lon":5.39354,"is_reserved":false,"is_disabled":false,"rental_uris":{"android":"levelo://app?vid=c42603fe-293b-4b02-849a-d59d42f31299","ios":"levelo://app?vid=c42603fe-293b-4b02-849a-d59d42f31299"},"vehicle_type_id":"4","last_reported":1742613743,"current_range_meters":5600,"station_id":"ce4bh0p2rcd13ifvqd80","pricing_plan_id":"cebpf4jnsgd1na2vs0mg"},{"bike_id":"1d8daad7-9bb4-40dd-adfc-e589f483368c","system_id":"levelo_inurba_marseille","lat":43.25824,"lon":5.39437,"is_reserved":false,"is_disabled":false,"rental_uris":{"android":"levelo://app?vid=1d8daad7-9bb4-40dd-adfc-e589f483368c","ios":"levelo://app?vid=1d8daad7-9bb4-40dd-adfc-e589f483368c"},"vehicle_type_id":"4","last_reported":1742613743,"current_range_meters":5600,"station_id":"ce4bhip2rcd13ifvqft0","pricing_plan_id":"cebpf4jnsgd1na2vs0mg"},{"bike_id":"34e44cf2-5151-46ef-8cea-feed28eb3d7b","system_id":"levelo_inurba_marseille","lat":43.30602,"lon":5.39363,"is_reserved":false,"is_disabled":false,"rental_uris":{"android":"levelo://app?vid=34e44cf2-5151-46ef-8cea-feed28eb3d7b","ios":"levelo://app?vid=34e44cf2-5151-46ef-8cea-feed28eb3d7b"},"vehicle_type_id":"4","last_reported":1742613743,"current_range_meters":5600,"station_id":"ce4bh0p2rcd13ifvqd80","pricing_plan_id":"cebpf4jnsgd1na2vs0mg"},{"bike_id":"4cbc815f-81cb-4b3f-a536-29e8befb1fe3","system_id":"levelo_inurba_marseille","lat":43.249998,"lon":5.389333,"is_reserved":false,"is_disabled":false,"rental_uris":{"android":"levelo://app?vid=4cbc815f-81cb-4b3f-a536-29e8befb1fe3","ios":"levelo://app?vid=4cbc815f-81cb-4b3f-a536-29e8befb1fe3"},"vehicle_type_id":"4","last_reported":1742613743,"current_range_meters":5600,"station_id":"ce4bhgp2rcd13ifvqfd0","pricing_plan_id":"cebpf4jnsgd1na2vs0mg"},{"bike_id":"bc54a8b8-aef0-4d9e-81e5-8a85a0e4b8c4","system_id":"levelo_inurba_marseille","lat":43.24721,"lon":5.41153,"is_reserved":false,"is_disabled":false,"rental_uris":{"android":"levelo://app?vid=bc54a8b8-aef0-4d9e-81e5-8a85a0e4b8c4","ios":"levelo://app?vid=bc54a8b8-aef0-4d9e-81e5-8a85a0e4b8c4"},"vehicle_type_id":"4","last_reported":1742613743,"current_range_meters":5600,"station_id":"","pricing_plan_id":"cebpf4jnsgd1na2vs0mg"},{"bike_id":"46e325e1-4b70-4630-bfdc-9758fa69893c","system_id":"levelo_inurba_marseille","lat":43.281524,"lon":5.426453,"is_reserved":false,"is_disabled":false,"rental_uris":{"android":"levelo://app?vid=46e325e1-4b70-4630-bfdc-9758fa69893c","ios":"levelo://app?vid=46e325e1-4b70-4630-bfdc-9758fa69893c"},"vehicle_type_id":"4","last_reported":1742613743,"current_range_meters":6000,"station_id":"ce4bhnh2rcd13ifvqgug","pricing_plan_id":"cebpf4jnsgd1na2vs0mg"},{"bike_id":"dfb93e40-15f8-4681-8e5d-42b76787b3fe","system_id":"levelo_inurba_marseille","lat":43.30602,"lon":5.39354,"is_reserved":false,"is_disabled":false,"rental_uris":{"android":"levelo://app?vid=dfb93e40-15f8-4681-8e5d-42b76787b3fe","ios":"levelo://app?vid=dfb93e40-15f8-4681-8e5d-42b76787b3fe"},"vehicle_type_id":"4","last_reported":1742613743,"current_range_meters":6000,"station_id":"ce4bh0p2rcd13ifvqd80","pricing_plan_id":"cebpf4jnsgd1na2vs0mg"},{"bike_id":"075dabb0-6ff1-4552-964a-dc7d398261b5","system_id":"levelo_inurba_marseille","lat":43.31078,"lon":5.38347,"is_reserved":false,"is_disabled":false,"rental_uris":{"android":"levelo://app?vid=075dabb0-6ff1-4552-964a-dc7d398261b5","ios":"levelo://app?vid=075dabb0-6ff1-4552-964a-dc7d398261b5"},"vehicle_type_id":"4","last_reported":1742613743,"current_range_meters":6000,"station_id":"ce4bgv92rcd13ifvqcr0","pricing_plan_id":"cebpf4jnsgd1na2vs0mg"},{"bike_id":"2d86cf0c-8220-4a0c-a77e-5b4210ae7f59","system_id":"levelo_inurba_marseille","lat":43.30465,"lon":5.3702,"is_reserved":false,"is_disabled":false,"rental_uris":{"android":"levelo://app?vid=2d86cf0c-8220-4a0c-a77e-5b4210ae7f59","ios":"levelo://app?vid=2d86cf0c-8220-4a0c-a77e-5b4210ae7f59"},"vehicle_type_id":"4","last_reported":1742613743,"current_range_meters":6000,"station_id":"","pricing_plan_id":"cebpf4jnsgd1na2vs0mg"},{"bike_id":"62bf2f5c-9819-4816-afad-4a268d7a76b8","system_id":"levelo_inurba_marseille","lat":43.241682,"lon":5.364016,"is_reserved":false,"is_disabled":false,"rental_uris":{"android":"levelo://app?vid=62bf2f5c-9819-4816-afad-4a268d7a76b8","ios":"levelo://app?vid=62bf2f5c-9819-4816-afad-4a268d7a76b8"},"vehicle_type_id":"4","last_reported":1742613743,"current_range_meters":6400,"station_id":"cpo36qri1sfpv3e86is0","pricing_plan_id":"cebpf4jnsgd1na2vs0mg"},{"bike_id":"cc011d43-b6ba-45a0-819f-4b4fde629cac","system_id":"levelo_inurba_marseille","lat":43.31762,"lon":5.39011,"is_reserved":false,"is_disabled":false,"rental_uris":{"android":"levelo://app?vid=cc011d43-b6ba-45a0-819f-4b4fde629cac","ios":"levelo://app?vid=cc011d43-b6ba-45a0-819f-4b4fde629cac"},"vehicle_type_id":"4","last_reported":1742613743,"current_range_meters":6400,"station_id":"ce4bhqp2rcd13ifvqhng","pricing_plan_id":"cebpf4jnsgd1na2vs0mg"},{"bike_id":"202dfacb-6b3c-4509-a09e-ab3c75107acc","system_id":"levelo_inurba_marseille","lat":43.313575,"lon":5.385025,"is_reserved":false,"is_disabled":false,"rental_uris":{"android":"levelo://app?vid=202dfacb-6b3c-4509-a09e-ab3c75107acc","ios":"levelo://app?vid=202dfacb-6b3c-4509-a09e-ab3c75107acc"},"vehicle_type_id":"4","last_reported":1742613743,"current_range_meters":6400,"station_id":"ce4bgt92rcd13ifvqcf0","pricing_plan_id":"cebpf4jnsgd1na2vs0mg"},{"bike_id":"12d038b0-af20-4a06-8c64-92fff2486d66","system_id":"levelo_inurba_marseille","lat":43.241751,"lon":5.397143,"is_reserved":false,"is_disabled":false,"rental_uris":{"android":"levelo://app?vid=12d038b0-af20-4a06-8c64-92fff2486d66","ios":"levelo://app?vid=12d038b0-af20-4a06-8c64-92fff2486d66"},"vehicle_type_id":"4","last_reported":1742613743,"current_range_meters":6400,"station_id":"ce4bhn12rcd13ifvqgpg","pricing_plan_id":"cebpf4jnsgd1na2vs0mg"},{"bike_id":"af0dd9ac-7466-4151-a052-abde29cf9b49","system_id":"levelo_inurba_marseille","lat":43.23197,"lon":5.3558,"is_reserved":false,"is_disabled":false,"rental_uris":{"android":"levelo://app?vid=af0dd9ac-7466-4151-a052-abde29cf9b49","ios":"levelo://app?vid=af0dd9ac-7466-4151-a052-abde29cf9b49"},"vehicle_type_id":"4","last_reported":1742613743,"current_range_meters":6400,"station_id":"ce4bhu92rcd13ifvqi70","pricing_plan_id":"cebpf4jnsgd1na2vs0mg"},{"bike_id":"99d4f2a7-22a3-4802-bbca-4667960daf47","system_id":"levelo_inurba_marseille","lat":43.24673,"lon":5.38162,"is_reserved":false,"is_disabled":false,"rental_uris":{"android":"levelo://app?vid=99d4f2a7-22a3-4802-bbca-4667960daf47","ios":"levelo://app?vid=99d4f2a7-22a3-4802-bbca-4667960daf47"},"vehicle_type_id":"4","last_reported":1742613743,"current_range_meters":6400,"station_id":"ce4bhih2rcd13ifvqfr0","pricing_plan_id":"cebpf4jnsgd1na2vs0mg"},{"bike_id":"ab4e1e51-d6f4-40f2-bae7-4280cce429c6","system_id":"levelo_inurba_marseille","lat":43.28077,"lon":5.39612,"is_reserved":false,"is_disabled":false,"rental_uris":{"android":"levelo://app?vid=ab4e1e51-d6f4-40f2-bae7-4280cce429c6","ios":"levelo://app?vid=ab4e1e51-d6f4-40f2-bae7-4280cce429c6"},"vehicle_type_id":"4","last_reported":1742613743,"current_range_meters":6400,"station_id":"ce4bho12rcd13ifvqh2g","pricing_plan_id":"cebpf4jnsgd1na2vs0mg"},{"bike_id":"fde0388d-33e2-4089-9704-3afd264d3260","system_id":"levelo_inurba_marseille","lat":43.23149,"lon":5.43719,"is_reserved":false,"is_disabled":false,"rental_uris":{"android":"levelo://app?vid=fde0388d-33e2-4089-9704-3afd264d3260","ios":"levelo://app?vid=fde0388d-33e2-4089-9704-3afd264d3260"},"vehicle_type_id":"4","last_reported":1742613743,"current_range_meters":6400,"station_id":"ce4bhmp2rcd13ifvqgog","pricing_plan_id":"cebpf4jnsgd1na2vs0mg"},{"bike_id":"e8314e6d-e7ef-4185-846e-487b9dab483b","system_id":"levelo_inurba_marseille","lat":43.262,"lon":5.37932,"is_reserved":false,"is_disabled":false,"rental_uris":{"android":"levelo://app?vid=e8314e6d-e7ef-4185-846e-487b9dab483b","ios":"levelo://app?vid=e8314e6d-e7ef-4185-846e-487b9dab483b"},"vehicle_type_id":"4","last_reported":1742613743,"current_range_meters":6800,"station_id":"ce4bhjp2rcd13ifvqg90","pricing_plan_id":"cebpf4jnsgd1na2vs0mg"},{"bike_id":"7751ec6b-c1cf-4e1a-a7dc-35b693cd8e54","system_id":"levelo_inurba_marseille","lat":43.29097,"lon":5.38144,"is_reserved":false,"is_disabled":true,"rental_uris":{"android":"levelo://app?vid=7751ec6b-c1cf-4e1a-a7dc-35b693cd8e54","ios":"levelo://app?vid=7751ec6b-c1cf-4e1a-a7dc-35b693cd8e54"},"vehicle_type_id":"4","last_reported":1742613743,"current_range_meters":6800,"station_id":"ce4bh512rcd13ifvqe2g","pricing_plan_id":"cebpf4jnsgd1na2vs0mg"},{"bike_id":"1c3b5361-695c-4ccc-94f9-aca7f37b6d45","system_id":"levelo_inurba_marseille","lat":43.231917,"lon":5.355546,"is_reserved":false,"is_disabled":false,"rental_uris":{"android":"levelo://app?vid=1c3b5361-695c-4ccc-94f9-aca7f37b6d45","ios":"levelo://app?vid=1c3b5361-695c-4ccc-94f9-aca7f37b6d45"},"vehicle_type_id":"4","last_reported":1742613743,"current_range_meters":7200,"station_id":"ce4bhu92rcd13ifvqi70","pricing_plan_id":"cebpf4jnsgd1na2vs0mg"},{"bike_id":"628fefc0-c71d-4844-8f82-26651c57ef18","system_id":"levelo_inurba_marseille","lat":43.308866,"lon":5.396511,"is_reserved":false,"is_disabled":false,"rental_uris":{"android":"levelo://app?vid=628fefc0-c71d-4844-8f82-26651c57ef18","ios":"levelo://app?vid=628fefc0-c71d-4844-8f82-26651c57ef18"},"vehicle_type_id":"4","last_reported":1742613743,"current_range_meters":7200,"station_id":"ce4bh012rcd13ifvqcv0","pricing_plan_id":"cebpf4jnsgd1na2vs0mg"},{"bike_id":"9833a8b0-a223-4213-a221-744e791f8602","system_id":"levelo_inurba_marseille","lat":43.29268,"lon":5.40159,"is_reserved":false,"is_disabled":false,"rental_uris":{"android":"levelo://app?vid=9833a8b0-a223-4213-a221-744e791f8602","ios":"levelo://app?vid=9833a8b0-a223-4213-a221-744e791f8602"},"vehicle_type_id":"4","last_reported":1742613743,"current_range_meters":7200,"station_id":"ce4bh312rcd13ifvqdk0","pricing_plan_id":"cebpf4jnsgd1na2vs0mg"},{"bike_id":"a67c54b6-5ce9-4632-8070-5ca7d5b7fc9e","system_id":"levelo_inurba_marseille","lat":43.23066,"lon":5.354974,"is_reserved":false,"is_disabled":false,"rental_uris":{"android":"levelo://app?vid=a67c54b6-5ce9-4632-8070-5ca7d5b7fc9e","ios":"levelo://app?vid=a67c54b6-5ce9-4632-8070-5ca7d5b7fc9e"},"vehicle_type_id":"4","last_reported":1742613743,"current_range_meters":7200,"station_id":"cpo3342slgdg3j2ifvpg","pricing_plan_id":"cebpf4jnsgd1na2vs0mg"},{"bike_id":"3e065164-806d-449e-b873-0f059cb10fda","system_id":"levelo_inurba_marseille","lat":43.30602,"lon":5.39351,"is_reserved":false,"is_disabled":false,"rental_uris":{"android":"levelo://app?vid=3e065164-806d-449e-b873-0f059cb10fda","ios":"levelo://app?vid=3e065164-806d-449e-b873-0f059cb10fda"},"vehicle_type_id":"4","last_reported":1742613743,"current_range_meters":7200,"station_id":"ce4bh0p2rcd13ifvqd80","pricing_plan_id":"cebpf4jnsgd1na2vs0mg"},{"bike_id":"6b9f258c-1031-4975-9128-1ece84625cf6","system_id":"levelo_inurba_marseille","lat":43.3107,"lon":5.38356,"is_reserved":false,"is_disabled":false,"rental_uris":{"android":"levelo://app?vid=6b9f258c-1031-4975-9128-1ece84625cf6","ios":"levelo://app?vid=6b9f258c-1031-4975-9128-1ece84625cf6"},"vehicle_type_id":"4","last_reported":1742613743,"current_range_meters":8000,"station_id":"ce4bgv92rcd13ifvqcr0","pricing_plan_id":"cebpf4jnsgd1na2vs0mg"},{"bike_id":"5d442b4d-4d1f-4ac5-8000-f03b568468b2","system_id":"levelo_inurba_marseille","lat":43.29788,"lon":5.37104,"is_reserved":false,"is_disabled":false,"rental_uris":{"android":"levelo://app?vid=5d442b4d-4d1f-4ac5-8000-f03b568468b2","ios":"levelo://app?vid=5d442b4d-4d1f-4ac5-8000-f03b568468b2"},"vehicle_type_id":"4","last_reported":1742613743,"current_range_meters":8000,"station_id":"ce4bgop2rcd13ifvqc1g","pricing_plan_id":"cebpf4jnsgd1na2vs0mg"},{"bike_id":"1d0aee08-f37d-44de-9496-80d4d601b079","system_id":"levelo_inurba_marseille","lat":43.25099,"lon":5.4033,"is_reserved":false,"is_disabled":false,"rental_uris":{"android":"levelo://app?vid=1d0aee08-f37d-44de-9496-80d4d601b079","ios":"levelo://app?vid=1d0aee08-f37d-44de-9496-80d4d601b079"},"vehicle_type_id":"4","last_reported":1742613743,"current_range_meters":8000,"station_id":"ce4bhlh2rcd13ifvqgig","pricing_plan_id":"cebpf4jnsgd1na2vs0mg"},{"bike_id":"7c6e75fa-f2ba-4a6b-850b-de87106738c3","system_id":"levelo_inurba_marseille","lat":43.29743,"lon":5.37672,"is_reserved":false,"is_disabled":true,"rental_uris":{"android":"levelo://app?vid=7c6e75fa-f2ba-4a6b-850b-de87106738c3","ios":"levelo://app?vid=7c6e75fa-f2ba-4a6b-850b-de87106738c3"},"vehicle_type_id":"4","last_reported":1742613743,"current_range_meters":8000,"station_id":"ce4bgkh2rcd13ifvqbl0","pricing_plan_id":"cebpf4jnsgd1na2vs0mg"},{"bike_id":"eee5e0ef-13d5-40b1-975f-b56492a90c97","system_id":"levelo_inurba_marseille","lat":43.308,"lon":5.38157,"is_reserved":false,"is_disabled":false,"rental_uris":{"android":"levelo://app?vid=eee5e0ef-13d5-40b1-975f-b56492a90c97","ios":"levelo://app?vid=eee5e0ef-13d5-40b1-975f-b56492a90c97"},"vehicle_type_id":"4","last_reported":1742613743,"current_range_meters":8000,"station_id":"ce4bgt12rcd13ifvqce0","pricing_plan_id":"cebpf4jnsgd1na2vs0mg"},{"bike_id":"28c070b6-831a-4ca4-96f5-53fd9f42bfa5","system_id":"levelo_inurba_marseille","lat":43.3106,"lon":5.38344,"is_reserved":false,"is_disabled":false,"rental_uris":{"android":"levelo://app?vid=28c070b6-831a-4ca4-96f5-53fd9f42bfa5","ios":"levelo://app?vid=28c070b6-831a-4ca4-96f5-53fd9f42bfa5"},"vehicle_type_id":"4","last_reported":1742613743,"current_range_meters":8000,"station_id":"ce4bgv92rcd13ifvqcr0","pricing_plan_id":"cebpf4jnsgd1na2vs0mg"},{"bike_id":"f2a9bb97-2f98-4307-ad27-0e2175d952d2","system_id":"levelo_inurba_marseille","lat":43.317211,"lon":5.423995,"is_reserved":false,"is_disabled":false,"rental_uris":{"android":"levelo://app?vid=f2a9bb97-2f98-4307-ad27-0e2175d952d2","ios":"levelo://app?vid=f2a9bb97-2f98-4307-ad27-0e2175d952d2"},"vehicle_type_id":"4","last_reported":1742613743,"current_range_meters":8000,"station_id":"ce4bhp92rcd13ifvqhbg","pricing_plan_id":"cebpf4jnsgd1na2vs0mg"},{"bike_id":"1f4b5356-d265-454a-aa48-2f7dec9d4d2a","system_id":"levelo_inurba_marseille","lat":43.33718,"lon":5.39183,"is_reserved":false,"is_disabled":false,"rental_uris":{"android":"levelo://app?vid=1f4b5356-d265-454a-aa48-2f7dec9d4d2a","ios":"levelo://app?vid=1f4b5356-d265-454a-aa48-2f7dec9d4d2a"},"vehicle_type_id":"4","last_reported":1742613743,"current_range_meters":8000,"station_id":"ce4bhr92rcd13ifvqhsg","pricing_plan_id":"cebpf4jnsgd1na2vs0mg"},{"bike_id":"899ab87e-4ea4-40e5-9304-e09f83aad3d0","system_id":"levelo_inurba_marseille","lat":43.2396,"lon":5.36633,"is_reserved":false,"is_disabled":false,"rental_uris":{"android":"levelo://app?vid=899ab87e-4ea4-40e5-9304-e09f83aad3d0","ios":"levelo://app?vid=899ab87e-4ea4-40e5-9304-e09f83aad3d0"},"vehicle_type_id":"4","last_reported":1742613743,"current_range_meters":8400,"station_id":"ce4bhi12rcd13ifvqfp0","pricing_plan_id":"cebpf4jnsgd1na2vs0mg"},{"bike_id":"d000c8ac-0c96-4fc1-ac84-5f67409cab71","system_id":"levelo_inurba_marseille","lat":43.32494,"lon":5.36543,"is_reserved":false,"is_disabled":false,"rental_uris":{"android":"levelo://app?vid=d000c8ac-0c96-4fc1-ac84-5f67409cab71","ios":"levelo://app?vid=d000c8ac-0c96-4fc1-ac84-5f67409cab71"},"vehicle_type_id":"4","last_reported":1742613743,"current_range_meters":8400,"station_id":"ce4bhs12rcd13ifvqhvg","pricing_plan_id":"cebpf4jnsgd1na2vs0mg"},{"bike_id":"9f91d2d8-ea1a-4f98-94c2-8768652d84d7","system_id":"levelo_inurba_marseille","lat":43.30249,"lon":5.40091,"is_reserved":false,"is_disabled":false,"rental_uris":{"android":"levelo://app?vid=9f91d2d8-ea1a-4f98-94c2-8768652d84d7","ios":"levelo://app?vid=9f91d2d8-ea1a-4f98-94c2-8768652d84d7"},"vehicle_type_id":"4","last_reported":1742613743,"current_range_meters":8400,"station_id":"ce4bgvh2rcd13ifvqcs0","pricing_plan_id":"cebpf4jnsgd1na2vs0mg"},{"bike_id":"1323d2cd-c4e0-4783-b4f1-4daaeb41faef","system_id":"levelo_inurba_marseille","lat":43.239567,"lon":5.366339,"is_reserved":false,"is_disabled":false,"rental_uris":{"android":"levelo://app?vid=1323d2cd-c4e0-4783-b4f1-4daaeb41faef","ios":"levelo://app?vid=1323d2cd-c4e0-4783-b4f1-4daaeb41faef"},"vehicle_type_id":"4","last_reported":1742613743,"current_range_meters":8400,"station_id":"ce4bhi12rcd13ifvqfp0","pricing_plan_id":"cebpf4jnsgd1na2vs0mg"},{"bike_id":"20e2be53-78ac-4b24-8dad-96b43d72add2","system_id":"levelo_inurba_marseille","lat":43.31078,"lon":5.38347,"is_reserved":false,"is_disabled":false,"rental_uris":{"android":"levelo://app?vid=20e2be53-78ac-4b24-8dad-96b43d72add2","ios":"levelo://app?vid=20e2be53-78ac-4b24-8dad-96b43d72add2"},"vehicle_type_id":"4","last_reported":1742613743,"current_range_meters":8400,"station_id":"ce4bgv92rcd13ifvqcr0","pricing_plan_id":"cebpf4jnsgd1na2vs0mg"},{"bike_id":"bf5d7bdb-65a8-4310-b955-6a76e2cbd7fe","system_id":"levelo_inurba_marseille","lat":43.33722,"lon":5.39174,"is_reserved":false,"is_disabled":false,"rental_uris":{"android":"levelo://app?vid=bf5d7bdb-65a8-4310-b955-6a76e2cbd7fe","ios":"levelo://app?vid=bf5d7bdb-65a8-4310-b955-6a76e2cbd7fe"},"vehicle_type_id":"4","last_reported":1742613743,"current_range_meters":8400,"station_id":"ce4bhr92rcd13ifvqhsg","pricing_plan_id":"cebpf4jnsgd1na2vs0mg"},{"bike_id":"9b80c4db-51e1-4e4e-8ecd-a558d3a24fd7","system_id":"levelo_inurba_marseille","lat":43.33165,"lon":5.38184,"is_reserved":false,"is_disabled":false,"rental_uris":{"android":"levelo://app?vid=9b80c4db-51e1-4e4e-8ecd-a558d3a24fd7","ios":"levelo://app?vid=9b80c4db-51e1-4e4e-8ecd-a558d3a24fd7"},"vehicle_type_id":"4","last_reported":1742613743,"current_range_meters":8400,"station_id":"","pricing_plan_id":"cebpf4jnsgd1na2vs0mg"},{"bike_id":"98e91d46-bb5c-498d-9f10-ad4d8649f5e2","system_id":"levelo_inurba_marseille","lat":43.28703,"lon":5.39975,"is_reserved":false,"is_disabled":false,"rental_uris":{"android":"levelo://app?vid=98e91d46-bb5c-498d-9f10-ad4d8649f5e2","ios":"levelo://app?vid=98e91d46-bb5c-498d-9f10-ad4d8649f5e2"},"vehicle_type_id":"4","last_reported":1742613743,"current_range_meters":8400,"station_id":"ce4bho92rcd13ifvqh3g","pricing_plan_id":"cebpf4jnsgd1na2vs0mg"},{"bike_id":"2b55a656-241b-4bcc-b273-1b3d1767f0e8","system_id":"levelo_inurba_marseille","lat":43.31074,"lon":5.38348,"is_reserved":false,"is_disabled":false,"rental_uris":{"android":"levelo://app?vid=2b55a656-241b-4bcc-b273-1b3d1767f0e8","ios":"levelo://app?vid=2b55a656-241b-4bcc-b273-1b3d1767f0e8"},"vehicle_type_id":"4","last_reported":1742613743,"current_range_meters":8400,"station_id":"ce4bgv92rcd13ifvqcr0","pricing_plan_id":"cebpf4jnsgd1na2vs0mg"},{"bike_id":"0a7e659b-3818-40d2-a158-73cb4acd38cb","system_id":"levelo_inurba_marseille","lat":43.28293,"lon":5.43231,"is_reserved":false,"is_disabled":false,"rental_uris":{"android":"levelo://app?vid=0a7e659b-3818-40d2-a158-73cb4acd38cb","ios":"levelo://app?vid=0a7e659b-3818-40d2-a158-73cb4acd38cb"},"vehicle_type_id":"4","last_reported":1742613743,"current_range_meters":8400,"station_id":"","pricing_plan_id":"cebpf4jnsgd1na2vs0mg"},{"bike_id":"356847a2-6743-44ba-9dd1-8edd26973898","system_id":"levelo_inurba_marseille","lat":43.29511,"lon":5.39404,"is_reserved":false,"is_disabled":false,"rental_uris":{"android":"levelo://app?vid=356847a2-6743-44ba-9dd1-8edd26973898","ios":"levelo://app?vid=356847a2-6743-44ba-9dd1-8edd26973898"},"vehicle_type_id":"4","last_reported":1742613743,"current_range_meters":8400,"station_id":"ce4bh292rcd13ifvqdf0","pricing_plan_id":"cebpf4jnsgd1na2vs0mg"},{"bike_id":"78fd32ab-c35b-4581-9109-56c233e230f9","system_id":"levelo_inurba_marseille","lat":43.31116,"lon":5.37754,"is_reserved":false,"is_disabled":false,"rental_uris":{"android":"levelo://app?vid=78fd32ab-c35b-4581-9109-56c233e230f9","ios":"levelo://app?vid=78fd32ab-c35b-4581-9109-56c233e230f9"},"vehicle_type_id":"4","last_reported":1742613743,"current_range_meters":8800,"station_id":"ce4bgt92rcd13ifvqcg0","pricing_plan_id":"cebpf4jnsgd1na2vs0mg"},{"bike_id":"52c16ac5-3447-4053-956c-78fc8bf0dc7c","system_id":"levelo_inurba_marseille","lat":43.32357,"lon":5.36765,"is_reserved":false,"is_disabled":false,"rental_uris":{"android":"levelo://app?vid=52c16ac5-3447-4053-956c-78fc8bf0dc7c","ios":"levelo://app?vid=52c16ac5-3447-4053-956c-78fc8bf0dc7c"},"vehicle_type_id":"4","last_reported":1742613743,"current_range_meters":8800,"station_id":"ce4bhsh2rcd13ifvqi2g","pricing_plan_id":"cebpf4jnsgd1na2vs0mg"},{"bike_id":"4a19a393-8a97-42b9-ba7d-f07e3ebe11b2","system_id":"levelo_inurba_marseille","lat":43.29272,"lon":5.38435,"is_reserved":false,"is_disabled":true,"rental_uris":{"android":"levelo://app?vid=4a19a393-8a97-42b9-ba7d-f07e3ebe11b2","ios":"levelo://app?vid=4a19a393-8a97-42b9-ba7d-f07e3ebe11b2"},"vehicle_type_id":"4","last_reported":1742613743,"current_range_meters":8800,"station_id":"ce4bh692rcd13ifvqea0","pricing_plan_id":"cebpf4jnsgd1na2vs0mg"},{"bike_id":"9f1c3e5c-869d-4869-b7c6-0c926f2da6bf","system_id":"levelo_inurba_marseille","lat":43.283695,"lon":5.397997,"is_reserved":false,"is_disabled":false,"rental_uris":{"android":"levelo://app?vid=9f1c3e5c-869d-4869-b7c6-0c926f2da6bf","ios":"levelo://app?vid=9f1c3e5c-869d-4869-b7c6-0c926f2da6bf"},"vehicle_type_id":"4","last_reported":1742613743,"current_range_meters":8800,"station_id":"","pricing_plan_id":"cebpf4jnsgd1na2vs0mg"},{"bike_id":"93fff6e4-609c-4a77-877c-9f41f1057427","system_id":"levelo_inurba_marseille","lat":43.286192,"lon":5.351024,"is_reserved":false,"is_disabled":false,"rental_uris":{"android":"levelo://app?vid=93fff6e4-609c-4a77-877c-9f41f1057427","ios":"levelo://app?vid=93fff6e4-609c-4a77-877c-9f41f1057427"},"vehicle_type_id":"4","last_reported":1742613743,"current_range_meters":8800,"station_id":"ce4bhch2rcd13ifvqeug","pricing_plan_id":"cebpf4jnsgd1na2vs0mg"},{"bike_id":"474de8f1-dc17-43c1-a174-90943479fae2","system_id":"levelo_inurba_marseille","lat":43.2694,"lon":5.38632,"is_reserved":false,"is_disabled":false,"rental_uris":{"android":"levelo://app?vid=474de8f1-dc17-43c1-a174-90943479fae2","ios":"levelo://app?vid=474de8f1-dc17-43c1-a174-90943479fae2"},"vehicle_type_id":"4","last_reported":1742613743,"current_range_meters":8800,"station_id":"ce4bhh92rcd13ifvqfh0","pricing_plan_id":"cebpf4jnsgd1na2vs0mg"},{"bike_id":"3ee69224-7c6a-448e-b5bc-935bb2df6bdf","system_id":"levelo_inurba_marseille","lat":43.28075,"lon":5.39658,"is_reserved":false,"is_disabled":false,"rental_uris":{"android":"levelo://app?vid=3ee69224-7c6a-448e-b5bc-935bb2df6bdf","ios":"levelo://app?vid=3ee69224-7c6a-448e-b5bc-935bb2df6bdf"},"vehicle_type_id":"4","last_reported":1742613743,"current_range_meters":8800,"station_id":"ce4bho12rcd13ifvqh2g","pricing_plan_id":"cebpf4jnsgd1na2vs0mg"},{"bike_id":"5b8c966c-d872-48bf-a2e7-3e6d6a86a2ae","system_id":"levelo_inurba_marseille","lat":43.24387,"lon":5.37048,"is_reserved":false,"is_disabled":false,"rental_uris":{"android":"levelo://app?vid=5b8c966c-d872-48bf-a2e7-3e6d6a86a2ae","ios":"levelo://app?vid=5b8c966c-d872-48bf-a2e7-3e6d6a86a2ae"},"vehicle_type_id":"4","last_reported":1742613743,"current_range_meters":9200,"station_id":"ce4bhhh2rcd13ifvqfk0","pricing_plan_id":"cebpf4jnsgd1na2vs0mg"},{"bike_id":"49b13f12-df2d-4651-bb2b-f3928299f477","system_id":"levelo_inurba_marseille","lat":43.28449,"lon":5.35915,"is_reserved":false,"is_disabled":false,"rental_uris":{"android":"levelo://app?vid=49b13f12-df2d-4651-bb2b-f3928299f477","ios":"levelo://app?vid=49b13f12-df2d-4651-bb2b-f3928299f477"},"vehicle_type_id":"4","last_reported":1742613743,"current_range_meters":9200,"station_id":"ce4bhah2rcd13ifvqei0","pricing_plan_id":"cebpf4jnsgd1na2vs0mg"},{"bike_id":"4ce5074b-08cb-460a-957f-15da0a3834c3","system_id":"levelo_inurba_marseille","lat":43.265692,"lon":5.390063,"is_reserved":false,"is_disabled":false,"rental_uris":{"android":"levelo://app?vid=4ce5074b-08cb-460a-957f-15da0a3834c3","ios":"levelo://app?vid=4ce5074b-08cb-460a-957f-15da0a3834c3"},"vehicle_type_id":"4","last_reported":1742613743,"current_range_meters":9200,"station_id":"ce4bhe12rcd13ifvqf30","pricing_plan_id":"cebpf4jnsgd1na2vs0mg"},{"bike_id":"dc537980-6042-493d-8080-0667efb1d6ad","system_id":"levelo_inurba_marseille","lat":43.245501,"lon":5.395257,"is_reserved":false,"is_disabled":false,"rental_uris":{"android":"levelo://app?vid=dc537980-6042-493d-8080-0667efb1d6ad","ios":"levelo://app?vid=dc537980-6042-493d-8080-0667efb1d6ad"},"vehicle_type_id":"4","last_reported":1742613743,"current_range_meters":9200,"station_id":"ce4bhlp2rcd13ifvqgjg","pricing_plan_id":"cebpf4jnsgd1na2vs0mg"},{"bike_id":"fa735ae1-31a8-4bc5-aa6c-4862b342c3b4","system_id":"levelo_inurba_marseille","lat":43.30463,"lon":5.37899,"is_reserved":false,"is_disabled":false,"rental_uris":{"android":"levelo://app?vid=fa735ae1-31a8-4bc5-aa6c-4862b342c3b4","ios":"levelo://app?vid=fa735ae1-31a8-4bc5-aa6c-4862b342c3b4"},"vehicle_type_id":"4","last_reported":1742613743,"current_range_meters":9200,"station_id":"ce4bgup2rcd13ifvqcn0","pricing_plan_id":"cebpf4jnsgd1na2vs0mg"},{"bike_id":"7a7c73e7-a501-4b78-9258-d3fd6f0e0ef8","system_id":"levelo_inurba_marseille","lat":43.28728,"lon":5.36433,"is_reserved":false,"is_disabled":false,"rental_uris":{"android":"levelo://app?vid=7a7c73e7-a501-4b78-9258-d3fd6f0e0ef8","ios":"levelo://app?vid=7a7c73e7-a501-4b78-9258-d3fd6f0e0ef8"},"vehicle_type_id":"4","last_reported":1742613743,"current_range_meters":9200,"station_id":"","pricing_plan_id":"cebpf4jnsgd1na2vs0mg"},{"bike_id":"a52dfbd3-560f-4dad-8ae6-494d05ea4c89","system_id":"levelo_inurba_marseille","lat":43.32296,"lon":5.3828,"is_reserved":false,"is_disabled":false,"rental_uris":{"android":"levelo://app?vid=a52dfbd3-560f-4dad-8ae6-494d05ea4c89","ios":"levelo://app?vid=a52dfbd3-560f-4dad-8ae6-494d05ea4c89"},"vehicle_type_id":"4","last_reported":1742613743,"current_range_meters":9200,"station_id":"ce4bhr12rcd13ifvqhqg","pricing_plan_id":"cebpf4jnsgd1na2vs0mg"},{"bike_id":"ee3be813-755c-4ea5-a74b-5243e6a00d8b","system_id":"levelo_inurba_marseille","lat":43.277363,"lon":5.4161,"is_reserved":false,"is_disabled":false,"rental_uris":{"android":"levelo://app?vid=ee3be813-755c-4ea5-a74b-5243e6a00d8b","ios":"levelo://app?vid=ee3be813-755c-4ea5-a74b-5243e6a00d8b"},"vehicle_type_id":"4","last_reported":1742613743,"current_range_meters":9200,"station_id":"","pricing_plan_id":"cebpf4jnsgd1na2vs0mg"},{"bike_id":"2c69b466-5688-4e6a-aa37-bf74dd1c8e76","system_id":"levelo_inurba_marseille","lat":43.26813,"lon":5.40272,"is_reserved":false,"is_disabled":false,"rental_uris":{"android":"levelo://app?vid=2c69b466-5688-4e6a-aa37-bf74dd1c8e76","ios":"levelo://app?vid=2c69b466-5688-4e6a-aa37-bf74dd1c8e76"},"vehicle_type_id":"4","last_reported":1742613743,"current_range_meters":9200,"station_id":"ce501612rcd8frsf0b60","pricing_plan_id":"cebpf4jnsgd1na2vs0mg"},{"bike_id":"0cc44c87-17fe-499c-977d-487d85dc253c","system_id":"levelo_inurba_marseille","lat":43.308881,"lon":5.39636,"is_reserved":false,"is_disabled":false,"rental_uris":{"android":"levelo://app?vid=0cc44c87-17fe-499c-977d-487d85dc253c","ios":"levelo://app?vid=0cc44c87-17fe-499c-977d-487d85dc253c"},"vehicle_type_id":"4","last_reported":1742613743,"current_range_meters":9200,"station_id":"ce4bh012rcd13ifvqcv0","pricing_plan_id":"cebpf4jnsgd1na2vs0mg"},{"bike_id":"257266cf-683b-4c8a-a350-70a5c3f41572","system_id":"levelo_inurba_marseille","lat":43.31174,"lon":5.38694,"is_reserved":false,"is_disabled":false,"rental_uris":{"android":"levelo://app?vid=257266cf-683b-4c8a-a350-70a5c3f41572","ios":"levelo://app?vid=257266cf-683b-4c8a-a350-70a5c3f41572"},"vehicle_type_id":"4","last_reported":1742613743,"current_range_meters":9600,"station_id":"ce4bgv12rcd13ifvqcp0","pricing_plan_id":"cebpf4jnsgd1na2vs0mg"},{"bike_id":"33063778-d13b-488d-a098-00d76ac265e1","system_id":"levelo_inurba_marseille","lat":43.31086,"lon":5.38353,"is_reserved":false,"is_disabled":false,"rental_uris":{"android":"levelo://app?vid=33063778-d13b-488d-a098-00d76ac265e1","ios":"levelo://app?vid=33063778-d13b-488d-a098-00d76ac265e1"},"vehicle_type_id":"4","last_reported":1742613743,"current_range_meters":9600,"station_id":"ce4bgv92rcd13ifvqcr0","pricing_plan_id":"cebpf4jnsgd1na2vs0mg"},{"bike_id":"0d6baf2d-5558-492a-a9f3-8100601ce881","system_id":"levelo_inurba_marseille","lat":43.3089,"lon":5.39659,"is_reserved":false,"is_disabled":false,"rental_uris":{"android":"levelo://app?vid=0d6baf2d-5558-492a-a9f3-8100601ce881","ios":"levelo://app?vid=0d6baf2d-5558-492a-a9f3-8100601ce881"},"vehicle_type_id":"4","last_reported":1742613743,"current_range_meters":9600,"station_id":"ce4bh012rcd13ifvqcv0","pricing_plan_id":"cebpf4jnsgd1na2vs0mg"},{"bike_id":"0cd149d2-055c-4288-8198-5de8d9f3f604","system_id":"levelo_inurba_marseille","lat":43.232187,"lon":5.355813,"is_reserved":false,"is_disabled":false,"rental_uris":{"android":"levelo://app?vid=0cd149d2-055c-4288-8198-5de8d9f3f604","ios":"levelo://app?vid=0cd149d2-055c-4288-8198-5de8d9f3f604"},"vehicle_type_id":"4","last_reported":1742613743,"current_range_meters":9600,"station_id":"","pricing_plan_id":"cebpf4jnsgd1na2vs0mg"},{"bike_id":"276613ec-3310-44d6-ae3f-44328dd4fd15","system_id":"levelo_inurba_marseille","lat":43.258225,"lon":5.394285,"is_reserved":false,"is_disabled":false,"rental_uris":{"android":"levelo://app?vid=276613ec-3310-44d6-ae3f-44328dd4fd15","ios":"levelo://app?vid=276613ec-3310-44d6-ae3f-44328dd4fd15"},"vehicle_type_id":"4","last_reported":1742613743,"current_range_meters":9600,"station_id":"ce4bhip2rcd13ifvqft0","pricing_plan_id":"cebpf4jnsgd1na2vs0mg"},{"bike_id":"eab7a7c9-6866-4b70-a5d5-9630fb0729c1","system_id":"levelo_inurba_marseille","lat":43.279934,"lon":5.416863,"is_reserved":false,"is_disabled":false,"rental_uris":{"android":"levelo://app?vid=eab7a7c9-6866-4b70-a5d5-9630fb0729c1","ios":"levelo://app?vid=eab7a7c9-6866-4b70-a5d5-9630fb0729c1"},"vehicle_type_id":"4","last_reported":1742613743,"current_range_meters":9600,"station_id":"ce4bho12rcd13ifvqh1g","pricing_plan_id":"cebpf4jnsgd1na2vs0mg"},{"bike_id":"651d4ced-14db-40ff-bf96-fb1a1fa59919","system_id":"levelo_inurba_marseille","lat":43.302967,"lon":5.392099,"is_reserved":false,"is_disabled":false,"rental_uris":{"android":"levelo://app?vid=651d4ced-14db-40ff-bf96-fb1a1fa59919","ios":"levelo://app?vid=651d4ced-14db-40ff-bf96-fb1a1fa59919"},"vehicle_type_id":"4","last_reported":1742613743,"current_range_meters":9600,"station_id":"ce4bgkh2rcd13ifvqbk0","pricing_plan_id":"cebpf4jnsgd1na2vs0mg"},{"bike_id":"497dc9e5-9a81-444c-b266-80b25ebc7c6c","system_id":"levelo_inurba_marseille","lat":43.24072,"lon":5.37767,"is_reserved":false,"is_disabled":false,"rental_uris":{"android":"levelo://app?vid=497dc9e5-9a81-444c-b266-80b25ebc7c6c","ios":"levelo://app?vid=497dc9e5-9a81-444c-b266-80b25ebc7c6c"},"vehicle_type_id":"4","last_reported":1742613743,"current_range_meters":9600,"station_id":"ce4bhnp2rcd13ifvqgvg","pricing_plan_id":"cebpf4jnsgd1na2vs0mg"},{"bike_id":"65b642d2-4bbc-47bd-9c36-3f213e795fd7","system_id":"levelo_inurba_marseille","lat":43.258252,"lon":5.394292,"is_reserved":false,"is_disabled":false,"rental_uris":{"android":"levelo://app?vid=65b642d2-4bbc-47bd-9c36-3f213e795fd7","ios":"levelo://app?vid=65b642d2-4bbc-47bd-9c36-3f213e795fd7"},"vehicle_type_id":"4","last_reported":1742613743,"current_range_meters":9600,"station_id":"ce4bhip2rcd13ifvqft0","pricing_plan_id":"cebpf4jnsgd1na2vs0mg"},{"bike_id":"f1c1254d-d9d6-4485-8910-4ae2a7c84bc0","system_id":"levelo_inurba_marseille","lat":43.231912,"lon":5.39981,"is_reserved":false,"is_disabled":false,"rental_uris":{"android":"levelo://app?vid=f1c1254d-d9d6-4485-8910-4ae2a7c84bc0","ios":"levelo://app?vid=f1c1254d-d9d6-4485-8910-4ae2a7c84bc0"},"vehicle_type_id":"4","last_reported":1742613743,"current_range_meters":9600,"station_id":"ce4bhn12rcd13ifvqgqg","pricing_plan_id":"cebpf4jnsgd1na2vs0mg"},{"bike_id":"295b2b96-8a22-4b6f-a45b-df5a7ed58969","system_id":"levelo_inurba_marseille","lat":43.33728,"lon":5.39176,"is_reserved":false,"is_disabled":false,"rental_uris":{"android":"levelo://app?vid=295b2b96-8a22-4b6f-a45b-df5a7ed58969","ios":"levelo://app?vid=295b2b96-8a22-4b6f-a45b-df5a7ed58969"},"vehicle_type_id":"4","last_reported":1742613743,"current_range_meters":10000,"station_id":"ce4bhr92rcd13ifvqhsg","pricing_plan_id":"cebpf4jnsgd1na2vs0mg"},{"bike_id":"c7690d8f-d650-495b-82f0-2abd9a4308b7","system_id":"levelo_inurba_marseille","lat":43.255804,"lon":5.382347,"is_reserved":false,"is_disabled":false,"rental_uris":{"android":"levelo://app?vid=c7690d8f-d650-495b-82f0-2abd9a4308b7","ios":"levelo://app?vid=c7690d8f-d650-495b-82f0-2abd9a4308b7"},"vehicle_type_id":"4","last_reported":1742613743,"current_range_meters":10000,"station_id":"ce4bhih2rcd13ifvqfs0","pricing_plan_id":"cebpf4jnsgd1na2vs0mg"},{"bike_id":"29c299a3-8deb-46e4-8cd6-c7a928ea34d7","system_id":"levelo_inurba_marseille","lat":43.26557,"lon":5.37295,"is_reserved":false,"is_disabled":false,"rental_uris":{"android":"levelo://app?vid=29c299a3-8deb-46e4-8cd6-c7a928ea34d7","ios":"levelo://app?vid=29c299a3-8deb-46e4-8cd6-c7a928ea34d7"},"vehicle_type_id":"4","last_reported":1742613743,"current_range_meters":10000,"station_id":"ce4bhg12rcd13ifvqf70","pricing_plan_id":"cebpf4jnsgd1na2vs0mg"},{"bike_id":"87e2e2e8-8fdc-44a7-ae05-f3390d7856da","system_id":"levelo_inurba_marseille","lat":43.28853,"lon":5.39309,"is_reserved":false,"is_disabled":false,"rental_uris":{"android":"levelo://app?vid=87e2e2e8-8fdc-44a7-ae05-f3390d7856da","ios":"levelo://app?vid=87e2e2e8-8fdc-44a7-ae05-f3390d7856da"},"vehicle_type_id":"4","last_reported":1742613743,"current_range_meters":10000,"station_id":"ce4bh2p2rcd13ifvqdi0","pricing_plan_id":"cebpf4jnsgd1na2vs0mg"},{"bike_id":"f00d02b5-23a4-4e11-abba-f39f878aab17","system_id":"levelo_inurba_marseille","lat":43.302998,"lon":5.392146,"is_reserved":false,"is_disabled":false,"rental_uris":{"android":"levelo://app?vid=f00d02b5-23a4-4e11-abba-f39f878aab17","ios":"levelo://app?vid=f00d02b5-23a4-4e11-abba-f39f878aab17"},"vehicle_type_id":"4","last_reported":1742613743,"current_range_meters":10000,"station_id":"ce4bgkh2rcd13ifvqbk0","pricing_plan_id":"cebpf4jnsgd1na2vs0mg"},{"bike_id":"3483c4d5-33fb-4cf2-9f09-aee1477a5393","system_id":"levelo_inurba_marseille","lat":43.26576,"lon":5.39018,"is_reserved":false,"is_disabled":false,"rental_uris":{"android":"levelo://app?vid=3483c4d5-33fb-4cf2-9f09-aee1477a5393","ios":"levelo://app?vid=3483c4d5-33fb-4cf2-9f09-aee1477a5393"},"vehicle_type_id":"4","last_reported":1742613743,"current_range_meters":10000,"station_id":"ce4bhe12rcd13ifvqf30","pricing_plan_id":"cebpf4jnsgd1na2vs0mg"},{"bike_id":"4861c1e5-a5db-429c-ae73-c93aee121cb0","system_id":"levelo_inurba_marseille","lat":43.30427,"lon":5.41292,"is_reserved":false,"is_disabled":false,"rental_uris":{"android":"levelo://app?vid=4861c1e5-a5db-429c-ae73-c93aee121cb0","ios":"levelo://app?vid=4861c1e5-a5db-429c-ae73-c93aee121cb0"},"vehicle_type_id":"4","last_reported":1742613743,"current_range_meters":9600,"station_id":"ce4bhop2rcd13ifvqh8g","pricing_plan_id":"cebpf4jnsgd1na2vs0mg"},{"bike_id":"e1e493b8-6ddd-477f-a5c7-ce583728c84a","system_id":"levelo_inurba_marseille","lat":43.29022,"lon":5.38153,"is_reserved":false,"is_disabled":false,"rental_uris":{"android":"levelo://app?vid=e1e493b8-6ddd-477f-a5c7-ce583728c84a","ios":"levelo://app?vid=e1e493b8-6ddd-477f-a5c7-ce583728c84a"},"vehicle_type_id":"4","last_reported":1742613743,"current_range_meters":10800,"station_id":"ce4bh4p2rcd13ifvqe1g","pricing_plan_id":"cebpf4jnsgd1na2vs0mg"},{"bike_id":"b8947409-508b-461c-b433-a1d5d02b6078","system_id":"levelo_inurba_marseille","lat":43.26549,"lon":5.3729,"is_reserved":false,"is_disabled":false,"rental_uris":{"android":"levelo://app?vid=b8947409-508b-461c-b433-a1d5d02b6078","ios":"levelo://app?vid=b8947409-508b-461c-b433-a1d5d02b6078"},"vehicle_type_id":"4","last_reported":1742613743,"current_range_meters":10800,"station_id":"ce4bhg12rcd13ifvqf70","pricing_plan_id":"cebpf4jnsgd1na2vs0mg"},{"bike_id":"b5fcb98a-c8d5-4f1a-a9b4-b3362af2a9c7","system_id":"levelo_inurba_marseille","lat":43.23059,"lon":5.35505,"is_reserved":false,"is_disabled":false,"rental_uris":{"android":"levelo://app?vid=b5fcb98a-c8d5-4f1a-a9b4-b3362af2a9c7","ios":"levelo://app?vid=b5fcb98a-c8d5-4f1a-a9b4-b3362af2a9c7"},"vehicle_type_id":"4","last_reported":1742613743,"current_range_meters":10800,"station_id":"cpo3342slgdg3j2ifvpg","pricing_plan_id":"cebpf4jnsgd1na2vs0mg"},{"bike_id":"f26047fe-e325-4cda-a7da-2e6f1320cab5","system_id":"levelo_inurba_marseille","lat":43.26486,"lon":5.39569,"is_reserved":false,"is_disabled":false,"rental_uris":{"android":"levelo://app?vid=f26047fe-e325-4cda-a7da-2e6f1320cab5","ios":"levelo://app?vid=f26047fe-e325-4cda-a7da-2e6f1320cab5"},"vehicle_type_id":"4","last_reported":1742613743,"current_range_meters":10800,"station_id":"ce4bhi12rcd13ifvqfq0","pricing_plan_id":"cebpf4jnsgd1na2vs0mg"},{"bike_id":"3edb904b-ad5d-447e-ba08-4ac1801adea2","system_id":"levelo_inurba_marseille","lat":43.28083,"lon":5.39658,"is_reserved":false,"is_disabled":false,"rental_uris":{"android":"levelo://app?vid=3edb904b-ad5d-447e-ba08-4ac1801adea2","ios":"levelo://app?vid=3edb904b-ad5d-447e-ba08-4ac1801adea2"},"vehicle_type_id":"4","last_reported":1742613743,"current_range_meters":10800,"station_id":"ce4bho12rcd13ifvqh2g","pricing_plan_id":"cebpf4jnsgd1na2vs0mg"},{"bike_id":"94860459-52a8-4c2d-853d-10b8ab436408","system_id":"levelo_inurba_marseille","lat":43.28733,"lon":5.36103,"is_reserved":false,"is_disabled":false,"rental_uris":{"android":"levelo://app?vid=94860459-52a8-4c2d-853d-10b8ab436408","ios":"levelo://app?vid=94860459-52a8-4c2d-853d-10b8ab436408"},"vehicle_type_id":"4","last_reported":1742613743,"current_range_meters":11200,"station_id":"cki0cbj6b192h4jlfktg","pricing_plan_id":"cebpf4jnsgd1na2vs0mg"},{"bike_id":"ea50c471-353f-4ae0-9c50-a385b463fc43","system_id":"levelo_inurba_marseille","lat":43.30334,"lon":5.4045,"is_reserved":false,"is_disabled":false,"rental_uris":{"android":"levelo://app?vid=ea50c471-353f-4ae0-9c50-a385b463fc43","ios":"levelo://app?vid=ea50c471-353f-4ae0-9c50-a385b463fc43"},"vehicle_type_id":"4","last_reported":1742613743,"current_range_meters":11200,"station_id":"ce4bh012rcd13ifvqd10","pricing_plan_id":"cebpf4jnsgd1na2vs0mg"},{"bike_id":"2db22488-918b-4fe3-aa4c-5d641be78df8","system_id":"levelo_inurba_marseille","lat":43.29375,"lon":5.37842,"is_reserved":false,"is_disabled":true,"rental_uris":{"android":"levelo://app?vid=2db22488-918b-4fe3-aa4c-5d641be78df8","ios":"levelo://app?vid=2db22488-918b-4fe3-aa4c-5d641be78df8"},"vehicle_type_id":"4","last_reported":1742613743,"current_range_meters":10800,"station_id":"ce4bgjh2rcd13ifvqbf0","pricing_plan_id":"cebpf4jnsgd1na2vs0mg"},{"bike_id":"7f396ae9-244b-4126-bc7a-2312f6e4d9ee","system_id":"levelo_inurba_marseille","lat":43.3373,"lon":5.39186,"is_reserved":false,"is_disabled":false,"rental_uris":{"android":"levelo://app?vid=7f396ae9-244b-4126-bc7a-2312f6e4d9ee","ios":"levelo://app?vid=7f396ae9-244b-4126-bc7a-2312f6e4d9ee"},"vehicle_type_id":"4","last_reported":1742613743,"current_range_meters":11200,"station_id":"ce4bhr92rcd13ifvqhsg","pricing_plan_id":"cebpf4jnsgd1na2vs0mg"},{"bike_id":"38044645-ece5-4bcd-8d4d-db0d7b3b13cd","system_id":"levelo_inurba_marseille","lat":43.24543,"lon":5.39514,"is_reserved":false,"is_disabled":false,"rental_uris":{"android":"levelo://app?vid=38044645-ece5-4bcd-8d4d-db0d7b3b13cd","ios":"levelo://app?vid=38044645-ece5-4bcd-8d4d-db0d7b3b13cd"},"vehicle_type_id":"4","last_reported":1742613743,"current_range_meters":11200,"station_id":"ce4bhlp2rcd13ifvqgjg","pricing_plan_id":"cebpf4jnsgd1na2vs0mg"},{"bike_id":"fe239f3d-5c83-42bd-8b99-e0b3f3784fb5","system_id":"levelo_inurba_marseille","lat":43.24604,"lon":5.38402,"is_reserved":false,"is_disabled":false,"rental_uris":{"android":"levelo://app?vid=fe239f3d-5c83-42bd-8b99-e0b3f3784fb5","ios":"levelo://app?vid=fe239f3d-5c83-42bd-8b99-e0b3f3784fb5"},"vehicle_type_id":"4","last_reported":1742613743,"current_range_meters":11200,"station_id":"","pricing_plan_id":"cebpf4jnsgd1na2vs0mg"},{"bike_id":"8ff6a3b5-d1d9-417b-86f0-6d0ace3538d0","system_id":"levelo_inurba_marseille","lat":43.25822,"lon":5.39433,"is_reserved":false,"is_disabled":false,"rental_uris":{"android":"levelo://app?vid=8ff6a3b5-d1d9-417b-86f0-6d0ace3538d0","ios":"levelo://app?vid=8ff6a3b5-d1d9-417b-86f0-6d0ace3538d0"},"vehicle_type_id":"4","last_reported":1742613743,"current_range_meters":11600,"station_id":"ce4bhip2rcd13ifvqft0","pricing_plan_id":"cebpf4jnsgd1na2vs0mg"},{"bike_id":"4338348f-9f6e-4636-8d06-98e2ca5e810f","system_id":"levelo_inurba_marseille","lat":43.26567,"lon":5.38993,"is_reserved":false,"is_disabled":false,"rental_uris":{"android":"levelo://app?vid=4338348f-9f6e-4636-8d06-98e2ca5e810f","ios":"levelo://app?vid=4338348f-9f6e-4636-8d06-98e2ca5e810f"},"vehicle_type_id":"4","last_reported":1742613743,"current_range_meters":11600,"station_id":"ce4bhe12rcd13ifvqf30","pricing_plan_id":"cebpf4jnsgd1na2vs0mg"},{"bike_id":"e286f78c-b371-40e9-b7d3-39dea2859809","system_id":"levelo_inurba_marseille","lat":43.3154,"lon":5.38018,"is_reserved":false,"is_disabled":false,"rental_uris":{"android":"levelo://app?vid=e286f78c-b371-40e9-b7d3-39dea2859809","ios":"levelo://app?vid=e286f78c-b371-40e9-b7d3-39dea2859809"},"vehicle_type_id":"4","last_reported":1742613743,"current_range_meters":11600,"station_id":"ce4bhsp2rcd13ifvqi50","pricing_plan_id":"cebpf4jnsgd1na2vs0mg"},{"bike_id":"e9dd29bd-d253-4067-b139-6f4230cec857","system_id":"levelo_inurba_marseille","lat":43.31087,"lon":5.42434,"is_reserved":false,"is_disabled":false,"rental_uris":{"android":"levelo://app?vid=e9dd29bd-d253-4067-b139-6f4230cec857","ios":"levelo://app?vid=e9dd29bd-d253-4067-b139-6f4230cec857"},"vehicle_type_id":"4","last_reported":1742613743,"current_range_meters":11200,"station_id":"ce4bhp92rcd13ifvqhag","pricing_plan_id":"cebpf4jnsgd1na2vs0mg"},{"bike_id":"900e44dd-1317-4e6e-ac50-7e0c8fe7d455","system_id":"levelo_inurba_marseille","lat":43.239668,"lon":5.366354,"is_reserved":false,"is_disabled":false,"rental_uris":{"android":"levelo://app?vid=900e44dd-1317-4e6e-ac50-7e0c8fe7d455","ios":"levelo://app?vid=900e44dd-1317-4e6e-ac50-7e0c8fe7d455"},"vehicle_type_id":"4","last_reported":1742613743,"current_range_meters":12000,"station_id":"ce4bhi12rcd13ifvqfp0","pricing_plan_id":"cebpf4jnsgd1na2vs0mg"},{"bike_id":"6303fd16-e919-43a3-b09d-f081f34784c7","system_id":"levelo_inurba_marseille","lat":43.31076,"lon":5.38366,"is_reserved":false,"is_disabled":false,"rental_uris":{"android":"levelo://app?vid=6303fd16-e919-43a3-b09d-f081f34784c7","ios":"levelo://app?vid=6303fd16-e919-43a3-b09d-f081f34784c7"},"vehicle_type_id":"4","last_reported":1742613743,"current_range_meters":12000,"station_id":"ce4bgv92rcd13ifvqcr0","pricing_plan_id":"cebpf4jnsgd1na2vs0mg"},{"bike_id":"9c747ab1-84e4-463f-87ba-f786aa5852f4","system_id":"levelo_inurba_marseille","lat":43.27819,"lon":5.40709,"is_reserved":false,"is_disabled":false,"rental_uris":{"android":"levelo://app?vid=9c747ab1-84e4-463f-87ba-f786aa5852f4","ios":"levelo://app?vid=9c747ab1-84e4-463f-87ba-f786aa5852f4"},"vehicle_type_id":"4","last_reported":1742613743,"current_range_meters":12000,"station_id":"ce4bhnh2rcd13ifvqgtg","pricing_plan_id":"cebpf4jnsgd1na2vs0mg"},{"bike_id":"2fadd73d-54a7-46e1-91a0-9f83c85751d9","system_id":"levelo_inurba_marseille","lat":43.319962,"lon":5.381553,"is_reserved":false,"is_disabled":false,"rental_uris":{"android":"levelo://app?vid=2fadd73d-54a7-46e1-91a0-9f83c85751d9","ios":"levelo://app?vid=2fadd73d-54a7-46e1-91a0-9f83c85751d9"},"vehicle_type_id":"4","last_reported":1742613743,"current_range_meters":12400,"station_id":"ce4bhr12rcd13ifvqhpg","pricing_plan_id":"cebpf4jnsgd1na2vs0mg"},{"bike_id":"d6aff1ed-229c-4ff0-b6d9-674bc21c7e9b","system_id":"levelo_inurba_marseille","lat":43.30888,"lon":5.39626,"is_reserved":false,"is_disabled":false,"rental_uris":{"android":"levelo://app?vid=d6aff1ed-229c-4ff0-b6d9-674bc21c7e9b","ios":"levelo://app?vid=d6aff1ed-229c-4ff0-b6d9-674bc21c7e9b"},"vehicle_type_id":"4","last_reported":1742613743,"current_range_meters":12400,"station_id":"ce4bh012rcd13ifvqcv0","pricing_plan_id":"cebpf4jnsgd1na2vs0mg"},{"bike_id":"9683555e-fe04-4de7-b706-7a9b0019a6a7","system_id":"levelo_inurba_marseille","lat":43.33753,"lon":5.37495,"is_reserved":false,"is_disabled":true,"rental_uris":{"android":"levelo://app?vid=9683555e-fe04-4de7-b706-7a9b0019a6a7","ios":"levelo://app?vid=9683555e-fe04-4de7-b706-7a9b0019a6a7"},"vehicle_type_id":"4","last_reported":1742613743,"current_range_meters":12400,"station_id":"ce4bh2h2rcd13ifvqdh0","pricing_plan_id":"cebpf4jnsgd1na2vs0mg"},{"bike_id":"0b49bdf5-e1e6-4881-ad0b-23dfc5b30bed","system_id":"levelo_inurba_marseille","lat":43.30771,"lon":5.37662,"is_reserved":false,"is_disabled":false,"rental_uris":{"android":"levelo://app?vid=0b49bdf5-e1e6-4881-ad0b-23dfc5b30bed","ios":"levelo://app?vid=0b49bdf5-e1e6-4881-ad0b-23dfc5b30bed"},"vehicle_type_id":"4","last_reported":1742613743,"current_range_meters":12400,"station_id":"ce4bgv92rcd13ifvqcq0","pricing_plan_id":"cebpf4jnsgd1na2vs0mg"},{"bike_id":"1df2e6f6-63d4-4f34-92e1-d1b0e12ddb5a","system_id":"levelo_inurba_marseille","lat":43.231865,"lon":5.39994,"is_reserved":false,"is_disabled":false,"rental_uris":{"android":"levelo://app?vid=1df2e6f6-63d4-4f34-92e1-d1b0e12ddb5a","ios":"levelo://app?vid=1df2e6f6-63d4-4f34-92e1-d1b0e12ddb5a"},"vehicle_type_id":"4","last_reported":1742613743,"current_range_meters":12400,"station_id":"ce4bhn12rcd13ifvqgqg","pricing_plan_id":"cebpf4jnsgd1na2vs0mg"},{"bike_id":"6f3844ff-2aa2-4473-952c-bd329dc94e95","system_id":"levelo_inurba_marseille","lat":43.25826,"lon":5.3943,"is_reserved":false,"is_disabled":false,"rental_uris":{"android":"levelo://app?vid=6f3844ff-2aa2-4473-952c-bd329dc94e95","ios":"levelo://app?vid=6f3844ff-2aa2-4473-952c-bd329dc94e95"},"vehicle_type_id":"4","last_reported":1742613743,"current_range_meters":12400,"station_id":"ce4bhip2rcd13ifvqft0","pricing_plan_id":"cebpf4jnsgd1na2vs0mg"},{"bike_id":"874f6882-1dae-4cd8-906f-69b0538689d5","system_id":"levelo_inurba_marseille","lat":43.283688,"lon":5.399488,"is_reserved":false,"is_disabled":false,"rental_uris":{"android":"levelo://app?vid=874f6882-1dae-4cd8-906f-69b0538689d5","ios":"levelo://app?vid=874f6882-1dae-4cd8-906f-69b0538689d5"},"vehicle_type_id":"4","last_reported":1742613743,"current_range_meters":12400,"station_id":"ce4bhoh2rcd13ifvqh5g","pricing_plan_id":"cebpf4jnsgd1na2vs0mg"},{"bike_id":"52ca90b0-f039-4017-b60d-da3724ff2989","system_id":"levelo_inurba_marseille","lat":43.268088,"lon":5.402622,"is_reserved":false,"is_disabled":false,"rental_uris":{"android":"levelo://app?vid=52ca90b0-f039-4017-b60d-da3724ff2989","ios":"levelo://app?vid=52ca90b0-f039-4017-b60d-da3724ff2989"},"vehicle_type_id":"4","last_reported":1742613743,"current_range_meters":12800,"station_id":"ce501612rcd8frsf0b60","pricing_plan_id":"cebpf4jnsgd1na2vs0mg"},{"bike_id":"9e4c94a7-2d9a-4757-9b79-930c54108b59","system_id":"levelo_inurba_marseille","lat":43.30882,"lon":5.39634,"is_reserved":false,"is_disabled":false,"rental_uris":{"android":"levelo://app?vid=9e4c94a7-2d9a-4757-9b79-930c54108b59","ios":"levelo://app?vid=9e4c94a7-2d9a-4757-9b79-930c54108b59"},"vehicle_type_id":"4","last_reported":1742613743,"current_range_meters":12800,"station_id":"ce4bh012rcd13ifvqcv0","pricing_plan_id":"cebpf4jnsgd1na2vs0mg"},{"bike_id":"fd4ff363-803a-4e0a-a37f-3a0a1fcf3ad3","system_id":"levelo_inurba_marseille","lat":43.34149,"lon":5.40911,"is_reserved":false,"is_disabled":false,"rental_uris":{"android":"levelo://app?vid=fd4ff363-803a-4e0a-a37f-3a0a1fcf3ad3","ios":"levelo://app?vid=fd4ff363-803a-4e0a-a37f-3a0a1fcf3ad3"},"vehicle_type_id":"4","last_reported":1742613743,"current_range_meters":13600,"station_id":"ce4bhqh2rcd13ifvqhlg","pricing_plan_id":"cebpf4jnsgd1na2vs0mg"},{"bike_id":"a0442b13-3b96-439a-9cfc-7e3b664d0c16","system_id":"levelo_inurba_marseille","lat":43.30374,"lon":5.424827,"is_reserved":false,"is_disabled":false,"rental_uris":{"android":"levelo://app?vid=a0442b13-3b96-439a-9cfc-7e3b664d0c16","ios":"levelo://app?vid=a0442b13-3b96-439a-9cfc-7e3b664d0c16"},"vehicle_type_id":"4","last_reported":1742613743,"current_range_meters":13600,"station_id":"ce4bhoh2rcd13ifvqh6g","pricing_plan_id":"cebpf4jnsgd1na2vs0mg"},{"bike_id":"47476f7a-6089-40f4-82cd-55d2acb8987b","system_id":"levelo_inurba_marseille","lat":43.23964,"lon":5.36636,"is_reserved":false,"is_disabled":false,"rental_uris":{"android":"levelo://app?vid=47476f7a-6089-40f4-82cd-55d2acb8987b","ios":"levelo://app?vid=47476f7a-6089-40f4-82cd-55d2acb8987b"},"vehicle_type_id":"4","last_reported":1742613743,"current_range_meters":13600,"station_id":"ce4bhi12rcd13ifvqfp0","pricing_plan_id":"cebpf4jnsgd1na2vs0mg"},{"bike_id":"d1dcf511-d8e9-43ef-bc85-50de65aae4a3","system_id":"levelo_inurba_marseille","lat":43.28888,"lon":5.38751,"is_reserved":false,"is_disabled":false,"rental_uris":{"android":"levelo://app?vid=d1dcf511-d8e9-43ef-bc85-50de65aae4a3","ios":"levelo://app?vid=d1dcf511-d8e9-43ef-bc85-50de65aae4a3"},"vehicle_type_id":"4","last_reported":1742613743,"current_range_meters":13600,"station_id":"","pricing_plan_id":"cebpf4jnsgd1na2vs0mg"},{"bike_id":"39600bef-b386-43d2-a32c-75296b1ad27d","system_id":"levelo_inurba_marseille","lat":43.28073,"lon":5.39637,"is_reserved":false,"is_disabled":false,"rental_uris":{"android":"levelo://app?vid=39600bef-b386-43d2-a32c-75296b1ad27d","ios":"levelo://app?vid=39600bef-b386-43d2-a32c-75296b1ad27d"},"vehicle_type_id":"4","last_reported":1742613743,"current_range_meters":14000,"station_id":"ce4bho12rcd13ifvqh2g","pricing_plan_id":"cebpf4jnsgd1na2vs0mg"},{"bike_id":"b56580eb-be99-4aaa-8593-c9b2940b4c72","system_id":"levelo_inurba_marseille","lat":43.2871,"lon":5.39982,"is_reserved":false,"is_disabled":false,"rental_uris":{"android":"levelo://app?vid=b56580eb-be99-4aaa-8593-c9b2940b4c72","ios":"levelo://app?vid=b56580eb-be99-4aaa-8593-c9b2940b4c72"},"vehicle_type_id":"4","last_reported":1742613743,"current_range_meters":14000,"station_id":"ce4bho92rcd13ifvqh3g","pricing_plan_id":"cebpf4jnsgd1na2vs0mg"},{"bike_id":"fbb498fe-0420-4fc0-a001-6f20ac1d59dd","system_id":"levelo_inurba_marseille","lat":43.33601,"lon":5.41005,"is_reserved":false,"is_disabled":true,"rental_uris":{"android":"levelo://app?vid=fbb498fe-0420-4fc0-a001-6f20ac1d59dd","ios":"levelo://app?vid=fbb498fe-0420-4fc0-a001-6f20ac1d59dd"},"vehicle_type_id":"4","last_reported":1742613743,"current_range_meters":14000,"station_id":"ce4bhqh2rcd13ifvqhmg","pricing_plan_id":"cebpf4jnsgd1na2vs0mg"},{"bike_id":"fabef5ba-78bd-444f-8775-d6c21179e6f7","system_id":"levelo_inurba_marseille","lat":43.2942,"lon":5.38598,"is_reserved":false,"is_disabled":true,"rental_uris":{"android":"levelo://app?vid=fabef5ba-78bd-444f-8775-d6c21179e6f7","ios":"levelo://app?vid=fabef5ba-78bd-444f-8775-d6c21179e6f7"},"vehicle_type_id":"4","last_reported":1742613743,"current_range_meters":14000,"station_id":"ce4bh2h2rcd13ifvqdh0","pricing_plan_id":"cebpf4jnsgd1na2vs0mg"},{"bike_id":"5b11d453-6f94-47a5-bb26-1ad375790f66","system_id":"levelo_inurba_marseille","lat":43.30326,"lon":5.40434,"is_reserved":false,"is_disabled":false,"rental_uris":{"android":"levelo://app?vid=5b11d453-6f94-47a5-bb26-1ad375790f66","ios":"levelo://app?vid=5b11d453-6f94-47a5-bb26-1ad375790f66"},"vehicle_type_id":"4","last_reported":1742613743,"current_range_meters":14000,"station_id":"ce4bh012rcd13ifvqd10","pricing_plan_id":"cebpf4jnsgd1na2vs0mg"},{"bike_id":"72503a27-a949-4a46-b139-c44d4f416a58","system_id":"levelo_inurba_marseille","lat":43.23191,"lon":5.35562,"is_reserved":false,"is_disabled":false,"rental_uris":{"android":"levelo://app?vid=72503a27-a949-4a46-b139-c44d4f416a58","ios":"levelo://app?vid=72503a27-a949-4a46-b139-c44d4f416a58"},"vehicle_type_id":"4","last_reported":1742613743,"current_range_meters":14000,"station_id":"ce4bhu92rcd13ifvqi70","pricing_plan_id":"cebpf4jnsgd1na2vs0mg"},{"bike_id":"3f3f99da-6673-441e-a5b3-6857219a400e","system_id":"levelo_inurba_marseille","lat":43.249988,"lon":5.389359,"is_reserved":false,"is_disabled":false,"rental_uris":{"android":"levelo://app?vid=3f3f99da-6673-441e-a5b3-6857219a400e","ios":"levelo://app?vid=3f3f99da-6673-441e-a5b3-6857219a400e"},"vehicle_type_id":"4","last_reported":1742613743,"current_range_meters":14000,"station_id":"ce4bhgp2rcd13ifvqfd0","pricing_plan_id":"cebpf4jnsgd1na2vs0mg"},{"bike_id":"77194d0d-fa7b-4a89-8dc8-229bf789c28d","system_id":"levelo_inurba_marseille","lat":43.30919,"lon":5.40154,"is_reserved":false,"is_disabled":false,"rental_uris":{"android":"levelo://app?vid=77194d0d-fa7b-4a89-8dc8-229bf789c28d","ios":"levelo://app?vid=77194d0d-fa7b-4a89-8dc8-229bf789c28d"},"vehicle_type_id":"4","last_reported":1742613743,"current_range_meters":14000,"station_id":"ce4bgvp2rcd13ifvqct0","pricing_plan_id":"cebpf4jnsgd1na2vs0mg"},{"bike_id":"9e8170c9-b9be-464f-94ef-a9fff187f2a6","system_id":"levelo_inurba_marseille","lat":43.30249,"lon":5.40053,"is_reserved":false,"is_disabled":false,"rental_uris":{"android":"levelo://app?vid=9e8170c9-b9be-464f-94ef-a9fff187f2a6","ios":"levelo://app?vid=9e8170c9-b9be-464f-94ef-a9fff187f2a6"},"vehicle_type_id":"4","last_reported":1742613743,"current_range_meters":14000,"station_id":"ce4bgvh2rcd13ifvqcs0","pricing_plan_id":"cebpf4jnsgd1na2vs0mg"},{"bike_id":"4e6ac5cc-a6c7-4a8b-83ac-ca5f3c15f439","system_id":"levelo_inurba_marseille","lat":43.3173,"lon":5.42384,"is_reserved":false,"is_disabled":false,"rental_uris":{"android":"levelo://app?vid=4e6ac5cc-a6c7-4a8b-83ac-ca5f3c15f439","ios":"levelo://app?vid=4e6ac5cc-a6c7-4a8b-83ac-ca5f3c15f439"},"vehicle_type_id":"4","last_reported":1742613743,"current_range_meters":14000,"station_id":"ce4bhp92rcd13ifvqhbg","pricing_plan_id":"cebpf4jnsgd1na2vs0mg"},{"bike_id":"f39eebaf-f4e1-4cce-8237-2c3fcbf1a21f","system_id":"levelo_inurba_marseille","lat":43.29047,"lon":5.35905,"is_reserved":false,"is_disabled":false,"rental_uris":{"android":"levelo://app?vid=f39eebaf-f4e1-4cce-8237-2c3fcbf1a21f","ios":"levelo://app?vid=f39eebaf-f4e1-4cce-8237-2c3fcbf1a21f"},"vehicle_type_id":"4","last_reported":1742613743,"current_range_meters":14400,"station_id":"ce4bha92rcd13ifvqeg0","pricing_plan_id":"cebpf4jnsgd1na2vs0mg"},{"bike_id":"e25963ed-e672-4a92-a417-d585a3bc1692","system_id":"levelo_inurba_marseille","lat":43.27854,"lon":5.39714,"is_reserved":false,"is_disabled":true,"rental_uris":{"android":"levelo://app?vid=e25963ed-e672-4a92-a417-d585a3bc1692","ios":"levelo://app?vid=e25963ed-e672-4a92-a417-d585a3bc1692"},"vehicle_type_id":"4","last_reported":1742613743,"current_range_meters":14400,"station_id":"","pricing_plan_id":"cebpf4jnsgd1na2vs0mg"},{"bike_id":"fe228610-372f-4944-86f5-37135b238bfd","system_id":"levelo_inurba_marseille","lat":43.30302,"lon":5.36904,"is_reserved":false,"is_disabled":false,"rental_uris":{"android":"levelo://app?vid=fe228610-372f-4944-86f5-37135b238bfd","ios":"levelo://app?vid=fe228610-372f-4944-86f5-37135b238bfd"},"vehicle_type_id":"4","last_reported":1742613743,"current_range_meters":14400,"station_id":"ce4bgqh2rcd13ifvqc5g","pricing_plan_id":"cebpf4jnsgd1na2vs0mg"},{"bike_id":"0e51ed7e-780a-4ef2-8ddd-105c43946cf1","system_id":"levelo_inurba_marseille","lat":43.24089,"lon":5.37767,"is_reserved":false,"is_disabled":false,"rental_uris":{"android":"levelo://app?vid=0e51ed7e-780a-4ef2-8ddd-105c43946cf1","ios":"levelo://app?vid=0e51ed7e-780a-4ef2-8ddd-105c43946cf1"},"vehicle_type_id":"4","last_reported":1742613743,"current_range_meters":14400,"station_id":"ce4bhnp2rcd13ifvqgvg","pricing_plan_id":"cebpf4jnsgd1na2vs0mg"},{"bike_id":"d3ebde68-98d7-4a24-a835-e6ce3b34fc4b","system_id":"levelo_inurba_marseille","lat":43.26564,"lon":5.37282,"is_reserved":false,"is_disabled":false,"rental_uris":{"android":"levelo://app?vid=d3ebde68-98d7-4a24-a835-e6ce3b34fc4b","ios":"levelo://app?vid=d3ebde68-98d7-4a24-a835-e6ce3b34fc4b"},"vehicle_type_id":"4","last_reported":1742613743,"current_range_meters":14400,"station_id":"ce4bhg12rcd13ifvqf70","pricing_plan_id":"cebpf4jnsgd1na2vs0mg"},{"bike_id":"9e5fb07a-40f5-48a7-8576-b3add1049650","system_id":"levelo_inurba_marseille","lat":43.27614,"lon":5.36112,"is_reserved":false,"is_disabled":false,"rental_uris":{"android":"levelo://app?vid=9e5fb07a-40f5-48a7-8576-b3add1049650","ios":"levelo://app?vid=9e5fb07a-40f5-48a7-8576-b3add1049650"},"vehicle_type_id":"4","last_reported":1742613743,"current_range_meters":14400,"station_id":"ce4bgj92rcd13ifvqbe0","pricing_plan_id":"cebpf4jnsgd1na2vs0mg"},{"bike_id":"7d9bf2d2-5153-499c-a1fb-dcb365a9e566","system_id":"levelo_inurba_marseille","lat":43.241823,"lon":5.397301,"is_reserved":false,"is_disabled":false,"rental_uris":{"android":"levelo://app?vid=7d9bf2d2-5153-499c-a1fb-dcb365a9e566","ios":"levelo://app?vid=7d9bf2d2-5153-499c-a1fb-dcb365a9e566"},"vehicle_type_id":"4","last_reported":1742613743,"current_range_meters":14800,"station_id":"ce4bhn12rcd13ifvqgpg","pricing_plan_id":"cebpf4jnsgd1na2vs0mg"},{"bike_id":"19a95dcf-9766-41d3-9e72-94705e323dad","system_id":"levelo_inurba_marseille","lat":43.24388,"lon":5.37069,"is_reserved":false,"is_disabled":false,"rental_uris":{"android":"levelo://app?vid=19a95dcf-9766-41d3-9e72-94705e323dad","ios":"levelo://app?vid=19a95dcf-9766-41d3-9e72-94705e323dad"},"vehicle_type_id":"4","last_reported":1742613743,"current_range_meters":14800,"station_id":"ce4bhhh2rcd13ifvqfk0","pricing_plan_id":"cebpf4jnsgd1na2vs0mg"},{"bike_id":"d16d5ae2-a108-44f8-a226-14fecf4f3137","system_id":"levelo_inurba_marseille","lat":43.280009,"lon":5.400132,"is_reserved":false,"is_disabled":false,"rental_uris":{"android":"levelo://app?vid=d16d5ae2-a108-44f8-a226-14fecf4f3137","ios":"levelo://app?vid=d16d5ae2-a108-44f8-a226-14fecf4f3137"},"vehicle_type_id":"4","last_reported":1742613743,"current_range_meters":14800,"station_id":"ce4bho92rcd13ifvqh4g","pricing_plan_id":"cebpf4jnsgd1na2vs0mg"},{"bike_id":"038f6b05-0ff9-48de-b2f6-90d72f7e838b","system_id":"levelo_inurba_marseille","lat":43.23191,"lon":5.39971,"is_reserved":false,"is_disabled":false,"rental_uris":{"android":"levelo://app?vid=038f6b05-0ff9-48de-b2f6-90d72f7e838b","ios":"levelo://app?vid=038f6b05-0ff9-48de-b2f6-90d72f7e838b"},"vehicle_type_id":"4","last_reported":1742613743,"current_range_meters":15200,"station_id":"ce4bhn12rcd13ifvqgqg","pricing_plan_id":"cebpf4jnsgd1na2vs0mg"},{"bike_id":"280a7095-4eb2-43f9-a0c4-f90b539d0a09","system_id":"levelo_inurba_marseille","lat":43.309244,"lon":5.401531,"is_reserved":false,"is_disabled":false,"rental_uris":{"android":"levelo://app?vid=280a7095-4eb2-43f9-a0c4-f90b539d0a09","ios":"levelo://app?vid=280a7095-4eb2-43f9-a0c4-f90b539d0a09"},"vehicle_type_id":"4","last_reported":1742613743,"current_range_meters":15200,"station_id":"ce4bgvp2rcd13ifvqct0","pricing_plan_id":"cebpf4jnsgd1na2vs0mg"},{"bike_id":"cb021bfd-49a7-4350-a0c2-1cc04a9ee345","system_id":"levelo_inurba_marseille","lat":43.2397,"lon":5.36622,"is_reserved":false,"is_disabled":false,"rental_uris":{"android":"levelo://app?vid=cb021bfd-49a7-4350-a0c2-1cc04a9ee345","ios":"levelo://app?vid=cb021bfd-49a7-4350-a0c2-1cc04a9ee345"},"vehicle_type_id":"4","last_reported":1742613743,"current_range_meters":15200,"station_id":"ce4bhi12rcd13ifvqfp0","pricing_plan_id":"cebpf4jnsgd1na2vs0mg"},{"bike_id":"ff0b86f7-1349-4aed-8f97-17f96801d957","system_id":"levelo_inurba_marseille","lat":43.284396,"lon":5.391907,"is_reserved":false,"is_disabled":false,"rental_uris":{"android":"levelo://app?vid=ff0b86f7-1349-4aed-8f97-17f96801d957","ios":"levelo://app?vid=ff0b86f7-1349-4aed-8f97-17f96801d957"},"vehicle_type_id":"4","last_reported":1742613743,"current_range_meters":15200,"station_id":"ce4bhoh2rcd13ifvqh5g","pricing_plan_id":"cebpf4jnsgd1na2vs0mg"},{"bike_id":"2032e81a-8d24-4036-9cc6-bf67698b8322","system_id":"levelo_inurba_marseille","lat":43.24178,"lon":5.39737,"is_reserved":false,"is_disabled":false,"rental_uris":{"android":"levelo://app?vid=2032e81a-8d24-4036-9cc6-bf67698b8322","ios":"levelo://app?vid=2032e81a-8d24-4036-9cc6-bf67698b8322"},"vehicle_type_id":"4","last_reported":1742613743,"current_range_meters":15200,"station_id":"ce4bhn12rcd13ifvqgpg","pricing_plan_id":"cebpf4jnsgd1na2vs0mg"},{"bike_id":"362c0793-680f-43b7-a1aa-d84cd3219497","system_id":"levelo_inurba_marseille","lat":43.31078,"lon":5.38363,"is_reserved":false,"is_disabled":false,"rental_uris":{"android":"levelo://app?vid=362c0793-680f-43b7-a1aa-d84cd3219497","ios":"levelo://app?vid=362c0793-680f-43b7-a1aa-d84cd3219497"},"vehicle_type_id":"4","last_reported":1742613743,"current_range_meters":15200,"station_id":"ce4bgv92rcd13ifvqcr0","pricing_plan_id":"cebpf4jnsgd1na2vs0mg"},{"bike_id":"302da745-dc3e-489e-b2c8-445dcb3c38b1","system_id":"levelo_inurba_marseille","lat":43.23066,"lon":5.35485,"is_reserved":false,"is_disabled":false,"rental_uris":{"android":"levelo://app?vid=302da745-dc3e-489e-b2c8-445dcb3c38b1","ios":"levelo://app?vid=302da745-dc3e-489e-b2c8-445dcb3c38b1"},"vehicle_type_id":"4","last_reported":1742613743,"current_range_meters":15200,"station_id":"cpo3342slgdg3j2ifvpg","pricing_plan_id":"cebpf4jnsgd1na2vs0mg"},{"bike_id":"1567a991-2479-4913-ab67-45dd75e569de","system_id":"levelo_inurba_marseille","lat":43.28713,"lon":5.39979,"is_reserved":false,"is_disabled":false,"rental_uris":{"android":"levelo://app?vid=1567a991-2479-4913-ab67-45dd75e569de","ios":"levelo://app?vid=1567a991-2479-4913-ab67-45dd75e569de"},"vehicle_type_id":"4","last_reported":1742613743,"current_range_meters":15200,"station_id":"ce4bho92rcd13ifvqh3g","pricing_plan_id":"cebpf4jnsgd1na2vs0mg"},{"bike_id":"28a94ed9-45b5-45f5-9140-f99f51dd2479","system_id":"levelo_inurba_marseille","lat":43.24067,"lon":5.37733,"is_reserved":false,"is_disabled":false,"rental_uris":{"android":"levelo://app?vid=28a94ed9-45b5-45f5-9140-f99f51dd2479","ios":"levelo://app?vid=28a94ed9-45b5-45f5-9140-f99f51dd2479"},"vehicle_type_id":"4","last_reported":1742613743,"current_range_meters":16000,"station_id":"ce4bhnp2rcd13ifvqgvg","pricing_plan_id":"cebpf4jnsgd1na2vs0mg"},{"bike_id":"041746e8-f612-4f02-ba2c-e784ef31f6c4","system_id":"levelo_inurba_marseille","lat":43.23154,"lon":5.437,"is_reserved":false,"is_disabled":false,"rental_uris":{"android":"levelo://app?vid=041746e8-f612-4f02-ba2c-e784ef31f6c4","ios":"levelo://app?vid=041746e8-f612-4f02-ba2c-e784ef31f6c4"},"vehicle_type_id":"4","last_reported":1742613743,"current_range_meters":16000,"station_id":"ce4bhmp2rcd13ifvqgog","pricing_plan_id":"cebpf4jnsgd1na2vs0mg"},{"bike_id":"17bd22d9-4dcd-4281-83be-96e7a7aacafa","system_id":"levelo_inurba_marseille","lat":43.29913,"lon":5.38672,"is_reserved":false,"is_disabled":false,"rental_uris":{"android":"levelo://app?vid=17bd22d9-4dcd-4281-83be-96e7a7aacafa","ios":"levelo://app?vid=17bd22d9-4dcd-4281-83be-96e7a7aacafa"},"vehicle_type_id":"4","last_reported":1742613743,"current_range_meters":16000,"station_id":"","pricing_plan_id":"cebpf4jnsgd1na2vs0mg"},{"bike_id":"4fcd5aa8-47a6-47e0-acf8-4669a5d049c7","system_id":"levelo_inurba_marseille","lat":43.32365,"lon":5.38881,"is_reserved":false,"is_disabled":false,"rental_uris":{"android":"levelo://app?vid=4fcd5aa8-47a6-47e0-acf8-4669a5d049c7","ios":"levelo://app?vid=4fcd5aa8-47a6-47e0-acf8-4669a5d049c7"},"vehicle_type_id":"4","last_reported":1742613743,"current_range_meters":16000,"station_id":"ce4bhqp2rcd13ifvqhog","pricing_plan_id":"cebpf4jnsgd1na2vs0mg"},{"bike_id":"809376be-0098-4ad3-aefa-db1e36eaf597","system_id":"levelo_inurba_marseille","lat":43.285717,"lon":5.394987,"is_reserved":false,"is_disabled":false,"rental_uris":{"android":"levelo://app?vid=809376be-0098-4ad3-aefa-db1e36eaf597","ios":"levelo://app?vid=809376be-0098-4ad3-aefa-db1e36eaf597"},"vehicle_type_id":"4","last_reported":1742613743,"current_range_meters":16000,"station_id":"ce4bh292rcd13ifvqdg0","pricing_plan_id":"cebpf4jnsgd1na2vs0mg"},{"bike_id":"1398bab9-310a-4d9f-b774-3cec44efaec1","system_id":"levelo_inurba_marseille","lat":43.27624,"lon":5.3609,"is_reserved":false,"is_disabled":false,"rental_uris":{"android":"levelo://app?vid=1398bab9-310a-4d9f-b774-3cec44efaec1","ios":"levelo://app?vid=1398bab9-310a-4d9f-b774-3cec44efaec1"},"vehicle_type_id":"4","last_reported":1742613743,"current_range_meters":16000,"station_id":"ce4bgj92rcd13ifvqbe0","pricing_plan_id":"cebpf4jnsgd1na2vs0mg"},{"bike_id":"d742c3ff-c1c9-4e36-b458-939313d82a16","system_id":"levelo_inurba_marseille","lat":43.31168,"lon":5.387333,"is_reserved":false,"is_disabled":false,"rental_uris":{"android":"levelo://app?vid=d742c3ff-c1c9-4e36-b458-939313d82a16","ios":"levelo://app?vid=d742c3ff-c1c9-4e36-b458-939313d82a16"},"vehicle_type_id":"4","last_reported":1742613743,"current_range_meters":16400,"station_id":"ce4bgv12rcd13ifvqcp0","pricing_plan_id":"cebpf4jnsgd1na2vs0mg"},{"bike_id":"acd9ce7b-e08a-4222-a322-17f186f8fa7c","system_id":"levelo_inurba_marseille","lat":43.3041,"lon":5.413,"is_reserved":false,"is_disabled":false,"rental_uris":{"android":"levelo://app?vid=acd9ce7b-e08a-4222-a322-17f186f8fa7c","ios":"levelo://app?vid=acd9ce7b-e08a-4222-a322-17f186f8fa7c"},"vehicle_type_id":"4","last_reported":1742613743,"current_range_meters":16400,"station_id":"ce4bhop2rcd13ifvqh8g","pricing_plan_id":"cebpf4jnsgd1na2vs0mg"},{"bike_id":"8682048b-22d3-4d81-b8c1-fb4c78459528","system_id":"levelo_inurba_marseille","lat":43.32662,"lon":5.40994,"is_reserved":false,"is_disabled":false,"rental_uris":{"android":"levelo://app?vid=8682048b-22d3-4d81-b8c1-fb4c78459528","ios":"levelo://app?vid=8682048b-22d3-4d81-b8c1-fb4c78459528"},"vehicle_type_id":"4","last_reported":1742613743,"current_range_meters":16400,"station_id":"ce4bhpp2rcd13ifvqhgg","pricing_plan_id":"cebpf4jnsgd1na2vs0mg"},{"bike_id":"3b7554be-f892-4f24-bedc-1fcf15a063f3","system_id":"levelo_inurba_marseille","lat":43.232,"lon":5.3554,"is_reserved":false,"is_disabled":false,"rental_uris":{"android":"levelo://app?vid=3b7554be-f892-4f24-bedc-1fcf15a063f3","ios":"levelo://app?vid=3b7554be-f892-4f24-bedc-1fcf15a063f3"},"vehicle_type_id":"4","last_reported":1742613743,"current_range_meters":16400,"station_id":"ce4bhu92rcd13ifvqi70","pricing_plan_id":"cebpf4jnsgd1na2vs0mg"},{"bike_id":"7e74b698-9062-469b-b8c2-03653df17d53","system_id":"levelo_inurba_marseille","lat":43.30879,"lon":5.39657,"is_reserved":false,"is_disabled":false,"rental_uris":{"android":"levelo://app?vid=7e74b698-9062-469b-b8c2-03653df17d53","ios":"levelo://app?vid=7e74b698-9062-469b-b8c2-03653df17d53"},"vehicle_type_id":"4","last_reported":1742613743,"current_range_meters":16400,"station_id":"ce4bh012rcd13ifvqcv0","pricing_plan_id":"cebpf4jnsgd1na2vs0mg"},{"bike_id":"89fce004-1ac2-4c69-931b-acce60b8fbc1","system_id":"levelo_inurba_marseille","lat":43.29251,"lon":5.40911,"is_reserved":false,"is_disabled":false,"rental_uris":{"android":"levelo://app?vid=89fce004-1ac2-4c69-931b-acce60b8fbc1","ios":"levelo://app?vid=89fce004-1ac2-4c69-931b-acce60b8fbc1"},"vehicle_type_id":"4","last_reported":1742613743,"current_range_meters":16400,"station_id":"ce4bh192rcd13ifvqdc0","pricing_plan_id":"cebpf4jnsgd1na2vs0mg"},{"bike_id":"d5fb38bb-145b-4438-b4f0-8b50ac58a011","system_id":"levelo_inurba_marseille","lat":43.25814,"lon":5.39436,"is_reserved":false,"is_disabled":false,"rental_uris":{"android":"levelo://app?vid=d5fb38bb-145b-4438-b4f0-8b50ac58a011","ios":"levelo://app?vid=d5fb38bb-145b-4438-b4f0-8b50ac58a011"},"vehicle_type_id":"4","last_reported":1742613743,"current_range_meters":16400,"station_id":"ce4bhip2rcd13ifvqft0","pricing_plan_id":"cebpf4jnsgd1na2vs0mg"},{"bike_id":"d9d90e28-0cde-498e-9e49-e2278f18bc23","system_id":"levelo_inurba_marseille","lat":43.323671,"lon":5.388898,"is_reserved":false,"is_disabled":false,"rental_uris":{"android":"levelo://app?vid=d9d90e28-0cde-498e-9e49-e2278f18bc23","ios":"levelo://app?vid=d9d90e28-0cde-498e-9e49-e2278f18bc23"},"vehicle_type_id":"4","last_reported":1742613743,"current_range_meters":16400,"station_id":"ce4bhqp2rcd13ifvqhog","pricing_plan_id":"cebpf4jnsgd1na2vs0mg"},{"bike_id":"40610ec6-60fc-4608-8143-26a5f162cf96","system_id":"levelo_inurba_marseille","lat":43.2924,"lon":5.38444,"is_reserved":false,"is_disabled":true,"rental_uris":{"android":"levelo://app?vid=40610ec6-60fc-4608-8143-26a5f162cf96","ios":"levelo://app?vid=40610ec6-60fc-4608-8143-26a5f162cf96"},"vehicle_type_id":"4","last_reported":1742613743,"current_range_meters":16800,"station_id":"ce4bh692rcd13ifvqea0","pricing_plan_id":"cebpf4jnsgd1na2vs0mg"},{"bike_id":"85f87bb8-ed05-4eba-9767-7a482339c68b","system_id":"levelo_inurba_marseille","lat":43.28729,"lon":5.36101,"is_reserved":false,"is_disabled":false,"rental_uris":{"android":"levelo://app?vid=85f87bb8-ed05-4eba-9767-7a482339c68b","ios":"levelo://app?vid=85f87bb8-ed05-4eba-9767-7a482339c68b"},"vehicle_type_id":"4","last_reported":1742613743,"current_range_meters":16800,"station_id":"cki0cbj6b192h4jlfktg","pricing_plan_id":"cebpf4jnsgd1na2vs0mg"},{"bike_id":"d8878601-3ef9-4b69-ae9e-1dde88f059ac","system_id":"levelo_inurba_marseille","lat":43.241679,"lon":5.363887,"is_reserved":false,"is_disabled":false,"rental_uris":{"android":"levelo://app?vid=d8878601-3ef9-4b69-ae9e-1dde88f059ac","ios":"levelo://app?vid=d8878601-3ef9-4b69-ae9e-1dde88f059ac"},"vehicle_type_id":"4","last_reported":1742613743,"current_range_meters":16800,"station_id":"cpo36qri1sfpv3e86is0","pricing_plan_id":"cebpf4jnsgd1na2vs0mg"},{"bike_id":"3f2cc47c-9819-46f0-b7be-a06e1c7f9558","system_id":"levelo_inurba_marseille","lat":43.310745,"lon":5.383496,"is_reserved":false,"is_disabled":false,"rental_uris":{"android":"levelo://app?vid=3f2cc47c-9819-46f0-b7be-a06e1c7f9558","ios":"levelo://app?vid=3f2cc47c-9819-46f0-b7be-a06e1c7f9558"},"vehicle_type_id":"4","last_reported":1742613743,"current_range_meters":16800,"station_id":"ce4bgv92rcd13ifvqcr0","pricing_plan_id":"cebpf4jnsgd1na2vs0mg"},{"bike_id":"a6cf7874-1f51-40b6-be31-56eeca71dec7","system_id":"levelo_inurba_marseille","lat":43.31365,"lon":5.38496,"is_reserved":false,"is_disabled":false,"rental_uris":{"android":"levelo://app?vid=a6cf7874-1f51-40b6-be31-56eeca71dec7","ios":"levelo://app?vid=a6cf7874-1f51-40b6-be31-56eeca71dec7"},"vehicle_type_id":"4","last_reported":1742613743,"current_range_meters":17200,"station_id":"ce4bgt92rcd13ifvqcf0","pricing_plan_id":"cebpf4jnsgd1na2vs0mg"},{"bike_id":"80821966-5d6d-495a-8088-0da2a094dc0f","system_id":"levelo_inurba_marseille","lat":43.3112,"lon":5.37759,"is_reserved":false,"is_disabled":false,"rental_uris":{"android":"levelo://app?vid=80821966-5d6d-495a-8088-0da2a094dc0f","ios":"levelo://app?vid=80821966-5d6d-495a-8088-0da2a094dc0f"},"vehicle_type_id":"4","last_reported":1742613743,"current_range_meters":17200,"station_id":"ce4bgt92rcd13ifvqcg0","pricing_plan_id":"cebpf4jnsgd1na2vs0mg"},{"bike_id":"51efc858-ceb2-498b-8fea-cb7c720e7129","system_id":"levelo_inurba_marseille","lat":43.326582,"lon":5.409929,"is_reserved":false,"is_disabled":false,"rental_uris":{"android":"levelo://app?vid=51efc858-ceb2-498b-8fea-cb7c720e7129","ios":"levelo://app?vid=51efc858-ceb2-498b-8fea-cb7c720e7129"},"vehicle_type_id":"4","last_reported":1742613743,"current_range_meters":17200,"station_id":"ce4bhpp2rcd13ifvqhgg","pricing_plan_id":"cebpf4jnsgd1na2vs0mg"},{"bike_id":"52088e19-d68b-45c5-ba39-83046f2d47b2","system_id":"levelo_inurba_marseille","lat":43.23201,"lon":5.35551,"is_reserved":false,"is_disabled":false,"rental_uris":{"android":"levelo://app?vid=52088e19-d68b-45c5-ba39-83046f2d47b2","ios":"levelo://app?vid=52088e19-d68b-45c5-ba39-83046f2d47b2"},"vehicle_type_id":"4","last_reported":1742613743,"current_range_meters":17200,"station_id":"ce4bhu92rcd13ifvqi70","pricing_plan_id":"cebpf4jnsgd1na2vs0mg"},{"bike_id":"751ff1ed-b498-4578-9bd4-943bf6c9d8eb","system_id":"levelo_inurba_marseille","lat":43.23209,"lon":5.3554,"is_reserved":false,"is_disabled":false,"rental_uris":{"android":"levelo://app?vid=751ff1ed-b498-4578-9bd4-943bf6c9d8eb","ios":"levelo://app?vid=751ff1ed-b498-4578-9bd4-943bf6c9d8eb"},"vehicle_type_id":"4","last_reported":1742613743,"current_range_meters":17200,"station_id":"ce4bhu92rcd13ifvqi70","pricing_plan_id":"cebpf4jnsgd1na2vs0mg"},{"bike_id":"558af2f2-29d8-450c-b456-abc4d4f3d262","system_id":"levelo_inurba_marseille","lat":43.305887,"lon":5.393513,"is_reserved":false,"is_disabled":false,"rental_uris":{"android":"levelo://app?vid=558af2f2-29d8-450c-b456-abc4d4f3d262","ios":"levelo://app?vid=558af2f2-29d8-450c-b456-abc4d4f3d262"},"vehicle_type_id":"4","last_reported":1742613743,"current_range_meters":17200,"station_id":"ce4bh0p2rcd13ifvqd80","pricing_plan_id":"cebpf4jnsgd1na2vs0mg"},{"bike_id":"a7c269ac-750b-4e61-a0a4-f774b818338f","system_id":"levelo_inurba_marseille","lat":43.28084,"lon":5.39662,"is_reserved":false,"is_disabled":false,"rental_uris":{"android":"levelo://app?vid=a7c269ac-750b-4e61-a0a4-f774b818338f","ios":"levelo://app?vid=a7c269ac-750b-4e61-a0a4-f774b818338f"},"vehicle_type_id":"4","last_reported":1742613743,"current_range_meters":17200,"station_id":"ce4bho12rcd13ifvqh2g","pricing_plan_id":"cebpf4jnsgd1na2vs0mg"},{"bike_id":"d954b141-3cee-4de0-9c29-d5babd11cd82","system_id":"levelo_inurba_marseille","lat":43.25097,"lon":5.3954,"is_reserved":false,"is_disabled":false,"rental_uris":{"android":"levelo://app?vid=d954b141-3cee-4de0-9c29-d5babd11cd82","ios":"levelo://app?vid=d954b141-3cee-4de0-9c29-d5babd11cd82"},"vehicle_type_id":"4","last_reported":1742613743,"current_range_meters":17200,"station_id":"ce4bhm12rcd13ifvqgkg","pricing_plan_id":"cebpf4jnsgd1na2vs0mg"},{"bike_id":"05196e82-2b3b-46d7-ab3e-37cd98e7884a","system_id":"levelo_inurba_marseille","lat":43.32653,"lon":5.41004,"is_reserved":false,"is_disabled":false,"rental_uris":{"android":"levelo://app?vid=05196e82-2b3b-46d7-ab3e-37cd98e7884a","ios":"levelo://app?vid=05196e82-2b3b-46d7-ab3e-37cd98e7884a"},"vehicle_type_id":"4","last_reported":1742613743,"current_range_meters":17600,"station_id":"ce4bhpp2rcd13ifvqhgg","pricing_plan_id":"cebpf4jnsgd1na2vs0mg"},{"bike_id":"3317fb1d-d920-470b-86a3-6d0dacf5ba5d","system_id":"levelo_inurba_marseille","lat":43.30468,"lon":5.37899,"is_reserved":false,"is_disabled":false,"rental_uris":{"android":"levelo://app?vid=3317fb1d-d920-470b-86a3-6d0dacf5ba5d","ios":"levelo://app?vid=3317fb1d-d920-470b-86a3-6d0dacf5ba5d"},"vehicle_type_id":"4","last_reported":1742613743,"current_range_meters":17600,"station_id":"ce4bgup2rcd13ifvqcn0","pricing_plan_id":"cebpf4jnsgd1na2vs0mg"},{"bike_id":"fb6cb43c-6a65-43e0-a9f5-2604dff2bc3a","system_id":"levelo_inurba_marseille","lat":43.23192,"lon":5.35546,"is_reserved":false,"is_disabled":false,"rental_uris":{"android":"levelo://app?vid=fb6cb43c-6a65-43e0-a9f5-2604dff2bc3a","ios":"levelo://app?vid=fb6cb43c-6a65-43e0-a9f5-2604dff2bc3a"},"vehicle_type_id":"4","last_reported":1742613743,"current_range_meters":17600,"station_id":"ce4bhu92rcd13ifvqi70","pricing_plan_id":"cebpf4jnsgd1na2vs0mg"},{"bike_id":"49e49842-3d35-441a-9749-e7aef3addb62","system_id":"levelo_inurba_marseille","lat":43.310821,"lon":5.383526,"is_reserved":false,"is_disabled":false,"rental_uris":{"android":"levelo://app?vid=49e49842-3d35-441a-9749-e7aef3addb62","ios":"levelo://app?vid=49e49842-3d35-441a-9749-e7aef3addb62"},"vehicle_type_id":"4","last_reported":1742613743,"current_range_meters":17600,"station_id":"ce4bgv92rcd13ifvqcr0","pricing_plan_id":"cebpf4jnsgd1na2vs0mg"},{"bike_id":"07541760-82c4-4d38-b58c-85ffff07e965","system_id":"levelo_inurba_marseille","lat":43.23963,"lon":5.3662,"is_reserved":false,"is_disabled":false,"rental_uris":{"android":"levelo://app?vid=07541760-82c4-4d38-b58c-85ffff07e965","ios":"levelo://app?vid=07541760-82c4-4d38-b58c-85ffff07e965"},"vehicle_type_id":"4","last_reported":1742613743,"current_range_meters":17600,"station_id":"ce4bhi12rcd13ifvqfp0","pricing_plan_id":"cebpf4jnsgd1na2vs0mg"},{"bike_id":"3c09e4d7-7270-409a-85c9-9f040663ba57","system_id":"levelo_inurba_marseille","lat":43.298079,"lon":5.404028,"is_reserved":false,"is_disabled":false,"rental_uris":{"android":"levelo://app?vid=3c09e4d7-7270-409a-85c9-9f040663ba57","ios":"levelo://app?vid=3c09e4d7-7270-409a-85c9-9f040663ba57"},"vehicle_type_id":"4","last_reported":1742613743,"current_range_meters":17600,"station_id":"ce4bh112rcd13ifvqd90","pricing_plan_id":"cebpf4jnsgd1na2vs0mg"},{"bike_id":"d731a000-e168-4d14-b7cb-da9a81f0b95f","system_id":"levelo_inurba_marseille","lat":43.2318,"lon":5.35563,"is_reserved":false,"is_disabled":false,"rental_uris":{"android":"levelo://app?vid=d731a000-e168-4d14-b7cb-da9a81f0b95f","ios":"levelo://app?vid=d731a000-e168-4d14-b7cb-da9a81f0b95f"},"vehicle_type_id":"4","last_reported":1742613743,"current_range_meters":18000,"station_id":"ce4bhu92rcd13ifvqi70","pricing_plan_id":"cebpf4jnsgd1na2vs0mg"},{"bike_id":"119746cd-ba8d-4fce-9b20-0d0739912945","system_id":"levelo_inurba_marseille","lat":43.3169,"lon":5.40482,"is_reserved":false,"is_disabled":false,"rental_uris":{"android":"levelo://app?vid=119746cd-ba8d-4fce-9b20-0d0739912945","ios":"levelo://app?vid=119746cd-ba8d-4fce-9b20-0d0739912945"},"vehicle_type_id":"4","last_reported":1742613743,"current_range_meters":18000,"station_id":"ce4bh012rcd13ifvqd00","pricing_plan_id":"cebpf4jnsgd1na2vs0mg"},{"bike_id":"59c2a742-4ef0-462a-ad11-4cfc56700ee0","system_id":"levelo_inurba_marseille","lat":43.310715,"lon":5.38344,"is_reserved":false,"is_disabled":false,"rental_uris":{"android":"levelo://app?vid=59c2a742-4ef0-462a-ad11-4cfc56700ee0","ios":"levelo://app?vid=59c2a742-4ef0-462a-ad11-4cfc56700ee0"},"vehicle_type_id":"4","last_reported":1742613743,"current_range_meters":18000,"station_id":"ce4bgv92rcd13ifvqcr0","pricing_plan_id":"cebpf4jnsgd1na2vs0mg"},{"bike_id":"7ca5bdbf-502f-4986-bc8a-2010eae5e699","system_id":"levelo_inurba_marseille","lat":43.24968,"lon":5.38965,"is_reserved":false,"is_disabled":false,"rental_uris":{"android":"levelo://app?vid=7ca5bdbf-502f-4986-bc8a-2010eae5e699","ios":"levelo://app?vid=7ca5bdbf-502f-4986-bc8a-2010eae5e699"},"vehicle_type_id":"4","last_reported":1742613743,"current_range_meters":18000,"station_id":"","pricing_plan_id":"cebpf4jnsgd1na2vs0mg"},{"bike_id":"282d62b1-9143-4a00-8c35-8633be90e79d","system_id":"levelo_inurba_marseille","lat":43.27998,"lon":5.4002,"is_reserved":false,"is_disabled":false,"rental_uris":{"android":"levelo://app?vid=282d62b1-9143-4a00-8c35-8633be90e79d","ios":"levelo://app?vid=282d62b1-9143-4a00-8c35-8633be90e79d"},"vehicle_type_id":"4","last_reported":1742613743,"current_range_meters":18000,"station_id":"ce4bho92rcd13ifvqh4g","pricing_plan_id":"cebpf4jnsgd1na2vs0mg"},{"bike_id":"45ecd364-66b9-420e-ba2e-73f5d61b1ecb","system_id":"levelo_inurba_marseille","lat":43.2813,"lon":5.37983,"is_reserved":false,"is_disabled":false,"rental_uris":{"android":"levelo://app?vid=45ecd364-66b9-420e-ba2e-73f5d61b1ecb","ios":"levelo://app?vid=45ecd364-66b9-420e-ba2e-73f5d61b1ecb"},"vehicle_type_id":"4","last_reported":1742613743,"current_range_meters":18000,"station_id":"","pricing_plan_id":"cebpf4jnsgd1na2vs0mg"},{"bike_id":"1fee47b5-fab4-4ec1-a11f-e919827cdddc","system_id":"levelo_inurba_marseille","lat":43.32363,"lon":5.36741,"is_reserved":false,"is_disabled":false,"rental_uris":{"android":"levelo://app?vid=1fee47b5-fab4-4ec1-a11f-e919827cdddc","ios":"levelo://app?vid=1fee47b5-fab4-4ec1-a11f-e919827cdddc"},"vehicle_type_id":"4","last_reported":1742613743,"current_range_meters":18000,"station_id":"ce4bhsh2rcd13ifvqi2g","pricing_plan_id":"cebpf4jnsgd1na2vs0mg"},{"bike_id":"350d7781-e226-43ea-835e-a85f895c6ad6","system_id":"levelo_inurba_marseille","lat":43.28031,"lon":5.36942,"is_reserved":false,"is_disabled":false,"rental_uris":{"android":"levelo://app?vid=350d7781-e226-43ea-835e-a85f895c6ad6","ios":"levelo://app?vid=350d7781-e226-43ea-835e-a85f895c6ad6"},"vehicle_type_id":"4","last_reported":1742613743,"current_range_meters":18000,"station_id":"ce4bha12rcd13ifvqef0","pricing_plan_id":"cebpf4jnsgd1na2vs0mg"},{"bike_id":"bb07aafb-b17f-4baa-b109-1a38523b383a","system_id":"levelo_inurba_marseille","lat":43.23965,"lon":5.36627,"is_reserved":false,"is_disabled":false,"rental_uris":{"android":"levelo://app?vid=bb07aafb-b17f-4baa-b109-1a38523b383a","ios":"levelo://app?vid=bb07aafb-b17f-4baa-b109-1a38523b383a"},"vehicle_type_id":"4","last_reported":1742613743,"current_range_meters":18000,"station_id":"ce4bhi12rcd13ifvqfp0","pricing_plan_id":"cebpf4jnsgd1na2vs0mg"},{"bike_id":"31fe552e-0bc5-4a84-8ad9-3e84eee8821f","system_id":"levelo_inurba_marseille","lat":43.323605,"lon":5.367563,"is_reserved":false,"is_disabled":false,"rental_uris":{"android":"levelo://app?vid=31fe552e-0bc5-4a84-8ad9-3e84eee8821f","ios":"levelo://app?vid=31fe552e-0bc5-4a84-8ad9-3e84eee8821f"},"vehicle_type_id":"4","last_reported":1742613743,"current_range_meters":18000,"station_id":"ce4bhsh2rcd13ifvqi2g","pricing_plan_id":"cebpf4jnsgd1na2vs0mg"},{"bike_id":"73d0df3f-a43c-4b13-bb0c-91b52e8f309b","system_id":"levelo_inurba_marseille","lat":43.29907,"lon":5.37456,"is_reserved":false,"is_disabled":false,"rental_uris":{"android":"levelo://app?vid=73d0df3f-a43c-4b13-bb0c-91b52e8f309b","ios":"levelo://app?vid=73d0df3f-a43c-4b13-bb0c-91b52e8f309b"},"vehicle_type_id":"4","last_reported":1742613743,"current_range_meters":18000,"station_id":"ce4bgjh2rcd13ifvqbg0","pricing_plan_id":"cebpf4jnsgd1na2vs0mg"},{"bike_id":"f5e67df2-634b-4b3a-b33a-d1730d5d5b54","system_id":"levelo_inurba_marseille","lat":43.33736,"lon":5.39181,"is_reserved":false,"is_disabled":false,"rental_uris":{"android":"levelo://app?vid=f5e67df2-634b-4b3a-b33a-d1730d5d5b54","ios":"levelo://app?vid=f5e67df2-634b-4b3a-b33a-d1730d5d5b54"},"vehicle_type_id":"4","last_reported":1742613743,"current_range_meters":18000,"station_id":"ce4bhr92rcd13ifvqhsg","pricing_plan_id":"cebpf4jnsgd1na2vs0mg"},{"bike_id":"f8ff41b7-94c3-4164-990c-0c31908da696","system_id":"levelo_inurba_marseille","lat":43.23056,"lon":5.35486,"is_reserved":false,"is_disabled":false,"rental_uris":{"android":"levelo://app?vid=f8ff41b7-94c3-4164-990c-0c31908da696","ios":"levelo://app?vid=f8ff41b7-94c3-4164-990c-0c31908da696"},"vehicle_type_id":"4","last_reported":1742613743,"current_range_meters":18000,"station_id":"cpo3342slgdg3j2ifvpg","pricing_plan_id":"cebpf4jnsgd1na2vs0mg"},{"bike_id":"7acd2d17-0b93-4578-b8b7-3ab0540e9541","system_id":"levelo_inurba_marseille","lat":43.28422,"lon":5.3498,"is_reserved":false,"is_disabled":false,"rental_uris":{"android":"levelo://app?vid=7acd2d17-0b93-4578-b8b7-3ab0540e9541","ios":"levelo://app?vid=7acd2d17-0b93-4578-b8b7-3ab0540e9541"},"vehicle_type_id":"4","last_reported":1742613743,"current_range_meters":18800,"station_id":"ce4bhbh2rcd13ifvqepg","pricing_plan_id":"cebpf4jnsgd1na2vs0mg"},{"bike_id":"c9ee1970-ab6e-4ee9-81df-65a9160325a6","system_id":"levelo_inurba_marseille","lat":43.30651,"lon":5.40069,"is_reserved":false,"is_disabled":false,"rental_uris":{"android":"levelo://app?vid=c9ee1970-ab6e-4ee9-81df-65a9160325a6","ios":"levelo://app?vid=c9ee1970-ab6e-4ee9-81df-65a9160325a6"},"vehicle_type_id":"4","last_reported":1742613743,"current_range_meters":18800,"station_id":"ce4bh112rcd13ifvqda0","pricing_plan_id":"cebpf4jnsgd1na2vs0mg"},{"bike_id":"5f057e05-88ef-43f2-a315-beafe07070d0","system_id":"levelo_inurba_marseille","lat":43.2319,"lon":5.3998,"is_reserved":false,"is_disabled":false,"rental_uris":{"android":"levelo://app?vid=5f057e05-88ef-43f2-a315-beafe07070d0","ios":"levelo://app?vid=5f057e05-88ef-43f2-a315-beafe07070d0"},"vehicle_type_id":"4","last_reported":1742613743,"current_range_meters":18800,"station_id":"ce4bhn12rcd13ifvqgqg","pricing_plan_id":"cebpf4jnsgd1na2vs0mg"},{"bike_id":"52c5b042-3526-43cc-8ccb-6e42834d11a9","system_id":"levelo_inurba_marseille","lat":43.30272,"lon":5.37737,"is_reserved":false,"is_disabled":false,"rental_uris":{"android":"levelo://app?vid=52c5b042-3526-43cc-8ccb-6e42834d11a9","ios":"levelo://app?vid=52c5b042-3526-43cc-8ccb-6e42834d11a9"},"vehicle_type_id":"4","last_reported":1742613743,"current_range_meters":18800,"station_id":"ce4bguh2rcd13ifvqcj0","pricing_plan_id":"cebpf4jnsgd1na2vs0mg"},{"bike_id":"9a7ec10b-1f1c-4bbb-967e-f05c8541ba06","system_id":"levelo_inurba_marseille","lat":43.250111,"lon":5.389274,"is_reserved":false,"is_disabled":false,"rental_uris":{"android":"levelo://app?vid=9a7ec10b-1f1c-4bbb-967e-f05c8541ba06","ios":"levelo://app?vid=9a7ec10b-1f1c-4bbb-967e-f05c8541ba06"},"vehicle_type_id":"4","last_reported":1742613743,"current_range_meters":18800,"station_id":"ce4bhgp2rcd13ifvqfd0","pricing_plan_id":"cebpf4jnsgd1na2vs0mg"},{"bike_id":"5d4cc92c-eafe-478c-8820-ef016b1e9d02","system_id":"levelo_inurba_marseille","lat":43.29894,"lon":5.43646,"is_reserved":false,"is_disabled":false,"rental_uris":{"android":"levelo://app?vid=5d4cc92c-eafe-478c-8820-ef016b1e9d02","ios":"levelo://app?vid=5d4cc92c-eafe-478c-8820-ef016b1e9d02"},"vehicle_type_id":"4","last_reported":1742613743,"current_range_meters":18800,"station_id":"ce4bhpp2rcd13ifvqhfg","pricing_plan_id":"cebpf4jnsgd1na2vs0mg"},{"bike_id":"f49862f9-af23-4ed6-92be-c6db642be6a4","system_id":"levelo_inurba_marseille","lat":43.245425,"lon":5.395128,"is_reserved":false,"is_disabled":false,"rental_uris":{"android":"levelo://app?vid=f49862f9-af23-4ed6-92be-c6db642be6a4","ios":"levelo://app?vid=f49862f9-af23-4ed6-92be-c6db642be6a4"},"vehicle_type_id":"4","last_reported":1742613743,"current_range_meters":18800,"station_id":"ce4bhlp2rcd13ifvqgjg","pricing_plan_id":"cebpf4jnsgd1na2vs0mg"},{"bike_id":"953e2647-8119-4344-8e9b-4559e661859a","system_id":"levelo_inurba_marseille","lat":43.232,"lon":5.35551,"is_reserved":false,"is_disabled":false,"rental_uris":{"android":"levelo://app?vid=953e2647-8119-4344-8e9b-4559e661859a","ios":"levelo://app?vid=953e2647-8119-4344-8e9b-4559e661859a"},"vehicle_type_id":"4","last_reported":1742613743,"current_range_meters":18800,"station_id":"ce4bhu92rcd13ifvqi70","pricing_plan_id":"cebpf4jnsgd1na2vs0mg"},{"bike_id":"f657da43-9a05-4822-9c77-ad8671579423","system_id":"levelo_inurba_marseille","lat":43.295663,"lon":5.399627,"is_reserved":false,"is_disabled":true,"rental_uris":{"android":"levelo://app?vid=f657da43-9a05-4822-9c77-ad8671579423","ios":"levelo://app?vid=f657da43-9a05-4822-9c77-ad8671579423"},"vehicle_type_id":"4","last_reported":1742613743,"current_range_meters":18800,"station_id":"ce4bh312rcd13ifvqdj0","pricing_plan_id":"cebpf4jnsgd1na2vs0mg"},{"bike_id":"e7f36315-33b7-4281-a35b-834987bb0230","system_id":"levelo_inurba_marseille","lat":43.295792,"lon":5.375015,"is_reserved":false,"is_disabled":true,"rental_uris":{"android":"levelo://app?vid=e7f36315-33b7-4281-a35b-834987bb0230","ios":"levelo://app?vid=e7f36315-33b7-4281-a35b-834987bb0230"},"vehicle_type_id":"4","last_reported":1742613743,"current_range_meters":18800,"station_id":"ce4bgh92rcd13ifvqb50","pricing_plan_id":"cebpf4jnsgd1na2vs0mg"},{"bike_id":"1e540c4a-2193-4631-994f-bc20bcc6f11e","system_id":"levelo_inurba_marseille","lat":43.30642,"lon":5.40073,"is_reserved":false,"is_disabled":false,"rental_uris":{"android":"levelo://app?vid=1e540c4a-2193-4631-994f-bc20bcc6f11e","ios":"levelo://app?vid=1e540c4a-2193-4631-994f-bc20bcc6f11e"},"vehicle_type_id":"4","last_reported":1742613743,"current_range_meters":18800,"station_id":"ce4bh112rcd13ifvqda0","pricing_plan_id":"cebpf4jnsgd1na2vs0mg"},{"bike_id":"09cbdea7-cab2-4bb7-84af-1aa2a3d0c176","system_id":"levelo_inurba_marseille","lat":43.23183,"lon":5.39998,"is_reserved":false,"is_disabled":false,"rental_uris":{"android":"levelo://app?vid=09cbdea7-cab2-4bb7-84af-1aa2a3d0c176","ios":"levelo://app?vid=09cbdea7-cab2-4bb7-84af-1aa2a3d0c176"},"vehicle_type_id":"4","last_reported":1742613743,"current_range_meters":19200,"station_id":"ce4bhn12rcd13ifvqgqg","pricing_plan_id":"cebpf4jnsgd1na2vs0mg"},{"bike_id":"8dbdd7b6-8761-4c1e-abe9-41bde91f29d0","system_id":"levelo_inurba_marseille","lat":43.23149,"lon":5.43713,"is_reserved":false,"is_disabled":false,"rental_uris":{"android":"levelo://app?vid=8dbdd7b6-8761-4c1e-abe9-41bde91f29d0","ios":"levelo://app?vid=8dbdd7b6-8761-4c1e-abe9-41bde91f29d0"},"vehicle_type_id":"4","last_reported":1742613743,"current_range_meters":19200,"station_id":"ce4bhmp2rcd13ifvqgog","pricing_plan_id":"cebpf4jnsgd1na2vs0mg"},{"bike_id":"2b0d9b0a-1137-4a21-ac3b-2deedfc5a26a","system_id":"levelo_inurba_marseille","lat":43.307877,"lon":5.376513,"is_reserved":false,"is_disabled":false,"rental_uris":{"android":"levelo://app?vid=2b0d9b0a-1137-4a21-ac3b-2deedfc5a26a","ios":"levelo://app?vid=2b0d9b0a-1137-4a21-ac3b-2deedfc5a26a"},"vehicle_type_id":"4","last_reported":1742613743,"current_range_meters":19200,"station_id":"ce4bgv92rcd13ifvqcq0","pricing_plan_id":"cebpf4jnsgd1na2vs0mg"},{"bike_id":"185fbe3b-beec-4e8d-a0fb-f3a643549f5b","system_id":"levelo_inurba_marseille","lat":43.31666,"lon":5.37205,"is_reserved":false,"is_disabled":false,"rental_uris":{"android":"levelo://app?vid=185fbe3b-beec-4e8d-a0fb-f3a643549f5b","ios":"levelo://app?vid=185fbe3b-beec-4e8d-a0fb-f3a643549f5b"},"vehicle_type_id":"4","last_reported":1742613743,"current_range_meters":19200,"station_id":"","pricing_plan_id":"cebpf4jnsgd1na2vs0mg"},{"bike_id":"cd897869-d51d-467c-9826-c044773d3f8c","system_id":"levelo_inurba_marseille","lat":43.241719,"lon":5.363985,"is_reserved":false,"is_disabled":false,"rental_uris":{"android":"levelo://app?vid=cd897869-d51d-467c-9826-c044773d3f8c","ios":"levelo://app?vid=cd897869-d51d-467c-9826-c044773d3f8c"},"vehicle_type_id":"4","last_reported":1742613743,"current_range_meters":19200,"station_id":"cpo36qri1sfpv3e86is0","pricing_plan_id":"cebpf4jnsgd1na2vs0mg"},{"bike_id":"62181547-09cf-4e87-9b5a-2766056aee54","system_id":"levelo_inurba_marseille","lat":43.29711,"lon":5.36595,"is_reserved":false,"is_disabled":false,"rental_uris":{"android":"levelo://app?vid=62181547-09cf-4e87-9b5a-2766056aee54","ios":"levelo://app?vid=62181547-09cf-4e87-9b5a-2766056aee54"},"vehicle_type_id":"4","last_reported":1742613743,"current_range_meters":19200,"station_id":"ce4bgn12rcd13ifvqbt0","pricing_plan_id":"cebpf4jnsgd1na2vs0mg"},{"bike_id":"80560432-b1f9-4aa1-9e85-24e5e97be2e1","system_id":"levelo_inurba_marseille","lat":43.23179,"lon":5.39993,"is_reserved":false,"is_disabled":false,"rental_uris":{"android":"levelo://app?vid=80560432-b1f9-4aa1-9e85-24e5e97be2e1","ios":"levelo://app?vid=80560432-b1f9-4aa1-9e85-24e5e97be2e1"},"vehicle_type_id":"4","last_reported":1742613743,"current_range_meters":19200,"station_id":"ce4bhn12rcd13ifvqgqg","pricing_plan_id":"cebpf4jnsgd1na2vs0mg"},{"bike_id":"b0a5658e-5fd2-420a-baa8-2d7bfd0cc728","system_id":"levelo_inurba_marseille","lat":43.31086,"lon":5.3835,"is_reserved":false,"is_disabled":false,"rental_uris":{"android":"levelo://app?vid=b0a5658e-5fd2-420a-baa8-2d7bfd0cc728","ios":"levelo://app?vid=b0a5658e-5fd2-420a-baa8-2d7bfd0cc728"},"vehicle_type_id":"4","last_reported":1742613743,"current_range_meters":19200,"station_id":"ce4bgv92rcd13ifvqcr0","pricing_plan_id":"cebpf4jnsgd1na2vs0mg"},{"bike_id":"086947d9-1406-4ff3-8ff7-66dc965df2cf","system_id":"levelo_inurba_marseille","lat":43.27612,"lon":5.36114,"is_reserved":false,"is_disabled":false,"rental_uris":{"android":"levelo://app?vid=086947d9-1406-4ff3-8ff7-66dc965df2cf","ios":"levelo://app?vid=086947d9-1406-4ff3-8ff7-66dc965df2cf"},"vehicle_type_id":"4","last_reported":1742613743,"current_range_meters":19200,"station_id":"ce4bgj92rcd13ifvqbe0","pricing_plan_id":"cebpf4jnsgd1na2vs0mg"},{"bike_id":"ae5b888c-0af6-46cf-8f1a-b27a3e176d0a","system_id":"levelo_inurba_marseille","lat":43.30144,"lon":5.38131,"is_reserved":false,"is_disabled":true,"rental_uris":{"android":"levelo://app?vid=ae5b888c-0af6-46cf-8f1a-b27a3e176d0a","ios":"levelo://app?vid=ae5b888c-0af6-46cf-8f1a-b27a3e176d0a"},"vehicle_type_id":"4","last_reported":1742613743,"current_range_meters":19600,"station_id":"ce4bgjp2rcd13ifvqbh0","pricing_plan_id":"cebpf4jnsgd1na2vs0mg"},{"bike_id":"af4ac254-84be-449b-b27e-4453740a0ba2","system_id":"levelo_inurba_marseille","lat":43.31076,"lon":5.38347,"is_reserved":false,"is_disabled":false,"rental_uris":{"android":"levelo://app?vid=af4ac254-84be-449b-b27e-4453740a0ba2","ios":"levelo://app?vid=af4ac254-84be-449b-b27e-4453740a0ba2"},"vehicle_type_id":"4","last_reported":1742613743,"current_range_meters":19600,"station_id":"ce4bgv92rcd13ifvqcr0","pricing_plan_id":"cebpf4jnsgd1na2vs0mg"},{"bike_id":"e6ffb03c-0cff-43d6-a2aa-1ba5b3b03585","system_id":"levelo_inurba_marseille","lat":43.3081,"lon":5.38157,"is_reserved":false,"is_disabled":false,"rental_uris":{"android":"levelo://app?vid=e6ffb03c-0cff-43d6-a2aa-1ba5b3b03585","ios":"levelo://app?vid=e6ffb03c-0cff-43d6-a2aa-1ba5b3b03585"},"vehicle_type_id":"4","last_reported":1742613743,"current_range_meters":19600,"station_id":"ce4bgt12rcd13ifvqce0","pricing_plan_id":"cebpf4jnsgd1na2vs0mg"},{"bike_id":"f52cf454-cca3-4fee-b7fa-7134e7a44747","system_id":"levelo_inurba_marseille","lat":43.23208,"lon":5.35538,"is_reserved":false,"is_disabled":false,"rental_uris":{"android":"levelo://app?vid=f52cf454-cca3-4fee-b7fa-7134e7a44747","ios":"levelo://app?vid=f52cf454-cca3-4fee-b7fa-7134e7a44747"},"vehicle_type_id":"4","last_reported":1742613743,"current_range_meters":19600,"station_id":"ce4bhu92rcd13ifvqi70","pricing_plan_id":"cebpf4jnsgd1na2vs0mg"},{"bike_id":"d491676d-18a3-4779-9af8-f9c1a5167b19","system_id":"levelo_inurba_marseille","lat":43.2871,"lon":5.39974,"is_reserved":false,"is_disabled":false,"rental_uris":{"android":"levelo://app?vid=d491676d-18a3-4779-9af8-f9c1a5167b19","ios":"levelo://app?vid=d491676d-18a3-4779-9af8-f9c1a5167b19"},"vehicle_type_id":"4","last_reported":1742613743,"current_range_meters":19600,"station_id":"ce4bho92rcd13ifvqh3g","pricing_plan_id":"cebpf4jnsgd1na2vs0mg"},{"bike_id":"3bfbd693-4245-4281-88bd-3df0f5f2b072","system_id":"levelo_inurba_marseille","lat":43.241685,"lon":5.36398,"is_reserved":false,"is_disabled":false,"rental_uris":{"android":"levelo://app?vid=3bfbd693-4245-4281-88bd-3df0f5f2b072","ios":"levelo://app?vid=3bfbd693-4245-4281-88bd-3df0f5f2b072"},"vehicle_type_id":"4","last_reported":1742613743,"current_range_meters":19600,"station_id":"cpo36qri1sfpv3e86is0","pricing_plan_id":"cebpf4jnsgd1na2vs0mg"},{"bike_id":"0b1dc631-c9e7-4faf-bb69-8f994665189e","system_id":"levelo_inurba_marseille","lat":43.25834,"lon":5.39435,"is_reserved":false,"is_disabled":false,"rental_uris":{"android":"levelo://app?vid=0b1dc631-c9e7-4faf-bb69-8f994665189e","ios":"levelo://app?vid=0b1dc631-c9e7-4faf-bb69-8f994665189e"},"vehicle_type_id":"4","last_reported":1742613743,"current_range_meters":19600,"station_id":"ce4bhip2rcd13ifvqft0","pricing_plan_id":"cebpf4jnsgd1na2vs0mg"},