{"last_updated":1691561345,"ttl":30,"version":"2.2","data":{"bikes":[{"bike_id":"03348f95-094b-4f0d-9a61-719d2fdedb64","system_id":"levelo_inurba_marseille","lat":43.313391,"lon":5.36706,"is_reserved":false,"is_disabled":false,"rental_uris":{"android":"levelo://app?vid=03348f95-094b-4f0d-9a61-719d2fdedb64","ios":"levelo://app?vid=03348f95-094b-4f0d-9a61-719d2fdedb64"},"vehicle_type_id":"4","last_reported":1691561345,"current_range_meters":23600,"station_id":"ce4bgr92rcd13ifvqc6g","pricing_plan_id":"free"},{"bike_id":"53ee2073-1ac1-49cd-8634-eda60b87cace","system_id":"levelo_inurba_marseille","lat":43.313391,"lon":5.36706,"is_reserved":false,"is_disabled":false,"rental_uris":{"android":"levelo://app?vid=53ee2073-1ac1-49cd-8634-eda60b87cace","ios":"levelo://app?vid=53ee2073-1ac1-49cd-8634-eda60b87cace"},"vehicle_type_id":"4","last_reported":1691561345,"current_range_meters":31200,"station_id":"ce4bgr92rcd13ifvqc6g","pricing_plan_id":"free"},{"bike_id":"921a07fe-2833-4cce-ba9c-421534341cfa","system_id":"levelo_inurba_marseille","lat":43.31341,"lon":5.367098,"is_reserved":false,"is_disabled":false,"rental_uris":{"android":"levelo://app?vid=921a07fe-2833-4cce-ba9c-421534341cfa","ios":"levelo://app?vid=921a07fe-2833-4cce-ba9c-421534341cfa"},"vehicle_type_id":"4","last_reported":1691561345,"current_range_meters":28400,"station_id":"ce4bgr92rcd13ifvqc6g","pricing_plan_id":"free"},{"bike_id":"8fc94b28-6a02-4166-a633-612c4d8849b5","system_id":"levelo_inurba_marseille","lat":43.31341,"lon":5.367098,"is_reserved":false,"is_disabled":false,"rental_uris":{"android":"levelo://app?vid=8fc94b28-6a02-4166-a633-612c4d8849b5","ios":"levelo://app?vid=8fc94b28-6a02-4166-a633-612c4d8849b5"},"vehicle_type_id":"4","last_reported":1691561345,"current_range_meters":30400,"station_id":"ce4bgr92rcd13ifvqc6g","pricing_plan_id":"free"},{"bike_id":"026440e6-4830-42ac-9806-0ad01e5f69d9","system_id":"levelo_inurba_marseille","lat":43.31341,"lon":5.367098,"is_reserved":false,"is_disabled":false,"rental_uris":{"android":"levelo://app?vid=026440e6-4830-42ac-9806-0ad01e5f69d9","ios":"levelo://app?vid=026440e6-4830-42ac-9806-0ad01e5f69d9"},"vehicle_type_id":"4","last_reported":1691561345,"current_range_meters":31200,"station_id":"ce4bgr92rcd13ifvqc6g","pricing_plan_id":"free"},{"bike_id":"12e586b8-53e9-4af0-a07f-c140b75b1f9b","system_id":"levelo_inurba_marseille","lat":43.31341,"lon":5.367098,"is_reserved":false,"is_disabled":false,"rental_uris":{"android":"levelo://app?vid=12e586b8-53e9-4af0-a07f-c140b75b1f9b","ios":"levelo://app?vid=12e586b8-53e9-4af0-a07f-c140b75b1f9b"},"vehicle_type_id":"4","last_reported":1691561345,"current_range_meters":8000,"station_id":"ce4bgr92rcd13ifvqc6g","pricing_plan_id":"free"},{"bike_id":"d868dd62-326e-4cc2-827f-7b45ed54e27e","system_id":"levelo_inurba_marseille","lat":43.31341,"lon":5.367098,"is_reserved":false,"is_disabled":false,"rental_uris":{"android":"levelo://app?vid=d868dd62-326e-4cc2-827f-7b45ed54e27e","ios":"levelo://app?vid=d868dd62-326e-4cc2-827f-7b45ed54e27e"},"vehicle_type_id":"4","last_reported":1691561345,"current_range_meters":10400,"station_id":"ce4bgr92rcd13ifvqc6g","pricing_plan_id":"free"},{"bike_id":"a0df643c-f5f0-45e5-8579-755401df5e60","system_id":"levelo_inurba_marseille","lat":43.313391,"lon":5.36706,"is_reserved":false,"is_disabled":false,"rental_uris":{"android":"levelo://app?vid=a0df643c-f5f0-45e5-8579-755401df5e60","ios":"levelo://app?vid=a0df643c-f5f0-45e5-8579-755401df5e60"},"vehicle_type_id":"4","last_reported":1691561345,"current_range_meters":31200,"station_id":"ce4bgr92rcd13ifvqc6g","pricing_plan_id":"free"},{"bike_id":"3cd8374d-4366-4c4a-833e-d87217864c4d","system_id":"levelo_inurba_marseille","lat":43.313391,"lon":5.36706,"is_reserved":false,"is_disabled":false,"rental_uris":{"android":"levelo://app?vid=3cd8374d-4366-4c4a-833e-d87217864c4d","ios":"levelo://app?vid=3cd8374d-4366-4c4a-833e-d87217864c4d"},"vehicle_type_id":"4","last_reported":1691561345,"current_range_meters":27200,"station_id":"ce4bgr92rcd13ifvqc6g","pricing_plan_id":"free"},{"bike_id":"5f8177e7-33e8-4b9c-a4b2-e55a6a6095de","system_id":"levelo_inurba_marseille","lat":43.31341,"lon":5.367098,"is_reserved":false,"is_disabled":false,"rental_uris":{"android":"levelo://app?vid=5f8177e7-33e8-4b9c-a4b2-e55a6a6095de","ios":"levelo://app?vid=5f8177e7-33e8-4b9c-a4b2-e55a6a6095de"},"vehicle_type_id":"4","last_reported":1691561345,"current_range_meters":31200,"station_id":"ce4bgr92rcd13ifvqc6g","pricing_plan_id":"free"},{"bike_id":"d3b7f3bb-6c44-47ba-987b-c3dd98fa9b47","system_id":"levelo_inurba_marseille","lat":43.31341,"lon":5.367098,"is_reserved":false,"is_disabled":false,"rental_uris":{"android":"levelo://app?vid=d3b7f3bb-6c44-47ba-987b-c3dd98fa9b47","ios":"levelo://app?vid=d3b7f3bb-6c44-47ba-987b-c3dd98fa9b47"},"vehicle_type_id":"4","last_reported":1691561345,"current_range_meters":26400,"station_id":"ce4bgr92rcd13ifvqc6g","pricing_plan_id":"free"},{"bike_id":"04381479-df53-4f78-a8e8-70eb84bf8c24","system_id":"levelo_inurba_marseille","lat":43.313391,"lon":5.36706,"is_reserved":false,"is_disabled":false,"rental_uris":{"android":"levelo://app?vid=04381479-df53-4f78-a8e8-70eb84bf8c24","ios":"levelo://app?vid=04381479-df53-4f78-a8e8-70eb84bf8c24"},"vehicle_type_id":"4","last_reported":1691561345,"current_range_meters":13200,"station_id":"ce4bgr92rcd13ifvqc6g","pricing_plan_id":"free"},{"bike_id":"4fb65e77-41c2-4f96-80bb-bf33cd8beecd","system_id":"levelo_inurba_marseille","lat":43.31341,"lon":5.367098,"is_reserved":false,"is_disabled":false,"rental_uris":{"android":"levelo://app?vid=4fb65e77-41c2-4f96-80bb-bf33cd8beecd","ios":"levelo://app?vid=4fb65e77-41c2-4f96-80bb-bf33cd8beecd"},"vehicle_type_id":"4","last_reported":1691561345,"current_range_meters":26000,"station_id":"ce4bgr92rcd13ifvqc6g","pricing_plan_id":"free"},{"bike_id":"4df9a07f-7e19-47c3-b9d5-ca6c955468ce","system_id":"levelo_inurba_marseille","lat":43.31341,"lon":5.367098,"is_reserved":false,"is_disabled":false,"rental_uris":{"android":"levelo://app?vid=4df9a07f-7e19-47c3-b9d5-ca6c955468ce","ios":"levelo://app?vid=4df9a07f-7e19-47c3-b9d5-ca6c955468ce"},"vehicle_type_id":"4","last_reported":1691561345,"current_range_meters":30400,"station_id":"ce4bgr92rcd13ifvqc6g","pricing_plan_id":"free"},{"bike_id":"3af50383-0d2b-468e-bb50-ea19e0d7b7ba","system_id":"levelo_inurba_marseille","lat":43.313391,"lon":5.36706,"is_reserved":false,"is_disabled":false,"rental_uris":{"android":"levelo://app?vid=3af50383-0d2b-468e-bb50-ea19e0d7b7ba","ios":"levelo://app?vid=3af50383-0d2b-468e-bb50-ea19e0d7b7ba"},"vehicle_type_id":"4","last_reported":1691561345,"current_range_meters":18000,"station_id":"ce4bgr92rcd13ifvqc6g","pricing_plan_id":"free"},{"bike_id":"0cc6e118-b2c7-4825-b79b-a49ec2017c13","system_id":"levelo_inurba_marseille","lat":43.31214,"lon":5.36836,"is_reserved":false,"is_disabled":false,"rental_uris":{"android":"levelo://app?vid=0cc6e118-b2c7-4825-b79b-a49ec2017c13","ios":"levelo://app?vid=0cc6e118-b2c7-4825-b79b-a49ec2017c13"},"vehicle_type_id":"4","last_reported":1691561345,"current_range_meters":27200,"station_id":"ce4bgl92rcd13ifvqbq0","pricing_plan_id":"free"},{"bike_id":"4a5d1f2d-33e7-49f9-b9e6-b2b85267e96e","system_id":"levelo_inurba_marseille","lat":43.312239,"lon":5.368562,"is_reserved":false,"is_disabled":false,"rental_uris":{"android":"levelo://app?vid=4a5d1f2d-33e7-49f9-b9e6-b2b85267e96e","ios":"levelo://app?vid=4a5d1f2d-33e7-49f9-b9e6-b2b85267e96e"},"vehicle_type_id":"4","last_reported":1691561345,"current_range_meters":5600,"station_id":"ce4bgl92rcd13ifvqbq0","pricing_plan_id":"free"},{"bike_id":"6c0bade0-438f-4e4e-8c65-08b9b00e0b11","system_id":"levelo_inurba_marseille","lat":43.312239,"lon":5.368562,"is_reserved":false,"is_disabled":false,"rental_uris":{"android":"levelo://app?vid=6c0bade0-438f-4e4e-8c65-08b9b00e0b11","ios":"levelo://app?vid=6c0bade0-438f-4e4e-8c65-08b9b00e0b11"},"vehicle_type_id":"4","last_reported":1691561345,"current_range_meters":24400,"station_id":"ce4bgl92rcd13ifvqbq0","pricing_plan_id":"free"},{"bike_id":"d70dab7d-7960-4244-8d33-7cab883f4b9b","system_id":"levelo_inurba_marseille","lat":43.312239,"lon":5.368562,"is_reserved":false,"is_disabled":false,"rental_uris":{"android":"levelo://app?vid=d70dab7d-7960-4244-8d33-7cab883f4b9b","ios":"levelo://app?vid=d70dab7d-7960-4244-8d33-7cab883f4b9b"},"vehicle_type_id":"4","last_reported":1691561345,"current_range_meters":30400,"station_id":"ce4bgl92rcd13ifvqbq0","pricing_plan_id":"free"},{"bike_id":"ad9c59bf-901f-41e9-a882-104d3f2d12a0","system_id":"levelo_inurba_marseille","lat":43.3121,"lon":5.36904,"is_reserved":false,"is_disabled":false,"rental_uris":{"android":"levelo://app?vid=ad9c59bf-901f-41e9-a882-104d3f2d12a0","ios":"levelo://app?vid=ad9c59bf-901f-41e9-a882-104d3f2d12a0"},"vehicle_type_id":"4","last_reported":1691561345,"current_range_meters":0,"station_id":"ce4bgl92rcd13ifvqbq0","pricing_plan_id":"free"},{"bike_id":"77b50398-9505-4878-bfe3-7c58359d8ffe","system_id":"levelo_inurba_marseille","lat":43.309076,"lon":5.368465,"is_reserved":false,"is_disabled":false,"rental_uris":{"android":"levelo://app?vid=77b50398-9505-4878-bfe3-7c58359d8ffe","ios":"levelo://app?vid=77b50398-9505-4878-bfe3-7c58359d8ffe"},"vehicle_type_id":"4","last_reported":1691561345,"current_range_meters":30800,"station_id":"ce4bgn92rcd13ifvqbvg","pricing_plan_id":"free"},{"bike_id":"96bb4c43-ce04-4f22-9e7b-222243305b57","system_id":"levelo_inurba_marseille","lat":43.309076,"lon":5.368465,"is_reserved":false,"is_disabled":false,"rental_uris":{"android":"levelo://app?vid=96bb4c43-ce04-4f22-9e7b-222243305b57","ios":"levelo://app?vid=96bb4c43-ce04-4f22-9e7b-222243305b57"},"vehicle_type_id":"4","last_reported":1691561345,"current_range_meters":24400,"station_id":"ce4bgn92rcd13ifvqbvg","pricing_plan_id":"free"},{"bike_id":"a33a3a5e-6ee7-4bb2-9b7f-e24909b429df","system_id":"levelo_inurba_marseille","lat":43.31499,"lon":5.37291,"is_reserved":false,"is_disabled":false,"rental_uris":{"android":"levelo://app?vid=a33a3a5e-6ee7-4bb2-9b7f-e24909b429df","ios":"levelo://app?vid=a33a3a5e-6ee7-4bb2-9b7f-e24909b429df"},"vehicle_type_id":"4","last_reported":1691561345,"current_range_meters":17200,"station_id":"ce4bgt12rcd13ifvqcd0","pricing_plan_id":"free"},{"bike_id":"ccc511ab-32e2-4ebb-b007-b9efc3a033c5","system_id":"levelo_inurba_marseille","lat":43.314811,"lon":5.373103,"is_reserved":false,"is_disabled":false,"rental_uris":{"android":"levelo://app?vid=ccc511ab-32e2-4ebb-b007-b9efc3a033c5","ios":"levelo://app?vid=ccc511ab-32e2-4ebb-b007-b9efc3a033c5"},"vehicle_type_id":"4","last_reported":1691561345,"current_range_meters":0,"station_id":"ce4bgt12rcd13ifvqcd0","pricing_plan_id":"free"},{"bike_id":"f9a47bc1-77dd-4094-b96c-5d19b21a0302","system_id":"levelo_inurba_marseille","lat":43.309039,"lon":5.371797,"is_reserved":false,"is_disabled":false,"rental_uris":{"android":"levelo://app?vid=f9a47bc1-77dd-4094-b96c-5d19b21a0302","ios":"levelo://app?vid=f9a47bc1-77dd-4094-b96c-5d19b21a0302"},"vehicle_type_id":"4","last_reported":1691561345,"current_range_meters":11200,"station_id":"ce4bguh2rcd13ifvqckg","pricing_plan_id":"free"},{"bike_id":"75c144f9-aee3-4447-91e6-f543a25955e1","system_id":"levelo_inurba_marseille","lat":43.30547,"lon":5.3673,"is_reserved":false,"is_disabled":false,"rental_uris":{"android":"levelo://app?vid=75c144f9-aee3-4447-91e6-f543a25955e1","ios":"levelo://app?vid=75c144f9-aee3-4447-91e6-f543a25955e1"},"vehicle_type_id":"4","last_reported":1691561345,"current_range_meters":1200,"station_id":"ce4bgrp2rcd13ifvqc9g","pricing_plan_id":"free"},{"bike_id":"9aa5e834-dc12-4322-a72d-4dafcb374b45","system_id":"levelo_inurba_marseille","lat":43.305368,"lon":5.367343,"is_reserved":false,"is_disabled":false,"rental_uris":{"android":"levelo://app?vid=9aa5e834-dc12-4322-a72d-4dafcb374b45","ios":"levelo://app?vid=9aa5e834-dc12-4322-a72d-4dafcb374b45"},"vehicle_type_id":"4","last_reported":1691561345,"current_range_meters":26800,"station_id":"ce4bgrp2rcd13ifvqc9g","pricing_plan_id":"free"},{"bike_id":"5f3183fe-ea37-46e3-b5ce-0e32ef8383d1","system_id":"levelo_inurba_marseille","lat":43.305706,"lon":5.365654,"is_reserved":false,"is_disabled":false,"rental_uris":{"android":"levelo://app?vid=5f3183fe-ea37-46e3-b5ce-0e32ef8383d1","ios":"levelo://app?vid=5f3183fe-ea37-46e3-b5ce-0e32ef8383d1"},"vehicle_type_id":"4","last_reported":1691561345,"current_range_meters":27200,"station_id":"ce4bgs12rcd13ifvqcag","pricing_plan_id":"free"},{"bike_id":"2805e373-91db-4836-ba46-ea78e6489a49","system_id":"levelo_inurba_marseille","lat":43.305989,"lon":5.37225,"is_reserved":false,"is_disabled":false,"rental_uris":{"android":"levelo://app?vid=2805e373-91db-4836-ba46-ea78e6489a49","ios":"levelo://app?vid=2805e373-91db-4836-ba46-ea78e6489a49"},"vehicle_type_id":"4","last_reported":1691561345,"current_range_meters":31200,"station_id":"ce4bgqh2rcd13ifvqc4g","pricing_plan_id":"free"},{"bike_id":"e98ea038-42b7-4710-85f4-8a05b11be37b","system_id":"levelo_inurba_marseille","lat":43.305989,"lon":5.37225,"is_reserved":false,"is_disabled":false,"rental_uris":{"android":"levelo://app?vid=e98ea038-42b7-4710-85f4-8a05b11be37b","ios":"levelo://app?vid=e98ea038-42b7-4710-85f4-8a05b11be37b"},"vehicle_type_id":"4","last_reported":1691561345,"current_range_meters":31200,"station_id":"ce4bgqh2rcd13ifvqc4g","pricing_plan_id":"free"},{"bike_id":"fdc532a2-10c8-4de9-98f4-dad2cc05968e","system_id":"levelo_inurba_marseille","lat":43.305989,"lon":5.37225,"is_reserved":false,"is_disabled":false,"rental_uris":{"android":"levelo://app?vid=fdc532a2-10c8-4de9-98f4-dad2cc05968e","ios":"levelo://app?vid=fdc532a2-10c8-4de9-98f4-dad2cc05968e"},"vehicle_type_id":"4","last_reported":1691561345,"current_range_meters":31200,"station_id":"ce4bgqh2rcd13ifvqc4g","pricing_plan_id":"free"},{"bike_id":"1725a684-ad54-4e94-a8e1-fa9b69d2bde2","system_id":"levelo_inurba_marseille","lat":43.305989,"lon":5.37225,"is_reserved":false,"is_disabled":false,"rental_uris":{"android":"levelo://app?vid=1725a684-ad54-4e94-a8e1-fa9b69d2bde2","ios":"levelo://app?vid=1725a684-ad54-4e94-a8e1-fa9b69d2bde2"},"vehicle_type_id":"4","last_reported":1691561345,"current_range_meters":14000,"station_id":"ce4bgqh2rcd13ifvqc4g","pricing_plan_id":"free"},{"bike_id":"5d6cd96d-1fcc-4704-b23a-653738e63cd3","system_id":"levelo_inurba_marseille","lat":43.305989,"lon":5.37225,"is_reserved":false,"is_disabled":false,"rental_uris":{"android":"levelo://app?vid=5d6cd96d-1fcc-4704-b23a-653738e63cd3","ios":"levelo://app?vid=5d6cd96d-1fcc-4704-b23a-653738e63cd3"},"vehicle_type_id":"4","last_reported":1691561345,"current_range_meters":24800,"station_id":"ce4bgqh2rcd13ifvqc4g","pricing_plan_id":"free"},{"bike_id":"c53e5bb7-1b88-4652-8839-b0bd08626fba","system_id":"levelo_inurba_marseille","lat":43.311131,"lon":5.377651,"is_reserved":false,"is_disabled":false,"rental_uris":{"android":"levelo://app?vid=c53e5bb7-1b88-4652-8839-b0bd08626fba","ios":"levelo://app?vid=c53e5bb7-1b88-4652-8839-b0bd08626fba"},"vehicle_type_id":"4","last_reported":1691561345,"current_range_meters":18000,"station_id":"ce4bgt92rcd13ifvqcg0","pricing_plan_id":"free"},{"bike_id":"a6e35cae-1a4c-41fd-8e08-655ed8d43c43","system_id":"levelo_inurba_marseille","lat":43.307945,"lon":5.376487,"is_reserved":false,"is_disabled":false,"rental_uris":{"android":"levelo://app?vid=a6e35cae-1a4c-41fd-8e08-655ed8d43c43","ios":"levelo://app?vid=a6e35cae-1a4c-41fd-8e08-655ed8d43c43"},"vehicle_type_id":"4","last_reported":1691561345,"current_range_meters":0,"station_id":"ce4bgv92rcd13ifvqcq0","pricing_plan_id":"free"},{"bike_id":"8a5819c8-77f0-44cd-951b-91e77e55cc08","system_id":"levelo_inurba_marseille","lat":43.299724,"lon":5.371829,"is_reserved":false,"is_disabled":false,"rental_uris":{"android":"levelo://app?vid=8a5819c8-77f0-44cd-951b-91e77e55cc08","ios":"levelo://app?vid=8a5819c8-77f0-44cd-951b-91e77e55cc08"},"vehicle_type_id":"4","last_reported":1691561345,"current_range_meters":26800,"station_id":"ce4bgr92rcd13ifvqc7g","pricing_plan_id":"free"},{"bike_id":"20b5ce43-c7f1-4b3b-b3b7-a6912248472f","system_id":"levelo_inurba_marseille","lat":43.317075,"lon":5.377367,"is_reserved":false,"is_disabled":false,"rental_uris":{"android":"levelo://app?vid=20b5ce43-c7f1-4b3b-b3b7-a6912248472f","ios":"levelo://app?vid=20b5ce43-c7f1-4b3b-b3b7-a6912248472f"},"vehicle_type_id":"4","last_reported":1691561345,"current_range_meters":30000,"station_id":"ce4bgth2rcd13ifvqch0","pricing_plan_id":"free"},{"bike_id":"85359c44-696c-4d69-a9ca-baa8529bc235","system_id":"levelo_inurba_marseille","lat":43.31538,"lon":5.38008,"is_reserved":false,"is_disabled":false,"rental_uris":{"android":"levelo://app?vid=85359c44-696c-4d69-a9ca-baa8529bc235","ios":"levelo://app?vid=85359c44-696c-4d69-a9ca-baa8529bc235"},"vehicle_type_id":"4","last_reported":1691561345,"current_range_meters":27200,"station_id":"ce4bhsp2rcd13ifvqi50","pricing_plan_id":"free"},{"bike_id":"71e4c0af-6c06-4c42-ba9b-b78d839afd65","system_id":"levelo_inurba_marseille","lat":43.3154,"lon":5.38016,"is_reserved":false,"is_disabled":false,"rental_uris":{"android":"levelo://app?vid=71e4c0af-6c06-4c42-ba9b-b78d839afd65","ios":"levelo://app?vid=71e4c0af-6c06-4c42-ba9b-b78d839afd65"},"vehicle_type_id":"4","last_reported":1691561345,"current_range_meters":0,"station_id":"ce4bhsp2rcd13ifvqi50","pricing_plan_id":"free"},{"bike_id":"92f31349-6870-4ab0-b69a-3e408186ad03","system_id":"levelo_inurba_marseille","lat":43.31529,"lon":5.38024,"is_reserved":false,"is_disabled":false,"rental_uris":{"android":"levelo://app?vid=92f31349-6870-4ab0-b69a-3e408186ad03","ios":"levelo://app?vid=92f31349-6870-4ab0-b69a-3e408186ad03"},"vehicle_type_id":"4","last_reported":1691561345,"current_range_meters":13600,"station_id":"ce4bhsp2rcd13ifvqi50","pricing_plan_id":"free"},{"bike_id":"ea088d60-ead8-422e-91c5-543251b495bd","system_id":"levelo_inurba_marseille","lat":43.30196,"lon":5.36619,"is_reserved":false,"is_disabled":false,"rental_uris":{"android":"levelo://app?vid=ea088d60-ead8-422e-91c5-543251b495bd","ios":"levelo://app?vid=ea088d60-ead8-422e-91c5-543251b495bd"},"vehicle_type_id":"4","last_reported":1691561345,"current_range_meters":20400,"station_id":"ce4bgrh2rcd13ifvqc8g","pricing_plan_id":"free"},{"bike_id":"f1561c2f-4fa6-4c82-89c4-e4d47f9365c8","system_id":"levelo_inurba_marseille","lat":43.30475,"lon":5.3789,"is_reserved":false,"is_disabled":false,"rental_uris":{"android":"levelo://app?vid=f1561c2f-4fa6-4c82-89c4-e4d47f9365c8","ios":"levelo://app?vid=f1561c2f-4fa6-4c82-89c4-e4d47f9365c8"},"vehicle_type_id":"4","last_reported":1691561345,"current_range_meters":30400,"station_id":"","pricing_plan_id":"free"},{"bike_id":"c4821597-96f7-4c89-ac83-6704b3b0b294","system_id":"levelo_inurba_marseille","lat":43.304606,"lon":5.379026,"is_reserved":false,"is_disabled":false,"rental_uris":{"android":"levelo://app?vid=c4821597-96f7-4c89-ac83-6704b3b0b294","ios":"levelo://app?vid=c4821597-96f7-4c89-ac83-6704b3b0b294"},"vehicle_type_id":"4","last_reported":1691561345,"current_range_meters":31200,"station_id":"ce4bgup2rcd13ifvqcn0","pricing_plan_id":"free"},{"bike_id":"281c8a3d-6b57-42d0-ab3c-148dc0edf2fb","system_id":"levelo_inurba_marseille","lat":43.304606,"lon":5.379026,"is_reserved":false,"is_disabled":false,"rental_uris":{"android":"levelo://app?vid=281c8a3d-6b57-42d0-ab3c-148dc0edf2fb","ios":"levelo://app?vid=281c8a3d-6b57-42d0-ab3c-148dc0edf2fb"},"vehicle_type_id":"4","last_reported":1691561345,"current_range_meters":14000,"station_id":"ce4bgup2rcd13ifvqcn0","pricing_plan_id":"free"},{"bike_id":"71216b11-3269-4b0b-9f6a-2c91175d7eb2","system_id":"levelo_inurba_marseille","lat":43.304606,"lon":5.379026,"is_reserved":false,"is_disabled":false,"rental_uris":{"android":"levelo://app?vid=71216b11-3269-4b0b-9f6a-2c91175d7eb2","ios":"levelo://app?vid=71216b11-3269-4b0b-9f6a-2c91175d7eb2"},"vehicle_type_id":"4","last_reported":1691561345,"current_range_meters":23600,"station_id":"ce4bgup2rcd13ifvqcn0","pricing_plan_id":"free"},{"bike_id":"3cbee33b-9e98-471d-b934-4c8896cab77c","system_id":"levelo_inurba_marseille","lat":43.304606,"lon":5.379026,"is_reserved":false,"is_disabled":false,"rental_uris":{"android":"levelo://app?vid=3cbee33b-9e98-471d-b934-4c8896cab77c","ios":"levelo://app?vid=3cbee33b-9e98-471d-b934-4c8896cab77c"},"vehicle_type_id":"4","last_reported":1691561345,"current_range_meters":31200,"station_id":"ce4bgup2rcd13ifvqcn0","pricing_plan_id":"free"},{"bike_id":"0d922573-9c21-44b2-96cf-483b67cb25c9","system_id":"levelo_inurba_marseille","lat":43.304606,"lon":5.379026,"is_reserved":false,"is_disabled":false,"rental_uris":{"android":"levelo://app?vid=0d922573-9c21-44b2-96cf-483b67cb25c9","ios":"levelo://app?vid=0d922573-9c21-44b2-96cf-483b67cb25c9"},"vehicle_type_id":"4","last_reported":1691561345,"current_range_meters":31600,"station_id":"ce4bgup2rcd13ifvqcn0","pricing_plan_id":"free"},{"bike_id":"933a06ea-06e3-473b-b6b6-3ff04f459661","system_id":"levelo_inurba_marseille","lat":43.304606,"lon":5.379026,"is_reserved":false,"is_disabled":false,"rental_uris":{"android":"levelo://app?vid=933a06ea-06e3-473b-b6b6-3ff04f459661","ios":"levelo://app?vid=933a06ea-06e3-473b-b6b6-3ff04f459661"},"vehicle_type_id":"4","last_reported":1691561345,"current_range_meters":31600,"station_id":"ce4bgup2rcd13ifvqcn0","pricing_plan_id":"free"},{"bike_id":"a2b5523c-6a94-4bef-ad9c-1c8d453f68ca","system_id":"levelo_inurba_marseille","lat":43.304606,"lon":5.379026,"is_reserved":false,"is_disabled":false,"rental_uris":{"android":"levelo://app?vid=a2b5523c-6a94-4bef-ad9c-1c8d453f68ca","ios":"levelo://app?vid=a2b5523c-6a94-4bef-ad9c-1c8d453f68ca"},"vehicle_type_id":"4","last_reported":1691561345,"current_range_meters":20800,"station_id":"ce4bgup2rcd13ifvqcn0","pricing_plan_id":"free"},{"bike_id":"38869218-4eb0-49b6-90f7-b0889848aeb3","system_id":"levelo_inurba_marseille","lat":43.304606,"lon":5.379026,"is_reserved":false,"is_disabled":false,"rental_uris":{"android":"levelo://app?vid=38869218-4eb0-49b6-90f7-b0889848aeb3","ios":"levelo://app?vid=38869218-4eb0-49b6-90f7-b0889848aeb3"},"vehicle_type_id":"4","last_reported":1691561345,"current_range_meters":28800,"station_id":"ce4bgup2rcd13ifvqcn0","pricing_plan_id":"free"},{"bike_id":"6cfb2a67-ad74-4730-9f0b-6be59f80502b","system_id":"levelo_inurba_marseille","lat":43.304606,"lon":5.379026,"is_reserved":false,"is_disabled":false,"rental_uris":{"android":"levelo://app?vid=6cfb2a67-ad74-4730-9f0b-6be59f80502b","ios":"levelo://app?vid=6cfb2a67-ad74-4730-9f0b-6be59f80502b"},"vehicle_type_id":"4","last_reported":1691561345,"current_range_meters":26000,"station_id":"ce4bgup2rcd13ifvqcn0","pricing_plan_id":"free"},{"bike_id":"05718861-f874-4ddc-b340-8623edba5b27","system_id":"levelo_inurba_marseille","lat":43.304606,"lon":5.379026,"is_reserved":false,"is_disabled":false,"rental_uris":{"android":"levelo://app?vid=05718861-f874-4ddc-b340-8623edba5b27","ios":"levelo://app?vid=05718861-f874-4ddc-b340-8623edba5b27"},"vehicle_type_id":"4","last_reported":1691561345,"current_range_meters":28800,"station_id":"ce4bgup2rcd13ifvqcn0","pricing_plan_id":"free"},{"bike_id":"fe3aa4fc-ce81-47a7-be18-0f23f87af4e2","system_id":"levelo_inurba_marseille","lat":43.304606,"lon":5.379026,"is_reserved":false,"is_disabled":false,"rental_uris":{"android":"levelo://app?vid=fe3aa4fc-ce81-47a7-be18-0f23f87af4e2","ios":"levelo://app?vid=fe3aa4fc-ce81-47a7-be18-0f23f87af4e2"},"vehicle_type_id":"4","last_reported":1691561345,"current_range_meters":23200,"station_id":"ce4bgup2rcd13ifvqcn0","pricing_plan_id":"free"},{"bike_id":"508f379d-0470-476c-8628-bd8426da1f9a","system_id":"levelo_inurba_marseille","lat":43.304606,"lon":5.379026,"is_reserved":false,"is_disabled":false,"rental_uris":{"android":"levelo://app?vid=508f379d-0470-476c-8628-bd8426da1f9a","ios":"levelo://app?vid=508f379d-0470-476c-8628-bd8426da1f9a"},"vehicle_type_id":"4","last_reported":1691561345,"current_range_meters":30400,"station_id":"ce4bgup2rcd13ifvqcn0","pricing_plan_id":"free"},{"bike_id":"fb842567-52cd-4d21-a4f3-6b02dbff230f","system_id":"levelo_inurba_marseille","lat":43.30463,"lon":5.37904,"is_reserved":false,"is_disabled":false,"rental_uris":{"android":"levelo://app?vid=fb842567-52cd-4d21-a4f3-6b02dbff230f","ios":"levelo://app?vid=fb842567-52cd-4d21-a4f3-6b02dbff230f"},"vehicle_type_id":"4","last_reported":1691561345,"current_range_meters":2400,"station_id":"ce4bgup2rcd13ifvqcn0","pricing_plan_id":"free"},{"bike_id":"c031c710-5452-442d-b0ba-a3e3ab737842","system_id":"levelo_inurba_marseille","lat":43.304606,"lon":5.379026,"is_reserved":false,"is_disabled":false,"rental_uris":{"android":"levelo://app?vid=c031c710-5452-442d-b0ba-a3e3ab737842","ios":"levelo://app?vid=c031c710-5452-442d-b0ba-a3e3ab737842"},"vehicle_type_id":"4","last_reported":1691561345,"current_range_meters":17200,"station_id":"ce4bgup2rcd13ifvqcn0","pricing_plan_id":"free"},{"bike_id":"0aa2d393-3e4a-4022-a358-0532a74d0da9","system_id":"levelo_inurba_marseille","lat":43.30463,"lon":5.37905,"is_reserved":false,"is_disabled":false,"rental_uris":{"android":"levelo://app?vid=0aa2d393-3e4a-4022-a358-0532a74d0da9","ios":"levelo://app?vid=0aa2d393-3e4a-4022-a358-0532a74d0da9"},"vehicle_type_id":"4","last_reported":1691561345,"current_range_meters":21600,"station_id":"ce4bgup2rcd13ifvqcn0","pricing_plan_id":"free"},{"bike_id":"ba48dbba-bf43-43b4-a236-29874ae8fa8a","system_id":"levelo_inurba_marseille","lat":43.304606,"lon":5.379026,"is_reserved":false,"is_disabled":false,"rental_uris":{"android":"levelo://app?vid=ba48dbba-bf43-43b4-a236-29874ae8fa8a","ios":"levelo://app?vid=ba48dbba-bf43-43b4-a236-29874ae8fa8a"},"vehicle_type_id":"4","last_reported":1691561345,"current_range_meters":4800,"station_id":"ce4bgup2rcd13ifvqcn0","pricing_plan_id":"free"},{"bike_id":"a2b6de60-80f5-4972-9ecc-d6207164134b","system_id":"levelo_inurba_marseille","lat":43.304606,"lon":5.379026,"is_reserved":false,"is_disabled":false,"rental_uris":{"android":"levelo://app?vid=a2b6de60-80f5-4972-9ecc-d6207164134b","ios":"levelo://app?vid=a2b6de60-80f5-4972-9ecc-d6207164134b"},"vehicle_type_id":"4","last_reported":1691561345,"current_range_meters":16000,"station_id":"ce4bgup2rcd13ifvqcn0","pricing_plan_id":"free"},{"bike_id":"1389ffde-7c88-4af1-a42d-788d4343b17c","system_id":"levelo_inurba_marseille","lat":43.30459,"lon":5.37902,"is_reserved":false,"is_disabled":false,"rental_uris":{"android":"levelo://app?vid=1389ffde-7c88-4af1-a42d-788d4343b17c","ios":"levelo://app?vid=1389ffde-7c88-4af1-a42d-788d4343b17c"},"vehicle_type_id":"4","last_reported":1691561345,"current_range_meters":400,"station_id":"ce4bgup2rcd13ifvqcn0","pricing_plan_id":"free"},{"bike_id":"88a7992c-55c4-4abe-9b7c-00eb1edbb72f","system_id":"levelo_inurba_marseille","lat":43.30458,"lon":5.37901,"is_reserved":false,"is_disabled":false,"rental_uris":{"android":"levelo://app?vid=88a7992c-55c4-4abe-9b7c-00eb1edbb72f","ios":"levelo://app?vid=88a7992c-55c4-4abe-9b7c-00eb1edbb72f"},"vehicle_type_id":"4","last_reported":1691561345,"current_range_meters":12400,"station_id":"ce4bgup2rcd13ifvqcn0","pricing_plan_id":"free"},{"bike_id":"b77ec92a-4aed-4d38-ba6a-10b9908b3716","system_id":"levelo_inurba_marseille","lat":43.3046,"lon":5.37904,"is_reserved":false,"is_disabled":false,"rental_uris":{"android":"levelo://app?vid=b77ec92a-4aed-4d38-ba6a-10b9908b3716","ios":"levelo://app?vid=b77ec92a-4aed-4d38-ba6a-10b9908b3716"},"vehicle_type_id":"4","last_reported":1691561345,"current_range_meters":29600,"station_id":"ce4bgup2rcd13ifvqcn0","pricing_plan_id":"free"},{"bike_id":"6a1eb205-dc24-447c-b160-2b1b46cff3d2","system_id":"levelo_inurba_marseille","lat":43.304606,"lon":5.379026,"is_reserved":false,"is_disabled":false,"rental_uris":{"android":"levelo://app?vid=6a1eb205-dc24-447c-b160-2b1b46cff3d2","ios":"levelo://app?vid=6a1eb205-dc24-447c-b160-2b1b46cff3d2"},"vehicle_type_id":"4","last_reported":1691561345,"current_range_meters":26400,"station_id":"ce4bgup2rcd13ifvqcn0","pricing_plan_id":"free"},{"bike_id":"4b674145-d0f7-4ab7-9deb-4926e8ad2609","system_id":"levelo_inurba_marseille","lat":43.304606,"lon":5.379026,"is_reserved":false,"is_disabled":false,"rental_uris":{"android":"levelo://app?vid=4b674145-d0f7-4ab7-9deb-4926e8ad2609","ios":"levelo://app?vid=4b674145-d0f7-4ab7-9deb-4926e8ad2609"},"vehicle_type_id":"4","last_reported":1691561345,"current_range_meters":4000,"station_id":"ce4bgup2rcd13ifvqcn0","pricing_plan_id":"free"},{"bike_id":"7134650e-f51f-4de7-b90d-d5120a9dca5d","system_id":"levelo_inurba_marseille","lat":43.304606,"lon":5.379026,"is_reserved":false,"is_disabled":false,"rental_uris":{"android":"levelo://app?vid=7134650e-f51f-4de7-b90d-d5120a9dca5d","ios":"levelo://app?vid=7134650e-f51f-4de7-b90d-d5120a9dca5d"},"vehicle_type_id":"4","last_reported":1691561345,"current_range_meters":14000,"station_id":"ce4bgup2rcd13ifvqcn0","pricing_plan_id":"free"},{"bike_id":"2e9cf206-dc44-4b5a-b9af-bf2dd97b525f","system_id":"levelo_inurba_marseille","lat":43.30457,"lon":5.37907,"is_reserved":false,"is_disabled":false,"rental_uris":{"android":"levelo://app?vid=2e9cf206-dc44-4b5a-b9af-bf2dd97b525f","ios":"levelo://app?vid=2e9cf206-dc44-4b5a-b9af-bf2dd97b525f"},"vehicle_type_id":"4","last_reported":1691561345,"current_range_meters":7600,"station_id":"ce4bgup2rcd13ifvqcn0","pricing_plan_id":"free"},{"bike_id":"1cb603c0-d91c-44f3-a6c2-2412efceb571","system_id":"levelo_inurba_marseille","lat":43.301451,"lon":5.374136,"is_reserved":false,"is_disabled":false,"rental_uris":{"android":"levelo://app?vid=1cb603c0-d91c-44f3-a6c2-2412efceb571","ios":"levelo://app?vid=1cb603c0-d91c-44f3-a6c2-2412efceb571"},"vehicle_type_id":"4","last_reported":1691561345,"current_range_meters":6800,"station_id":"ce4bgs92rcd13ifvqcc0","pricing_plan_id":"free"},{"bike_id":"c576c423-2bb3-4a53-9ea6-909f5c3ff8ad","system_id":"levelo_inurba_marseille","lat":43.30141,"lon":5.37416,"is_reserved":false,"is_disabled":false,"rental_uris":{"android":"levelo://app?vid=c576c423-2bb3-4a53-9ea6-909f5c3ff8ad","ios":"levelo://app?vid=c576c423-2bb3-4a53-9ea6-909f5c3ff8ad"},"vehicle_type_id":"4","last_reported":1691561345,"current_range_meters":23200,"station_id":"ce4bgs92rcd13ifvqcc0","pricing_plan_id":"free"},{"bike_id":"926db41b-d47b-4e63-8c05-65f5ce9f76ad","system_id":"levelo_inurba_marseille","lat":43.30139,"lon":5.37422,"is_reserved":false,"is_disabled":false,"rental_uris":{"android":"levelo://app?vid=926db41b-d47b-4e63-8c05-65f5ce9f76ad","ios":"levelo://app?vid=926db41b-d47b-4e63-8c05-65f5ce9f76ad"},"vehicle_type_id":"4","last_reported":1691561345,"current_range_meters":16000,"station_id":"ce4bgs92rcd13ifvqcc0","pricing_plan_id":"free"},{"bike_id":"34d34957-3a05-48d3-a56a-489b167561fb","system_id":"levelo_inurba_marseille","lat":43.3199,"lon":5.38144,"is_reserved":false,"is_disabled":false,"rental_uris":{"android":"levelo://app?vid=34d34957-3a05-48d3-a56a-489b167561fb","ios":"levelo://app?vid=34d34957-3a05-48d3-a56a-489b167561fb"},"vehicle_type_id":"4","last_reported":1691561345,"current_range_meters":11600,"station_id":"ce4bhr12rcd13ifvqhpg","pricing_plan_id":"free"},{"bike_id":"fa752c94-3612-4517-9c36-806301a8992a","system_id":"levelo_inurba_marseille","lat":43.319935,"lon":5.381699,"is_reserved":false,"is_disabled":false,"rental_uris":{"android":"levelo://app?vid=fa752c94-3612-4517-9c36-806301a8992a","ios":"levelo://app?vid=fa752c94-3612-4517-9c36-806301a8992a"},"vehicle_type_id":"4","last_reported":1691561345,"current_range_meters":8800,"station_id":"ce4bhr12rcd13ifvqhpg","pricing_plan_id":"free"},{"bike_id":"14487468-e508-4462-9c46-b655edc63ac6","system_id":"levelo_inurba_marseille","lat":43.31998,"lon":5.38146,"is_reserved":false,"is_disabled":false,"rental_uris":{"android":"levelo://app?vid=14487468-e508-4462-9c46-b655edc63ac6","ios":"levelo://app?vid=14487468-e508-4462-9c46-b655edc63ac6"},"vehicle_type_id":"4","last_reported":1691561345,"current_range_meters":20400,"station_id":"ce4bhr12rcd13ifvqhpg","pricing_plan_id":"free"},{"bike_id":"a6d72680-439a-4cf8-8a07-5c5528be2d40","system_id":"levelo_inurba_marseille","lat":43.313571,"lon":5.384829,"is_reserved":false,"is_disabled":false,"rental_uris":{"android":"levelo://app?vid=a6d72680-439a-4cf8-8a07-5c5528be2d40","ios":"levelo://app?vid=a6d72680-439a-4cf8-8a07-5c5528be2d40"},"vehicle_type_id":"4","last_reported":1691561345,"current_range_meters":24800,"station_id":"ce4bgt92rcd13ifvqcf0","pricing_plan_id":"free"},{"bike_id":"d301e0ec-d25b-49d6-93a6-41012b3da408","system_id":"levelo_inurba_marseille","lat":43.313571,"lon":5.384829,"is_reserved":false,"is_disabled":false,"rental_uris":{"android":"levelo://app?vid=d301e0ec-d25b-49d6-93a6-41012b3da408","ios":"levelo://app?vid=d301e0ec-d25b-49d6-93a6-41012b3da408"},"vehicle_type_id":"4","last_reported":1691561345,"current_range_meters":31200,"station_id":"ce4bgt92rcd13ifvqcf0","pricing_plan_id":"free"},{"bike_id":"cc18f327-b45a-4f3a-ab16-c15dd6901333","system_id":"levelo_inurba_marseille","lat":43.313571,"lon":5.384829,"is_reserved":false,"is_disabled":false,"rental_uris":{"android":"levelo://app?vid=cc18f327-b45a-4f3a-ab16-c15dd6901333","ios":"levelo://app?vid=cc18f327-b45a-4f3a-ab16-c15dd6901333"},"vehicle_type_id":"4","last_reported":1691561345,"current_range_meters":5200,"station_id":"ce4bgt92rcd13ifvqcf0","pricing_plan_id":"free"},{"bike_id":"c5f3becc-9d30-4e3f-a509-8e88269ecf9c","system_id":"levelo_inurba_marseille","lat":43.313571,"lon":5.384829,"is_reserved":false,"is_disabled":false,"rental_uris":{"android":"levelo://app?vid=c5f3becc-9d30-4e3f-a509-8e88269ecf9c","ios":"levelo://app?vid=c5f3becc-9d30-4e3f-a509-8e88269ecf9c"},"vehicle_type_id":"4","last_reported":1691561345,"current_range_meters":18400,"station_id":"ce4bgt92rcd13ifvqcf0","pricing_plan_id":"free"},{"bike_id":"e2b09d77-ef4e-417a-aa6e-6b0aec9343f4","system_id":"levelo_inurba_marseille","lat":43.313571,"lon":5.384829,"is_reserved":false,"is_disabled":false,"rental_uris":{"android":"levelo://app?vid=e2b09d77-ef4e-417a-aa6e-6b0aec9343f4","ios":"levelo://app?vid=e2b09d77-ef4e-417a-aa6e-6b0aec9343f4"},"vehicle_type_id":"4","last_reported":1691561345,"current_range_meters":10000,"station_id":"ce4bgt92rcd13ifvqcf0","pricing_plan_id":"free"},{"bike_id":"15b2f289-e8da-4c30-a721-2cf15799ace1","system_id":"levelo_inurba_marseille","lat":43.31978,"lon":5.38258,"is_reserved":false,"is_disabled":false,"rental_uris":{"android":"levelo://app?vid=15b2f289-e8da-4c30-a721-2cf15799ace1","ios":"levelo://app?vid=15b2f289-e8da-4c30-a721-2cf15799ace1"},"vehicle_type_id":"4","last_reported":1691561345,"current_range_meters":6000,"station_id":"","pricing_plan_id":"free"},{"bike_id":"cba32a26-d309-4832-9b31-f2a59cf6c81d","system_id":"levelo_inurba_marseille","lat":43.307945,"lon":5.376487,"is_reserved":false,"is_disabled":false,"rental_uris":{"android":"levelo://app?vid=cba32a26-d309-4832-9b31-f2a59cf6c81d","ios":"levelo://app?vid=cba32a26-d309-4832-9b31-f2a59cf6c81d"},"vehicle_type_id":"4","last_reported":1691561345,"current_range_meters":29600,"station_id":"ce4bgv92rcd13ifvqcq0","pricing_plan_id":"free"},{"bike_id":"6c9b4f68-17cd-47b9-a9f4-c8438a36e64c","system_id":"levelo_inurba_marseille","lat":43.29933,"lon":5.36552,"is_reserved":false,"is_disabled":false,"rental_uris":{"android":"levelo://app?vid=6c9b4f68-17cd-47b9-a9f4-c8438a36e64c","ios":"levelo://app?vid=6c9b4f68-17cd-47b9-a9f4-c8438a36e64c"},"vehicle_type_id":"4","last_reported":1691561345,"current_range_meters":28000,"station_id":"ce4bgm92rcd13ifvqbr0","pricing_plan_id":"free"},{"bike_id":"20b9f81d-25b8-4dc7-bf67-86d3b4f0620c","system_id":"levelo_inurba_marseille","lat":43.29969,"lon":5.37168,"is_reserved":false,"is_disabled":false,"rental_uris":{"android":"levelo://app?vid=20b9f81d-25b8-4dc7-bf67-86d3b4f0620c","ios":"levelo://app?vid=20b9f81d-25b8-4dc7-bf67-86d3b4f0620c"},"vehicle_type_id":"4","last_reported":1691561345,"current_range_meters":0,"station_id":"ce4bgr92rcd13ifvqc7g","pricing_plan_id":"free"},{"bike_id":"e12b4729-a1d9-4909-9759-e5b8690101b0","system_id":"levelo_inurba_marseille","lat":43.30088,"lon":5.37833,"is_reserved":false,"is_disabled":false,"rental_uris":{"android":"levelo://app?vid=e12b4729-a1d9-4909-9759-e5b8690101b0","ios":"levelo://app?vid=e12b4729-a1d9-4909-9759-e5b8690101b0"},"vehicle_type_id":"4","last_reported":1691561345,"current_range_meters":16000,"station_id":"","pricing_plan_id":"free"},{"bike_id":"ddeec366-b006-4ef8-adbd-cac406d7d050","system_id":"levelo_inurba_marseille","lat":43.298433,"lon":5.362774,"is_reserved":false,"is_disabled":false,"rental_uris":{"android":"levelo://app?vid=ddeec366-b006-4ef8-adbd-cac406d7d050","ios":"levelo://app?vid=ddeec366-b006-4ef8-adbd-cac406d7d050"},"vehicle_type_id":"4","last_reported":1691561345,"current_range_meters":27600,"station_id":"ce4bgpp2rcd13ifvqc3g","pricing_plan_id":"free"},{"bike_id":"da9d703e-a190-400d-8c10-05d37110a2c6","system_id":"levelo_inurba_marseille","lat":43.298433,"lon":5.362774,"is_reserved":false,"is_disabled":false,"rental_uris":{"android":"levelo://app?vid=da9d703e-a190-400d-8c10-05d37110a2c6","ios":"levelo://app?vid=da9d703e-a190-400d-8c10-05d37110a2c6"},"vehicle_type_id":"4","last_reported":1691561345,"current_range_meters":28400,"station_id":"ce4bgpp2rcd13ifvqc3g","pricing_plan_id":"free"},{"bike_id":"30537d43-af02-4a10-b928-7b9b8cf633d2","system_id":"levelo_inurba_marseille","lat":43.305265,"lon":5.384239,"is_reserved":false,"is_disabled":false,"rental_uris":{"android":"levelo://app?vid=30537d43-af02-4a10-b928-7b9b8cf633d2","ios":"levelo://app?vid=30537d43-af02-4a10-b928-7b9b8cf633d2"},"vehicle_type_id":"4","last_reported":1691561345,"current_range_meters":21200,"station_id":"ce4bgg92rcd13ifvqb30","pricing_plan_id":"free"},{"bike_id":"255cf391-6232-4e5a-99de-78f310b4d729","system_id":"levelo_inurba_marseille","lat":43.30536,"lon":5.38435,"is_reserved":false,"is_disabled":false,"rental_uris":{"android":"levelo://app?vid=255cf391-6232-4e5a-99de-78f310b4d729","ios":"levelo://app?vid=255cf391-6232-4e5a-99de-78f310b4d729"},"vehicle_type_id":"4","last_reported":1691561345,"current_range_meters":28000,"station_id":"ce4bgg92rcd13ifvqb30","pricing_plan_id":"free"},{"bike_id":"0adf9f92-b558-4319-b1c7-82642d9b154a","system_id":"levelo_inurba_marseille","lat":43.298433,"lon":5.362774,"is_reserved":false,"is_disabled":false,"rental_uris":{"android":"levelo://app?vid=0adf9f92-b558-4319-b1c7-82642d9b154a","ios":"levelo://app?vid=0adf9f92-b558-4319-b1c7-82642d9b154a"},"vehicle_type_id":"4","last_reported":1691561345,"current_range_meters":20400,"station_id":"ce4bgpp2rcd13ifvqc3g","pricing_plan_id":"free"},{"bike_id":"f34ea184-7985-4a9c-a527-497640c3cfc5","system_id":"levelo_inurba_marseille","lat":43.311722,"lon":5.387247,"is_reserved":false,"is_disabled":false,"rental_uris":{"android":"levelo://app?vid=f34ea184-7985-4a9c-a527-497640c3cfc5","ios":"levelo://app?vid=f34ea184-7985-4a9c-a527-497640c3cfc5"},"vehicle_type_id":"4","last_reported":1691561345,"current_range_meters":28400,"station_id":"ce4bgv12rcd13ifvqcp0","pricing_plan_id":"free"},{"bike_id":"b70228ee-6691-459d-b1eb-bbeaf265f554","system_id":"levelo_inurba_marseille","lat":43.311722,"lon":5.387247,"is_reserved":false,"is_disabled":false,"rental_uris":{"android":"levelo://app?vid=b70228ee-6691-459d-b1eb-bbeaf265f554","ios":"levelo://app?vid=b70228ee-6691-459d-b1eb-bbeaf265f554"},"vehicle_type_id":"4","last_reported":1691561345,"current_range_meters":31200,"station_id":"ce4bgv12rcd13ifvqcp0","pricing_plan_id":"free"},{"bike_id":"fad1f011-5d97-4fe2-8f28-55efd66a65c5","system_id":"levelo_inurba_marseille","lat":43.311722,"lon":5.387247,"is_reserved":false,"is_disabled":false,"rental_uris":{"android":"levelo://app?vid=fad1f011-5d97-4fe2-8f28-55efd66a65c5","ios":"levelo://app?vid=fad1f011-5d97-4fe2-8f28-55efd66a65c5"},"vehicle_type_id":"4","last_reported":1691561345,"current_range_meters":31200,"station_id":"ce4bgv12rcd13ifvqcp0","pricing_plan_id":"free"},{"bike_id":"af5f0ba3-5944-49d9-8a5e-09dfd05d27f3","system_id":"levelo_inurba_marseille","lat":43.32284,"lon":5.38273,"is_reserved":false,"is_disabled":false,"rental_uris":{"android":"levelo://app?vid=af5f0ba3-5944-49d9-8a5e-09dfd05d27f3","ios":"levelo://app?vid=af5f0ba3-5944-49d9-8a5e-09dfd05d27f3"},"vehicle_type_id":"4","last_reported":1691561345,"current_range_meters":29200,"station_id":"ce4bhr12rcd13ifvqhqg","pricing_plan_id":"free"},{"bike_id":"31fbeef0-3ea6-4181-b554-9ffe87064c33","system_id":"levelo_inurba_marseille","lat":43.32289,"lon":5.38275,"is_reserved":false,"is_disabled":false,"rental_uris":{"android":"levelo://app?vid=31fbeef0-3ea6-4181-b554-9ffe87064c33","ios":"levelo://app?vid=31fbeef0-3ea6-4181-b554-9ffe87064c33"},"vehicle_type_id":"4","last_reported":1691561345,"current_range_meters":29600,"station_id":"ce4bhr12rcd13ifvqhqg","pricing_plan_id":"free"},{"bike_id":"3a574de3-b31f-4b53-9fcf-1545808be757","system_id":"levelo_inurba_marseille","lat":43.32289,"lon":5.38282,"is_reserved":false,"is_disabled":false,"rental_uris":{"android":"levelo://app?vid=3a574de3-b31f-4b53-9fcf-1545808be757","ios":"levelo://app?vid=3a574de3-b31f-4b53-9fcf-1545808be757"},"vehicle_type_id":"4","last_reported":1691561345,"current_range_meters":27600,"station_id":"ce4bhr12rcd13ifvqhqg","pricing_plan_id":"free"},{"bike_id":"b3e59944-51c6-41f6-a617-bc9454b48e90","system_id":"levelo_inurba_marseille","lat":43.32822,"lon":5.36672,"is_reserved":false,"is_disabled":false,"rental_uris":{"android":"levelo://app?vid=b3e59944-51c6-41f6-a617-bc9454b48e90","ios":"levelo://app?vid=b3e59944-51c6-41f6-a617-bc9454b48e90"},"vehicle_type_id":"4","last_reported":1691561345,"current_range_meters":2000,"station_id":"ce4bhs92rcd13ifvqi0g","pricing_plan_id":"free"},{"bike_id":"96a24695-afe7-4738-b13e-7bd48d93c2cd","system_id":"levelo_inurba_marseille","lat":43.328371,"lon":5.366909,"is_reserved":false,"is_disabled":false,"rental_uris":{"android":"levelo://app?vid=96a24695-afe7-4738-b13e-7bd48d93c2cd","ios":"levelo://app?vid=96a24695-afe7-4738-b13e-7bd48d93c2cd"},"vehicle_type_id":"4","last_reported":1691561345,"current_range_meters":27200,"station_id":"ce4bhs92rcd13ifvqi0g","pricing_plan_id":"free"},{"bike_id":"1aa045b9-3de3-4cf3-bcc9-d7e40ca37fd7","system_id":"levelo_inurba_marseille","lat":43.328371,"lon":5.366909,"is_reserved":false,"is_disabled":false,"rental_uris":{"android":"levelo://app?vid=1aa045b9-3de3-4cf3-bcc9-d7e40ca37fd7","ios":"levelo://app?vid=1aa045b9-3de3-4cf3-bcc9-d7e40ca37fd7"},"vehicle_type_id":"4","last_reported":1691561345,"current_range_meters":26800,"station_id":"ce4bhs92rcd13ifvqi0g","pricing_plan_id":"free"},{"bike_id":"22ab1de9-259f-4ba8-9b1b-8a48368f1118","system_id":"levelo_inurba_marseille","lat":43.32826,"lon":5.36679,"is_reserved":false,"is_disabled":false,"rental_uris":{"android":"levelo://app?vid=22ab1de9-259f-4ba8-9b1b-8a48368f1118","ios":"levelo://app?vid=22ab1de9-259f-4ba8-9b1b-8a48368f1118"},"vehicle_type_id":"4","last_reported":1691561345,"current_range_meters":5200,"station_id":"ce4bhs92rcd13ifvqi0g","pricing_plan_id":"free"},{"bike_id":"3dee33b0-1dbd-4d86-9b6b-12fca67c3ee9","system_id":"levelo_inurba_marseille","lat":43.328371,"lon":5.366909,"is_reserved":false,"is_disabled":false,"rental_uris":{"android":"levelo://app?vid=3dee33b0-1dbd-4d86-9b6b-12fca67c3ee9","ios":"levelo://app?vid=3dee33b0-1dbd-4d86-9b6b-12fca67c3ee9"},"vehicle_type_id":"4","last_reported":1691561345,"current_range_meters":24800,"station_id":"ce4bhs92rcd13ifvqi0g","pricing_plan_id":"free"},{"bike_id":"69208cf7-0ad1-487d-a460-18606486926b","system_id":"levelo_inurba_marseille","lat":43.328371,"lon":5.366909,"is_reserved":false,"is_disabled":false,"rental_uris":{"android":"levelo://app?vid=69208cf7-0ad1-487d-a460-18606486926b","ios":"levelo://app?vid=69208cf7-0ad1-487d-a460-18606486926b"},"vehicle_type_id":"4","last_reported":1691561345,"current_range_meters":11600,"station_id":"ce4bhs92rcd13ifvqi0g","pricing_plan_id":"free"},{"bike_id":"09894efb-80a6-4793-9e44-65d5da7e2620","system_id":"levelo_inurba_marseille","lat":43.32831,"lon":5.36693,"is_reserved":false,"is_disabled":false,"rental_uris":{"android":"levelo://app?vid=09894efb-80a6-4793-9e44-65d5da7e2620","ios":"levelo://app?vid=09894efb-80a6-4793-9e44-65d5da7e2620"},"vehicle_type_id":"4","last_reported":1691561345,"current_range_meters":30800,"station_id":"ce4bhs92rcd13ifvqi0g","pricing_plan_id":"free"},{"bike_id":"869660b5-721a-4c07-a336-44a27c46afda","system_id":"levelo_inurba_marseille","lat":43.328371,"lon":5.366909,"is_reserved":false,"is_disabled":false,"rental_uris":{"android":"levelo://app?vid=869660b5-721a-4c07-a336-44a27c46afda","ios":"levelo://app?vid=869660b5-721a-4c07-a336-44a27c46afda"},"vehicle_type_id":"4","last_reported":1691561345,"current_range_meters":15600,"station_id":"ce4bhs92rcd13ifvqi0g","pricing_plan_id":"free"},{"bike_id":"dd789220-e7b5-42c1-b9dc-dc4243148021","system_id":"levelo_inurba_marseille","lat":43.297163,"lon":5.365866,"is_reserved":false,"is_disabled":false,"rental_uris":{"android":"levelo://app?vid=dd789220-e7b5-42c1-b9dc-dc4243148021","ios":"levelo://app?vid=dd789220-e7b5-42c1-b9dc-dc4243148021"},"vehicle_type_id":"4","last_reported":1691561345,"current_range_meters":30000,"station_id":"ce4bgn12rcd13ifvqbt0","pricing_plan_id":"free"},{"bike_id":"06dd230e-fa01-4a49-bca8-ab1cdb1378ce","system_id":"levelo_inurba_marseille","lat":43.2968,"lon":5.37291,"is_reserved":false,"is_disabled":false,"rental_uris":{"android":"levelo://app?vid=06dd230e-fa01-4a49-bca8-ab1cdb1378ce","ios":"levelo://app?vid=06dd230e-fa01-4a49-bca8-ab1cdb1378ce"},"vehicle_type_id":"4","last_reported":1691561345,"current_range_meters":31200,"station_id":"ce4bgk12rcd13ifvqbj0","pricing_plan_id":"free"},{"bike_id":"ce81e686-7c17-4545-8a1c-933e9f90af61","system_id":"levelo_inurba_marseille","lat":43.2968,"lon":5.37291,"is_reserved":false,"is_disabled":false,"rental_uris":{"android":"levelo://app?vid=ce81e686-7c17-4545-8a1c-933e9f90af61","ios":"levelo://app?vid=ce81e686-7c17-4545-8a1c-933e9f90af61"},"vehicle_type_id":"4","last_reported":1691561345,"current_range_meters":27600,"station_id":"ce4bgk12rcd13ifvqbj0","pricing_plan_id":"free"},{"bike_id":"244761de-953b-4b63-8a37-b9d7156e461e","system_id":"levelo_inurba_marseille","lat":43.29573,"lon":5.367355,"is_reserved":false,"is_disabled":false,"rental_uris":{"android":"levelo://app?vid=244761de-953b-4b63-8a37-b9d7156e461e","ios":"levelo://app?vid=244761de-953b-4b63-8a37-b9d7156e461e"},"vehicle_type_id":"4","last_reported":1691561345,"current_range_meters":25600,"station_id":"ce4bgph2rcd13ifvqc2g","pricing_plan_id":"free"},{"bike_id":"11ed6e96-dfee-49c0-b21a-9b6871a6db95","system_id":"levelo_inurba_marseille","lat":43.29573,"lon":5.367355,"is_reserved":false,"is_disabled":false,"rental_uris":{"android":"levelo://app?vid=11ed6e96-dfee-49c0-b21a-9b6871a6db95","ios":"levelo://app?vid=11ed6e96-dfee-49c0-b21a-9b6871a6db95"},"vehicle_type_id":"4","last_reported":1691561345,"current_range_meters":31200,"station_id":"ce4bgph2rcd13ifvqc2g","pricing_plan_id":"free"},{"bike_id":"193dbd4c-4ad9-4ba3-a998-6d4ba1f6657f","system_id":"levelo_inurba_marseille","lat":43.296921,"lon":5.376579,"is_reserved":false,"is_disabled":false,"rental_uris":{"android":"levelo://app?vid=193dbd4c-4ad9-4ba3-a998-6d4ba1f6657f","ios":"levelo://app?vid=193dbd4c-4ad9-4ba3-a998-6d4ba1f6657f"},"vehicle_type_id":"4","last_reported":1691561345,"current_range_meters":31200,"station_id":"ce4bgkh2rcd13ifvqbl0","pricing_plan_id":"free"},{"bike_id":"cc596dda-9f24-4ba1-8dbe-f2e9bda9d140","system_id":"levelo_inurba_marseille","lat":43.296921,"lon":5.376579,"is_reserved":false,"is_disabled":false,"rental_uris":{"android":"levelo://app?vid=cc596dda-9f24-4ba1-8dbe-f2e9bda9d140","ios":"levelo://app?vid=cc596dda-9f24-4ba1-8dbe-f2e9bda9d140"},"vehicle_type_id":"4","last_reported":1691561345,"current_range_meters":22000,"station_id":"ce4bgkh2rcd13ifvqbl0","pricing_plan_id":"free"},{"bike_id":"0c7254bc-ec7d-473e-be27-142e02225a01","system_id":"levelo_inurba_marseille","lat":43.296921,"lon":5.376579,"is_reserved":false,"is_disabled":false,"rental_uris":{"android":"levelo://app?vid=0c7254bc-ec7d-473e-be27-142e02225a01","ios":"levelo://app?vid=0c7254bc-ec7d-473e-be27-142e02225a01"},"vehicle_type_id":"4","last_reported":1691561345,"current_range_meters":29200,"station_id":"ce4bgkh2rcd13ifvqbl0","pricing_plan_id":"free"},{"bike_id":"ed7b7df9-474d-4048-af9d-209aaa77e51f","system_id":"levelo_inurba_marseille","lat":43.299028,"lon":5.381509,"is_reserved":false,"is_disabled":false,"rental_uris":{"android":"levelo://app?vid=ed7b7df9-474d-4048-af9d-209aaa77e51f","ios":"levelo://app?vid=ed7b7df9-474d-4048-af9d-209aaa77e51f"},"vehicle_type_id":"4","last_reported":1691561345,"current_range_meters":31200,"station_id":"ce4bgj12rcd13ifvqbc0","pricing_plan_id":"free"},{"bike_id":"2bfa58cb-d009-4554-9eab-3c7d66496fe3","system_id":"levelo_inurba_marseille","lat":43.299028,"lon":5.381509,"is_reserved":false,"is_disabled":false,"rental_uris":{"android":"levelo://app?vid=2bfa58cb-d009-4554-9eab-3c7d66496fe3","ios":"levelo://app?vid=2bfa58cb-d009-4554-9eab-3c7d66496fe3"},"vehicle_type_id":"4","last_reported":1691561345,"current_range_meters":25600,"station_id":"ce4bgj12rcd13ifvqbc0","pricing_plan_id":"free"},{"bike_id":"fbc0fa19-2ad9-4966-a167-e90813b7f993","system_id":"levelo_inurba_marseille","lat":43.309589,"lon":5.390258,"is_reserved":false,"is_disabled":false,"rental_uris":{"android":"levelo://app?vid=fbc0fa19-2ad9-4966-a167-e90813b7f993","ios":"levelo://app?vid=fbc0fa19-2ad9-4966-a167-e90813b7f993"},"vehicle_type_id":"4","last_reported":1691561345,"current_range_meters":29600,"station_id":"ce4bgup2rcd13ifvqco0","pricing_plan_id":"free"},{"bike_id":"b7a42048-b2d2-4aad-ba70-de286c7585ae","system_id":"levelo_inurba_marseille","lat":43.309589,"lon":5.390258,"is_reserved":false,"is_disabled":false,"rental_uris":{"android":"levelo://app?vid=b7a42048-b2d2-4aad-ba70-de286c7585ae","ios":"levelo://app?vid=b7a42048-b2d2-4aad-ba70-de286c7585ae"},"vehicle_type_id":"4","last_reported":1691561345,"current_range_meters":24400,"station_id":"ce4bgup2rcd13ifvqco0","pricing_plan_id":"free"},{"bike_id":"8775df60-0909-468b-8b3b-ed45221932cd","system_id":"levelo_inurba_marseille","lat":43.309589,"lon":5.390258,"is_reserved":false,"is_disabled":false,"rental_uris":{"android":"levelo://app?vid=8775df60-0909-468b-8b3b-ed45221932cd","ios":"levelo://app?vid=8775df60-0909-468b-8b3b-ed45221932cd"},"vehicle_type_id":"4","last_reported":1691561345,"current_range_meters":24400,"station_id":"ce4bgup2rcd13ifvqco0","pricing_plan_id":"free"},{"bike_id":"dc0975d4-43f9-4ab5-a802-9829761460be","system_id":"levelo_inurba_marseille","lat":43.309589,"lon":5.390258,"is_reserved":false,"is_disabled":false,"rental_uris":{"android":"levelo://app?vid=dc0975d4-43f9-4ab5-a802-9829761460be","ios":"levelo://app?vid=dc0975d4-43f9-4ab5-a802-9829761460be"},"vehicle_type_id":"4","last_reported":1691561345,"current_range_meters":2400,"station_id":"ce4bgup2rcd13ifvqco0","pricing_plan_id":"free"},{"bike_id":"9d5831f4-5225-41ad-96c6-7833e52df48f","system_id":"levelo_inurba_marseille","lat":43.309589,"lon":5.390258,"is_reserved":false,"is_disabled":false,"rental_uris":{"android":"levelo://app?vid=9d5831f4-5225-41ad-96c6-7833e52df48f","ios":"levelo://app?vid=9d5831f4-5225-41ad-96c6-7833e52df48f"},"vehicle_type_id":"4","last_reported":1691561345,"current_range_meters":31200,"station_id":"ce4bgup2rcd13ifvqco0","pricing_plan_id":"free"},{"bike_id":"a791c162-74c6-4555-9cef-ed2d6c6b00f2","system_id":"levelo_inurba_marseille","lat":43.30944,"lon":5.39046,"is_reserved":false,"is_disabled":false,"rental_uris":{"android":"levelo://app?vid=a791c162-74c6-4555-9cef-ed2d6c6b00f2","ios":"levelo://app?vid=a791c162-74c6-4555-9cef-ed2d6c6b00f2"},"vehicle_type_id":"4","last_reported":1691561345,"current_range_meters":0,"station_id":"ce4bgup2rcd13ifvqco0","pricing_plan_id":"free"},{"bike_id":"a5b609a0-276a-4cb6-abe0-d271e982479c","system_id":"levelo_inurba_marseille","lat":43.30953,"lon":5.39051,"is_reserved":false,"is_disabled":false,"rental_uris":{"android":"levelo://app?vid=a5b609a0-276a-4cb6-abe0-d271e982479c","ios":"levelo://app?vid=a5b609a0-276a-4cb6-abe0-d271e982479c"},"vehicle_type_id":"4","last_reported":1691561345,"current_range_meters":24000,"station_id":"ce4bgup2rcd13ifvqco0","pricing_plan_id":"free"},{"bike_id":"2254893a-f8af-408b-929e-e950f3ccd097","system_id":"levelo_inurba_marseille","lat":43.309589,"lon":5.390258,"is_reserved":false,"is_disabled":false,"rental_uris":{"android":"levelo://app?vid=2254893a-f8af-408b-929e-e950f3ccd097","ios":"levelo://app?vid=2254893a-f8af-408b-929e-e950f3ccd097"},"vehicle_type_id":"4","last_reported":1691561345,"current_range_meters":27600,"station_id":"ce4bgup2rcd13ifvqco0","pricing_plan_id":"free"},{"bike_id":"bcacad79-d78f-4a97-a9fc-e7bd8054ce5c","system_id":"levelo_inurba_marseille","lat":43.30948,"lon":5.39057,"is_reserved":false,"is_disabled":false,"rental_uris":{"android":"levelo://app?vid=bcacad79-d78f-4a97-a9fc-e7bd8054ce5c","ios":"levelo://app?vid=bcacad79-d78f-4a97-a9fc-e7bd8054ce5c"},"vehicle_type_id":"4","last_reported":1691561345,"current_range_meters":6000,"station_id":"ce4bgup2rcd13ifvqco0","pricing_plan_id":"free"},{"bike_id":"6f27de8a-42d7-45b5-b5de-815bde7daf80","system_id":"levelo_inurba_marseille","lat":43.317557,"lon":5.390173,"is_reserved":false,"is_disabled":false,"rental_uris":{"android":"levelo://app?vid=6f27de8a-42d7-45b5-b5de-815bde7daf80","ios":"levelo://app?vid=6f27de8a-42d7-45b5-b5de-815bde7daf80"},"vehicle_type_id":"4","last_reported":1691561345,"current_range_meters":29200,"station_id":"ce4bhqp2rcd13ifvqhng","pricing_plan_id":"free"},{"bike_id":"e89c3ea9-6b3c-4b72-a2ba-93153e46acf5","system_id":"levelo_inurba_marseille","lat":43.32252,"lon":5.38702,"is_reserved":false,"is_disabled":false,"rental_uris":{"android":"levelo://app?vid=e89c3ea9-6b3c-4b72-a2ba-93153e46acf5","ios":"levelo://app?vid=e89c3ea9-6b3c-4b72-a2ba-93153e46acf5"},"vehicle_type_id":"4","last_reported":1691561345,"current_range_meters":0,"station_id":"","pricing_plan_id":"free"},{"bike_id":"ab6e49ef-f741-44c9-8bbc-e804927e8a20","system_id":"levelo_inurba_marseille","lat":43.298037,"lon":5.381066,"is_reserved":false,"is_disabled":false,"rental_uris":{"android":"levelo://app?vid=ab6e49ef-f741-44c9-8bbc-e804927e8a20","ios":"levelo://app?vid=ab6e49ef-f741-44c9-8bbc-e804927e8a20"},"vehicle_type_id":"4","last_reported":1691561345,"current_range_meters":0,"station_id":"ce4bgip2rcd13ifvqbb0","pricing_plan_id":"free"},{"bike_id":"3cd4bd51-213f-4dbb-afdb-680ca48fe226","system_id":"levelo_inurba_marseille","lat":43.295748,"lon":5.37522,"is_reserved":false,"is_disabled":false,"rental_uris":{"android":"levelo://app?vid=3cd4bd51-213f-4dbb-afdb-680ca48fe226","ios":"levelo://app?vid=3cd4bd51-213f-4dbb-afdb-680ca48fe226"},"vehicle_type_id":"4","last_reported":1691561345,"current_range_meters":31200,"station_id":"ce4bgh92rcd13ifvqb50","pricing_plan_id":"free"},{"bike_id":"a5321e3c-eea3-40fe-9fb3-0cfc1165ac66","system_id":"levelo_inurba_marseille","lat":43.298037,"lon":5.381066,"is_reserved":false,"is_disabled":false,"rental_uris":{"android":"levelo://app?vid=a5321e3c-eea3-40fe-9fb3-0cfc1165ac66","ios":"levelo://app?vid=a5321e3c-eea3-40fe-9fb3-0cfc1165ac66"},"vehicle_type_id":"4","last_reported":1691561345,"current_range_meters":30000,"station_id":"ce4bgip2rcd13ifvqbb0","pricing_plan_id":"free"},{"bike_id":"934b3ee8-ef36-440e-bcdf-7b3893ddf2db","system_id":"levelo_inurba_marseille","lat":43.29574,"lon":5.37506,"is_reserved":false,"is_disabled":false,"rental_uris":{"android":"levelo://app?vid=934b3ee8-ef36-440e-bcdf-7b3893ddf2db","ios":"levelo://app?vid=934b3ee8-ef36-440e-bcdf-7b3893ddf2db"},"vehicle_type_id":"4","last_reported":1691561345,"current_range_meters":29600,"station_id":"ce4bgh92rcd13ifvqb50","pricing_plan_id":"free"},{"bike_id":"3c4499b2-0852-407b-bc79-4f60d909552b","system_id":"levelo_inurba_marseille","lat":43.30434,"lon":5.38881,"is_reserved":false,"is_disabled":false,"rental_uris":{"android":"levelo://app?vid=3c4499b2-0852-407b-bc79-4f60d909552b","ios":"levelo://app?vid=3c4499b2-0852-407b-bc79-4f60d909552b"},"vehicle_type_id":"4","last_reported":1691561345,"current_range_meters":22400,"station_id":"ce4bgk12rcd13ifvqbi0","pricing_plan_id":"free"},{"bike_id":"d179ac67-a9d7-4446-b07c-307f087343d2","system_id":"levelo_inurba_marseille","lat":43.30435,"lon":5.38883,"is_reserved":false,"is_disabled":false,"rental_uris":{"android":"levelo://app?vid=d179ac67-a9d7-4446-b07c-307f087343d2","ios":"levelo://app?vid=d179ac67-a9d7-4446-b07c-307f087343d2"},"vehicle_type_id":"4","last_reported":1691561345,"current_range_meters":28800,"station_id":"ce4bgk12rcd13ifvqbi0","pricing_plan_id":"free"},{"bike_id":"45f5db68-6f26-40aa-9e3b-d323618b8b4d","system_id":"levelo_inurba_marseille","lat":43.295748,"lon":5.37522,"is_reserved":false,"is_disabled":false,"rental_uris":{"android":"levelo://app?vid=45f5db68-6f26-40aa-9e3b-d323618b8b4d","ios":"levelo://app?vid=45f5db68-6f26-40aa-9e3b-d323618b8b4d"},"vehicle_type_id":"4","last_reported":1691561345,"current_range_meters":31200,"station_id":"ce4bgh92rcd13ifvqb50","pricing_plan_id":"free"},{"bike_id":"cc871900-5816-4a0e-84f7-e5854a0a5ac5","system_id":"levelo_inurba_marseille","lat":43.3043,"lon":5.38885,"is_reserved":false,"is_disabled":false,"rental_uris":{"android":"levelo://app?vid=cc871900-5816-4a0e-84f7-e5854a0a5ac5","ios":"levelo://app?vid=cc871900-5816-4a0e-84f7-e5854a0a5ac5"},"vehicle_type_id":"4","last_reported":1691561345,"current_range_meters":28000,"station_id":"ce4bgk12rcd13ifvqbi0","pricing_plan_id":"free"},{"bike_id":"006159f3-e46a-4cd7-b7d7-659d64725b92","system_id":"levelo_inurba_marseille","lat":43.30435,"lon":5.3889,"is_reserved":false,"is_disabled":false,"rental_uris":{"android":"levelo://app?vid=006159f3-e46a-4cd7-b7d7-659d64725b92","ios":"levelo://app?vid=006159f3-e46a-4cd7-b7d7-659d64725b92"},"vehicle_type_id":"4","last_reported":1691561345,"current_range_meters":0,"station_id":"ce4bgk12rcd13ifvqbi0","pricing_plan_id":"free"},{"bike_id":"e7a59a08-1a58-4899-983c-3d474096860c","system_id":"levelo_inurba_marseille","lat":43.295748,"lon":5.37522,"is_reserved":false,"is_disabled":false,"rental_uris":{"android":"levelo://app?vid=e7a59a08-1a58-4899-983c-3d474096860c","ios":"levelo://app?vid=e7a59a08-1a58-4899-983c-3d474096860c"},"vehicle_type_id":"4","last_reported":1691561345,"current_range_meters":31200,"station_id":"ce4bgh92rcd13ifvqb50","pricing_plan_id":"free"},{"bike_id":"9f87537e-7a3a-45d4-905f-7910d84821ad","system_id":"levelo_inurba_marseille","lat":43.30437,"lon":5.38894,"is_reserved":false,"is_disabled":false,"rental_uris":{"android":"levelo://app?vid=9f87537e-7a3a-45d4-905f-7910d84821ad","ios":"levelo://app?vid=9f87537e-7a3a-45d4-905f-7910d84821ad"},"vehicle_type_id":"4","last_reported":1691561345,"current_range_meters":28000,"station_id":"ce4bgk12rcd13ifvqbi0","pricing_plan_id":"free"},{"bike_id":"67e1c25c-2af7-4c5e-baf4-6a737435d408","system_id":"levelo_inurba_marseille","lat":43.30435,"lon":5.38893,"is_reserved":false,"is_disabled":false,"rental_uris":{"android":"levelo://app?vid=67e1c25c-2af7-4c5e-baf4-6a737435d408","ios":"levelo://app?vid=67e1c25c-2af7-4c5e-baf4-6a737435d408"},"vehicle_type_id":"4","last_reported":1691561345,"current_range_meters":0,"station_id":"ce4bgk12rcd13ifvqbi0","pricing_plan_id":"free"},{"bike_id":"eee7746f-49f5-4963-8098-d3e98ff43bd9","system_id":"levelo_inurba_marseille","lat":43.30432,"lon":5.38894,"is_reserved":false,"is_disabled":false,"rental_uris":{"android":"levelo://app?vid=eee7746f-49f5-4963-8098-d3e98ff43bd9","ios":"levelo://app?vid=eee7746f-49f5-4963-8098-d3e98ff43bd9"},"vehicle_type_id":"4","last_reported":1691561345,"current_range_meters":22000,"station_id":"ce4bgk12rcd13ifvqbi0","pricing_plan_id":"free"},{"bike_id":"ef06a941-9300-48fe-9082-27e761f61b24","system_id":"levelo_inurba_marseille","lat":43.30438,"lon":5.38899,"is_reserved":false,"is_disabled":false,"rental_uris":{"android":"levelo://app?vid=ef06a941-9300-48fe-9082-27e761f61b24","ios":"levelo://app?vid=ef06a941-9300-48fe-9082-27e761f61b24"},"vehicle_type_id":"4","last_reported":1691561345,"current_range_meters":26800,"station_id":"ce4bgk12rcd13ifvqbi0","pricing_plan_id":"free"},{"bike_id":"a4df99ce-0488-49dd-a888-94686f562e88","system_id":"levelo_inurba_marseille","lat":43.295748,"lon":5.37522,"is_reserved":false,"is_disabled":false,"rental_uris":{"android":"levelo://app?vid=a4df99ce-0488-49dd-a888-94686f562e88","ios":"levelo://app?vid=a4df99ce-0488-49dd-a888-94686f562e88"},"vehicle_type_id":"4","last_reported":1691561345,"current_range_meters":30400,"station_id":"ce4bgh92rcd13ifvqb50","pricing_plan_id":"free"},{"bike_id":"396bd51b-a0c7-4675-ac36-29450fdd00bb","system_id":"levelo_inurba_marseille","lat":43.30429,"lon":5.38899,"is_reserved":false,"is_disabled":false,"rental_uris":{"android":"levelo://app?vid=396bd51b-a0c7-4675-ac36-29450fdd00bb","ios":"levelo://app?vid=396bd51b-a0c7-4675-ac36-29450fdd00bb"},"vehicle_type_id":"4","last_reported":1691561345,"current_range_meters":11600,"station_id":"ce4bgk12rcd13ifvqbi0","pricing_plan_id":"free"},{"bike_id":"9a597d14-3da8-4425-abdc-79fa40428a48","system_id":"levelo_inurba_marseille","lat":43.29604,"lon":5.3772,"is_reserved":false,"is_disabled":false,"rental_uris":{"android":"levelo://app?vid=9a597d14-3da8-4425-abdc-79fa40428a48","ios":"levelo://app?vid=9a597d14-3da8-4425-abdc-79fa40428a48"},"vehicle_type_id":"4","last_reported":1691561345,"current_range_meters":0,"station_id":"ce4bgi92rcd13ifvqb90","pricing_plan_id":"free"},{"bike_id":"65f2a4df-1f4a-49f3-9860-611050055c6e","system_id":"levelo_inurba_marseille","lat":43.299707,"lon":5.384859,"is_reserved":false,"is_disabled":false,"rental_uris":{"android":"levelo://app?vid=65f2a4df-1f4a-49f3-9860-611050055c6e","ios":"levelo://app?vid=65f2a4df-1f4a-49f3-9860-611050055c6e"},"vehicle_type_id":"4","last_reported":1691561345,"current_range_meters":31200,"station_id":"ce4bgj92rcd13ifvqbd0","pricing_plan_id":"free"},{"bike_id":"348c9251-7a8b-4c64-9a0a-1358bb5d47c6","system_id":"levelo_inurba_marseille","lat":43.29971,"lon":5.38482,"is_reserved":false,"is_disabled":false,"rental_uris":{"android":"levelo://app?vid=348c9251-7a8b-4c64-9a0a-1358bb5d47c6","ios":"levelo://app?vid=348c9251-7a8b-4c64-9a0a-1358bb5d47c6"},"vehicle_type_id":"4","last_reported":1691561345,"current_range_meters":16000,"station_id":"ce4bgj92rcd13ifvqbd0","pricing_plan_id":"free"},{"bike_id":"19f2f15f-cb9a-47f9-9a0a-1a92f553bda8","system_id":"levelo_inurba_marseille","lat":43.299707,"lon":5.384859,"is_reserved":false,"is_disabled":false,"rental_uris":{"android":"levelo://app?vid=19f2f15f-cb9a-47f9-9a0a-1a92f553bda8","ios":"levelo://app?vid=19f2f15f-cb9a-47f9-9a0a-1a92f553bda8"},"vehicle_type_id":"4","last_reported":1691561345,"current_range_meters":29600,"station_id":"ce4bgj92rcd13ifvqbd0","pricing_plan_id":"free"},{"bike_id":"7c20b070-df0f-415a-842c-9d3995a8ee69","system_id":"levelo_inurba_marseille","lat":43.299707,"lon":5.384859,"is_reserved":false,"is_disabled":false,"rental_uris":{"android":"levelo://app?vid=7c20b070-df0f-415a-842c-9d3995a8ee69","ios":"levelo://app?vid=7c20b070-df0f-415a-842c-9d3995a8ee69"},"vehicle_type_id":"4","last_reported":1691561345,"current_range_meters":30000,"station_id":"ce4bgj92rcd13ifvqbd0","pricing_plan_id":"free"},{"bike_id":"7752e2ee-6ee4-4a9d-af6f-1da1bc715c56","system_id":"levelo_inurba_marseille","lat":43.29968,"lon":5.38483,"is_reserved":false,"is_disabled":false,"rental_uris":{"android":"levelo://app?vid=7752e2ee-6ee4-4a9d-af6f-1da1bc715c56","ios":"levelo://app?vid=7752e2ee-6ee4-4a9d-af6f-1da1bc715c56"},"vehicle_type_id":"4","last_reported":1691561345,"current_range_meters":28000,"station_id":"ce4bgj92rcd13ifvqbd0","pricing_plan_id":"free"},{"bike_id":"75359c1c-8095-41a1-adda-795a4e1488d2","system_id":"levelo_inurba_marseille","lat":43.29971,"lon":5.38489,"is_reserved":false,"is_disabled":false,"rental_uris":{"android":"levelo://app?vid=75359c1c-8095-41a1-adda-795a4e1488d2","ios":"levelo://app?vid=75359c1c-8095-41a1-adda-795a4e1488d2"},"vehicle_type_id":"4","last_reported":1691561345,"current_range_meters":30400,"station_id":"ce4bgj92rcd13ifvqbd0","pricing_plan_id":"free"},{"bike_id":"218a20e1-2e4f-48db-8523-8196dca7a181","system_id":"levelo_inurba_marseille","lat":43.29969,"lon":5.38491,"is_reserved":false,"is_disabled":false,"rental_uris":{"android":"levelo://app?vid=218a20e1-2e4f-48db-8523-8196dca7a181","ios":"levelo://app?vid=218a20e1-2e4f-48db-8523-8196dca7a181"},"vehicle_type_id":"4","last_reported":1691561345,"current_range_meters":30800,"station_id":"ce4bgj92rcd13ifvqbd0","pricing_plan_id":"free"},{"bike_id":"94b35293-175b-4b83-a680-057772316ac6","system_id":"levelo_inurba_marseille","lat":43.29969,"lon":5.38493,"is_reserved":false,"is_disabled":false,"rental_uris":{"android":"levelo://app?vid=94b35293-175b-4b83-a680-057772316ac6","ios":"levelo://app?vid=94b35293-175b-4b83-a680-057772316ac6"},"vehicle_type_id":"4","last_reported":1691561345,"current_range_meters":30800,"station_id":"ce4bgj92rcd13ifvqbd0","pricing_plan_id":"free"},{"bike_id":"bd5f7a97-0cd6-4788-b1cd-b0d0cd397f18","system_id":"levelo_inurba_marseille","lat":43.29967,"lon":5.38495,"is_reserved":false,"is_disabled":false,"rental_uris":{"android":"levelo://app?vid=bd5f7a97-0cd6-4788-b1cd-b0d0cd397f18","ios":"levelo://app?vid=bd5f7a97-0cd6-4788-b1cd-b0d0cd397f18"},"vehicle_type_id":"4","last_reported":1691561345,"current_range_meters":21600,"station_id":"ce4bgj92rcd13ifvqbd0","pricing_plan_id":"free"},{"bike_id":"89167c46-19fb-4428-be8d-a2f6f1964079","system_id":"levelo_inurba_marseille","lat":43.3236,"lon":5.3888,"is_reserved":false,"is_disabled":false,"rental_uris":{"android":"levelo://app?vid=89167c46-19fb-4428-be8d-a2f6f1964079","ios":"levelo://app?vid=89167c46-19fb-4428-be8d-a2f6f1964079"},"vehicle_type_id":"4","last_reported":1691561345,"current_range_meters":13600,"station_id":"ce4bhqp2rcd13ifvqhog","pricing_plan_id":"free"},{"bike_id":"8622645b-3c96-4fdf-8cf6-da71833282c8","system_id":"levelo_inurba_marseille","lat":43.32366,"lon":5.38877,"is_reserved":false,"is_disabled":false,"rental_uris":{"android":"levelo://app?vid=8622645b-3c96-4fdf-8cf6-da71833282c8","ios":"levelo://app?vid=8622645b-3c96-4fdf-8cf6-da71833282c8"},"vehicle_type_id":"4","last_reported":1691561345,"current_range_meters":26800,"station_id":"ce4bhqp2rcd13ifvqhog","pricing_plan_id":"free"},{"bike_id":"f0474958-eb14-47d9-ac7d-322f3b913b2c","system_id":"levelo_inurba_marseille","lat":43.32363,"lon":5.3888,"is_reserved":false,"is_disabled":false,"rental_uris":{"android":"levelo://app?vid=f0474958-eb14-47d9-ac7d-322f3b913b2c","ios":"levelo://app?vid=f0474958-eb14-47d9-ac7d-322f3b913b2c"},"vehicle_type_id":"4","last_reported":1691561345,"current_range_meters":22000,"station_id":"ce4bhqp2rcd13ifvqhog","pricing_plan_id":"free"},{"bike_id":"d49575d1-4528-4e5c-b1ca-f33480a1c565","system_id":"levelo_inurba_marseille","lat":43.32366,"lon":5.3888,"is_reserved":false,"is_disabled":false,"rental_uris":{"android":"levelo://app?vid=d49575d1-4528-4e5c-b1ca-f33480a1c565","ios":"levelo://app?vid=d49575d1-4528-4e5c-b1ca-f33480a1c565"},"vehicle_type_id":"4","last_reported":1691561345,"current_range_meters":800,"station_id":"ce4bhqp2rcd13ifvqhog","pricing_plan_id":"free"},{"bike_id":"ed8d94bf-dee5-46f1-bcb0-d11eb6135548","system_id":"levelo_inurba_marseille","lat":43.323649,"lon":5.388827,"is_reserved":false,"is_disabled":false,"rental_uris":{"android":"levelo://app?vid=ed8d94bf-dee5-46f1-bcb0-d11eb6135548","ios":"levelo://app?vid=ed8d94bf-dee5-46f1-bcb0-d11eb6135548"},"vehicle_type_id":"4","last_reported":1691561345,"current_range_meters":17200,"station_id":"ce4bhqp2rcd13ifvqhog","pricing_plan_id":"free"},{"bike_id":"f1e71928-d1ef-4c15-876a-d4bf068bc425","system_id":"levelo_inurba_marseille","lat":43.32367,"lon":5.388836,"is_reserved":false,"is_disabled":false,"rental_uris":{"android":"levelo://app?vid=f1e71928-d1ef-4c15-876a-d4bf068bc425","ios":"levelo://app?vid=f1e71928-d1ef-4c15-876a-d4bf068bc425"},"vehicle_type_id":"4","last_reported":1691561345,"current_range_meters":18400,"station_id":"ce4bhqp2rcd13ifvqhog","pricing_plan_id":"free"},{"bike_id":"76c391ee-2205-4639-a6be-a8561f89affc","system_id":"levelo_inurba_marseille","lat":43.32364,"lon":5.38887,"is_reserved":false,"is_disabled":false,"rental_uris":{"android":"levelo://app?vid=76c391ee-2205-4639-a6be-a8561f89affc","ios":"levelo://app?vid=76c391ee-2205-4639-a6be-a8561f89affc"},"vehicle_type_id":"4","last_reported":1691561345,"current_range_meters":20000,"station_id":"ce4bhqp2rcd13ifvqhog","pricing_plan_id":"free"},{"bike_id":"706b5370-7eed-4a42-a1a9-b4cf78d1d029","system_id":"levelo_inurba_marseille","lat":43.3236,"lon":5.38891,"is_reserved":false,"is_disabled":false,"rental_uris":{"android":"levelo://app?vid=706b5370-7eed-4a42-a1a9-b4cf78d1d029","ios":"levelo://app?vid=706b5370-7eed-4a42-a1a9-b4cf78d1d029"},"vehicle_type_id":"4","last_reported":1691561345,"current_range_meters":6400,"station_id":"ce4bhqp2rcd13ifvqhog","pricing_plan_id":"free"},{"bike_id":"09bdcea8-f003-494e-acb1-85fbb290a0e2","system_id":"levelo_inurba_marseille","lat":43.32367,"lon":5.38887,"is_reserved":false,"is_disabled":false,"rental_uris":{"android":"levelo://app?vid=09bdcea8-f003-494e-acb1-85fbb290a0e2","ios":"levelo://app?vid=09bdcea8-f003-494e-acb1-85fbb290a0e2"},"vehicle_type_id":"4","last_reported":1691561345,"current_range_meters":0,"station_id":"ce4bhqp2rcd13ifvqhog","pricing_plan_id":"free"},{"bike_id":"353e1cc1-8b92-4f33-bd4a-b4a8d11af749","system_id":"levelo_inurba_marseille","lat":43.29601,"lon":5.381084,"is_reserved":false,"is_disabled":false,"rental_uris":{"android":"levelo://app?vid=353e1cc1-8b92-4f33-bd4a-b4a8d11af749","ios":"levelo://app?vid=353e1cc1-8b92-4f33-bd4a-b4a8d11af749"},"vehicle_type_id":"4","last_reported":1691561345,"current_range_meters":9200,"station_id":"ce4bgl12rcd13ifvqbo0","pricing_plan_id":"free"},{"bike_id":"4231df07-920c-4f25-976a-4d167bffa1dd","system_id":"levelo_inurba_marseille","lat":43.293249,"lon":5.371578,"is_reserved":false,"is_disabled":false,"rental_uris":{"android":"levelo://app?vid=4231df07-920c-4f25-976a-4d167bffa1dd","ios":"levelo://app?vid=4231df07-920c-4f25-976a-4d167bffa1dd"},"vehicle_type_id":"4","last_reported":1691561345,"current_range_meters":30000,"station_id":"ce4bgh92rcd13ifvqb40","pricing_plan_id":"free"},{"bike_id":"e9cae705-1e91-43bc-a063-718543be6d46","system_id":"levelo_inurba_marseille","lat":43.292749,"lon":5.368398,"is_reserved":false,"is_disabled":false,"rental_uris":{"android":"levelo://app?vid=e9cae705-1e91-43bc-a063-718543be6d46","ios":"levelo://app?vid=e9cae705-1e91-43bc-a063-718543be6d46"},"vehicle_type_id":"4","last_reported":1691561345,"current_range_meters":9600,"station_id":"ce4bhbp2rcd13ifvqesg","pricing_plan_id":"free"},{"bike_id":"6a93cf12-9b5b-4d1c-95cf-d4026e32ca3c","system_id":"levelo_inurba_marseille","lat":43.292749,"lon":5.368402,"is_reserved":false,"is_disabled":false,"rental_uris":{"android":"levelo://app?vid=6a93cf12-9b5b-4d1c-95cf-d4026e32ca3c","ios":"levelo://app?vid=6a93cf12-9b5b-4d1c-95cf-d4026e32ca3c"},"vehicle_type_id":"4","last_reported":1691561345,"current_range_meters":20400,"station_id":"ce4bhbp2rcd13ifvqesg","pricing_plan_id":"free"},{"bike_id":"dbe406a0-e31d-4174-932b-0d8d584d17c2","system_id":"levelo_inurba_marseille","lat":43.292749,"lon":5.368398,"is_reserved":false,"is_disabled":false,"rental_uris":{"android":"levelo://app?vid=dbe406a0-e31d-4174-932b-0d8d584d17c2","ios":"levelo://app?vid=dbe406a0-e31d-4174-932b-0d8d584d17c2"},"vehicle_type_id":"4","last_reported":1691561345,"current_range_meters":31200,"station_id":"ce4bhbp2rcd13ifvqesg","pricing_plan_id":"free"},{"bike_id":"78c85558-251c-45e0-9cb7-fa1793a28c3b","system_id":"levelo_inurba_marseille","lat":43.305994,"lon":5.393687,"is_reserved":false,"is_disabled":false,"rental_uris":{"android":"levelo://app?vid=78c85558-251c-45e0-9cb7-fa1793a28c3b","ios":"levelo://app?vid=78c85558-251c-45e0-9cb7-fa1793a28c3b"},"vehicle_type_id":"4","last_reported":1691561345,"current_range_meters":31200,"station_id":"ce4bh0p2rcd13ifvqd80","pricing_plan_id":"free"},{"bike_id":"61a3ff16-0bca-4b57-9188-703a5c3546bc","system_id":"levelo_inurba_marseille","lat":43.30594,"lon":5.39359,"is_reserved":false,"is_disabled":false,"rental_uris":{"android":"levelo://app?vid=61a3ff16-0bca-4b57-9188-703a5c3546bc","ios":"levelo://app?vid=61a3ff16-0bca-4b57-9188-703a5c3546bc"},"vehicle_type_id":"4","last_reported":1691561345,"current_range_meters":8000,"station_id":"ce4bh0p2rcd13ifvqd80","pricing_plan_id":"free"},{"bike_id":"b629d16d-9bd1-40b9-8671-17c711090faa","system_id":"levelo_inurba_marseille","lat":43.30598,"lon":5.39365,"is_reserved":false,"is_disabled":false,"rental_uris":{"android":"levelo://app?vid=b629d16d-9bd1-40b9-8671-17c711090faa","ios":"levelo://app?vid=b629d16d-9bd1-40b9-8671-17c711090faa"},"vehicle_type_id":"4","last_reported":1691561345,"current_range_meters":20400,"station_id":"ce4bh0p2rcd13ifvqd80","pricing_plan_id":"free"},{"bike_id":"b20a7e10-4301-4a42-a0d8-9664f81e248c","system_id":"levelo_inurba_marseille","lat":43.2936,"lon":5.37835,"is_reserved":false,"is_disabled":false,"rental_uris":{"android":"levelo://app?vid=b20a7e10-4301-4a42-a0d8-9664f81e248c","ios":"levelo://app?vid=b20a7e10-4301-4a42-a0d8-9664f81e248c"},"vehicle_type_id":"4","last_reported":1691561345,"current_range_meters":26000,"station_id":"ce4bgjh2rcd13ifvqbf0","pricing_plan_id":"free"},{"bike_id":"e56d0743-75be-47c6-a673-f097cf9a71be","system_id":"levelo_inurba_marseille","lat":43.302992,"lon":5.392136,"is_reserved":false,"is_disabled":false,"rental_uris":{"android":"levelo://app?vid=e56d0743-75be-47c6-a673-f097cf9a71be","ios":"levelo://app?vid=e56d0743-75be-47c6-a673-f097cf9a71be"},"vehicle_type_id":"4","last_reported":1691561345,"current_range_meters":28800,"station_id":"ce4bgkh2rcd13ifvqbk0","pricing_plan_id":"free"},{"bike_id":"541b77c4-87c8-495d-8e00-0174d092c414","system_id":"levelo_inurba_marseille","lat":43.2936,"lon":5.37835,"is_reserved":false,"is_disabled":false,"rental_uris":{"android":"levelo://app?vid=541b77c4-87c8-495d-8e00-0174d092c414","ios":"levelo://app?vid=541b77c4-87c8-495d-8e00-0174d092c414"},"vehicle_type_id":"4","last_reported":1691561345,"current_range_meters":19200,"station_id":"ce4bgjh2rcd13ifvqbf0","pricing_plan_id":"free"},{"bike_id":"5320eadc-09fd-4df8-bdf5-b67a17ef4829","system_id":"levelo_inurba_marseille","lat":43.302992,"lon":5.392136,"is_reserved":false,"is_disabled":false,"rental_uris":{"android":"levelo://app?vid=5320eadc-09fd-4df8-bdf5-b67a17ef4829","ios":"levelo://app?vid=5320eadc-09fd-4df8-bdf5-b67a17ef4829"},"vehicle_type_id":"4","last_reported":1691561345,"current_range_meters":23200,"station_id":"ce4bgkh2rcd13ifvqbk0","pricing_plan_id":"free"},{"bike_id":"30aa6334-56cc-4125-8804-64a51f397cc5","system_id":"levelo_inurba_marseille","lat":43.292311,"lon":5.360731,"is_reserved":false,"is_disabled":false,"rental_uris":{"android":"levelo://app?vid=30aa6334-56cc-4125-8804-64a51f397cc5","ios":"levelo://app?vid=30aa6334-56cc-4125-8804-64a51f397cc5"},"vehicle_type_id":"4","last_reported":1691561345,"current_range_meters":26400,"station_id":"ce4bhbh2rcd13ifvqeqg","pricing_plan_id":"free"},{"bike_id":"defa652f-5c34-4f50-81ec-f672e95471b2","system_id":"levelo_inurba_marseille","lat":43.292663,"lon":5.376389,"is_reserved":false,"is_disabled":false,"rental_uris":{"android":"levelo://app?vid=defa652f-5c34-4f50-81ec-f672e95471b2","ios":"levelo://app?vid=defa652f-5c34-4f50-81ec-f672e95471b2"},"vehicle_type_id":"4","last_reported":1691561345,"current_range_meters":17600,"station_id":"ce4bgi12rcd13ifvqb80","pricing_plan_id":"free"},{"bike_id":"8d957873-b230-4ae4-b100-7f3dd77b3b05","system_id":"levelo_inurba_marseille","lat":43.291675,"lon":5.371583,"is_reserved":false,"is_disabled":false,"rental_uris":{"android":"levelo://app?vid=8d957873-b230-4ae4-b100-7f3dd77b3b05","ios":"levelo://app?vid=8d957873-b230-4ae4-b100-7f3dd77b3b05"},"vehicle_type_id":"4","last_reported":1691561345,"current_range_meters":3600,"station_id":"ce4bha92rcd13ifvqeh0","pricing_plan_id":"free"},{"bike_id":"8d246124-0548-4bda-9c40-00660cc9ef06","system_id":"levelo_inurba_marseille","lat":43.292663,"lon":5.376389,"is_reserved":false,"is_disabled":false,"rental_uris":{"android":"levelo://app?vid=8d246124-0548-4bda-9c40-00660cc9ef06","ios":"levelo://app?vid=8d246124-0548-4bda-9c40-00660cc9ef06"},"vehicle_type_id":"4","last_reported":1691561345,"current_range_meters":27200,"station_id":"ce4bgi12rcd13ifvqb80","pricing_plan_id":"free"},{"bike_id":"9a248834-d547-41dc-aa3f-dbf78e536a43","system_id":"levelo_inurba_marseille","lat":43.30885,"lon":5.39634,"is_reserved":false,"is_disabled":false,"rental_uris":{"android":"levelo://app?vid=9a248834-d547-41dc-aa3f-dbf78e536a43","ios":"levelo://app?vid=9a248834-d547-41dc-aa3f-dbf78e536a43"},"vehicle_type_id":"4","last_reported":1691561345,"current_range_meters":30400,"station_id":"ce4bh012rcd13ifvqcv0","pricing_plan_id":"free"},{"bike_id":"a17c12ac-b6dd-4e4b-949d-cb9f91ce75dc","system_id":"levelo_inurba_marseille","lat":43.3088,"lon":5.39633,"is_reserved":false,"is_disabled":false,"rental_uris":{"android":"levelo://app?vid=a17c12ac-b6dd-4e4b-949d-cb9f91ce75dc","ios":"levelo://app?vid=a17c12ac-b6dd-4e4b-949d-cb9f91ce75dc"},"vehicle_type_id":"4","last_reported":1691561345,"current_range_meters":30400,"station_id":"ce4bh012rcd13ifvqcv0","pricing_plan_id":"free"},{"bike_id":"2282c425-6055-4414-b21f-9fa61eaba595","system_id":"levelo_inurba_marseille","lat":43.309038,"lon":5.396546,"is_reserved":false,"is_disabled":false,"rental_uris":{"android":"levelo://app?vid=2282c425-6055-4414-b21f-9fa61eaba595","ios":"levelo://app?vid=2282c425-6055-4414-b21f-9fa61eaba595"},"vehicle_type_id":"4","last_reported":1691561345,"current_range_meters":27600,"station_id":"ce4bh012rcd13ifvqcv0","pricing_plan_id":"free"},{"bike_id":"2751a3db-5f96-4639-b51e-0cb26631eddb","system_id":"levelo_inurba_marseille","lat":43.313291,"lon":5.396838,"is_reserved":false,"is_disabled":false,"rental_uris":{"android":"levelo://app?vid=2751a3db-5f96-4639-b51e-0cb26631eddb","ios":"levelo://app?vid=2751a3db-5f96-4639-b51e-0cb26631eddb"},"vehicle_type_id":"4","last_reported":1691561345,"current_range_meters":19600,"station_id":"ce4bgvp2rcd13ifvqcu0","pricing_plan_id":"free"},{"bike_id":"32f42d0e-3fa7-43d3-a7eb-6ab0c8aceca8","system_id":"levelo_inurba_marseille","lat":43.313291,"lon":5.396838,"is_reserved":false,"is_disabled":false,"rental_uris":{"android":"levelo://app?vid=32f42d0e-3fa7-43d3-a7eb-6ab0c8aceca8","ios":"levelo://app?vid=32f42d0e-3fa7-43d3-a7eb-6ab0c8aceca8"},"vehicle_type_id":"4","last_reported":1691561345,"current_range_meters":26400,"station_id":"ce4bgvp2rcd13ifvqcu0","pricing_plan_id":"free"},{"bike_id":"68312dd1-5f01-49ab-b720-af5aceabd138","system_id":"levelo_inurba_marseille","lat":43.31332,"lon":5.39689,"is_reserved":false,"is_disabled":false,"rental_uris":{"android":"levelo://app?vid=68312dd1-5f01-49ab-b720-af5aceabd138","ios":"levelo://app?vid=68312dd1-5f01-49ab-b720-af5aceabd138"},"vehicle_type_id":"4","last_reported":1691561345,"current_range_meters":11600,"station_id":"ce4bgvp2rcd13ifvqcu0","pricing_plan_id":"free"},{"bike_id":"adb48363-b52b-4c2f-b300-f07120988924","system_id":"levelo_inurba_marseille","lat":43.31329,"lon":5.39692,"is_reserved":false,"is_disabled":false,"rental_uris":{"android":"levelo://app?vid=adb48363-b52b-4c2f-b300-f07120988924","ios":"levelo://app?vid=adb48363-b52b-4c2f-b300-f07120988924"},"vehicle_type_id":"4","last_reported":1691561345,"current_range_meters":5200,"station_id":"ce4bgvp2rcd13ifvqcu0","pricing_plan_id":"free"},{"bike_id":"0233a25d-89c3-4f28-bf5e-502b6ab694b0","system_id":"levelo_inurba_marseille","lat":43.30886,"lon":5.39646,"is_reserved":false,"is_disabled":false,"rental_uris":{"android":"levelo://app?vid=0233a25d-89c3-4f28-bf5e-502b6ab694b0","ios":"levelo://app?vid=0233a25d-89c3-4f28-bf5e-502b6ab694b0"},"vehicle_type_id":"4","last_reported":1691561345,"current_range_meters":12400,"station_id":"ce4bh012rcd13ifvqcv0","pricing_plan_id":"free"},{"bike_id":"f7732203-d8c9-4c80-8428-794c762446dc","system_id":"levelo_inurba_marseille","lat":43.31328,"lon":5.39693,"is_reserved":false,"is_disabled":false,"rental_uris":{"android":"levelo://app?vid=f7732203-d8c9-4c80-8428-794c762446dc","ios":"levelo://app?vid=f7732203-d8c9-4c80-8428-794c762446dc"},"vehicle_type_id":"4","last_reported":1691561345,"current_range_meters":1600,"station_id":"ce4bgvp2rcd13ifvqcu0","pricing_plan_id":"free"},{"bike_id":"a6bd0c20-b48a-4fd8-83dd-99401d1d33e4","system_id":"levelo_inurba_marseille","lat":43.31322,"lon":5.39695,"is_reserved":false,"is_disabled":false,"rental_uris":{"android":"levelo://app?vid=a6bd0c20-b48a-4fd8-83dd-99401d1d33e4","ios":"levelo://app?vid=a6bd0c20-b48a-4fd8-83dd-99401d1d33e4"},"vehicle_type_id":"4","last_reported":1691561345,"current_range_meters":7600,"station_id":"ce4bgvp2rcd13ifvqcu0","pricing_plan_id":"free"},{"bike_id":"4aab9beb-18da-4f14-85e9-ecc3a1a05426","system_id":"levelo_inurba_marseille","lat":43.313291,"lon":5.396838,"is_reserved":false,"is_disabled":false,"rental_uris":{"android":"levelo://app?vid=4aab9beb-18da-4f14-85e9-ecc3a1a05426","ios":"levelo://app?vid=4aab9beb-18da-4f14-85e9-ecc3a1a05426"},"vehicle_type_id":"4","last_reported":1691561345,"current_range_meters":7200,"station_id":"ce4bgvp2rcd13ifvqcu0","pricing_plan_id":"free"},{"bike_id":"d81e5ae8-e70d-4831-ae28-d81bf7f47829","system_id":"levelo_inurba_marseille","lat":43.31326,"lon":5.39698,"is_reserved":false,"is_disabled":false,"rental_uris":{"android":"levelo://app?vid=d81e5ae8-e70d-4831-ae28-d81bf7f47829","ios":"levelo://app?vid=d81e5ae8-e70d-4831-ae28-d81bf7f47829"},"vehicle_type_id":"4","last_reported":1691561345,"current_range_meters":10000,"station_id":"ce4bgvp2rcd13ifvqcu0","pricing_plan_id":"free"},{"bike_id":"a96247da-eefb-46c8-b4f7-0a41e334a262","system_id":"levelo_inurba_marseille","lat":43.31329,"lon":5.39698,"is_reserved":false,"is_disabled":false,"rental_uris":{"android":"levelo://app?vid=a96247da-eefb-46c8-b4f7-0a41e334a262","ios":"levelo://app?vid=a96247da-eefb-46c8-b4f7-0a41e334a262"},"vehicle_type_id":"4","last_reported":1691561345,"current_range_meters":21200,"station_id":"ce4bgvp2rcd13ifvqcu0","pricing_plan_id":"free"},{"bike_id":"4473ac4a-2283-46f0-b17d-418ae6a89b11","system_id":"levelo_inurba_marseille","lat":43.31325,"lon":5.39701,"is_reserved":false,"is_disabled":false,"rental_uris":{"android":"levelo://app?vid=4473ac4a-2283-46f0-b17d-418ae6a89b11","ios":"levelo://app?vid=4473ac4a-2283-46f0-b17d-418ae6a89b11"},"vehicle_type_id":"4","last_reported":1691561345,"current_range_meters":17200,"station_id":"ce4bgvp2rcd13ifvqcu0","pricing_plan_id":"free"},{"bike_id":"e7b21de7-beaf-4b7a-9212-1d52b2dc812a","system_id":"levelo_inurba_marseille","lat":43.31329,"lon":5.39701,"is_reserved":false,"is_disabled":false,"rental_uris":{"android":"levelo://app?vid=e7b21de7-beaf-4b7a-9212-1d52b2dc812a","ios":"levelo://app?vid=e7b21de7-beaf-4b7a-9212-1d52b2dc812a"},"vehicle_type_id":"4","last_reported":1691561345,"current_range_meters":20400,"station_id":"ce4bgvp2rcd13ifvqcu0","pricing_plan_id":"free"},{"bike_id":"5d2046d7-8312-4acb-b027-362d6247b2f4","system_id":"levelo_inurba_marseille","lat":43.302008,"lon":5.394694,"is_reserved":false,"is_disabled":false,"rental_uris":{"android":"levelo://app?vid=5d2046d7-8312-4acb-b027-362d6247b2f4","ios":"levelo://app?vid=5d2046d7-8312-4acb-b027-362d6247b2f4"},"vehicle_type_id":"4","last_reported":1691561345,"current_range_meters":26000,"station_id":"ce4bh0p2rcd13ifvqd70","pricing_plan_id":"free"},{"bike_id":"dd0f4957-8142-4b15-9bd8-4af31be758f7","system_id":"levelo_inurba_marseille","lat":43.302008,"lon":5.394694,"is_reserved":false,"is_disabled":false,"rental_uris":{"android":"levelo://app?vid=dd0f4957-8142-4b15-9bd8-4af31be758f7","ios":"levelo://app?vid=dd0f4957-8142-4b15-9bd8-4af31be758f7"},"vehicle_type_id":"4","last_reported":1691561345,"current_range_meters":31200,"station_id":"ce4bh0p2rcd13ifvqd70","pricing_plan_id":"free"},{"bike_id":"ef0840b8-c720-4ff1-b7b4-bd53f7962c7d","system_id":"levelo_inurba_marseille","lat":43.289468,"lon":5.363719,"is_reserved":false,"is_disabled":false,"rental_uris":{"android":"levelo://app?vid=ef0840b8-c720-4ff1-b7b4-bd53f7962c7d","ios":"levelo://app?vid=ef0840b8-c720-4ff1-b7b4-bd53f7962c7d"},"vehicle_type_id":"4","last_reported":1691561345,"current_range_meters":14000,"station_id":"ce4bhc92rcd13ifvqetg","pricing_plan_id":"free"},{"bike_id":"836b406c-70b9-436f-bd8a-838116f851f7","system_id":"levelo_inurba_marseille","lat":43.29041,"lon":5.399634,"is_reserved":false,"is_disabled":false,"rental_uris":{"android":"levelo://app?vid=836b406c-70b9-436f-bd8a-838116f851f7","ios":"levelo://app?vid=836b406c-70b9-436f-bd8a-838116f851f7"},"vehicle_type_id":"4","last_reported":1691561345,"current_range_meters":11600,"station_id":"ce4bh392rcd13ifvqdm0","pricing_plan_id":"free"},{"bike_id":"42b485f5-bfc1-401b-bf3e-cd8ed8db0992","system_id":"levelo_inurba_marseille","lat":43.30418,"lon":5.3975,"is_reserved":false,"is_disabled":false,"rental_uris":{"android":"levelo://app?vid=42b485f5-bfc1-401b-bf3e-cd8ed8db0992","ios":"levelo://app?vid=42b485f5-bfc1-401b-bf3e-cd8ed8db0992"},"vehicle_type_id":"4","last_reported":1691561345,"current_range_meters":28000,"station_id":"ce4bh0h2rcd13ifvqd40","pricing_plan_id":"free"},{"bike_id":"3287fb30-ec66-4dda-b599-a65f0dc59abf","system_id":"levelo_inurba_marseille","lat":43.330442,"lon":5.389148,"is_reserved":false,"is_disabled":false,"rental_uris":{"android":"levelo://app?vid=3287fb30-ec66-4dda-b599-a65f0dc59abf","ios":"levelo://app?vid=3287fb30-ec66-4dda-b599-a65f0dc59abf"},"vehicle_type_id":"4","last_reported":1691561345,"current_range_meters":26800,"station_id":"ce4bhr92rcd13ifvqhrg","pricing_plan_id":"free"},{"bike_id":"9221e5df-536b-43ee-b52c-7620155319dd","system_id":"levelo_inurba_marseille","lat":43.33042,"lon":5.38917,"is_reserved":false,"is_disabled":false,"rental_uris":{"android":"levelo://app?vid=9221e5df-536b-43ee-b52c-7620155319dd","ios":"levelo://app?vid=9221e5df-536b-43ee-b52c-7620155319dd"},"vehicle_type_id":"4","last_reported":1691561345,"current_range_meters":17200,"station_id":"ce4bhr92rcd13ifvqhrg","pricing_plan_id":"free"},{"bike_id":"76eaabb3-ce2e-4844-9e02-21c9c25aa3c2","system_id":"levelo_inurba_marseille","lat":43.290104,"lon":5.356111,"is_reserved":false,"is_disabled":false,"rental_uris":{"android":"levelo://app?vid=76eaabb3-ce2e-4844-9e02-21c9c25aa3c2","ios":"levelo://app?vid=76eaabb3-ce2e-4844-9e02-21c9c25aa3c2"},"vehicle_type_id":"4","last_reported":1691561345,"current_range_meters":14800,"station_id":"ce4bhb92rcd13ifvqen0","pricing_plan_id":"free"},{"bike_id":"d92191b5-3897-428d-989c-4b986c7a7e64","system_id":"levelo_inurba_marseille","lat":43.29009,"lon":5.35609,"is_reserved":false,"is_disabled":false,"rental_uris":{"android":"levelo://app?vid=d92191b5-3897-428d-989c-4b986c7a7e64","ios":"levelo://app?vid=d92191b5-3897-428d-989c-4b986c7a7e64"},"vehicle_type_id":"4","last_reported":1691561345,"current_range_meters":6000,"station_id":"ce4bhb92rcd13ifvqen0","pricing_plan_id":"free"},{"bike_id":"7b78d55e-e99c-4fa7-968a-c672d6912f00","system_id":"levelo_inurba_marseille","lat":43.290104,"lon":5.356111,"is_reserved":false,"is_disabled":false,"rental_uris":{"android":"levelo://app?vid=7b78d55e-e99c-4fa7-968a-c672d6912f00","ios":"levelo://app?vid=7b78d55e-e99c-4fa7-968a-c672d6912f00"},"vehicle_type_id":"4","last_reported":1691561345,"current_range_meters":31200,"station_id":"ce4bhb92rcd13ifvqen0","pricing_plan_id":"free"},{"bike_id":"9e1411b7-872e-4647-9bdd-581aa9721c28","system_id":"levelo_inurba_marseille","lat":43.29099,"lon":5.38147,"is_reserved":false,"is_disabled":false,"rental_uris":{"android":"levelo://app?vid=9e1411b7-872e-4647-9bdd-581aa9721c28","ios":"levelo://app?vid=9e1411b7-872e-4647-9bdd-581aa9721c28"},"vehicle_type_id":"4","last_reported":1691561345,"current_range_meters":0,"station_id":"ce4bh512rcd13ifvqe2g","pricing_plan_id":"free"},{"bike_id":"7baf46c4-9cd2-48ff-8544-0522894a7c48","system_id":"levelo_inurba_marseille","lat":43.297815,"lon":5.393548,"is_reserved":false,"is_disabled":false,"rental_uris":{"android":"levelo://app?vid=7baf46c4-9cd2-48ff-8544-0522894a7c48","ios":"levelo://app?vid=7baf46c4-9cd2-48ff-8544-0522894a7c48"},"vehicle_type_id":"4","last_reported":1691561345,"current_range_meters":16000,"station_id":"chh1huq6cuj3fo74tm60","pricing_plan_id":"free"},{"bike_id":"7a6a0b95-97a9-42d9-b98e-2bca2b783389","system_id":"levelo_inurba_marseille","lat":43.297815,"lon":5.393548,"is_reserved":false,"is_disabled":false,"rental_uris":{"android":"levelo://app?vid=7a6a0b95-97a9-42d9-b98e-2bca2b783389","ios":"levelo://app?vid=7a6a0b95-97a9-42d9-b98e-2bca2b783389"},"vehicle_type_id":"4","last_reported":1691561345,"current_range_meters":24400,"station_id":"chh1huq6cuj3fo74tm60","pricing_plan_id":"free"},{"bike_id":"d3188d4b-c1c7-4b81-b5ba-04588acbcf9e","system_id":"levelo_inurba_marseille","lat":43.2901,"lon":5.381269,"is_reserved":false,"is_disabled":false,"rental_uris":{"android":"levelo://app?vid=d3188d4b-c1c7-4b81-b5ba-04588acbcf9e","ios":"levelo://app?vid=d3188d4b-c1c7-4b81-b5ba-04588acbcf9e"},"vehicle_type_id":"4","last_reported":1691561345,"current_range_meters":0,"station_id":"ce4bh4p2rcd13ifvqe1g","pricing_plan_id":"free"},{"bike_id":"bf47e756-c5ee-47be-9b6a-cb2a8a795347","system_id":"levelo_inurba_marseille","lat":43.31274,"lon":5.40158,"is_reserved":false,"is_disabled":false,"rental_uris":{"android":"levelo://app?vid=bf47e756-c5ee-47be-9b6a-cb2a8a795347","ios":"levelo://app?vid=bf47e756-c5ee-47be-9b6a-cb2a8a795347"},"vehicle_type_id":"4","last_reported":1691561345,"current_range_meters":29600,"station_id":"ce4bh092rcd13ifvqd30","pricing_plan_id":"free"},{"bike_id":"7ccfd2f8-3c21-431a-adf8-948bbc576217","system_id":"levelo_inurba_marseille","lat":43.33019,"lon":5.39199,"is_reserved":false,"is_disabled":false,"rental_uris":{"android":"levelo://app?vid=7ccfd2f8-3c21-431a-adf8-948bbc576217","ios":"levelo://app?vid=7ccfd2f8-3c21-431a-adf8-948bbc576217"},"vehicle_type_id":"4","last_reported":1691561345,"current_range_meters":26000,"station_id":"","pricing_plan_id":"free"},{"bike_id":"b2c40ba5-bca7-415e-8dc0-c1be1817ba86","system_id":"levelo_inurba_marseille","lat":43.312609,"lon":5.401662,"is_reserved":false,"is_disabled":false,"rental_uris":{"android":"levelo://app?vid=b2c40ba5-bca7-415e-8dc0-c1be1817ba86","ios":"levelo://app?vid=b2c40ba5-bca7-415e-8dc0-c1be1817ba86"},"vehicle_type_id":"4","last_reported":1691561345,"current_range_meters":28400,"station_id":"ce4bh092rcd13ifvqd30","pricing_plan_id":"free"},{"bike_id":"8fb212c8-1dfe-4c70-af5a-805f93afcfb4","system_id":"levelo_inurba_marseille","lat":43.30939,"lon":5.40132,"is_reserved":false,"is_disabled":false,"rental_uris":{"android":"levelo://app?vid=8fb212c8-1dfe-4c70-af5a-805f93afcfb4","ios":"levelo://app?vid=8fb212c8-1dfe-4c70-af5a-805f93afcfb4"},"vehicle_type_id":"4","last_reported":1691561345,"current_range_meters":8400,"station_id":"ce4bgvp2rcd13ifvqct0","pricing_plan_id":"free"},{"bike_id":"075d1cb8-b477-4654-8f11-9b330daaead8","system_id":"levelo_inurba_marseille","lat":43.31273,"lon":5.40163,"is_reserved":false,"is_disabled":false,"rental_uris":{"android":"levelo://app?vid=075d1cb8-b477-4654-8f11-9b330daaead8","ios":"levelo://app?vid=075d1cb8-b477-4654-8f11-9b330daaead8"},"vehicle_type_id":"4","last_reported":1691561345,"current_range_meters":30400,"station_id":"ce4bh092rcd13ifvqd30","pricing_plan_id":"free"},{"bike_id":"a270c2cb-a49a-412d-a2b7-feb4c2998588","system_id":"levelo_inurba_marseille","lat":43.312609,"lon":5.401662,"is_reserved":false,"is_disabled":false,"rental_uris":{"android":"levelo://app?vid=a270c2cb-a49a-412d-a2b7-feb4c2998588","ios":"levelo://app?vid=a270c2cb-a49a-412d-a2b7-feb4c2998588"},"vehicle_type_id":"4","last_reported":1691561345,"current_range_meters":14000,"station_id":"ce4bh092rcd13ifvqd30","pricing_plan_id":"free"},{"bike_id":"6f218857-f819-4582-b360-20eba6a45792","system_id":"levelo_inurba_marseille","lat":43.30933,"lon":5.40133,"is_reserved":false,"is_disabled":false,"rental_uris":{"android":"levelo://app?vid=6f218857-f819-4582-b360-20eba6a45792","ios":"levelo://app?vid=6f218857-f819-4582-b360-20eba6a45792"},"vehicle_type_id":"4","last_reported":1691561345,"current_range_meters":30400,"station_id":"ce4bgvp2rcd13ifvqct0","pricing_plan_id":"free"},{"bike_id":"64458608-9f3b-46f1-8ded-15fc93a01272","system_id":"levelo_inurba_marseille","lat":43.31273,"lon":5.40166,"is_reserved":false,"is_disabled":false,"rental_uris":{"android":"levelo://app?vid=64458608-9f3b-46f1-8ded-15fc93a01272","ios":"levelo://app?vid=64458608-9f3b-46f1-8ded-15fc93a01272"},"vehicle_type_id":"4","last_reported":1691561345,"current_range_meters":29200,"station_id":"ce4bh092rcd13ifvqd30","pricing_plan_id":"free"},{"bike_id":"a629459f-ca8b-49ea-bc72-2a6a6256fc5b","system_id":"levelo_inurba_marseille","lat":43.312609,"lon":5.401662,"is_reserved":false,"is_disabled":false,"rental_uris":{"android":"levelo://app?vid=a629459f-ca8b-49ea-bc72-2a6a6256fc5b","ios":"levelo://app?vid=a629459f-ca8b-49ea-bc72-2a6a6256fc5b"},"vehicle_type_id":"4","last_reported":1691561345,"current_range_meters":12400,"station_id":"ce4bh092rcd13ifvqd30","pricing_plan_id":"free"},{"bike_id":"1409e391-565a-477e-b61e-a07dd59ac428","system_id":"levelo_inurba_marseille","lat":43.309371,"lon":5.401449,"is_reserved":false,"is_disabled":false,"rental_uris":{"android":"levelo://app?vid=1409e391-565a-477e-b61e-a07dd59ac428","ios":"levelo://app?vid=1409e391-565a-477e-b61e-a07dd59ac428"},"vehicle_type_id":"4","last_reported":1691561345,"current_range_meters":30400,"station_id":"ce4bgvp2rcd13ifvqct0","pricing_plan_id":"free"},{"bike_id":"7adcd943-29af-4a43-a8f3-6ccf9b5bd8e7","system_id":"levelo_inurba_marseille","lat":43.31271,"lon":5.40168,"is_reserved":false,"is_disabled":false,"rental_uris":{"android":"levelo://app?vid=7adcd943-29af-4a43-a8f3-6ccf9b5bd8e7","ios":"levelo://app?vid=7adcd943-29af-4a43-a8f3-6ccf9b5bd8e7"},"vehicle_type_id":"4","last_reported":1691561345,"current_range_meters":0,"station_id":"ce4bh092rcd13ifvqd30","pricing_plan_id":"free"},{"bike_id":"f37bdf53-6f82-4d2b-b9d6-ea91973caf96","system_id":"levelo_inurba_marseille","lat":43.3128,"lon":5.40168,"is_reserved":false,"is_disabled":false,"rental_uris":{"android":"levelo://app?vid=f37bdf53-6f82-4d2b-b9d6-ea91973caf96","ios":"levelo://app?vid=f37bdf53-6f82-4d2b-b9d6-ea91973caf96"},"vehicle_type_id":"4","last_reported":1691561345,"current_range_meters":15600,"station_id":"ce4bh092rcd13ifvqd30","pricing_plan_id":"free"},{"bike_id":"55ad7d51-3623-46ac-aee0-2b82ccc8bc3a","system_id":"levelo_inurba_marseille","lat":43.31272,"lon":5.4017,"is_reserved":false,"is_disabled":false,"rental_uris":{"android":"levelo://app?vid=55ad7d51-3623-46ac-aee0-2b82ccc8bc3a","ios":"levelo://app?vid=55ad7d51-3623-46ac-aee0-2b82ccc8bc3a"},"vehicle_type_id":"4","last_reported":1691561345,"current_range_meters":30800,"station_id":"ce4bh092rcd13ifvqd30","pricing_plan_id":"free"},{"bike_id":"9d503236-5288-4050-9f1a-c6b678ab93bc","system_id":"levelo_inurba_marseille","lat":43.30934,"lon":5.40139,"is_reserved":false,"is_disabled":false,"rental_uris":{"android":"levelo://app?vid=9d503236-5288-4050-9f1a-c6b678ab93bc","ios":"levelo://app?vid=9d503236-5288-4050-9f1a-c6b678ab93bc"},"vehicle_type_id":"4","last_reported":1691561345,"current_range_meters":23600,"station_id":"ce4bgvp2rcd13ifvqct0","pricing_plan_id":"free"},{"bike_id":"751f51df-b86f-4e34-ad1c-3f65f1eebaa5","system_id":"levelo_inurba_marseille","lat":43.31276,"lon":5.40171,"is_reserved":false,"is_disabled":false,"rental_uris":{"android":"levelo://app?vid=751f51df-b86f-4e34-ad1c-3f65f1eebaa5","ios":"levelo://app?vid=751f51df-b86f-4e34-ad1c-3f65f1eebaa5"},"vehicle_type_id":"4","last_reported":1691561345,"current_range_meters":30400,"station_id":"ce4bh092rcd13ifvqd30","pricing_plan_id":"free"},{"bike_id":"a2a545e4-af1c-4492-b9d0-cffc991e4b8e","system_id":"levelo_inurba_marseille","lat":43.31277,"lon":5.40171,"is_reserved":false,"is_disabled":false,"rental_uris":{"android":"levelo://app?vid=a2a545e4-af1c-4492-b9d0-cffc991e4b8e","ios":"levelo://app?vid=a2a545e4-af1c-4492-b9d0-cffc991e4b8e"},"vehicle_type_id":"4","last_reported":1691561345,"current_range_meters":30400,"station_id":"ce4bh092rcd13ifvqd30","pricing_plan_id":"free"},{"bike_id":"929141c4-7d53-4493-aefe-ffd862ab1a9e","system_id":"levelo_inurba_marseille","lat":43.31283,"lon":5.40172,"is_reserved":false,"is_disabled":false,"rental_uris":{"android":"levelo://app?vid=929141c4-7d53-4493-aefe-ffd862ab1a9e","ios":"levelo://app?vid=929141c4-7d53-4493-aefe-ffd862ab1a9e"},"vehicle_type_id":"4","last_reported":1691561345,"current_range_meters":28000,"station_id":"ce4bh092rcd13ifvqd30","pricing_plan_id":"free"},{"bike_id":"9e9f7c09-fbf6-47c0-ad3e-50420d06d646","system_id":"levelo_inurba_marseille","lat":43.30947,"lon":5.40148,"is_reserved":false,"is_disabled":false,"rental_uris":{"android":"levelo://app?vid=9e9f7c09-fbf6-47c0-ad3e-50420d06d646","ios":"levelo://app?vid=9e9f7c09-fbf6-47c0-ad3e-50420d06d646"},"vehicle_type_id":"4","last_reported":1691561345,"current_range_meters":23600,"station_id":"ce4bgvp2rcd13ifvqct0","pricing_plan_id":"free"},{"bike_id":"cf109b39-e355-49b6-aea4-e0f85f5be143","system_id":"levelo_inurba_marseille","lat":43.30946,"lon":5.40148,"is_reserved":false,"is_disabled":false,"rental_uris":{"android":"levelo://app?vid=cf109b39-e355-49b6-aea4-e0f85f5be143","ios":"levelo://app?vid=cf109b39-e355-49b6-aea4-e0f85f5be143"},"vehicle_type_id":"4","last_reported":1691561345,"current_range_meters":22000,"station_id":"ce4bgvp2rcd13ifvqct0","pricing_plan_id":"free"},{"bike_id":"74c503c3-d828-44e0-82f1-e045a9df49aa","system_id":"levelo_inurba_marseille","lat":43.30945,"lon":5.40149,"is_reserved":false,"is_disabled":false,"rental_uris":{"android":"levelo://app?vid=74c503c3-d828-44e0-82f1-e045a9df49aa","ios":"levelo://app?vid=74c503c3-d828-44e0-82f1-e045a9df49aa"},"vehicle_type_id":"4","last_reported":1691561345,"current_range_meters":31200,"station_id":"ce4bgvp2rcd13ifvqct0","pricing_plan_id":"free"},{"bike_id":"3585088c-1fad-4eca-b223-780202197d91","system_id":"levelo_inurba_marseille","lat":43.33009,"lon":5.39236,"is_reserved":false,"is_disabled":false,"rental_uris":{"android":"levelo://app?vid=3585088c-1fad-4eca-b223-780202197d91","ios":"levelo://app?vid=3585088c-1fad-4eca-b223-780202197d91"},"vehicle_type_id":"4","last_reported":1691561345,"current_range_meters":10000,"station_id":"","pricing_plan_id":"free"},{"bike_id":"bec7f604-2184-4245-9c78-11470cb47d65","system_id":"levelo_inurba_marseille","lat":43.30942,"lon":5.40149,"is_reserved":false,"is_disabled":false,"rental_uris":{"android":"levelo://app?vid=bec7f604-2184-4245-9c78-11470cb47d65","ios":"levelo://app?vid=bec7f604-2184-4245-9c78-11470cb47d65"},"vehicle_type_id":"4","last_reported":1691561345,"current_range_meters":26800,"station_id":"ce4bgvp2rcd13ifvqct0","pricing_plan_id":"free"},{"bike_id":"dca85f17-2709-4a84-a5a5-b45662c6093c","system_id":"levelo_inurba_marseille","lat":43.33748,"lon":5.37469,"is_reserved":false,"is_disabled":false,"rental_uris":{"android":"levelo://app?vid=dca85f17-2709-4a84-a5a5-b45662c6093c","ios":"levelo://app?vid=dca85f17-2709-4a84-a5a5-b45662c6093c"},"vehicle_type_id":"4","last_reported":1691561345,"current_range_meters":31200,"station_id":"","pricing_plan_id":"free"},{"bike_id":"2e3ee1e5-3192-4762-ac3d-85ea2bd96574","system_id":"levelo_inurba_marseille","lat":43.309371,"lon":5.401449,"is_reserved":false,"is_disabled":false,"rental_uris":{"android":"levelo://app?vid=2e3ee1e5-3192-4762-ac3d-85ea2bd96574","ios":"levelo://app?vid=2e3ee1e5-3192-4762-ac3d-85ea2bd96574"},"vehicle_type_id":"4","last_reported":1691561345,"current_range_meters":31600,"station_id":"ce4bgvp2rcd13ifvqct0","pricing_plan_id":"free"},