{"last_updated":1751451131,"ttl":60,"version":"2.2","data":{"bikes":[{"bike_id":"3da29fb8-fc97-44c6-b9ac-31dd456b2fd4","system_id":"levelo_inurba_marseille","lat":43.33771,"lon":5.37424,"is_reserved":false,"is_disabled":true,"rental_uris":{"android":"levelo://app?vid=3da29fb8-fc97-44c6-b9ac-31dd456b2fd4","ios":"levelo://app?vid=3da29fb8-fc97-44c6-b9ac-31dd456b2fd4"},"vehicle_type_id":"4","last_reported":1751451131,"current_range_meters":0,"station_id":"","pricing_plan_id":"cebpf4jnsgd1na2vs0mg"},{"bike_id":"01861ad8-a8d7-4be6-816e-651927c87584","system_id":"levelo_inurba_marseille","lat":43.33751,"lon":5.37456,"is_reserved":false,"is_disabled":true,"rental_uris":{"android":"levelo://app?vid=01861ad8-a8d7-4be6-816e-651927c87584","ios":"levelo://app?vid=01861ad8-a8d7-4be6-816e-651927c87584"},"vehicle_type_id":"4","last_reported":1751451131,"current_range_meters":0,"station_id":"","pricing_plan_id":"cebpf4jnsgd1na2vs0mg"},{"bike_id":"e823deb7-a5bf-4b19-b86f-61a57442996d","system_id":"levelo_inurba_marseille","lat":43.28119,"lon":5.37848,"is_reserved":false,"is_disabled":true,"rental_uris":{"android":"levelo://app?vid=e823deb7-a5bf-4b19-b86f-61a57442996d","ios":"levelo://app?vid=e823deb7-a5bf-4b19-b86f-61a57442996d"},"vehicle_type_id":"4","last_reported":1751451131,"current_range_meters":0,"station_id":"ce4bha12rcd13ifvqee0","pricing_plan_id":"cebpf4jnsgd1na2vs0mg"},{"bike_id":"913754f7-47dd-4a30-832b-f7521606c5bb","system_id":"levelo_inurba_marseille","lat":43.28289,"lon":5.35063,"is_reserved":false,"is_disabled":true,"rental_uris":{"android":"levelo://app?vid=913754f7-47dd-4a30-832b-f7521606c5bb","ios":"levelo://app?vid=913754f7-47dd-4a30-832b-f7521606c5bb"},"vehicle_type_id":"4","last_reported":1751451131,"current_range_meters":0,"station_id":"ce4bhbp2rcd13ifvqerg","pricing_plan_id":"cebpf4jnsgd1na2vs0mg"},{"bike_id":"dc24cb85-f64b-40c5-b603-dc729fbf2c9a","system_id":"levelo_inurba_marseille","lat":43.27958,"lon":5.41038,"is_reserved":false,"is_disabled":true,"rental_uris":{"android":"levelo://app?vid=dc24cb85-f64b-40c5-b603-dc729fbf2c9a","ios":"levelo://app?vid=dc24cb85-f64b-40c5-b603-dc729fbf2c9a"},"vehicle_type_id":"4","last_reported":1751451131,"current_range_meters":0,"station_id":"ce4bhnp2rcd13ifvqh0g","pricing_plan_id":"cebpf4jnsgd1na2vs0mg"},{"bike_id":"0f7fd65a-f869-416f-ba4f-59d2990f3392","system_id":"levelo_inurba_marseille","lat":43.28626,"lon":5.35107,"is_reserved":false,"is_disabled":true,"rental_uris":{"android":"levelo://app?vid=0f7fd65a-f869-416f-ba4f-59d2990f3392","ios":"levelo://app?vid=0f7fd65a-f869-416f-ba4f-59d2990f3392"},"vehicle_type_id":"4","last_reported":1751451131,"current_range_meters":400,"station_id":"ce4bhch2rcd13ifvqeug","pricing_plan_id":"cebpf4jnsgd1na2vs0mg"},{"bike_id":"2b79eac2-8d7f-455a-ab7b-57d1965acf5f","system_id":"levelo_inurba_marseille","lat":43.32017,"lon":5.38121,"is_reserved":false,"is_disabled":true,"rental_uris":{"android":"levelo://app?vid=2b79eac2-8d7f-455a-ab7b-57d1965acf5f","ios":"levelo://app?vid=2b79eac2-8d7f-455a-ab7b-57d1965acf5f"},"vehicle_type_id":"4","last_reported":1751451131,"current_range_meters":400,"station_id":"ce4bhr12rcd13ifvqhpg","pricing_plan_id":"cebpf4jnsgd1na2vs0mg"},{"bike_id":"162af4e6-d224-4240-aeac-6cb0ae06de53","system_id":"levelo_inurba_marseille","lat":43.29924,"lon":5.37836,"is_reserved":false,"is_disabled":true,"rental_uris":{"android":"levelo://app?vid=162af4e6-d224-4240-aeac-6cb0ae06de53","ios":"levelo://app?vid=162af4e6-d224-4240-aeac-6cb0ae06de53"},"vehicle_type_id":"4","last_reported":1751451131,"current_range_meters":1200,"station_id":"","pricing_plan_id":"cebpf4jnsgd1na2vs0mg"},{"bike_id":"a9c8d34f-5f67-48fb-bc0c-0e2fb240f43c","system_id":"levelo_inurba_marseille","lat":43.30465,"lon":5.37902,"is_reserved":false,"is_disabled":true,"rental_uris":{"android":"levelo://app?vid=a9c8d34f-5f67-48fb-bc0c-0e2fb240f43c","ios":"levelo://app?vid=a9c8d34f-5f67-48fb-bc0c-0e2fb240f43c"},"vehicle_type_id":"4","last_reported":1751451131,"current_range_meters":1600,"station_id":"","pricing_plan_id":"cebpf4jnsgd1na2vs0mg"},{"bike_id":"0a0167dd-283c-4007-a812-78265d8bc4bd","system_id":"levelo_inurba_marseille","lat":43.29643,"lon":5.40589,"is_reserved":false,"is_disabled":true,"rental_uris":{"android":"levelo://app?vid=0a0167dd-283c-4007-a812-78265d8bc4bd","ios":"levelo://app?vid=0a0167dd-283c-4007-a812-78265d8bc4bd"},"vehicle_type_id":"4","last_reported":1751451131,"current_range_meters":2000,"station_id":"ce4bh0h2rcd13ifvqd60","pricing_plan_id":"cebpf4jnsgd1na2vs0mg"},{"bike_id":"32dd6183-6645-4d92-a031-0e3ca89f6f1d","system_id":"levelo_inurba_marseille","lat":43.28269,"lon":5.35054,"is_reserved":false,"is_disabled":true,"rental_uris":{"android":"levelo://app?vid=32dd6183-6645-4d92-a031-0e3ca89f6f1d","ios":"levelo://app?vid=32dd6183-6645-4d92-a031-0e3ca89f6f1d"},"vehicle_type_id":"4","last_reported":1751451131,"current_range_meters":2000,"station_id":"ce4bhbp2rcd13ifvqerg","pricing_plan_id":"cebpf4jnsgd1na2vs0mg"},{"bike_id":"1ca6d7dd-1a40-43be-98bd-e551f6dfda73","system_id":"levelo_inurba_marseille","lat":43.31328,"lon":5.39684,"is_reserved":false,"is_disabled":false,"rental_uris":{"android":"levelo://app?vid=1ca6d7dd-1a40-43be-98bd-e551f6dfda73","ios":"levelo://app?vid=1ca6d7dd-1a40-43be-98bd-e551f6dfda73"},"vehicle_type_id":"4","last_reported":1751451131,"current_range_meters":2800,"station_id":"ce4bgvp2rcd13ifvqcu0","pricing_plan_id":"cebpf4jnsgd1na2vs0mg"},{"bike_id":"13624bb3-72a8-4556-9dfe-f9b87c8c465f","system_id":"levelo_inurba_marseille","lat":43.28725,"lon":5.38915,"is_reserved":false,"is_disabled":false,"rental_uris":{"android":"levelo://app?vid=13624bb3-72a8-4556-9dfe-f9b87c8c465f","ios":"levelo://app?vid=13624bb3-72a8-4556-9dfe-f9b87c8c465f"},"vehicle_type_id":"4","last_reported":1751451131,"current_range_meters":3200,"station_id":"","pricing_plan_id":"cebpf4jnsgd1na2vs0mg"},{"bike_id":"bf7128a9-60b5-4d8b-887f-37c53ff2acc5","system_id":"levelo_inurba_marseille","lat":43.30194,"lon":5.36616,"is_reserved":false,"is_disabled":false,"rental_uris":{"android":"levelo://app?vid=bf7128a9-60b5-4d8b-887f-37c53ff2acc5","ios":"levelo://app?vid=bf7128a9-60b5-4d8b-887f-37c53ff2acc5"},"vehicle_type_id":"4","last_reported":1751451131,"current_range_meters":3200,"station_id":"ce4bgrh2rcd13ifvqc8g","pricing_plan_id":"cebpf4jnsgd1na2vs0mg"},{"bike_id":"10c8f076-2a06-44b2-a9ac-5da145bcaacf","system_id":"levelo_inurba_marseille","lat":43.2862,"lon":5.35109,"is_reserved":false,"is_disabled":false,"rental_uris":{"android":"levelo://app?vid=10c8f076-2a06-44b2-a9ac-5da145bcaacf","ios":"levelo://app?vid=10c8f076-2a06-44b2-a9ac-5da145bcaacf"},"vehicle_type_id":"4","last_reported":1751451131,"current_range_meters":3200,"station_id":"ce4bhch2rcd13ifvqeug","pricing_plan_id":"cebpf4jnsgd1na2vs0mg"},{"bike_id":"238ef741-607d-4f3a-b7e0-9fa652927691","system_id":"levelo_inurba_marseille","lat":43.23191,"lon":5.39956,"is_reserved":false,"is_disabled":false,"rental_uris":{"android":"levelo://app?vid=238ef741-607d-4f3a-b7e0-9fa652927691","ios":"levelo://app?vid=238ef741-607d-4f3a-b7e0-9fa652927691"},"vehicle_type_id":"4","last_reported":1751451131,"current_range_meters":3200,"station_id":"ce4bhn12rcd13ifvqgqg","pricing_plan_id":"cebpf4jnsgd1na2vs0mg"},{"bike_id":"97533356-3f8f-476a-a521-deac6548f954","system_id":"levelo_inurba_marseille","lat":43.29306,"lon":5.37456,"is_reserved":false,"is_disabled":false,"rental_uris":{"android":"levelo://app?vid=97533356-3f8f-476a-a521-deac6548f954","ios":"levelo://app?vid=97533356-3f8f-476a-a521-deac6548f954"},"vehicle_type_id":"4","last_reported":1751451131,"current_range_meters":4000,"station_id":"ce4bgi12rcd13ifvqb70","pricing_plan_id":"cebpf4jnsgd1na2vs0mg"},{"bike_id":"0e7a1d90-bbdf-4556-baad-9cfa93be7506","system_id":"levelo_inurba_marseille","lat":43.24385,"lon":5.37054,"is_reserved":false,"is_disabled":false,"rental_uris":{"android":"levelo://app?vid=0e7a1d90-bbdf-4556-baad-9cfa93be7506","ios":"levelo://app?vid=0e7a1d90-bbdf-4556-baad-9cfa93be7506"},"vehicle_type_id":"4","last_reported":1751451131,"current_range_meters":4400,"station_id":"ce4bhhh2rcd13ifvqfk0","pricing_plan_id":"cebpf4jnsgd1na2vs0mg"},{"bike_id":"e9497a27-6e1d-4fe1-b21d-2c97e21c8559","system_id":"levelo_inurba_marseille","lat":43.32056,"lon":5.41539,"is_reserved":false,"is_disabled":false,"rental_uris":{"android":"levelo://app?vid=e9497a27-6e1d-4fe1-b21d-2c97e21c8559","ios":"levelo://app?vid=e9497a27-6e1d-4fe1-b21d-2c97e21c8559"},"vehicle_type_id":"4","last_reported":1751451131,"current_range_meters":4800,"station_id":"ce4bhq92rcd13ifvqhkg","pricing_plan_id":"cebpf4jnsgd1na2vs0mg"},{"bike_id":"e6b39716-4cb9-4ccc-8b0b-fd664a5dbf93","system_id":"levelo_inurba_marseille","lat":43.229389,"lon":5.353786,"is_reserved":false,"is_disabled":false,"rental_uris":{"android":"levelo://app?vid=e6b39716-4cb9-4ccc-8b0b-fd664a5dbf93","ios":"levelo://app?vid=e6b39716-4cb9-4ccc-8b0b-fd664a5dbf93"},"vehicle_type_id":"4","last_reported":1751451131,"current_range_meters":4800,"station_id":"ce4bhu92rcd13ifvqi70","pricing_plan_id":"cebpf4jnsgd1na2vs0mg"},{"bike_id":"8252b44a-d048-4379-9209-2efa2e627825","system_id":"levelo_inurba_marseille","lat":43.29224,"lon":5.405616,"is_reserved":false,"is_disabled":false,"rental_uris":{"android":"levelo://app?vid=8252b44a-d048-4379-9209-2efa2e627825","ios":"levelo://app?vid=8252b44a-d048-4379-9209-2efa2e627825"},"vehicle_type_id":"4","last_reported":1751451131,"current_range_meters":6000,"station_id":"","pricing_plan_id":"cebpf4jnsgd1na2vs0mg"},{"bike_id":"2be26102-e0c2-407d-aa71-26f9f4a0a211","system_id":"levelo_inurba_marseille","lat":43.29852,"lon":5.37664,"is_reserved":false,"is_disabled":false,"rental_uris":{"android":"levelo://app?vid=2be26102-e0c2-407d-aa71-26f9f4a0a211","ios":"levelo://app?vid=2be26102-e0c2-407d-aa71-26f9f4a0a211"},"vehicle_type_id":"4","last_reported":1751451131,"current_range_meters":6000,"station_id":"","pricing_plan_id":"cebpf4jnsgd1na2vs0mg"},{"bike_id":"e10f8c65-dc6d-4061-b24e-b72ace6ed43b","system_id":"levelo_inurba_marseille","lat":43.31685,"lon":5.43641,"is_reserved":false,"is_disabled":false,"rental_uris":{"android":"levelo://app?vid=e10f8c65-dc6d-4061-b24e-b72ace6ed43b","ios":"levelo://app?vid=e10f8c65-dc6d-4061-b24e-b72ace6ed43b"},"vehicle_type_id":"4","last_reported":1751451131,"current_range_meters":6400,"station_id":"","pricing_plan_id":"cebpf4jnsgd1na2vs0mg"},{"bike_id":"fb2ebdde-90e9-4da3-a6cb-cf1fc8dd5405","system_id":"levelo_inurba_marseille","lat":43.330242,"lon":5.390354,"is_reserved":false,"is_disabled":false,"rental_uris":{"android":"levelo://app?vid=fb2ebdde-90e9-4da3-a6cb-cf1fc8dd5405","ios":"levelo://app?vid=fb2ebdde-90e9-4da3-a6cb-cf1fc8dd5405"},"vehicle_type_id":"4","last_reported":1751451131,"current_range_meters":6800,"station_id":"ce4bhr92rcd13ifvqhrg","pricing_plan_id":"cebpf4jnsgd1na2vs0mg"},{"bike_id":"27283166-6602-47b0-b7ac-ba0898231f7b","system_id":"levelo_inurba_marseille","lat":43.3376,"lon":5.37463,"is_reserved":false,"is_disabled":false,"rental_uris":{"android":"levelo://app?vid=27283166-6602-47b0-b7ac-ba0898231f7b","ios":"levelo://app?vid=27283166-6602-47b0-b7ac-ba0898231f7b"},"vehicle_type_id":"4","last_reported":1751451131,"current_range_meters":7200,"station_id":"","pricing_plan_id":"cebpf4jnsgd1na2vs0mg"},{"bike_id":"9315918b-bd7e-4f08-91f5-409a225317e4","system_id":"levelo_inurba_marseille","lat":43.28492,"lon":5.38417,"is_reserved":false,"is_disabled":false,"rental_uris":{"android":"levelo://app?vid=9315918b-bd7e-4f08-91f5-409a225317e4","ios":"levelo://app?vid=9315918b-bd7e-4f08-91f5-409a225317e4"},"vehicle_type_id":"4","last_reported":1751451131,"current_range_meters":7200,"station_id":"ce4bh512rcd13ifvqe3g","pricing_plan_id":"cebpf4jnsgd1na2vs0mg"},{"bike_id":"fc150a42-00a5-4a0a-95de-08b03122b3a8","system_id":"levelo_inurba_marseille","lat":43.33769,"lon":5.3743,"is_reserved":false,"is_disabled":false,"rental_uris":{"android":"levelo://app?vid=fc150a42-00a5-4a0a-95de-08b03122b3a8","ios":"levelo://app?vid=fc150a42-00a5-4a0a-95de-08b03122b3a8"},"vehicle_type_id":"4","last_reported":1751451131,"current_range_meters":8000,"station_id":"","pricing_plan_id":"cebpf4jnsgd1na2vs0mg"},{"bike_id":"483ba61c-e9d3-4100-9ca2-9f76b3853385","system_id":"levelo_inurba_marseille","lat":43.3361,"lon":5.40891,"is_reserved":false,"is_disabled":false,"rental_uris":{"android":"levelo://app?vid=483ba61c-e9d3-4100-9ca2-9f76b3853385","ios":"levelo://app?vid=483ba61c-e9d3-4100-9ca2-9f76b3853385"},"vehicle_type_id":"4","last_reported":1751451131,"current_range_meters":8000,"station_id":"","pricing_plan_id":"cebpf4jnsgd1na2vs0mg"},{"bike_id":"fff801ef-efb0-45da-a2a9-127323b6a012","system_id":"levelo_inurba_marseille","lat":43.28276,"lon":5.3507,"is_reserved":false,"is_disabled":false,"rental_uris":{"android":"levelo://app?vid=fff801ef-efb0-45da-a2a9-127323b6a012","ios":"levelo://app?vid=fff801ef-efb0-45da-a2a9-127323b6a012"},"vehicle_type_id":"4","last_reported":1751451131,"current_range_meters":8000,"station_id":"ce4bhbp2rcd13ifvqerg","pricing_plan_id":"cebpf4jnsgd1na2vs0mg"},{"bike_id":"2726f14f-8d32-4e17-9b3e-62cc809675e1","system_id":"levelo_inurba_marseille","lat":43.32097,"lon":5.36795,"is_reserved":false,"is_disabled":false,"rental_uris":{"android":"levelo://app?vid=2726f14f-8d32-4e17-9b3e-62cc809675e1","ios":"levelo://app?vid=2726f14f-8d32-4e17-9b3e-62cc809675e1"},"vehicle_type_id":"4","last_reported":1751451131,"current_range_meters":8000,"station_id":"ce4bhrh2rcd13ifvqhug","pricing_plan_id":"cebpf4jnsgd1na2vs0mg"},{"bike_id":"b2ec7371-4e1a-4f7b-ae6c-60c5a54c237b","system_id":"levelo_inurba_marseille","lat":43.211983,"lon":5.350636,"is_reserved":false,"is_disabled":false,"rental_uris":{"android":"levelo://app?vid=b2ec7371-4e1a-4f7b-ae6c-60c5a54c237b","ios":"levelo://app?vid=b2ec7371-4e1a-4f7b-ae6c-60c5a54c237b"},"vehicle_type_id":"4","last_reported":1751451131,"current_range_meters":8000,"station_id":"st_cvj6sg6p6f1abm77japg","pricing_plan_id":"cebpf4jnsgd1na2vs0mg"},{"bike_id":"4c5ae819-b334-4cdd-a411-c98785572aa5","system_id":"levelo_inurba_marseille","lat":43.29303,"lon":5.37456,"is_reserved":false,"is_disabled":false,"rental_uris":{"android":"levelo://app?vid=4c5ae819-b334-4cdd-a411-c98785572aa5","ios":"levelo://app?vid=4c5ae819-b334-4cdd-a411-c98785572aa5"},"vehicle_type_id":"4","last_reported":1751451131,"current_range_meters":8400,"station_id":"ce4bgi12rcd13ifvqb70","pricing_plan_id":"cebpf4jnsgd1na2vs0mg"},{"bike_id":"e15c1e54-3f7d-4ea3-bea3-74e59cbab34f","system_id":"levelo_inurba_marseille","lat":43.296555,"lon":5.378541,"is_reserved":false,"is_disabled":false,"rental_uris":{"android":"levelo://app?vid=e15c1e54-3f7d-4ea3-bea3-74e59cbab34f","ios":"levelo://app?vid=e15c1e54-3f7d-4ea3-bea3-74e59cbab34f"},"vehicle_type_id":"4","last_reported":1751451131,"current_range_meters":8400,"station_id":"ce4bgjp2rcd13ifvqbh0","pricing_plan_id":"cebpf4jnsgd1na2vs0mg"},{"bike_id":"2df3c239-637d-4ce3-b944-b9526a2ccccb","system_id":"levelo_inurba_marseille","lat":43.30312,"lon":5.3921,"is_reserved":false,"is_disabled":false,"rental_uris":{"android":"levelo://app?vid=2df3c239-637d-4ce3-b944-b9526a2ccccb","ios":"levelo://app?vid=2df3c239-637d-4ce3-b944-b9526a2ccccb"},"vehicle_type_id":"4","last_reported":1751451131,"current_range_meters":8400,"station_id":"ce4bgkh2rcd13ifvqbk0","pricing_plan_id":"cebpf4jnsgd1na2vs0mg"},{"bike_id":"133c7e9e-2dbe-461c-9439-4600d9978826","system_id":"levelo_inurba_marseille","lat":43.30918,"lon":5.36855,"is_reserved":false,"is_disabled":false,"rental_uris":{"android":"levelo://app?vid=133c7e9e-2dbe-461c-9439-4600d9978826","ios":"levelo://app?vid=133c7e9e-2dbe-461c-9439-4600d9978826"},"vehicle_type_id":"4","last_reported":1751451131,"current_range_meters":8400,"station_id":"ce4bgn92rcd13ifvqbvg","pricing_plan_id":"cebpf4jnsgd1na2vs0mg"},{"bike_id":"dc649c72-c3d9-4d30-b987-2eebc224ffc6","system_id":"levelo_inurba_marseille","lat":43.28411,"lon":5.37516,"is_reserved":false,"is_disabled":false,"rental_uris":{"android":"levelo://app?vid=dc649c72-c3d9-4d30-b987-2eebc224ffc6","ios":"levelo://app?vid=dc649c72-c3d9-4d30-b987-2eebc224ffc6"},"vehicle_type_id":"4","last_reported":1751451131,"current_range_meters":8400,"station_id":"ce4bh412rcd13ifvqds0","pricing_plan_id":"cebpf4jnsgd1na2vs0mg"},{"bike_id":"ed4fdc2c-9045-40d7-ad01-39cd889780d1","system_id":"levelo_inurba_marseille","lat":43.28283,"lon":5.35079,"is_reserved":false,"is_disabled":false,"rental_uris":{"android":"levelo://app?vid=ed4fdc2c-9045-40d7-ad01-39cd889780d1","ios":"levelo://app?vid=ed4fdc2c-9045-40d7-ad01-39cd889780d1"},"vehicle_type_id":"4","last_reported":1751451131,"current_range_meters":8400,"station_id":"ce4bhbp2rcd13ifvqerg","pricing_plan_id":"cebpf4jnsgd1na2vs0mg"},{"bike_id":"a5b098f2-1248-4c05-94c4-ab06241751c4","system_id":"levelo_inurba_marseille","lat":43.2594,"lon":5.40916,"is_reserved":false,"is_disabled":false,"rental_uris":{"android":"levelo://app?vid=a5b098f2-1248-4c05-94c4-ab06241751c4","ios":"levelo://app?vid=a5b098f2-1248-4c05-94c4-ab06241751c4"},"vehicle_type_id":"4","last_reported":1751451131,"current_range_meters":8400,"station_id":"ce4bhm92rcd13ifvqglg","pricing_plan_id":"cebpf4jnsgd1na2vs0mg"},{"bike_id":"8f10a9ab-b2d1-48a1-84c5-75424f1b18f7","system_id":"levelo_inurba_marseille","lat":43.21428,"lon":5.34948,"is_reserved":false,"is_disabled":false,"rental_uris":{"android":"levelo://app?vid=8f10a9ab-b2d1-48a1-84c5-75424f1b18f7","ios":"levelo://app?vid=8f10a9ab-b2d1-48a1-84c5-75424f1b18f7"},"vehicle_type_id":"4","last_reported":1751451131,"current_range_meters":8800,"station_id":"","pricing_plan_id":"cebpf4jnsgd1na2vs0mg"},{"bike_id":"c2b72fe0-bae6-4c7b-ad48-9e771b203dc8","system_id":"levelo_inurba_marseille","lat":43.31352,"lon":5.384617,"is_reserved":false,"is_disabled":false,"rental_uris":{"android":"levelo://app?vid=c2b72fe0-bae6-4c7b-ad48-9e771b203dc8","ios":"levelo://app?vid=c2b72fe0-bae6-4c7b-ad48-9e771b203dc8"},"vehicle_type_id":"4","last_reported":1751451131,"current_range_meters":9200,"station_id":"ce4bgt92rcd13ifvqcf0","pricing_plan_id":"cebpf4jnsgd1na2vs0mg"},{"bike_id":"5f561291-59bc-4843-a84b-180448f0d3cd","system_id":"levelo_inurba_marseille","lat":43.28364,"lon":5.38624,"is_reserved":false,"is_disabled":false,"rental_uris":{"android":"levelo://app?vid=5f561291-59bc-4843-a84b-180448f0d3cd","ios":"levelo://app?vid=5f561291-59bc-4843-a84b-180448f0d3cd"},"vehicle_type_id":"4","last_reported":1751451131,"current_range_meters":9200,"station_id":"ce4bh492rcd13ifvqdvg","pricing_plan_id":"cebpf4jnsgd1na2vs0mg"},{"bike_id":"b17fc6fb-d31b-4c72-91dd-f8e10ff9036a","system_id":"levelo_inurba_marseille","lat":43.32479,"lon":5.3657,"is_reserved":false,"is_disabled":false,"rental_uris":{"android":"levelo://app?vid=b17fc6fb-d31b-4c72-91dd-f8e10ff9036a","ios":"levelo://app?vid=b17fc6fb-d31b-4c72-91dd-f8e10ff9036a"},"vehicle_type_id":"4","last_reported":1751451131,"current_range_meters":9200,"station_id":"ce4bhs12rcd13ifvqhvg","pricing_plan_id":"cebpf4jnsgd1na2vs0mg"},{"bike_id":"6e647d29-f69c-458b-8e86-b138f65309f6","system_id":"levelo_inurba_marseille","lat":43.29022,"lon":5.38638,"is_reserved":false,"is_disabled":false,"rental_uris":{"android":"levelo://app?vid=6e647d29-f69c-458b-8e86-b138f65309f6","ios":"levelo://app?vid=6e647d29-f69c-458b-8e86-b138f65309f6"},"vehicle_type_id":"4","last_reported":1751451131,"current_range_meters":9600,"station_id":"ce4bh4p2rcd13ifvqe0g","pricing_plan_id":"cebpf4jnsgd1na2vs0mg"},{"bike_id":"34ef8d19-abd3-418b-af23-9942dadb071a","system_id":"levelo_inurba_marseille","lat":43.2176,"lon":5.34594,"is_reserved":false,"is_disabled":false,"rental_uris":{"android":"levelo://app?vid=34ef8d19-abd3-418b-af23-9942dadb071a","ios":"levelo://app?vid=34ef8d19-abd3-418b-af23-9942dadb071a"},"vehicle_type_id":"4","last_reported":1751451131,"current_range_meters":9600,"station_id":"st_cvj6r9ubvosntc0bgbag","pricing_plan_id":"cebpf4jnsgd1na2vs0mg"},{"bike_id":"63ca9baa-dd2f-4e9d-a94f-2c5164504115","system_id":"levelo_inurba_marseille","lat":43.33776,"lon":5.37433,"is_reserved":false,"is_disabled":false,"rental_uris":{"android":"levelo://app?vid=63ca9baa-dd2f-4e9d-a94f-2c5164504115","ios":"levelo://app?vid=63ca9baa-dd2f-4e9d-a94f-2c5164504115"},"vehicle_type_id":"4","last_reported":1751451131,"current_range_meters":10000,"station_id":"","pricing_plan_id":"cebpf4jnsgd1na2vs0mg"},{"bike_id":"c60f5e9d-2bb7-4b07-bd18-bd400d9e6468","system_id":"levelo_inurba_marseille","lat":43.29854,"lon":5.36287,"is_reserved":false,"is_disabled":false,"rental_uris":{"android":"levelo://app?vid=c60f5e9d-2bb7-4b07-bd18-bd400d9e6468","ios":"levelo://app?vid=c60f5e9d-2bb7-4b07-bd18-bd400d9e6468"},"vehicle_type_id":"4","last_reported":1751451131,"current_range_meters":10000,"station_id":"ce4bgpp2rcd13ifvqc3g","pricing_plan_id":"cebpf4jnsgd1na2vs0mg"},{"bike_id":"63e48e06-b91f-4043-a5fb-572d5a600b5e","system_id":"levelo_inurba_marseille","lat":43.30954,"lon":5.39044,"is_reserved":false,"is_disabled":false,"rental_uris":{"android":"levelo://app?vid=63e48e06-b91f-4043-a5fb-572d5a600b5e","ios":"levelo://app?vid=63e48e06-b91f-4043-a5fb-572d5a600b5e"},"vehicle_type_id":"4","last_reported":1751451131,"current_range_meters":10000,"station_id":"ce4bgup2rcd13ifvqco0","pricing_plan_id":"cebpf4jnsgd1na2vs0mg"},{"bike_id":"a0ffdf28-d659-45dc-b870-b2d591eeef83","system_id":"levelo_inurba_marseille","lat":43.25726,"lon":5.41113,"is_reserved":false,"is_disabled":false,"rental_uris":{"android":"levelo://app?vid=a0ffdf28-d659-45dc-b870-b2d591eeef83","ios":"levelo://app?vid=a0ffdf28-d659-45dc-b870-b2d591eeef83"},"vehicle_type_id":"4","last_reported":1751451131,"current_range_meters":10000,"station_id":"ce4bhkp2rcd13ifvqgd0","pricing_plan_id":"cebpf4jnsgd1na2vs0mg"},{"bike_id":"86c8e1a5-b5c2-42b1-99f8-14e6e2096d9b","system_id":"levelo_inurba_marseille","lat":43.31402,"lon":5.3668,"is_reserved":false,"is_disabled":false,"rental_uris":{"android":"levelo://app?vid=86c8e1a5-b5c2-42b1-99f8-14e6e2096d9b","ios":"levelo://app?vid=86c8e1a5-b5c2-42b1-99f8-14e6e2096d9b"},"vehicle_type_id":"4","last_reported":1751451131,"current_range_meters":10800,"station_id":"","pricing_plan_id":"cebpf4jnsgd1na2vs0mg"},{"bike_id":"c61036a9-1a66-4480-8bd4-cd2fb585b287","system_id":"levelo_inurba_marseille","lat":43.269846,"lon":5.405433,"is_reserved":false,"is_disabled":false,"rental_uris":{"android":"levelo://app?vid=c61036a9-1a66-4480-8bd4-cd2fb585b287","ios":"levelo://app?vid=c61036a9-1a66-4480-8bd4-cd2fb585b287"},"vehicle_type_id":"4","last_reported":1751451131,"current_range_meters":10800,"station_id":"","pricing_plan_id":"cebpf4jnsgd1na2vs0mg"},{"bike_id":"8d8b0b81-ad64-481f-b455-c00f8e29c86e","system_id":"levelo_inurba_marseille","lat":43.30153,"lon":5.37424,"is_reserved":false,"is_disabled":false,"rental_uris":{"android":"levelo://app?vid=8d8b0b81-ad64-481f-b455-c00f8e29c86e","ios":"levelo://app?vid=8d8b0b81-ad64-481f-b455-c00f8e29c86e"},"vehicle_type_id":"4","last_reported":1751451131,"current_range_meters":10800,"station_id":"ce4bgs92rcd13ifvqcc0","pricing_plan_id":"cebpf4jnsgd1na2vs0mg"},{"bike_id":"3fc30f4e-2bcd-4056-ae3c-026ba246a2c2","system_id":"levelo_inurba_marseille","lat":43.28942,"lon":5.39631,"is_reserved":false,"is_disabled":false,"rental_uris":{"android":"levelo://app?vid=3fc30f4e-2bcd-4056-ae3c-026ba246a2c2","ios":"levelo://app?vid=3fc30f4e-2bcd-4056-ae3c-026ba246a2c2"},"vehicle_type_id":"4","last_reported":1751451131,"current_range_meters":10800,"station_id":"ce4bh3h2rcd13ifvqdn0","pricing_plan_id":"cebpf4jnsgd1na2vs0mg"},{"bike_id":"58c452b3-e6be-4d22-b9c0-ba810668a5d1","system_id":"levelo_inurba_marseille","lat":43.2862,"lon":5.35099,"is_reserved":false,"is_disabled":false,"rental_uris":{"android":"levelo://app?vid=58c452b3-e6be-4d22-b9c0-ba810668a5d1","ios":"levelo://app?vid=58c452b3-e6be-4d22-b9c0-ba810668a5d1"},"vehicle_type_id":"4","last_reported":1751451131,"current_range_meters":10800,"station_id":"ce4bhch2rcd13ifvqeug","pricing_plan_id":"cebpf4jnsgd1na2vs0mg"},{"bike_id":"bebcd3b3-f342-4881-99b2-21e0ec6e9f0b","system_id":"levelo_inurba_marseille","lat":43.27204,"lon":5.39189,"is_reserved":false,"is_disabled":false,"rental_uris":{"android":"levelo://app?vid=bebcd3b3-f342-4881-99b2-21e0ec6e9f0b","ios":"levelo://app?vid=bebcd3b3-f342-4881-99b2-21e0ec6e9f0b"},"vehicle_type_id":"4","last_reported":1751451131,"current_range_meters":11200,"station_id":"ce4bhhp2rcd13ifvqfm0","pricing_plan_id":"cebpf4jnsgd1na2vs0mg"},{"bike_id":"f6054310-f1c5-45e0-b1e4-c5d17d4d04dc","system_id":"levelo_inurba_marseille","lat":43.31892,"lon":5.40733,"is_reserved":false,"is_disabled":false,"rental_uris":{"android":"levelo://app?vid=f6054310-f1c5-45e0-b1e4-c5d17d4d04dc","ios":"levelo://app?vid=f6054310-f1c5-45e0-b1e4-c5d17d4d04dc"},"vehicle_type_id":"4","last_reported":1751451131,"current_range_meters":11200,"station_id":"ce4bhq12rcd13ifvqhig","pricing_plan_id":"cebpf4jnsgd1na2vs0mg"},{"bike_id":"86fa6ce7-8cbe-47ff-b5d3-c2b4938fd05c","system_id":"levelo_inurba_marseille","lat":43.21192,"lon":5.3507,"is_reserved":false,"is_disabled":false,"rental_uris":{"android":"levelo://app?vid=86fa6ce7-8cbe-47ff-b5d3-c2b4938fd05c","ios":"levelo://app?vid=86fa6ce7-8cbe-47ff-b5d3-c2b4938fd05c"},"vehicle_type_id":"4","last_reported":1751451131,"current_range_meters":11200,"station_id":"st_cvj6sg6p6f1abm77japg","pricing_plan_id":"cebpf4jnsgd1na2vs0mg"},{"bike_id":"282852d0-af67-46a4-a478-b04fb0fa04a4","system_id":"levelo_inurba_marseille","lat":43.31329,"lon":5.36711,"is_reserved":false,"is_disabled":false,"rental_uris":{"android":"levelo://app?vid=282852d0-af67-46a4-a478-b04fb0fa04a4","ios":"levelo://app?vid=282852d0-af67-46a4-a478-b04fb0fa04a4"},"vehicle_type_id":"4","last_reported":1751451131,"current_range_meters":11600,"station_id":"ce4bgr92rcd13ifvqc6g","pricing_plan_id":"cebpf4jnsgd1na2vs0mg"},{"bike_id":"7fe4de49-0fed-4c3e-b77c-3305ebed1a68","system_id":"levelo_inurba_marseille","lat":43.31716,"lon":5.40465,"is_reserved":false,"is_disabled":false,"rental_uris":{"android":"levelo://app?vid=7fe4de49-0fed-4c3e-b77c-3305ebed1a68","ios":"levelo://app?vid=7fe4de49-0fed-4c3e-b77c-3305ebed1a68"},"vehicle_type_id":"4","last_reported":1751451131,"current_range_meters":11600,"station_id":"ce4bh012rcd13ifvqd00","pricing_plan_id":"cebpf4jnsgd1na2vs0mg"},{"bike_id":"5ea1dd93-3c49-4f8f-bb7f-00d3c982b0ae","system_id":"levelo_inurba_marseille","lat":43.22932,"lon":5.353656,"is_reserved":false,"is_disabled":false,"rental_uris":{"android":"levelo://app?vid=5ea1dd93-3c49-4f8f-bb7f-00d3c982b0ae","ios":"levelo://app?vid=5ea1dd93-3c49-4f8f-bb7f-00d3c982b0ae"},"vehicle_type_id":"4","last_reported":1751451131,"current_range_meters":11600,"station_id":"cpo3532slgdg3j2ikp40","pricing_plan_id":"cebpf4jnsgd1na2vs0mg"},{"bike_id":"2f2629d1-5dad-4c79-9c26-2905d0115ed8","system_id":"levelo_inurba_marseille","lat":43.296346,"lon":5.405947,"is_reserved":false,"is_disabled":false,"rental_uris":{"android":"levelo://app?vid=2f2629d1-5dad-4c79-9c26-2905d0115ed8","ios":"levelo://app?vid=2f2629d1-5dad-4c79-9c26-2905d0115ed8"},"vehicle_type_id":"4","last_reported":1751451131,"current_range_meters":12000,"station_id":"ce4bh0h2rcd13ifvqd60","pricing_plan_id":"cebpf4jnsgd1na2vs0mg"},{"bike_id":"617abdb6-0a3b-41f0-8138-2b6bd92183fe","system_id":"levelo_inurba_marseille","lat":43.259372,"lon":5.409079,"is_reserved":false,"is_disabled":false,"rental_uris":{"android":"levelo://app?vid=617abdb6-0a3b-41f0-8138-2b6bd92183fe","ios":"levelo://app?vid=617abdb6-0a3b-41f0-8138-2b6bd92183fe"},"vehicle_type_id":"4","last_reported":1751451131,"current_range_meters":12000,"station_id":"ce4bhm92rcd13ifvqglg","pricing_plan_id":"cebpf4jnsgd1na2vs0mg"},{"bike_id":"bf9a42f0-3236-41b2-aead-463e94f79ff6","system_id":"levelo_inurba_marseille","lat":43.23288,"lon":5.354023,"is_reserved":false,"is_disabled":false,"rental_uris":{"android":"levelo://app?vid=bf9a42f0-3236-41b2-aead-463e94f79ff6","ios":"levelo://app?vid=bf9a42f0-3236-41b2-aead-463e94f79ff6"},"vehicle_type_id":"4","last_reported":1751451131,"current_range_meters":12400,"station_id":"","pricing_plan_id":"cebpf4jnsgd1na2vs0mg"},{"bike_id":"4810f33f-d5e0-4478-89ab-5e50f6676b57","system_id":"levelo_inurba_marseille","lat":43.257273,"lon":5.410996,"is_reserved":false,"is_disabled":false,"rental_uris":{"android":"levelo://app?vid=4810f33f-d5e0-4478-89ab-5e50f6676b57","ios":"levelo://app?vid=4810f33f-d5e0-4478-89ab-5e50f6676b57"},"vehicle_type_id":"4","last_reported":1751451131,"current_range_meters":12400,"station_id":"ce4bhkp2rcd13ifvqgd0","pricing_plan_id":"cebpf4jnsgd1na2vs0mg"},{"bike_id":"b91f0c35-1074-4055-9ea4-8bce700995fc","system_id":"levelo_inurba_marseille","lat":43.25931,"lon":5.40886,"is_reserved":false,"is_disabled":false,"rental_uris":{"android":"levelo://app?vid=b91f0c35-1074-4055-9ea4-8bce700995fc","ios":"levelo://app?vid=b91f0c35-1074-4055-9ea4-8bce700995fc"},"vehicle_type_id":"4","last_reported":1751451131,"current_range_meters":12400,"station_id":"ce4bhm92rcd13ifvqglg","pricing_plan_id":"cebpf4jnsgd1na2vs0mg"},{"bike_id":"0c1b4f74-5294-4b59-932d-b742ce647d9e","system_id":"levelo_inurba_marseille","lat":43.21193,"lon":5.350733,"is_reserved":false,"is_disabled":false,"rental_uris":{"android":"levelo://app?vid=0c1b4f74-5294-4b59-932d-b742ce647d9e","ios":"levelo://app?vid=0c1b4f74-5294-4b59-932d-b742ce647d9e"},"vehicle_type_id":"4","last_reported":1751451131,"current_range_meters":12400,"station_id":"st_cvj6sg6p6f1abm77japg","pricing_plan_id":"cebpf4jnsgd1na2vs0mg"},{"bike_id":"8a74f5cd-9efa-4362-bea7-a32db4dcc85c","system_id":"levelo_inurba_marseille","lat":43.211909,"lon":5.350684,"is_reserved":false,"is_disabled":false,"rental_uris":{"android":"levelo://app?vid=8a74f5cd-9efa-4362-bea7-a32db4dcc85c","ios":"levelo://app?vid=8a74f5cd-9efa-4362-bea7-a32db4dcc85c"},"vehicle_type_id":"4","last_reported":1751451131,"current_range_meters":12400,"station_id":"st_cvj6sg6p6f1abm77japg","pricing_plan_id":"cebpf4jnsgd1na2vs0mg"},{"bike_id":"7f43c256-c20f-44df-9614-9b51b38b8510","system_id":"levelo_inurba_marseille","lat":43.27625,"lon":5.36111,"is_reserved":false,"is_disabled":false,"rental_uris":{"android":"levelo://app?vid=7f43c256-c20f-44df-9614-9b51b38b8510","ios":"levelo://app?vid=7f43c256-c20f-44df-9614-9b51b38b8510"},"vehicle_type_id":"4","last_reported":1751451131,"current_range_meters":12800,"station_id":"ce4bgj92rcd13ifvqbe0","pricing_plan_id":"cebpf4jnsgd1na2vs0mg"},{"bike_id":"7c65c4b3-f4fa-4b54-8076-2af6b2629340","system_id":"levelo_inurba_marseille","lat":43.2592,"lon":5.40895,"is_reserved":false,"is_disabled":false,"rental_uris":{"android":"levelo://app?vid=7c65c4b3-f4fa-4b54-8076-2af6b2629340","ios":"levelo://app?vid=7c65c4b3-f4fa-4b54-8076-2af6b2629340"},"vehicle_type_id":"4","last_reported":1751451131,"current_range_meters":12800,"station_id":"ce4bhm92rcd13ifvqglg","pricing_plan_id":"cebpf4jnsgd1na2vs0mg"},{"bike_id":"ee0317a9-0b3d-4631-9294-b4dddc155611","system_id":"levelo_inurba_marseille","lat":43.32355,"lon":5.3676,"is_reserved":false,"is_disabled":false,"rental_uris":{"android":"levelo://app?vid=ee0317a9-0b3d-4631-9294-b4dddc155611","ios":"levelo://app?vid=ee0317a9-0b3d-4631-9294-b4dddc155611"},"vehicle_type_id":"4","last_reported":1751451131,"current_range_meters":13600,"station_id":"ce4bhsh2rcd13ifvqi2g","pricing_plan_id":"cebpf4jnsgd1na2vs0mg"},{"bike_id":"e9835fcb-710a-4c6c-a9f7-913dba2774fb","system_id":"levelo_inurba_marseille","lat":43.32433,"lon":5.36578,"is_reserved":false,"is_disabled":false,"rental_uris":{"android":"levelo://app?vid=e9835fcb-710a-4c6c-a9f7-913dba2774fb","ios":"levelo://app?vid=e9835fcb-710a-4c6c-a9f7-913dba2774fb"},"vehicle_type_id":"4","last_reported":1751451131,"current_range_meters":14000,"station_id":"","pricing_plan_id":"cebpf4jnsgd1na2vs0mg"},{"bike_id":"a0f5d7dc-2b79-4c1f-931d-eeafeae0ba6f","system_id":"levelo_inurba_marseille","lat":43.2656,"lon":5.37278,"is_reserved":false,"is_disabled":false,"rental_uris":{"android":"levelo://app?vid=a0f5d7dc-2b79-4c1f-931d-eeafeae0ba6f","ios":"levelo://app?vid=a0f5d7dc-2b79-4c1f-931d-eeafeae0ba6f"},"vehicle_type_id":"4","last_reported":1751451131,"current_range_meters":14000,"station_id":"ce4bhg12rcd13ifvqf70","pricing_plan_id":"cebpf4jnsgd1na2vs0mg"},{"bike_id":"c2cc3873-3136-4ba7-984d-6514f2a6bcc2","system_id":"levelo_inurba_marseille","lat":43.26692,"lon":5.3827,"is_reserved":false,"is_disabled":false,"rental_uris":{"android":"levelo://app?vid=c2cc3873-3136-4ba7-984d-6514f2a6bcc2","ios":"levelo://app?vid=c2cc3873-3136-4ba7-984d-6514f2a6bcc2"},"vehicle_type_id":"4","last_reported":1751451131,"current_range_meters":14000,"station_id":"ce4bhg92rcd13ifvqf90","pricing_plan_id":"cebpf4jnsgd1na2vs0mg"},{"bike_id":"77e652d2-27e3-4b7e-8763-af4a4bbd0999","system_id":"levelo_inurba_marseille","lat":43.26209,"lon":5.37438,"is_reserved":false,"is_disabled":false,"rental_uris":{"android":"levelo://app?vid=77e652d2-27e3-4b7e-8763-af4a4bbd0999","ios":"levelo://app?vid=77e652d2-27e3-4b7e-8763-af4a4bbd0999"},"vehicle_type_id":"4","last_reported":1751451131,"current_range_meters":14000,"station_id":"ce4bhgp2rcd13ifvqfc0","pricing_plan_id":"cebpf4jnsgd1na2vs0mg"},{"bike_id":"c899bdeb-e8c8-487d-a5a5-00dc09ddabfe","system_id":"levelo_inurba_marseille","lat":43.341485,"lon":5.40904,"is_reserved":false,"is_disabled":false,"rental_uris":{"android":"levelo://app?vid=c899bdeb-e8c8-487d-a5a5-00dc09ddabfe","ios":"levelo://app?vid=c899bdeb-e8c8-487d-a5a5-00dc09ddabfe"},"vehicle_type_id":"4","last_reported":1751451131,"current_range_meters":14000,"station_id":"ce4bhqh2rcd13ifvqhlg","pricing_plan_id":"cebpf4jnsgd1na2vs0mg"},{"bike_id":"d16b9dec-c438-4000-91c8-6cda5b0545dc","system_id":"levelo_inurba_marseille","lat":43.24893,"lon":5.37522,"is_reserved":false,"is_disabled":false,"rental_uris":{"android":"levelo://app?vid=d16b9dec-c438-4000-91c8-6cda5b0545dc","ios":"levelo://app?vid=d16b9dec-c438-4000-91c8-6cda5b0545dc"},"vehicle_type_id":"4","last_reported":1751451131,"current_range_meters":14400,"station_id":"","pricing_plan_id":"cebpf4jnsgd1na2vs0mg"},{"bike_id":"579eec6d-edda-46d5-a6e7-3d4dfb6ee032","system_id":"levelo_inurba_marseille","lat":43.29522,"lon":5.39048,"is_reserved":false,"is_disabled":false,"rental_uris":{"android":"levelo://app?vid=579eec6d-edda-46d5-a6e7-3d4dfb6ee032","ios":"levelo://app?vid=579eec6d-edda-46d5-a6e7-3d4dfb6ee032"},"vehicle_type_id":"4","last_reported":1751451131,"current_range_meters":14400,"station_id":"ce4bh3p2rcd13ifvqdp0","pricing_plan_id":"cebpf4jnsgd1na2vs0mg"},{"bike_id":"ebceaf31-51b9-4502-92e9-09bf5c46df39","system_id":"levelo_inurba_marseille","lat":43.2481,"lon":5.37452,"is_reserved":false,"is_disabled":false,"rental_uris":{"android":"levelo://app?vid=ebceaf31-51b9-4502-92e9-09bf5c46df39","ios":"levelo://app?vid=ebceaf31-51b9-4502-92e9-09bf5c46df39"},"vehicle_type_id":"4","last_reported":1751451131,"current_range_meters":14400,"station_id":"ce4bhgh2rcd13ifvqfb0","pricing_plan_id":"cebpf4jnsgd1na2vs0mg"},{"bike_id":"f00e3044-9bd1-48b5-b342-151af21b34fa","system_id":"levelo_inurba_marseille","lat":43.29987,"lon":5.37425,"is_reserved":false,"is_disabled":false,"rental_uris":{"android":"levelo://app?vid=f00e3044-9bd1-48b5-b342-151af21b34fa","ios":"levelo://app?vid=f00e3044-9bd1-48b5-b342-151af21b34fa"},"vehicle_type_id":"4","last_reported":1751451131,"current_range_meters":14800,"station_id":"","pricing_plan_id":"cebpf4jnsgd1na2vs0mg"},{"bike_id":"5f0aa697-f237-431c-ac43-8fe80befae56","system_id":"levelo_inurba_marseille","lat":43.309518,"lon":5.390462,"is_reserved":false,"is_disabled":false,"rental_uris":{"android":"levelo://app?vid=5f0aa697-f237-431c-ac43-8fe80befae56","ios":"levelo://app?vid=5f0aa697-f237-431c-ac43-8fe80befae56"},"vehicle_type_id":"4","last_reported":1751451131,"current_range_meters":14800,"station_id":"ce4bgup2rcd13ifvqco0","pricing_plan_id":"cebpf4jnsgd1na2vs0mg"},{"bike_id":"738299e9-ef7b-4057-925c-bcad748381f5","system_id":"levelo_inurba_marseille","lat":43.3234,"lon":5.40626,"is_reserved":false,"is_disabled":false,"rental_uris":{"android":"levelo://app?vid=738299e9-ef7b-4057-925c-bcad748381f5","ios":"levelo://app?vid=738299e9-ef7b-4057-925c-bcad748381f5"},"vehicle_type_id":"4","last_reported":1751451131,"current_range_meters":14800,"station_id":"ce4bhq92rcd13ifvqhjg","pricing_plan_id":"cebpf4jnsgd1na2vs0mg"},{"bike_id":"6c992314-cd9f-4571-9085-76039c8cb9c5","system_id":"levelo_inurba_marseille","lat":43.24168,"lon":5.36387,"is_reserved":false,"is_disabled":false,"rental_uris":{"android":"levelo://app?vid=6c992314-cd9f-4571-9085-76039c8cb9c5","ios":"levelo://app?vid=6c992314-cd9f-4571-9085-76039c8cb9c5"},"vehicle_type_id":"4","last_reported":1751451131,"current_range_meters":14800,"station_id":"cpo36qri1sfpv3e86is0","pricing_plan_id":"cebpf4jnsgd1na2vs0mg"},{"bike_id":"ed51cec8-6cb5-4926-b37d-72d8ab0994f2","system_id":"levelo_inurba_marseille","lat":43.30541,"lon":5.36541,"is_reserved":false,"is_disabled":false,"rental_uris":{"android":"levelo://app?vid=ed51cec8-6cb5-4926-b37d-72d8ab0994f2","ios":"levelo://app?vid=ed51cec8-6cb5-4926-b37d-72d8ab0994f2"},"vehicle_type_id":"4","last_reported":1751451131,"current_range_meters":15200,"station_id":"ce4bgs12rcd13ifvqcag","pricing_plan_id":"cebpf4jnsgd1na2vs0mg"},{"bike_id":"5cd86d6b-24db-42db-9036-59760079c52e","system_id":"levelo_inurba_marseille","lat":43.29284,"lon":5.40117,"is_reserved":false,"is_disabled":false,"rental_uris":{"android":"levelo://app?vid=5cd86d6b-24db-42db-9036-59760079c52e","ios":"levelo://app?vid=5cd86d6b-24db-42db-9036-59760079c52e"},"vehicle_type_id":"4","last_reported":1751451131,"current_range_meters":15200,"station_id":"ce4bh312rcd13ifvqdk0","pricing_plan_id":"cebpf4jnsgd1na2vs0mg"},{"bike_id":"7d1bbfbb-c70e-48d3-8f4b-baf5b1ca8b77","system_id":"levelo_inurba_marseille","lat":43.28423,"lon":5.34976,"is_reserved":false,"is_disabled":false,"rental_uris":{"android":"levelo://app?vid=7d1bbfbb-c70e-48d3-8f4b-baf5b1ca8b77","ios":"levelo://app?vid=7d1bbfbb-c70e-48d3-8f4b-baf5b1ca8b77"},"vehicle_type_id":"4","last_reported":1751451131,"current_range_meters":15200,"station_id":"ce4bhbh2rcd13ifvqepg","pricing_plan_id":"cebpf4jnsgd1na2vs0mg"},{"bike_id":"752a564e-ed3e-4f09-8bdd-cca89ccb5cba","system_id":"levelo_inurba_marseille","lat":43.28267,"lon":5.35064,"is_reserved":false,"is_disabled":false,"rental_uris":{"android":"levelo://app?vid=752a564e-ed3e-4f09-8bdd-cca89ccb5cba","ios":"levelo://app?vid=752a564e-ed3e-4f09-8bdd-cca89ccb5cba"},"vehicle_type_id":"4","last_reported":1751451131,"current_range_meters":15200,"station_id":"ce4bhbp2rcd13ifvqerg","pricing_plan_id":"cebpf4jnsgd1na2vs0mg"},{"bike_id":"cdc38397-36f1-4ceb-89b2-7ef75755fc16","system_id":"levelo_inurba_marseille","lat":43.32358,"lon":5.36761,"is_reserved":false,"is_disabled":false,"rental_uris":{"android":"levelo://app?vid=cdc38397-36f1-4ceb-89b2-7ef75755fc16","ios":"levelo://app?vid=cdc38397-36f1-4ceb-89b2-7ef75755fc16"},"vehicle_type_id":"4","last_reported":1751451131,"current_range_meters":15200,"station_id":"ce4bhsh2rcd13ifvqi2g","pricing_plan_id":"cebpf4jnsgd1na2vs0mg"},{"bike_id":"dbe6a7d8-6edc-4015-8658-f68eeb46a661","system_id":"levelo_inurba_marseille","lat":43.33573,"lon":5.39885,"is_reserved":false,"is_disabled":false,"rental_uris":{"android":"levelo://app?vid=dbe6a7d8-6edc-4015-8658-f68eeb46a661","ios":"levelo://app?vid=dbe6a7d8-6edc-4015-8658-f68eeb46a661"},"vehicle_type_id":"4","last_reported":1751451131,"current_range_meters":16000,"station_id":"","pricing_plan_id":"cebpf4jnsgd1na2vs0mg"},{"bike_id":"b28aa0a0-791c-4a08-9a16-c7bf6ea0ed5a","system_id":"levelo_inurba_marseille","lat":43.225,"lon":5.34781,"is_reserved":false,"is_disabled":false,"rental_uris":{"android":"levelo://app?vid=b28aa0a0-791c-4a08-9a16-c7bf6ea0ed5a","ios":"levelo://app?vid=b28aa0a0-791c-4a08-9a16-c7bf6ea0ed5a"},"vehicle_type_id":"4","last_reported":1751451131,"current_range_meters":16000,"station_id":"","pricing_plan_id":"cebpf4jnsgd1na2vs0mg"},{"bike_id":"7e62b058-a7ed-4634-80f1-04d3de596de7","system_id":"levelo_inurba_marseille","lat":43.2985,"lon":5.3681,"is_reserved":false,"is_disabled":false,"rental_uris":{"android":"levelo://app?vid=7e62b058-a7ed-4634-80f1-04d3de596de7","ios":"levelo://app?vid=7e62b058-a7ed-4634-80f1-04d3de596de7"},"vehicle_type_id":"4","last_reported":1751451131,"current_range_meters":16000,"station_id":"","pricing_plan_id":"cebpf4jnsgd1na2vs0mg"},{"bike_id":"3ce71b5c-ba7c-4a77-b581-c0a79415587e","system_id":"levelo_inurba_marseille","lat":43.29789,"lon":5.38091,"is_reserved":false,"is_disabled":false,"rental_uris":{"android":"levelo://app?vid=3ce71b5c-ba7c-4a77-b581-c0a79415587e","ios":"levelo://app?vid=3ce71b5c-ba7c-4a77-b581-c0a79415587e"},"vehicle_type_id":"4","last_reported":1751451131,"current_range_meters":16000,"station_id":"ce4bgip2rcd13ifvqbb0","pricing_plan_id":"cebpf4jnsgd1na2vs0mg"},{"bike_id":"b6db9e3f-26b1-4030-aaa1-6ee95deb3e82","system_id":"levelo_inurba_marseille","lat":43.25007,"lon":5.38907,"is_reserved":false,"is_disabled":false,"rental_uris":{"android":"levelo://app?vid=b6db9e3f-26b1-4030-aaa1-6ee95deb3e82","ios":"levelo://app?vid=b6db9e3f-26b1-4030-aaa1-6ee95deb3e82"},"vehicle_type_id":"4","last_reported":1751451131,"current_range_meters":16000,"station_id":"ce4bhgp2rcd13ifvqfd0","pricing_plan_id":"cebpf4jnsgd1na2vs0mg"},{"bike_id":"fd13ddb3-78b9-45d9-94de-067a6afb24d9","system_id":"levelo_inurba_marseille","lat":43.25721,"lon":5.41112,"is_reserved":false,"is_disabled":false,"rental_uris":{"android":"levelo://app?vid=fd13ddb3-78b9-45d9-94de-067a6afb24d9","ios":"levelo://app?vid=fd13ddb3-78b9-45d9-94de-067a6afb24d9"},"vehicle_type_id":"4","last_reported":1751451131,"current_range_meters":16000,"station_id":"ce4bhkp2rcd13ifvqgd0","pricing_plan_id":"cebpf4jnsgd1na2vs0mg"},{"bike_id":"d68dacc3-2ebb-4596-94df-9035662fd853","system_id":"levelo_inurba_marseille","lat":43.25716,"lon":5.41121,"is_reserved":false,"is_disabled":false,"rental_uris":{"android":"levelo://app?vid=d68dacc3-2ebb-4596-94df-9035662fd853","ios":"levelo://app?vid=d68dacc3-2ebb-4596-94df-9035662fd853"},"vehicle_type_id":"4","last_reported":1751451131,"current_range_meters":16000,"station_id":"ce4bhkp2rcd13ifvqgd0","pricing_plan_id":"cebpf4jnsgd1na2vs0mg"},{"bike_id":"a6413d69-72b2-4506-ab68-ce224060e43a","system_id":"levelo_inurba_marseille","lat":43.25729,"lon":5.41106,"is_reserved":false,"is_disabled":false,"rental_uris":{"android":"levelo://app?vid=a6413d69-72b2-4506-ab68-ce224060e43a","ios":"levelo://app?vid=a6413d69-72b2-4506-ab68-ce224060e43a"},"vehicle_type_id":"4","last_reported":1751451131,"current_range_meters":16000,"station_id":"ce4bhkp2rcd13ifvqgd0","pricing_plan_id":"cebpf4jnsgd1na2vs0mg"},{"bike_id":"e379ab02-c7a2-41c8-bd1a-ec78e7fdd04d","system_id":"levelo_inurba_marseille","lat":43.22934,"lon":5.35376,"is_reserved":false,"is_disabled":false,"rental_uris":{"android":"levelo://app?vid=e379ab02-c7a2-41c8-bd1a-ec78e7fdd04d","ios":"levelo://app?vid=e379ab02-c7a2-41c8-bd1a-ec78e7fdd04d"},"vehicle_type_id":"4","last_reported":1751451131,"current_range_meters":16000,"station_id":"cpo3532slgdg3j2ikp40","pricing_plan_id":"cebpf4jnsgd1na2vs0mg"},{"bike_id":"ff5aa8bb-415a-44da-a879-077a3c8245f5","system_id":"levelo_inurba_marseille","lat":43.30953,"lon":5.39044,"is_reserved":false,"is_disabled":false,"rental_uris":{"android":"levelo://app?vid=ff5aa8bb-415a-44da-a879-077a3c8245f5","ios":"levelo://app?vid=ff5aa8bb-415a-44da-a879-077a3c8245f5"},"vehicle_type_id":"4","last_reported":1751451131,"current_range_meters":16400,"station_id":"ce4bgup2rcd13ifvqco0","pricing_plan_id":"cebpf4jnsgd1na2vs0mg"},{"bike_id":"6d1691d5-196d-45df-92e0-d84a29b9def7","system_id":"levelo_inurba_marseille","lat":43.26784,"lon":5.39418,"is_reserved":false,"is_disabled":false,"rental_uris":{"android":"levelo://app?vid=6d1691d5-196d-45df-92e0-d84a29b9def7","ios":"levelo://app?vid=6d1691d5-196d-45df-92e0-d84a29b9def7"},"vehicle_type_id":"4","last_reported":1751451131,"current_range_meters":16400,"station_id":"ce4bhh12rcd13ifvqfg0","pricing_plan_id":"cebpf4jnsgd1na2vs0mg"},{"bike_id":"9412e378-009e-42d5-9dea-c57065a6fa73","system_id":"levelo_inurba_marseille","lat":43.250851,"lon":5.395256,"is_reserved":false,"is_disabled":false,"rental_uris":{"android":"levelo://app?vid=9412e378-009e-42d5-9dea-c57065a6fa73","ios":"levelo://app?vid=9412e378-009e-42d5-9dea-c57065a6fa73"},"vehicle_type_id":"4","last_reported":1751451131,"current_range_meters":16400,"station_id":"ce4bhm12rcd13ifvqgkg","pricing_plan_id":"cebpf4jnsgd1na2vs0mg"},{"bike_id":"62c0b135-55f0-4f59-9681-b86af19f0d68","system_id":"levelo_inurba_marseille","lat":43.2807,"lon":5.39643,"is_reserved":false,"is_disabled":false,"rental_uris":{"android":"levelo://app?vid=62c0b135-55f0-4f59-9681-b86af19f0d68","ios":"levelo://app?vid=62c0b135-55f0-4f59-9681-b86af19f0d68"},"vehicle_type_id":"4","last_reported":1751451131,"current_range_meters":16400,"station_id":"ce4bho12rcd13ifvqh2g","pricing_plan_id":"cebpf4jnsgd1na2vs0mg"},{"bike_id":"56eb3fdf-ea87-4fcf-85df-3680fa66363e","system_id":"levelo_inurba_marseille","lat":43.22499,"lon":5.34793,"is_reserved":false,"is_disabled":false,"rental_uris":{"android":"levelo://app?vid=56eb3fdf-ea87-4fcf-85df-3680fa66363e","ios":"levelo://app?vid=56eb3fdf-ea87-4fcf-85df-3680fa66363e"},"vehicle_type_id":"4","last_reported":1751451131,"current_range_meters":16400,"station_id":"st_cvj5dfep6f1abm77gieg","pricing_plan_id":"cebpf4jnsgd1na2vs0mg"},{"bike_id":"16a8afe6-e43e-4d1b-a7bd-ed83d113735a","system_id":"levelo_inurba_marseille","lat":43.32436,"lon":5.41185,"is_reserved":false,"is_disabled":false,"rental_uris":{"android":"levelo://app?vid=16a8afe6-e43e-4d1b-a7bd-ed83d113735a","ios":"levelo://app?vid=16a8afe6-e43e-4d1b-a7bd-ed83d113735a"},"vehicle_type_id":"4","last_reported":1751451131,"current_range_meters":16800,"station_id":"","pricing_plan_id":"cebpf4jnsgd1na2vs0mg"},{"bike_id":"7440a83d-d2eb-4aec-843d-e9a2bc12e9e7","system_id":"levelo_inurba_marseille","lat":43.24179,"lon":5.39734,"is_reserved":false,"is_disabled":false,"rental_uris":{"android":"levelo://app?vid=7440a83d-d2eb-4aec-843d-e9a2bc12e9e7","ios":"levelo://app?vid=7440a83d-d2eb-4aec-843d-e9a2bc12e9e7"},"vehicle_type_id":"4","last_reported":1751451131,"current_range_meters":16800,"station_id":"ce4bhn12rcd13ifvqgpg","pricing_plan_id":"cebpf4jnsgd1na2vs0mg"},{"bike_id":"bcfd0eda-b9ab-4bec-9ca3-3f2b86617415","system_id":"levelo_inurba_marseille","lat":43.21188,"lon":5.35071,"is_reserved":false,"is_disabled":false,"rental_uris":{"android":"levelo://app?vid=bcfd0eda-b9ab-4bec-9ca3-3f2b86617415","ios":"levelo://app?vid=bcfd0eda-b9ab-4bec-9ca3-3f2b86617415"},"vehicle_type_id":"4","last_reported":1751451131,"current_range_meters":16800,"station_id":"st_cvj6sg6p6f1abm77japg","pricing_plan_id":"cebpf4jnsgd1na2vs0mg"},{"bike_id":"a0cef316-ad95-4855-8f78-a31341a2b90e","system_id":"levelo_inurba_marseille","lat":43.31269,"lon":5.37747,"is_reserved":false,"is_disabled":false,"rental_uris":{"android":"levelo://app?vid=a0cef316-ad95-4855-8f78-a31341a2b90e","ios":"levelo://app?vid=a0cef316-ad95-4855-8f78-a31341a2b90e"},"vehicle_type_id":"4","last_reported":1751451131,"current_range_meters":17200,"station_id":"","pricing_plan_id":"cebpf4jnsgd1na2vs0mg"},{"bike_id":"05a71970-34eb-4002-b973-7bb563628417","system_id":"levelo_inurba_marseille","lat":43.29582,"lon":5.37509,"is_reserved":false,"is_disabled":false,"rental_uris":{"android":"levelo://app?vid=05a71970-34eb-4002-b973-7bb563628417","ios":"levelo://app?vid=05a71970-34eb-4002-b973-7bb563628417"},"vehicle_type_id":"4","last_reported":1751451131,"current_range_meters":17200,"station_id":"ce4bgh92rcd13ifvqb50","pricing_plan_id":"cebpf4jnsgd1na2vs0mg"},{"bike_id":"c891a8a9-6cee-47e2-ba82-eb733400cd8c","system_id":"levelo_inurba_marseille","lat":43.30538,"lon":5.36713,"is_reserved":false,"is_disabled":false,"rental_uris":{"android":"levelo://app?vid=c891a8a9-6cee-47e2-ba82-eb733400cd8c","ios":"levelo://app?vid=c891a8a9-6cee-47e2-ba82-eb733400cd8c"},"vehicle_type_id":"4","last_reported":1751451131,"current_range_meters":17200,"station_id":"ce4bgrp2rcd13ifvqc9g","pricing_plan_id":"cebpf4jnsgd1na2vs0mg"},{"bike_id":"0e030323-4386-4e72-9a0d-0f6a2ff539de","system_id":"levelo_inurba_marseille","lat":43.296223,"lon":5.405456,"is_reserved":false,"is_disabled":false,"rental_uris":{"android":"levelo://app?vid=0e030323-4386-4e72-9a0d-0f6a2ff539de","ios":"levelo://app?vid=0e030323-4386-4e72-9a0d-0f6a2ff539de"},"vehicle_type_id":"4","last_reported":1751451131,"current_range_meters":17200,"station_id":"ce4bh0h2rcd13ifvqd60","pricing_plan_id":"cebpf4jnsgd1na2vs0mg"},{"bike_id":"110be0f7-19b6-4419-935c-8afdb1f29359","system_id":"levelo_inurba_marseille","lat":43.212085,"lon":5.350746,"is_reserved":false,"is_disabled":false,"rental_uris":{"android":"levelo://app?vid=110be0f7-19b6-4419-935c-8afdb1f29359","ios":"levelo://app?vid=110be0f7-19b6-4419-935c-8afdb1f29359"},"vehicle_type_id":"4","last_reported":1751451131,"current_range_meters":17200,"station_id":"st_cvj6sg6p6f1abm77japg","pricing_plan_id":"cebpf4jnsgd1na2vs0mg"},{"bike_id":"959e6f20-8ed0-4d36-bc1d-3efb82d6190b","system_id":"levelo_inurba_marseille","lat":43.21194,"lon":5.35041,"is_reserved":false,"is_disabled":false,"rental_uris":{"android":"levelo://app?vid=959e6f20-8ed0-4d36-bc1d-3efb82d6190b","ios":"levelo://app?vid=959e6f20-8ed0-4d36-bc1d-3efb82d6190b"},"vehicle_type_id":"4","last_reported":1751451131,"current_range_meters":17200,"station_id":"st_cvj6sg6p6f1abm77japg","pricing_plan_id":"cebpf4jnsgd1na2vs0mg"},{"bike_id":"295e24d6-0cf4-40e8-94ca-c831c6afcd19","system_id":"levelo_inurba_marseille","lat":43.27207,"lon":5.39179,"is_reserved":false,"is_disabled":false,"rental_uris":{"android":"levelo://app?vid=295e24d6-0cf4-40e8-94ca-c831c6afcd19","ios":"levelo://app?vid=295e24d6-0cf4-40e8-94ca-c831c6afcd19"},"vehicle_type_id":"4","last_reported":1751451131,"current_range_meters":17600,"station_id":"ce4bhhp2rcd13ifvqfm0","pricing_plan_id":"cebpf4jnsgd1na2vs0mg"},{"bike_id":"09a94feb-8911-4d3d-9f22-a7f611710ea1","system_id":"levelo_inurba_marseille","lat":43.211922,"lon":5.350711,"is_reserved":false,"is_disabled":false,"rental_uris":{"android":"levelo://app?vid=09a94feb-8911-4d3d-9f22-a7f611710ea1","ios":"levelo://app?vid=09a94feb-8911-4d3d-9f22-a7f611710ea1"},"vehicle_type_id":"4","last_reported":1751451131,"current_range_meters":17600,"station_id":"st_cvj6sg6p6f1abm77japg","pricing_plan_id":"cebpf4jnsgd1na2vs0mg"},{"bike_id":"8bf0d992-d2a0-428e-940a-091ee9b7c2a4","system_id":"levelo_inurba_marseille","lat":43.21199,"lon":5.35051,"is_reserved":false,"is_disabled":false,"rental_uris":{"android":"levelo://app?vid=8bf0d992-d2a0-428e-940a-091ee9b7c2a4","ios":"levelo://app?vid=8bf0d992-d2a0-428e-940a-091ee9b7c2a4"},"vehicle_type_id":"4","last_reported":1751451131,"current_range_meters":17600,"station_id":"st_cvj6sg6p6f1abm77japg","pricing_plan_id":"cebpf4jnsgd1na2vs0mg"},{"bike_id":"f68a5a68-575b-4ac9-9fe9-d4b418ef9b15","system_id":"levelo_inurba_marseille","lat":43.29268,"lon":5.38429,"is_reserved":false,"is_disabled":false,"rental_uris":{"android":"levelo://app?vid=f68a5a68-575b-4ac9-9fe9-d4b418ef9b15","ios":"levelo://app?vid=f68a5a68-575b-4ac9-9fe9-d4b418ef9b15"},"vehicle_type_id":"4","last_reported":1751451131,"current_range_meters":18000,"station_id":"ce4bh692rcd13ifvqea0","pricing_plan_id":"cebpf4jnsgd1na2vs0mg"},{"bike_id":"86bc87d1-cf0e-4403-a81a-dd1a662cd80b","system_id":"levelo_inurba_marseille","lat":43.28511,"lon":5.38577,"is_reserved":false,"is_disabled":false,"rental_uris":{"android":"levelo://app?vid=86bc87d1-cf0e-4403-a81a-dd1a662cd80b","ios":"levelo://app?vid=86bc87d1-cf0e-4403-a81a-dd1a662cd80b"},"vehicle_type_id":"4","last_reported":1751451131,"current_range_meters":18000,"station_id":"ce4bh8p2rcd13ifvqeb0","pricing_plan_id":"cebpf4jnsgd1na2vs0mg"},{"bike_id":"5498b634-b8ad-41b7-a9b2-7b5814074e17","system_id":"levelo_inurba_marseille","lat":43.31886,"lon":5.40728,"is_reserved":false,"is_disabled":false,"rental_uris":{"android":"levelo://app?vid=5498b634-b8ad-41b7-a9b2-7b5814074e17","ios":"levelo://app?vid=5498b634-b8ad-41b7-a9b2-7b5814074e17"},"vehicle_type_id":"4","last_reported":1751451131,"current_range_meters":18000,"station_id":"ce4bhq12rcd13ifvqhig","pricing_plan_id":"cebpf4jnsgd1na2vs0mg"},{"bike_id":"4aec5da3-08df-44e2-8c33-7ab1f3c36943","system_id":"levelo_inurba_marseille","lat":43.24161,"lon":5.36397,"is_reserved":false,"is_disabled":false,"rental_uris":{"android":"levelo://app?vid=4aec5da3-08df-44e2-8c33-7ab1f3c36943","ios":"levelo://app?vid=4aec5da3-08df-44e2-8c33-7ab1f3c36943"},"vehicle_type_id":"4","last_reported":1751451131,"current_range_meters":18000,"station_id":"cpo36qri1sfpv3e86is0","pricing_plan_id":"cebpf4jnsgd1na2vs0mg"},{"bike_id":"c10a4283-320d-4e64-8d75-ff83e94026ba","system_id":"levelo_inurba_marseille","lat":43.212,"lon":5.35073,"is_reserved":false,"is_disabled":false,"rental_uris":{"android":"levelo://app?vid=c10a4283-320d-4e64-8d75-ff83e94026ba","ios":"levelo://app?vid=c10a4283-320d-4e64-8d75-ff83e94026ba"},"vehicle_type_id":"4","last_reported":1751451131,"current_range_meters":18000,"station_id":"st_cvj6sg6p6f1abm77japg","pricing_plan_id":"cebpf4jnsgd1na2vs0mg"},{"bike_id":"6d2da863-a742-45db-855b-55a94467cfa4","system_id":"levelo_inurba_marseille","lat":43.32588,"lon":5.42722,"is_reserved":false,"is_disabled":false,"rental_uris":{"android":"levelo://app?vid=6d2da863-a742-45db-855b-55a94467cfa4","ios":"levelo://app?vid=6d2da863-a742-45db-855b-55a94467cfa4"},"vehicle_type_id":"4","last_reported":1751451131,"current_range_meters":18800,"station_id":"","pricing_plan_id":"cebpf4jnsgd1na2vs0mg"},{"bike_id":"0b52d53f-0bd6-47f1-b5e3-7fc98dc501bd","system_id":"levelo_inurba_marseille","lat":43.30526,"lon":5.36518,"is_reserved":false,"is_disabled":false,"rental_uris":{"android":"levelo://app?vid=0b52d53f-0bd6-47f1-b5e3-7fc98dc501bd","ios":"levelo://app?vid=0b52d53f-0bd6-47f1-b5e3-7fc98dc501bd"},"vehicle_type_id":"4","last_reported":1751451131,"current_range_meters":18800,"station_id":"","pricing_plan_id":"cebpf4jnsgd1na2vs0mg"},{"bike_id":"b0847cd6-3da2-4c96-b631-22dc7523d236","system_id":"levelo_inurba_marseille","lat":43.30573,"lon":5.36534,"is_reserved":false,"is_disabled":false,"rental_uris":{"android":"levelo://app?vid=b0847cd6-3da2-4c96-b631-22dc7523d236","ios":"levelo://app?vid=b0847cd6-3da2-4c96-b631-22dc7523d236"},"vehicle_type_id":"4","last_reported":1751451131,"current_range_meters":18800,"station_id":"ce4bgs12rcd13ifvqcag","pricing_plan_id":"cebpf4jnsgd1na2vs0mg"},{"bike_id":"a615a8e5-a679-472f-a522-5ae71d0a509e","system_id":"levelo_inurba_marseille","lat":43.29023,"lon":5.37567,"is_reserved":false,"is_disabled":false,"rental_uris":{"android":"levelo://app?vid=a615a8e5-a679-472f-a522-5ae71d0a509e","ios":"levelo://app?vid=a615a8e5-a679-472f-a522-5ae71d0a509e"},"vehicle_type_id":"4","last_reported":1751451131,"current_range_meters":18800,"station_id":"ce4bh692rcd13ifvqe90","pricing_plan_id":"cebpf4jnsgd1na2vs0mg"},{"bike_id":"145aa8bf-de65-4236-b017-63c83f1e3931","system_id":"levelo_inurba_marseille","lat":43.30949,"lon":5.39055,"is_reserved":false,"is_disabled":false,"rental_uris":{"android":"levelo://app?vid=145aa8bf-de65-4236-b017-63c83f1e3931","ios":"levelo://app?vid=145aa8bf-de65-4236-b017-63c83f1e3931"},"vehicle_type_id":"4","last_reported":1751451131,"current_range_meters":19200,"station_id":"ce4bgup2rcd13ifvqco0","pricing_plan_id":"cebpf4jnsgd1na2vs0mg"},{"bike_id":"38225ccf-d3ee-4dba-9c6d-451677c0d05b","system_id":"levelo_inurba_marseille","lat":43.28704,"lon":5.3998,"is_reserved":false,"is_disabled":false,"rental_uris":{"android":"levelo://app?vid=38225ccf-d3ee-4dba-9c6d-451677c0d05b","ios":"levelo://app?vid=38225ccf-d3ee-4dba-9c6d-451677c0d05b"},"vehicle_type_id":"4","last_reported":1751451131,"current_range_meters":19200,"station_id":"ce4bho92rcd13ifvqh3g","pricing_plan_id":"cebpf4jnsgd1na2vs0mg"},{"bike_id":"bfa88f67-5f5b-49db-81cc-e4921c6889b1","system_id":"levelo_inurba_marseille","lat":43.32113,"lon":5.36807,"is_reserved":false,"is_disabled":false,"rental_uris":{"android":"levelo://app?vid=bfa88f67-5f5b-49db-81cc-e4921c6889b1","ios":"levelo://app?vid=bfa88f67-5f5b-49db-81cc-e4921c6889b1"},"vehicle_type_id":"4","last_reported":1751451131,"current_range_meters":19200,"station_id":"ce4bhrh2rcd13ifvqhug","pricing_plan_id":"cebpf4jnsgd1na2vs0mg"},{"bike_id":"d393009a-4549-46b8-9394-75871ff606d4","system_id":"levelo_inurba_marseille","lat":43.32361,"lon":5.36755,"is_reserved":false,"is_disabled":false,"rental_uris":{"android":"levelo://app?vid=d393009a-4549-46b8-9394-75871ff606d4","ios":"levelo://app?vid=d393009a-4549-46b8-9394-75871ff606d4"},"vehicle_type_id":"4","last_reported":1751451131,"current_range_meters":19200,"station_id":"ce4bhsh2rcd13ifvqi2g","pricing_plan_id":"cebpf4jnsgd1na2vs0mg"},{"bike_id":"8e868cc4-faed-48eb-b836-3b1c261fdddc","system_id":"levelo_inurba_marseille","lat":43.29814,"lon":5.39343,"is_reserved":false,"is_disabled":false,"rental_uris":{"android":"levelo://app?vid=8e868cc4-faed-48eb-b836-3b1c261fdddc","ios":"levelo://app?vid=8e868cc4-faed-48eb-b836-3b1c261fdddc"},"vehicle_type_id":"4","last_reported":1751451131,"current_range_meters":19200,"station_id":"chh1huq6cuj3fo74tm60","pricing_plan_id":"cebpf4jnsgd1na2vs0mg"},{"bike_id":"ab45b811-765d-42ec-8576-450879ffcd53","system_id":"levelo_inurba_marseille","lat":43.29603,"lon":5.37724,"is_reserved":false,"is_disabled":false,"rental_uris":{"android":"levelo://app?vid=ab45b811-765d-42ec-8576-450879ffcd53","ios":"levelo://app?vid=ab45b811-765d-42ec-8576-450879ffcd53"},"vehicle_type_id":"4","last_reported":1751451131,"current_range_meters":19600,"station_id":"ce4bgi92rcd13ifvqb90","pricing_plan_id":"cebpf4jnsgd1na2vs0mg"},{"bike_id":"a2b9d801-43d3-4451-87c7-f45f50956663","system_id":"levelo_inurba_marseille","lat":43.28617,"lon":5.35104,"is_reserved":false,"is_disabled":false,"rental_uris":{"android":"levelo://app?vid=a2b9d801-43d3-4451-87c7-f45f50956663","ios":"levelo://app?vid=a2b9d801-43d3-4451-87c7-f45f50956663"},"vehicle_type_id":"4","last_reported":1751451131,"current_range_meters":19600,"station_id":"ce4bhch2rcd13ifvqeug","pricing_plan_id":"cebpf4jnsgd1na2vs0mg"},{"bike_id":"f3ec6263-4fe2-4924-acdb-1daa3d7bc2fc","system_id":"levelo_inurba_marseille","lat":43.26683,"lon":5.38275,"is_reserved":false,"is_disabled":false,"rental_uris":{"android":"levelo://app?vid=f3ec6263-4fe2-4924-acdb-1daa3d7bc2fc","ios":"levelo://app?vid=f3ec6263-4fe2-4924-acdb-1daa3d7bc2fc"},"vehicle_type_id":"4","last_reported":1751451131,"current_range_meters":19600,"station_id":"ce4bhg92rcd13ifvqf90","pricing_plan_id":"cebpf4jnsgd1na2vs0mg"},{"bike_id":"b7c4f4e7-ddbb-4243-982d-1ca4f75e59a6","system_id":"levelo_inurba_marseille","lat":43.32365,"lon":5.36718,"is_reserved":false,"is_disabled":false,"rental_uris":{"android":"levelo://app?vid=b7c4f4e7-ddbb-4243-982d-1ca4f75e59a6","ios":"levelo://app?vid=b7c4f4e7-ddbb-4243-982d-1ca4f75e59a6"},"vehicle_type_id":"4","last_reported":1751451131,"current_range_meters":19600,"station_id":"ce4bhsh2rcd13ifvqi2g","pricing_plan_id":"cebpf4jnsgd1na2vs0mg"},{"bike_id":"10b0b860-bb51-4240-bd79-57112e19f6af","system_id":"levelo_inurba_marseille","lat":43.21756,"lon":5.34601,"is_reserved":false,"is_disabled":false,"rental_uris":{"android":"levelo://app?vid=10b0b860-bb51-4240-bd79-57112e19f6af","ios":"levelo://app?vid=10b0b860-bb51-4240-bd79-57112e19f6af"},"vehicle_type_id":"4","last_reported":1751451131,"current_range_meters":19600,"station_id":"st_cvj6r9ubvosntc0bgbag","pricing_plan_id":"cebpf4jnsgd1na2vs0mg"},{"bike_id":"0f590c2a-c81e-469d-a7d1-2741de3642a2","system_id":"levelo_inurba_marseille","lat":43.211933,"lon":5.350706,"is_reserved":false,"is_disabled":false,"rental_uris":{"android":"levelo://app?vid=0f590c2a-c81e-469d-a7d1-2741de3642a2","ios":"levelo://app?vid=0f590c2a-c81e-469d-a7d1-2741de3642a2"},"vehicle_type_id":"4","last_reported":1751451131,"current_range_meters":19600,"station_id":"st_cvj6sg6p6f1abm77japg","pricing_plan_id":"cebpf4jnsgd1na2vs0mg"},{"bike_id":"fe84177e-dc24-423c-bc2b-77abf3163fe9","system_id":"levelo_inurba_marseille","lat":43.302306,"lon":5.382336,"is_reserved":false,"is_disabled":false,"rental_uris":{"android":"levelo://app?vid=fe84177e-dc24-423c-bc2b-77abf3163fe9","ios":"levelo://app?vid=fe84177e-dc24-423c-bc2b-77abf3163fe9"},"vehicle_type_id":"4","last_reported":1751451131,"current_range_meters":20000,"station_id":"","pricing_plan_id":"cebpf4jnsgd1na2vs0mg"},{"bike_id":"b2325bea-9a74-459a-a713-509c2ba84f3e","system_id":"levelo_inurba_marseille","lat":43.283189,"lon":5.41285,"is_reserved":false,"is_disabled":false,"rental_uris":{"android":"levelo://app?vid=b2325bea-9a74-459a-a713-509c2ba84f3e","ios":"levelo://app?vid=b2325bea-9a74-459a-a713-509c2ba84f3e"},"vehicle_type_id":"4","last_reported":1751451131,"current_range_meters":20000,"station_id":"","pricing_plan_id":"cebpf4jnsgd1na2vs0mg"},{"bike_id":"8433bf94-a287-463f-bc6d-4c8bc510dc0a","system_id":"levelo_inurba_marseille","lat":43.29918,"lon":5.37476,"is_reserved":false,"is_disabled":false,"rental_uris":{"android":"levelo://app?vid=8433bf94-a287-463f-bc6d-4c8bc510dc0a","ios":"levelo://app?vid=8433bf94-a287-463f-bc6d-4c8bc510dc0a"},"vehicle_type_id":"4","last_reported":1751451131,"current_range_meters":20000,"station_id":"ce4bgjh2rcd13ifvqbg0","pricing_plan_id":"cebpf4jnsgd1na2vs0mg"},{"bike_id":"ffe2b3a0-3557-4d2e-8c03-7527f3f741f7","system_id":"levelo_inurba_marseille","lat":43.31371,"lon":5.38497,"is_reserved":false,"is_disabled":false,"rental_uris":{"android":"levelo://app?vid=ffe2b3a0-3557-4d2e-8c03-7527f3f741f7","ios":"levelo://app?vid=ffe2b3a0-3557-4d2e-8c03-7527f3f741f7"},"vehicle_type_id":"4","last_reported":1751451131,"current_range_meters":20000,"station_id":"ce4bgt92rcd13ifvqcf0","pricing_plan_id":"cebpf4jnsgd1na2vs0mg"},{"bike_id":"a6273633-666b-4396-aa70-02c2a837582c","system_id":"levelo_inurba_marseille","lat":43.30956,"lon":5.39033,"is_reserved":false,"is_disabled":false,"rental_uris":{"android":"levelo://app?vid=a6273633-666b-4396-aa70-02c2a837582c","ios":"levelo://app?vid=a6273633-666b-4396-aa70-02c2a837582c"},"vehicle_type_id":"4","last_reported":1751451131,"current_range_meters":20000,"station_id":"ce4bgup2rcd13ifvqco0","pricing_plan_id":"cebpf4jnsgd1na2vs0mg"},{"bike_id":"90deedad-5729-44ac-95e8-3f24aa141e8f","system_id":"levelo_inurba_marseille","lat":43.30947,"lon":5.39047,"is_reserved":false,"is_disabled":false,"rental_uris":{"android":"levelo://app?vid=90deedad-5729-44ac-95e8-3f24aa141e8f","ios":"levelo://app?vid=90deedad-5729-44ac-95e8-3f24aa141e8f"},"vehicle_type_id":"4","last_reported":1751451131,"current_range_meters":20000,"station_id":"ce4bgup2rcd13ifvqco0","pricing_plan_id":"cebpf4jnsgd1na2vs0mg"},{"bike_id":"55cdd3fb-1184-495e-9cfa-ce82693ecb46","system_id":"levelo_inurba_marseille","lat":43.29637,"lon":5.40597,"is_reserved":false,"is_disabled":false,"rental_uris":{"android":"levelo://app?vid=55cdd3fb-1184-495e-9cfa-ce82693ecb46","ios":"levelo://app?vid=55cdd3fb-1184-495e-9cfa-ce82693ecb46"},"vehicle_type_id":"4","last_reported":1751451131,"current_range_meters":20000,"station_id":"ce4bh0h2rcd13ifvqd60","pricing_plan_id":"cebpf4jnsgd1na2vs0mg"},{"bike_id":"a5dd1495-37bd-4d52-bdbd-ac33ef851954","system_id":"levelo_inurba_marseille","lat":43.23163,"lon":5.43723,"is_reserved":false,"is_disabled":false,"rental_uris":{"android":"levelo://app?vid=a5dd1495-37bd-4d52-bdbd-ac33ef851954","ios":"levelo://app?vid=a5dd1495-37bd-4d52-bdbd-ac33ef851954"},"vehicle_type_id":"4","last_reported":1751451131,"current_range_meters":20000,"station_id":"ce4bhmp2rcd13ifvqgog","pricing_plan_id":"cebpf4jnsgd1na2vs0mg"},{"bike_id":"48a8b866-9a64-4b58-8b3a-d988de0d4af0","system_id":"levelo_inurba_marseille","lat":43.24174,"lon":5.363924,"is_reserved":false,"is_disabled":false,"rental_uris":{"android":"levelo://app?vid=48a8b866-9a64-4b58-8b3a-d988de0d4af0","ios":"levelo://app?vid=48a8b866-9a64-4b58-8b3a-d988de0d4af0"},"vehicle_type_id":"4","last_reported":1751451131,"current_range_meters":20000,"station_id":"cpo36qri1sfpv3e86is0","pricing_plan_id":"cebpf4jnsgd1na2vs0mg"},{"bike_id":"594bcefe-8253-4030-8f20-cabd2d98c57e","system_id":"levelo_inurba_marseille","lat":43.33764,"lon":5.37433,"is_reserved":false,"is_disabled":false,"rental_uris":{"android":"levelo://app?vid=594bcefe-8253-4030-8f20-cabd2d98c57e","ios":"levelo://app?vid=594bcefe-8253-4030-8f20-cabd2d98c57e"},"vehicle_type_id":"4","last_reported":1751451131,"current_range_meters":20400,"station_id":"","pricing_plan_id":"cebpf4jnsgd1na2vs0mg"},{"bike_id":"7f09c59f-738a-477b-b987-5301fa5a5d82","system_id":"levelo_inurba_marseille","lat":43.30537,"lon":5.38428,"is_reserved":false,"is_disabled":false,"rental_uris":{"android":"levelo://app?vid=7f09c59f-738a-477b-b987-5301fa5a5d82","ios":"levelo://app?vid=7f09c59f-738a-477b-b987-5301fa5a5d82"},"vehicle_type_id":"4","last_reported":1751451131,"current_range_meters":20400,"station_id":"ce4bgg92rcd13ifvqb30","pricing_plan_id":"cebpf4jnsgd1na2vs0mg"},{"bike_id":"023f33be-3c9d-4be9-a75d-5ed080dea7e8","system_id":"levelo_inurba_marseille","lat":43.299191,"lon":5.37491,"is_reserved":false,"is_disabled":false,"rental_uris":{"android":"levelo://app?vid=023f33be-3c9d-4be9-a75d-5ed080dea7e8","ios":"levelo://app?vid=023f33be-3c9d-4be9-a75d-5ed080dea7e8"},"vehicle_type_id":"4","last_reported":1751451131,"current_range_meters":20400,"station_id":"ce4bgjh2rcd13ifvqbg0","pricing_plan_id":"cebpf4jnsgd1na2vs0mg"},{"bike_id":"79a3aeb2-a2b2-4cad-9b86-ba6ca4824427","system_id":"levelo_inurba_marseille","lat":43.30153,"lon":5.38099,"is_reserved":false,"is_disabled":false,"rental_uris":{"android":"levelo://app?vid=79a3aeb2-a2b2-4cad-9b86-ba6ca4824427","ios":"levelo://app?vid=79a3aeb2-a2b2-4cad-9b86-ba6ca4824427"},"vehicle_type_id":"4","last_reported":1751451131,"current_range_meters":20400,"station_id":"ce4bgjp2rcd13ifvqbh0","pricing_plan_id":"cebpf4jnsgd1na2vs0mg"},{"bike_id":"3dfc88df-4bbb-4525-8b10-593547245b62","system_id":"levelo_inurba_marseille","lat":43.29518,"lon":5.37503,"is_reserved":false,"is_disabled":false,"rental_uris":{"android":"levelo://app?vid=3dfc88df-4bbb-4525-8b10-593547245b62","ios":"levelo://app?vid=3dfc88df-4bbb-4525-8b10-593547245b62"},"vehicle_type_id":"4","last_reported":1751451131,"current_range_meters":20400,"station_id":"ce4bgkp2rcd13ifvqbmg","pricing_plan_id":"cebpf4jnsgd1na2vs0mg"},{"bike_id":"3be62267-12fe-43bf-bd19-64ff695cb725","system_id":"levelo_inurba_marseille","lat":43.30542,"lon":5.36544,"is_reserved":false,"is_disabled":false,"rental_uris":{"android":"levelo://app?vid=3be62267-12fe-43bf-bd19-64ff695cb725","ios":"levelo://app?vid=3be62267-12fe-43bf-bd19-64ff695cb725"},"vehicle_type_id":"4","last_reported":1751451131,"current_range_meters":20400,"station_id":"ce4bgs12rcd13ifvqcag","pricing_plan_id":"cebpf4jnsgd1na2vs0mg"},{"bike_id":"6a7b6941-5ca8-44a8-9782-a552b2663e79","system_id":"levelo_inurba_marseille","lat":43.23341,"lon":5.43591,"is_reserved":false,"is_disabled":false,"rental_uris":{"android":"levelo://app?vid=6a7b6941-5ca8-44a8-9782-a552b2663e79","ios":"levelo://app?vid=6a7b6941-5ca8-44a8-9782-a552b2663e79"},"vehicle_type_id":"4","last_reported":1751451131,"current_range_meters":20400,"station_id":"ce4bhmp2rcd13ifvqgog","pricing_plan_id":"cebpf4jnsgd1na2vs0mg"},{"bike_id":"3c5912c7-dc1a-47f4-873f-cde8161bd782","system_id":"levelo_inurba_marseille","lat":43.28608,"lon":5.37058,"is_reserved":false,"is_disabled":false,"rental_uris":{"android":"levelo://app?vid=3c5912c7-dc1a-47f4-873f-cde8161bd782","ios":"levelo://app?vid=3c5912c7-dc1a-47f4-873f-cde8161bd782"},"vehicle_type_id":"4","last_reported":1751451131,"current_range_meters":20400,"station_id":"ce4bht12rcd13ifvqi60","pricing_plan_id":"cebpf4jnsgd1na2vs0mg"},{"bike_id":"37b84a38-055a-4a6e-a56a-8ff3d0c1b2ec","system_id":"levelo_inurba_marseille","lat":43.21197,"lon":5.35081,"is_reserved":false,"is_disabled":false,"rental_uris":{"android":"levelo://app?vid=37b84a38-055a-4a6e-a56a-8ff3d0c1b2ec","ios":"levelo://app?vid=37b84a38-055a-4a6e-a56a-8ff3d0c1b2ec"},"vehicle_type_id":"4","last_reported":1751451131,"current_range_meters":20400,"station_id":"st_cvj6sg6p6f1abm77japg","pricing_plan_id":"cebpf4jnsgd1na2vs0mg"},{"bike_id":"2d7ab8c9-ccb6-4168-91f8-ffbbd54cc09d","system_id":"levelo_inurba_marseille","lat":43.29731,"lon":5.36968,"is_reserved":false,"is_disabled":false,"rental_uris":{"android":"levelo://app?vid=2d7ab8c9-ccb6-4168-91f8-ffbbd54cc09d","ios":"levelo://app?vid=2d7ab8c9-ccb6-4168-91f8-ffbbd54cc09d"},"vehicle_type_id":"4","last_reported":1751451131,"current_range_meters":20800,"station_id":"","pricing_plan_id":"cebpf4jnsgd1na2vs0mg"},{"bike_id":"b0496903-e4e2-480d-b2e6-4fcaae2cd474","system_id":"levelo_inurba_marseille","lat":43.31336,"lon":5.36719,"is_reserved":false,"is_disabled":false,"rental_uris":{"android":"levelo://app?vid=b0496903-e4e2-480d-b2e6-4fcaae2cd474","ios":"levelo://app?vid=b0496903-e4e2-480d-b2e6-4fcaae2cd474"},"vehicle_type_id":"4","last_reported":1751451131,"current_range_meters":20800,"station_id":"ce4bgr92rcd13ifvqc6g","pricing_plan_id":"cebpf4jnsgd1na2vs0mg"},{"bike_id":"ef355420-5a20-4635-bce2-02e0fdd3ba3a","system_id":"levelo_inurba_marseille","lat":43.30571,"lon":5.36596,"is_reserved":false,"is_disabled":false,"rental_uris":{"android":"levelo://app?vid=ef355420-5a20-4635-bce2-02e0fdd3ba3a","ios":"levelo://app?vid=ef355420-5a20-4635-bce2-02e0fdd3ba3a"},"vehicle_type_id":"4","last_reported":1751451131,"current_range_meters":20800,"station_id":"ce4bgs12rcd13ifvqcag","pricing_plan_id":"cebpf4jnsgd1na2vs0mg"},{"bike_id":"184295c9-46b8-4ed1-a711-8f21b8946f1c","system_id":"levelo_inurba_marseille","lat":43.29034,"lon":5.37567,"is_reserved":false,"is_disabled":false,"rental_uris":{"android":"levelo://app?vid=184295c9-46b8-4ed1-a711-8f21b8946f1c","ios":"levelo://app?vid=184295c9-46b8-4ed1-a711-8f21b8946f1c"},"vehicle_type_id":"4","last_reported":1751451131,"current_range_meters":20800,"station_id":"ce4bh692rcd13ifvqe90","pricing_plan_id":"cebpf4jnsgd1na2vs0mg"},{"bike_id":"82811503-e091-4b5e-8322-9259c2de42d1","system_id":"levelo_inurba_marseille","lat":43.28272,"lon":5.35063,"is_reserved":false,"is_disabled":false,"rental_uris":{"android":"levelo://app?vid=82811503-e091-4b5e-8322-9259c2de42d1","ios":"levelo://app?vid=82811503-e091-4b5e-8322-9259c2de42d1"},"vehicle_type_id":"4","last_reported":1751451131,"current_range_meters":20800,"station_id":"ce4bhbp2rcd13ifvqerg","pricing_plan_id":"cebpf4jnsgd1na2vs0mg"},{"bike_id":"21e2c51d-4563-4efd-afbf-0ddeff93c862","system_id":"levelo_inurba_marseille","lat":43.21765,"lon":5.34602,"is_reserved":false,"is_disabled":false,"rental_uris":{"android":"levelo://app?vid=21e2c51d-4563-4efd-afbf-0ddeff93c862","ios":"levelo://app?vid=21e2c51d-4563-4efd-afbf-0ddeff93c862"},"vehicle_type_id":"4","last_reported":1751451131,"current_range_meters":20800,"station_id":"st_cvj6r9ubvosntc0bgbag","pricing_plan_id":"cebpf4jnsgd1na2vs0mg"},{"bike_id":"aaae32df-99f5-43e3-813f-c870b5943dc8","system_id":"levelo_inurba_marseille","lat":43.305424,"lon":5.365391,"is_reserved":false,"is_disabled":false,"rental_uris":{"android":"levelo://app?vid=aaae32df-99f5-43e3-813f-c870b5943dc8","ios":"levelo://app?vid=aaae32df-99f5-43e3-813f-c870b5943dc8"},"vehicle_type_id":"4","last_reported":1751451131,"current_range_meters":21600,"station_id":"ce4bgs12rcd13ifvqcag","pricing_plan_id":"cebpf4jnsgd1na2vs0mg"},{"bike_id":"48c799c8-27d8-4502-bec7-43ef4b108e85","system_id":"levelo_inurba_marseille","lat":43.301273,"lon":5.398588,"is_reserved":false,"is_disabled":false,"rental_uris":{"android":"levelo://app?vid=48c799c8-27d8-4502-bec7-43ef4b108e85","ios":"levelo://app?vid=48c799c8-27d8-4502-bec7-43ef4b108e85"},"vehicle_type_id":"4","last_reported":1751451131,"current_range_meters":21600,"station_id":"ce4bh0h2rcd13ifvqd40","pricing_plan_id":"cebpf4jnsgd1na2vs0mg"},{"bike_id":"9796a8d1-9d58-4fd8-8a18-676239ebd72b","system_id":"levelo_inurba_marseille","lat":43.26791,"lon":5.39433,"is_reserved":false,"is_disabled":false,"rental_uris":{"android":"levelo://app?vid=9796a8d1-9d58-4fd8-8a18-676239ebd72b","ios":"levelo://app?vid=9796a8d1-9d58-4fd8-8a18-676239ebd72b"},"vehicle_type_id":"4","last_reported":1751451131,"current_range_meters":21600,"station_id":"ce4bhh12rcd13ifvqfg0","pricing_plan_id":"cebpf4jnsgd1na2vs0mg"},{"bike_id":"a6715104-7492-4ec6-a996-23050baf8551","system_id":"levelo_inurba_marseille","lat":43.22496,"lon":5.34785,"is_reserved":false,"is_disabled":false,"rental_uris":{"android":"levelo://app?vid=a6715104-7492-4ec6-a996-23050baf8551","ios":"levelo://app?vid=a6715104-7492-4ec6-a996-23050baf8551"},"vehicle_type_id":"4","last_reported":1751451131,"current_range_meters":21600,"station_id":"st_cvj5dfep6f1abm77gieg","pricing_plan_id":"cebpf4jnsgd1na2vs0mg"},{"bike_id":"84fe93f6-d5ae-40c7-b760-d82650982324","system_id":"levelo_inurba_marseille","lat":43.217498,"lon":5.346002,"is_reserved":false,"is_disabled":false,"rental_uris":{"android":"levelo://app?vid=84fe93f6-d5ae-40c7-b760-d82650982324","ios":"levelo://app?vid=84fe93f6-d5ae-40c7-b760-d82650982324"},"vehicle_type_id":"4","last_reported":1751451131,"current_range_meters":21600,"station_id":"st_cvj6r9ubvosntc0bgbag","pricing_plan_id":"cebpf4jnsgd1na2vs0mg"},{"bike_id":"4d4995e7-0bba-4ac2-a238-afd84a5e99b5","system_id":"levelo_inurba_marseille","lat":43.304848,"lon":5.398345,"is_reserved":false,"is_disabled":false,"rental_uris":{"android":"levelo://app?vid=4d4995e7-0bba-4ac2-a238-afd84a5e99b5","ios":"levelo://app?vid=4d4995e7-0bba-4ac2-a238-afd84a5e99b5"},"vehicle_type_id":"4","last_reported":1751451131,"current_range_meters":22000,"station_id":"","pricing_plan_id":"cebpf4jnsgd1na2vs0mg"},{"bike_id":"50bb0fdb-2cc1-4d8d-af26-b7febba54985","system_id":"levelo_inurba_marseille","lat":43.274139,"lon":5.39007,"is_reserved":false,"is_disabled":false,"rental_uris":{"android":"levelo://app?vid=50bb0fdb-2cc1-4d8d-af26-b7febba54985","ios":"levelo://app?vid=50bb0fdb-2cc1-4d8d-af26-b7febba54985"},"vehicle_type_id":"4","last_reported":1751451131,"current_range_meters":22000,"station_id":"","pricing_plan_id":"cebpf4jnsgd1na2vs0mg"},{"bike_id":"9c33b604-65ec-48e4-94d1-29f790f3303f","system_id":"levelo_inurba_marseille","lat":43.25593,"lon":5.38235,"is_reserved":false,"is_disabled":false,"rental_uris":{"android":"levelo://app?vid=9c33b604-65ec-48e4-94d1-29f790f3303f","ios":"levelo://app?vid=9c33b604-65ec-48e4-94d1-29f790f3303f"},"vehicle_type_id":"4","last_reported":1751451131,"current_range_meters":22000,"station_id":"ce4bhih2rcd13ifvqfs0","pricing_plan_id":"cebpf4jnsgd1na2vs0mg"},{"bike_id":"e837fa48-0ec9-4f80-87ee-0291cff35317","system_id":"levelo_inurba_marseille","lat":43.31717,"lon":5.43712,"is_reserved":false,"is_disabled":false,"rental_uris":{"android":"levelo://app?vid=e837fa48-0ec9-4f80-87ee-0291cff35317","ios":"levelo://app?vid=e837fa48-0ec9-4f80-87ee-0291cff35317"},"vehicle_type_id":"4","last_reported":1751451131,"current_range_meters":22000,"station_id":"ce4bhp92rcd13ifvqhcg","pricing_plan_id":"cebpf4jnsgd1na2vs0mg"},{"bike_id":"35e08227-dcaf-4ffc-8785-37489468a3cb","system_id":"levelo_inurba_marseille","lat":43.28594,"lon":5.37054,"is_reserved":false,"is_disabled":false,"rental_uris":{"android":"levelo://app?vid=35e08227-dcaf-4ffc-8785-37489468a3cb","ios":"levelo://app?vid=35e08227-dcaf-4ffc-8785-37489468a3cb"},"vehicle_type_id":"4","last_reported":1751451131,"current_range_meters":22000,"station_id":"ce4bht12rcd13ifvqi60","pricing_plan_id":"cebpf4jnsgd1na2vs0mg"},{"bike_id":"04e3f494-bf78-44a4-8d6e-c7b83f264f6f","system_id":"levelo_inurba_marseille","lat":43.22928,"lon":5.35372,"is_reserved":false,"is_disabled":false,"rental_uris":{"android":"levelo://app?vid=04e3f494-bf78-44a4-8d6e-c7b83f264f6f","ios":"levelo://app?vid=04e3f494-bf78-44a4-8d6e-c7b83f264f6f"},"vehicle_type_id":"4","last_reported":1751451131,"current_range_meters":22000,"station_id":"cpo3532slgdg3j2ikp40","pricing_plan_id":"cebpf4jnsgd1na2vs0mg"},{"bike_id":"afdacbfb-65b0-48bd-b63d-97233b61599d","system_id":"levelo_inurba_marseille","lat":43.29619,"lon":5.38112,"is_reserved":false,"is_disabled":false,"rental_uris":{"android":"levelo://app?vid=afdacbfb-65b0-48bd-b63d-97233b61599d","ios":"levelo://app?vid=afdacbfb-65b0-48bd-b63d-97233b61599d"},"vehicle_type_id":"4","last_reported":1751451131,"current_range_meters":22400,"station_id":"ce4bgl12rcd13ifvqbo0","pricing_plan_id":"cebpf4jnsgd1na2vs0mg"},{"bike_id":"26e1cd53-ce80-4f26-8f93-18bdcecac2a5","system_id":"levelo_inurba_marseille","lat":43.30573,"lon":5.36505,"is_reserved":false,"is_disabled":false,"rental_uris":{"android":"levelo://app?vid=26e1cd53-ce80-4f26-8f93-18bdcecac2a5","ios":"levelo://app?vid=26e1cd53-ce80-4f26-8f93-18bdcecac2a5"},"vehicle_type_id":"4","last_reported":1751451131,"current_range_meters":22400,"station_id":"ce4bgs12rcd13ifvqcag","pricing_plan_id":"cebpf4jnsgd1na2vs0mg"},{"bike_id":"c195a8a6-24e0-4b0a-8fe5-92a180dd7858","system_id":"levelo_inurba_marseille","lat":43.29023,"lon":5.38649,"is_reserved":false,"is_disabled":false,"rental_uris":{"android":"levelo://app?vid=c195a8a6-24e0-4b0a-8fe5-92a180dd7858","ios":"levelo://app?vid=c195a8a6-24e0-4b0a-8fe5-92a180dd7858"},"vehicle_type_id":"4","last_reported":1751451131,"current_range_meters":22400,"station_id":"ce4bh4p2rcd13ifvqe0g","pricing_plan_id":"cebpf4jnsgd1na2vs0mg"},{"bike_id":"4c78f0cb-2737-4938-bebd-8475b30d0838","system_id":"levelo_inurba_marseille","lat":43.31371,"lon":5.38498,"is_reserved":false,"is_disabled":false,"rental_uris":{"android":"levelo://app?vid=4c78f0cb-2737-4938-bebd-8475b30d0838","ios":"levelo://app?vid=4c78f0cb-2737-4938-bebd-8475b30d0838"},"vehicle_type_id":"4","last_reported":1751451131,"current_range_meters":22800,"station_id":"ce4bgt92rcd13ifvqcf0","pricing_plan_id":"cebpf4jnsgd1na2vs0mg"},{"bike_id":"51c48545-04d8-4255-a75a-1a332e1ab27d","system_id":"levelo_inurba_marseille","lat":43.29871,"lon":5.39732,"is_reserved":false,"is_disabled":false,"rental_uris":{"android":"levelo://app?vid=51c48545-04d8-4255-a75a-1a332e1ab27d","ios":"levelo://app?vid=51c48545-04d8-4255-a75a-1a332e1ab27d"},"vehicle_type_id":"4","last_reported":1751451131,"current_range_meters":22800,"station_id":"ce4bh0h2rcd13ifvqd50","pricing_plan_id":"cebpf4jnsgd1na2vs0mg"},{"bike_id":"4b41d97f-5c92-4745-8a3d-2742983a0bc5","system_id":"levelo_inurba_marseille","lat":43.29102,"lon":5.38145,"is_reserved":false,"is_disabled":false,"rental_uris":{"android":"levelo://app?vid=4b41d97f-5c92-4745-8a3d-2742983a0bc5","ios":"levelo://app?vid=4b41d97f-5c92-4745-8a3d-2742983a0bc5"},"vehicle_type_id":"4","last_reported":1751451131,"current_range_meters":22800,"station_id":"ce4bh512rcd13ifvqe2g","pricing_plan_id":"cebpf4jnsgd1na2vs0mg"},{"bike_id":"2079a3bc-2800-4acf-8843-fca1c0d8af56","system_id":"levelo_inurba_marseille","lat":43.23138,"lon":5.43726,"is_reserved":false,"is_disabled":false,"rental_uris":{"android":"levelo://app?vid=2079a3bc-2800-4acf-8843-fca1c0d8af56","ios":"levelo://app?vid=2079a3bc-2800-4acf-8843-fca1c0d8af56"},"vehicle_type_id":"4","last_reported":1751451131,"current_range_meters":22800,"station_id":"ce4bhmp2rcd13ifvqgog","pricing_plan_id":"cebpf4jnsgd1na2vs0mg"},{"bike_id":"23719898-71af-4b00-b077-449787cdcce4","system_id":"levelo_inurba_marseille","lat":43.24092,"lon":5.37766,"is_reserved":false,"is_disabled":false,"rental_uris":{"android":"levelo://app?vid=23719898-71af-4b00-b077-449787cdcce4","ios":"levelo://app?vid=23719898-71af-4b00-b077-449787cdcce4"},"vehicle_type_id":"4","last_reported":1751451131,"current_range_meters":22800,"station_id":"ce4bhnp2rcd13ifvqgvg","pricing_plan_id":"cebpf4jnsgd1na2vs0mg"},{"bike_id":"bed3e8a6-b151-4512-8ecd-b49dd3969a2c","system_id":"levelo_inurba_marseille","lat":43.32119,"lon":5.36776,"is_reserved":false,"is_disabled":false,"rental_uris":{"android":"levelo://app?vid=bed3e8a6-b151-4512-8ecd-b49dd3969a2c","ios":"levelo://app?vid=bed3e8a6-b151-4512-8ecd-b49dd3969a2c"},"vehicle_type_id":"4","last_reported":1751451131,"current_range_meters":22800,"station_id":"ce4bhrh2rcd13ifvqhug","pricing_plan_id":"cebpf4jnsgd1na2vs0mg"},{"bike_id":"1c8ab180-05fd-405f-9922-b2b2c2d5142f","system_id":"levelo_inurba_marseille","lat":43.33784,"lon":5.38022,"is_reserved":false,"is_disabled":false,"rental_uris":{"android":"levelo://app?vid=1c8ab180-05fd-405f-9922-b2b2c2d5142f","ios":"levelo://app?vid=1c8ab180-05fd-405f-9922-b2b2c2d5142f"},"vehicle_type_id":"4","last_reported":1751451131,"current_range_meters":23200,"station_id":"","pricing_plan_id":"cebpf4jnsgd1na2vs0mg"},{"bike_id":"b204fbc1-c021-4a2d-830e-37201905b48d","system_id":"levelo_inurba_marseille","lat":43.29305,"lon":5.37169,"is_reserved":false,"is_disabled":false,"rental_uris":{"android":"levelo://app?vid=b204fbc1-c021-4a2d-830e-37201905b48d","ios":"levelo://app?vid=b204fbc1-c021-4a2d-830e-37201905b48d"},"vehicle_type_id":"4","last_reported":1751451131,"current_range_meters":23200,"station_id":"ce4bgh92rcd13ifvqb40","pricing_plan_id":"cebpf4jnsgd1na2vs0mg"},{"bike_id":"7853ec67-cc74-4cda-add5-80e96321f3c6","system_id":"levelo_inurba_marseille","lat":43.31695,"lon":5.37794,"is_reserved":false,"is_disabled":false,"rental_uris":{"android":"levelo://app?vid=7853ec67-cc74-4cda-add5-80e96321f3c6","ios":"levelo://app?vid=7853ec67-cc74-4cda-add5-80e96321f3c6"},"vehicle_type_id":"4","last_reported":1751451131,"current_range_meters":23200,"station_id":"ce4bgth2rcd13ifvqch0","pricing_plan_id":"cebpf4jnsgd1na2vs0mg"},{"bike_id":"4ccadd9b-2ef4-4971-a1a8-3f87bcc6a4ed","system_id":"levelo_inurba_marseille","lat":43.31691,"lon":5.4047,"is_reserved":false,"is_disabled":false,"rental_uris":{"android":"levelo://app?vid=4ccadd9b-2ef4-4971-a1a8-3f87bcc6a4ed","ios":"levelo://app?vid=4ccadd9b-2ef4-4971-a1a8-3f87bcc6a4ed"},"vehicle_type_id":"4","last_reported":1751451131,"current_range_meters":23200,"station_id":"ce4bh012rcd13ifvqd00","pricing_plan_id":"cebpf4jnsgd1na2vs0mg"},{"bike_id":"f796dfb8-3d66-465f-8a54-d8b098fd74ec","system_id":"levelo_inurba_marseille","lat":43.29522,"lon":5.39055,"is_reserved":false,"is_disabled":false,"rental_uris":{"android":"levelo://app?vid=f796dfb8-3d66-465f-8a54-d8b098fd74ec","ios":"levelo://app?vid=f796dfb8-3d66-465f-8a54-d8b098fd74ec"},"vehicle_type_id":"4","last_reported":1751451131,"current_range_meters":23200,"station_id":"ce4bh3p2rcd13ifvqdp0","pricing_plan_id":"cebpf4jnsgd1na2vs0mg"},{"bike_id":"6cf4562a-baef-40a6-ac4c-166c21ee8955","system_id":"levelo_inurba_marseille","lat":43.28369,"lon":5.38116,"is_reserved":false,"is_disabled":false,"rental_uris":{"android":"levelo://app?vid=6cf4562a-baef-40a6-ac4c-166c21ee8955","ios":"levelo://app?vid=6cf4562a-baef-40a6-ac4c-166c21ee8955"},"vehicle_type_id":"4","last_reported":1751451131,"current_range_meters":23200,"station_id":"ce4bh412rcd13ifvqdr0","pricing_plan_id":"cebpf4jnsgd1na2vs0mg"},{"bike_id":"e58d5f8d-e622-4f85-aec9-14f4b5f7dbd6","system_id":"levelo_inurba_marseille","lat":43.28614,"lon":5.35104,"is_reserved":false,"is_disabled":false,"rental_uris":{"android":"levelo://app?vid=e58d5f8d-e622-4f85-aec9-14f4b5f7dbd6","ios":"levelo://app?vid=e58d5f8d-e622-4f85-aec9-14f4b5f7dbd6"},"vehicle_type_id":"4","last_reported":1751451131,"current_range_meters":23200,"station_id":"ce4bhch2rcd13ifvqeug","pricing_plan_id":"cebpf4jnsgd1na2vs0mg"},{"bike_id":"c0c5362b-a5c5-4fc7-9bbf-b99460b22a3d","system_id":"levelo_inurba_marseille","lat":43.2439,"lon":5.37055,"is_reserved":false,"is_disabled":false,"rental_uris":{"android":"levelo://app?vid=c0c5362b-a5c5-4fc7-9bbf-b99460b22a3d","ios":"levelo://app?vid=c0c5362b-a5c5-4fc7-9bbf-b99460b22a3d"},"vehicle_type_id":"4","last_reported":1751451131,"current_range_meters":23200,"station_id":"ce4bhhh2rcd13ifvqfk0","pricing_plan_id":"cebpf4jnsgd1na2vs0mg"},{"bike_id":"a0480f1d-3573-45b7-8d76-2022e256c551","system_id":"levelo_inurba_marseille","lat":43.259079,"lon":5.409013,"is_reserved":false,"is_disabled":false,"rental_uris":{"android":"levelo://app?vid=a0480f1d-3573-45b7-8d76-2022e256c551","ios":"levelo://app?vid=a0480f1d-3573-45b7-8d76-2022e256c551"},"vehicle_type_id":"4","last_reported":1751451131,"current_range_meters":23200,"station_id":"ce4bhm92rcd13ifvqglg","pricing_plan_id":"cebpf4jnsgd1na2vs0mg"},{"bike_id":"57281043-0e2e-4c6e-bf0b-e54cfc0b18ce","system_id":"levelo_inurba_marseille","lat":43.259315,"lon":5.409054,"is_reserved":false,"is_disabled":false,"rental_uris":{"android":"levelo://app?vid=57281043-0e2e-4c6e-bf0b-e54cfc0b18ce","ios":"levelo://app?vid=57281043-0e2e-4c6e-bf0b-e54cfc0b18ce"},"vehicle_type_id":"4","last_reported":1751451131,"current_range_meters":23200,"station_id":"ce4bhm92rcd13ifvqglg","pricing_plan_id":"cebpf4jnsgd1na2vs0mg"},{"bike_id":"cc04118e-9312-4bf8-9106-d64e829afbaa","system_id":"levelo_inurba_marseille","lat":43.212026,"lon":5.350665,"is_reserved":false,"is_disabled":false,"rental_uris":{"android":"levelo://app?vid=cc04118e-9312-4bf8-9106-d64e829afbaa","ios":"levelo://app?vid=cc04118e-9312-4bf8-9106-d64e829afbaa"},"vehicle_type_id":"4","last_reported":1751451131,"current_range_meters":23200,"station_id":"st_cvj6sg6p6f1abm77japg","pricing_plan_id":"cebpf4jnsgd1na2vs0mg"},{"bike_id":"8dcbd70c-d9da-48c4-b21d-3510ccca8727","system_id":"levelo_inurba_marseille","lat":43.313507,"lon":5.368244,"is_reserved":false,"is_disabled":false,"rental_uris":{"android":"levelo://app?vid=8dcbd70c-d9da-48c4-b21d-3510ccca8727","ios":"levelo://app?vid=8dcbd70c-d9da-48c4-b21d-3510ccca8727"},"vehicle_type_id":"4","last_reported":1751451131,"current_range_meters":24000,"station_id":"ce4bgr92rcd13ifvqc6g","pricing_plan_id":"cebpf4jnsgd1na2vs0mg"},{"bike_id":"26ea36f0-4bc6-4834-ad15-df6df86c753d","system_id":"levelo_inurba_marseille","lat":43.26682,"lon":5.3827,"is_reserved":false,"is_disabled":false,"rental_uris":{"android":"levelo://app?vid=26ea36f0-4bc6-4834-ad15-df6df86c753d","ios":"levelo://app?vid=26ea36f0-4bc6-4834-ad15-df6df86c753d"},"vehicle_type_id":"4","last_reported":1751451131,"current_range_meters":24000,"station_id":"ce4bhg92rcd13ifvqf90","pricing_plan_id":"cebpf4jnsgd1na2vs0mg"},{"bike_id":"bf3a7ea3-39df-418d-9fc6-ab3d5bc1a92b","system_id":"levelo_inurba_marseille","lat":43.257211,"lon":5.411026,"is_reserved":false,"is_disabled":false,"rental_uris":{"android":"levelo://app?vid=bf3a7ea3-39df-418d-9fc6-ab3d5bc1a92b","ios":"levelo://app?vid=bf3a7ea3-39df-418d-9fc6-ab3d5bc1a92b"},"vehicle_type_id":"4","last_reported":1751451131,"current_range_meters":24000,"station_id":"ce4bhkp2rcd13ifvqgd0","pricing_plan_id":"cebpf4jnsgd1na2vs0mg"},{"bike_id":"5f1e5526-9ff8-4075-8194-48a897f058b4","system_id":"levelo_inurba_marseille","lat":43.21195,"lon":5.35065,"is_reserved":false,"is_disabled":false,"rental_uris":{"android":"levelo://app?vid=5f1e5526-9ff8-4075-8194-48a897f058b4","ios":"levelo://app?vid=5f1e5526-9ff8-4075-8194-48a897f058b4"},"vehicle_type_id":"4","last_reported":1751451131,"current_range_meters":24000,"station_id":"st_cvj6sg6p6f1abm77japg","pricing_plan_id":"cebpf4jnsgd1na2vs0mg"},{"bike_id":"932febcf-648b-4c63-8225-1b080f117547","system_id":"levelo_inurba_marseille","lat":43.30147,"lon":5.3987,"is_reserved":false,"is_disabled":false,"rental_uris":{"android":"levelo://app?vid=932febcf-648b-4c63-8225-1b080f117547","ios":"levelo://app?vid=932febcf-648b-4c63-8225-1b080f117547"},"vehicle_type_id":"4","last_reported":1751451131,"current_range_meters":24400,"station_id":"ce4bh0h2rcd13ifvqd40","pricing_plan_id":"cebpf4jnsgd1na2vs0mg"},{"bike_id":"ea941b66-9d02-4afa-b7b4-eed1b5f90138","system_id":"levelo_inurba_marseille","lat":43.29796,"lon":5.40408,"is_reserved":false,"is_disabled":false,"rental_uris":{"android":"levelo://app?vid=ea941b66-9d02-4afa-b7b4-eed1b5f90138","ios":"levelo://app?vid=ea941b66-9d02-4afa-b7b4-eed1b5f90138"},"vehicle_type_id":"4","last_reported":1751451131,"current_range_meters":24400,"station_id":"ce4bh112rcd13ifvqd90","pricing_plan_id":"cebpf4jnsgd1na2vs0mg"},{"bike_id":"63c3ea1f-f819-451a-b442-b9e581cf76e7","system_id":"levelo_inurba_marseille","lat":43.29028,"lon":5.3864,"is_reserved":false,"is_disabled":false,"rental_uris":{"android":"levelo://app?vid=63c3ea1f-f819-451a-b442-b9e581cf76e7","ios":"levelo://app?vid=63c3ea1f-f819-451a-b442-b9e581cf76e7"},"vehicle_type_id":"4","last_reported":1751451131,"current_range_meters":24400,"station_id":"ce4bh4p2rcd13ifvqe0g","pricing_plan_id":"cebpf4jnsgd1na2vs0mg"},{"bike_id":"f82dcee6-9279-4563-8c86-30fd33bf3da2","system_id":"levelo_inurba_marseille","lat":43.27841,"lon":5.39209,"is_reserved":false,"is_disabled":false,"rental_uris":{"android":"levelo://app?vid=f82dcee6-9279-4563-8c86-30fd33bf3da2","ios":"levelo://app?vid=f82dcee6-9279-4563-8c86-30fd33bf3da2"},"vehicle_type_id":"4","last_reported":1751451131,"current_range_meters":24400,"station_id":"ce4bhjp2rcd13ifvqga0","pricing_plan_id":"cebpf4jnsgd1na2vs0mg"},{"bike_id":"e1e7c15b-5724-49e7-b0fb-d736d8c51249","system_id":"levelo_inurba_marseille","lat":43.24202,"lon":5.39729,"is_reserved":false,"is_disabled":false,"rental_uris":{"android":"levelo://app?vid=e1e7c15b-5724-49e7-b0fb-d736d8c51249","ios":"levelo://app?vid=e1e7c15b-5724-49e7-b0fb-d736d8c51249"},"vehicle_type_id":"4","last_reported":1751451131,"current_range_meters":24400,"station_id":"ce4bhn12rcd13ifvqgpg","pricing_plan_id":"cebpf4jnsgd1na2vs0mg"},{"bike_id":"3eabe1e2-f9f5-41cb-a4ed-73ca7f909c5c","system_id":"levelo_inurba_marseille","lat":43.21198,"lon":5.35081,"is_reserved":false,"is_disabled":false,"rental_uris":{"android":"levelo://app?vid=3eabe1e2-f9f5-41cb-a4ed-73ca7f909c5c","ios":"levelo://app?vid=3eabe1e2-f9f5-41cb-a4ed-73ca7f909c5c"},"vehicle_type_id":"4","last_reported":1751451131,"current_range_meters":24400,"station_id":"st_cvj6sg6p6f1abm77japg","pricing_plan_id":"cebpf4jnsgd1na2vs0mg"},{"bike_id":"ace8ee1f-f91b-4cc0-bb58-a05dd50bcd0d","system_id":"levelo_inurba_marseille","lat":43.290346,"lon":5.375601,"is_reserved":false,"is_disabled":false,"rental_uris":{"android":"levelo://app?vid=ace8ee1f-f91b-4cc0-bb58-a05dd50bcd0d","ios":"levelo://app?vid=ace8ee1f-f91b-4cc0-bb58-a05dd50bcd0d"},"vehicle_type_id":"4","last_reported":1751451131,"current_range_meters":24800,"station_id":"ce4bh692rcd13ifvqe90","pricing_plan_id":"cebpf4jnsgd1na2vs0mg"},{"bike_id":"2cf057ba-27f2-45b5-ab1f-713035e422ee","system_id":"levelo_inurba_marseille","lat":43.26798,"lon":5.39442,"is_reserved":false,"is_disabled":false,"rental_uris":{"android":"levelo://app?vid=2cf057ba-27f2-45b5-ab1f-713035e422ee","ios":"levelo://app?vid=2cf057ba-27f2-45b5-ab1f-713035e422ee"},"vehicle_type_id":"4","last_reported":1751451131,"current_range_meters":24800,"station_id":"ce4bhh12rcd13ifvqfg0","pricing_plan_id":"cebpf4jnsgd1na2vs0mg"},{"bike_id":"ded508aa-b083-482b-9a50-61e0f329a1c3","system_id":"levelo_inurba_marseille","lat":43.26204,"lon":5.37928,"is_reserved":false,"is_disabled":false,"rental_uris":{"android":"levelo://app?vid=ded508aa-b083-482b-9a50-61e0f329a1c3","ios":"levelo://app?vid=ded508aa-b083-482b-9a50-61e0f329a1c3"},"vehicle_type_id":"4","last_reported":1751451131,"current_range_meters":24800,"station_id":"ce4bhjp2rcd13ifvqg90","pricing_plan_id":"cebpf4jnsgd1na2vs0mg"},{"bike_id":"f89c4b4e-8496-4009-a879-494292d7747b","system_id":"levelo_inurba_marseille","lat":43.24575,"lon":5.3947,"is_reserved":false,"is_disabled":false,"rental_uris":{"android":"levelo://app?vid=f89c4b4e-8496-4009-a879-494292d7747b","ios":"levelo://app?vid=f89c4b4e-8496-4009-a879-494292d7747b"},"vehicle_type_id":"4","last_reported":1751451131,"current_range_meters":24800,"station_id":"ce4bhlp2rcd13ifvqgjg","pricing_plan_id":"cebpf4jnsgd1na2vs0mg"},{"bike_id":"2a848988-2bd4-4c1f-9025-c599707d9e2b","system_id":"levelo_inurba_marseille","lat":43.31889,"lon":5.40743,"is_reserved":false,"is_disabled":false,"rental_uris":{"android":"levelo://app?vid=2a848988-2bd4-4c1f-9025-c599707d9e2b","ios":"levelo://app?vid=2a848988-2bd4-4c1f-9025-c599707d9e2b"},"vehicle_type_id":"4","last_reported":1751451131,"current_range_meters":24800,"station_id":"ce4bhq12rcd13ifvqhig","pricing_plan_id":"cebpf4jnsgd1na2vs0mg"},{"bike_id":"31fab6ac-cee8-4404-87e8-15e94cf1944e","system_id":"levelo_inurba_marseille","lat":43.24159,"lon":5.36436,"is_reserved":false,"is_disabled":false,"rental_uris":{"android":"levelo://app?vid=31fab6ac-cee8-4404-87e8-15e94cf1944e","ios":"levelo://app?vid=31fab6ac-cee8-4404-87e8-15e94cf1944e"},"vehicle_type_id":"4","last_reported":1751451131,"current_range_meters":24800,"station_id":"cpo36qri1sfpv3e86is0","pricing_plan_id":"cebpf4jnsgd1na2vs0mg"},{"bike_id":"ba926bfc-9632-4680-b0ed-32a040d6fb83","system_id":"levelo_inurba_marseille","lat":43.211905,"lon":5.350763,"is_reserved":false,"is_disabled":false,"rental_uris":{"android":"levelo://app?vid=ba926bfc-9632-4680-b0ed-32a040d6fb83","ios":"levelo://app?vid=ba926bfc-9632-4680-b0ed-32a040d6fb83"},"vehicle_type_id":"4","last_reported":1751451131,"current_range_meters":24800,"station_id":"st_cvj6sg6p6f1abm77japg","pricing_plan_id":"cebpf4jnsgd1na2vs0mg"},{"bike_id":"b13877a6-4825-4d82-b46b-67fa8ad66c5d","system_id":"levelo_inurba_marseille","lat":43.212036,"lon":5.350649,"is_reserved":false,"is_disabled":false,"rental_uris":{"android":"levelo://app?vid=b13877a6-4825-4d82-b46b-67fa8ad66c5d","ios":"levelo://app?vid=b13877a6-4825-4d82-b46b-67fa8ad66c5d"},"vehicle_type_id":"4","last_reported":1751451131,"current_range_meters":24800,"station_id":"st_cvj6sg6p6f1abm77japg","pricing_plan_id":"cebpf4jnsgd1na2vs0mg"},{"bike_id":"7712491c-e18b-4b09-bb79-30880b357c07","system_id":"levelo_inurba_marseille","lat":43.21196,"lon":5.3507,"is_reserved":false,"is_disabled":false,"rental_uris":{"android":"levelo://app?vid=7712491c-e18b-4b09-bb79-30880b357c07","ios":"levelo://app?vid=7712491c-e18b-4b09-bb79-30880b357c07"},"vehicle_type_id":"4","last_reported":1751451131,"current_range_meters":24800,"station_id":"st_cvj6sg6p6f1abm77japg","pricing_plan_id":"cebpf4jnsgd1na2vs0mg"},{"bike_id":"7af9f78b-8216-43ee-a369-4a24baea425e","system_id":"levelo_inurba_marseille","lat":43.31327,"lon":5.3671,"is_reserved":false,"is_disabled":false,"rental_uris":{"android":"levelo://app?vid=7af9f78b-8216-43ee-a369-4a24baea425e","ios":"levelo://app?vid=7af9f78b-8216-43ee-a369-4a24baea425e"},"vehicle_type_id":"4","last_reported":1751451131,"current_range_meters":25200,"station_id":"ce4bgr92rcd13ifvqc6g","pricing_plan_id":"cebpf4jnsgd1na2vs0mg"},{"bike_id":"0a3dfcb1-1042-49e8-989a-145199f2ad51","system_id":"levelo_inurba_marseille","lat":43.30527,"lon":5.36729,"is_reserved":false,"is_disabled":false,"rental_uris":{"android":"levelo://app?vid=0a3dfcb1-1042-49e8-989a-145199f2ad51","ios":"levelo://app?vid=0a3dfcb1-1042-49e8-989a-145199f2ad51"},"vehicle_type_id":"4","last_reported":1751451131,"current_range_meters":25200,"station_id":"ce4bgrp2rcd13ifvqc9g","pricing_plan_id":"cebpf4jnsgd1na2vs0mg"},{"bike_id":"4810ea37-96e2-4658-a4ae-61ecf5afcf05","system_id":"levelo_inurba_marseille","lat":43.259333,"lon":5.40893,"is_reserved":false,"is_disabled":false,"rental_uris":{"android":"levelo://app?vid=4810ea37-96e2-4658-a4ae-61ecf5afcf05","ios":"levelo://app?vid=4810ea37-96e2-4658-a4ae-61ecf5afcf05"},"vehicle_type_id":"4","last_reported":1751451131,"current_range_meters":25200,"station_id":"ce4bhm92rcd13ifvqglg","pricing_plan_id":"cebpf4jnsgd1na2vs0mg"},{"bike_id":"559ed6ee-7ed1-41b8-a7b9-94151f20221c","system_id":"levelo_inurba_marseille","lat":43.321089,"lon":5.367731,"is_reserved":false,"is_disabled":false,"rental_uris":{"android":"levelo://app?vid=559ed6ee-7ed1-41b8-a7b9-94151f20221c","ios":"levelo://app?vid=559ed6ee-7ed1-41b8-a7b9-94151f20221c"},"vehicle_type_id":"4","last_reported":1751451131,"current_range_meters":25200,"station_id":"ce4bhrh2rcd13ifvqhug","pricing_plan_id":"cebpf4jnsgd1na2vs0mg"},{"bike_id":"c9cd1ed4-febf-4f0f-8537-8f86861c9beb","system_id":"levelo_inurba_marseille","lat":43.211953,"lon":5.350705,"is_reserved":false,"is_disabled":false,"rental_uris":{"android":"levelo://app?vid=c9cd1ed4-febf-4f0f-8537-8f86861c9beb","ios":"levelo://app?vid=c9cd1ed4-febf-4f0f-8537-8f86861c9beb"},"vehicle_type_id":"4","last_reported":1751451131,"current_range_meters":25200,"station_id":"st_cvj6sg6p6f1abm77japg","pricing_plan_id":"cebpf4jnsgd1na2vs0mg"},{"bike_id":"4b8da722-ee9e-48a4-a5e5-3a8a10364708","system_id":"levelo_inurba_marseille","lat":43.31247,"lon":5.37875,"is_reserved":false,"is_disabled":false,"rental_uris":{"android":"levelo://app?vid=4b8da722-ee9e-48a4-a5e5-3a8a10364708","ios":"levelo://app?vid=4b8da722-ee9e-48a4-a5e5-3a8a10364708"},"vehicle_type_id":"4","last_reported":1751451131,"current_range_meters":25600,"station_id":"","pricing_plan_id":"cebpf4jnsgd1na2vs0mg"},{"bike_id":"cd59e480-10d7-4a4d-8e30-2f96cd6fc7ab","system_id":"levelo_inurba_marseille","lat":43.29849,"lon":5.36276,"is_reserved":false,"is_disabled":false,"rental_uris":{"android":"levelo://app?vid=cd59e480-10d7-4a4d-8e30-2f96cd6fc7ab","ios":"levelo://app?vid=cd59e480-10d7-4a4d-8e30-2f96cd6fc7ab"},"vehicle_type_id":"4","last_reported":1751451131,"current_range_meters":25600,"station_id":"ce4bgpp2rcd13ifvqc3g","pricing_plan_id":"cebpf4jnsgd1na2vs0mg"},{"bike_id":"17c9258d-da4d-4f8c-bcf6-6edada80f184","system_id":"levelo_inurba_marseille","lat":43.30546,"lon":5.36541,"is_reserved":false,"is_disabled":false,"rental_uris":{"android":"levelo://app?vid=17c9258d-da4d-4f8c-bcf6-6edada80f184","ios":"levelo://app?vid=17c9258d-da4d-4f8c-bcf6-6edada80f184"},"vehicle_type_id":"4","last_reported":1751451131,"current_range_meters":25600,"station_id":"ce4bgs12rcd13ifvqcag","pricing_plan_id":"cebpf4jnsgd1na2vs0mg"},{"bike_id":"b274e520-211a-4016-bd0b-dd9e883c09ab","system_id":"levelo_inurba_marseille","lat":43.31333,"lon":5.39689,"is_reserved":false,"is_disabled":false,"rental_uris":{"android":"levelo://app?vid=b274e520-211a-4016-bd0b-dd9e883c09ab","ios":"levelo://app?vid=b274e520-211a-4016-bd0b-dd9e883c09ab"},"vehicle_type_id":"4","last_reported":1751451131,"current_range_meters":25600,"station_id":"ce4bgvp2rcd13ifvqcu0","pricing_plan_id":"cebpf4jnsgd1na2vs0mg"},{"bike_id":"d3b2f465-7dad-4bbe-a251-20b75215a94e","system_id":"levelo_inurba_marseille","lat":43.2849,"lon":5.38423,"is_reserved":false,"is_disabled":false,"rental_uris":{"android":"levelo://app?vid=d3b2f465-7dad-4bbe-a251-20b75215a94e","ios":"levelo://app?vid=d3b2f465-7dad-4bbe-a251-20b75215a94e"},"vehicle_type_id":"4","last_reported":1751451131,"current_range_meters":25600,"station_id":"ce4bh512rcd13ifvqe3g","pricing_plan_id":"cebpf4jnsgd1na2vs0mg"},{"bike_id":"c3193cfd-2de1-44a8-a53b-ca1e22e7593b","system_id":"levelo_inurba_marseille","lat":43.26559,"lon":5.3732,"is_reserved":false,"is_disabled":false,"rental_uris":{"android":"levelo://app?vid=c3193cfd-2de1-44a8-a53b-ca1e22e7593b","ios":"levelo://app?vid=c3193cfd-2de1-44a8-a53b-ca1e22e7593b"},"vehicle_type_id":"4","last_reported":1751451131,"current_range_meters":25600,"station_id":"ce4bhg12rcd13ifvqf70","pricing_plan_id":"cebpf4jnsgd1na2vs0mg"},{"bike_id":"9a99bb6d-63c4-49ed-b89b-7e34262bbc5d","system_id":"levelo_inurba_marseille","lat":43.26553,"lon":5.3728,"is_reserved":false,"is_disabled":false,"rental_uris":{"android":"levelo://app?vid=9a99bb6d-63c4-49ed-b89b-7e34262bbc5d","ios":"levelo://app?vid=9a99bb6d-63c4-49ed-b89b-7e34262bbc5d"},"vehicle_type_id":"4","last_reported":1751451131,"current_range_meters":25600,"station_id":"ce4bhg12rcd13ifvqf70","pricing_plan_id":"cebpf4jnsgd1na2vs0mg"},{"bike_id":"bc75ebe5-62ee-46f1-864b-eed2e5b522e6","system_id":"levelo_inurba_marseille","lat":43.239746,"lon":5.366045,"is_reserved":false,"is_disabled":false,"rental_uris":{"android":"levelo://app?vid=bc75ebe5-62ee-46f1-864b-eed2e5b522e6","ios":"levelo://app?vid=bc75ebe5-62ee-46f1-864b-eed2e5b522e6"},"vehicle_type_id":"4","last_reported":1751451131,"current_range_meters":25600,"station_id":"ce4bhi12rcd13ifvqfp0","pricing_plan_id":"cebpf4jnsgd1na2vs0mg"},{"bike_id":"9c5f6f2b-b4fe-4abd-90e1-346377586e8a","system_id":"levelo_inurba_marseille","lat":43.239573,"lon":5.366309,"is_reserved":false,"is_disabled":false,"rental_uris":{"android":"levelo://app?vid=9c5f6f2b-b4fe-4abd-90e1-346377586e8a","ios":"levelo://app?vid=9c5f6f2b-b4fe-4abd-90e1-346377586e8a"},"vehicle_type_id":"4","last_reported":1751451131,"current_range_meters":25600,"station_id":"ce4bhi12rcd13ifvqfp0","pricing_plan_id":"cebpf4jnsgd1na2vs0mg"},