{"last_updated":1742732207,"ttl":60,"version":"2.2","data":{"bikes":[{"bike_id":"a0361edf-b7f3-4495-960b-73c62a3c2627","system_id":"levelo_inurba_marseille","lat":43.28255,"lon":5.35075,"is_reserved":false,"is_disabled":false,"rental_uris":{"android":"levelo://app?vid=a0361edf-b7f3-4495-960b-73c62a3c2627","ios":"levelo://app?vid=a0361edf-b7f3-4495-960b-73c62a3c2627"},"vehicle_type_id":"4","last_reported":1742732207,"current_range_meters":2800,"station_id":"ce4bhbp2rcd13ifvqerg","pricing_plan_id":"cebpf4jnsgd1na2vs0mg"},{"bike_id":"b87f2ec9-e37d-426c-9947-4161aca93f36","system_id":"levelo_inurba_marseille","lat":43.28633,"lon":5.35089,"is_reserved":false,"is_disabled":false,"rental_uris":{"android":"levelo://app?vid=b87f2ec9-e37d-426c-9947-4161aca93f36","ios":"levelo://app?vid=b87f2ec9-e37d-426c-9947-4161aca93f36"},"vehicle_type_id":"4","last_reported":1742732207,"current_range_meters":2800,"station_id":"ce4bhch2rcd13ifvqeug","pricing_plan_id":"cebpf4jnsgd1na2vs0mg"},{"bike_id":"a564807e-5bd6-4a71-b02f-5054fff067f9","system_id":"levelo_inurba_marseille","lat":43.24678,"lon":5.38168,"is_reserved":false,"is_disabled":false,"rental_uris":{"android":"levelo://app?vid=a564807e-5bd6-4a71-b02f-5054fff067f9","ios":"levelo://app?vid=a564807e-5bd6-4a71-b02f-5054fff067f9"},"vehicle_type_id":"4","last_reported":1742732207,"current_range_meters":2800,"station_id":"ce4bhih2rcd13ifvqfr0","pricing_plan_id":"cebpf4jnsgd1na2vs0mg"},{"bike_id":"5de7795b-b906-4ac5-91c9-2c7818e0afd2","system_id":"levelo_inurba_marseille","lat":43.26226,"lon":5.40456,"is_reserved":false,"is_disabled":false,"rental_uris":{"android":"levelo://app?vid=5de7795b-b906-4ac5-91c9-2c7818e0afd2","ios":"levelo://app?vid=5de7795b-b906-4ac5-91c9-2c7818e0afd2"},"vehicle_type_id":"4","last_reported":1742732207,"current_range_meters":2800,"station_id":"ce4bhmh2rcd13ifvqgmg","pricing_plan_id":"cebpf4jnsgd1na2vs0mg"},{"bike_id":"89426093-1829-443c-bb52-bc8ffcf67578","system_id":"levelo_inurba_marseille","lat":43.27559,"lon":5.38421,"is_reserved":false,"is_disabled":false,"rental_uris":{"android":"levelo://app?vid=89426093-1829-443c-bb52-bc8ffcf67578","ios":"levelo://app?vid=89426093-1829-443c-bb52-bc8ffcf67578"},"vehicle_type_id":"4","last_reported":1742732207,"current_range_meters":2800,"station_id":"ce4bhh92rcd13ifvqfi0","pricing_plan_id":"cebpf4jnsgd1na2vs0mg"},{"bike_id":"42e919de-16a0-4869-8072-a7fb562a3d27","system_id":"levelo_inurba_marseille","lat":43.30554,"lon":5.38433,"is_reserved":false,"is_disabled":false,"rental_uris":{"android":"levelo://app?vid=42e919de-16a0-4869-8072-a7fb562a3d27","ios":"levelo://app?vid=42e919de-16a0-4869-8072-a7fb562a3d27"},"vehicle_type_id":"4","last_reported":1742732207,"current_range_meters":3200,"station_id":"ce4bgg92rcd13ifvqb30","pricing_plan_id":"cebpf4jnsgd1na2vs0mg"},{"bike_id":"7bf01d6e-a2f2-45ed-8d41-a9057478022a","system_id":"levelo_inurba_marseille","lat":43.295832,"lon":5.375144,"is_reserved":false,"is_disabled":false,"rental_uris":{"android":"levelo://app?vid=7bf01d6e-a2f2-45ed-8d41-a9057478022a","ios":"levelo://app?vid=7bf01d6e-a2f2-45ed-8d41-a9057478022a"},"vehicle_type_id":"4","last_reported":1742732207,"current_range_meters":2800,"station_id":"ce4bgs12rcd13ifvqcag","pricing_plan_id":"cebpf4jnsgd1na2vs0mg"},{"bike_id":"4e130c3f-1e9a-4e1a-a546-fa10a03dc915","system_id":"levelo_inurba_marseille","lat":43.24724,"lon":5.38187,"is_reserved":false,"is_disabled":false,"rental_uris":{"android":"levelo://app?vid=4e130c3f-1e9a-4e1a-a546-fa10a03dc915","ios":"levelo://app?vid=4e130c3f-1e9a-4e1a-a546-fa10a03dc915"},"vehicle_type_id":"4","last_reported":1742732207,"current_range_meters":3200,"station_id":"","pricing_plan_id":"cebpf4jnsgd1na2vs0mg"},{"bike_id":"7f2985fe-2975-4e59-93de-a2ab8e5796bc","system_id":"levelo_inurba_marseille","lat":43.26942,"lon":5.40248,"is_reserved":false,"is_disabled":false,"rental_uris":{"android":"levelo://app?vid=7f2985fe-2975-4e59-93de-a2ab8e5796bc","ios":"levelo://app?vid=7f2985fe-2975-4e59-93de-a2ab8e5796bc"},"vehicle_type_id":"4","last_reported":1742732207,"current_range_meters":3600,"station_id":"cjm6bp8fraef2m0cb0m0","pricing_plan_id":"cebpf4jnsgd1na2vs0mg"},{"bike_id":"c3d4e9f2-d71b-483c-8c3e-3c01b4ff9bb7","system_id":"levelo_inurba_marseille","lat":43.28624,"lon":5.35091,"is_reserved":false,"is_disabled":false,"rental_uris":{"android":"levelo://app?vid=c3d4e9f2-d71b-483c-8c3e-3c01b4ff9bb7","ios":"levelo://app?vid=c3d4e9f2-d71b-483c-8c3e-3c01b4ff9bb7"},"vehicle_type_id":"4","last_reported":1742732207,"current_range_meters":3600,"station_id":"ce4bhch2rcd13ifvqeug","pricing_plan_id":"cebpf4jnsgd1na2vs0mg"},{"bike_id":"d0d34e77-f4ba-46a9-a81d-f10a28db8a46","system_id":"levelo_inurba_marseille","lat":43.2737,"lon":5.36245,"is_reserved":false,"is_disabled":false,"rental_uris":{"android":"levelo://app?vid=d0d34e77-f4ba-46a9-a81d-f10a28db8a46","ios":"levelo://app?vid=d0d34e77-f4ba-46a9-a81d-f10a28db8a46"},"vehicle_type_id":"4","last_reported":1742732207,"current_range_meters":4000,"station_id":"ce4bhbh2rcd13ifvqeo0","pricing_plan_id":"cebpf4jnsgd1na2vs0mg"},{"bike_id":"04ffeec5-fcdc-4d90-9157-b0a757752a4a","system_id":"levelo_inurba_marseille","lat":43.23965,"lon":5.36633,"is_reserved":false,"is_disabled":false,"rental_uris":{"android":"levelo://app?vid=04ffeec5-fcdc-4d90-9157-b0a757752a4a","ios":"levelo://app?vid=04ffeec5-fcdc-4d90-9157-b0a757752a4a"},"vehicle_type_id":"4","last_reported":1742732207,"current_range_meters":4000,"station_id":"ce4bhi12rcd13ifvqfp0","pricing_plan_id":"cebpf4jnsgd1na2vs0mg"},{"bike_id":"3273f40d-d327-4a96-a10b-bb064e299908","system_id":"levelo_inurba_marseille","lat":43.330738,"lon":5.408209,"is_reserved":false,"is_disabled":false,"rental_uris":{"android":"levelo://app?vid=3273f40d-d327-4a96-a10b-bb064e299908","ios":"levelo://app?vid=3273f40d-d327-4a96-a10b-bb064e299908"},"vehicle_type_id":"4","last_reported":1742732207,"current_range_meters":4000,"station_id":"","pricing_plan_id":"cebpf4jnsgd1na2vs0mg"},{"bike_id":"0007fce5-562c-4dc0-afc3-21cf7828d9fe","system_id":"levelo_inurba_marseille","lat":43.30136,"lon":5.3741,"is_reserved":false,"is_disabled":false,"rental_uris":{"android":"levelo://app?vid=0007fce5-562c-4dc0-afc3-21cf7828d9fe","ios":"levelo://app?vid=0007fce5-562c-4dc0-afc3-21cf7828d9fe"},"vehicle_type_id":"4","last_reported":1742732207,"current_range_meters":4400,"station_id":"ce4bgs92rcd13ifvqcc0","pricing_plan_id":"cebpf4jnsgd1na2vs0mg"},{"bike_id":"41e25995-b1f7-4c57-b6a7-ad7cf9b0a48f","system_id":"levelo_inurba_marseille","lat":43.26228,"lon":5.40454,"is_reserved":false,"is_disabled":false,"rental_uris":{"android":"levelo://app?vid=41e25995-b1f7-4c57-b6a7-ad7cf9b0a48f","ios":"levelo://app?vid=41e25995-b1f7-4c57-b6a7-ad7cf9b0a48f"},"vehicle_type_id":"4","last_reported":1742732207,"current_range_meters":4400,"station_id":"ce4bhmh2rcd13ifvqgmg","pricing_plan_id":"cebpf4jnsgd1na2vs0mg"},{"bike_id":"7a80749b-56dc-4ab1-a2d7-268dfcb799e2","system_id":"levelo_inurba_marseille","lat":43.23963,"lon":5.36622,"is_reserved":false,"is_disabled":false,"rental_uris":{"android":"levelo://app?vid=7a80749b-56dc-4ab1-a2d7-268dfcb799e2","ios":"levelo://app?vid=7a80749b-56dc-4ab1-a2d7-268dfcb799e2"},"vehicle_type_id":"4","last_reported":1742732207,"current_range_meters":4800,"station_id":"ce4bhi12rcd13ifvqfp0","pricing_plan_id":"cebpf4jnsgd1na2vs0mg"},{"bike_id":"a255a12b-22ca-41f1-b551-b8c80cc2f6d8","system_id":"levelo_inurba_marseille","lat":43.32148,"lon":5.36731,"is_reserved":false,"is_disabled":false,"rental_uris":{"android":"levelo://app?vid=a255a12b-22ca-41f1-b551-b8c80cc2f6d8","ios":"levelo://app?vid=a255a12b-22ca-41f1-b551-b8c80cc2f6d8"},"vehicle_type_id":"4","last_reported":1742732207,"current_range_meters":4800,"station_id":"","pricing_plan_id":"cebpf4jnsgd1na2vs0mg"},{"bike_id":"8cdb03ed-cad4-4376-8aaa-b36d57b16a4c","system_id":"levelo_inurba_marseille","lat":43.24073,"lon":5.37765,"is_reserved":false,"is_disabled":false,"rental_uris":{"android":"levelo://app?vid=8cdb03ed-cad4-4376-8aaa-b36d57b16a4c","ios":"levelo://app?vid=8cdb03ed-cad4-4376-8aaa-b36d57b16a4c"},"vehicle_type_id":"4","last_reported":1742732207,"current_range_meters":4800,"station_id":"ce4bhnp2rcd13ifvqgvg","pricing_plan_id":"cebpf4jnsgd1na2vs0mg"},{"bike_id":"0dc87071-33ab-4740-bd94-506c23341fb8","system_id":"levelo_inurba_marseille","lat":43.23197,"lon":5.35558,"is_reserved":false,"is_disabled":false,"rental_uris":{"android":"levelo://app?vid=0dc87071-33ab-4740-bd94-506c23341fb8","ios":"levelo://app?vid=0dc87071-33ab-4740-bd94-506c23341fb8"},"vehicle_type_id":"4","last_reported":1742732207,"current_range_meters":4800,"station_id":"ce4bhu92rcd13ifvqi70","pricing_plan_id":"cebpf4jnsgd1na2vs0mg"},{"bike_id":"a92406c2-d9b3-4869-ad61-e00621adc36f","system_id":"levelo_inurba_marseille","lat":43.27614,"lon":5.36115,"is_reserved":false,"is_disabled":false,"rental_uris":{"android":"levelo://app?vid=a92406c2-d9b3-4869-ad61-e00621adc36f","ios":"levelo://app?vid=a92406c2-d9b3-4869-ad61-e00621adc36f"},"vehicle_type_id":"4","last_reported":1742732207,"current_range_meters":4800,"station_id":"ce4bgj92rcd13ifvqbe0","pricing_plan_id":"cebpf4jnsgd1na2vs0mg"},{"bike_id":"9dbdba43-f15c-4ca7-82f8-81d9f5dee422","system_id":"levelo_inurba_marseille","lat":43.27896,"lon":5.38014,"is_reserved":false,"is_disabled":false,"rental_uris":{"android":"levelo://app?vid=9dbdba43-f15c-4ca7-82f8-81d9f5dee422","ios":"levelo://app?vid=9dbdba43-f15c-4ca7-82f8-81d9f5dee422"},"vehicle_type_id":"4","last_reported":1742732207,"current_range_meters":4800,"station_id":"ce4bhf92rcd13ifvqf50","pricing_plan_id":"cebpf4jnsgd1na2vs0mg"},{"bike_id":"fe239f3d-5c83-42bd-8b99-e0b3f3784fb5","system_id":"levelo_inurba_marseille","lat":43.24623,"lon":5.38405,"is_reserved":false,"is_disabled":false,"rental_uris":{"android":"levelo://app?vid=fe239f3d-5c83-42bd-8b99-e0b3f3784fb5","ios":"levelo://app?vid=fe239f3d-5c83-42bd-8b99-e0b3f3784fb5"},"vehicle_type_id":"4","last_reported":1742732207,"current_range_meters":4800,"station_id":"","pricing_plan_id":"cebpf4jnsgd1na2vs0mg"},{"bike_id":"bade1897-5fce-41af-a1fb-ae308817a137","system_id":"levelo_inurba_marseille","lat":43.28726,"lon":5.36094,"is_reserved":false,"is_disabled":false,"rental_uris":{"android":"levelo://app?vid=bade1897-5fce-41af-a1fb-ae308817a137","ios":"levelo://app?vid=bade1897-5fce-41af-a1fb-ae308817a137"},"vehicle_type_id":"4","last_reported":1742732207,"current_range_meters":4800,"station_id":"cki0cbj6b192h4jlfktg","pricing_plan_id":"cebpf4jnsgd1na2vs0mg"},{"bike_id":"2fd50b40-9f7d-42da-8ebc-28ff75214250","system_id":"levelo_inurba_marseille","lat":43.29524,"lon":5.39411,"is_reserved":false,"is_disabled":false,"rental_uris":{"android":"levelo://app?vid=2fd50b40-9f7d-42da-8ebc-28ff75214250","ios":"levelo://app?vid=2fd50b40-9f7d-42da-8ebc-28ff75214250"},"vehicle_type_id":"4","last_reported":1742732207,"current_range_meters":5600,"station_id":"ce4bh292rcd13ifvqdf0","pricing_plan_id":"cebpf4jnsgd1na2vs0mg"},{"bike_id":"3c2a7dcf-f6cd-4a5b-ac2d-0c447364948d","system_id":"levelo_inurba_marseille","lat":43.31378,"lon":5.3737,"is_reserved":false,"is_disabled":false,"rental_uris":{"android":"levelo://app?vid=3c2a7dcf-f6cd-4a5b-ac2d-0c447364948d","ios":"levelo://app?vid=3c2a7dcf-f6cd-4a5b-ac2d-0c447364948d"},"vehicle_type_id":"4","last_reported":1742732207,"current_range_meters":6000,"station_id":"","pricing_plan_id":"cebpf4jnsgd1na2vs0mg"},{"bike_id":"1d799419-4e8d-4313-8aba-e1c20e20fa8e","system_id":"levelo_inurba_marseille","lat":43.23196,"lon":5.35547,"is_reserved":false,"is_disabled":false,"rental_uris":{"android":"levelo://app?vid=1d799419-4e8d-4313-8aba-e1c20e20fa8e","ios":"levelo://app?vid=1d799419-4e8d-4313-8aba-e1c20e20fa8e"},"vehicle_type_id":"4","last_reported":1742732207,"current_range_meters":6000,"station_id":"ce4bhu92rcd13ifvqi70","pricing_plan_id":"cebpf4jnsgd1na2vs0mg"},{"bike_id":"ad7a0278-e412-445f-ac9a-fb1d0679c985","system_id":"levelo_inurba_marseille","lat":43.28034,"lon":5.36944,"is_reserved":false,"is_disabled":false,"rental_uris":{"android":"levelo://app?vid=ad7a0278-e412-445f-ac9a-fb1d0679c985","ios":"levelo://app?vid=ad7a0278-e412-445f-ac9a-fb1d0679c985"},"vehicle_type_id":"4","last_reported":1742732207,"current_range_meters":6000,"station_id":"ce4bha12rcd13ifvqef0","pricing_plan_id":"cebpf4jnsgd1na2vs0mg"},{"bike_id":"c5d11869-7b53-416d-998a-6bff8e3bb25c","system_id":"levelo_inurba_marseille","lat":43.29869,"lon":5.38917,"is_reserved":false,"is_disabled":false,"rental_uris":{"android":"levelo://app?vid=c5d11869-7b53-416d-998a-6bff8e3bb25c","ios":"levelo://app?vid=c5d11869-7b53-416d-998a-6bff8e3bb25c"},"vehicle_type_id":"4","last_reported":1742732207,"current_range_meters":6000,"station_id":"ce4bh392rcd13ifvqdl0","pricing_plan_id":"cebpf4jnsgd1na2vs0mg"},{"bike_id":"9ad6e8f2-9ca0-48ff-ba53-64bd2abe06ce","system_id":"levelo_inurba_marseille","lat":43.280821,"lon":5.396613,"is_reserved":false,"is_disabled":false,"rental_uris":{"android":"levelo://app?vid=9ad6e8f2-9ca0-48ff-ba53-64bd2abe06ce","ios":"levelo://app?vid=9ad6e8f2-9ca0-48ff-ba53-64bd2abe06ce"},"vehicle_type_id":"4","last_reported":1742732207,"current_range_meters":6000,"station_id":"ce4bhgh2rcd13ifvqfb0","pricing_plan_id":"cebpf4jnsgd1na2vs0mg"},{"bike_id":"b5fcb98a-c8d5-4f1a-a9b4-b3362af2a9c7","system_id":"levelo_inurba_marseille","lat":43.23061,"lon":5.35491,"is_reserved":false,"is_disabled":false,"rental_uris":{"android":"levelo://app?vid=b5fcb98a-c8d5-4f1a-a9b4-b3362af2a9c7","ios":"levelo://app?vid=b5fcb98a-c8d5-4f1a-a9b4-b3362af2a9c7"},"vehicle_type_id":"4","last_reported":1742732207,"current_range_meters":6000,"station_id":"cpo3342slgdg3j2ifvpg","pricing_plan_id":"cebpf4jnsgd1na2vs0mg"},{"bike_id":"22974a3c-2c10-4968-8643-ac5fb53e0947","system_id":"levelo_inurba_marseille","lat":43.24689,"lon":5.38141,"is_reserved":false,"is_disabled":false,"rental_uris":{"android":"levelo://app?vid=22974a3c-2c10-4968-8643-ac5fb53e0947","ios":"levelo://app?vid=22974a3c-2c10-4968-8643-ac5fb53e0947"},"vehicle_type_id":"4","last_reported":1742732207,"current_range_meters":6000,"station_id":"ce4bhih2rcd13ifvqfr0","pricing_plan_id":"cebpf4jnsgd1na2vs0mg"},{"bike_id":"d7ecf0b7-2430-4e23-a8c3-92233081769e","system_id":"levelo_inurba_marseille","lat":43.24078,"lon":5.37765,"is_reserved":false,"is_disabled":false,"rental_uris":{"android":"levelo://app?vid=d7ecf0b7-2430-4e23-a8c3-92233081769e","ios":"levelo://app?vid=d7ecf0b7-2430-4e23-a8c3-92233081769e"},"vehicle_type_id":"4","last_reported":1742732207,"current_range_meters":6000,"station_id":"ce4bhnp2rcd13ifvqgvg","pricing_plan_id":"cebpf4jnsgd1na2vs0mg"},{"bike_id":"c7ad49f4-7a04-4e25-b65b-436330f5b81e","system_id":"levelo_inurba_marseille","lat":43.24667,"lon":5.38161,"is_reserved":false,"is_disabled":false,"rental_uris":{"android":"levelo://app?vid=c7ad49f4-7a04-4e25-b65b-436330f5b81e","ios":"levelo://app?vid=c7ad49f4-7a04-4e25-b65b-436330f5b81e"},"vehicle_type_id":"4","last_reported":1742732207,"current_range_meters":6400,"station_id":"ce4bhih2rcd13ifvqfr0","pricing_plan_id":"cebpf4jnsgd1na2vs0mg"},{"bike_id":"3bc17e9f-c28e-42ac-ab2f-a661d914a8b7","system_id":"levelo_inurba_marseille","lat":43.2508,"lon":5.39522,"is_reserved":false,"is_disabled":true,"rental_uris":{"android":"levelo://app?vid=3bc17e9f-c28e-42ac-ab2f-a661d914a8b7","ios":"levelo://app?vid=3bc17e9f-c28e-42ac-ab2f-a661d914a8b7"},"vehicle_type_id":"4","last_reported":1742732207,"current_range_meters":6400,"station_id":"ce4bhm12rcd13ifvqgkg","pricing_plan_id":"cebpf4jnsgd1na2vs0mg"},{"bike_id":"b023a1a0-71cb-41aa-9999-c8b80f75aa80","system_id":"levelo_inurba_marseille","lat":43.325306,"lon":5.414254,"is_reserved":false,"is_disabled":false,"rental_uris":{"android":"levelo://app?vid=b023a1a0-71cb-41aa-9999-c8b80f75aa80","ios":"levelo://app?vid=b023a1a0-71cb-41aa-9999-c8b80f75aa80"},"vehicle_type_id":"4","last_reported":1742732207,"current_range_meters":6000,"station_id":"ce4bhq12rcd13ifvqhhg","pricing_plan_id":"cebpf4jnsgd1na2vs0mg"},{"bike_id":"7c8ce15b-2cf6-422b-b3d8-d5f371a3fc76","system_id":"levelo_inurba_marseille","lat":43.23058,"lon":5.35496,"is_reserved":false,"is_disabled":false,"rental_uris":{"android":"levelo://app?vid=7c8ce15b-2cf6-422b-b3d8-d5f371a3fc76","ios":"levelo://app?vid=7c8ce15b-2cf6-422b-b3d8-d5f371a3fc76"},"vehicle_type_id":"4","last_reported":1742732207,"current_range_meters":6800,"station_id":"cpo3342slgdg3j2ifvpg","pricing_plan_id":"cebpf4jnsgd1na2vs0mg"},{"bike_id":"fff27fb1-4dc3-48e7-ac99-81602fd270b0","system_id":"levelo_inurba_marseille","lat":43.29256,"lon":5.40908,"is_reserved":false,"is_disabled":false,"rental_uris":{"android":"levelo://app?vid=fff27fb1-4dc3-48e7-ac99-81602fd270b0","ios":"levelo://app?vid=fff27fb1-4dc3-48e7-ac99-81602fd270b0"},"vehicle_type_id":"4","last_reported":1742732207,"current_range_meters":6800,"station_id":"ce4bh192rcd13ifvqdc0","pricing_plan_id":"cebpf4jnsgd1na2vs0mg"},{"bike_id":"aa2e0177-7d5a-4ddb-802a-535d7a5cbaec","system_id":"levelo_inurba_marseille","lat":43.30198,"lon":5.3663,"is_reserved":false,"is_disabled":false,"rental_uris":{"android":"levelo://app?vid=aa2e0177-7d5a-4ddb-802a-535d7a5cbaec","ios":"levelo://app?vid=aa2e0177-7d5a-4ddb-802a-535d7a5cbaec"},"vehicle_type_id":"4","last_reported":1742732207,"current_range_meters":6800,"station_id":"ce4bgrh2rcd13ifvqc8g","pricing_plan_id":"cebpf4jnsgd1na2vs0mg"},{"bike_id":"c5f44f79-cf52-4dcb-8bd2-d2dbc5c2d0bf","system_id":"levelo_inurba_marseille","lat":43.23061,"lon":5.35504,"is_reserved":false,"is_disabled":false,"rental_uris":{"android":"levelo://app?vid=c5f44f79-cf52-4dcb-8bd2-d2dbc5c2d0bf","ios":"levelo://app?vid=c5f44f79-cf52-4dcb-8bd2-d2dbc5c2d0bf"},"vehicle_type_id":"4","last_reported":1742732207,"current_range_meters":6800,"station_id":"cpo3342slgdg3j2ifvpg","pricing_plan_id":"cebpf4jnsgd1na2vs0mg"},{"bike_id":"029945ce-4be7-421f-badc-cda4aa645593","system_id":"levelo_inurba_marseille","lat":43.28421,"lon":5.34982,"is_reserved":false,"is_disabled":false,"rental_uris":{"android":"levelo://app?vid=029945ce-4be7-421f-badc-cda4aa645593","ios":"levelo://app?vid=029945ce-4be7-421f-badc-cda4aa645593"},"vehicle_type_id":"4","last_reported":1742732207,"current_range_meters":6800,"station_id":"ce4bhbh2rcd13ifvqepg","pricing_plan_id":"cebpf4jnsgd1na2vs0mg"},{"bike_id":"5a79d095-34a6-4b73-b152-1e70b8b81fa2","system_id":"levelo_inurba_marseille","lat":43.24458,"lon":5.39558,"is_reserved":false,"is_disabled":false,"rental_uris":{"android":"levelo://app?vid=5a79d095-34a6-4b73-b152-1e70b8b81fa2","ios":"levelo://app?vid=5a79d095-34a6-4b73-b152-1e70b8b81fa2"},"vehicle_type_id":"4","last_reported":1742732207,"current_range_meters":7200,"station_id":"","pricing_plan_id":"cebpf4jnsgd1na2vs0mg"},{"bike_id":"a7a9d68a-b527-472d-b45c-c1363e8def55","system_id":"levelo_inurba_marseille","lat":43.26218,"lon":5.3744,"is_reserved":false,"is_disabled":true,"rental_uris":{"android":"levelo://app?vid=a7a9d68a-b527-472d-b45c-c1363e8def55","ios":"levelo://app?vid=a7a9d68a-b527-472d-b45c-c1363e8def55"},"vehicle_type_id":"4","last_reported":1742732207,"current_range_meters":7200,"station_id":"ce4bhgp2rcd13ifvqfc0","pricing_plan_id":"cebpf4jnsgd1na2vs0mg"},{"bike_id":"c102df47-1a69-4d31-b8be-1bcca189eb57","system_id":"levelo_inurba_marseille","lat":43.31687,"lon":5.37259,"is_reserved":false,"is_disabled":false,"rental_uris":{"android":"levelo://app?vid=c102df47-1a69-4d31-b8be-1bcca189eb57","ios":"levelo://app?vid=c102df47-1a69-4d31-b8be-1bcca189eb57"},"vehicle_type_id":"4","last_reported":1742732207,"current_range_meters":7200,"station_id":"","pricing_plan_id":"cebpf4jnsgd1na2vs0mg"},{"bike_id":"ba0a9964-ab62-4807-b18d-12500e496f19","system_id":"levelo_inurba_marseille","lat":43.28665,"lon":5.35073,"is_reserved":false,"is_disabled":true,"rental_uris":{"android":"levelo://app?vid=ba0a9964-ab62-4807-b18d-12500e496f19","ios":"levelo://app?vid=ba0a9964-ab62-4807-b18d-12500e496f19"},"vehicle_type_id":"4","last_reported":1742732207,"current_range_meters":7200,"station_id":"","pricing_plan_id":"cebpf4jnsgd1na2vs0mg"},{"bike_id":"787fb028-74e3-4ece-a600-b719e0014a09","system_id":"levelo_inurba_marseille","lat":43.24664,"lon":5.38163,"is_reserved":false,"is_disabled":false,"rental_uris":{"android":"levelo://app?vid=787fb028-74e3-4ece-a600-b719e0014a09","ios":"levelo://app?vid=787fb028-74e3-4ece-a600-b719e0014a09"},"vehicle_type_id":"4","last_reported":1742732207,"current_range_meters":8000,"station_id":"ce4bhih2rcd13ifvqfr0","pricing_plan_id":"cebpf4jnsgd1na2vs0mg"},{"bike_id":"102bb2fe-f94c-4b7e-92f0-3acc126b9c8b","system_id":"levelo_inurba_marseille","lat":43.3108,"lon":5.38357,"is_reserved":false,"is_disabled":false,"rental_uris":{"android":"levelo://app?vid=102bb2fe-f94c-4b7e-92f0-3acc126b9c8b","ios":"levelo://app?vid=102bb2fe-f94c-4b7e-92f0-3acc126b9c8b"},"vehicle_type_id":"4","last_reported":1742732207,"current_range_meters":8000,"station_id":"ce4bgv92rcd13ifvqcr0","pricing_plan_id":"cebpf4jnsgd1na2vs0mg"},{"bike_id":"dc0b5eb4-361e-4785-b0b9-f3eefce109c0","system_id":"levelo_inurba_marseille","lat":43.28403,"lon":5.35008,"is_reserved":false,"is_disabled":false,"rental_uris":{"android":"levelo://app?vid=dc0b5eb4-361e-4785-b0b9-f3eefce109c0","ios":"levelo://app?vid=dc0b5eb4-361e-4785-b0b9-f3eefce109c0"},"vehicle_type_id":"4","last_reported":1742732207,"current_range_meters":8000,"station_id":"ce4bhbh2rcd13ifvqepg","pricing_plan_id":"cebpf4jnsgd1na2vs0mg"},{"bike_id":"014cf003-1505-49cd-ba72-06250a2191ab","system_id":"levelo_inurba_marseille","lat":43.23063,"lon":5.3549,"is_reserved":false,"is_disabled":false,"rental_uris":{"android":"levelo://app?vid=014cf003-1505-49cd-ba72-06250a2191ab","ios":"levelo://app?vid=014cf003-1505-49cd-ba72-06250a2191ab"},"vehicle_type_id":"4","last_reported":1742732207,"current_range_meters":8000,"station_id":"cpo3342slgdg3j2ifvpg","pricing_plan_id":"cebpf4jnsgd1na2vs0mg"},{"bike_id":"1df0b3b2-8b10-4d59-a49f-c6ab72341a39","system_id":"levelo_inurba_marseille","lat":43.23057,"lon":5.35492,"is_reserved":false,"is_disabled":false,"rental_uris":{"android":"levelo://app?vid=1df0b3b2-8b10-4d59-a49f-c6ab72341a39","ios":"levelo://app?vid=1df0b3b2-8b10-4d59-a49f-c6ab72341a39"},"vehicle_type_id":"4","last_reported":1742732207,"current_range_meters":8000,"station_id":"cpo3342slgdg3j2ifvpg","pricing_plan_id":"cebpf4jnsgd1na2vs0mg"},{"bike_id":"768ca5e6-f1bb-42f2-ac3f-2632b474747d","system_id":"levelo_inurba_marseille","lat":43.25813,"lon":5.39458,"is_reserved":false,"is_disabled":false,"rental_uris":{"android":"levelo://app?vid=768ca5e6-f1bb-42f2-ac3f-2632b474747d","ios":"levelo://app?vid=768ca5e6-f1bb-42f2-ac3f-2632b474747d"},"vehicle_type_id":"4","last_reported":1742732207,"current_range_meters":8000,"station_id":"ce4bhip2rcd13ifvqft0","pricing_plan_id":"cebpf4jnsgd1na2vs0mg"},{"bike_id":"601068db-3d3f-40bd-9692-80419153f251","system_id":"levelo_inurba_marseille","lat":43.255833,"lon":5.382284,"is_reserved":false,"is_disabled":false,"rental_uris":{"android":"levelo://app?vid=601068db-3d3f-40bd-9692-80419153f251","ios":"levelo://app?vid=601068db-3d3f-40bd-9692-80419153f251"},"vehicle_type_id":"4","last_reported":1742732207,"current_range_meters":8400,"station_id":"ce4bhih2rcd13ifvqfs0","pricing_plan_id":"cebpf4jnsgd1na2vs0mg"},{"bike_id":"0c72c3f5-bc08-4b4b-af19-7e3b6a77b29a","system_id":"levelo_inurba_marseille","lat":43.29578,"lon":5.39976,"is_reserved":false,"is_disabled":false,"rental_uris":{"android":"levelo://app?vid=0c72c3f5-bc08-4b4b-af19-7e3b6a77b29a","ios":"levelo://app?vid=0c72c3f5-bc08-4b4b-af19-7e3b6a77b29a"},"vehicle_type_id":"4","last_reported":1742732207,"current_range_meters":8400,"station_id":"ce4bh312rcd13ifvqdj0","pricing_plan_id":"cebpf4jnsgd1na2vs0mg"},{"bike_id":"7dff0d61-f3b4-42de-8e95-a63f03cbc4f6","system_id":"levelo_inurba_marseille","lat":43.31372,"lon":5.38498,"is_reserved":false,"is_disabled":false,"rental_uris":{"android":"levelo://app?vid=7dff0d61-f3b4-42de-8e95-a63f03cbc4f6","ios":"levelo://app?vid=7dff0d61-f3b4-42de-8e95-a63f03cbc4f6"},"vehicle_type_id":"4","last_reported":1742732207,"current_range_meters":8400,"station_id":"ce4bgt92rcd13ifvqcf0","pricing_plan_id":"cebpf4jnsgd1na2vs0mg"},{"bike_id":"d5bdb9ba-8f5e-4673-91a9-7dbeea01afe2","system_id":"levelo_inurba_marseille","lat":43.24969,"lon":5.3896,"is_reserved":false,"is_disabled":false,"rental_uris":{"android":"levelo://app?vid=d5bdb9ba-8f5e-4673-91a9-7dbeea01afe2","ios":"levelo://app?vid=d5bdb9ba-8f5e-4673-91a9-7dbeea01afe2"},"vehicle_type_id":"4","last_reported":1742732207,"current_range_meters":8400,"station_id":"","pricing_plan_id":"cebpf4jnsgd1na2vs0mg"},{"bike_id":"724b3940-df1d-4d6b-b280-455b50f4acae","system_id":"levelo_inurba_marseille","lat":43.26232,"lon":5.40455,"is_reserved":false,"is_disabled":false,"rental_uris":{"android":"levelo://app?vid=724b3940-df1d-4d6b-b280-455b50f4acae","ios":"levelo://app?vid=724b3940-df1d-4d6b-b280-455b50f4acae"},"vehicle_type_id":"4","last_reported":1742732207,"current_range_meters":8400,"station_id":"ce4bhmh2rcd13ifvqgmg","pricing_plan_id":"cebpf4jnsgd1na2vs0mg"},{"bike_id":"a78cef60-fc94-412e-885b-8690cd38c560","system_id":"levelo_inurba_marseille","lat":43.311647,"lon":5.38724,"is_reserved":false,"is_disabled":false,"rental_uris":{"android":"levelo://app?vid=a78cef60-fc94-412e-885b-8690cd38c560","ios":"levelo://app?vid=a78cef60-fc94-412e-885b-8690cd38c560"},"vehicle_type_id":"4","last_reported":1742732207,"current_range_meters":8400,"station_id":"ce4bgv12rcd13ifvqcp0","pricing_plan_id":"cebpf4jnsgd1na2vs0mg"},{"bike_id":"23aae21a-1ee8-4544-a323-476ec541691a","system_id":"levelo_inurba_marseille","lat":43.2319,"lon":5.39979,"is_reserved":false,"is_disabled":false,"rental_uris":{"android":"levelo://app?vid=23aae21a-1ee8-4544-a323-476ec541691a","ios":"levelo://app?vid=23aae21a-1ee8-4544-a323-476ec541691a"},"vehicle_type_id":"4","last_reported":1742732207,"current_range_meters":8400,"station_id":"ce4bhn12rcd13ifvqgqg","pricing_plan_id":"cebpf4jnsgd1na2vs0mg"},{"bike_id":"8d98574c-95af-4d05-87ba-fbd84f780da9","system_id":"levelo_inurba_marseille","lat":43.28451,"lon":5.39209,"is_reserved":false,"is_disabled":false,"rental_uris":{"android":"levelo://app?vid=8d98574c-95af-4d05-87ba-fbd84f780da9","ios":"levelo://app?vid=8d98574c-95af-4d05-87ba-fbd84f780da9"},"vehicle_type_id":"4","last_reported":1742732207,"current_range_meters":8000,"station_id":"ce4bhoh2rcd13ifvqh5g","pricing_plan_id":"cebpf4jnsgd1na2vs0mg"},{"bike_id":"7ec5e565-c539-4b65-9ef7-31ee071a6b54","system_id":"levelo_inurba_marseille","lat":43.32354,"lon":5.38894,"is_reserved":false,"is_disabled":false,"rental_uris":{"android":"levelo://app?vid=7ec5e565-c539-4b65-9ef7-31ee071a6b54","ios":"levelo://app?vid=7ec5e565-c539-4b65-9ef7-31ee071a6b54"},"vehicle_type_id":"4","last_reported":1742732207,"current_range_meters":8400,"station_id":"ce4bhqp2rcd13ifvqhog","pricing_plan_id":"cebpf4jnsgd1na2vs0mg"},{"bike_id":"20865c63-d670-437b-92bc-6128c94f7da6","system_id":"levelo_inurba_marseille","lat":43.29896,"lon":5.39711,"is_reserved":false,"is_disabled":false,"rental_uris":{"android":"levelo://app?vid=20865c63-d670-437b-92bc-6128c94f7da6","ios":"levelo://app?vid=20865c63-d670-437b-92bc-6128c94f7da6"},"vehicle_type_id":"4","last_reported":1742732207,"current_range_meters":8000,"station_id":"ce4bh0h2rcd13ifvqd50","pricing_plan_id":"cebpf4jnsgd1na2vs0mg"},{"bike_id":"07f96847-7f5c-4e15-aaa7-9f4020126a0e","system_id":"levelo_inurba_marseille","lat":43.26941,"lon":5.40262,"is_reserved":false,"is_disabled":false,"rental_uris":{"android":"levelo://app?vid=07f96847-7f5c-4e15-aaa7-9f4020126a0e","ios":"levelo://app?vid=07f96847-7f5c-4e15-aaa7-9f4020126a0e"},"vehicle_type_id":"4","last_reported":1742732207,"current_range_meters":8000,"station_id":"cjm6bp8fraef2m0cb0m0","pricing_plan_id":"cebpf4jnsgd1na2vs0mg"},{"bike_id":"5d4cc92c-eafe-478c-8820-ef016b1e9d02","system_id":"levelo_inurba_marseille","lat":43.29895,"lon":5.4368,"is_reserved":false,"is_disabled":false,"rental_uris":{"android":"levelo://app?vid=5d4cc92c-eafe-478c-8820-ef016b1e9d02","ios":"levelo://app?vid=5d4cc92c-eafe-478c-8820-ef016b1e9d02"},"vehicle_type_id":"4","last_reported":1742732207,"current_range_meters":8400,"station_id":"ce4bhpp2rcd13ifvqhfg","pricing_plan_id":"cebpf4jnsgd1na2vs0mg"},{"bike_id":"3f3f99da-6673-441e-a5b3-6857219a400e","system_id":"levelo_inurba_marseille","lat":43.25028,"lon":5.38939,"is_reserved":false,"is_disabled":false,"rental_uris":{"android":"levelo://app?vid=3f3f99da-6673-441e-a5b3-6857219a400e","ios":"levelo://app?vid=3f3f99da-6673-441e-a5b3-6857219a400e"},"vehicle_type_id":"4","last_reported":1742732207,"current_range_meters":8400,"station_id":"ce4bhgp2rcd13ifvqfd0","pricing_plan_id":"cebpf4jnsgd1na2vs0mg"},{"bike_id":"fb8fa33f-0ff4-46d9-84b9-2fcecb3bc9d2","system_id":"levelo_inurba_marseille","lat":43.23182,"lon":5.40009,"is_reserved":false,"is_disabled":false,"rental_uris":{"android":"levelo://app?vid=fb8fa33f-0ff4-46d9-84b9-2fcecb3bc9d2","ios":"levelo://app?vid=fb8fa33f-0ff4-46d9-84b9-2fcecb3bc9d2"},"vehicle_type_id":"4","last_reported":1742732207,"current_range_meters":8400,"station_id":"ce4bhn12rcd13ifvqgqg","pricing_plan_id":"cebpf4jnsgd1na2vs0mg"},{"bike_id":"8ed1ac19-a2dd-4532-af16-423d1df5a6d4","system_id":"levelo_inurba_marseille","lat":43.23121,"lon":5.41392,"is_reserved":false,"is_disabled":false,"rental_uris":{"android":"levelo://app?vid=8ed1ac19-a2dd-4532-af16-423d1df5a6d4","ios":"levelo://app?vid=8ed1ac19-a2dd-4532-af16-423d1df5a6d4"},"vehicle_type_id":"4","last_reported":1742732207,"current_range_meters":8400,"station_id":"","pricing_plan_id":"cebpf4jnsgd1na2vs0mg"},{"bike_id":"29218663-b975-4db3-9fd8-36a2fe24ec15","system_id":"levelo_inurba_marseille","lat":43.24176,"lon":5.3973,"is_reserved":false,"is_disabled":false,"rental_uris":{"android":"levelo://app?vid=29218663-b975-4db3-9fd8-36a2fe24ec15","ios":"levelo://app?vid=29218663-b975-4db3-9fd8-36a2fe24ec15"},"vehicle_type_id":"4","last_reported":1742732207,"current_range_meters":8400,"station_id":"ce4bhn12rcd13ifvqgpg","pricing_plan_id":"cebpf4jnsgd1na2vs0mg"},{"bike_id":"f52f1403-e5ef-4f15-816b-2ba1cd83754e","system_id":"levelo_inurba_marseille","lat":43.32615,"lon":5.36414,"is_reserved":false,"is_disabled":false,"rental_uris":{"android":"levelo://app?vid=f52f1403-e5ef-4f15-816b-2ba1cd83754e","ios":"levelo://app?vid=f52f1403-e5ef-4f15-816b-2ba1cd83754e"},"vehicle_type_id":"4","last_reported":1742732207,"current_range_meters":8400,"station_id":"","pricing_plan_id":"cebpf4jnsgd1na2vs0mg"},{"bike_id":"d9782675-253a-48e7-9f6d-d7315cb9ae92","system_id":"levelo_inurba_marseille","lat":43.22929,"lon":5.35382,"is_reserved":false,"is_disabled":false,"rental_uris":{"android":"levelo://app?vid=d9782675-253a-48e7-9f6d-d7315cb9ae92","ios":"levelo://app?vid=d9782675-253a-48e7-9f6d-d7315cb9ae92"},"vehicle_type_id":"4","last_reported":1742732207,"current_range_meters":8800,"station_id":"cpo3532slgdg3j2ikp40","pricing_plan_id":"cebpf4jnsgd1na2vs0mg"},{"bike_id":"0da47f2d-4350-4f29-a035-1b10541726f9","system_id":"levelo_inurba_marseille","lat":43.29263,"lon":5.38441,"is_reserved":false,"is_disabled":false,"rental_uris":{"android":"levelo://app?vid=0da47f2d-4350-4f29-a035-1b10541726f9","ios":"levelo://app?vid=0da47f2d-4350-4f29-a035-1b10541726f9"},"vehicle_type_id":"4","last_reported":1742732207,"current_range_meters":8800,"station_id":"ce4bh692rcd13ifvqea0","pricing_plan_id":"cebpf4jnsgd1na2vs0mg"},{"bike_id":"72503a27-a949-4a46-b139-c44d4f416a58","system_id":"levelo_inurba_marseille","lat":43.23192,"lon":5.35553,"is_reserved":false,"is_disabled":false,"rental_uris":{"android":"levelo://app?vid=72503a27-a949-4a46-b139-c44d4f416a58","ios":"levelo://app?vid=72503a27-a949-4a46-b139-c44d4f416a58"},"vehicle_type_id":"4","last_reported":1742732207,"current_range_meters":8800,"station_id":"ce4bhu92rcd13ifvqi70","pricing_plan_id":"cebpf4jnsgd1na2vs0mg"},{"bike_id":"a1f867cd-603b-4611-8a7e-fa5434f6be88","system_id":"levelo_inurba_marseille","lat":43.24386,"lon":5.37067,"is_reserved":false,"is_disabled":false,"rental_uris":{"android":"levelo://app?vid=a1f867cd-603b-4611-8a7e-fa5434f6be88","ios":"levelo://app?vid=a1f867cd-603b-4611-8a7e-fa5434f6be88"},"vehicle_type_id":"4","last_reported":1742732207,"current_range_meters":8800,"station_id":"ce4bhhh2rcd13ifvqfk0","pricing_plan_id":"cebpf4jnsgd1na2vs0mg"},{"bike_id":"ea375b77-5265-4f10-98eb-8a594992fa8c","system_id":"levelo_inurba_marseille","lat":43.23063,"lon":5.35497,"is_reserved":false,"is_disabled":false,"rental_uris":{"android":"levelo://app?vid=ea375b77-5265-4f10-98eb-8a594992fa8c","ios":"levelo://app?vid=ea375b77-5265-4f10-98eb-8a594992fa8c"},"vehicle_type_id":"4","last_reported":1742732207,"current_range_meters":8800,"station_id":"cpo3342slgdg3j2ifvpg","pricing_plan_id":"cebpf4jnsgd1na2vs0mg"},{"bike_id":"9b469204-1d25-4894-b812-bcc7dda80cbd","system_id":"levelo_inurba_marseille","lat":43.27817,"lon":5.40713,"is_reserved":false,"is_disabled":false,"rental_uris":{"android":"levelo://app?vid=9b469204-1d25-4894-b812-bcc7dda80cbd","ios":"levelo://app?vid=9b469204-1d25-4894-b812-bcc7dda80cbd"},"vehicle_type_id":"4","last_reported":1742732207,"current_range_meters":8800,"station_id":"ce4bhnh2rcd13ifvqgtg","pricing_plan_id":"cebpf4jnsgd1na2vs0mg"},{"bike_id":"5de93a4e-8597-44d3-b79a-a868c09960fb","system_id":"levelo_inurba_marseille","lat":43.26202,"lon":5.37461,"is_reserved":false,"is_disabled":true,"rental_uris":{"android":"levelo://app?vid=5de93a4e-8597-44d3-b79a-a868c09960fb","ios":"levelo://app?vid=5de93a4e-8597-44d3-b79a-a868c09960fb"},"vehicle_type_id":"4","last_reported":1742732207,"current_range_meters":8800,"station_id":"ce4bhgp2rcd13ifvqfc0","pricing_plan_id":"cebpf4jnsgd1na2vs0mg"},{"bike_id":"186584c4-e701-4e16-bbf3-d63b04c20b04","system_id":"levelo_inurba_marseille","lat":43.336053,"lon":5.410399,"is_reserved":false,"is_disabled":false,"rental_uris":{"android":"levelo://app?vid=186584c4-e701-4e16-bbf3-d63b04c20b04","ios":"levelo://app?vid=186584c4-e701-4e16-bbf3-d63b04c20b04"},"vehicle_type_id":"4","last_reported":1742732207,"current_range_meters":8800,"station_id":"ce4bhqh2rcd13ifvqhmg","pricing_plan_id":"cebpf4jnsgd1na2vs0mg"},{"bike_id":"72123cf2-9d2b-41b8-9bee-4f35b0be3549","system_id":"levelo_inurba_marseille","lat":43.23055,"lon":5.3549,"is_reserved":false,"is_disabled":true,"rental_uris":{"android":"levelo://app?vid=72123cf2-9d2b-41b8-9bee-4f35b0be3549","ios":"levelo://app?vid=72123cf2-9d2b-41b8-9bee-4f35b0be3549"},"vehicle_type_id":"4","last_reported":1742732207,"current_range_meters":8800,"station_id":"cpo3342slgdg3j2ifvpg","pricing_plan_id":"cebpf4jnsgd1na2vs0mg"},{"bike_id":"27cf9f13-84ae-4ea9-a43e-83e035ff2560","system_id":"levelo_inurba_marseille","lat":43.23178,"lon":5.3999,"is_reserved":false,"is_disabled":false,"rental_uris":{"android":"levelo://app?vid=27cf9f13-84ae-4ea9-a43e-83e035ff2560","ios":"levelo://app?vid=27cf9f13-84ae-4ea9-a43e-83e035ff2560"},"vehicle_type_id":"4","last_reported":1742732207,"current_range_meters":8800,"station_id":"ce4bhn12rcd13ifvqgqg","pricing_plan_id":"cebpf4jnsgd1na2vs0mg"},{"bike_id":"b6114535-04e9-4c65-a4ce-26f914383897","system_id":"levelo_inurba_marseille","lat":43.23139,"lon":5.43731,"is_reserved":false,"is_disabled":false,"rental_uris":{"android":"levelo://app?vid=b6114535-04e9-4c65-a4ce-26f914383897","ios":"levelo://app?vid=b6114535-04e9-4c65-a4ce-26f914383897"},"vehicle_type_id":"4","last_reported":1742732207,"current_range_meters":9200,"station_id":"ce4bhmp2rcd13ifvqgog","pricing_plan_id":"cebpf4jnsgd1na2vs0mg"},{"bike_id":"a475dca1-4c92-4dca-bbeb-d1361bc9fba3","system_id":"levelo_inurba_marseille","lat":43.26916,"lon":5.38906,"is_reserved":false,"is_disabled":false,"rental_uris":{"android":"levelo://app?vid=a475dca1-4c92-4dca-bbeb-d1361bc9fba3","ios":"levelo://app?vid=a475dca1-4c92-4dca-bbeb-d1361bc9fba3"},"vehicle_type_id":"4","last_reported":1742732207,"current_range_meters":9200,"station_id":"ce4bhhh2rcd13ifvqfl0","pricing_plan_id":"cebpf4jnsgd1na2vs0mg"},{"bike_id":"ad263336-64b9-4f27-8f30-4a49fa7dcbf6","system_id":"levelo_inurba_marseille","lat":43.27638,"lon":5.42673,"is_reserved":false,"is_disabled":false,"rental_uris":{"android":"levelo://app?vid=ad263336-64b9-4f27-8f30-4a49fa7dcbf6","ios":"levelo://app?vid=ad263336-64b9-4f27-8f30-4a49fa7dcbf6"},"vehicle_type_id":"4","last_reported":1742732207,"current_range_meters":9200,"station_id":"","pricing_plan_id":"cebpf4jnsgd1na2vs0mg"},{"bike_id":"9970402a-8a2d-496c-b7c7-073b8ddd9a2d","system_id":"levelo_inurba_marseille","lat":43.28614,"lon":5.35105,"is_reserved":false,"is_disabled":false,"rental_uris":{"android":"levelo://app?vid=9970402a-8a2d-496c-b7c7-073b8ddd9a2d","ios":"levelo://app?vid=9970402a-8a2d-496c-b7c7-073b8ddd9a2d"},"vehicle_type_id":"4","last_reported":1742732207,"current_range_meters":9200,"station_id":"ce4bhch2rcd13ifvqeug","pricing_plan_id":"cebpf4jnsgd1na2vs0mg"},{"bike_id":"75239504-6411-4c5a-918c-ff12c7d01c06","system_id":"levelo_inurba_marseille","lat":43.27814,"lon":5.40698,"is_reserved":false,"is_disabled":false,"rental_uris":{"android":"levelo://app?vid=75239504-6411-4c5a-918c-ff12c7d01c06","ios":"levelo://app?vid=75239504-6411-4c5a-918c-ff12c7d01c06"},"vehicle_type_id":"4","last_reported":1742732207,"current_range_meters":9200,"station_id":"ce4bhnh2rcd13ifvqgtg","pricing_plan_id":"cebpf4jnsgd1na2vs0mg"},{"bike_id":"e93a6456-3421-436c-8791-372fa2306789","system_id":"levelo_inurba_marseille","lat":43.26789,"lon":5.39413,"is_reserved":false,"is_disabled":false,"rental_uris":{"android":"levelo://app?vid=e93a6456-3421-436c-8791-372fa2306789","ios":"levelo://app?vid=e93a6456-3421-436c-8791-372fa2306789"},"vehicle_type_id":"4","last_reported":1742732207,"current_range_meters":8800,"station_id":"ce4bhh12rcd13ifvqfg0","pricing_plan_id":"cebpf4jnsgd1na2vs0mg"},{"bike_id":"bf07b9eb-f6a6-46ff-964f-005c942bdab1","system_id":"levelo_inurba_marseille","lat":43.26578,"lon":5.39034,"is_reserved":false,"is_disabled":false,"rental_uris":{"android":"levelo://app?vid=bf07b9eb-f6a6-46ff-964f-005c942bdab1","ios":"levelo://app?vid=bf07b9eb-f6a6-46ff-964f-005c942bdab1"},"vehicle_type_id":"4","last_reported":1742732207,"current_range_meters":9600,"station_id":"ce4bhe12rcd13ifvqf30","pricing_plan_id":"cebpf4jnsgd1na2vs0mg"},{"bike_id":"037e6ede-daec-42c4-b1a5-a4ddfe378bc9","system_id":"levelo_inurba_marseille","lat":43.28706,"lon":5.37949,"is_reserved":false,"is_disabled":true,"rental_uris":{"android":"levelo://app?vid=037e6ede-daec-42c4-b1a5-a4ddfe378bc9","ios":"levelo://app?vid=037e6ede-daec-42c4-b1a5-a4ddfe378bc9"},"vehicle_type_id":"4","last_reported":1742732207,"current_range_meters":9600,"station_id":"ce4bh9p2rcd13ifvqec0","pricing_plan_id":"cebpf4jnsgd1na2vs0mg"},{"bike_id":"eab182de-43ba-4ea4-a74d-16ea50e80a3a","system_id":"levelo_inurba_marseille","lat":43.30146,"lon":5.39885,"is_reserved":false,"is_disabled":false,"rental_uris":{"android":"levelo://app?vid=eab182de-43ba-4ea4-a74d-16ea50e80a3a","ios":"levelo://app?vid=eab182de-43ba-4ea4-a74d-16ea50e80a3a"},"vehicle_type_id":"4","last_reported":1742732207,"current_range_meters":9600,"station_id":"ce4bh0h2rcd13ifvqd40","pricing_plan_id":"cebpf4jnsgd1na2vs0mg"},{"bike_id":"0a705550-235f-4a8c-bd63-0c9b8dde4c6e","system_id":"levelo_inurba_marseille","lat":43.24078,"lon":5.37762,"is_reserved":false,"is_disabled":false,"rental_uris":{"android":"levelo://app?vid=0a705550-235f-4a8c-bd63-0c9b8dde4c6e","ios":"levelo://app?vid=0a705550-235f-4a8c-bd63-0c9b8dde4c6e"},"vehicle_type_id":"4","last_reported":1742732207,"current_range_meters":9600,"station_id":"ce4bhnp2rcd13ifvqgvg","pricing_plan_id":"cebpf4jnsgd1na2vs0mg"},{"bike_id":"140d1708-b02b-4f3d-8b67-ad95553b03f4","system_id":"levelo_inurba_marseille","lat":43.30126,"lon":5.37436,"is_reserved":false,"is_disabled":false,"rental_uris":{"android":"levelo://app?vid=140d1708-b02b-4f3d-8b67-ad95553b03f4","ios":"levelo://app?vid=140d1708-b02b-4f3d-8b67-ad95553b03f4"},"vehicle_type_id":"4","last_reported":1742732207,"current_range_meters":9600,"station_id":"ce4bgs92rcd13ifvqcc0","pricing_plan_id":"cebpf4jnsgd1na2vs0mg"},{"bike_id":"1c916668-c568-4b71-b746-1baf3cda838b","system_id":"levelo_inurba_marseille","lat":43.28266,"lon":5.35064,"is_reserved":false,"is_disabled":false,"rental_uris":{"android":"levelo://app?vid=1c916668-c568-4b71-b746-1baf3cda838b","ios":"levelo://app?vid=1c916668-c568-4b71-b746-1baf3cda838b"},"vehicle_type_id":"4","last_reported":1742732207,"current_range_meters":9600,"station_id":"ce4bhbp2rcd13ifvqerg","pricing_plan_id":"cebpf4jnsgd1na2vs0mg"},{"bike_id":"2032e81a-8d24-4036-9cc6-bf67698b8322","system_id":"levelo_inurba_marseille","lat":43.24181,"lon":5.39732,"is_reserved":false,"is_disabled":false,"rental_uris":{"android":"levelo://app?vid=2032e81a-8d24-4036-9cc6-bf67698b8322","ios":"levelo://app?vid=2032e81a-8d24-4036-9cc6-bf67698b8322"},"vehicle_type_id":"4","last_reported":1742732207,"current_range_meters":9600,"station_id":"ce4bhn12rcd13ifvqgpg","pricing_plan_id":"cebpf4jnsgd1na2vs0mg"},{"bike_id":"f7251d4f-719a-4135-97d0-9da20e9df65c","system_id":"levelo_inurba_marseille","lat":43.28036,"lon":5.36946,"is_reserved":false,"is_disabled":false,"rental_uris":{"android":"levelo://app?vid=f7251d4f-719a-4135-97d0-9da20e9df65c","ios":"levelo://app?vid=f7251d4f-719a-4135-97d0-9da20e9df65c"},"vehicle_type_id":"4","last_reported":1742732207,"current_range_meters":9600,"station_id":"ce4bha12rcd13ifvqef0","pricing_plan_id":"cebpf4jnsgd1na2vs0mg"},{"bike_id":"c5ed8374-5243-413c-b54f-f9bfc910edec","system_id":"levelo_inurba_marseille","lat":43.30561,"lon":5.36551,"is_reserved":false,"is_disabled":false,"rental_uris":{"android":"levelo://app?vid=c5ed8374-5243-413c-b54f-f9bfc910edec","ios":"levelo://app?vid=c5ed8374-5243-413c-b54f-f9bfc910edec"},"vehicle_type_id":"4","last_reported":1742732207,"current_range_meters":9600,"station_id":"ce4bgs12rcd13ifvqcag","pricing_plan_id":"cebpf4jnsgd1na2vs0mg"},{"bike_id":"67391d9b-dc7e-4eb9-a098-0a7f46d8da72","system_id":"levelo_inurba_marseille","lat":43.23137,"lon":5.43738,"is_reserved":false,"is_disabled":false,"rental_uris":{"android":"levelo://app?vid=67391d9b-dc7e-4eb9-a098-0a7f46d8da72","ios":"levelo://app?vid=67391d9b-dc7e-4eb9-a098-0a7f46d8da72"},"vehicle_type_id":"4","last_reported":1742732207,"current_range_meters":9600,"station_id":"ce4bhmp2rcd13ifvqgog","pricing_plan_id":"cebpf4jnsgd1na2vs0mg"},{"bike_id":"39410a51-dabf-47fa-998b-1b8cb1e2ba55","system_id":"levelo_inurba_marseille","lat":43.29532,"lon":5.39036,"is_reserved":false,"is_disabled":false,"rental_uris":{"android":"levelo://app?vid=39410a51-dabf-47fa-998b-1b8cb1e2ba55","ios":"levelo://app?vid=39410a51-dabf-47fa-998b-1b8cb1e2ba55"},"vehicle_type_id":"4","last_reported":1742732207,"current_range_meters":9600,"station_id":"ce4bh3p2rcd13ifvqdp0","pricing_plan_id":"cebpf4jnsgd1na2vs0mg"},{"bike_id":"7b75d449-7c71-498f-b2ce-f002530eba03","system_id":"levelo_inurba_marseille","lat":43.30156,"lon":5.3742,"is_reserved":false,"is_disabled":false,"rental_uris":{"android":"levelo://app?vid=7b75d449-7c71-498f-b2ce-f002530eba03","ios":"levelo://app?vid=7b75d449-7c71-498f-b2ce-f002530eba03"},"vehicle_type_id":"4","last_reported":1742732207,"current_range_meters":10000,"station_id":"ce4bgs92rcd13ifvqcc0","pricing_plan_id":"cebpf4jnsgd1na2vs0mg"},{"bike_id":"751ff1ed-b498-4578-9bd4-943bf6c9d8eb","system_id":"levelo_inurba_marseille","lat":43.23197,"lon":5.35562,"is_reserved":false,"is_disabled":false,"rental_uris":{"android":"levelo://app?vid=751ff1ed-b498-4578-9bd4-943bf6c9d8eb","ios":"levelo://app?vid=751ff1ed-b498-4578-9bd4-943bf6c9d8eb"},"vehicle_type_id":"4","last_reported":1742732207,"current_range_meters":10000,"station_id":"ce4bhu92rcd13ifvqi70","pricing_plan_id":"cebpf4jnsgd1na2vs0mg"},{"bike_id":"ff526df9-66e1-4c8f-88bd-f1fc42df1991","system_id":"levelo_inurba_marseille","lat":43.24175,"lon":5.36402,"is_reserved":false,"is_disabled":false,"rental_uris":{"android":"levelo://app?vid=ff526df9-66e1-4c8f-88bd-f1fc42df1991","ios":"levelo://app?vid=ff526df9-66e1-4c8f-88bd-f1fc42df1991"},"vehicle_type_id":"4","last_reported":1742732207,"current_range_meters":10000,"station_id":"cpo36qri1sfpv3e86is0","pricing_plan_id":"cebpf4jnsgd1na2vs0mg"},{"bike_id":"8d95e366-548c-4d8a-824c-d231193639ff","system_id":"levelo_inurba_marseille","lat":43.30486,"lon":5.37968,"is_reserved":false,"is_disabled":false,"rental_uris":{"android":"levelo://app?vid=8d95e366-548c-4d8a-824c-d231193639ff","ios":"levelo://app?vid=8d95e366-548c-4d8a-824c-d231193639ff"},"vehicle_type_id":"4","last_reported":1742732207,"current_range_meters":10000,"station_id":"","pricing_plan_id":"cebpf4jnsgd1na2vs0mg"},{"bike_id":"52390db3-1658-4d95-8474-5735938b9643","system_id":"levelo_inurba_marseille","lat":43.2622,"lon":5.40461,"is_reserved":false,"is_disabled":false,"rental_uris":{"android":"levelo://app?vid=52390db3-1658-4d95-8474-5735938b9643","ios":"levelo://app?vid=52390db3-1658-4d95-8474-5735938b9643"},"vehicle_type_id":"4","last_reported":1742732207,"current_range_meters":10000,"station_id":"ce4bhmh2rcd13ifvqgmg","pricing_plan_id":"cebpf4jnsgd1na2vs0mg"},{"bike_id":"c7ca0d2c-9e56-4e54-8e6c-8120dbc3e9ba","system_id":"levelo_inurba_marseille","lat":43.23168,"lon":5.43705,"is_reserved":false,"is_disabled":false,"rental_uris":{"android":"levelo://app?vid=c7ca0d2c-9e56-4e54-8e6c-8120dbc3e9ba","ios":"levelo://app?vid=c7ca0d2c-9e56-4e54-8e6c-8120dbc3e9ba"},"vehicle_type_id":"4","last_reported":1742732207,"current_range_meters":10000,"station_id":"ce4bhmp2rcd13ifvqgog","pricing_plan_id":"cebpf4jnsgd1na2vs0mg"},{"bike_id":"da5c8c7e-9688-412a-9fca-ae2a08249333","system_id":"levelo_inurba_marseille","lat":43.29529,"lon":5.39042,"is_reserved":false,"is_disabled":false,"rental_uris":{"android":"levelo://app?vid=da5c8c7e-9688-412a-9fca-ae2a08249333","ios":"levelo://app?vid=da5c8c7e-9688-412a-9fca-ae2a08249333"},"vehicle_type_id":"4","last_reported":1742732207,"current_range_meters":10000,"station_id":"ce4bh3p2rcd13ifvqdp0","pricing_plan_id":"cebpf4jnsgd1na2vs0mg"},{"bike_id":"46c33e53-ef12-48da-9b41-098c7d23a359","system_id":"levelo_inurba_marseille","lat":43.27823,"lon":5.40711,"is_reserved":false,"is_disabled":false,"rental_uris":{"android":"levelo://app?vid=46c33e53-ef12-48da-9b41-098c7d23a359","ios":"levelo://app?vid=46c33e53-ef12-48da-9b41-098c7d23a359"},"vehicle_type_id":"4","last_reported":1742732207,"current_range_meters":10800,"station_id":"ce4bhnh2rcd13ifvqgtg","pricing_plan_id":"cebpf4jnsgd1na2vs0mg"},{"bike_id":"dd5d6d06-0e34-4684-b128-c77a8d50ab86","system_id":"levelo_inurba_marseille","lat":43.30148,"lon":5.37411,"is_reserved":false,"is_disabled":false,"rental_uris":{"android":"levelo://app?vid=dd5d6d06-0e34-4684-b128-c77a8d50ab86","ios":"levelo://app?vid=dd5d6d06-0e34-4684-b128-c77a8d50ab86"},"vehicle_type_id":"4","last_reported":1742732207,"current_range_meters":10800,"station_id":"ce4bgs92rcd13ifvqcc0","pricing_plan_id":"cebpf4jnsgd1na2vs0mg"},{"bike_id":"2fd4d927-0f70-4f4e-9269-8cd3b232bcd8","system_id":"levelo_inurba_marseille","lat":43.25958,"lon":5.40922,"is_reserved":false,"is_disabled":false,"rental_uris":{"android":"levelo://app?vid=2fd4d927-0f70-4f4e-9269-8cd3b232bcd8","ios":"levelo://app?vid=2fd4d927-0f70-4f4e-9269-8cd3b232bcd8"},"vehicle_type_id":"4","last_reported":1742732207,"current_range_meters":10800,"station_id":"ce4bhm92rcd13ifvqglg","pricing_plan_id":"cebpf4jnsgd1na2vs0mg"},{"bike_id":"8baa2ca8-9eb2-4942-ba47-ed90d166dad3","system_id":"levelo_inurba_marseille","lat":43.25312,"lon":5.40208,"is_reserved":false,"is_disabled":true,"rental_uris":{"android":"levelo://app?vid=8baa2ca8-9eb2-4942-ba47-ed90d166dad3","ios":"levelo://app?vid=8baa2ca8-9eb2-4942-ba47-ed90d166dad3"},"vehicle_type_id":"4","last_reported":1742732207,"current_range_meters":10800,"station_id":"","pricing_plan_id":"cebpf4jnsgd1na2vs0mg"},{"bike_id":"f9397cdf-4681-4ebd-9ed2-299c0517f62e","system_id":"levelo_inurba_marseille","lat":43.30281,"lon":5.37692,"is_reserved":false,"is_disabled":false,"rental_uris":{"android":"levelo://app?vid=f9397cdf-4681-4ebd-9ed2-299c0517f62e","ios":"levelo://app?vid=f9397cdf-4681-4ebd-9ed2-299c0517f62e"},"vehicle_type_id":"4","last_reported":1742732207,"current_range_meters":10800,"station_id":"ce4bguh2rcd13ifvqcj0","pricing_plan_id":"cebpf4jnsgd1na2vs0mg"},{"bike_id":"9246380d-9ab3-4787-b89c-2151b4321802","system_id":"levelo_inurba_marseille","lat":43.25517,"lon":5.37655,"is_reserved":false,"is_disabled":false,"rental_uris":{"android":"levelo://app?vid=9246380d-9ab3-4787-b89c-2151b4321802","ios":"levelo://app?vid=9246380d-9ab3-4787-b89c-2151b4321802"},"vehicle_type_id":"4","last_reported":1742732207,"current_range_meters":10800,"station_id":"ce4bhh12rcd13ifvqff0","pricing_plan_id":"cebpf4jnsgd1na2vs0mg"},{"bike_id":"466b52b1-619d-4757-a4a2-7dbcc5ac0e91","system_id":"levelo_inurba_marseille","lat":43.30372,"lon":5.42493,"is_reserved":false,"is_disabled":false,"rental_uris":{"android":"levelo://app?vid=466b52b1-619d-4757-a4a2-7dbcc5ac0e91","ios":"levelo://app?vid=466b52b1-619d-4757-a4a2-7dbcc5ac0e91"},"vehicle_type_id":"4","last_reported":1742732207,"current_range_meters":10800,"station_id":"ce4bhoh2rcd13ifvqh6g","pricing_plan_id":"cebpf4jnsgd1na2vs0mg"},{"bike_id":"a9829aa8-4f8a-432e-93a9-8c3d5b4db07c","system_id":"levelo_inurba_marseille","lat":43.30139,"lon":5.37417,"is_reserved":false,"is_disabled":false,"rental_uris":{"android":"levelo://app?vid=a9829aa8-4f8a-432e-93a9-8c3d5b4db07c","ios":"levelo://app?vid=a9829aa8-4f8a-432e-93a9-8c3d5b4db07c"},"vehicle_type_id":"4","last_reported":1742732207,"current_range_meters":10800,"station_id":"ce4bgs92rcd13ifvqcc0","pricing_plan_id":"cebpf4jnsgd1na2vs0mg"},{"bike_id":"bdd85a69-2526-423f-83bc-580097d3e5b5","system_id":"levelo_inurba_marseille","lat":43.230646,"lon":5.354953,"is_reserved":false,"is_disabled":false,"rental_uris":{"android":"levelo://app?vid=bdd85a69-2526-423f-83bc-580097d3e5b5","ios":"levelo://app?vid=bdd85a69-2526-423f-83bc-580097d3e5b5"},"vehicle_type_id":"4","last_reported":1742732207,"current_range_meters":10800,"station_id":"cpo3342slgdg3j2ifvpg","pricing_plan_id":"cebpf4jnsgd1na2vs0mg"},{"bike_id":"d954b141-3cee-4de0-9c29-d5babd11cd82","system_id":"levelo_inurba_marseille","lat":43.25089,"lon":5.39528,"is_reserved":false,"is_disabled":false,"rental_uris":{"android":"levelo://app?vid=d954b141-3cee-4de0-9c29-d5babd11cd82","ios":"levelo://app?vid=d954b141-3cee-4de0-9c29-d5babd11cd82"},"vehicle_type_id":"4","last_reported":1742732207,"current_range_meters":10800,"station_id":"ce4bhm12rcd13ifvqgkg","pricing_plan_id":"cebpf4jnsgd1na2vs0mg"},{"bike_id":"801ac92f-133f-417e-90ff-e9cdca3569b0","system_id":"levelo_inurba_marseille","lat":43.24054,"lon":5.37651,"is_reserved":false,"is_disabled":false,"rental_uris":{"android":"levelo://app?vid=801ac92f-133f-417e-90ff-e9cdca3569b0","ios":"levelo://app?vid=801ac92f-133f-417e-90ff-e9cdca3569b0"},"vehicle_type_id":"4","last_reported":1742732207,"current_range_meters":10800,"station_id":"","pricing_plan_id":"cebpf4jnsgd1na2vs0mg"},{"bike_id":"196e5527-f8ec-47c9-88d8-c0c49611574a","system_id":"levelo_inurba_marseille","lat":43.2306,"lon":5.355,"is_reserved":false,"is_disabled":false,"rental_uris":{"android":"levelo://app?vid=196e5527-f8ec-47c9-88d8-c0c49611574a","ios":"levelo://app?vid=196e5527-f8ec-47c9-88d8-c0c49611574a"},"vehicle_type_id":"4","last_reported":1742732207,"current_range_meters":10800,"station_id":"cpo3342slgdg3j2ifvpg","pricing_plan_id":"cebpf4jnsgd1na2vs0mg"},{"bike_id":"fc2ec566-90c8-47da-adbe-c5eed174bbfe","system_id":"levelo_inurba_marseille","lat":43.28271,"lon":5.35075,"is_reserved":false,"is_disabled":false,"rental_uris":{"android":"levelo://app?vid=fc2ec566-90c8-47da-adbe-c5eed174bbfe","ios":"levelo://app?vid=fc2ec566-90c8-47da-adbe-c5eed174bbfe"},"vehicle_type_id":"4","last_reported":1742732207,"current_range_meters":10800,"station_id":"ce4bhbp2rcd13ifvqerg","pricing_plan_id":"cebpf4jnsgd1na2vs0mg"},{"bike_id":"f7128881-3250-47b4-940a-0a23e9764e36","system_id":"levelo_inurba_marseille","lat":43.25943,"lon":5.40896,"is_reserved":false,"is_disabled":false,"rental_uris":{"android":"levelo://app?vid=f7128881-3250-47b4-940a-0a23e9764e36","ios":"levelo://app?vid=f7128881-3250-47b4-940a-0a23e9764e36"},"vehicle_type_id":"4","last_reported":1742732207,"current_range_meters":10800,"station_id":"ce4bhm92rcd13ifvqglg","pricing_plan_id":"cebpf4jnsgd1na2vs0mg"},{"bike_id":"80bd481f-76dd-47f5-8a33-ce4926e26fff","system_id":"levelo_inurba_marseille","lat":43.26187,"lon":5.37451,"is_reserved":false,"is_disabled":true,"rental_uris":{"android":"levelo://app?vid=80bd481f-76dd-47f5-8a33-ce4926e26fff","ios":"levelo://app?vid=80bd481f-76dd-47f5-8a33-ce4926e26fff"},"vehicle_type_id":"4","last_reported":1742732207,"current_range_meters":10800,"station_id":"ce4bhgp2rcd13ifvqfc0","pricing_plan_id":"cebpf4jnsgd1na2vs0mg"},{"bike_id":"ba52014b-a246-4894-a2c7-c3fb0c4bebc3","system_id":"levelo_inurba_marseille","lat":43.27847,"lon":5.40713,"is_reserved":false,"is_disabled":false,"rental_uris":{"android":"levelo://app?vid=ba52014b-a246-4894-a2c7-c3fb0c4bebc3","ios":"levelo://app?vid=ba52014b-a246-4894-a2c7-c3fb0c4bebc3"},"vehicle_type_id":"4","last_reported":1742732207,"current_range_meters":11200,"station_id":"ce4bhnh2rcd13ifvqgtg","pricing_plan_id":"cebpf4jnsgd1na2vs0mg"},{"bike_id":"07541760-82c4-4d38-b58c-85ffff07e965","system_id":"levelo_inurba_marseille","lat":43.239579,"lon":5.366322,"is_reserved":false,"is_disabled":false,"rental_uris":{"android":"levelo://app?vid=07541760-82c4-4d38-b58c-85ffff07e965","ios":"levelo://app?vid=07541760-82c4-4d38-b58c-85ffff07e965"},"vehicle_type_id":"4","last_reported":1742732207,"current_range_meters":11200,"station_id":"ce4bhi12rcd13ifvqfp0","pricing_plan_id":"cebpf4jnsgd1na2vs0mg"},{"bike_id":"02d586e9-734d-4421-8b40-3ea1c61cc2d2","system_id":"levelo_inurba_marseille","lat":43.2467,"lon":5.38163,"is_reserved":false,"is_disabled":false,"rental_uris":{"android":"levelo://app?vid=02d586e9-734d-4421-8b40-3ea1c61cc2d2","ios":"levelo://app?vid=02d586e9-734d-4421-8b40-3ea1c61cc2d2"},"vehicle_type_id":"4","last_reported":1742732207,"current_range_meters":11200,"station_id":"ce4bhih2rcd13ifvqfr0","pricing_plan_id":"cebpf4jnsgd1na2vs0mg"},{"bike_id":"08fcbc8a-2ec7-4352-afeb-2a43a18f8a05","system_id":"levelo_inurba_marseille","lat":43.27614,"lon":5.36112,"is_reserved":false,"is_disabled":true,"rental_uris":{"android":"levelo://app?vid=08fcbc8a-2ec7-4352-afeb-2a43a18f8a05","ios":"levelo://app?vid=08fcbc8a-2ec7-4352-afeb-2a43a18f8a05"},"vehicle_type_id":"4","last_reported":1742732207,"current_range_meters":11200,"station_id":"ce4bgj92rcd13ifvqbe0","pricing_plan_id":"cebpf4jnsgd1na2vs0mg"},{"bike_id":"d534031d-e2d6-4b47-97e8-2d5f4806486d","system_id":"levelo_inurba_marseille","lat":43.24178,"lon":5.36402,"is_reserved":false,"is_disabled":false,"rental_uris":{"android":"levelo://app?vid=d534031d-e2d6-4b47-97e8-2d5f4806486d","ios":"levelo://app?vid=d534031d-e2d6-4b47-97e8-2d5f4806486d"},"vehicle_type_id":"4","last_reported":1742732207,"current_range_meters":11200,"station_id":"cpo36qri1sfpv3e86is0","pricing_plan_id":"cebpf4jnsgd1na2vs0mg"},{"bike_id":"4c8a4056-48ac-48f3-aef0-9ae5cc16b399","system_id":"levelo_inurba_marseille","lat":43.27838,"lon":5.40696,"is_reserved":false,"is_disabled":false,"rental_uris":{"android":"levelo://app?vid=4c8a4056-48ac-48f3-aef0-9ae5cc16b399","ios":"levelo://app?vid=4c8a4056-48ac-48f3-aef0-9ae5cc16b399"},"vehicle_type_id":"4","last_reported":1742732207,"current_range_meters":11200,"station_id":"ce4bhnh2rcd13ifvqgtg","pricing_plan_id":"cebpf4jnsgd1na2vs0mg"},{"bike_id":"c51310c5-3908-4a9b-8bc4-45e669e4f7d0","system_id":"levelo_inurba_marseille","lat":43.30534,"lon":5.36734,"is_reserved":false,"is_disabled":false,"rental_uris":{"android":"levelo://app?vid=c51310c5-3908-4a9b-8bc4-45e669e4f7d0","ios":"levelo://app?vid=c51310c5-3908-4a9b-8bc4-45e669e4f7d0"},"vehicle_type_id":"4","last_reported":1742732207,"current_range_meters":11200,"station_id":"ce4bgrp2rcd13ifvqc9g","pricing_plan_id":"cebpf4jnsgd1na2vs0mg"},{"bike_id":"768014d7-bf0d-4cfb-99eb-4eeb0a9e25a2","system_id":"levelo_inurba_marseille","lat":43.30793,"lon":5.3816,"is_reserved":false,"is_disabled":false,"rental_uris":{"android":"levelo://app?vid=768014d7-bf0d-4cfb-99eb-4eeb0a9e25a2","ios":"levelo://app?vid=768014d7-bf0d-4cfb-99eb-4eeb0a9e25a2"},"vehicle_type_id":"4","last_reported":1742732207,"current_range_meters":11200,"station_id":"ce4bgt12rcd13ifvqce0","pricing_plan_id":"cebpf4jnsgd1na2vs0mg"},{"bike_id":"06d0489b-e5ca-41ce-8931-a1d5f7c24b2f","system_id":"levelo_inurba_marseille","lat":43.24803,"lon":5.37459,"is_reserved":false,"is_disabled":false,"rental_uris":{"android":"levelo://app?vid=06d0489b-e5ca-41ce-8931-a1d5f7c24b2f","ios":"levelo://app?vid=06d0489b-e5ca-41ce-8931-a1d5f7c24b2f"},"vehicle_type_id":"4","last_reported":1742732207,"current_range_meters":11200,"station_id":"ce4bhgh2rcd13ifvqfb0","pricing_plan_id":"cebpf4jnsgd1na2vs0mg"},{"bike_id":"d86696ef-a484-4e9c-a82d-65c251e01747","system_id":"levelo_inurba_marseille","lat":43.23153,"lon":5.43722,"is_reserved":false,"is_disabled":false,"rental_uris":{"android":"levelo://app?vid=d86696ef-a484-4e9c-a82d-65c251e01747","ios":"levelo://app?vid=d86696ef-a484-4e9c-a82d-65c251e01747"},"vehicle_type_id":"4","last_reported":1742732207,"current_range_meters":11600,"station_id":"ce4bhmp2rcd13ifvqgog","pricing_plan_id":"cebpf4jnsgd1na2vs0mg"},{"bike_id":"e41bf9f2-5cdf-4a27-9e19-85dd8eb5dce8","system_id":"levelo_inurba_marseille","lat":43.30188,"lon":5.37375,"is_reserved":false,"is_disabled":false,"rental_uris":{"android":"levelo://app?vid=e41bf9f2-5cdf-4a27-9e19-85dd8eb5dce8","ios":"levelo://app?vid=e41bf9f2-5cdf-4a27-9e19-85dd8eb5dce8"},"vehicle_type_id":"4","last_reported":1742732207,"current_range_meters":11600,"station_id":"ce4bgs92rcd13ifvqcc0","pricing_plan_id":"cebpf4jnsgd1na2vs0mg"},{"bike_id":"ef0553a3-6066-43cc-94b6-2f09725c05cb","system_id":"levelo_inurba_marseille","lat":43.2816,"lon":5.42641,"is_reserved":false,"is_disabled":false,"rental_uris":{"android":"levelo://app?vid=ef0553a3-6066-43cc-94b6-2f09725c05cb","ios":"levelo://app?vid=ef0553a3-6066-43cc-94b6-2f09725c05cb"},"vehicle_type_id":"4","last_reported":1742732207,"current_range_meters":11600,"station_id":"ce4bhnh2rcd13ifvqgug","pricing_plan_id":"cebpf4jnsgd1na2vs0mg"},{"bike_id":"da86fac8-177b-447e-bbda-24e435d55c2b","system_id":"levelo_inurba_marseille","lat":43.2951,"lon":5.39405,"is_reserved":false,"is_disabled":false,"rental_uris":{"android":"levelo://app?vid=da86fac8-177b-447e-bbda-24e435d55c2b","ios":"levelo://app?vid=da86fac8-177b-447e-bbda-24e435d55c2b"},"vehicle_type_id":"4","last_reported":1742732207,"current_range_meters":11600,"station_id":"ce4bh292rcd13ifvqdf0","pricing_plan_id":"cebpf4jnsgd1na2vs0mg"},{"bike_id":"7cbfd31c-d553-492c-81cb-8dae7f501a58","system_id":"levelo_inurba_marseille","lat":43.27924,"lon":5.41159,"is_reserved":false,"is_disabled":false,"rental_uris":{"android":"levelo://app?vid=7cbfd31c-d553-492c-81cb-8dae7f501a58","ios":"levelo://app?vid=7cbfd31c-d553-492c-81cb-8dae7f501a58"},"vehicle_type_id":"4","last_reported":1742732207,"current_range_meters":11600,"station_id":"","pricing_plan_id":"cebpf4jnsgd1na2vs0mg"},{"bike_id":"bf971b14-d68a-429e-8d0f-261df5304733","system_id":"levelo_inurba_marseille","lat":43.26944,"lon":5.40251,"is_reserved":false,"is_disabled":false,"rental_uris":{"android":"levelo://app?vid=bf971b14-d68a-429e-8d0f-261df5304733","ios":"levelo://app?vid=bf971b14-d68a-429e-8d0f-261df5304733"},"vehicle_type_id":"4","last_reported":1742732207,"current_range_meters":11600,"station_id":"cjm6bp8fraef2m0cb0m0","pricing_plan_id":"cebpf4jnsgd1na2vs0mg"},{"bike_id":"f657da43-9a05-4822-9c77-ad8671579423","system_id":"levelo_inurba_marseille","lat":43.29574,"lon":5.39975,"is_reserved":false,"is_disabled":true,"rental_uris":{"android":"levelo://app?vid=f657da43-9a05-4822-9c77-ad8671579423","ios":"levelo://app?vid=f657da43-9a05-4822-9c77-ad8671579423"},"vehicle_type_id":"4","last_reported":1742732207,"current_range_meters":11600,"station_id":"ce4bh312rcd13ifvqdj0","pricing_plan_id":"cebpf4jnsgd1na2vs0mg"},{"bike_id":"89b0dcc5-cc3e-42ed-b96e-ed5335c7a50e","system_id":"levelo_inurba_marseille","lat":43.27084,"lon":5.40317,"is_reserved":false,"is_disabled":false,"rental_uris":{"android":"levelo://app?vid=89b0dcc5-cc3e-42ed-b96e-ed5335c7a50e","ios":"levelo://app?vid=89b0dcc5-cc3e-42ed-b96e-ed5335c7a50e"},"vehicle_type_id":"4","last_reported":1742732207,"current_range_meters":11600,"station_id":"","pricing_plan_id":"cebpf4jnsgd1na2vs0mg"},{"bike_id":"74a1c9d7-662a-4893-bd38-c1af8af0a884","system_id":"levelo_inurba_marseille","lat":43.30307,"lon":5.36908,"is_reserved":false,"is_disabled":false,"rental_uris":{"android":"levelo://app?vid=74a1c9d7-662a-4893-bd38-c1af8af0a884","ios":"levelo://app?vid=74a1c9d7-662a-4893-bd38-c1af8af0a884"},"vehicle_type_id":"4","last_reported":1742732207,"current_range_meters":12000,"station_id":"ce4bgqh2rcd13ifvqc5g","pricing_plan_id":"cebpf4jnsgd1na2vs0mg"},{"bike_id":"1650359f-760e-4a41-ab05-5e8897b971d2","system_id":"levelo_inurba_marseille","lat":43.317583,"lon":5.390281,"is_reserved":false,"is_disabled":false,"rental_uris":{"android":"levelo://app?vid=1650359f-760e-4a41-ab05-5e8897b971d2","ios":"levelo://app?vid=1650359f-760e-4a41-ab05-5e8897b971d2"},"vehicle_type_id":"4","last_reported":1742732207,"current_range_meters":12000,"station_id":"ce4bhqp2rcd13ifvqhng","pricing_plan_id":"cebpf4jnsgd1na2vs0mg"},{"bike_id":"a8054457-ef9c-4293-879f-1eab83000740","system_id":"levelo_inurba_marseille","lat":43.24173,"lon":5.36395,"is_reserved":false,"is_disabled":false,"rental_uris":{"android":"levelo://app?vid=a8054457-ef9c-4293-879f-1eab83000740","ios":"levelo://app?vid=a8054457-ef9c-4293-879f-1eab83000740"},"vehicle_type_id":"4","last_reported":1742732207,"current_range_meters":12000,"station_id":"cpo36qri1sfpv3e86is0","pricing_plan_id":"cebpf4jnsgd1na2vs0mg"},{"bike_id":"f8ff41b7-94c3-4164-990c-0c31908da696","system_id":"levelo_inurba_marseille","lat":43.23053,"lon":5.35498,"is_reserved":false,"is_disabled":false,"rental_uris":{"android":"levelo://app?vid=f8ff41b7-94c3-4164-990c-0c31908da696","ios":"levelo://app?vid=f8ff41b7-94c3-4164-990c-0c31908da696"},"vehicle_type_id":"4","last_reported":1742732207,"current_range_meters":12000,"station_id":"cpo3342slgdg3j2ifvpg","pricing_plan_id":"cebpf4jnsgd1na2vs0mg"},{"bike_id":"24557406-9577-45ac-bc35-75daaeb095b5","system_id":"levelo_inurba_marseille","lat":43.27205,"lon":5.39189,"is_reserved":false,"is_disabled":false,"rental_uris":{"android":"levelo://app?vid=24557406-9577-45ac-bc35-75daaeb095b5","ios":"levelo://app?vid=24557406-9577-45ac-bc35-75daaeb095b5"},"vehicle_type_id":"4","last_reported":1742732207,"current_range_meters":12400,"station_id":"ce4bhhp2rcd13ifvqfm0","pricing_plan_id":"cebpf4jnsgd1na2vs0mg"},{"bike_id":"5932f5b5-0803-41be-ad57-2c62bb691349","system_id":"levelo_inurba_marseille","lat":43.24666,"lon":5.38173,"is_reserved":false,"is_disabled":false,"rental_uris":{"android":"levelo://app?vid=5932f5b5-0803-41be-ad57-2c62bb691349","ios":"levelo://app?vid=5932f5b5-0803-41be-ad57-2c62bb691349"},"vehicle_type_id":"4","last_reported":1742732207,"current_range_meters":12400,"station_id":"ce4bhih2rcd13ifvqfr0","pricing_plan_id":"cebpf4jnsgd1na2vs0mg"},{"bike_id":"60bc5ef2-d120-4be4-8b53-10f64fb77c9a","system_id":"levelo_inurba_marseille","lat":43.26563,"lon":5.39026,"is_reserved":false,"is_disabled":false,"rental_uris":{"android":"levelo://app?vid=60bc5ef2-d120-4be4-8b53-10f64fb77c9a","ios":"levelo://app?vid=60bc5ef2-d120-4be4-8b53-10f64fb77c9a"},"vehicle_type_id":"4","last_reported":1742732207,"current_range_meters":12400,"station_id":"ce4bhe12rcd13ifvqf30","pricing_plan_id":"cebpf4jnsgd1na2vs0mg"},{"bike_id":"5a734881-ec8d-4296-a998-b83b7f0c01b5","system_id":"levelo_inurba_marseille","lat":43.28617,"lon":5.35092,"is_reserved":false,"is_disabled":false,"rental_uris":{"android":"levelo://app?vid=5a734881-ec8d-4296-a998-b83b7f0c01b5","ios":"levelo://app?vid=5a734881-ec8d-4296-a998-b83b7f0c01b5"},"vehicle_type_id":"4","last_reported":1742732207,"current_range_meters":12400,"station_id":"ce4bhch2rcd13ifvqeug","pricing_plan_id":"cebpf4jnsgd1na2vs0mg"},{"bike_id":"8ac76298-3375-4b96-8a90-9315b1510fa4","system_id":"levelo_inurba_marseille","lat":43.27833,"lon":5.40703,"is_reserved":false,"is_disabled":true,"rental_uris":{"android":"levelo://app?vid=8ac76298-3375-4b96-8a90-9315b1510fa4","ios":"levelo://app?vid=8ac76298-3375-4b96-8a90-9315b1510fa4"},"vehicle_type_id":"4","last_reported":1742732207,"current_range_meters":12400,"station_id":"ce4bhnh2rcd13ifvqgtg","pricing_plan_id":"cebpf4jnsgd1na2vs0mg"},{"bike_id":"b0d9750a-8007-4292-bbe4-125f34d23ca3","system_id":"levelo_inurba_marseille","lat":43.28436,"lon":5.35007,"is_reserved":false,"is_disabled":false,"rental_uris":{"android":"levelo://app?vid=b0d9750a-8007-4292-bbe4-125f34d23ca3","ios":"levelo://app?vid=b0d9750a-8007-4292-bbe4-125f34d23ca3"},"vehicle_type_id":"4","last_reported":1742732207,"current_range_meters":12400,"station_id":"ce4bhbh2rcd13ifvqepg","pricing_plan_id":"cebpf4jnsgd1na2vs0mg"},{"bike_id":"b7ac545c-ab0e-4569-a87a-8fffd4694e98","system_id":"levelo_inurba_marseille","lat":43.23204,"lon":5.35555,"is_reserved":false,"is_disabled":false,"rental_uris":{"android":"levelo://app?vid=b7ac545c-ab0e-4569-a87a-8fffd4694e98","ios":"levelo://app?vid=b7ac545c-ab0e-4569-a87a-8fffd4694e98"},"vehicle_type_id":"4","last_reported":1742732207,"current_range_meters":12400,"station_id":"ce4bhu92rcd13ifvqi70","pricing_plan_id":"cebpf4jnsgd1na2vs0mg"},{"bike_id":"367dbf5f-240b-4064-b3fd-04c5fc9c2fca","system_id":"levelo_inurba_marseille","lat":43.29547,"lon":5.42287,"is_reserved":false,"is_disabled":false,"rental_uris":{"android":"levelo://app?vid=367dbf5f-240b-4064-b3fd-04c5fc9c2fca","ios":"levelo://app?vid=367dbf5f-240b-4064-b3fd-04c5fc9c2fca"},"vehicle_type_id":"4","last_reported":1742732207,"current_range_meters":12400,"station_id":"ce4bhph2rcd13ifvqhdg","pricing_plan_id":"cebpf4jnsgd1na2vs0mg"},{"bike_id":"40cc34fd-533b-4031-ad83-250455e7b841","system_id":"levelo_inurba_marseille","lat":43.29578,"lon":5.3997,"is_reserved":false,"is_disabled":false,"rental_uris":{"android":"levelo://app?vid=40cc34fd-533b-4031-ad83-250455e7b841","ios":"levelo://app?vid=40cc34fd-533b-4031-ad83-250455e7b841"},"vehicle_type_id":"4","last_reported":1742732207,"current_range_meters":12400,"station_id":"ce4bh312rcd13ifvqdj0","pricing_plan_id":"cebpf4jnsgd1na2vs0mg"},{"bike_id":"2a9265d5-98d2-4b81-a81a-ece189d9611d","system_id":"levelo_inurba_marseille","lat":43.27614,"lon":5.36119,"is_reserved":false,"is_disabled":false,"rental_uris":{"android":"levelo://app?vid=2a9265d5-98d2-4b81-a81a-ece189d9611d","ios":"levelo://app?vid=2a9265d5-98d2-4b81-a81a-ece189d9611d"},"vehicle_type_id":"4","last_reported":1742732207,"current_range_meters":12400,"station_id":"ce4bgj92rcd13ifvqbe0","pricing_plan_id":"cebpf4jnsgd1na2vs0mg"},{"bike_id":"f3abe5d5-7776-4a79-ac09-92898fea91f9","system_id":"levelo_inurba_marseille","lat":43.2418,"lon":5.39723,"is_reserved":false,"is_disabled":false,"rental_uris":{"android":"levelo://app?vid=f3abe5d5-7776-4a79-ac09-92898fea91f9","ios":"levelo://app?vid=f3abe5d5-7776-4a79-ac09-92898fea91f9"},"vehicle_type_id":"4","last_reported":1742732207,"current_range_meters":12800,"station_id":"ce4bhn12rcd13ifvqgpg","pricing_plan_id":"cebpf4jnsgd1na2vs0mg"},{"bike_id":"1542e904-806a-47f4-9338-21788e6e778e","system_id":"levelo_inurba_marseille","lat":43.23964,"lon":5.36638,"is_reserved":false,"is_disabled":false,"rental_uris":{"android":"levelo://app?vid=1542e904-806a-47f4-9338-21788e6e778e","ios":"levelo://app?vid=1542e904-806a-47f4-9338-21788e6e778e"},"vehicle_type_id":"4","last_reported":1742732207,"current_range_meters":12800,"station_id":"ce4bhi12rcd13ifvqfp0","pricing_plan_id":"cebpf4jnsgd1na2vs0mg"},{"bike_id":"052e7d2b-cf85-4188-aab0-d049f0b8e35e","system_id":"levelo_inurba_marseille","lat":43.28411,"lon":5.34986,"is_reserved":false,"is_disabled":false,"rental_uris":{"android":"levelo://app?vid=052e7d2b-cf85-4188-aab0-d049f0b8e35e","ios":"levelo://app?vid=052e7d2b-cf85-4188-aab0-d049f0b8e35e"},"vehicle_type_id":"4","last_reported":1742732207,"current_range_meters":12800,"station_id":"ce4bhbh2rcd13ifvqepg","pricing_plan_id":"cebpf4jnsgd1na2vs0mg"},{"bike_id":"17238c44-02e8-4ba3-abe3-5ae6a9cab49f","system_id":"levelo_inurba_marseille","lat":43.31767,"lon":5.39012,"is_reserved":false,"is_disabled":true,"rental_uris":{"android":"levelo://app?vid=17238c44-02e8-4ba3-abe3-5ae6a9cab49f","ios":"levelo://app?vid=17238c44-02e8-4ba3-abe3-5ae6a9cab49f"},"vehicle_type_id":"4","last_reported":1742732207,"current_range_meters":12800,"station_id":"ce4bhqp2rcd13ifvqhng","pricing_plan_id":"cebpf4jnsgd1na2vs0mg"},{"bike_id":"4baf8c5d-e0fe-4a6c-97de-a71e960c5338","system_id":"levelo_inurba_marseille","lat":43.24172,"lon":5.36402,"is_reserved":false,"is_disabled":false,"rental_uris":{"android":"levelo://app?vid=4baf8c5d-e0fe-4a6c-97de-a71e960c5338","ios":"levelo://app?vid=4baf8c5d-e0fe-4a6c-97de-a71e960c5338"},"vehicle_type_id":"4","last_reported":1742732207,"current_range_meters":12800,"station_id":"cpo36qri1sfpv3e86is0","pricing_plan_id":"cebpf4jnsgd1na2vs0mg"},{"bike_id":"4e7cd645-170c-4202-8f39-1f7a38cabd69","system_id":"levelo_inurba_marseille","lat":43.29271,"lon":5.38454,"is_reserved":false,"is_disabled":false,"rental_uris":{"android":"levelo://app?vid=4e7cd645-170c-4202-8f39-1f7a38cabd69","ios":"levelo://app?vid=4e7cd645-170c-4202-8f39-1f7a38cabd69"},"vehicle_type_id":"4","last_reported":1742732207,"current_range_meters":12800,"station_id":"ce4bh692rcd13ifvqea0","pricing_plan_id":"cebpf4jnsgd1na2vs0mg"},{"bike_id":"901ad870-67db-4efd-a3cc-2d5ce9510114","system_id":"levelo_inurba_marseille","lat":43.26839,"lon":5.394,"is_reserved":false,"is_disabled":false,"rental_uris":{"android":"levelo://app?vid=901ad870-67db-4efd-a3cc-2d5ce9510114","ios":"levelo://app?vid=901ad870-67db-4efd-a3cc-2d5ce9510114"},"vehicle_type_id":"4","last_reported":1742732207,"current_range_meters":12800,"station_id":"ce4bhh12rcd13ifvqfg0","pricing_plan_id":"cebpf4jnsgd1na2vs0mg"},{"bike_id":"18f48818-fd9b-4503-928e-6e8911d8f026","system_id":"levelo_inurba_marseille","lat":43.25865,"lon":5.399,"is_reserved":false,"is_disabled":false,"rental_uris":{"android":"levelo://app?vid=18f48818-fd9b-4503-928e-6e8911d8f026","ios":"levelo://app?vid=18f48818-fd9b-4503-928e-6e8911d8f026"},"vehicle_type_id":"4","last_reported":1742732207,"current_range_meters":12400,"station_id":"ce4bhl92rcd13ifvqghg","pricing_plan_id":"cebpf4jnsgd1na2vs0mg"},{"bike_id":"e1087ef4-586a-4f51-93d8-b69f4ad2c702","system_id":"levelo_inurba_marseille","lat":43.23179,"lon":5.4,"is_reserved":false,"is_disabled":false,"rental_uris":{"android":"levelo://app?vid=e1087ef4-586a-4f51-93d8-b69f4ad2c702","ios":"levelo://app?vid=e1087ef4-586a-4f51-93d8-b69f4ad2c702"},"vehicle_type_id":"4","last_reported":1742732207,"current_range_meters":12800,"station_id":"ce4bhn12rcd13ifvqgqg","pricing_plan_id":"cebpf4jnsgd1na2vs0mg"},{"bike_id":"e2db2efe-52a1-42c0-8cb9-4fb309cd4d6e","system_id":"levelo_inurba_marseille","lat":43.32634,"lon":5.41013,"is_reserved":false,"is_disabled":false,"rental_uris":{"android":"levelo://app?vid=e2db2efe-52a1-42c0-8cb9-4fb309cd4d6e","ios":"levelo://app?vid=e2db2efe-52a1-42c0-8cb9-4fb309cd4d6e"},"vehicle_type_id":"4","last_reported":1742732207,"current_range_meters":12800,"station_id":"ce4bhpp2rcd13ifvqhgg","pricing_plan_id":"cebpf4jnsgd1na2vs0mg"},{"bike_id":"e77d191c-b6c2-4af6-8798-46f31e387227","system_id":"levelo_inurba_marseille","lat":43.301471,"lon":5.374241,"is_reserved":false,"is_disabled":false,"rental_uris":{"android":"levelo://app?vid=e77d191c-b6c2-4af6-8798-46f31e387227","ios":"levelo://app?vid=e77d191c-b6c2-4af6-8798-46f31e387227"},"vehicle_type_id":"4","last_reported":1742732207,"current_range_meters":13600,"station_id":"ce4bgk12rcd13ifvqbi0","pricing_plan_id":"cebpf4jnsgd1na2vs0mg"},{"bike_id":"034718de-67f9-4b03-9b14-13a8fc4858ac","system_id":"levelo_inurba_marseille","lat":43.23187,"lon":5.35561,"is_reserved":false,"is_disabled":false,"rental_uris":{"android":"levelo://app?vid=034718de-67f9-4b03-9b14-13a8fc4858ac","ios":"levelo://app?vid=034718de-67f9-4b03-9b14-13a8fc4858ac"},"vehicle_type_id":"4","last_reported":1742732207,"current_range_meters":13600,"station_id":"ce4bhu92rcd13ifvqi70","pricing_plan_id":"cebpf4jnsgd1na2vs0mg"},{"bike_id":"e2b68c00-ea55-4d0f-ae98-6403b351276c","system_id":"levelo_inurba_marseille","lat":43.23047,"lon":5.35505,"is_reserved":false,"is_disabled":false,"rental_uris":{"android":"levelo://app?vid=e2b68c00-ea55-4d0f-ae98-6403b351276c","ios":"levelo://app?vid=e2b68c00-ea55-4d0f-ae98-6403b351276c"},"vehicle_type_id":"4","last_reported":1742732207,"current_range_meters":13600,"station_id":"cpo3342slgdg3j2ifvpg","pricing_plan_id":"cebpf4jnsgd1na2vs0mg"},{"bike_id":"41a0915b-da00-4415-8eef-7bc3e72db1ea","system_id":"levelo_inurba_marseille","lat":43.29897,"lon":5.43676,"is_reserved":false,"is_disabled":false,"rental_uris":{"android":"levelo://app?vid=41a0915b-da00-4415-8eef-7bc3e72db1ea","ios":"levelo://app?vid=41a0915b-da00-4415-8eef-7bc3e72db1ea"},"vehicle_type_id":"4","last_reported":1742732207,"current_range_meters":14000,"station_id":"ce4bhpp2rcd13ifvqhfg","pricing_plan_id":"cebpf4jnsgd1na2vs0mg"},{"bike_id":"f52c7f07-7a6b-4dbc-aeae-9fa998834082","system_id":"levelo_inurba_marseille","lat":43.32304,"lon":5.37548,"is_reserved":false,"is_disabled":false,"rental_uris":{"android":"levelo://app?vid=f52c7f07-7a6b-4dbc-aeae-9fa998834082","ios":"levelo://app?vid=f52c7f07-7a6b-4dbc-aeae-9fa998834082"},"vehicle_type_id":"4","last_reported":1742732207,"current_range_meters":14000,"station_id":"","pricing_plan_id":"cebpf4jnsgd1na2vs0mg"},{"bike_id":"8f8c1ed6-2a15-471a-96dc-c40809fb0036","system_id":"levelo_inurba_marseille","lat":43.25863,"lon":5.39898,"is_reserved":false,"is_disabled":false,"rental_uris":{"android":"levelo://app?vid=8f8c1ed6-2a15-471a-96dc-c40809fb0036","ios":"levelo://app?vid=8f8c1ed6-2a15-471a-96dc-c40809fb0036"},"vehicle_type_id":"4","last_reported":1742732207,"current_range_meters":14000,"station_id":"ce4bhl92rcd13ifvqghg","pricing_plan_id":"cebpf4jnsgd1na2vs0mg"},{"bike_id":"eb2d78c6-c4da-41b8-b282-67c7dbb3fbc0","system_id":"levelo_inurba_marseille","lat":43.30185,"lon":5.36618,"is_reserved":false,"is_disabled":false,"rental_uris":{"android":"levelo://app?vid=eb2d78c6-c4da-41b8-b282-67c7dbb3fbc0","ios":"levelo://app?vid=eb2d78c6-c4da-41b8-b282-67c7dbb3fbc0"},"vehicle_type_id":"4","last_reported":1742732207,"current_range_meters":14000,"station_id":"ce4bgrh2rcd13ifvqc8g","pricing_plan_id":"cebpf4jnsgd1na2vs0mg"},{"bike_id":"8491ef00-6f7c-449d-a192-b3f615cf422a","system_id":"levelo_inurba_marseille","lat":43.28613,"lon":5.35118,"is_reserved":false,"is_disabled":false,"rental_uris":{"android":"levelo://app?vid=8491ef00-6f7c-449d-a192-b3f615cf422a","ios":"levelo://app?vid=8491ef00-6f7c-449d-a192-b3f615cf422a"},"vehicle_type_id":"4","last_reported":1742732207,"current_range_meters":14000,"station_id":"ce4bhch2rcd13ifvqeug","pricing_plan_id":"cebpf4jnsgd1na2vs0mg"},{"bike_id":"8522f09e-029b-4ad4-874d-178efb07c438","system_id":"levelo_inurba_marseille","lat":43.27384,"lon":5.3626,"is_reserved":false,"is_disabled":false,"rental_uris":{"android":"levelo://app?vid=8522f09e-029b-4ad4-874d-178efb07c438","ios":"levelo://app?vid=8522f09e-029b-4ad4-874d-178efb07c438"},"vehicle_type_id":"4","last_reported":1742732207,"current_range_meters":14400,"station_id":"ce4bhbh2rcd13ifvqeo0","pricing_plan_id":"cebpf4jnsgd1na2vs0mg"},{"bike_id":"209e5542-ac08-4009-abf5-f83bef8badc8","system_id":"levelo_inurba_marseille","lat":43.2397,"lon":5.36631,"is_reserved":false,"is_disabled":false,"rental_uris":{"android":"levelo://app?vid=209e5542-ac08-4009-abf5-f83bef8badc8","ios":"levelo://app?vid=209e5542-ac08-4009-abf5-f83bef8badc8"},"vehicle_type_id":"4","last_reported":1742732207,"current_range_meters":14400,"station_id":"ce4bhi12rcd13ifvqfp0","pricing_plan_id":"cebpf4jnsgd1na2vs0mg"},{"bike_id":"aaf21abd-4df0-4de8-915d-555a82a1dfef","system_id":"levelo_inurba_marseille","lat":43.28403,"lon":5.3498,"is_reserved":false,"is_disabled":false,"rental_uris":{"android":"levelo://app?vid=aaf21abd-4df0-4de8-915d-555a82a1dfef","ios":"levelo://app?vid=aaf21abd-4df0-4de8-915d-555a82a1dfef"},"vehicle_type_id":"4","last_reported":1742732207,"current_range_meters":14400,"station_id":"ce4bhbh2rcd13ifvqepg","pricing_plan_id":"cebpf4jnsgd1na2vs0mg"},{"bike_id":"a534fce7-6567-44b8-a03f-b3ad9dbdd185","system_id":"levelo_inurba_marseille","lat":43.28611,"lon":5.37069,"is_reserved":false,"is_disabled":false,"rental_uris":{"android":"levelo://app?vid=a534fce7-6567-44b8-a03f-b3ad9dbdd185","ios":"levelo://app?vid=a534fce7-6567-44b8-a03f-b3ad9dbdd185"},"vehicle_type_id":"4","last_reported":1742732207,"current_range_meters":14400,"station_id":"ce4bht12rcd13ifvqi60","pricing_plan_id":"cebpf4jnsgd1na2vs0mg"},{"bike_id":"587c4b09-c6c3-4755-8011-d820e3904490","system_id":"levelo_inurba_marseille","lat":43.23959,"lon":5.36631,"is_reserved":false,"is_disabled":false,"rental_uris":{"android":"levelo://app?vid=587c4b09-c6c3-4755-8011-d820e3904490","ios":"levelo://app?vid=587c4b09-c6c3-4755-8011-d820e3904490"},"vehicle_type_id":"4","last_reported":1742732207,"current_range_meters":14400,"station_id":"ce4bhi12rcd13ifvqfp0","pricing_plan_id":"cebpf4jnsgd1na2vs0mg"},{"bike_id":"a8b3cb95-f059-47ac-b672-1c7197ca6c51","system_id":"levelo_inurba_marseille","lat":43.28154,"lon":5.42652,"is_reserved":false,"is_disabled":false,"rental_uris":{"android":"levelo://app?vid=a8b3cb95-f059-47ac-b672-1c7197ca6c51","ios":"levelo://app?vid=a8b3cb95-f059-47ac-b672-1c7197ca6c51"},"vehicle_type_id":"4","last_reported":1742732207,"current_range_meters":14800,"station_id":"ce4bhnh2rcd13ifvqgug","pricing_plan_id":"cebpf4jnsgd1na2vs0mg"},{"bike_id":"377a6ded-447d-44e1-9a37-71e04ef56b69","system_id":"levelo_inurba_marseille","lat":43.27376,"lon":5.36254,"is_reserved":false,"is_disabled":false,"rental_uris":{"android":"levelo://app?vid=377a6ded-447d-44e1-9a37-71e04ef56b69","ios":"levelo://app?vid=377a6ded-447d-44e1-9a37-71e04ef56b69"},"vehicle_type_id":"4","last_reported":1742732207,"current_range_meters":14800,"station_id":"ce4bhbh2rcd13ifvqeo0","pricing_plan_id":"cebpf4jnsgd1na2vs0mg"},{"bike_id":"9bd66c75-2d6b-4709-91e0-c8130478cce4","system_id":"levelo_inurba_marseille","lat":43.25935,"lon":5.40909,"is_reserved":false,"is_disabled":false,"rental_uris":{"android":"levelo://app?vid=9bd66c75-2d6b-4709-91e0-c8130478cce4","ios":"levelo://app?vid=9bd66c75-2d6b-4709-91e0-c8130478cce4"},"vehicle_type_id":"4","last_reported":1742732207,"current_range_meters":14800,"station_id":"ce4bhm92rcd13ifvqglg","pricing_plan_id":"cebpf4jnsgd1na2vs0mg"},{"bike_id":"24b77e8f-4e9e-4342-9950-404af23a4ef7","system_id":"levelo_inurba_marseille","lat":43.23959,"lon":5.36631,"is_reserved":false,"is_disabled":false,"rental_uris":{"android":"levelo://app?vid=24b77e8f-4e9e-4342-9950-404af23a4ef7","ios":"levelo://app?vid=24b77e8f-4e9e-4342-9950-404af23a4ef7"},"vehicle_type_id":"4","last_reported":1742732207,"current_range_meters":14800,"station_id":"ce4bhi12rcd13ifvqfp0","pricing_plan_id":"cebpf4jnsgd1na2vs0mg"},{"bike_id":"282809df-29b4-411f-b718-322266f75751","system_id":"levelo_inurba_marseille","lat":43.23058,"lon":5.35488,"is_reserved":false,"is_disabled":false,"rental_uris":{"android":"levelo://app?vid=282809df-29b4-411f-b718-322266f75751","ios":"levelo://app?vid=282809df-29b4-411f-b718-322266f75751"},"vehicle_type_id":"4","last_reported":1742732207,"current_range_meters":14800,"station_id":"cpo3342slgdg3j2ifvpg","pricing_plan_id":"cebpf4jnsgd1na2vs0mg"},{"bike_id":"6e6f2292-d953-4193-b160-26f59d7cec7f","system_id":"levelo_inurba_marseille","lat":43.2863,"lon":5.35097,"is_reserved":false,"is_disabled":false,"rental_uris":{"android":"levelo://app?vid=6e6f2292-d953-4193-b160-26f59d7cec7f","ios":"levelo://app?vid=6e6f2292-d953-4193-b160-26f59d7cec7f"},"vehicle_type_id":"4","last_reported":1742732207,"current_range_meters":14800,"station_id":"ce4bhch2rcd13ifvqeug","pricing_plan_id":"cebpf4jnsgd1na2vs0mg"},{"bike_id":"c3362549-d37d-47ba-9e62-5e06d74774a8","system_id":"levelo_inurba_marseille","lat":43.232,"lon":5.35548,"is_reserved":false,"is_disabled":false,"rental_uris":{"android":"levelo://app?vid=c3362549-d37d-47ba-9e62-5e06d74774a8","ios":"levelo://app?vid=c3362549-d37d-47ba-9e62-5e06d74774a8"},"vehicle_type_id":"4","last_reported":1742732207,"current_range_meters":14800,"station_id":"ce4bhu92rcd13ifvqi70","pricing_plan_id":"cebpf4jnsgd1na2vs0mg"},{"bike_id":"f49b02de-0c7f-4486-a445-cc9714123d15","system_id":"levelo_inurba_marseille","lat":43.31496,"lon":5.37319,"is_reserved":false,"is_disabled":false,"rental_uris":{"android":"levelo://app?vid=f49b02de-0c7f-4486-a445-cc9714123d15","ios":"levelo://app?vid=f49b02de-0c7f-4486-a445-cc9714123d15"},"vehicle_type_id":"4","last_reported":1742732207,"current_range_meters":14800,"station_id":"ce4bgt12rcd13ifvqcd0","pricing_plan_id":"cebpf4jnsgd1na2vs0mg"},{"bike_id":"ceeb5ac5-5762-4f72-8fc3-f407399fe8aa","system_id":"levelo_inurba_marseille","lat":43.2781,"lon":5.4071,"is_reserved":false,"is_disabled":false,"rental_uris":{"android":"levelo://app?vid=ceeb5ac5-5762-4f72-8fc3-f407399fe8aa","ios":"levelo://app?vid=ceeb5ac5-5762-4f72-8fc3-f407399fe8aa"},"vehicle_type_id":"4","last_reported":1742732207,"current_range_meters":14800,"station_id":"ce4bhnh2rcd13ifvqgtg","pricing_plan_id":"cebpf4jnsgd1na2vs0mg"},{"bike_id":"b0412563-bdfd-4056-9ff8-db1bf9f2dd0a","system_id":"levelo_inurba_marseille","lat":43.23975,"lon":5.36625,"is_reserved":false,"is_disabled":false,"rental_uris":{"android":"levelo://app?vid=b0412563-bdfd-4056-9ff8-db1bf9f2dd0a","ios":"levelo://app?vid=b0412563-bdfd-4056-9ff8-db1bf9f2dd0a"},"vehicle_type_id":"4","last_reported":1742732207,"current_range_meters":14800,"station_id":"ce4bhi12rcd13ifvqfp0","pricing_plan_id":"cebpf4jnsgd1na2vs0mg"},{"bike_id":"cb7bdd2b-3379-4224-b596-67e0720cb0fa","system_id":"levelo_inurba_marseille","lat":43.233958,"lon":5.358974,"is_reserved":false,"is_disabled":false,"rental_uris":{"android":"levelo://app?vid=cb7bdd2b-3379-4224-b596-67e0720cb0fa","ios":"levelo://app?vid=cb7bdd2b-3379-4224-b596-67e0720cb0fa"},"vehicle_type_id":"4","last_reported":1742732207,"current_range_meters":15200,"station_id":"cpo3342slgdg3j2ifvpg","pricing_plan_id":"cebpf4jnsgd1na2vs0mg"},{"bike_id":"34207fc9-5939-4edc-8d37-fffbb14f3eec","system_id":"levelo_inurba_marseille","lat":43.30765,"lon":5.38274,"is_reserved":false,"is_disabled":false,"rental_uris":{"android":"levelo://app?vid=34207fc9-5939-4edc-8d37-fffbb14f3eec","ios":"levelo://app?vid=34207fc9-5939-4edc-8d37-fffbb14f3eec"},"vehicle_type_id":"4","last_reported":1742732207,"current_range_meters":15200,"station_id":"","pricing_plan_id":"cebpf4jnsgd1na2vs0mg"},{"bike_id":"362ce256-d873-44d5-8d0c-8eb3060da6b1","system_id":"levelo_inurba_marseille","lat":43.2816,"lon":5.42655,"is_reserved":false,"is_disabled":false,"rental_uris":{"android":"levelo://app?vid=362ce256-d873-44d5-8d0c-8eb3060da6b1","ios":"levelo://app?vid=362ce256-d873-44d5-8d0c-8eb3060da6b1"},"vehicle_type_id":"4","last_reported":1742732207,"current_range_meters":15200,"station_id":"ce4bhnh2rcd13ifvqgug","pricing_plan_id":"cebpf4jnsgd1na2vs0mg"},{"bike_id":"ff351ddb-c4d8-4077-812d-6a160b8d069e","system_id":"levelo_inurba_marseille","lat":43.30714,"lon":5.37517,"is_reserved":false,"is_disabled":false,"rental_uris":{"android":"levelo://app?vid=ff351ddb-c4d8-4077-812d-6a160b8d069e","ios":"levelo://app?vid=ff351ddb-c4d8-4077-812d-6a160b8d069e"},"vehicle_type_id":"4","last_reported":1742732207,"current_range_meters":15200,"station_id":"","pricing_plan_id":"cebpf4jnsgd1na2vs0mg"},{"bike_id":"b4033be0-5b35-45ca-9979-c7890f6c888e","system_id":"levelo_inurba_marseille","lat":43.311677,"lon":5.387185,"is_reserved":false,"is_disabled":false,"rental_uris":{"android":"levelo://app?vid=b4033be0-5b35-45ca-9979-c7890f6c888e","ios":"levelo://app?vid=b4033be0-5b35-45ca-9979-c7890f6c888e"},"vehicle_type_id":"4","last_reported":1742732207,"current_range_meters":15200,"station_id":"ce4bh612rcd13ifvqe6g","pricing_plan_id":"cebpf4jnsgd1na2vs0mg"},{"bike_id":"aa36a9d0-e240-41bb-a6d1-c22eaf5a690d","system_id":"levelo_inurba_marseille","lat":43.27614,"lon":5.36112,"is_reserved":false,"is_disabled":false,"rental_uris":{"android":"levelo://app?vid=aa36a9d0-e240-41bb-a6d1-c22eaf5a690d","ios":"levelo://app?vid=aa36a9d0-e240-41bb-a6d1-c22eaf5a690d"},"vehicle_type_id":"4","last_reported":1742732207,"current_range_meters":15200,"station_id":"ce4bgj92rcd13ifvqbe0","pricing_plan_id":"cebpf4jnsgd1na2vs0mg"},{"bike_id":"190b2064-fd76-48bb-8245-b597993b1043","system_id":"levelo_inurba_marseille","lat":43.27836,"lon":5.40677,"is_reserved":false,"is_disabled":false,"rental_uris":{"android":"levelo://app?vid=190b2064-fd76-48bb-8245-b597993b1043","ios":"levelo://app?vid=190b2064-fd76-48bb-8245-b597993b1043"},"vehicle_type_id":"4","last_reported":1742732207,"current_range_meters":15200,"station_id":"ce4bhnh2rcd13ifvqgtg","pricing_plan_id":"cebpf4jnsgd1na2vs0mg"},{"bike_id":"b72c88b3-1945-44b5-bf7b-ae4fb01fb317","system_id":"levelo_inurba_marseille","lat":43.32375,"lon":5.38888,"is_reserved":false,"is_disabled":false,"rental_uris":{"android":"levelo://app?vid=b72c88b3-1945-44b5-bf7b-ae4fb01fb317","ios":"levelo://app?vid=b72c88b3-1945-44b5-bf7b-ae4fb01fb317"},"vehicle_type_id":"4","last_reported":1742732207,"current_range_meters":15200,"station_id":"ce4bhqp2rcd13ifvqhog","pricing_plan_id":"cebpf4jnsgd1na2vs0mg"},{"bike_id":"2ca0e00a-5797-4fdf-8ea8-686805ca80c9","system_id":"levelo_inurba_marseille","lat":43.30959,"lon":5.39005,"is_reserved":false,"is_disabled":true,"rental_uris":{"android":"levelo://app?vid=2ca0e00a-5797-4fdf-8ea8-686805ca80c9","ios":"levelo://app?vid=2ca0e00a-5797-4fdf-8ea8-686805ca80c9"},"vehicle_type_id":"4","last_reported":1742732207,"current_range_meters":16000,"station_id":"ce4bgup2rcd13ifvqco0","pricing_plan_id":"cebpf4jnsgd1na2vs0mg"},{"bike_id":"73f24004-486a-42ce-8b4c-437345158989","system_id":"levelo_inurba_marseille","lat":43.26047,"lon":5.40887,"is_reserved":false,"is_disabled":false,"rental_uris":{"android":"levelo://app?vid=73f24004-486a-42ce-8b4c-437345158989","ios":"levelo://app?vid=73f24004-486a-42ce-8b4c-437345158989"},"vehicle_type_id":"4","last_reported":1742732207,"current_range_meters":16000,"station_id":"ce4bhm92rcd13ifvqglg","pricing_plan_id":"cebpf4jnsgd1na2vs0mg"},{"bike_id":"f52d578c-2e92-468c-8d0d-6b48faf8734d","system_id":"levelo_inurba_marseille","lat":43.29869,"lon":5.38908,"is_reserved":false,"is_disabled":true,"rental_uris":{"android":"levelo://app?vid=f52d578c-2e92-468c-8d0d-6b48faf8734d","ios":"levelo://app?vid=f52d578c-2e92-468c-8d0d-6b48faf8734d"},"vehicle_type_id":"4","last_reported":1742732207,"current_range_meters":16000,"station_id":"ce4bh392rcd13ifvqdl0","pricing_plan_id":"cebpf4jnsgd1na2vs0mg"},{"bike_id":"87e86a8c-06a5-4c7c-ad4c-f947c9935fa5","system_id":"levelo_inurba_marseille","lat":43.23188,"lon":5.3999,"is_reserved":false,"is_disabled":false,"rental_uris":{"android":"levelo://app?vid=87e86a8c-06a5-4c7c-ad4c-f947c9935fa5","ios":"levelo://app?vid=87e86a8c-06a5-4c7c-ad4c-f947c9935fa5"},"vehicle_type_id":"4","last_reported":1742732207,"current_range_meters":16000,"station_id":"ce4bhn12rcd13ifvqgqg","pricing_plan_id":"cebpf4jnsgd1na2vs0mg"},{"bike_id":"8db8e94c-5c15-452d-8525-723b319c3c7c","system_id":"levelo_inurba_marseille","lat":43.28868,"lon":5.39329,"is_reserved":false,"is_disabled":true,"rental_uris":{"android":"levelo://app?vid=8db8e94c-5c15-452d-8525-723b319c3c7c","ios":"levelo://app?vid=8db8e94c-5c15-452d-8525-723b319c3c7c"},"vehicle_type_id":"4","last_reported":1742732207,"current_range_meters":16000,"station_id":"ce4bh2p2rcd13ifvqdi0","pricing_plan_id":"cebpf4jnsgd1na2vs0mg"},{"bike_id":"bd9efa2d-e510-4373-b156-7632395cd83f","system_id":"levelo_inurba_marseille","lat":43.23963,"lon":5.36632,"is_reserved":false,"is_disabled":false,"rental_uris":{"android":"levelo://app?vid=bd9efa2d-e510-4373-b156-7632395cd83f","ios":"levelo://app?vid=bd9efa2d-e510-4373-b156-7632395cd83f"},"vehicle_type_id":"4","last_reported":1742732207,"current_range_meters":16000,"station_id":"ce4bhi12rcd13ifvqfp0","pricing_plan_id":"cebpf4jnsgd1na2vs0mg"},{"bike_id":"3552c022-01fb-4fdc-a14d-7739c527d240","system_id":"levelo_inurba_marseille","lat":43.28265,"lon":5.35071,"is_reserved":false,"is_disabled":false,"rental_uris":{"android":"levelo://app?vid=3552c022-01fb-4fdc-a14d-7739c527d240","ios":"levelo://app?vid=3552c022-01fb-4fdc-a14d-7739c527d240"},"vehicle_type_id":"4","last_reported":1742732207,"current_range_meters":16000,"station_id":"ce4bhbp2rcd13ifvqerg","pricing_plan_id":"cebpf4jnsgd1na2vs0mg"},{"bike_id":"dad01855-ced3-4b12-8441-bc13853e2616","system_id":"levelo_inurba_marseille","lat":43.25848,"lon":5.39473,"is_reserved":false,"is_disabled":false,"rental_uris":{"android":"levelo://app?vid=dad01855-ced3-4b12-8441-bc13853e2616","ios":"levelo://app?vid=dad01855-ced3-4b12-8441-bc13853e2616"},"vehicle_type_id":"4","last_reported":1742732207,"current_range_meters":16400,"station_id":"ce4bhip2rcd13ifvqft0","pricing_plan_id":"cebpf4jnsgd1na2vs0mg"},{"bike_id":"9cbc1949-0d4a-4c0d-928c-72d26191e6c2","system_id":"levelo_inurba_marseille","lat":43.28415,"lon":5.34998,"is_reserved":false,"is_disabled":false,"rental_uris":{"android":"levelo://app?vid=9cbc1949-0d4a-4c0d-928c-72d26191e6c2","ios":"levelo://app?vid=9cbc1949-0d4a-4c0d-928c-72d26191e6c2"},"vehicle_type_id":"4","last_reported":1742732207,"current_range_meters":16400,"station_id":"ce4bhbh2rcd13ifvqepg","pricing_plan_id":"cebpf4jnsgd1na2vs0mg"},{"bike_id":"7ac34af0-4560-4a02-83b4-f3a31341d559","system_id":"levelo_inurba_marseille","lat":43.260656,"lon":5.393949,"is_reserved":false,"is_disabled":false,"rental_uris":{"android":"levelo://app?vid=7ac34af0-4560-4a02-83b4-f3a31341d559","ios":"levelo://app?vid=7ac34af0-4560-4a02-83b4-f3a31341d559"},"vehicle_type_id":"4","last_reported":1742732207,"current_range_meters":16400,"station_id":"ce4bhh92rcd13ifvqfj0","pricing_plan_id":"cebpf4jnsgd1na2vs0mg"},{"bike_id":"1997b10d-1d35-44d3-85c4-29c84df0623c","system_id":"levelo_inurba_marseille","lat":43.24073,"lon":5.37772,"is_reserved":false,"is_disabled":false,"rental_uris":{"android":"levelo://app?vid=1997b10d-1d35-44d3-85c4-29c84df0623c","ios":"levelo://app?vid=1997b10d-1d35-44d3-85c4-29c84df0623c"},"vehicle_type_id":"4","last_reported":1742732207,"current_range_meters":16400,"station_id":"ce4bhnp2rcd13ifvqgvg","pricing_plan_id":"cebpf4jnsgd1na2vs0mg"},{"bike_id":"6da13cbe-fe0b-42ba-8b7f-69afa665c6dc","system_id":"levelo_inurba_marseille","lat":43.30328,"lon":5.37578,"is_reserved":false,"is_disabled":false,"rental_uris":{"android":"levelo://app?vid=6da13cbe-fe0b-42ba-8b7f-69afa665c6dc","ios":"levelo://app?vid=6da13cbe-fe0b-42ba-8b7f-69afa665c6dc"},"vehicle_type_id":"4","last_reported":1742732207,"current_range_meters":16400,"station_id":"","pricing_plan_id":"cebpf4jnsgd1na2vs0mg"},{"bike_id":"2bdcb02f-0a83-4b19-a00f-dea4f6823ca0","system_id":"levelo_inurba_marseille","lat":43.2985,"lon":5.36293,"is_reserved":false,"is_disabled":false,"rental_uris":{"android":"levelo://app?vid=2bdcb02f-0a83-4b19-a00f-dea4f6823ca0","ios":"levelo://app?vid=2bdcb02f-0a83-4b19-a00f-dea4f6823ca0"},"vehicle_type_id":"4","last_reported":1742732207,"current_range_meters":16400,"station_id":"ce4bgpp2rcd13ifvqc3g","pricing_plan_id":"cebpf4jnsgd1na2vs0mg"},{"bike_id":"6f4fdbef-52a4-4cc1-bc2f-3b06584babdd","system_id":"levelo_inurba_marseille","lat":43.32962,"lon":5.403395,"is_reserved":false,"is_disabled":false,"rental_uris":{"android":"levelo://app?vid=6f4fdbef-52a4-4cc1-bc2f-3b06584babdd","ios":"levelo://app?vid=6f4fdbef-52a4-4cc1-bc2f-3b06584babdd"},"vehicle_type_id":"4","last_reported":1742732207,"current_range_meters":16800,"station_id":"ce4bgt92rcd13ifvqcg0","pricing_plan_id":"cebpf4jnsgd1na2vs0mg"},{"bike_id":"f74b13c7-053c-4b7a-983a-625dd03e6fbb","system_id":"levelo_inurba_marseille","lat":43.23195,"lon":5.35549,"is_reserved":false,"is_disabled":false,"rental_uris":{"android":"levelo://app?vid=f74b13c7-053c-4b7a-983a-625dd03e6fbb","ios":"levelo://app?vid=f74b13c7-053c-4b7a-983a-625dd03e6fbb"},"vehicle_type_id":"4","last_reported":1742732207,"current_range_meters":16800,"station_id":"ce4bhu92rcd13ifvqi70","pricing_plan_id":"cebpf4jnsgd1na2vs0mg"},{"bike_id":"3a43a6a6-9b6a-45b6-a2b9-4c8ede877505","system_id":"levelo_inurba_marseille","lat":43.23959,"lon":5.36639,"is_reserved":false,"is_disabled":false,"rental_uris":{"android":"levelo://app?vid=3a43a6a6-9b6a-45b6-a2b9-4c8ede877505","ios":"levelo://app?vid=3a43a6a6-9b6a-45b6-a2b9-4c8ede877505"},"vehicle_type_id":"4","last_reported":1742732207,"current_range_meters":16800,"station_id":"ce4bhi12rcd13ifvqfp0","pricing_plan_id":"cebpf4jnsgd1na2vs0mg"},{"bike_id":"76757220-d8a3-400d-93c0-947089c24c8c","system_id":"levelo_inurba_marseille","lat":43.29899,"lon":5.43671,"is_reserved":false,"is_disabled":false,"rental_uris":{"android":"levelo://app?vid=76757220-d8a3-400d-93c0-947089c24c8c","ios":"levelo://app?vid=76757220-d8a3-400d-93c0-947089c24c8c"},"vehicle_type_id":"4","last_reported":1742732207,"current_range_meters":16800,"station_id":"ce4bhpp2rcd13ifvqhfg","pricing_plan_id":"cebpf4jnsgd1na2vs0mg"},{"bike_id":"1b1aa697-db58-47f9-b324-bdeb39cb3418","system_id":"levelo_inurba_marseille","lat":43.32055,"lon":5.37695,"is_reserved":false,"is_disabled":false,"rental_uris":{"android":"levelo://app?vid=1b1aa697-db58-47f9-b324-bdeb39cb3418","ios":"levelo://app?vid=1b1aa697-db58-47f9-b324-bdeb39cb3418"},"vehicle_type_id":"4","last_reported":1742732207,"current_range_meters":16800,"station_id":"","pricing_plan_id":"cebpf4jnsgd1na2vs0mg"},{"bike_id":"115561f9-8de6-497c-b35c-68d1ace111ae","system_id":"levelo_inurba_marseille","lat":43.28658,"lon":5.35067,"is_reserved":false,"is_disabled":false,"rental_uris":{"android":"levelo://app?vid=115561f9-8de6-497c-b35c-68d1ace111ae","ios":"levelo://app?vid=115561f9-8de6-497c-b35c-68d1ace111ae"},"vehicle_type_id":"4","last_reported":1742732207,"current_range_meters":16800,"station_id":"","pricing_plan_id":"cebpf4jnsgd1na2vs0mg"},{"bike_id":"fd75b0f4-d590-40ad-8ab6-124339ae9bb3","system_id":"levelo_inurba_marseille","lat":43.32622,"lon":5.41057,"is_reserved":false,"is_disabled":false,"rental_uris":{"android":"levelo://app?vid=fd75b0f4-d590-40ad-8ab6-124339ae9bb3","ios":"levelo://app?vid=fd75b0f4-d590-40ad-8ab6-124339ae9bb3"},"vehicle_type_id":"4","last_reported":1742732207,"current_range_meters":16800,"station_id":"","pricing_plan_id":"cebpf4jnsgd1na2vs0mg"},{"bike_id":"c3f2880c-24a5-4d7c-a90c-2fdb778f1064","system_id":"levelo_inurba_marseille","lat":43.28422,"lon":5.34987,"is_reserved":false,"is_disabled":false,"rental_uris":{"android":"levelo://app?vid=c3f2880c-24a5-4d7c-a90c-2fdb778f1064","ios":"levelo://app?vid=c3f2880c-24a5-4d7c-a90c-2fdb778f1064"},"vehicle_type_id":"4","last_reported":1742732207,"current_range_meters":16800,"station_id":"ce4bhbh2rcd13ifvqepg","pricing_plan_id":"cebpf4jnsgd1na2vs0mg"},{"bike_id":"e784bcf0-e6f4-419c-acc0-929d2665a4b7","system_id":"levelo_inurba_marseille","lat":43.28152,"lon":5.42646,"is_reserved":false,"is_disabled":false,"rental_uris":{"android":"levelo://app?vid=e784bcf0-e6f4-419c-acc0-929d2665a4b7","ios":"levelo://app?vid=e784bcf0-e6f4-419c-acc0-929d2665a4b7"},"vehicle_type_id":"4","last_reported":1742732207,"current_range_meters":16800,"station_id":"ce4bhnh2rcd13ifvqgug","pricing_plan_id":"cebpf4jnsgd1na2vs0mg"},{"bike_id":"b97b8876-d969-4576-b7ab-db9b2177d974","system_id":"levelo_inurba_marseille","lat":43.27656,"lon":5.38876,"is_reserved":false,"is_disabled":false,"rental_uris":{"android":"levelo://app?vid=b97b8876-d969-4576-b7ab-db9b2177d974","ios":"levelo://app?vid=b97b8876-d969-4576-b7ab-db9b2177d974"},"vehicle_type_id":"4","last_reported":1742732207,"current_range_meters":16800,"station_id":"ce4bhi12rcd13ifvqfo0","pricing_plan_id":"cebpf4jnsgd1na2vs0mg"},{"bike_id":"c4ab3472-f8f2-45ed-ad61-5a88a3be4471","system_id":"levelo_inurba_marseille","lat":43.29841,"lon":5.37889,"is_reserved":false,"is_disabled":false,"rental_uris":{"android":"levelo://app?vid=c4ab3472-f8f2-45ed-ad61-5a88a3be4471","ios":"levelo://app?vid=c4ab3472-f8f2-45ed-ad61-5a88a3be4471"},"vehicle_type_id":"4","last_reported":1742732207,"current_range_meters":16800,"station_id":"","pricing_plan_id":"cebpf4jnsgd1na2vs0mg"},{"bike_id":"56832e1d-d640-41d1-9d93-aa349b7f036a","system_id":"levelo_inurba_marseille","lat":43.27382,"lon":5.36255,"is_reserved":false,"is_disabled":false,"rental_uris":{"android":"levelo://app?vid=56832e1d-d640-41d1-9d93-aa349b7f036a","ios":"levelo://app?vid=56832e1d-d640-41d1-9d93-aa349b7f036a"},"vehicle_type_id":"4","last_reported":1742732207,"current_range_meters":16800,"station_id":"ce4bhbh2rcd13ifvqeo0","pricing_plan_id":"cebpf4jnsgd1na2vs0mg"},{"bike_id":"9b3dcaf5-b313-4c20-91dc-f1c16272632c","system_id":"levelo_inurba_marseille","lat":43.281609,"lon":5.426575,"is_reserved":false,"is_disabled":false,"rental_uris":{"android":"levelo://app?vid=9b3dcaf5-b313-4c20-91dc-f1c16272632c","ios":"levelo://app?vid=9b3dcaf5-b313-4c20-91dc-f1c16272632c"},"vehicle_type_id":"4","last_reported":1742732207,"current_range_meters":16800,"station_id":"ce4bhnh2rcd13ifvqgug","pricing_plan_id":"cebpf4jnsgd1na2vs0mg"},{"bike_id":"64da6105-406b-402f-b4c9-ed2c19fbf402","system_id":"levelo_inurba_marseille","lat":43.292725,"lon":5.384452,"is_reserved":false,"is_disabled":false,"rental_uris":{"android":"levelo://app?vid=64da6105-406b-402f-b4c9-ed2c19fbf402","ios":"levelo://app?vid=64da6105-406b-402f-b4c9-ed2c19fbf402"},"vehicle_type_id":"4","last_reported":1742732207,"current_range_meters":17200,"station_id":"","pricing_plan_id":"cebpf4jnsgd1na2vs0mg"},{"bike_id":"074ef621-2343-421e-9821-ea27910008f6","system_id":"levelo_inurba_marseille","lat":43.2367,"lon":5.37768,"is_reserved":false,"is_disabled":false,"rental_uris":{"android":"levelo://app?vid=074ef621-2343-421e-9821-ea27910008f6","ios":"levelo://app?vid=074ef621-2343-421e-9821-ea27910008f6"},"vehicle_type_id":"4","last_reported":1742732207,"current_range_meters":17200,"station_id":"","pricing_plan_id":"cebpf4jnsgd1na2vs0mg"},{"bike_id":"11f4a5ee-676e-429f-8679-1776cbfb5777","system_id":"levelo_inurba_marseille","lat":43.24004,"lon":5.36594,"is_reserved":false,"is_disabled":false,"rental_uris":{"android":"levelo://app?vid=11f4a5ee-676e-429f-8679-1776cbfb5777","ios":"levelo://app?vid=11f4a5ee-676e-429f-8679-1776cbfb5777"},"vehicle_type_id":"4","last_reported":1742732207,"current_range_meters":17200,"station_id":"","pricing_plan_id":"cebpf4jnsgd1na2vs0mg"},{"bike_id":"ba298775-8350-4b57-9be0-99308773b5b4","system_id":"levelo_inurba_marseille","lat":43.28156,"lon":5.42644,"is_reserved":false,"is_disabled":false,"rental_uris":{"android":"levelo://app?vid=ba298775-8350-4b57-9be0-99308773b5b4","ios":"levelo://app?vid=ba298775-8350-4b57-9be0-99308773b5b4"},"vehicle_type_id":"4","last_reported":1742732207,"current_range_meters":17200,"station_id":"ce4bhnh2rcd13ifvqgug","pricing_plan_id":"cebpf4jnsgd1na2vs0mg"},{"bike_id":"98bf8844-0d69-45be-bed8-88ae3069de4a","system_id":"levelo_inurba_marseille","lat":43.28425,"lon":5.34981,"is_reserved":false,"is_disabled":false,"rental_uris":{"android":"levelo://app?vid=98bf8844-0d69-45be-bed8-88ae3069de4a","ios":"levelo://app?vid=98bf8844-0d69-45be-bed8-88ae3069de4a"},"vehicle_type_id":"4","last_reported":1742732207,"current_range_meters":17200,"station_id":"ce4bhbh2rcd13ifvqepg","pricing_plan_id":"cebpf4jnsgd1na2vs0mg"},{"bike_id":"411f3bcd-8c10-4807-829c-d644d09dbe42","system_id":"levelo_inurba_marseille","lat":43.33055,"lon":5.39022,"is_reserved":false,"is_disabled":true,"rental_uris":{"android":"levelo://app?vid=411f3bcd-8c10-4807-829c-d644d09dbe42","ios":"levelo://app?vid=411f3bcd-8c10-4807-829c-d644d09dbe42"},"vehicle_type_id":"4","last_reported":1742732207,"current_range_meters":17200,"station_id":"ce4bhr92rcd13ifvqhrg","pricing_plan_id":"cebpf4jnsgd1na2vs0mg"},