{"last_updated":1727888852,"ttl":60,"version":"2.2","data":{"bikes":[{"bike_id":"72df5012-2c30-4352-bc7e-47cec6c8d52d","system_id":"levelo_inurba_marseille","lat":43.29705,"lon":5.36609,"is_reserved":false,"is_disabled":false,"rental_uris":{"android":"levelo://app?vid=72df5012-2c30-4352-bc7e-47cec6c8d52d","ios":"levelo://app?vid=72df5012-2c30-4352-bc7e-47cec6c8d52d"},"vehicle_type_id":"4","last_reported":1727888852,"current_range_meters":19600,"station_id":"ce4bgn12rcd13ifvqbt0","pricing_plan_id":"cebpf4jnsgd1na2vs0mg"},{"bike_id":"4d430a3f-5228-4555-8130-b7237b700211","system_id":"levelo_inurba_marseille","lat":43.29195,"lon":5.35803,"is_reserved":false,"is_disabled":false,"rental_uris":{"android":"levelo://app?vid=4d430a3f-5228-4555-8130-b7237b700211","ios":"levelo://app?vid=4d430a3f-5228-4555-8130-b7237b700211"},"vehicle_type_id":"4","last_reported":1727888852,"current_range_meters":26800,"station_id":"ce4bhb12rcd13ifvqel0","pricing_plan_id":"cebpf4jnsgd1na2vs0mg"},{"bike_id":"4352101a-00c7-4358-8dc5-63e98f900efa","system_id":"levelo_inurba_marseille","lat":43.28719,"lon":5.37941,"is_reserved":false,"is_disabled":false,"rental_uris":{"android":"levelo://app?vid=4352101a-00c7-4358-8dc5-63e98f900efa","ios":"levelo://app?vid=4352101a-00c7-4358-8dc5-63e98f900efa"},"vehicle_type_id":"4","last_reported":1727888852,"current_range_meters":8000,"station_id":"ce4bh9p2rcd13ifvqec0","pricing_plan_id":"cebpf4jnsgd1na2vs0mg"},{"bike_id":"b8d32f9e-42f8-4564-8290-6be3e340ccec","system_id":"levelo_inurba_marseille","lat":43.28027,"lon":5.36951,"is_reserved":false,"is_disabled":false,"rental_uris":{"android":"levelo://app?vid=b8d32f9e-42f8-4564-8290-6be3e340ccec","ios":"levelo://app?vid=b8d32f9e-42f8-4564-8290-6be3e340ccec"},"vehicle_type_id":"4","last_reported":1727888852,"current_range_meters":14800,"station_id":"ce4bha12rcd13ifvqef0","pricing_plan_id":"cebpf4jnsgd1na2vs0mg"},{"bike_id":"a17b295b-8667-4240-a566-2c1adc8b4c79","system_id":"levelo_inurba_marseille","lat":43.28405,"lon":5.37506,"is_reserved":false,"is_disabled":false,"rental_uris":{"android":"levelo://app?vid=a17b295b-8667-4240-a566-2c1adc8b4c79","ios":"levelo://app?vid=a17b295b-8667-4240-a566-2c1adc8b4c79"},"vehicle_type_id":"4","last_reported":1727888852,"current_range_meters":37600,"station_id":"ce4bh412rcd13ifvqds0","pricing_plan_id":"cebpf4jnsgd1na2vs0mg"},{"bike_id":"75f60207-bfee-4242-a19c-3daf6247f067","system_id":"levelo_inurba_marseille","lat":43.309143,"lon":5.390331,"is_reserved":false,"is_disabled":false,"rental_uris":{"android":"levelo://app?vid=75f60207-bfee-4242-a19c-3daf6247f067","ios":"levelo://app?vid=75f60207-bfee-4242-a19c-3daf6247f067"},"vehicle_type_id":"4","last_reported":1727888852,"current_range_meters":10000,"station_id":"ce4bh4p2rcd13ifvqe0g","pricing_plan_id":"cebpf4jnsgd1na2vs0mg"},{"bike_id":"4b6721b8-1a28-4ce5-a9fa-1b893f7f0ac0","system_id":"levelo_inurba_marseille","lat":43.32474,"lon":5.36551,"is_reserved":false,"is_disabled":false,"rental_uris":{"android":"levelo://app?vid=4b6721b8-1a28-4ce5-a9fa-1b893f7f0ac0","ios":"levelo://app?vid=4b6721b8-1a28-4ce5-a9fa-1b893f7f0ac0"},"vehicle_type_id":"4","last_reported":1727888852,"current_range_meters":32000,"station_id":"ce4bhs12rcd13ifvqhvg","pricing_plan_id":"cebpf4jnsgd1na2vs0mg"},{"bike_id":"3321b570-086d-4091-a24d-ba1d97ba7ad9","system_id":"levelo_inurba_marseille","lat":43.27979,"lon":5.41684,"is_reserved":false,"is_disabled":false,"rental_uris":{"android":"levelo://app?vid=3321b570-086d-4091-a24d-ba1d97ba7ad9","ios":"levelo://app?vid=3321b570-086d-4091-a24d-ba1d97ba7ad9"},"vehicle_type_id":"4","last_reported":1727888852,"current_range_meters":16400,"station_id":"ce4bho12rcd13ifvqh1g","pricing_plan_id":"cebpf4jnsgd1na2vs0mg"},{"bike_id":"3dcef076-7a4b-4215-adfa-6c549a6d22b0","system_id":"levelo_inurba_marseille","lat":43.29631,"lon":5.40598,"is_reserved":false,"is_disabled":false,"rental_uris":{"android":"levelo://app?vid=3dcef076-7a4b-4215-adfa-6c549a6d22b0","ios":"levelo://app?vid=3dcef076-7a4b-4215-adfa-6c549a6d22b0"},"vehicle_type_id":"4","last_reported":1727888852,"current_range_meters":19200,"station_id":"ce4bh0h2rcd13ifvqd60","pricing_plan_id":"cebpf4jnsgd1na2vs0mg"},{"bike_id":"1d8db64c-aee0-45cf-8ed2-3df863895e7d","system_id":"levelo_inurba_marseille","lat":43.25502,"lon":5.37647,"is_reserved":false,"is_disabled":false,"rental_uris":{"android":"levelo://app?vid=1d8db64c-aee0-45cf-8ed2-3df863895e7d","ios":"levelo://app?vid=1d8db64c-aee0-45cf-8ed2-3df863895e7d"},"vehicle_type_id":"4","last_reported":1727888852,"current_range_meters":8400,"station_id":"ce4bhh12rcd13ifvqff0","pricing_plan_id":"cebpf4jnsgd1na2vs0mg"},{"bike_id":"68787d41-dcf1-48de-8983-12248180d849","system_id":"levelo_inurba_marseille","lat":43.2952,"lon":5.39045,"is_reserved":false,"is_disabled":false,"rental_uris":{"android":"levelo://app?vid=68787d41-dcf1-48de-8983-12248180d849","ios":"levelo://app?vid=68787d41-dcf1-48de-8983-12248180d849"},"vehicle_type_id":"4","last_reported":1727888852,"current_range_meters":38800,"station_id":"ce4bh3p2rcd13ifvqdp0","pricing_plan_id":"cebpf4jnsgd1na2vs0mg"},{"bike_id":"2c286492-88de-4ff2-9118-7dfbd7f14ab0","system_id":"levelo_inurba_marseille","lat":43.25186,"lon":5.37879,"is_reserved":false,"is_disabled":false,"rental_uris":{"android":"levelo://app?vid=2c286492-88de-4ff2-9118-7dfbd7f14ab0","ios":"levelo://app?vid=2c286492-88de-4ff2-9118-7dfbd7f14ab0"},"vehicle_type_id":"4","last_reported":1727888852,"current_range_meters":9600,"station_id":"ce4bhi12rcd13ifvqfp0","pricing_plan_id":"cebpf4jnsgd1na2vs0mg"},{"bike_id":"897543fa-3ca2-457c-8e30-1500d73e1444","system_id":"levelo_inurba_marseille","lat":43.25823,"lon":5.39439,"is_reserved":false,"is_disabled":false,"rental_uris":{"android":"levelo://app?vid=897543fa-3ca2-457c-8e30-1500d73e1444","ios":"levelo://app?vid=897543fa-3ca2-457c-8e30-1500d73e1444"},"vehicle_type_id":"4","last_reported":1727888852,"current_range_meters":39200,"station_id":"ce4bhip2rcd13ifvqft0","pricing_plan_id":"cebpf4jnsgd1na2vs0mg"},{"bike_id":"fea51bb2-cc0a-4d8d-baab-0b22ee4170c5","system_id":"levelo_inurba_marseille","lat":43.29977,"lon":5.37184,"is_reserved":false,"is_disabled":false,"rental_uris":{"android":"levelo://app?vid=fea51bb2-cc0a-4d8d-baab-0b22ee4170c5","ios":"levelo://app?vid=fea51bb2-cc0a-4d8d-baab-0b22ee4170c5"},"vehicle_type_id":"4","last_reported":1727888852,"current_range_meters":4800,"station_id":"ce4bgr92rcd13ifvqc7g","pricing_plan_id":"cebpf4jnsgd1na2vs0mg"},{"bike_id":"1557cef6-ada3-4e27-b0a3-04a5201d7fdf","system_id":"levelo_inurba_marseille","lat":43.29788,"lon":5.39347,"is_reserved":false,"is_disabled":false,"rental_uris":{"android":"levelo://app?vid=1557cef6-ada3-4e27-b0a3-04a5201d7fdf","ios":"levelo://app?vid=1557cef6-ada3-4e27-b0a3-04a5201d7fdf"},"vehicle_type_id":"4","last_reported":1727888852,"current_range_meters":39200,"station_id":"chh1huq6cuj3fo74tm60","pricing_plan_id":"cebpf4jnsgd1na2vs0mg"},{"bike_id":"0d2840e2-9828-42dd-a453-e4e41cdbbe7f","system_id":"levelo_inurba_marseille","lat":43.26557,"lon":5.37285,"is_reserved":false,"is_disabled":false,"rental_uris":{"android":"levelo://app?vid=0d2840e2-9828-42dd-a453-e4e41cdbbe7f","ios":"levelo://app?vid=0d2840e2-9828-42dd-a453-e4e41cdbbe7f"},"vehicle_type_id":"4","last_reported":1727888852,"current_range_meters":38800,"station_id":"ce4bhg12rcd13ifvqf70","pricing_plan_id":"cebpf4jnsgd1na2vs0mg"},{"bike_id":"1170cfca-c85c-4678-bf7f-a8006b5e73ae","system_id":"levelo_inurba_marseille","lat":43.24542,"lon":5.39538,"is_reserved":false,"is_disabled":false,"rental_uris":{"android":"levelo://app?vid=1170cfca-c85c-4678-bf7f-a8006b5e73ae","ios":"levelo://app?vid=1170cfca-c85c-4678-bf7f-a8006b5e73ae"},"vehicle_type_id":"4","last_reported":1727888852,"current_range_meters":17200,"station_id":"ce4bhlp2rcd13ifvqgjg","pricing_plan_id":"cebpf4jnsgd1na2vs0mg"},{"bike_id":"bb4b8f3a-aa8f-4942-b472-3e9b35a25455","system_id":"levelo_inurba_marseille","lat":43.2942,"lon":5.38621,"is_reserved":false,"is_disabled":false,"rental_uris":{"android":"levelo://app?vid=bb4b8f3a-aa8f-4942-b472-3e9b35a25455","ios":"levelo://app?vid=bb4b8f3a-aa8f-4942-b472-3e9b35a25455"},"vehicle_type_id":"4","last_reported":1727888852,"current_range_meters":800,"station_id":"ce4bh2h2rcd13ifvqdh0","pricing_plan_id":"cebpf4jnsgd1na2vs0mg"},{"bike_id":"51325009-3c45-486d-9ca6-c1ad357f6044","system_id":"levelo_inurba_marseille","lat":43.29618,"lon":5.37152,"is_reserved":false,"is_disabled":false,"rental_uris":{"android":"levelo://app?vid=51325009-3c45-486d-9ca6-c1ad357f6044","ios":"levelo://app?vid=51325009-3c45-486d-9ca6-c1ad357f6044"},"vehicle_type_id":"4","last_reported":1727888852,"current_range_meters":4000,"station_id":"ce4bgnh2rcd13ifvqc0g","pricing_plan_id":"cebpf4jnsgd1na2vs0mg"},{"bike_id":"baf545b0-7fa5-41ff-9fdc-e94b60c0513e","system_id":"levelo_inurba_marseille","lat":43.27826,"lon":5.40731,"is_reserved":false,"is_disabled":false,"rental_uris":{"android":"levelo://app?vid=baf545b0-7fa5-41ff-9fdc-e94b60c0513e","ios":"levelo://app?vid=baf545b0-7fa5-41ff-9fdc-e94b60c0513e"},"vehicle_type_id":"4","last_reported":1727888852,"current_range_meters":36800,"station_id":"ce4bhnh2rcd13ifvqgtg","pricing_plan_id":"cebpf4jnsgd1na2vs0mg"},{"bike_id":"25ce9611-4c5a-4028-95fa-eb8494adec24","system_id":"levelo_inurba_marseille","lat":43.29414,"lon":5.38625,"is_reserved":false,"is_disabled":false,"rental_uris":{"android":"levelo://app?vid=25ce9611-4c5a-4028-95fa-eb8494adec24","ios":"levelo://app?vid=25ce9611-4c5a-4028-95fa-eb8494adec24"},"vehicle_type_id":"4","last_reported":1727888852,"current_range_meters":38800,"station_id":"ce4bh2h2rcd13ifvqdh0","pricing_plan_id":"cebpf4jnsgd1na2vs0mg"},{"bike_id":"4eeaf8a0-65e3-49a4-94cf-f4bfcc9d2af3","system_id":"levelo_inurba_marseille","lat":43.31759,"lon":5.39022,"is_reserved":false,"is_disabled":false,"rental_uris":{"android":"levelo://app?vid=4eeaf8a0-65e3-49a4-94cf-f4bfcc9d2af3","ios":"levelo://app?vid=4eeaf8a0-65e3-49a4-94cf-f4bfcc9d2af3"},"vehicle_type_id":"4","last_reported":1727888852,"current_range_meters":4400,"station_id":"ce4bhqp2rcd13ifvqhng","pricing_plan_id":"cebpf4jnsgd1na2vs0mg"},{"bike_id":"0c7936cf-f508-4786-bc01-68b5384c5cce","system_id":"levelo_inurba_marseille","lat":43.33009,"lon":5.39027,"is_reserved":false,"is_disabled":false,"rental_uris":{"android":"levelo://app?vid=0c7936cf-f508-4786-bc01-68b5384c5cce","ios":"levelo://app?vid=0c7936cf-f508-4786-bc01-68b5384c5cce"},"vehicle_type_id":"4","last_reported":1727888852,"current_range_meters":14400,"station_id":"ce4bhr92rcd13ifvqhrg","pricing_plan_id":"cebpf4jnsgd1na2vs0mg"},{"bike_id":"99c55ab8-f56f-4233-b126-9344ffcb0b05","system_id":"levelo_inurba_marseille","lat":43.29418,"lon":5.38624,"is_reserved":false,"is_disabled":false,"rental_uris":{"android":"levelo://app?vid=99c55ab8-f56f-4233-b126-9344ffcb0b05","ios":"levelo://app?vid=99c55ab8-f56f-4233-b126-9344ffcb0b05"},"vehicle_type_id":"4","last_reported":1727888852,"current_range_meters":19200,"station_id":"ce4bh2h2rcd13ifvqdh0","pricing_plan_id":"cebpf4jnsgd1na2vs0mg"},{"bike_id":"a592041d-1702-4a6b-96c0-5606fd4fd15f","system_id":"levelo_inurba_marseille","lat":43.30307,"lon":5.36905,"is_reserved":false,"is_disabled":false,"rental_uris":{"android":"levelo://app?vid=a592041d-1702-4a6b-96c0-5606fd4fd15f","ios":"levelo://app?vid=a592041d-1702-4a6b-96c0-5606fd4fd15f"},"vehicle_type_id":"4","last_reported":1727888852,"current_range_meters":22400,"station_id":"ce4bgqh2rcd13ifvqc5g","pricing_plan_id":"cebpf4jnsgd1na2vs0mg"},{"bike_id":"24d92f51-0476-4c2e-838c-c91673ebb0c9","system_id":"levelo_inurba_marseille","lat":43.28155,"lon":5.42637,"is_reserved":false,"is_disabled":false,"rental_uris":{"android":"levelo://app?vid=24d92f51-0476-4c2e-838c-c91673ebb0c9","ios":"levelo://app?vid=24d92f51-0476-4c2e-838c-c91673ebb0c9"},"vehicle_type_id":"4","last_reported":1727888852,"current_range_meters":38800,"station_id":"ce4bhnh2rcd13ifvqgug","pricing_plan_id":"cebpf4jnsgd1na2vs0mg"},{"bike_id":"9d9f1b9f-55a2-4c77-bc62-5f91905f926e","system_id":"levelo_inurba_marseille","lat":43.29919,"lon":5.37468,"is_reserved":false,"is_disabled":false,"rental_uris":{"android":"levelo://app?vid=9d9f1b9f-55a2-4c77-bc62-5f91905f926e","ios":"levelo://app?vid=9d9f1b9f-55a2-4c77-bc62-5f91905f926e"},"vehicle_type_id":"4","last_reported":1727888852,"current_range_meters":18800,"station_id":"ce4bgjh2rcd13ifvqbg0","pricing_plan_id":"cebpf4jnsgd1na2vs0mg"},{"bike_id":"aec20732-1e2b-46de-ba73-9c8845e39dd0","system_id":"levelo_inurba_marseille","lat":43.29571,"lon":5.39983,"is_reserved":false,"is_disabled":false,"rental_uris":{"android":"levelo://app?vid=aec20732-1e2b-46de-ba73-9c8845e39dd0","ios":"levelo://app?vid=aec20732-1e2b-46de-ba73-9c8845e39dd0"},"vehicle_type_id":"4","last_reported":1727888852,"current_range_meters":27200,"station_id":"ce4bh312rcd13ifvqdj0","pricing_plan_id":"cebpf4jnsgd1na2vs0mg"},{"bike_id":"0d38caac-4e1b-4bc6-8634-fba8549655ca","system_id":"levelo_inurba_marseille","lat":43.3211,"lon":5.36779,"is_reserved":false,"is_disabled":false,"rental_uris":{"android":"levelo://app?vid=0d38caac-4e1b-4bc6-8634-fba8549655ca","ios":"levelo://app?vid=0d38caac-4e1b-4bc6-8634-fba8549655ca"},"vehicle_type_id":"4","last_reported":1727888852,"current_range_meters":39200,"station_id":"ce4bhrh2rcd13ifvqhug","pricing_plan_id":"cebpf4jnsgd1na2vs0mg"},{"bike_id":"70701435-0617-4a87-835e-5e6bc7f57882","system_id":"levelo_inurba_marseille","lat":43.2942,"lon":5.38626,"is_reserved":false,"is_disabled":false,"rental_uris":{"android":"levelo://app?vid=70701435-0617-4a87-835e-5e6bc7f57882","ios":"levelo://app?vid=70701435-0617-4a87-835e-5e6bc7f57882"},"vehicle_type_id":"4","last_reported":1727888852,"current_range_meters":16000,"station_id":"ce4bh2h2rcd13ifvqdh0","pricing_plan_id":"cebpf4jnsgd1na2vs0mg"},{"bike_id":"4e902dd3-7e19-408a-9744-d6ae960b8212","system_id":"levelo_inurba_marseille","lat":43.28151,"lon":5.42639,"is_reserved":false,"is_disabled":false,"rental_uris":{"android":"levelo://app?vid=4e902dd3-7e19-408a-9744-d6ae960b8212","ios":"levelo://app?vid=4e902dd3-7e19-408a-9744-d6ae960b8212"},"vehicle_type_id":"4","last_reported":1727888852,"current_range_meters":21600,"station_id":"ce4bhnh2rcd13ifvqgug","pricing_plan_id":"cebpf4jnsgd1na2vs0mg"},{"bike_id":"a2a82068-7d0b-4597-9303-3d16fcf4395c","system_id":"levelo_inurba_marseille","lat":43.30435,"lon":5.38111,"is_reserved":false,"is_disabled":false,"rental_uris":{"android":"levelo://app?vid=a2a82068-7d0b-4597-9303-3d16fcf4395c","ios":"levelo://app?vid=a2a82068-7d0b-4597-9303-3d16fcf4395c"},"vehicle_type_id":"4","last_reported":1727888852,"current_range_meters":26800,"station_id":"ce4bgup2rcd13ifvqcn0","pricing_plan_id":"cebpf4jnsgd1na2vs0mg"},{"bike_id":"d5b1b584-0623-4321-9636-b71cd55bf70a","system_id":"levelo_inurba_marseille","lat":43.29552,"lon":5.42296,"is_reserved":false,"is_disabled":false,"rental_uris":{"android":"levelo://app?vid=d5b1b584-0623-4321-9636-b71cd55bf70a","ios":"levelo://app?vid=d5b1b584-0623-4321-9636-b71cd55bf70a"},"vehicle_type_id":"4","last_reported":1727888852,"current_range_meters":39200,"station_id":"ce4bhph2rcd13ifvqhdg","pricing_plan_id":"cebpf4jnsgd1na2vs0mg"},{"bike_id":"9a187559-37e9-43cf-8b27-c74cfd067f86","system_id":"levelo_inurba_marseille","lat":43.30608,"lon":5.39376,"is_reserved":false,"is_disabled":false,"rental_uris":{"android":"levelo://app?vid=9a187559-37e9-43cf-8b27-c74cfd067f86","ios":"levelo://app?vid=9a187559-37e9-43cf-8b27-c74cfd067f86"},"vehicle_type_id":"4","last_reported":1727888852,"current_range_meters":14800,"station_id":"ce4bh012rcd13ifvqcv0","pricing_plan_id":"cebpf4jnsgd1na2vs0mg"},{"bike_id":"944539b6-f7a5-47f0-9dc4-cea131b1f016","system_id":"levelo_inurba_marseille","lat":43.29197,"lon":5.39312,"is_reserved":false,"is_disabled":false,"rental_uris":{"android":"levelo://app?vid=944539b6-f7a5-47f0-9dc4-cea131b1f016","ios":"levelo://app?vid=944539b6-f7a5-47f0-9dc4-cea131b1f016"},"vehicle_type_id":"4","last_reported":1727888852,"current_range_meters":24400,"station_id":"ce4bh192rcd13ifvqdd0","pricing_plan_id":"cebpf4jnsgd1na2vs0mg"},{"bike_id":"ea9aa1fe-231c-4e79-8b98-08be65d71cb2","system_id":"levelo_inurba_marseille","lat":43.291687,"lon":5.371557,"is_reserved":false,"is_disabled":false,"rental_uris":{"android":"levelo://app?vid=ea9aa1fe-231c-4e79-8b98-08be65d71cb2","ios":"levelo://app?vid=ea9aa1fe-231c-4e79-8b98-08be65d71cb2"},"vehicle_type_id":"4","last_reported":1727888852,"current_range_meters":24400,"station_id":"ce4bhc92rcd13ifvqetg","pricing_plan_id":"cebpf4jnsgd1na2vs0mg"},{"bike_id":"a4c3b827-df43-4992-8bf5-33a66ccb3f31","system_id":"levelo_inurba_marseille","lat":43.2926,"lon":5.38439,"is_reserved":false,"is_disabled":false,"rental_uris":{"android":"levelo://app?vid=a4c3b827-df43-4992-8bf5-33a66ccb3f31","ios":"levelo://app?vid=a4c3b827-df43-4992-8bf5-33a66ccb3f31"},"vehicle_type_id":"4","last_reported":1727888852,"current_range_meters":30000,"station_id":"ce4bh692rcd13ifvqea0","pricing_plan_id":"cebpf4jnsgd1na2vs0mg"},{"bike_id":"abd8fd30-ef1b-485f-85f9-7deed9381e2d","system_id":"levelo_inurba_marseille","lat":43.30135,"lon":5.37423,"is_reserved":false,"is_disabled":false,"rental_uris":{"android":"levelo://app?vid=abd8fd30-ef1b-485f-85f9-7deed9381e2d","ios":"levelo://app?vid=abd8fd30-ef1b-485f-85f9-7deed9381e2d"},"vehicle_type_id":"4","last_reported":1727888852,"current_range_meters":2800,"station_id":"ce4bgs92rcd13ifvqcc0","pricing_plan_id":"cebpf4jnsgd1na2vs0mg"},{"bike_id":"367a7368-240d-48d6-828b-21adc9f3e2fe","system_id":"levelo_inurba_marseille","lat":43.32537,"lon":5.41454,"is_reserved":false,"is_disabled":false,"rental_uris":{"android":"levelo://app?vid=367a7368-240d-48d6-828b-21adc9f3e2fe","ios":"levelo://app?vid=367a7368-240d-48d6-828b-21adc9f3e2fe"},"vehicle_type_id":"4","last_reported":1727888852,"current_range_meters":38800,"station_id":"ce4bhq12rcd13ifvqhhg","pricing_plan_id":"cebpf4jnsgd1na2vs0mg"},{"bike_id":"1f8d1e3d-9d2a-4e06-afd4-5fea70da48f3","system_id":"levelo_inurba_marseille","lat":43.24667,"lon":5.38162,"is_reserved":false,"is_disabled":false,"rental_uris":{"android":"levelo://app?vid=1f8d1e3d-9d2a-4e06-afd4-5fea70da48f3","ios":"levelo://app?vid=1f8d1e3d-9d2a-4e06-afd4-5fea70da48f3"},"vehicle_type_id":"4","last_reported":1727888852,"current_range_meters":36000,"station_id":"ce4bhih2rcd13ifvqfr0","pricing_plan_id":"cebpf4jnsgd1na2vs0mg"},{"bike_id":"6b0d0e98-e891-4b15-9421-77a6a3df1d9a","system_id":"levelo_inurba_marseille","lat":43.29265,"lon":5.3685,"is_reserved":false,"is_disabled":false,"rental_uris":{"android":"levelo://app?vid=6b0d0e98-e891-4b15-9421-77a6a3df1d9a","ios":"levelo://app?vid=6b0d0e98-e891-4b15-9421-77a6a3df1d9a"},"vehicle_type_id":"4","last_reported":1727888852,"current_range_meters":19200,"station_id":"ce4bhbp2rcd13ifvqesg","pricing_plan_id":"cebpf4jnsgd1na2vs0mg"},{"bike_id":"1c8cc3d8-8b1a-4e7c-b92b-559ae67bae0a","system_id":"levelo_inurba_marseille","lat":43.29004,"lon":5.35614,"is_reserved":false,"is_disabled":false,"rental_uris":{"android":"levelo://app?vid=1c8cc3d8-8b1a-4e7c-b92b-559ae67bae0a","ios":"levelo://app?vid=1c8cc3d8-8b1a-4e7c-b92b-559ae67bae0a"},"vehicle_type_id":"4","last_reported":1727888852,"current_range_meters":33600,"station_id":"ce4bhb92rcd13ifvqen0","pricing_plan_id":"cebpf4jnsgd1na2vs0mg"},{"bike_id":"f77c1722-4fc0-4587-9e7c-163d954b1ae3","system_id":"levelo_inurba_marseille","lat":43.29893,"lon":5.43659,"is_reserved":false,"is_disabled":false,"rental_uris":{"android":"levelo://app?vid=f77c1722-4fc0-4587-9e7c-163d954b1ae3","ios":"levelo://app?vid=f77c1722-4fc0-4587-9e7c-163d954b1ae3"},"vehicle_type_id":"4","last_reported":1727888852,"current_range_meters":16800,"station_id":"ce4bhpp2rcd13ifvqhfg","pricing_plan_id":"cebpf4jnsgd1na2vs0mg"},{"bike_id":"5b1d8975-cfe3-4349-8eb2-2dbf9ce72a7a","system_id":"levelo_inurba_marseille","lat":43.24178,"lon":5.39723,"is_reserved":false,"is_disabled":false,"rental_uris":{"android":"levelo://app?vid=5b1d8975-cfe3-4349-8eb2-2dbf9ce72a7a","ios":"levelo://app?vid=5b1d8975-cfe3-4349-8eb2-2dbf9ce72a7a"},"vehicle_type_id":"4","last_reported":1727888852,"current_range_meters":38400,"station_id":"ce4bhn12rcd13ifvqgpg","pricing_plan_id":"cebpf4jnsgd1na2vs0mg"},{"bike_id":"79ff7bbd-5f84-4e47-ba6b-f94c4ef62731","system_id":"levelo_inurba_marseille","lat":43.29417,"lon":5.38625,"is_reserved":false,"is_disabled":false,"rental_uris":{"android":"levelo://app?vid=79ff7bbd-5f84-4e47-ba6b-f94c4ef62731","ios":"levelo://app?vid=79ff7bbd-5f84-4e47-ba6b-f94c4ef62731"},"vehicle_type_id":"4","last_reported":1727888852,"current_range_meters":38800,"station_id":"ce4bh2h2rcd13ifvqdh0","pricing_plan_id":"cebpf4jnsgd1na2vs0mg"},{"bike_id":"5b95b53b-de42-4354-8e1a-9524026b6a69","system_id":"levelo_inurba_marseille","lat":43.27915,"lon":5.39589,"is_reserved":false,"is_disabled":false,"rental_uris":{"android":"levelo://app?vid=5b95b53b-de42-4354-8e1a-9524026b6a69","ios":"levelo://app?vid=5b95b53b-de42-4354-8e1a-9524026b6a69"},"vehicle_type_id":"4","last_reported":1727888852,"current_range_meters":35200,"station_id":"ce4bhf92rcd13ifvqf40","pricing_plan_id":"cebpf4jnsgd1na2vs0mg"},{"bike_id":"30077ecd-1d3c-4ffe-bf30-a1a2991e1aca","system_id":"levelo_inurba_marseille","lat":43.23057,"lon":5.35485,"is_reserved":false,"is_disabled":false,"rental_uris":{"android":"levelo://app?vid=30077ecd-1d3c-4ffe-bf30-a1a2991e1aca","ios":"levelo://app?vid=30077ecd-1d3c-4ffe-bf30-a1a2991e1aca"},"vehicle_type_id":"4","last_reported":1727888852,"current_range_meters":37600,"station_id":"cpo3342slgdg3j2ifvpg","pricing_plan_id":"cebpf4jnsgd1na2vs0mg"},{"bike_id":"ff513062-f69a-4208-97d2-91c99d444b9e","system_id":"levelo_inurba_marseille","lat":43.27986,"lon":5.41658,"is_reserved":false,"is_disabled":false,"rental_uris":{"android":"levelo://app?vid=ff513062-f69a-4208-97d2-91c99d444b9e","ios":"levelo://app?vid=ff513062-f69a-4208-97d2-91c99d444b9e"},"vehicle_type_id":"4","last_reported":1727888852,"current_range_meters":5600,"station_id":"ce4bho12rcd13ifvqh1g","pricing_plan_id":"cebpf4jnsgd1na2vs0mg"},{"bike_id":"bfdf0173-ef86-453f-9df1-6980622b4632","system_id":"levelo_inurba_marseille","lat":43.29001,"lon":5.35614,"is_reserved":false,"is_disabled":false,"rental_uris":{"android":"levelo://app?vid=bfdf0173-ef86-453f-9df1-6980622b4632","ios":"levelo://app?vid=bfdf0173-ef86-453f-9df1-6980622b4632"},"vehicle_type_id":"4","last_reported":1727888852,"current_range_meters":31200,"station_id":"ce4bhb92rcd13ifvqen0","pricing_plan_id":"cebpf4jnsgd1na2vs0mg"},{"bike_id":"123ff6ed-4385-4a10-999b-eb298bcab43c","system_id":"levelo_inurba_marseille","lat":43.33025,"lon":5.39038,"is_reserved":false,"is_disabled":false,"rental_uris":{"android":"levelo://app?vid=123ff6ed-4385-4a10-999b-eb298bcab43c","ios":"levelo://app?vid=123ff6ed-4385-4a10-999b-eb298bcab43c"},"vehicle_type_id":"4","last_reported":1727888852,"current_range_meters":39200,"station_id":"ce4bhr92rcd13ifvqhrg","pricing_plan_id":"cebpf4jnsgd1na2vs0mg"},{"bike_id":"ad9bd38c-6e21-41e8-8513-132c1c15c21b","system_id":"levelo_inurba_marseille","lat":43.29885,"lon":5.43633,"is_reserved":false,"is_disabled":false,"rental_uris":{"android":"levelo://app?vid=ad9bd38c-6e21-41e8-8513-132c1c15c21b","ios":"levelo://app?vid=ad9bd38c-6e21-41e8-8513-132c1c15c21b"},"vehicle_type_id":"4","last_reported":1727888852,"current_range_meters":20000,"station_id":"ce4bhpp2rcd13ifvqhfg","pricing_plan_id":"cebpf4jnsgd1na2vs0mg"},{"bike_id":"e7189d08-c8a6-4ece-9b08-b721a5c47b34","system_id":"levelo_inurba_marseille","lat":43.299318,"lon":5.365468,"is_reserved":false,"is_disabled":false,"rental_uris":{"android":"levelo://app?vid=e7189d08-c8a6-4ece-9b08-b721a5c47b34","ios":"levelo://app?vid=e7189d08-c8a6-4ece-9b08-b721a5c47b34"},"vehicle_type_id":"4","last_reported":1727888852,"current_range_meters":3600,"station_id":"ce4bgm92rcd13ifvqbr0","pricing_plan_id":"cebpf4jnsgd1na2vs0mg"},{"bike_id":"b5439dff-082c-474c-aaf7-9c83d12b0c63","system_id":"levelo_inurba_marseille","lat":43.30419,"lon":5.39719,"is_reserved":false,"is_disabled":false,"rental_uris":{"android":"levelo://app?vid=b5439dff-082c-474c-aaf7-9c83d12b0c63","ios":"levelo://app?vid=b5439dff-082c-474c-aaf7-9c83d12b0c63"},"vehicle_type_id":"4","last_reported":1727888852,"current_range_meters":27200,"station_id":"ce4bh092rcd13ifvqd20","pricing_plan_id":"cebpf4jnsgd1na2vs0mg"},{"bike_id":"ccf4a722-3a3e-4702-8b70-5c061d3885c7","system_id":"levelo_inurba_marseille","lat":43.29267,"lon":5.36856,"is_reserved":false,"is_disabled":false,"rental_uris":{"android":"levelo://app?vid=ccf4a722-3a3e-4702-8b70-5c061d3885c7","ios":"levelo://app?vid=ccf4a722-3a3e-4702-8b70-5c061d3885c7"},"vehicle_type_id":"4","last_reported":1727888852,"current_range_meters":11200,"station_id":"ce4bhbp2rcd13ifvqesg","pricing_plan_id":"cebpf4jnsgd1na2vs0mg"},{"bike_id":"1a3a969f-28bb-4f69-b05a-11040a4c23fe","system_id":"levelo_inurba_marseille","lat":43.28702,"lon":5.37368,"is_reserved":false,"is_disabled":false,"rental_uris":{"android":"levelo://app?vid=1a3a969f-28bb-4f69-b05a-11040a4c23fe","ios":"levelo://app?vid=1a3a969f-28bb-4f69-b05a-11040a4c23fe"},"vehicle_type_id":"4","last_reported":1727888852,"current_range_meters":16000,"station_id":"ce4bh3p2rcd13ifvqdq0","pricing_plan_id":"cebpf4jnsgd1na2vs0mg"},{"bike_id":"9313cccd-55d8-4da2-887a-860e5af5bfc4","system_id":"levelo_inurba_marseille","lat":43.3171,"lon":5.43711,"is_reserved":false,"is_disabled":false,"rental_uris":{"android":"levelo://app?vid=9313cccd-55d8-4da2-887a-860e5af5bfc4","ios":"levelo://app?vid=9313cccd-55d8-4da2-887a-860e5af5bfc4"},"vehicle_type_id":"4","last_reported":1727888852,"current_range_meters":14800,"station_id":"ce4bhp92rcd13ifvqhcg","pricing_plan_id":"cebpf4jnsgd1na2vs0mg"},{"bike_id":"b482df99-7ee8-4eea-8d8b-1d22667db679","system_id":"levelo_inurba_marseille","lat":43.29334,"lon":5.42828,"is_reserved":false,"is_disabled":false,"rental_uris":{"android":"levelo://app?vid=b482df99-7ee8-4eea-8d8b-1d22667db679","ios":"levelo://app?vid=b482df99-7ee8-4eea-8d8b-1d22667db679"},"vehicle_type_id":"4","last_reported":1727888852,"current_range_meters":20400,"station_id":"","pricing_plan_id":"cebpf4jnsgd1na2vs0mg"},{"bike_id":"4c2c858b-7b0c-47fc-b08b-eede44500a64","system_id":"levelo_inurba_marseille","lat":43.30882,"lon":5.39658,"is_reserved":false,"is_disabled":false,"rental_uris":{"android":"levelo://app?vid=4c2c858b-7b0c-47fc-b08b-eede44500a64","ios":"levelo://app?vid=4c2c858b-7b0c-47fc-b08b-eede44500a64"},"vehicle_type_id":"4","last_reported":1727888852,"current_range_meters":8400,"station_id":"ce4bh012rcd13ifvqcv0","pricing_plan_id":"cebpf4jnsgd1na2vs0mg"},{"bike_id":"0a24e084-3e6d-4b5e-8e31-a603495678f1","system_id":"levelo_inurba_marseille","lat":43.310803,"lon":5.424285,"is_reserved":false,"is_disabled":false,"rental_uris":{"android":"levelo://app?vid=0a24e084-3e6d-4b5e-8e31-a603495678f1","ios":"levelo://app?vid=0a24e084-3e6d-4b5e-8e31-a603495678f1"},"vehicle_type_id":"4","last_reported":1727888852,"current_range_meters":3200,"station_id":"ce4bhp92rcd13ifvqhag","pricing_plan_id":"cebpf4jnsgd1na2vs0mg"},{"bike_id":"2396aba7-c99b-4b8e-97f0-cc89734783f1","system_id":"levelo_inurba_marseille","lat":43.26197,"lon":5.37927,"is_reserved":false,"is_disabled":false,"rental_uris":{"android":"levelo://app?vid=2396aba7-c99b-4b8e-97f0-cc89734783f1","ios":"levelo://app?vid=2396aba7-c99b-4b8e-97f0-cc89734783f1"},"vehicle_type_id":"4","last_reported":1727888852,"current_range_meters":30000,"station_id":"ce4bhjp2rcd13ifvqg90","pricing_plan_id":"cebpf4jnsgd1na2vs0mg"},{"bike_id":"3d7fb764-f367-4219-931a-d1eb13fa7b2c","system_id":"levelo_inurba_marseille","lat":43.2927,"lon":5.36844,"is_reserved":false,"is_disabled":false,"rental_uris":{"android":"levelo://app?vid=3d7fb764-f367-4219-931a-d1eb13fa7b2c","ios":"levelo://app?vid=3d7fb764-f367-4219-931a-d1eb13fa7b2c"},"vehicle_type_id":"4","last_reported":1727888852,"current_range_meters":36800,"station_id":"ce4bhbp2rcd13ifvqesg","pricing_plan_id":"cebpf4jnsgd1na2vs0mg"},{"bike_id":"9ace08f0-1de2-49a3-8db3-00be4c395904","system_id":"levelo_inurba_marseille","lat":43.25085,"lon":5.39524,"is_reserved":false,"is_disabled":false,"rental_uris":{"android":"levelo://app?vid=9ace08f0-1de2-49a3-8db3-00be4c395904","ios":"levelo://app?vid=9ace08f0-1de2-49a3-8db3-00be4c395904"},"vehicle_type_id":"4","last_reported":1727888852,"current_range_meters":36400,"station_id":"ce4bhm12rcd13ifvqgkg","pricing_plan_id":"cebpf4jnsgd1na2vs0mg"},{"bike_id":"53c6fe7a-c5f0-4c29-bdb6-08c6c7db5c71","system_id":"levelo_inurba_marseille","lat":43.32082,"lon":5.36772,"is_reserved":false,"is_disabled":false,"rental_uris":{"android":"levelo://app?vid=53c6fe7a-c5f0-4c29-bdb6-08c6c7db5c71","ios":"levelo://app?vid=53c6fe7a-c5f0-4c29-bdb6-08c6c7db5c71"},"vehicle_type_id":"4","last_reported":1727888852,"current_range_meters":15200,"station_id":"ce4bhrh2rcd13ifvqhug","pricing_plan_id":"cebpf4jnsgd1na2vs0mg"},{"bike_id":"3c15a33b-74c2-4e72-a8a7-f28acbf0b8af","system_id":"levelo_inurba_marseille","lat":43.31073,"lon":5.38364,"is_reserved":false,"is_disabled":false,"rental_uris":{"android":"levelo://app?vid=3c15a33b-74c2-4e72-a8a7-f28acbf0b8af","ios":"levelo://app?vid=3c15a33b-74c2-4e72-a8a7-f28acbf0b8af"},"vehicle_type_id":"4","last_reported":1727888852,"current_range_meters":20400,"station_id":"ce4bgv92rcd13ifvqcr0","pricing_plan_id":"cebpf4jnsgd1na2vs0mg"},{"bike_id":"0035154d-d14d-4d3d-b707-97e962a49b01","system_id":"levelo_inurba_marseille","lat":43.27815,"lon":5.40707,"is_reserved":false,"is_disabled":false,"rental_uris":{"android":"levelo://app?vid=0035154d-d14d-4d3d-b707-97e962a49b01","ios":"levelo://app?vid=0035154d-d14d-4d3d-b707-97e962a49b01"},"vehicle_type_id":"4","last_reported":1727888852,"current_range_meters":38800,"station_id":"ce4bhnh2rcd13ifvqgtg","pricing_plan_id":"cebpf4jnsgd1na2vs0mg"},{"bike_id":"6ce60676-3f86-4aaa-a5df-572436c32ad4","system_id":"levelo_inurba_marseille","lat":43.23192,"lon":5.35551,"is_reserved":false,"is_disabled":false,"rental_uris":{"android":"levelo://app?vid=6ce60676-3f86-4aaa-a5df-572436c32ad4","ios":"levelo://app?vid=6ce60676-3f86-4aaa-a5df-572436c32ad4"},"vehicle_type_id":"4","last_reported":1727888852,"current_range_meters":25200,"station_id":"ce4bhu92rcd13ifvqi70","pricing_plan_id":"cebpf4jnsgd1na2vs0mg"},{"bike_id":"4468b5d4-1685-4490-93ec-e9e63be7cd0e","system_id":"levelo_inurba_marseille","lat":43.30651,"lon":5.3998,"is_reserved":false,"is_disabled":false,"rental_uris":{"android":"levelo://app?vid=4468b5d4-1685-4490-93ec-e9e63be7cd0e","ios":"levelo://app?vid=4468b5d4-1685-4490-93ec-e9e63be7cd0e"},"vehicle_type_id":"4","last_reported":1727888852,"current_range_meters":38800,"station_id":"","pricing_plan_id":"cebpf4jnsgd1na2vs0mg"},{"bike_id":"65185869-df2b-4a7d-8b80-a462bd0b4ebf","system_id":"levelo_inurba_marseille","lat":43.24728,"lon":5.40719,"is_reserved":false,"is_disabled":false,"rental_uris":{"android":"levelo://app?vid=65185869-df2b-4a7d-8b80-a462bd0b4ebf","ios":"levelo://app?vid=65185869-df2b-4a7d-8b80-a462bd0b4ebf"},"vehicle_type_id":"4","last_reported":1727888852,"current_range_meters":8800,"station_id":"","pricing_plan_id":"cebpf4jnsgd1na2vs0mg"},{"bike_id":"6a4180fa-3ba4-4d35-979d-ccdd7eb2bebe","system_id":"levelo_inurba_marseille","lat":43.33021,"lon":5.39037,"is_reserved":false,"is_disabled":false,"rental_uris":{"android":"levelo://app?vid=6a4180fa-3ba4-4d35-979d-ccdd7eb2bebe","ios":"levelo://app?vid=6a4180fa-3ba4-4d35-979d-ccdd7eb2bebe"},"vehicle_type_id":"4","last_reported":1727888852,"current_range_meters":2800,"station_id":"ce4bhr92rcd13ifvqhrg","pricing_plan_id":"cebpf4jnsgd1na2vs0mg"},{"bike_id":"5faf0811-4dec-4c1d-92f9-09382621c509","system_id":"levelo_inurba_marseille","lat":43.29627,"lon":5.40596,"is_reserved":false,"is_disabled":false,"rental_uris":{"android":"levelo://app?vid=5faf0811-4dec-4c1d-92f9-09382621c509","ios":"levelo://app?vid=5faf0811-4dec-4c1d-92f9-09382621c509"},"vehicle_type_id":"4","last_reported":1727888852,"current_range_meters":8400,"station_id":"ce4bh0h2rcd13ifvqd60","pricing_plan_id":"cebpf4jnsgd1na2vs0mg"},{"bike_id":"cd553fe6-6a54-4f45-a76c-6e441329659e","system_id":"levelo_inurba_marseille","lat":43.29416,"lon":5.38629,"is_reserved":false,"is_disabled":false,"rental_uris":{"android":"levelo://app?vid=cd553fe6-6a54-4f45-a76c-6e441329659e","ios":"levelo://app?vid=cd553fe6-6a54-4f45-a76c-6e441329659e"},"vehicle_type_id":"4","last_reported":1727888852,"current_range_meters":35600,"station_id":"ce4bh2h2rcd13ifvqdh0","pricing_plan_id":"cebpf4jnsgd1na2vs0mg"},{"bike_id":"74925788-746e-4704-86a3-45ee3bc0ed44","system_id":"levelo_inurba_marseille","lat":43.27987,"lon":5.41666,"is_reserved":false,"is_disabled":false,"rental_uris":{"android":"levelo://app?vid=74925788-746e-4704-86a3-45ee3bc0ed44","ios":"levelo://app?vid=74925788-746e-4704-86a3-45ee3bc0ed44"},"vehicle_type_id":"4","last_reported":1727888852,"current_range_meters":6800,"station_id":"ce4bho12rcd13ifvqh1g","pricing_plan_id":"cebpf4jnsgd1na2vs0mg"},{"bike_id":"6ba7162c-ca06-4ed6-a2f6-c89c1b570371","system_id":"levelo_inurba_marseille","lat":43.28399,"lon":5.37503,"is_reserved":false,"is_disabled":false,"rental_uris":{"android":"levelo://app?vid=6ba7162c-ca06-4ed6-a2f6-c89c1b570371","ios":"levelo://app?vid=6ba7162c-ca06-4ed6-a2f6-c89c1b570371"},"vehicle_type_id":"4","last_reported":1727888852,"current_range_meters":8000,"station_id":"ce4bh412rcd13ifvqds0","pricing_plan_id":"cebpf4jnsgd1na2vs0mg"},{"bike_id":"66b18a38-c47d-49c2-b685-d062f340e001","system_id":"levelo_inurba_marseille","lat":43.26201,"lon":5.37934,"is_reserved":false,"is_disabled":false,"rental_uris":{"android":"levelo://app?vid=66b18a38-c47d-49c2-b685-d062f340e001","ios":"levelo://app?vid=66b18a38-c47d-49c2-b685-d062f340e001"},"vehicle_type_id":"4","last_reported":1727888852,"current_range_meters":14000,"station_id":"ce4bhjp2rcd13ifvqg90","pricing_plan_id":"cebpf4jnsgd1na2vs0mg"},{"bike_id":"418d7258-530e-44a3-a585-36caaf0158c4","system_id":"levelo_inurba_marseille","lat":43.29269,"lon":5.38451,"is_reserved":false,"is_disabled":false,"rental_uris":{"android":"levelo://app?vid=418d7258-530e-44a3-a585-36caaf0158c4","ios":"levelo://app?vid=418d7258-530e-44a3-a585-36caaf0158c4"},"vehicle_type_id":"4","last_reported":1727888852,"current_range_meters":24800,"station_id":"ce4bh692rcd13ifvqea0","pricing_plan_id":"cebpf4jnsgd1na2vs0mg"},{"bike_id":"b1211d1e-e40b-4982-ae42-b649f894234d","system_id":"levelo_inurba_marseille","lat":43.30639,"lon":5.40099,"is_reserved":false,"is_disabled":false,"rental_uris":{"android":"levelo://app?vid=b1211d1e-e40b-4982-ae42-b649f894234d","ios":"levelo://app?vid=b1211d1e-e40b-4982-ae42-b649f894234d"},"vehicle_type_id":"4","last_reported":1727888852,"current_range_meters":36800,"station_id":"ce4bh112rcd13ifvqda0","pricing_plan_id":"cebpf4jnsgd1na2vs0mg"},{"bike_id":"44e49d83-16da-4c78-a099-8c35d2eccbfa","system_id":"levelo_inurba_marseille","lat":43.31684,"lon":5.40473,"is_reserved":false,"is_disabled":false,"rental_uris":{"android":"levelo://app?vid=44e49d83-16da-4c78-a099-8c35d2eccbfa","ios":"levelo://app?vid=44e49d83-16da-4c78-a099-8c35d2eccbfa"},"vehicle_type_id":"4","last_reported":1727888852,"current_range_meters":5600,"station_id":"ce4bh012rcd13ifvqd00","pricing_plan_id":"cebpf4jnsgd1na2vs0mg"},{"bike_id":"2b769238-5ec5-4162-b52b-987ddf715384","system_id":"levelo_inurba_marseille","lat":43.30795,"lon":5.43521,"is_reserved":false,"is_disabled":false,"rental_uris":{"android":"levelo://app?vid=2b769238-5ec5-4162-b52b-987ddf715384","ios":"levelo://app?vid=2b769238-5ec5-4162-b52b-987ddf715384"},"vehicle_type_id":"4","last_reported":1727888852,"current_range_meters":17200,"station_id":"ce4bhph2rcd13ifvqheg","pricing_plan_id":"cebpf4jnsgd1na2vs0mg"},{"bike_id":"c8e4ff73-620c-4248-92f7-758d5098242c","system_id":"levelo_inurba_marseille","lat":43.22922,"lon":5.35356,"is_reserved":false,"is_disabled":false,"rental_uris":{"android":"levelo://app?vid=c8e4ff73-620c-4248-92f7-758d5098242c","ios":"levelo://app?vid=c8e4ff73-620c-4248-92f7-758d5098242c"},"vehicle_type_id":"4","last_reported":1727888852,"current_range_meters":31200,"station_id":"cpo3532slgdg3j2ikp40","pricing_plan_id":"cebpf4jnsgd1na2vs0mg"},{"bike_id":"2f7a049d-e7f9-4d64-bf77-cbfc4f7a3371","system_id":"levelo_inurba_marseille","lat":43.30137,"lon":5.3987,"is_reserved":false,"is_disabled":false,"rental_uris":{"android":"levelo://app?vid=2f7a049d-e7f9-4d64-bf77-cbfc4f7a3371","ios":"levelo://app?vid=2f7a049d-e7f9-4d64-bf77-cbfc4f7a3371"},"vehicle_type_id":"4","last_reported":1727888852,"current_range_meters":25600,"station_id":"ce4bh0h2rcd13ifvqd40","pricing_plan_id":"cebpf4jnsgd1na2vs0mg"},{"bike_id":"bb10a17f-3e39-4c95-9f0b-b8b21166348a","system_id":"levelo_inurba_marseille","lat":43.26946,"lon":5.40248,"is_reserved":false,"is_disabled":false,"rental_uris":{"android":"levelo://app?vid=bb10a17f-3e39-4c95-9f0b-b8b21166348a","ios":"levelo://app?vid=bb10a17f-3e39-4c95-9f0b-b8b21166348a"},"vehicle_type_id":"4","last_reported":1727888852,"current_range_meters":34800,"station_id":"cjm6bp8fraef2m0cb0m0","pricing_plan_id":"cebpf4jnsgd1na2vs0mg"},{"bike_id":"c3c99d3f-579e-4287-bc0c-4972f42e8aee","system_id":"levelo_inurba_marseille","lat":43.29198,"lon":5.35804,"is_reserved":false,"is_disabled":false,"rental_uris":{"android":"levelo://app?vid=c3c99d3f-579e-4287-bc0c-4972f42e8aee","ios":"levelo://app?vid=c3c99d3f-579e-4287-bc0c-4972f42e8aee"},"vehicle_type_id":"4","last_reported":1727888852,"current_range_meters":36400,"station_id":"ce4bhb12rcd13ifvqel0","pricing_plan_id":"cebpf4jnsgd1na2vs0mg"},{"bike_id":"e9c3f189-7498-49fc-8381-72bc2c6c8f10","system_id":"levelo_inurba_marseille","lat":43.29977,"lon":5.385056,"is_reserved":false,"is_disabled":false,"rental_uris":{"android":"levelo://app?vid=e9c3f189-7498-49fc-8381-72bc2c6c8f10","ios":"levelo://app?vid=e9c3f189-7498-49fc-8381-72bc2c6c8f10"},"vehicle_type_id":"4","last_reported":1727888852,"current_range_meters":18800,"station_id":"ce4bgj92rcd13ifvqbd0","pricing_plan_id":"cebpf4jnsgd1na2vs0mg"},{"bike_id":"41570701-bbd2-4d36-acab-f6bd966c7946","system_id":"levelo_inurba_marseille","lat":43.30903,"lon":5.36849,"is_reserved":false,"is_disabled":false,"rental_uris":{"android":"levelo://app?vid=41570701-bbd2-4d36-acab-f6bd966c7946","ios":"levelo://app?vid=41570701-bbd2-4d36-acab-f6bd966c7946"},"vehicle_type_id":"4","last_reported":1727888852,"current_range_meters":24400,"station_id":"ce4bgn92rcd13ifvqbvg","pricing_plan_id":"cebpf4jnsgd1na2vs0mg"},{"bike_id":"2d5975db-98a0-4b9e-bbfb-7cbc3cfcd9b3","system_id":"levelo_inurba_marseille","lat":43.30792,"lon":5.3816,"is_reserved":false,"is_disabled":false,"rental_uris":{"android":"levelo://app?vid=2d5975db-98a0-4b9e-bbfb-7cbc3cfcd9b3","ios":"levelo://app?vid=2d5975db-98a0-4b9e-bbfb-7cbc3cfcd9b3"},"vehicle_type_id":"4","last_reported":1727888852,"current_range_meters":26800,"station_id":"ce4bgt12rcd13ifvqce0","pricing_plan_id":"cebpf4jnsgd1na2vs0mg"},{"bike_id":"695047c7-52a2-4db8-8a16-7780657ed2cc","system_id":"levelo_inurba_marseille","lat":43.260642,"lon":5.393977,"is_reserved":false,"is_disabled":false,"rental_uris":{"android":"levelo://app?vid=695047c7-52a2-4db8-8a16-7780657ed2cc","ios":"levelo://app?vid=695047c7-52a2-4db8-8a16-7780657ed2cc"},"vehicle_type_id":"4","last_reported":1727888852,"current_range_meters":8400,"station_id":"ce4bhh92rcd13ifvqfj0","pricing_plan_id":"cebpf4jnsgd1na2vs0mg"},{"bike_id":"d79ae66b-397c-4581-b417-ed20cf093fe1","system_id":"levelo_inurba_marseille","lat":43.312201,"lon":5.368588,"is_reserved":false,"is_disabled":false,"rental_uris":{"android":"levelo://app?vid=d79ae66b-397c-4581-b417-ed20cf093fe1","ios":"levelo://app?vid=d79ae66b-397c-4581-b417-ed20cf093fe1"},"vehicle_type_id":"4","last_reported":1727888852,"current_range_meters":39200,"station_id":"ce4bgl92rcd13ifvqbq0","pricing_plan_id":"cebpf4jnsgd1na2vs0mg"},{"bike_id":"23fcd5dc-52e3-40b6-b601-8da82c35b64a","system_id":"levelo_inurba_marseille","lat":43.23198,"lon":5.355451,"is_reserved":false,"is_disabled":false,"rental_uris":{"android":"levelo://app?vid=23fcd5dc-52e3-40b6-b601-8da82c35b64a","ios":"levelo://app?vid=23fcd5dc-52e3-40b6-b601-8da82c35b64a"},"vehicle_type_id":"4","last_reported":1727888852,"current_range_meters":6400,"station_id":"ce4bhu92rcd13ifvqi70","pricing_plan_id":"cebpf4jnsgd1na2vs0mg"},{"bike_id":"c31b9c32-1716-4eec-aa79-f48f50ec5f06","system_id":"levelo_inurba_marseille","lat":43.23178,"lon":5.39996,"is_reserved":false,"is_disabled":false,"rental_uris":{"android":"levelo://app?vid=c31b9c32-1716-4eec-aa79-f48f50ec5f06","ios":"levelo://app?vid=c31b9c32-1716-4eec-aa79-f48f50ec5f06"},"vehicle_type_id":"4","last_reported":1727888852,"current_range_meters":38800,"station_id":"ce4bhn12rcd13ifvqgqg","pricing_plan_id":"cebpf4jnsgd1na2vs0mg"},{"bike_id":"c0983b7c-bc71-4bb9-a2fd-91543247be90","system_id":"levelo_inurba_marseille","lat":43.29304,"lon":5.37177,"is_reserved":false,"is_disabled":false,"rental_uris":{"android":"levelo://app?vid=c0983b7c-bc71-4bb9-a2fd-91543247be90","ios":"levelo://app?vid=c0983b7c-bc71-4bb9-a2fd-91543247be90"},"vehicle_type_id":"4","last_reported":1727888852,"current_range_meters":18800,"station_id":"ce4bgh92rcd13ifvqb40","pricing_plan_id":"cebpf4jnsgd1na2vs0mg"},{"bike_id":"e09f4747-6f1f-4c76-a6bb-44615cda3603","system_id":"levelo_inurba_marseille","lat":43.25093,"lon":5.40341,"is_reserved":false,"is_disabled":false,"rental_uris":{"android":"levelo://app?vid=e09f4747-6f1f-4c76-a6bb-44615cda3603","ios":"levelo://app?vid=e09f4747-6f1f-4c76-a6bb-44615cda3603"},"vehicle_type_id":"4","last_reported":1727888852,"current_range_meters":4000,"station_id":"ce4bhlh2rcd13ifvqgig","pricing_plan_id":"cebpf4jnsgd1na2vs0mg"},{"bike_id":"5d859c5d-dff8-4b20-81e1-72960281c79d","system_id":"levelo_inurba_marseille","lat":43.32479,"lon":5.3657,"is_reserved":false,"is_disabled":false,"rental_uris":{"android":"levelo://app?vid=5d859c5d-dff8-4b20-81e1-72960281c79d","ios":"levelo://app?vid=5d859c5d-dff8-4b20-81e1-72960281c79d"},"vehicle_type_id":"4","last_reported":1727888852,"current_range_meters":38800,"station_id":"ce4bhs12rcd13ifvqhvg","pricing_plan_id":"cebpf4jnsgd1na2vs0mg"},{"bike_id":"5c4dab87-3b51-4a83-90fb-72e156fc550e","system_id":"levelo_inurba_marseille","lat":43.28696,"lon":5.37399,"is_reserved":false,"is_disabled":false,"rental_uris":{"android":"levelo://app?vid=5c4dab87-3b51-4a83-90fb-72e156fc550e","ios":"levelo://app?vid=5c4dab87-3b51-4a83-90fb-72e156fc550e"},"vehicle_type_id":"4","last_reported":1727888852,"current_range_meters":28800,"station_id":"ce4bh3p2rcd13ifvqdq0","pricing_plan_id":"cebpf4jnsgd1na2vs0mg"},{"bike_id":"1c7b42bf-32d8-4ce8-aa4b-48d5e754dce2","system_id":"levelo_inurba_marseille","lat":43.30326,"lon":5.40435,"is_reserved":false,"is_disabled":false,"rental_uris":{"android":"levelo://app?vid=1c7b42bf-32d8-4ce8-aa4b-48d5e754dce2","ios":"levelo://app?vid=1c7b42bf-32d8-4ce8-aa4b-48d5e754dce2"},"vehicle_type_id":"4","last_reported":1727888852,"current_range_meters":17600,"station_id":"ce4bh012rcd13ifvqd10","pricing_plan_id":"cebpf4jnsgd1na2vs0mg"},{"bike_id":"d9513a24-3235-43a7-b9a5-1c5cfe37603f","system_id":"levelo_inurba_marseille","lat":43.2306,"lon":5.35489,"is_reserved":false,"is_disabled":false,"rental_uris":{"android":"levelo://app?vid=d9513a24-3235-43a7-b9a5-1c5cfe37603f","ios":"levelo://app?vid=d9513a24-3235-43a7-b9a5-1c5cfe37603f"},"vehicle_type_id":"4","last_reported":1727888852,"current_range_meters":34000,"station_id":"cpo3342slgdg3j2ifvpg","pricing_plan_id":"cebpf4jnsgd1na2vs0mg"},{"bike_id":"772088a0-7828-4f69-ba5d-0f6cdb83dec2","system_id":"levelo_inurba_marseille","lat":43.337444,"lon":5.374475,"is_reserved":false,"is_disabled":false,"rental_uris":{"android":"levelo://app?vid=772088a0-7828-4f69-ba5d-0f6cdb83dec2","ios":"levelo://app?vid=772088a0-7828-4f69-ba5d-0f6cdb83dec2"},"vehicle_type_id":"4","last_reported":1727888852,"current_range_meters":5600,"station_id":"","pricing_plan_id":"cebpf4jnsgd1na2vs0mg"},{"bike_id":"2cfa8946-abc1-4429-a2f7-ef591994646c","system_id":"levelo_inurba_marseille","lat":43.29786,"lon":5.37092,"is_reserved":false,"is_disabled":false,"rental_uris":{"android":"levelo://app?vid=2cfa8946-abc1-4429-a2f7-ef591994646c","ios":"levelo://app?vid=2cfa8946-abc1-4429-a2f7-ef591994646c"},"vehicle_type_id":"4","last_reported":1727888852,"current_range_meters":37600,"station_id":"ce4bgop2rcd13ifvqc1g","pricing_plan_id":"cebpf4jnsgd1na2vs0mg"},{"bike_id":"89f79560-9417-4d80-afea-9f3796d9baaf","system_id":"levelo_inurba_marseille","lat":43.337444,"lon":5.374475,"is_reserved":false,"is_disabled":false,"rental_uris":{"android":"levelo://app?vid=89f79560-9417-4d80-afea-9f3796d9baaf","ios":"levelo://app?vid=89f79560-9417-4d80-afea-9f3796d9baaf"},"vehicle_type_id":"4","last_reported":1727888852,"current_range_meters":14000,"station_id":"","pricing_plan_id":"cebpf4jnsgd1na2vs0mg"},{"bike_id":"20261d7d-d2c8-40f2-b1c6-bc88e81dae24","system_id":"levelo_inurba_marseille","lat":43.32954,"lon":5.37505,"is_reserved":false,"is_disabled":false,"rental_uris":{"android":"levelo://app?vid=20261d7d-d2c8-40f2-b1c6-bc88e81dae24","ios":"levelo://app?vid=20261d7d-d2c8-40f2-b1c6-bc88e81dae24"},"vehicle_type_id":"4","last_reported":1727888852,"current_range_meters":38800,"station_id":"ce4bhqp2rcd13ifvqhog","pricing_plan_id":"cebpf4jnsgd1na2vs0mg"},{"bike_id":"9578bc35-2317-417d-a6d5-a609614a430d","system_id":"levelo_inurba_marseille","lat":43.29266,"lon":5.38438,"is_reserved":false,"is_disabled":false,"rental_uris":{"android":"levelo://app?vid=9578bc35-2317-417d-a6d5-a609614a430d","ios":"levelo://app?vid=9578bc35-2317-417d-a6d5-a609614a430d"},"vehicle_type_id":"4","last_reported":1727888852,"current_range_meters":17600,"station_id":"ce4bh692rcd13ifvqea0","pricing_plan_id":"cebpf4jnsgd1na2vs0mg"},{"bike_id":"fc806e01-6bdf-4c8c-9859-acf6230a62d6","system_id":"levelo_inurba_marseille","lat":43.23962,"lon":5.36625,"is_reserved":false,"is_disabled":false,"rental_uris":{"android":"levelo://app?vid=fc806e01-6bdf-4c8c-9859-acf6230a62d6","ios":"levelo://app?vid=fc806e01-6bdf-4c8c-9859-acf6230a62d6"},"vehicle_type_id":"4","last_reported":1727888852,"current_range_meters":37600,"station_id":"ce4bhi12rcd13ifvqfp0","pricing_plan_id":"cebpf4jnsgd1na2vs0mg"},{"bike_id":"2b0693c0-ad8d-424c-befa-3b85cb467101","system_id":"levelo_inurba_marseille","lat":43.27991,"lon":5.41666,"is_reserved":false,"is_disabled":false,"rental_uris":{"android":"levelo://app?vid=2b0693c0-ad8d-424c-befa-3b85cb467101","ios":"levelo://app?vid=2b0693c0-ad8d-424c-befa-3b85cb467101"},"vehicle_type_id":"4","last_reported":1727888852,"current_range_meters":31200,"station_id":"ce4bho12rcd13ifvqh1g","pricing_plan_id":"cebpf4jnsgd1na2vs0mg"},{"bike_id":"30f7e0da-0005-4b87-82a4-8969ce48d0db","system_id":"levelo_inurba_marseille","lat":43.24671,"lon":5.38148,"is_reserved":false,"is_disabled":false,"rental_uris":{"android":"levelo://app?vid=30f7e0da-0005-4b87-82a4-8969ce48d0db","ios":"levelo://app?vid=30f7e0da-0005-4b87-82a4-8969ce48d0db"},"vehicle_type_id":"4","last_reported":1727888852,"current_range_meters":38800,"station_id":"ce4bhih2rcd13ifvqfr0","pricing_plan_id":"cebpf4jnsgd1na2vs0mg"},{"bike_id":"698d281f-c077-466c-ad7e-3ebe508cc17b","system_id":"levelo_inurba_marseille","lat":43.24169,"lon":5.36395,"is_reserved":false,"is_disabled":false,"rental_uris":{"android":"levelo://app?vid=698d281f-c077-466c-ad7e-3ebe508cc17b","ios":"levelo://app?vid=698d281f-c077-466c-ad7e-3ebe508cc17b"},"vehicle_type_id":"4","last_reported":1727888852,"current_range_meters":16400,"station_id":"cpo36qri1sfpv3e86is0","pricing_plan_id":"cebpf4jnsgd1na2vs0mg"},{"bike_id":"32d60337-3928-46e4-b7b5-5feb31e47653","system_id":"levelo_inurba_marseille","lat":43.24069,"lon":5.37767,"is_reserved":false,"is_disabled":false,"rental_uris":{"android":"levelo://app?vid=32d60337-3928-46e4-b7b5-5feb31e47653","ios":"levelo://app?vid=32d60337-3928-46e4-b7b5-5feb31e47653"},"vehicle_type_id":"4","last_reported":1727888852,"current_range_meters":20400,"station_id":"ce4bhnp2rcd13ifvqgvg","pricing_plan_id":"cebpf4jnsgd1na2vs0mg"},{"bike_id":"0927edc0-a2c0-428a-a1e9-31ec3c4f6f54","system_id":"levelo_inurba_marseille","lat":43.30561,"lon":5.39202,"is_reserved":false,"is_disabled":false,"rental_uris":{"android":"levelo://app?vid=0927edc0-a2c0-428a-a1e9-31ec3c4f6f54","ios":"levelo://app?vid=0927edc0-a2c0-428a-a1e9-31ec3c4f6f54"},"vehicle_type_id":"4","last_reported":1727888852,"current_range_meters":14400,"station_id":"","pricing_plan_id":"cebpf4jnsgd1na2vs0mg"},{"bike_id":"74c92887-9168-4508-a776-701c93a6674b","system_id":"levelo_inurba_marseille","lat":43.289398,"lon":5.366441,"is_reserved":false,"is_disabled":false,"rental_uris":{"android":"levelo://app?vid=74c92887-9168-4508-a776-701c93a6674b","ios":"levelo://app?vid=74c92887-9168-4508-a776-701c93a6674b"},"vehicle_type_id":"4","last_reported":1727888852,"current_range_meters":34000,"station_id":"ce4bhap2rcd13ifvqek0","pricing_plan_id":"cebpf4jnsgd1na2vs0mg"},{"bike_id":"c33f1dd7-4706-4981-a6e8-453f1d0522a7","system_id":"levelo_inurba_marseille","lat":43.28714,"lon":5.360919,"is_reserved":false,"is_disabled":false,"rental_uris":{"android":"levelo://app?vid=c33f1dd7-4706-4981-a6e8-453f1d0522a7","ios":"levelo://app?vid=c33f1dd7-4706-4981-a6e8-453f1d0522a7"},"vehicle_type_id":"4","last_reported":1727888852,"current_range_meters":38400,"station_id":"cki0cbj6b192h4jlfktg","pricing_plan_id":"cebpf4jnsgd1na2vs0mg"},{"bike_id":"69127ef7-73d1-4ef0-be9f-1fa455700571","system_id":"levelo_inurba_marseille","lat":43.27072,"lon":5.42336,"is_reserved":false,"is_disabled":false,"rental_uris":{"android":"levelo://app?vid=69127ef7-73d1-4ef0-be9f-1fa455700571","ios":"levelo://app?vid=69127ef7-73d1-4ef0-be9f-1fa455700571"},"vehicle_type_id":"4","last_reported":1727888852,"current_range_meters":39200,"station_id":"ce4bhk92rcd13ifvqgb0","pricing_plan_id":"cebpf4jnsgd1na2vs0mg"},{"bike_id":"82ffa4f1-863a-4683-871a-edec1aa33f68","system_id":"levelo_inurba_marseille","lat":43.2893,"lon":5.36639,"is_reserved":false,"is_disabled":false,"rental_uris":{"android":"levelo://app?vid=82ffa4f1-863a-4683-871a-edec1aa33f68","ios":"levelo://app?vid=82ffa4f1-863a-4683-871a-edec1aa33f68"},"vehicle_type_id":"4","last_reported":1727888852,"current_range_meters":10000,"station_id":"ce4bhap2rcd13ifvqek0","pricing_plan_id":"cebpf4jnsgd1na2vs0mg"},{"bike_id":"5084d4e8-22d7-4248-aec8-4997331ff1e0","system_id":"levelo_inurba_marseille","lat":43.22924,"lon":5.35375,"is_reserved":false,"is_disabled":false,"rental_uris":{"android":"levelo://app?vid=5084d4e8-22d7-4248-aec8-4997331ff1e0","ios":"levelo://app?vid=5084d4e8-22d7-4248-aec8-4997331ff1e0"},"vehicle_type_id":"4","last_reported":1727888852,"current_range_meters":38000,"station_id":"cpo3532slgdg3j2ikp40","pricing_plan_id":"cebpf4jnsgd1na2vs0mg"},{"bike_id":"038ae911-1fcc-4a20-ac34-1618ec56de65","system_id":"levelo_inurba_marseille","lat":43.2956,"lon":5.42297,"is_reserved":false,"is_disabled":false,"rental_uris":{"android":"levelo://app?vid=038ae911-1fcc-4a20-ac34-1618ec56de65","ios":"levelo://app?vid=038ae911-1fcc-4a20-ac34-1618ec56de65"},"vehicle_type_id":"4","last_reported":1727888852,"current_range_meters":21600,"station_id":"ce4bhph2rcd13ifvqhdg","pricing_plan_id":"cebpf4jnsgd1na2vs0mg"},{"bike_id":"839c9596-f91c-43e7-b990-8d1e0e90ea7a","system_id":"levelo_inurba_marseille","lat":43.28417,"lon":5.34987,"is_reserved":false,"is_disabled":false,"rental_uris":{"android":"levelo://app?vid=839c9596-f91c-43e7-b990-8d1e0e90ea7a","ios":"levelo://app?vid=839c9596-f91c-43e7-b990-8d1e0e90ea7a"},"vehicle_type_id":"4","last_reported":1727888852,"current_range_meters":6400,"station_id":"ce4bhbh2rcd13ifvqepg","pricing_plan_id":"cebpf4jnsgd1na2vs0mg"},{"bike_id":"6dd5df39-f796-47c2-b7f4-cc412ae77bc8","system_id":"levelo_inurba_marseille","lat":43.27814,"lon":5.40708,"is_reserved":false,"is_disabled":false,"rental_uris":{"android":"levelo://app?vid=6dd5df39-f796-47c2-b7f4-cc412ae77bc8","ios":"levelo://app?vid=6dd5df39-f796-47c2-b7f4-cc412ae77bc8"},"vehicle_type_id":"4","last_reported":1727888852,"current_range_meters":29600,"station_id":"ce4bhnh2rcd13ifvqgtg","pricing_plan_id":"cebpf4jnsgd1na2vs0mg"},{"bike_id":"284efd69-eabd-4c31-8b2f-e714b26796d8","system_id":"levelo_inurba_marseille","lat":43.31079,"lon":5.38354,"is_reserved":false,"is_disabled":false,"rental_uris":{"android":"levelo://app?vid=284efd69-eabd-4c31-8b2f-e714b26796d8","ios":"levelo://app?vid=284efd69-eabd-4c31-8b2f-e714b26796d8"},"vehicle_type_id":"4","last_reported":1727888852,"current_range_meters":5600,"station_id":"ce4bgv92rcd13ifvqcr0","pricing_plan_id":"cebpf4jnsgd1na2vs0mg"},{"bike_id":"94657708-4f48-45be-8900-34ad2e5a489d","system_id":"levelo_inurba_marseille","lat":43.26684,"lon":5.38272,"is_reserved":false,"is_disabled":false,"rental_uris":{"android":"levelo://app?vid=94657708-4f48-45be-8900-34ad2e5a489d","ios":"levelo://app?vid=94657708-4f48-45be-8900-34ad2e5a489d"},"vehicle_type_id":"4","last_reported":1727888852,"current_range_meters":39200,"station_id":"ce4bhg92rcd13ifvqf90","pricing_plan_id":"cebpf4jnsgd1na2vs0mg"},{"bike_id":"06e227b3-95eb-4d93-9a0f-f71369380875","system_id":"levelo_inurba_marseille","lat":43.29024,"lon":5.38641,"is_reserved":false,"is_disabled":false,"rental_uris":{"android":"levelo://app?vid=06e227b3-95eb-4d93-9a0f-f71369380875","ios":"levelo://app?vid=06e227b3-95eb-4d93-9a0f-f71369380875"},"vehicle_type_id":"4","last_reported":1727888852,"current_range_meters":8800,"station_id":"ce4bh4p2rcd13ifvqe0g","pricing_plan_id":"cebpf4jnsgd1na2vs0mg"},{"bike_id":"9f6ea554-100d-4d77-80cb-b79622e7fa00","system_id":"levelo_inurba_marseille","lat":43.22935,"lon":5.35377,"is_reserved":false,"is_disabled":false,"rental_uris":{"android":"levelo://app?vid=9f6ea554-100d-4d77-80cb-b79622e7fa00","ios":"levelo://app?vid=9f6ea554-100d-4d77-80cb-b79622e7fa00"},"vehicle_type_id":"4","last_reported":1727888852,"current_range_meters":24000,"station_id":"cpo3532slgdg3j2ikp40","pricing_plan_id":"cebpf4jnsgd1na2vs0mg"},{"bike_id":"8e3c4662-3ed6-4d0b-bfae-22e95c0b8d39","system_id":"levelo_inurba_marseille","lat":43.27059,"lon":5.40264,"is_reserved":false,"is_disabled":false,"rental_uris":{"android":"levelo://app?vid=8e3c4662-3ed6-4d0b-bfae-22e95c0b8d39","ios":"levelo://app?vid=8e3c4662-3ed6-4d0b-bfae-22e95c0b8d39"},"vehicle_type_id":"4","last_reported":1727888852,"current_range_meters":37600,"station_id":"ce4bhk92rcd13ifvqgc0","pricing_plan_id":"cebpf4jnsgd1na2vs0mg"},{"bike_id":"9d5e9a5e-1fb9-4026-8e9b-38e1693bc6e0","system_id":"levelo_inurba_marseille","lat":43.30882,"lon":5.39645,"is_reserved":false,"is_disabled":false,"rental_uris":{"android":"levelo://app?vid=9d5e9a5e-1fb9-4026-8e9b-38e1693bc6e0","ios":"levelo://app?vid=9d5e9a5e-1fb9-4026-8e9b-38e1693bc6e0"},"vehicle_type_id":"4","last_reported":1727888852,"current_range_meters":34000,"station_id":"ce4bh012rcd13ifvqcv0","pricing_plan_id":"cebpf4jnsgd1na2vs0mg"},{"bike_id":"64bd957e-b978-44cb-a85c-928d627d24ec","system_id":"levelo_inurba_marseille","lat":43.35751,"lon":5.35893,"is_reserved":false,"is_disabled":false,"rental_uris":{"android":"levelo://app?vid=64bd957e-b978-44cb-a85c-928d627d24ec","ios":"levelo://app?vid=64bd957e-b978-44cb-a85c-928d627d24ec"},"vehicle_type_id":"4","last_reported":1727888852,"current_range_meters":17600,"station_id":"","pricing_plan_id":"cebpf4jnsgd1na2vs0mg"},{"bike_id":"9eecd779-c6c0-4e07-ac55-d8d18d2fd278","system_id":"levelo_inurba_marseille","lat":43.28003,"lon":5.40017,"is_reserved":false,"is_disabled":false,"rental_uris":{"android":"levelo://app?vid=9eecd779-c6c0-4e07-ac55-d8d18d2fd278","ios":"levelo://app?vid=9eecd779-c6c0-4e07-ac55-d8d18d2fd278"},"vehicle_type_id":"4","last_reported":1727888852,"current_range_meters":28400,"station_id":"ce4bho92rcd13ifvqh4g","pricing_plan_id":"cebpf4jnsgd1na2vs0mg"},{"bike_id":"83132a1a-a149-4294-8006-c5be7e95c07f","system_id":"levelo_inurba_marseille","lat":43.2835,"lon":5.38107,"is_reserved":false,"is_disabled":false,"rental_uris":{"android":"levelo://app?vid=83132a1a-a149-4294-8006-c5be7e95c07f","ios":"levelo://app?vid=83132a1a-a149-4294-8006-c5be7e95c07f"},"vehicle_type_id":"4","last_reported":1727888852,"current_range_meters":3200,"station_id":"ce4bh412rcd13ifvqdr0","pricing_plan_id":"cebpf4jnsgd1na2vs0mg"},{"bike_id":"4ac5b21d-f552-4c0b-a28d-986f107a6b95","system_id":"levelo_inurba_marseille","lat":43.32406,"lon":5.39005,"is_reserved":false,"is_disabled":false,"rental_uris":{"android":"levelo://app?vid=4ac5b21d-f552-4c0b-a28d-986f107a6b95","ios":"levelo://app?vid=4ac5b21d-f552-4c0b-a28d-986f107a6b95"},"vehicle_type_id":"4","last_reported":1727888852,"current_range_meters":11200,"station_id":"","pricing_plan_id":"cebpf4jnsgd1na2vs0mg"},{"bike_id":"17e22e76-0f0e-476e-853c-f3c57d03b6f1","system_id":"levelo_inurba_marseille","lat":43.30889,"lon":5.37185,"is_reserved":false,"is_disabled":false,"rental_uris":{"android":"levelo://app?vid=17e22e76-0f0e-476e-853c-f3c57d03b6f1","ios":"levelo://app?vid=17e22e76-0f0e-476e-853c-f3c57d03b6f1"},"vehicle_type_id":"4","last_reported":1727888852,"current_range_meters":10800,"station_id":"ce4bguh2rcd13ifvqckg","pricing_plan_id":"cebpf4jnsgd1na2vs0mg"},{"bike_id":"0a189f12-7c38-45f4-afb7-705e901daa6d","system_id":"levelo_inurba_marseille","lat":43.28481,"lon":5.38543,"is_reserved":false,"is_disabled":false,"rental_uris":{"android":"levelo://app?vid=0a189f12-7c38-45f4-afb7-705e901daa6d","ios":"levelo://app?vid=0a189f12-7c38-45f4-afb7-705e901daa6d"},"vehicle_type_id":"4","last_reported":1727888852,"current_range_meters":4400,"station_id":"ce4bh8p2rcd13ifvqeb0","pricing_plan_id":"cebpf4jnsgd1na2vs0mg"},{"bike_id":"ad5cc87c-82ff-465d-aca2-cb3a42bf1bf1","system_id":"levelo_inurba_marseille","lat":43.32485,"lon":5.36571,"is_reserved":false,"is_disabled":false,"rental_uris":{"android":"levelo://app?vid=ad5cc87c-82ff-465d-aca2-cb3a42bf1bf1","ios":"levelo://app?vid=ad5cc87c-82ff-465d-aca2-cb3a42bf1bf1"},"vehicle_type_id":"4","last_reported":1727888852,"current_range_meters":36800,"station_id":"ce4bhs12rcd13ifvqhvg","pricing_plan_id":"cebpf4jnsgd1na2vs0mg"},{"bike_id":"d72c81e8-bb91-491b-94cc-b8be681994e8","system_id":"levelo_inurba_marseille","lat":43.23963,"lon":5.36635,"is_reserved":false,"is_disabled":false,"rental_uris":{"android":"levelo://app?vid=d72c81e8-bb91-491b-94cc-b8be681994e8","ios":"levelo://app?vid=d72c81e8-bb91-491b-94cc-b8be681994e8"},"vehicle_type_id":"4","last_reported":1727888852,"current_range_meters":37600,"station_id":"ce4bhi12rcd13ifvqfp0","pricing_plan_id":"cebpf4jnsgd1na2vs0mg"},{"bike_id":"8755eb25-5696-4493-bbcf-91aaa15b1b7c","system_id":"levelo_inurba_marseille","lat":43.23191,"lon":5.39991,"is_reserved":false,"is_disabled":false,"rental_uris":{"android":"levelo://app?vid=8755eb25-5696-4493-bbcf-91aaa15b1b7c","ios":"levelo://app?vid=8755eb25-5696-4493-bbcf-91aaa15b1b7c"},"vehicle_type_id":"4","last_reported":1727888852,"current_range_meters":39200,"station_id":"ce4bhn12rcd13ifvqgqg","pricing_plan_id":"cebpf4jnsgd1na2vs0mg"},{"bike_id":"8d699560-bb04-4397-b1fb-33f47700505a","system_id":"levelo_inurba_marseille","lat":43.26188,"lon":5.37457,"is_reserved":false,"is_disabled":false,"rental_uris":{"android":"levelo://app?vid=8d699560-bb04-4397-b1fb-33f47700505a","ios":"levelo://app?vid=8d699560-bb04-4397-b1fb-33f47700505a"},"vehicle_type_id":"4","last_reported":1727888852,"current_range_meters":22400,"station_id":"ce4bhgp2rcd13ifvqfc0","pricing_plan_id":"cebpf4jnsgd1na2vs0mg"},{"bike_id":"6df14660-d5df-40ba-bfd5-f3fd2d5d6459","system_id":"levelo_inurba_marseille","lat":43.28842,"lon":5.3586,"is_reserved":false,"is_disabled":false,"rental_uris":{"android":"levelo://app?vid=6df14660-d5df-40ba-bfd5-f3fd2d5d6459","ios":"levelo://app?vid=6df14660-d5df-40ba-bfd5-f3fd2d5d6459"},"vehicle_type_id":"4","last_reported":1727888852,"current_range_meters":2800,"station_id":"ce4bhb12rcd13ifvqem0","pricing_plan_id":"cebpf4jnsgd1na2vs0mg"},{"bike_id":"01e77b0f-7cc2-4f21-bca1-292aaef4dbf5","system_id":"levelo_inurba_marseille","lat":43.23062,"lon":5.35491,"is_reserved":false,"is_disabled":false,"rental_uris":{"android":"levelo://app?vid=01e77b0f-7cc2-4f21-bca1-292aaef4dbf5","ios":"levelo://app?vid=01e77b0f-7cc2-4f21-bca1-292aaef4dbf5"},"vehicle_type_id":"4","last_reported":1727888852,"current_range_meters":25200,"station_id":"cpo3342slgdg3j2ifvpg","pricing_plan_id":"cebpf4jnsgd1na2vs0mg"},{"bike_id":"5dac9f59-99d8-47f9-b99a-06c3eeec022f","system_id":"levelo_inurba_marseille","lat":43.23062,"lon":5.35493,"is_reserved":false,"is_disabled":false,"rental_uris":{"android":"levelo://app?vid=5dac9f59-99d8-47f9-b99a-06c3eeec022f","ios":"levelo://app?vid=5dac9f59-99d8-47f9-b99a-06c3eeec022f"},"vehicle_type_id":"4","last_reported":1727888852,"current_range_meters":34000,"station_id":"cpo3342slgdg3j2ifvpg","pricing_plan_id":"cebpf4jnsgd1na2vs0mg"},{"bike_id":"751d2ee1-e1d4-4701-bdf3-eaeaefc540ca","system_id":"levelo_inurba_marseille","lat":43.24668,"lon":5.38163,"is_reserved":false,"is_disabled":false,"rental_uris":{"android":"levelo://app?vid=751d2ee1-e1d4-4701-bdf3-eaeaefc540ca","ios":"levelo://app?vid=751d2ee1-e1d4-4701-bdf3-eaeaefc540ca"},"vehicle_type_id":"4","last_reported":1727888852,"current_range_meters":38800,"station_id":"ce4bhih2rcd13ifvqfr0","pricing_plan_id":"cebpf4jnsgd1na2vs0mg"},{"bike_id":"93abd138-ca66-449e-9b7e-6b25e4462043","system_id":"levelo_inurba_marseille","lat":43.330245,"lon":5.390338,"is_reserved":false,"is_disabled":false,"rental_uris":{"android":"levelo://app?vid=93abd138-ca66-449e-9b7e-6b25e4462043","ios":"levelo://app?vid=93abd138-ca66-449e-9b7e-6b25e4462043"},"vehicle_type_id":"4","last_reported":1727888852,"current_range_meters":4800,"station_id":"ce4bhr92rcd13ifvqhrg","pricing_plan_id":"cebpf4jnsgd1na2vs0mg"},{"bike_id":"2656314f-982e-4541-9a98-b333567c157a","system_id":"levelo_inurba_marseille","lat":43.29538,"lon":5.38547,"is_reserved":false,"is_disabled":false,"rental_uris":{"android":"levelo://app?vid=2656314f-982e-4541-9a98-b333567c157a","ios":"levelo://app?vid=2656314f-982e-4541-9a98-b333567c157a"},"vehicle_type_id":"4","last_reported":1727888852,"current_range_meters":38800,"station_id":"ce4bgih2rcd13ifvqba0","pricing_plan_id":"cebpf4jnsgd1na2vs0mg"},{"bike_id":"4cadf394-ceb8-4c31-912d-ffbbb0fcb055","system_id":"levelo_inurba_marseille","lat":43.29777,"lon":5.37108,"is_reserved":false,"is_disabled":false,"rental_uris":{"android":"levelo://app?vid=4cadf394-ceb8-4c31-912d-ffbbb0fcb055","ios":"levelo://app?vid=4cadf394-ceb8-4c31-912d-ffbbb0fcb055"},"vehicle_type_id":"4","last_reported":1727888852,"current_range_meters":36800,"station_id":"ce4bgop2rcd13ifvqc1g","pricing_plan_id":"cebpf4jnsgd1na2vs0mg"},{"bike_id":"b91701d0-483a-42fe-8343-4517bc3bee92","system_id":"levelo_inurba_marseille","lat":43.32653,"lon":5.40999,"is_reserved":false,"is_disabled":false,"rental_uris":{"android":"levelo://app?vid=b91701d0-483a-42fe-8343-4517bc3bee92","ios":"levelo://app?vid=b91701d0-483a-42fe-8343-4517bc3bee92"},"vehicle_type_id":"4","last_reported":1727888852,"current_range_meters":8000,"station_id":"ce4bhpp2rcd13ifvqhgg","pricing_plan_id":"cebpf4jnsgd1na2vs0mg"},{"bike_id":"1e482f6c-9148-4802-8ec0-1e40942a2966","system_id":"levelo_inurba_marseille","lat":43.27991,"lon":5.40009,"is_reserved":false,"is_disabled":false,"rental_uris":{"android":"levelo://app?vid=1e482f6c-9148-4802-8ec0-1e40942a2966","ios":"levelo://app?vid=1e482f6c-9148-4802-8ec0-1e40942a2966"},"vehicle_type_id":"4","last_reported":1727888852,"current_range_meters":9200,"station_id":"ce4bho92rcd13ifvqh4g","pricing_plan_id":"cebpf4jnsgd1na2vs0mg"},{"bike_id":"9a21c2e5-458a-4e42-9d07-98531e195b39","system_id":"levelo_inurba_marseille","lat":43.30146,"lon":5.38841,"is_reserved":false,"is_disabled":false,"rental_uris":{"android":"levelo://app?vid=9a21c2e5-458a-4e42-9d07-98531e195b39","ios":"levelo://app?vid=9a21c2e5-458a-4e42-9d07-98531e195b39"},"vehicle_type_id":"4","last_reported":1727888852,"current_range_meters":11600,"station_id":"ce4bgvh2rcd13ifvqcs0","pricing_plan_id":"cebpf4jnsgd1na2vs0mg"},{"bike_id":"a2b1826e-824a-487a-ac9e-c9292a57741e","system_id":"levelo_inurba_marseille","lat":43.29971,"lon":5.37179,"is_reserved":false,"is_disabled":false,"rental_uris":{"android":"levelo://app?vid=a2b1826e-824a-487a-ac9e-c9292a57741e","ios":"levelo://app?vid=a2b1826e-824a-487a-ac9e-c9292a57741e"},"vehicle_type_id":"4","last_reported":1727888852,"current_range_meters":12400,"station_id":"ce4bgr92rcd13ifvqc7g","pricing_plan_id":"cebpf4jnsgd1na2vs0mg"},{"bike_id":"1a855352-86f2-4d19-9361-cae95d56f46c","system_id":"levelo_inurba_marseille","lat":43.28416,"lon":5.34996,"is_reserved":false,"is_disabled":false,"rental_uris":{"android":"levelo://app?vid=1a855352-86f2-4d19-9361-cae95d56f46c","ios":"levelo://app?vid=1a855352-86f2-4d19-9361-cae95d56f46c"},"vehicle_type_id":"4","last_reported":1727888852,"current_range_meters":38800,"station_id":"ce4bhbh2rcd13ifvqepg","pricing_plan_id":"cebpf4jnsgd1na2vs0mg"},{"bike_id":"60f2eee1-96c3-44bb-9def-83b94a1edf93","system_id":"levelo_inurba_marseille","lat":43.26486,"lon":5.39556,"is_reserved":false,"is_disabled":false,"rental_uris":{"android":"levelo://app?vid=60f2eee1-96c3-44bb-9def-83b94a1edf93","ios":"levelo://app?vid=60f2eee1-96c3-44bb-9def-83b94a1edf93"},"vehicle_type_id":"4","last_reported":1727888852,"current_range_meters":32400,"station_id":"ce4bhi12rcd13ifvqfq0","pricing_plan_id":"cebpf4jnsgd1na2vs0mg"},{"bike_id":"0284f6bc-29aa-4334-bf16-4dfa1978370c","system_id":"levelo_inurba_marseille","lat":43.25862,"lon":5.39907,"is_reserved":false,"is_disabled":false,"rental_uris":{"android":"levelo://app?vid=0284f6bc-29aa-4334-bf16-4dfa1978370c","ios":"levelo://app?vid=0284f6bc-29aa-4334-bf16-4dfa1978370c"},"vehicle_type_id":"4","last_reported":1727888852,"current_range_meters":29600,"station_id":"ce4bhl92rcd13ifvqghg","pricing_plan_id":"cebpf4jnsgd1na2vs0mg"},{"bike_id":"aef30e4d-453f-46dd-b605-28361ccfbee0","system_id":"levelo_inurba_marseille","lat":43.2885,"lon":5.35859,"is_reserved":false,"is_disabled":false,"rental_uris":{"android":"levelo://app?vid=aef30e4d-453f-46dd-b605-28361ccfbee0","ios":"levelo://app?vid=aef30e4d-453f-46dd-b605-28361ccfbee0"},"vehicle_type_id":"4","last_reported":1727888852,"current_range_meters":28000,"station_id":"ce4bhb12rcd13ifvqem0","pricing_plan_id":"cebpf4jnsgd1na2vs0mg"},{"bike_id":"5969baf8-9d99-4f93-a845-cfb36e68a95f","system_id":"levelo_inurba_marseille","lat":43.29519,"lon":5.39042,"is_reserved":false,"is_disabled":false,"rental_uris":{"android":"levelo://app?vid=5969baf8-9d99-4f93-a845-cfb36e68a95f","ios":"levelo://app?vid=5969baf8-9d99-4f93-a845-cfb36e68a95f"},"vehicle_type_id":"4","last_reported":1727888852,"current_range_meters":20800,"station_id":"ce4bh3p2rcd13ifvqdp0","pricing_plan_id":"cebpf4jnsgd1na2vs0mg"},{"bike_id":"e5979d81-2091-4e04-99ed-137958dc5574","system_id":"levelo_inurba_marseille","lat":43.24804,"lon":5.3746,"is_reserved":false,"is_disabled":false,"rental_uris":{"android":"levelo://app?vid=e5979d81-2091-4e04-99ed-137958dc5574","ios":"levelo://app?vid=e5979d81-2091-4e04-99ed-137958dc5574"},"vehicle_type_id":"4","last_reported":1727888852,"current_range_meters":36400,"station_id":"ce4bhgh2rcd13ifvqfb0","pricing_plan_id":"cebpf4jnsgd1na2vs0mg"},{"bike_id":"0bd89641-fce5-4901-afcf-76a382e6190f","system_id":"levelo_inurba_marseille","lat":43.28996,"lon":5.35611,"is_reserved":false,"is_disabled":false,"rental_uris":{"android":"levelo://app?vid=0bd89641-fce5-4901-afcf-76a382e6190f","ios":"levelo://app?vid=0bd89641-fce5-4901-afcf-76a382e6190f"},"vehicle_type_id":"4","last_reported":1727888852,"current_range_meters":11600,"station_id":"ce4bhb92rcd13ifvqen0","pricing_plan_id":"cebpf4jnsgd1na2vs0mg"},{"bike_id":"970be3b2-3017-43b3-9323-5bafde814cfa","system_id":"levelo_inurba_marseille","lat":43.29621,"lon":5.37151,"is_reserved":false,"is_disabled":false,"rental_uris":{"android":"levelo://app?vid=970be3b2-3017-43b3-9323-5bafde814cfa","ios":"levelo://app?vid=970be3b2-3017-43b3-9323-5bafde814cfa"},"vehicle_type_id":"4","last_reported":1727888852,"current_range_meters":3200,"station_id":"ce4bgnh2rcd13ifvqc0g","pricing_plan_id":"cebpf4jnsgd1na2vs0mg"},{"bike_id":"0ea24db1-619c-4077-8582-6e4b1ec3b77e","system_id":"levelo_inurba_marseille","lat":43.28572,"lon":5.39496,"is_reserved":false,"is_disabled":false,"rental_uris":{"android":"levelo://app?vid=0ea24db1-619c-4077-8582-6e4b1ec3b77e","ios":"levelo://app?vid=0ea24db1-619c-4077-8582-6e4b1ec3b77e"},"vehicle_type_id":"4","last_reported":1727888852,"current_range_meters":32400,"station_id":"ce4bh292rcd13ifvqdg0","pricing_plan_id":"cebpf4jnsgd1na2vs0mg"},{"bike_id":"5836f09f-f5a7-4c2e-a3af-6117a1c8eceb","system_id":"levelo_inurba_marseille","lat":43.29706,"lon":5.3661,"is_reserved":false,"is_disabled":false,"rental_uris":{"android":"levelo://app?vid=5836f09f-f5a7-4c2e-a3af-6117a1c8eceb","ios":"levelo://app?vid=5836f09f-f5a7-4c2e-a3af-6117a1c8eceb"},"vehicle_type_id":"4","last_reported":1727888852,"current_range_meters":19600,"station_id":"ce4bgn12rcd13ifvqbt0","pricing_plan_id":"cebpf4jnsgd1na2vs0mg"},{"bike_id":"17131760-bc14-44e3-9857-f6f15d71c71e","system_id":"levelo_inurba_marseille","lat":43.29004,"lon":5.35612,"is_reserved":false,"is_disabled":false,"rental_uris":{"android":"levelo://app?vid=17131760-bc14-44e3-9857-f6f15d71c71e","ios":"levelo://app?vid=17131760-bc14-44e3-9857-f6f15d71c71e"},"vehicle_type_id":"4","last_reported":1727888852,"current_range_meters":8800,"station_id":"ce4bhb92rcd13ifvqen0","pricing_plan_id":"cebpf4jnsgd1na2vs0mg"},{"bike_id":"0dbb5e03-5397-4753-aaa7-105e76802ecc","system_id":"levelo_inurba_marseille","lat":43.29269,"lon":5.3685,"is_reserved":false,"is_disabled":false,"rental_uris":{"android":"levelo://app?vid=0dbb5e03-5397-4753-aaa7-105e76802ecc","ios":"levelo://app?vid=0dbb5e03-5397-4753-aaa7-105e76802ecc"},"vehicle_type_id":"4","last_reported":1727888852,"current_range_meters":22400,"station_id":"ce4bhbp2rcd13ifvqesg","pricing_plan_id":"cebpf4jnsgd1na2vs0mg"},{"bike_id":"1968ed51-a936-4bd9-a790-bf2eac1377ee","system_id":"levelo_inurba_marseille","lat":43.29534,"lon":5.38562,"is_reserved":false,"is_disabled":false,"rental_uris":{"android":"levelo://app?vid=1968ed51-a936-4bd9-a790-bf2eac1377ee","ios":"levelo://app?vid=1968ed51-a936-4bd9-a790-bf2eac1377ee"},"vehicle_type_id":"4","last_reported":1727888852,"current_range_meters":28800,"station_id":"ce4bgih2rcd13ifvqba0","pricing_plan_id":"cebpf4jnsgd1na2vs0mg"},{"bike_id":"d03c9e90-1c33-43ec-ad82-7c382de3a1a4","system_id":"levelo_inurba_marseille","lat":43.30879,"lon":5.39638,"is_reserved":false,"is_disabled":false,"rental_uris":{"android":"levelo://app?vid=d03c9e90-1c33-43ec-ad82-7c382de3a1a4","ios":"levelo://app?vid=d03c9e90-1c33-43ec-ad82-7c382de3a1a4"},"vehicle_type_id":"4","last_reported":1727888852,"current_range_meters":25600,"station_id":"ce4bh012rcd13ifvqcv0","pricing_plan_id":"cebpf4jnsgd1na2vs0mg"},{"bike_id":"ac7ada3d-8d44-46de-a629-be1e6b5154d5","system_id":"levelo_inurba_marseille","lat":43.29416,"lon":5.38621,"is_reserved":false,"is_disabled":false,"rental_uris":{"android":"levelo://app?vid=ac7ada3d-8d44-46de-a629-be1e6b5154d5","ios":"levelo://app?vid=ac7ada3d-8d44-46de-a629-be1e6b5154d5"},"vehicle_type_id":"4","last_reported":1727888852,"current_range_meters":28000,"station_id":"ce4bh2h2rcd13ifvqdh0","pricing_plan_id":"cebpf4jnsgd1na2vs0mg"},{"bike_id":"d17e0fb9-e660-43b0-b947-99e08f17ade7","system_id":"levelo_inurba_marseille","lat":43.2656,"lon":5.39021,"is_reserved":false,"is_disabled":false,"rental_uris":{"android":"levelo://app?vid=d17e0fb9-e660-43b0-b947-99e08f17ade7","ios":"levelo://app?vid=d17e0fb9-e660-43b0-b947-99e08f17ade7"},"vehicle_type_id":"4","last_reported":1727888852,"current_range_meters":28400,"station_id":"ce4bhe12rcd13ifvqf30","pricing_plan_id":"cebpf4jnsgd1na2vs0mg"},{"bike_id":"40fdc8b9-615a-4482-92a9-508878ca9030","system_id":"levelo_inurba_marseille","lat":43.27841,"lon":5.3921,"is_reserved":false,"is_disabled":false,"rental_uris":{"android":"levelo://app?vid=40fdc8b9-615a-4482-92a9-508878ca9030","ios":"levelo://app?vid=40fdc8b9-615a-4482-92a9-508878ca9030"},"vehicle_type_id":"4","last_reported":1727888852,"current_range_meters":14000,"station_id":"ce4bhjp2rcd13ifvqga0","pricing_plan_id":"cebpf4jnsgd1na2vs0mg"},{"bike_id":"6b315d99-3ae8-4acd-8c24-9531c7a83eb8","system_id":"levelo_inurba_marseille","lat":43.23064,"lon":5.35497,"is_reserved":false,"is_disabled":false,"rental_uris":{"android":"levelo://app?vid=6b315d99-3ae8-4acd-8c24-9531c7a83eb8","ios":"levelo://app?vid=6b315d99-3ae8-4acd-8c24-9531c7a83eb8"},"vehicle_type_id":"4","last_reported":1727888852,"current_range_meters":28000,"station_id":"cpo3342slgdg3j2ifvpg","pricing_plan_id":"cebpf4jnsgd1na2vs0mg"},{"bike_id":"22fc134c-a738-43b9-9cf8-33161084e27f","system_id":"levelo_inurba_marseille","lat":43.27983,"lon":5.41662,"is_reserved":false,"is_disabled":false,"rental_uris":{"android":"levelo://app?vid=22fc134c-a738-43b9-9cf8-33161084e27f","ios":"levelo://app?vid=22fc134c-a738-43b9-9cf8-33161084e27f"},"vehicle_type_id":"4","last_reported":1727888852,"current_range_meters":4800,"station_id":"ce4bho12rcd13ifvqh1g","pricing_plan_id":"cebpf4jnsgd1na2vs0mg"},{"bike_id":"578d0941-70e1-40a1-ac49-57649f7d0419","system_id":"levelo_inurba_marseille","lat":43.28702,"lon":5.374,"is_reserved":false,"is_disabled":false,"rental_uris":{"android":"levelo://app?vid=578d0941-70e1-40a1-ac49-57649f7d0419","ios":"levelo://app?vid=578d0941-70e1-40a1-ac49-57649f7d0419"},"vehicle_type_id":"4","last_reported":1727888852,"current_range_meters":9600,"station_id":"ce4bh3p2rcd13ifvqdq0","pricing_plan_id":"cebpf4jnsgd1na2vs0mg"},{"bike_id":"800cf9a9-fdcc-4a61-bc01-741188c51c59","system_id":"levelo_inurba_marseille","lat":43.267731,"lon":5.394151,"is_reserved":false,"is_disabled":false,"rental_uris":{"android":"levelo://app?vid=800cf9a9-fdcc-4a61-bc01-741188c51c59","ios":"levelo://app?vid=800cf9a9-fdcc-4a61-bc01-741188c51c59"},"vehicle_type_id":"4","last_reported":1727888852,"current_range_meters":5600,"station_id":"ce4bhh12rcd13ifvqfg0","pricing_plan_id":"cebpf4jnsgd1na2vs0mg"},{"bike_id":"ca5d8bba-ab92-4ec1-97fa-0506d5347a71","system_id":"levelo_inurba_marseille","lat":43.2318,"lon":5.39987,"is_reserved":false,"is_disabled":false,"rental_uris":{"android":"levelo://app?vid=ca5d8bba-ab92-4ec1-97fa-0506d5347a71","ios":"levelo://app?vid=ca5d8bba-ab92-4ec1-97fa-0506d5347a71"},"vehicle_type_id":"4","last_reported":1727888852,"current_range_meters":11200,"station_id":"ce4bhn12rcd13ifvqgqg","pricing_plan_id":"cebpf4jnsgd1na2vs0mg"},{"bike_id":"fb23861c-d385-4897-9786-38455b7e26f3","system_id":"levelo_inurba_marseille","lat":43.28448,"lon":5.39187,"is_reserved":false,"is_disabled":false,"rental_uris":{"android":"levelo://app?vid=fb23861c-d385-4897-9786-38455b7e26f3","ios":"levelo://app?vid=fb23861c-d385-4897-9786-38455b7e26f3"},"vehicle_type_id":"4","last_reported":1727888852,"current_range_meters":16400,"station_id":"ce4bhoh2rcd13ifvqh5g","pricing_plan_id":"cebpf4jnsgd1na2vs0mg"},{"bike_id":"5ffae8be-ccc5-493e-8d47-58556bf98446","system_id":"levelo_inurba_marseille","lat":43.29435,"lon":5.39745,"is_reserved":false,"is_disabled":false,"rental_uris":{"android":"levelo://app?vid=5ffae8be-ccc5-493e-8d47-58556bf98446","ios":"levelo://app?vid=5ffae8be-ccc5-493e-8d47-58556bf98446"},"vehicle_type_id":"4","last_reported":1727888852,"current_range_meters":17200,"station_id":"ce4bh3h2rcd13ifvqdo0","pricing_plan_id":"cebpf4jnsgd1na2vs0mg"},{"bike_id":"b3f9ed90-c6b1-4732-9650-0b8f613af2be","system_id":"levelo_inurba_marseille","lat":43.24067,"lon":5.37767,"is_reserved":false,"is_disabled":false,"rental_uris":{"android":"levelo://app?vid=b3f9ed90-c6b1-4732-9650-0b8f613af2be","ios":"levelo://app?vid=b3f9ed90-c6b1-4732-9650-0b8f613af2be"},"vehicle_type_id":"4","last_reported":1727888852,"current_range_meters":7200,"station_id":"ce4bhnp2rcd13ifvqgvg","pricing_plan_id":"cebpf4jnsgd1na2vs0mg"},{"bike_id":"9cbbab00-5320-4d52-8d7f-bad878bc90ea","system_id":"levelo_inurba_marseille","lat":43.2306,"lon":5.3549,"is_reserved":false,"is_disabled":false,"rental_uris":{"android":"levelo://app?vid=9cbbab00-5320-4d52-8d7f-bad878bc90ea","ios":"levelo://app?vid=9cbbab00-5320-4d52-8d7f-bad878bc90ea"},"vehicle_type_id":"4","last_reported":1727888852,"current_range_meters":22400,"station_id":"cpo3342slgdg3j2ifvpg","pricing_plan_id":"cebpf4jnsgd1na2vs0mg"},{"bike_id":"8261ad18-47c4-4030-8071-d259e0cccae5","system_id":"levelo_inurba_marseille","lat":43.243759,"lon":5.3708,"is_reserved":false,"is_disabled":false,"rental_uris":{"android":"levelo://app?vid=8261ad18-47c4-4030-8071-d259e0cccae5","ios":"levelo://app?vid=8261ad18-47c4-4030-8071-d259e0cccae5"},"vehicle_type_id":"4","last_reported":1727888852,"current_range_meters":9600,"station_id":"ce4bhhh2rcd13ifvqfk0","pricing_plan_id":"cebpf4jnsgd1na2vs0mg"},{"bike_id":"f3821704-2877-494b-9b06-b184970799f8","system_id":"levelo_inurba_marseille","lat":43.32112,"lon":5.36781,"is_reserved":false,"is_disabled":false,"rental_uris":{"android":"levelo://app?vid=f3821704-2877-494b-9b06-b184970799f8","ios":"levelo://app?vid=f3821704-2877-494b-9b06-b184970799f8"},"vehicle_type_id":"4","last_reported":1727888852,"current_range_meters":36400,"station_id":"ce4bhrh2rcd13ifvqhug","pricing_plan_id":"cebpf4jnsgd1na2vs0mg"},{"bike_id":"3bd2cfbb-b97e-4930-8a6c-7dce3aad4f87","system_id":"levelo_inurba_marseille","lat":43.29764,"lon":5.37162,"is_reserved":false,"is_disabled":false,"rental_uris":{"android":"levelo://app?vid=3bd2cfbb-b97e-4930-8a6c-7dce3aad4f87","ios":"levelo://app?vid=3bd2cfbb-b97e-4930-8a6c-7dce3aad4f87"},"vehicle_type_id":"4","last_reported":1727888852,"current_range_meters":36800,"station_id":"ce4bgnh2rcd13ifvqc0g","pricing_plan_id":"cebpf4jnsgd1na2vs0mg"},{"bike_id":"6a1f33ff-2986-4f82-b257-aa492c1c8f53","system_id":"levelo_inurba_marseille","lat":43.33026,"lon":5.39038,"is_reserved":false,"is_disabled":false,"rental_uris":{"android":"levelo://app?vid=6a1f33ff-2986-4f82-b257-aa492c1c8f53","ios":"levelo://app?vid=6a1f33ff-2986-4f82-b257-aa492c1c8f53"},"vehicle_type_id":"4","last_reported":1727888852,"current_range_meters":39200,"station_id":"ce4bhr92rcd13ifvqhrg","pricing_plan_id":"cebpf4jnsgd1na2vs0mg"},{"bike_id":"644f6419-3eb6-4abb-a85e-79349d99a009","system_id":"levelo_inurba_marseille","lat":43.31531,"lon":5.3804,"is_reserved":false,"is_disabled":false,"rental_uris":{"android":"levelo://app?vid=644f6419-3eb6-4abb-a85e-79349d99a009","ios":"levelo://app?vid=644f6419-3eb6-4abb-a85e-79349d99a009"},"vehicle_type_id":"4","last_reported":1727888852,"current_range_meters":32400,"station_id":"ce4bhsp2rcd13ifvqi50","pricing_plan_id":"cebpf4jnsgd1na2vs0mg"},{"bike_id":"702ebf72-4cc0-443a-abf5-998152bc24a4","system_id":"levelo_inurba_marseille","lat":43.28272,"lon":5.35076,"is_reserved":false,"is_disabled":false,"rental_uris":{"android":"levelo://app?vid=702ebf72-4cc0-443a-abf5-998152bc24a4","ios":"levelo://app?vid=702ebf72-4cc0-443a-abf5-998152bc24a4"},"vehicle_type_id":"4","last_reported":1727888852,"current_range_meters":24000,"station_id":"ce4bhbp2rcd13ifvqerg","pricing_plan_id":"cebpf4jnsgd1na2vs0mg"},{"bike_id":"f1e4af6b-59ca-4525-939a-df1c6e323e98","system_id":"levelo_inurba_marseille","lat":43.29445,"lon":5.39743,"is_reserved":false,"is_disabled":false,"rental_uris":{"android":"levelo://app?vid=f1e4af6b-59ca-4525-939a-df1c6e323e98","ios":"levelo://app?vid=f1e4af6b-59ca-4525-939a-df1c6e323e98"},"vehicle_type_id":"4","last_reported":1727888852,"current_range_meters":22400,"station_id":"ce4bh3h2rcd13ifvqdo0","pricing_plan_id":"cebpf4jnsgd1na2vs0mg"},{"bike_id":"23673af4-ac79-4194-baac-f55e00e00c90","system_id":"levelo_inurba_marseille","lat":43.30103,"lon":5.39081,"is_reserved":false,"is_disabled":false,"rental_uris":{"android":"levelo://app?vid=23673af4-ac79-4194-baac-f55e00e00c90","ios":"levelo://app?vid=23673af4-ac79-4194-baac-f55e00e00c90"},"vehicle_type_id":"4","last_reported":1727888852,"current_range_meters":12000,"station_id":"ce4bh192rcd13ifvqdb0","pricing_plan_id":"cebpf4jnsgd1na2vs0mg"},{"bike_id":"5ca4e94e-030e-431f-a321-406d576ad998","system_id":"levelo_inurba_marseille","lat":43.2799,"lon":5.41666,"is_reserved":false,"is_disabled":false,"rental_uris":{"android":"levelo://app?vid=5ca4e94e-030e-431f-a321-406d576ad998","ios":"levelo://app?vid=5ca4e94e-030e-431f-a321-406d576ad998"},"vehicle_type_id":"4","last_reported":1727888852,"current_range_meters":3600,"station_id":"ce4bho12rcd13ifvqh1g","pricing_plan_id":"cebpf4jnsgd1na2vs0mg"},{"bike_id":"21c9cd5f-d9bd-4cbc-9fb6-2738b3b1fc7f","system_id":"levelo_inurba_marseille","lat":43.27989,"lon":5.41659,"is_reserved":false,"is_disabled":false,"rental_uris":{"android":"levelo://app?vid=21c9cd5f-d9bd-4cbc-9fb6-2738b3b1fc7f","ios":"levelo://app?vid=21c9cd5f-d9bd-4cbc-9fb6-2738b3b1fc7f"},"vehicle_type_id":"4","last_reported":1727888852,"current_range_meters":9600,"station_id":"ce4bho12rcd13ifvqh1g","pricing_plan_id":"cebpf4jnsgd1na2vs0mg"},{"bike_id":"6f37f7d9-e4db-48a3-8a3d-516a308e7d4e","system_id":"levelo_inurba_marseille","lat":43.30934,"lon":5.40148,"is_reserved":false,"is_disabled":false,"rental_uris":{"android":"levelo://app?vid=6f37f7d9-e4db-48a3-8a3d-516a308e7d4e","ios":"levelo://app?vid=6f37f7d9-e4db-48a3-8a3d-516a308e7d4e"},"vehicle_type_id":"4","last_reported":1727888852,"current_range_meters":2800,"station_id":"ce4bgvp2rcd13ifvqct0","pricing_plan_id":"cebpf4jnsgd1na2vs0mg"},{"bike_id":"0d0224ff-2281-4bae-9b61-a2692ea6d40b","system_id":"levelo_inurba_marseille","lat":43.29917,"lon":5.37462,"is_reserved":false,"is_disabled":false,"rental_uris":{"android":"levelo://app?vid=0d0224ff-2281-4bae-9b61-a2692ea6d40b","ios":"levelo://app?vid=0d0224ff-2281-4bae-9b61-a2692ea6d40b"},"vehicle_type_id":"4","last_reported":1727888852,"current_range_meters":34800,"station_id":"ce4bgjh2rcd13ifvqbg0","pricing_plan_id":"cebpf4jnsgd1na2vs0mg"},{"bike_id":"09d45344-77a6-4a84-a721-a80c451afd5c","system_id":"levelo_inurba_marseille","lat":43.2988,"lon":5.3891,"is_reserved":false,"is_disabled":false,"rental_uris":{"android":"levelo://app?vid=09d45344-77a6-4a84-a721-a80c451afd5c","ios":"levelo://app?vid=09d45344-77a6-4a84-a721-a80c451afd5c"},"vehicle_type_id":"4","last_reported":1727888852,"current_range_meters":4800,"station_id":"ce4bh392rcd13ifvqdl0","pricing_plan_id":"cebpf4jnsgd1na2vs0mg"},{"bike_id":"7039f557-c61e-4c35-934e-72acfabdfcb1","system_id":"levelo_inurba_marseille","lat":43.24175,"lon":5.3972,"is_reserved":false,"is_disabled":false,"rental_uris":{"android":"levelo://app?vid=7039f557-c61e-4c35-934e-72acfabdfcb1","ios":"levelo://app?vid=7039f557-c61e-4c35-934e-72acfabdfcb1"},"vehicle_type_id":"4","last_reported":1727888852,"current_range_meters":38800,"station_id":"ce4bhn12rcd13ifvqgpg","pricing_plan_id":"cebpf4jnsgd1na2vs0mg"},{"bike_id":"2fc5050f-b036-4255-a193-23eec2fec7cc","system_id":"levelo_inurba_marseille","lat":43.23062,"lon":5.35489,"is_reserved":false,"is_disabled":false,"rental_uris":{"android":"levelo://app?vid=2fc5050f-b036-4255-a193-23eec2fec7cc","ios":"levelo://app?vid=2fc5050f-b036-4255-a193-23eec2fec7cc"},"vehicle_type_id":"4","last_reported":1727888852,"current_range_meters":21600,"station_id":"cpo3342slgdg3j2ifvpg","pricing_plan_id":"cebpf4jnsgd1na2vs0mg"},{"bike_id":"510a29db-4863-4bd1-8975-fb0cfdca047f","system_id":"levelo_inurba_marseille","lat":43.24072,"lon":5.37756,"is_reserved":false,"is_disabled":false,"rental_uris":{"android":"levelo://app?vid=510a29db-4863-4bd1-8975-fb0cfdca047f","ios":"levelo://app?vid=510a29db-4863-4bd1-8975-fb0cfdca047f"},"vehicle_type_id":"4","last_reported":1727888852,"current_range_meters":12000,"station_id":"ce4bhnp2rcd13ifvqgvg","pricing_plan_id":"cebpf4jnsgd1na2vs0mg"},{"bike_id":"dfde4454-5e8c-40dc-b075-5a5dfa05278b","system_id":"levelo_inurba_marseille","lat":43.29777,"lon":5.39319,"is_reserved":false,"is_disabled":false,"rental_uris":{"android":"levelo://app?vid=dfde4454-5e8c-40dc-b075-5a5dfa05278b","ios":"levelo://app?vid=dfde4454-5e8c-40dc-b075-5a5dfa05278b"},"vehicle_type_id":"4","last_reported":1727888852,"current_range_meters":28400,"station_id":"chh1huq6cuj3fo74tm60","pricing_plan_id":"cebpf4jnsgd1na2vs0mg"},{"bike_id":"67150c01-fa6e-4a52-a8b1-72695ee33786","system_id":"levelo_inurba_marseille","lat":43.30302,"lon":5.39212,"is_reserved":false,"is_disabled":false,"rental_uris":{"android":"levelo://app?vid=67150c01-fa6e-4a52-a8b1-72695ee33786","ios":"levelo://app?vid=67150c01-fa6e-4a52-a8b1-72695ee33786"},"vehicle_type_id":"4","last_reported":1727888852,"current_range_meters":27600,"station_id":"ce4bgkh2rcd13ifvqbk0","pricing_plan_id":"cebpf4jnsgd1na2vs0mg"},{"bike_id":"19a11a53-9d53-4361-a898-fea73f69f099","system_id":"levelo_inurba_marseille","lat":43.27944,"lon":5.41057,"is_reserved":false,"is_disabled":false,"rental_uris":{"android":"levelo://app?vid=19a11a53-9d53-4361-a898-fea73f69f099","ios":"levelo://app?vid=19a11a53-9d53-4361-a898-fea73f69f099"},"vehicle_type_id":"4","last_reported":1727888852,"current_range_meters":9600,"station_id":"ce4bhnp2rcd13ifvqh0g","pricing_plan_id":"cebpf4jnsgd1na2vs0mg"},{"bike_id":"f44ed0de-4772-4617-bcdc-2434f90bfb41","system_id":"levelo_inurba_marseille","lat":43.299011,"lon":5.387107,"is_reserved":false,"is_disabled":false,"rental_uris":{"android":"levelo://app?vid=f44ed0de-4772-4617-bcdc-2434f90bfb41","ios":"levelo://app?vid=f44ed0de-4772-4617-bcdc-2434f90bfb41"},"vehicle_type_id":"4","last_reported":1727888852,"current_range_meters":4400,"station_id":"","pricing_plan_id":"cebpf4jnsgd1na2vs0mg"},{"bike_id":"cb2d37ac-a407-46c3-820b-b483f3b4e158","system_id":"levelo_inurba_marseille","lat":43.29735,"lon":5.39344,"is_reserved":false,"is_disabled":false,"rental_uris":{"android":"levelo://app?vid=cb2d37ac-a407-46c3-820b-b483f3b4e158","ios":"levelo://app?vid=cb2d37ac-a407-46c3-820b-b483f3b4e158"},"vehicle_type_id":"4","last_reported":1727888852,"current_range_meters":16400,"station_id":"chh1huq6cuj3fo74tm60","pricing_plan_id":"cebpf4jnsgd1na2vs0mg"},{"bike_id":"705a14c4-91de-41e2-bf71-18534133a532","system_id":"levelo_inurba_marseille","lat":43.29887,"lon":5.43661,"is_reserved":false,"is_disabled":false,"rental_uris":{"android":"levelo://app?vid=705a14c4-91de-41e2-bf71-18534133a532","ios":"levelo://app?vid=705a14c4-91de-41e2-bf71-18534133a532"},"vehicle_type_id":"4","last_reported":1727888852,"current_range_meters":28800,"station_id":"ce4bhpp2rcd13ifvqhfg","pricing_plan_id":"cebpf4jnsgd1na2vs0mg"},{"bike_id":"04c7b448-5a87-4c4f-ab2f-4f8d1d4f1ef5","system_id":"levelo_inurba_marseille","lat":43.2861,"lon":5.35106,"is_reserved":false,"is_disabled":false,"rental_uris":{"android":"levelo://app?vid=04c7b448-5a87-4c4f-ab2f-4f8d1d4f1ef5","ios":"levelo://app?vid=04c7b448-5a87-4c4f-ab2f-4f8d1d4f1ef5"},"vehicle_type_id":"4","last_reported":1727888852,"current_range_meters":17200,"station_id":"ce4bhch2rcd13ifvqeug","pricing_plan_id":"cebpf4jnsgd1na2vs0mg"},{"bike_id":"fa6a5f31-85f9-4ee2-b731-4bbd9da46b14","system_id":"levelo_inurba_marseille","lat":43.27943,"lon":5.41057,"is_reserved":false,"is_disabled":false,"rental_uris":{"android":"levelo://app?vid=fa6a5f31-85f9-4ee2-b731-4bbd9da46b14","ios":"levelo://app?vid=fa6a5f31-85f9-4ee2-b731-4bbd9da46b14"},"vehicle_type_id":"4","last_reported":1727888852,"current_range_meters":38800,"station_id":"ce4bhnp2rcd13ifvqh0g","pricing_plan_id":"cebpf4jnsgd1na2vs0mg"},{"bike_id":"66cb437d-d1d2-4192-b49e-be9f42b75c9a","system_id":"levelo_inurba_marseille","lat":43.23194,"lon":5.35545,"is_reserved":false,"is_disabled":false,"rental_uris":{"android":"levelo://app?vid=66cb437d-d1d2-4192-b49e-be9f42b75c9a","ios":"levelo://app?vid=66cb437d-d1d2-4192-b49e-be9f42b75c9a"},"vehicle_type_id":"4","last_reported":1727888852,"current_range_meters":28800,"station_id":"ce4bhu92rcd13ifvqi70","pricing_plan_id":"cebpf4jnsgd1na2vs0mg"},{"bike_id":"12d7f347-b561-4c6b-837e-36ad72424706","system_id":"levelo_inurba_marseille","lat":43.26927,"lon":5.389213,"is_reserved":false,"is_disabled":false,"rental_uris":{"android":"levelo://app?vid=12d7f347-b561-4c6b-837e-36ad72424706","ios":"levelo://app?vid=12d7f347-b561-4c6b-837e-36ad72424706"},"vehicle_type_id":"4","last_reported":1727888852,"current_range_meters":35600,"station_id":"ce4bha12rcd13ifvqee0","pricing_plan_id":"cebpf4jnsgd1na2vs0mg"},{"bike_id":"9eb103b2-5b61-4800-ba4d-9695bfee19f1","system_id":"levelo_inurba_marseille","lat":43.23965,"lon":5.36631,"is_reserved":false,"is_disabled":false,"rental_uris":{"android":"levelo://app?vid=9eb103b2-5b61-4800-ba4d-9695bfee19f1","ios":"levelo://app?vid=9eb103b2-5b61-4800-ba4d-9695bfee19f1"},"vehicle_type_id":"4","last_reported":1727888852,"current_range_meters":35600,"station_id":"ce4bhi12rcd13ifvqfp0","pricing_plan_id":"cebpf4jnsgd1na2vs0mg"},{"bike_id":"f9e0ccb5-5f1f-49c2-8c98-7cd076e13fec","system_id":"levelo_inurba_marseille","lat":43.27205,"lon":5.39185,"is_reserved":false,"is_disabled":false,"rental_uris":{"android":"levelo://app?vid=f9e0ccb5-5f1f-49c2-8c98-7cd076e13fec","ios":"levelo://app?vid=f9e0ccb5-5f1f-49c2-8c98-7cd076e13fec"},"vehicle_type_id":"4","last_reported":1727888852,"current_range_meters":22000,"station_id":"ce4bhhp2rcd13ifvqfm0","pricing_plan_id":"cebpf4jnsgd1na2vs0mg"},{"bike_id":"1caa53b1-d9c1-469a-a6f5-162b39c2f577","system_id":"levelo_inurba_marseille","lat":43.26029,"lon":5.37552,"is_reserved":false,"is_disabled":false,"rental_uris":{"android":"levelo://app?vid=1caa53b1-d9c1-469a-a6f5-162b39c2f577","ios":"levelo://app?vid=1caa53b1-d9c1-469a-a6f5-162b39c2f577"},"vehicle_type_id":"4","last_reported":1727888852,"current_range_meters":19200,"station_id":"ce4bhgh2rcd13ifvqfa0","pricing_plan_id":"cebpf4jnsgd1na2vs0mg"},{"bike_id":"1e8303a1-e97c-4418-90cd-84f562c55635","system_id":"levelo_inurba_marseille","lat":43.27902,"lon":5.38013,"is_reserved":false,"is_disabled":false,"rental_uris":{"android":"levelo://app?vid=1e8303a1-e97c-4418-90cd-84f562c55635","ios":"levelo://app?vid=1e8303a1-e97c-4418-90cd-84f562c55635"},"vehicle_type_id":"4","last_reported":1727888852,"current_range_meters":12800,"station_id":"ce4bhf92rcd13ifvqf50","pricing_plan_id":"cebpf4jnsgd1na2vs0mg"},{"bike_id":"eb7e4b76-4f5e-4439-a910-8f8fdeadf8fe","system_id":"levelo_inurba_marseille","lat":43.28698,"lon":5.3739,"is_reserved":false,"is_disabled":false,"rental_uris":{"android":"levelo://app?vid=eb7e4b76-4f5e-4439-a910-8f8fdeadf8fe","ios":"levelo://app?vid=eb7e4b76-4f5e-4439-a910-8f8fdeadf8fe"},"vehicle_type_id":"4","last_reported":1727888852,"current_range_meters":32400,"station_id":"ce4bh3p2rcd13ifvqdq0","pricing_plan_id":"cebpf4jnsgd1na2vs0mg"},{"bike_id":"d3fe7ab7-30e6-48d2-95db-e10c8e2be0ae","system_id":"levelo_inurba_marseille","lat":43.286259,"lon":5.379645,"is_reserved":false,"is_disabled":false,"rental_uris":{"android":"levelo://app?vid=d3fe7ab7-30e6-48d2-95db-e10c8e2be0ae","ios":"levelo://app?vid=d3fe7ab7-30e6-48d2-95db-e10c8e2be0ae"},"vehicle_type_id":"4","last_reported":1727888852,"current_range_meters":14000,"station_id":"ce4bhi12rcd13ifvqfp0","pricing_plan_id":"cebpf4jnsgd1na2vs0mg"},{"bike_id":"82dc7c67-8272-42d4-ad63-bf74a272c16e","system_id":"levelo_inurba_marseille","lat":43.294238,"lon":5.381084,"is_reserved":false,"is_disabled":false,"rental_uris":{"android":"levelo://app?vid=82dc7c67-8272-42d4-ad63-bf74a272c16e","ios":"levelo://app?vid=82dc7c67-8272-42d4-ad63-bf74a272c16e"},"vehicle_type_id":"4","last_reported":1727888852,"current_range_meters":37600,"station_id":"ce4bgi12rcd13ifvqb70","pricing_plan_id":"cebpf4jnsgd1na2vs0mg"},{"bike_id":"ae83ce2f-762a-4a8c-96b7-6fd4f13a396e","system_id":"levelo_inurba_marseille","lat":43.24072,"lon":5.37771,"is_reserved":false,"is_disabled":false,"rental_uris":{"android":"levelo://app?vid=ae83ce2f-762a-4a8c-96b7-6fd4f13a396e","ios":"levelo://app?vid=ae83ce2f-762a-4a8c-96b7-6fd4f13a396e"},"vehicle_type_id":"4","last_reported":1727888852,"current_range_meters":19200,"station_id":"ce4bhnp2rcd13ifvqgvg","pricing_plan_id":"cebpf4jnsgd1na2vs0mg"},{"bike_id":"88e0a292-d7d6-45fb-8e4d-9606eb336dae","system_id":"levelo_inurba_marseille","lat":43.28609,"lon":5.37065,"is_reserved":false,"is_disabled":false,"rental_uris":{"android":"levelo://app?vid=88e0a292-d7d6-45fb-8e4d-9606eb336dae","ios":"levelo://app?vid=88e0a292-d7d6-45fb-8e4d-9606eb336dae"},"vehicle_type_id":"4","last_reported":1727888852,"current_range_meters":6800,"station_id":"ce4bht12rcd13ifvqi60","pricing_plan_id":"cebpf4jnsgd1na2vs0mg"},{"bike_id":"d08e0fed-1ea9-4bf4-a535-0ff504ddc48a","system_id":"levelo_inurba_marseille","lat":43.32108,"lon":5.36779,"is_reserved":false,"is_disabled":false,"rental_uris":{"android":"levelo://app?vid=d08e0fed-1ea9-4bf4-a535-0ff504ddc48a","ios":"levelo://app?vid=d08e0fed-1ea9-4bf4-a535-0ff504ddc48a"},"vehicle_type_id":"4","last_reported":1727888852,"current_range_meters":38800,"station_id":"ce4bhrh2rcd13ifvqhug","pricing_plan_id":"cebpf4jnsgd1na2vs0mg"},{"bike_id":"cbbf0e92-1509-4765-b3d6-a8337e01edc2","system_id":"levelo_inurba_marseille","lat":43.28932,"lon":5.36643,"is_reserved":false,"is_disabled":false,"rental_uris":{"android":"levelo://app?vid=cbbf0e92-1509-4765-b3d6-a8337e01edc2","ios":"levelo://app?vid=cbbf0e92-1509-4765-b3d6-a8337e01edc2"},"vehicle_type_id":"4","last_reported":1727888852,"current_range_meters":10800,"station_id":"ce4bhap2rcd13ifvqek0","pricing_plan_id":"cebpf4jnsgd1na2vs0mg"},{"bike_id":"3c3ca2bb-01ce-4261-a126-e7b25e3cde6d","system_id":"levelo_inurba_marseille","lat":43.30719,"lon":5.371039,"is_reserved":false,"is_disabled":false,"rental_uris":{"android":"levelo://app?vid=3c3ca2bb-01ce-4261-a126-e7b25e3cde6d","ios":"levelo://app?vid=3c3ca2bb-01ce-4261-a126-e7b25e3cde6d"},"vehicle_type_id":"4","last_reported":1727888852,"current_range_meters":23200,"station_id":"ce4bguh2rcd13ifvqckg","pricing_plan_id":"cebpf4jnsgd1na2vs0mg"},{"bike_id":"51fa2c65-c3c9-45b5-b58a-6ac634b1aca5","system_id":"levelo_inurba_marseille","lat":43.24803,"lon":5.37458,"is_reserved":false,"is_disabled":false,"rental_uris":{"android":"levelo://app?vid=51fa2c65-c3c9-45b5-b58a-6ac634b1aca5","ios":"levelo://app?vid=51fa2c65-c3c9-45b5-b58a-6ac634b1aca5"},"vehicle_type_id":"4","last_reported":1727888852,"current_range_meters":9200,"station_id":"ce4bhgh2rcd13ifvqfb0","pricing_plan_id":"cebpf4jnsgd1na2vs0mg"},{"bike_id":"4e993c12-3a89-42d3-a44e-2ae49056777e","system_id":"levelo_inurba_marseille","lat":43.29301,"lon":5.37466,"is_reserved":false,"is_disabled":false,"rental_uris":{"android":"levelo://app?vid=4e993c12-3a89-42d3-a44e-2ae49056777e","ios":"levelo://app?vid=4e993c12-3a89-42d3-a44e-2ae49056777e"},"vehicle_type_id":"4","last_reported":1727888852,"current_range_meters":10000,"station_id":"ce4bgi12rcd13ifvqb70","pricing_plan_id":"cebpf4jnsgd1na2vs0mg"},{"bike_id":"6416159e-da2d-4957-84a1-ed9b861df8cd","system_id":"levelo_inurba_marseille","lat":43.29025,"lon":5.38642,"is_reserved":false,"is_disabled":false,"rental_uris":{"android":"levelo://app?vid=6416159e-da2d-4957-84a1-ed9b861df8cd","ios":"levelo://app?vid=6416159e-da2d-4957-84a1-ed9b861df8cd"},"vehicle_type_id":"4","last_reported":1727888852,"current_range_meters":2800,"station_id":"ce4bh4p2rcd13ifvqe0g","pricing_plan_id":"cebpf4jnsgd1na2vs0mg"},{"bike_id":"53a1977e-6164-4e85-90b0-24a68801d611","system_id":"levelo_inurba_marseille","lat":43.28628,"lon":5.35132,"is_reserved":false,"is_disabled":false,"rental_uris":{"android":"levelo://app?vid=53a1977e-6164-4e85-90b0-24a68801d611","ios":"levelo://app?vid=53a1977e-6164-4e85-90b0-24a68801d611"},"vehicle_type_id":"4","last_reported":1727888852,"current_range_meters":34800,"station_id":"ce4bhch2rcd13ifvqeug","pricing_plan_id":"cebpf4jnsgd1na2vs0mg"},{"bike_id":"b9de76c0-d32c-428f-8830-23271d6381aa","system_id":"levelo_inurba_marseille","lat":43.239897,"lon":5.366469,"is_reserved":false,"is_disabled":false,"rental_uris":{"android":"levelo://app?vid=b9de76c0-d32c-428f-8830-23271d6381aa","ios":"levelo://app?vid=b9de76c0-d32c-428f-8830-23271d6381aa"},"vehicle_type_id":"4","last_reported":1727888852,"current_range_meters":8000,"station_id":"ce4bhi12rcd13ifvqfp0","pricing_plan_id":"cebpf4jnsgd1na2vs0mg"},{"bike_id":"a170a82d-5428-4062-b950-2799802afac6","system_id":"levelo_inurba_marseille","lat":43.324,"lon":5.39026,"is_reserved":false,"is_disabled":false,"rental_uris":{"android":"levelo://app?vid=a170a82d-5428-4062-b950-2799802afac6","ios":"levelo://app?vid=a170a82d-5428-4062-b950-2799802afac6"},"vehicle_type_id":"4","last_reported":1727888852,"current_range_meters":24000,"station_id":"","pricing_plan_id":"cebpf4jnsgd1na2vs0mg"},{"bike_id":"9c69412b-8124-41b6-b177-37dd1f273401","system_id":"levelo_inurba_marseille","lat":43.31121,"lon":5.38346,"is_reserved":false,"is_disabled":false,"rental_uris":{"android":"levelo://app?vid=9c69412b-8124-41b6-b177-37dd1f273401","ios":"levelo://app?vid=9c69412b-8124-41b6-b177-37dd1f273401"},"vehicle_type_id":"4","last_reported":1727888852,"current_range_meters":37600,"station_id":"ce4bgv92rcd13ifvqcr0","pricing_plan_id":"cebpf4jnsgd1na2vs0mg"},{"bike_id":"4724d431-6813-485b-8367-791af5dae5c2","system_id":"levelo_inurba_marseille","lat":43.27809,"lon":5.40713,"is_reserved":false,"is_disabled":false,"rental_uris":{"android":"levelo://app?vid=4724d431-6813-485b-8367-791af5dae5c2","ios":"levelo://app?vid=4724d431-6813-485b-8367-791af5dae5c2"},"vehicle_type_id":"4","last_reported":1727888852,"current_range_meters":21600,"station_id":"ce4bhnh2rcd13ifvqgtg","pricing_plan_id":"cebpf4jnsgd1na2vs0mg"},{"bike_id":"7edd19c9-834e-4afd-a52e-57f035ae5732","system_id":"levelo_inurba_marseille","lat":43.27948,"lon":5.4105,"is_reserved":false,"is_disabled":false,"rental_uris":{"android":"levelo://app?vid=7edd19c9-834e-4afd-a52e-57f035ae5732","ios":"levelo://app?vid=7edd19c9-834e-4afd-a52e-57f035ae5732"},"vehicle_type_id":"4","last_reported":1727888852,"current_range_meters":28400,"station_id":"ce4bhnp2rcd13ifvqh0g","pricing_plan_id":"cebpf4jnsgd1na2vs0mg"},{"bike_id":"58e83f28-4659-44af-a525-62f8909cccab","system_id":"levelo_inurba_marseille","lat":43.27618,"lon":5.36114,"is_reserved":false,"is_disabled":false,"rental_uris":{"android":"levelo://app?vid=58e83f28-4659-44af-a525-62f8909cccab","ios":"levelo://app?vid=58e83f28-4659-44af-a525-62f8909cccab"},"vehicle_type_id":"4","last_reported":1727888852,"current_range_meters":20000,"station_id":"ce4bgj92rcd13ifvqbe0","pricing_plan_id":"cebpf4jnsgd1na2vs0mg"},{"bike_id":"0efb0e39-564a-4923-a340-418d29ffec33","system_id":"levelo_inurba_marseille","lat":43.27911,"lon":5.3958,"is_reserved":false,"is_disabled":false,"rental_uris":{"android":"levelo://app?vid=0efb0e39-564a-4923-a340-418d29ffec33","ios":"levelo://app?vid=0efb0e39-564a-4923-a340-418d29ffec33"},"vehicle_type_id":"4","last_reported":1727888852,"current_range_meters":6800,"station_id":"ce4bhf92rcd13ifvqf40","pricing_plan_id":"cebpf4jnsgd1na2vs0mg"},{"bike_id":"0b534269-590d-412b-aa08-50a333051644","system_id":"levelo_inurba_marseille","lat":43.292633,"lon":5.384324,"is_reserved":false,"is_disabled":false,"rental_uris":{"android":"levelo://app?vid=0b534269-590d-412b-aa08-50a333051644","ios":"levelo://app?vid=0b534269-590d-412b-aa08-50a333051644"},"vehicle_type_id":"4","last_reported":1727888852,"current_range_meters":13600,"station_id":"ce4bh692rcd13ifvqea0","pricing_plan_id":"cebpf4jnsgd1na2vs0mg"},{"bike_id":"18b01119-7b2f-4c47-aa20-6103ad2c297d","system_id":"levelo_inurba_marseille","lat":43.29418,"lon":5.38627,"is_reserved":false,"is_disabled":false,"rental_uris":{"android":"levelo://app?vid=18b01119-7b2f-4c47-aa20-6103ad2c297d","ios":"levelo://app?vid=18b01119-7b2f-4c47-aa20-6103ad2c297d"},"vehicle_type_id":"4","last_reported":1727888852,"current_range_meters":38800,"station_id":"ce4bh2h2rcd13ifvqdh0","pricing_plan_id":"cebpf4jnsgd1na2vs0mg"},{"bike_id":"99c2cd1e-28df-4085-9b78-23d41aa9662d","system_id":"levelo_inurba_marseille","lat":43.27375,"lon":5.36264,"is_reserved":false,"is_disabled":false,"rental_uris":{"android":"levelo://app?vid=99c2cd1e-28df-4085-9b78-23d41aa9662d","ios":"levelo://app?vid=99c2cd1e-28df-4085-9b78-23d41aa9662d"},"vehicle_type_id":"4","last_reported":1727888852,"current_range_meters":38000,"station_id":"ce4bhbh2rcd13ifvqeo0","pricing_plan_id":"cebpf4jnsgd1na2vs0mg"},