{"last_updated":1726279483,"ttl":30,"version":"2.2","data":{"bikes":[{"bike_id":"bc35aeaa-3e4d-43e6-9935-c8f1110a4b4c","system_id":"levelo_inurba_marseille","lat":43.30519,"lon":5.36721,"is_reserved":false,"is_disabled":false,"rental_uris":{"android":"levelo://app?vid=bc35aeaa-3e4d-43e6-9935-c8f1110a4b4c","ios":"levelo://app?vid=bc35aeaa-3e4d-43e6-9935-c8f1110a4b4c"},"vehicle_type_id":"4","last_reported":1726279483,"current_range_meters":35200,"station_id":"ce4bgrp2rcd13ifvqc9g","pricing_plan_id":"cebpf4jnsgd1na2vs0mg"},{"bike_id":"bc7c698c-70a7-4d45-8de4-c94801319b35","system_id":"levelo_inurba_marseille","lat":43.32355,"lon":5.38896,"is_reserved":false,"is_disabled":false,"rental_uris":{"android":"levelo://app?vid=bc7c698c-70a7-4d45-8de4-c94801319b35","ios":"levelo://app?vid=bc7c698c-70a7-4d45-8de4-c94801319b35"},"vehicle_type_id":"4","last_reported":1726279483,"current_range_meters":6400,"station_id":"ce4bhqp2rcd13ifvqhog","pricing_plan_id":"cebpf4jnsgd1na2vs0mg"},{"bike_id":"a98693b4-f3c8-4ee2-b3c7-942575976148","system_id":"levelo_inurba_marseille","lat":43.29029,"lon":5.35602,"is_reserved":false,"is_disabled":false,"rental_uris":{"android":"levelo://app?vid=a98693b4-f3c8-4ee2-b3c7-942575976148","ios":"levelo://app?vid=a98693b4-f3c8-4ee2-b3c7-942575976148"},"vehicle_type_id":"4","last_reported":1726279483,"current_range_meters":34800,"station_id":"ce4bhb92rcd13ifvqen0","pricing_plan_id":"cebpf4jnsgd1na2vs0mg"},{"bike_id":"1433cc86-19c5-4d38-a0b5-c5c087739e0a","system_id":"levelo_inurba_marseille","lat":43.22934,"lon":5.35375,"is_reserved":false,"is_disabled":false,"rental_uris":{"android":"levelo://app?vid=1433cc86-19c5-4d38-a0b5-c5c087739e0a","ios":"levelo://app?vid=1433cc86-19c5-4d38-a0b5-c5c087739e0a"},"vehicle_type_id":"4","last_reported":1726279483,"current_range_meters":27600,"station_id":"cpo3532slgdg3j2ikp40","pricing_plan_id":"cebpf4jnsgd1na2vs0mg"},{"bike_id":"295ec2ab-1818-4f07-b24c-5cf60ecbfe29","system_id":"levelo_inurba_marseille","lat":43.25113,"lon":5.4034,"is_reserved":false,"is_disabled":false,"rental_uris":{"android":"levelo://app?vid=295ec2ab-1818-4f07-b24c-5cf60ecbfe29","ios":"levelo://app?vid=295ec2ab-1818-4f07-b24c-5cf60ecbfe29"},"vehicle_type_id":"4","last_reported":1726279483,"current_range_meters":38800,"station_id":"ce4bhlh2rcd13ifvqgig","pricing_plan_id":"cebpf4jnsgd1na2vs0mg"},{"bike_id":"67468702-002a-4df5-9012-9c567f0d2e31","system_id":"levelo_inurba_marseille","lat":43.31764,"lon":5.39015,"is_reserved":false,"is_disabled":false,"rental_uris":{"android":"levelo://app?vid=67468702-002a-4df5-9012-9c567f0d2e31","ios":"levelo://app?vid=67468702-002a-4df5-9012-9c567f0d2e31"},"vehicle_type_id":"4","last_reported":1726279483,"current_range_meters":34000,"station_id":"ce4bhqp2rcd13ifvqhng","pricing_plan_id":"cebpf4jnsgd1na2vs0mg"},{"bike_id":"04f4ba4a-97ee-426f-a3cc-05dc77e7e874","system_id":"levelo_inurba_marseille","lat":43.26808,"lon":5.4026,"is_reserved":false,"is_disabled":false,"rental_uris":{"android":"levelo://app?vid=04f4ba4a-97ee-426f-a3cc-05dc77e7e874","ios":"levelo://app?vid=04f4ba4a-97ee-426f-a3cc-05dc77e7e874"},"vehicle_type_id":"4","last_reported":1726279483,"current_range_meters":37600,"station_id":"ce501612rcd8frsf0b60","pricing_plan_id":"cebpf4jnsgd1na2vs0mg"},{"bike_id":"083984dd-1abd-4a7d-84c6-e8ceb7b63abe","system_id":"levelo_inurba_marseille","lat":43.31094,"lon":5.37765,"is_reserved":false,"is_disabled":false,"rental_uris":{"android":"levelo://app?vid=083984dd-1abd-4a7d-84c6-e8ceb7b63abe","ios":"levelo://app?vid=083984dd-1abd-4a7d-84c6-e8ceb7b63abe"},"vehicle_type_id":"4","last_reported":1726279483,"current_range_meters":38000,"station_id":"ce4bgt92rcd13ifvqcg0","pricing_plan_id":"cebpf4jnsgd1na2vs0mg"},{"bike_id":"75a6dda6-fcbf-4944-9798-3e9cd89a32d1","system_id":"levelo_inurba_marseille","lat":43.30883,"lon":5.39604,"is_reserved":false,"is_disabled":false,"rental_uris":{"android":"levelo://app?vid=75a6dda6-fcbf-4944-9798-3e9cd89a32d1","ios":"levelo://app?vid=75a6dda6-fcbf-4944-9798-3e9cd89a32d1"},"vehicle_type_id":"4","last_reported":1726279483,"current_range_meters":38800,"station_id":"ce4bh012rcd13ifvqcv0","pricing_plan_id":"cebpf4jnsgd1na2vs0mg"},{"bike_id":"f2aab370-6e0a-414f-a9aa-b82870be9ba4","system_id":"levelo_inurba_marseille","lat":43.28609,"lon":5.35105,"is_reserved":false,"is_disabled":false,"rental_uris":{"android":"levelo://app?vid=f2aab370-6e0a-414f-a9aa-b82870be9ba4","ios":"levelo://app?vid=f2aab370-6e0a-414f-a9aa-b82870be9ba4"},"vehicle_type_id":"4","last_reported":1726279483,"current_range_meters":18800,"station_id":"ce4bhch2rcd13ifvqeug","pricing_plan_id":"cebpf4jnsgd1na2vs0mg"},{"bike_id":"6166a61b-1bba-4734-8af6-77dc5dabf546","system_id":"levelo_inurba_marseille","lat":43.31985,"lon":5.38133,"is_reserved":false,"is_disabled":false,"rental_uris":{"android":"levelo://app?vid=6166a61b-1bba-4734-8af6-77dc5dabf546","ios":"levelo://app?vid=6166a61b-1bba-4734-8af6-77dc5dabf546"},"vehicle_type_id":"4","last_reported":1726279483,"current_range_meters":38000,"station_id":"ce4bhr12rcd13ifvqhpg","pricing_plan_id":"cebpf4jnsgd1na2vs0mg"},{"bike_id":"9769237a-f4e8-4a9f-93a0-e8512c7ffb1d","system_id":"levelo_inurba_marseille","lat":43.3363,"lon":5.40962,"is_reserved":false,"is_disabled":false,"rental_uris":{"android":"levelo://app?vid=9769237a-f4e8-4a9f-93a0-e8512c7ffb1d","ios":"levelo://app?vid=9769237a-f4e8-4a9f-93a0-e8512c7ffb1d"},"vehicle_type_id":"4","last_reported":1726279483,"current_range_meters":38800,"station_id":"ce4bhqh2rcd13ifvqhmg","pricing_plan_id":"cebpf4jnsgd1na2vs0mg"},{"bike_id":"d362d51d-5366-4644-a1ab-ebb7c7522b7d","system_id":"levelo_inurba_marseille","lat":43.25826,"lon":5.39455,"is_reserved":false,"is_disabled":false,"rental_uris":{"android":"levelo://app?vid=d362d51d-5366-4644-a1ab-ebb7c7522b7d","ios":"levelo://app?vid=d362d51d-5366-4644-a1ab-ebb7c7522b7d"},"vehicle_type_id":"4","last_reported":1726279483,"current_range_meters":6800,"station_id":"ce4bhip2rcd13ifvqft0","pricing_plan_id":"cebpf4jnsgd1na2vs0mg"},{"bike_id":"c5ed8bab-12e3-4101-81bb-39350c57310d","system_id":"levelo_inurba_marseille","lat":43.24171,"lon":5.3639,"is_reserved":false,"is_disabled":false,"rental_uris":{"android":"levelo://app?vid=c5ed8bab-12e3-4101-81bb-39350c57310d","ios":"levelo://app?vid=c5ed8bab-12e3-4101-81bb-39350c57310d"},"vehicle_type_id":"4","last_reported":1726279483,"current_range_meters":35600,"station_id":"cpo36qri1sfpv3e86is0","pricing_plan_id":"cebpf4jnsgd1na2vs0mg"},{"bike_id":"57078c0b-9beb-4ca6-9619-12066e4ed91f","system_id":"levelo_inurba_marseille","lat":43.31769,"lon":5.39033,"is_reserved":false,"is_disabled":false,"rental_uris":{"android":"levelo://app?vid=57078c0b-9beb-4ca6-9619-12066e4ed91f","ios":"levelo://app?vid=57078c0b-9beb-4ca6-9619-12066e4ed91f"},"vehicle_type_id":"4","last_reported":1726279483,"current_range_meters":39200,"station_id":"ce4bhqp2rcd13ifvqhng","pricing_plan_id":"cebpf4jnsgd1na2vs0mg"},{"bike_id":"e4e587de-1663-4df9-8358-5b16ff703c40","system_id":"levelo_inurba_marseille","lat":43.2926,"lon":5.40915,"is_reserved":false,"is_disabled":false,"rental_uris":{"android":"levelo://app?vid=e4e587de-1663-4df9-8358-5b16ff703c40","ios":"levelo://app?vid=e4e587de-1663-4df9-8358-5b16ff703c40"},"vehicle_type_id":"4","last_reported":1726279483,"current_range_meters":35200,"station_id":"ce4bh192rcd13ifvqdc0","pricing_plan_id":"cebpf4jnsgd1na2vs0mg"},{"bike_id":"351a1e0b-c0ef-4032-8c4e-f94be7284501","system_id":"levelo_inurba_marseille","lat":43.28261,"lon":5.35063,"is_reserved":false,"is_disabled":false,"rental_uris":{"android":"levelo://app?vid=351a1e0b-c0ef-4032-8c4e-f94be7284501","ios":"levelo://app?vid=351a1e0b-c0ef-4032-8c4e-f94be7284501"},"vehicle_type_id":"4","last_reported":1726279483,"current_range_meters":36000,"station_id":"ce4bhbp2rcd13ifvqerg","pricing_plan_id":"cebpf4jnsgd1na2vs0mg"},{"bike_id":"cb603b10-f62f-4c60-83e3-e6a1cf5abbcb","system_id":"levelo_inurba_marseille","lat":43.29254,"lon":5.40908,"is_reserved":false,"is_disabled":false,"rental_uris":{"android":"levelo://app?vid=cb603b10-f62f-4c60-83e3-e6a1cf5abbcb","ios":"levelo://app?vid=cb603b10-f62f-4c60-83e3-e6a1cf5abbcb"},"vehicle_type_id":"4","last_reported":1726279483,"current_range_meters":38800,"station_id":"ce4bh192rcd13ifvqdc0","pricing_plan_id":"cebpf4jnsgd1na2vs0mg"},{"bike_id":"4c2387c3-16c7-48f2-89ff-33b13af671f3","system_id":"levelo_inurba_marseille","lat":43.30818,"lon":5.43533,"is_reserved":false,"is_disabled":false,"rental_uris":{"android":"levelo://app?vid=4c2387c3-16c7-48f2-89ff-33b13af671f3","ios":"levelo://app?vid=4c2387c3-16c7-48f2-89ff-33b13af671f3"},"vehicle_type_id":"4","last_reported":1726279483,"current_range_meters":28800,"station_id":"ce4bhph2rcd13ifvqheg","pricing_plan_id":"cebpf4jnsgd1na2vs0mg"},{"bike_id":"13ec4916-f0ea-4897-8afc-596425b42c42","system_id":"levelo_inurba_marseille","lat":43.23195,"lon":5.35562,"is_reserved":false,"is_disabled":false,"rental_uris":{"android":"levelo://app?vid=13ec4916-f0ea-4897-8afc-596425b42c42","ios":"levelo://app?vid=13ec4916-f0ea-4897-8afc-596425b42c42"},"vehicle_type_id":"4","last_reported":1726279483,"current_range_meters":28800,"station_id":"ce4bhu92rcd13ifvqi70","pricing_plan_id":"cebpf4jnsgd1na2vs0mg"},{"bike_id":"627d97e3-ccf7-42a3-85b5-4116cfb34a5e","system_id":"levelo_inurba_marseille","lat":43.28458,"lon":5.35892,"is_reserved":false,"is_disabled":false,"rental_uris":{"android":"levelo://app?vid=627d97e3-ccf7-42a3-85b5-4116cfb34a5e","ios":"levelo://app?vid=627d97e3-ccf7-42a3-85b5-4116cfb34a5e"},"vehicle_type_id":"4","last_reported":1726279483,"current_range_meters":38800,"station_id":"ce4bhah2rcd13ifvqei0","pricing_plan_id":"cebpf4jnsgd1na2vs0mg"},{"bike_id":"cb0eaffb-2812-4bc5-9ace-6454d6cac3eb","system_id":"levelo_inurba_marseille","lat":43.28613,"lon":5.35105,"is_reserved":false,"is_disabled":false,"rental_uris":{"android":"levelo://app?vid=cb0eaffb-2812-4bc5-9ace-6454d6cac3eb","ios":"levelo://app?vid=cb0eaffb-2812-4bc5-9ace-6454d6cac3eb"},"vehicle_type_id":"4","last_reported":1726279483,"current_range_meters":32400,"station_id":"ce4bhch2rcd13ifvqeug","pricing_plan_id":"cebpf4jnsgd1na2vs0mg"},{"bike_id":"8b2c7e05-6bb8-47c5-8acf-f50eb4181688","system_id":"levelo_inurba_marseille","lat":43.31685,"lon":5.40469,"is_reserved":false,"is_disabled":false,"rental_uris":{"android":"levelo://app?vid=8b2c7e05-6bb8-47c5-8acf-f50eb4181688","ios":"levelo://app?vid=8b2c7e05-6bb8-47c5-8acf-f50eb4181688"},"vehicle_type_id":"4","last_reported":1726279483,"current_range_meters":12400,"station_id":"ce4bh012rcd13ifvqd00","pricing_plan_id":"cebpf4jnsgd1na2vs0mg"},{"bike_id":"3f1e932a-540c-4c5d-a4f8-ac49240977b8","system_id":"levelo_inurba_marseille","lat":43.24389,"lon":5.37052,"is_reserved":false,"is_disabled":false,"rental_uris":{"android":"levelo://app?vid=3f1e932a-540c-4c5d-a4f8-ac49240977b8","ios":"levelo://app?vid=3f1e932a-540c-4c5d-a4f8-ac49240977b8"},"vehicle_type_id":"4","last_reported":1726279483,"current_range_meters":39200,"station_id":"ce4bhhh2rcd13ifvqfk0","pricing_plan_id":"cebpf4jnsgd1na2vs0mg"},{"bike_id":"1b69e28d-b657-4802-b5dd-aa17fb5a768b","system_id":"levelo_inurba_marseille","lat":43.27133,"lon":5.42795,"is_reserved":false,"is_disabled":false,"rental_uris":{"android":"levelo://app?vid=1b69e28d-b657-4802-b5dd-aa17fb5a768b","ios":"levelo://app?vid=1b69e28d-b657-4802-b5dd-aa17fb5a768b"},"vehicle_type_id":"4","last_reported":1726279483,"current_range_meters":28400,"station_id":"","pricing_plan_id":"cebpf4jnsgd1na2vs0mg"},{"bike_id":"6c4b8086-90f2-460d-95e8-81a770bc4a47","system_id":"levelo_inurba_marseille","lat":43.24661,"lon":5.38155,"is_reserved":false,"is_disabled":false,"rental_uris":{"android":"levelo://app?vid=6c4b8086-90f2-460d-95e8-81a770bc4a47","ios":"levelo://app?vid=6c4b8086-90f2-460d-95e8-81a770bc4a47"},"vehicle_type_id":"4","last_reported":1726279483,"current_range_meters":31200,"station_id":"ce4bhih2rcd13ifvqfr0","pricing_plan_id":"cebpf4jnsgd1na2vs0mg"},{"bike_id":"9f13a7e1-5ae2-44c6-8123-d97e3ac3ada7","system_id":"levelo_inurba_marseille","lat":43.28681,"lon":5.40001,"is_reserved":false,"is_disabled":false,"rental_uris":{"android":"levelo://app?vid=9f13a7e1-5ae2-44c6-8123-d97e3ac3ada7","ios":"levelo://app?vid=9f13a7e1-5ae2-44c6-8123-d97e3ac3ada7"},"vehicle_type_id":"4","last_reported":1726279483,"current_range_meters":22000,"station_id":"ce4bho92rcd13ifvqh3g","pricing_plan_id":"cebpf4jnsgd1na2vs0mg"},{"bike_id":"70188dea-4ede-4e32-9e79-e30f57dedd7f","system_id":"levelo_inurba_marseille","lat":43.28248,"lon":5.37259,"is_reserved":false,"is_disabled":false,"rental_uris":{"android":"levelo://app?vid=70188dea-4ede-4e32-9e79-e30f57dedd7f","ios":"levelo://app?vid=70188dea-4ede-4e32-9e79-e30f57dedd7f"},"vehicle_type_id":"4","last_reported":1726279483,"current_range_meters":28400,"station_id":"","pricing_plan_id":"cebpf4jnsgd1na2vs0mg"},{"bike_id":"8a96ac3c-cfde-4784-806c-e3b436c12acb","system_id":"levelo_inurba_marseille","lat":43.28276,"lon":5.3506,"is_reserved":false,"is_disabled":false,"rental_uris":{"android":"levelo://app?vid=8a96ac3c-cfde-4784-806c-e3b436c12acb","ios":"levelo://app?vid=8a96ac3c-cfde-4784-806c-e3b436c12acb"},"vehicle_type_id":"4","last_reported":1726279483,"current_range_meters":19200,"station_id":"ce4bhbp2rcd13ifvqerg","pricing_plan_id":"cebpf4jnsgd1na2vs0mg"},{"bike_id":"995d3a7e-289e-4ebd-b785-9d2da426ad57","system_id":"levelo_inurba_marseille","lat":43.23192,"lon":5.35551,"is_reserved":false,"is_disabled":false,"rental_uris":{"android":"levelo://app?vid=995d3a7e-289e-4ebd-b785-9d2da426ad57","ios":"levelo://app?vid=995d3a7e-289e-4ebd-b785-9d2da426ad57"},"vehicle_type_id":"4","last_reported":1726279483,"current_range_meters":23200,"station_id":"ce4bhu92rcd13ifvqi70","pricing_plan_id":"cebpf4jnsgd1na2vs0mg"},{"bike_id":"74c67d55-8a5f-40c9-8066-d68354718f8c","system_id":"levelo_inurba_marseille","lat":43.23189,"lon":5.35555,"is_reserved":false,"is_disabled":false,"rental_uris":{"android":"levelo://app?vid=74c67d55-8a5f-40c9-8066-d68354718f8c","ios":"levelo://app?vid=74c67d55-8a5f-40c9-8066-d68354718f8c"},"vehicle_type_id":"4","last_reported":1726279483,"current_range_meters":27200,"station_id":"ce4bhu92rcd13ifvqi70","pricing_plan_id":"cebpf4jnsgd1na2vs0mg"},{"bike_id":"7fd6c56d-63ac-410d-9d96-d655d8f53637","system_id":"levelo_inurba_marseille","lat":43.31706,"lon":5.37739,"is_reserved":false,"is_disabled":false,"rental_uris":{"android":"levelo://app?vid=7fd6c56d-63ac-410d-9d96-d655d8f53637","ios":"levelo://app?vid=7fd6c56d-63ac-410d-9d96-d655d8f53637"},"vehicle_type_id":"4","last_reported":1726279483,"current_range_meters":37600,"station_id":"ce4bgth2rcd13ifvqch0","pricing_plan_id":"cebpf4jnsgd1na2vs0mg"},{"bike_id":"59e3dff8-ce95-4a6d-ac6d-15cf2c0dfbbe","system_id":"levelo_inurba_marseille","lat":43.25869,"lon":5.39894,"is_reserved":false,"is_disabled":false,"rental_uris":{"android":"levelo://app?vid=59e3dff8-ce95-4a6d-ac6d-15cf2c0dfbbe","ios":"levelo://app?vid=59e3dff8-ce95-4a6d-ac6d-15cf2c0dfbbe"},"vehicle_type_id":"4","last_reported":1726279483,"current_range_meters":22000,"station_id":"ce4bhl92rcd13ifvqghg","pricing_plan_id":"cebpf4jnsgd1na2vs0mg"},{"bike_id":"7ae0fdfe-d1fb-4c89-abf5-2b00156f248d","system_id":"levelo_inurba_marseille","lat":43.2905,"lon":5.3996,"is_reserved":false,"is_disabled":false,"rental_uris":{"android":"levelo://app?vid=7ae0fdfe-d1fb-4c89-abf5-2b00156f248d","ios":"levelo://app?vid=7ae0fdfe-d1fb-4c89-abf5-2b00156f248d"},"vehicle_type_id":"4","last_reported":1726279483,"current_range_meters":30000,"station_id":"ce4bh392rcd13ifvqdm0","pricing_plan_id":"cebpf4jnsgd1na2vs0mg"},{"bike_id":"be0bd854-f1af-42b9-a0f6-3fd50ff1fdbf","system_id":"levelo_inurba_marseille","lat":43.24799,"lon":5.37456,"is_reserved":false,"is_disabled":false,"rental_uris":{"android":"levelo://app?vid=be0bd854-f1af-42b9-a0f6-3fd50ff1fdbf","ios":"levelo://app?vid=be0bd854-f1af-42b9-a0f6-3fd50ff1fdbf"},"vehicle_type_id":"4","last_reported":1726279483,"current_range_meters":38800,"station_id":"ce4bhgh2rcd13ifvqfb0","pricing_plan_id":"cebpf4jnsgd1na2vs0mg"},{"bike_id":"24674f4b-bcb6-4d3e-a74d-7d8a6acb125c","system_id":"levelo_inurba_marseille","lat":43.25006,"lon":5.3893,"is_reserved":false,"is_disabled":false,"rental_uris":{"android":"levelo://app?vid=24674f4b-bcb6-4d3e-a74d-7d8a6acb125c","ios":"levelo://app?vid=24674f4b-bcb6-4d3e-a74d-7d8a6acb125c"},"vehicle_type_id":"4","last_reported":1726279483,"current_range_meters":28400,"station_id":"ce4bhgp2rcd13ifvqfd0","pricing_plan_id":"cebpf4jnsgd1na2vs0mg"},{"bike_id":"fce01da4-7bc2-47dc-b69e-739018974375","system_id":"levelo_inurba_marseille","lat":43.3206,"lon":5.41549,"is_reserved":false,"is_disabled":false,"rental_uris":{"android":"levelo://app?vid=fce01da4-7bc2-47dc-b69e-739018974375","ios":"levelo://app?vid=fce01da4-7bc2-47dc-b69e-739018974375"},"vehicle_type_id":"4","last_reported":1726279483,"current_range_meters":38000,"station_id":"ce4bhq92rcd13ifvqhkg","pricing_plan_id":"cebpf4jnsgd1na2vs0mg"},{"bike_id":"f5f4a1ca-699e-48da-a538-a73231434ff3","system_id":"levelo_inurba_marseille","lat":43.28709,"lon":5.39967,"is_reserved":false,"is_disabled":false,"rental_uris":{"android":"levelo://app?vid=f5f4a1ca-699e-48da-a538-a73231434ff3","ios":"levelo://app?vid=f5f4a1ca-699e-48da-a538-a73231434ff3"},"vehicle_type_id":"4","last_reported":1726279483,"current_range_meters":26800,"station_id":"ce4bho92rcd13ifvqh3g","pricing_plan_id":"cebpf4jnsgd1na2vs0mg"},{"bike_id":"42e51b56-d790-400e-9c05-9e98b4c8c5ad","system_id":"levelo_inurba_marseille","lat":43.24067,"lon":5.37758,"is_reserved":false,"is_disabled":false,"rental_uris":{"android":"levelo://app?vid=42e51b56-d790-400e-9c05-9e98b4c8c5ad","ios":"levelo://app?vid=42e51b56-d790-400e-9c05-9e98b4c8c5ad"},"vehicle_type_id":"4","last_reported":1726279483,"current_range_meters":12800,"station_id":"ce4bhnp2rcd13ifvqgvg","pricing_plan_id":"cebpf4jnsgd1na2vs0mg"},{"bike_id":"fdc39112-650f-443d-8d41-9fa1704bcd5c","system_id":"levelo_inurba_marseille","lat":43.23187,"lon":5.3999,"is_reserved":false,"is_disabled":false,"rental_uris":{"android":"levelo://app?vid=fdc39112-650f-443d-8d41-9fa1704bcd5c","ios":"levelo://app?vid=fdc39112-650f-443d-8d41-9fa1704bcd5c"},"vehicle_type_id":"4","last_reported":1726279483,"current_range_meters":18800,"station_id":"ce4bhn12rcd13ifvqgqg","pricing_plan_id":"cebpf4jnsgd1na2vs0mg"},{"bike_id":"6267baa5-f35c-4311-91c4-71f926f47f2c","system_id":"levelo_inurba_marseille","lat":43.29746,"lon":5.37884,"is_reserved":false,"is_disabled":false,"rental_uris":{"android":"levelo://app?vid=6267baa5-f35c-4311-91c4-71f926f47f2c","ios":"levelo://app?vid=6267baa5-f35c-4311-91c4-71f926f47f2c"},"vehicle_type_id":"4","last_reported":1726279483,"current_range_meters":4400,"station_id":"","pricing_plan_id":"cebpf4jnsgd1na2vs0mg"},{"bike_id":"e1b7e339-05d0-4021-893d-95da1d1b4f3e","system_id":"levelo_inurba_marseille","lat":43.28076,"lon":5.39669,"is_reserved":false,"is_disabled":false,"rental_uris":{"android":"levelo://app?vid=e1b7e339-05d0-4021-893d-95da1d1b4f3e","ios":"levelo://app?vid=e1b7e339-05d0-4021-893d-95da1d1b4f3e"},"vehicle_type_id":"4","last_reported":1726279483,"current_range_meters":27600,"station_id":"ce4bho12rcd13ifvqh2g","pricing_plan_id":"cebpf4jnsgd1na2vs0mg"},{"bike_id":"8e123ff3-d263-4909-bfb5-9d51f45595bd","system_id":"levelo_inurba_marseille","lat":43.28936,"lon":5.36411,"is_reserved":false,"is_disabled":false,"rental_uris":{"android":"levelo://app?vid=8e123ff3-d263-4909-bfb5-9d51f45595bd","ios":"levelo://app?vid=8e123ff3-d263-4909-bfb5-9d51f45595bd"},"vehicle_type_id":"4","last_reported":1726279483,"current_range_meters":26000,"station_id":"ce4bhc92rcd13ifvqetg","pricing_plan_id":"cebpf4jnsgd1na2vs0mg"},{"bike_id":"4407afde-c987-48fa-9508-eaff6626a8b5","system_id":"levelo_inurba_marseille","lat":43.27496,"lon":5.42456,"is_reserved":false,"is_disabled":false,"rental_uris":{"android":"levelo://app?vid=4407afde-c987-48fa-9508-eaff6626a8b5","ios":"levelo://app?vid=4407afde-c987-48fa-9508-eaff6626a8b5"},"vehicle_type_id":"4","last_reported":1726279483,"current_range_meters":38800,"station_id":"ce4bhn92rcd13ifvqgrg","pricing_plan_id":"cebpf4jnsgd1na2vs0mg"},{"bike_id":"88e1db76-58ba-4c9d-b502-55264c882980","system_id":"levelo_inurba_marseille","lat":43.25854,"lon":5.39908,"is_reserved":false,"is_disabled":false,"rental_uris":{"android":"levelo://app?vid=88e1db76-58ba-4c9d-b502-55264c882980","ios":"levelo://app?vid=88e1db76-58ba-4c9d-b502-55264c882980"},"vehicle_type_id":"4","last_reported":1726279483,"current_range_meters":30400,"station_id":"ce4bhl92rcd13ifvqghg","pricing_plan_id":"cebpf4jnsgd1na2vs0mg"},{"bike_id":"e6bea8cd-bd1a-48c2-8a52-de5e2a98c0f4","system_id":"levelo_inurba_marseille","lat":43.25938,"lon":5.40912,"is_reserved":false,"is_disabled":false,"rental_uris":{"android":"levelo://app?vid=e6bea8cd-bd1a-48c2-8a52-de5e2a98c0f4","ios":"levelo://app?vid=e6bea8cd-bd1a-48c2-8a52-de5e2a98c0f4"},"vehicle_type_id":"4","last_reported":1726279483,"current_range_meters":34800,"station_id":"ce4bhm92rcd13ifvqglg","pricing_plan_id":"cebpf4jnsgd1na2vs0mg"},{"bike_id":"11ce11f2-c453-48ec-9a01-f794fee1e582","system_id":"levelo_inurba_marseille","lat":43.33024,"lon":5.39044,"is_reserved":false,"is_disabled":false,"rental_uris":{"android":"levelo://app?vid=11ce11f2-c453-48ec-9a01-f794fee1e582","ios":"levelo://app?vid=11ce11f2-c453-48ec-9a01-f794fee1e582"},"vehicle_type_id":"4","last_reported":1726279483,"current_range_meters":16400,"station_id":"ce4bhr92rcd13ifvqhrg","pricing_plan_id":"cebpf4jnsgd1na2vs0mg"},{"bike_id":"44f09c39-e560-4787-855a-6c24192c7f7b","system_id":"levelo_inurba_marseille","lat":43.33022,"lon":5.39039,"is_reserved":false,"is_disabled":false,"rental_uris":{"android":"levelo://app?vid=44f09c39-e560-4787-855a-6c24192c7f7b","ios":"levelo://app?vid=44f09c39-e560-4787-855a-6c24192c7f7b"},"vehicle_type_id":"4","last_reported":1726279483,"current_range_meters":24000,"station_id":"ce4bhr92rcd13ifvqhrg","pricing_plan_id":"cebpf4jnsgd1na2vs0mg"},{"bike_id":"1bf5a208-846b-4aee-ae35-4fbdfa9bb8f6","system_id":"levelo_inurba_marseille","lat":43.26523,"lon":5.39551,"is_reserved":false,"is_disabled":false,"rental_uris":{"android":"levelo://app?vid=1bf5a208-846b-4aee-ae35-4fbdfa9bb8f6","ios":"levelo://app?vid=1bf5a208-846b-4aee-ae35-4fbdfa9bb8f6"},"vehicle_type_id":"4","last_reported":1726279483,"current_range_meters":40000,"station_id":"ce4bhi12rcd13ifvqfq0","pricing_plan_id":"cebpf4jnsgd1na2vs0mg"},{"bike_id":"3bcbc1d5-4164-4b98-9d95-f1d5f8c34a75","system_id":"levelo_inurba_marseille","lat":43.27493,"lon":5.4245,"is_reserved":false,"is_disabled":false,"rental_uris":{"android":"levelo://app?vid=3bcbc1d5-4164-4b98-9d95-f1d5f8c34a75","ios":"levelo://app?vid=3bcbc1d5-4164-4b98-9d95-f1d5f8c34a75"},"vehicle_type_id":"4","last_reported":1726279483,"current_range_meters":16800,"station_id":"ce4bhn92rcd13ifvqgrg","pricing_plan_id":"cebpf4jnsgd1na2vs0mg"},{"bike_id":"2a089944-b1a6-45af-99d1-9b70add064d3","system_id":"levelo_inurba_marseille","lat":43.24807,"lon":5.37471,"is_reserved":false,"is_disabled":false,"rental_uris":{"android":"levelo://app?vid=2a089944-b1a6-45af-99d1-9b70add064d3","ios":"levelo://app?vid=2a089944-b1a6-45af-99d1-9b70add064d3"},"vehicle_type_id":"4","last_reported":1726279483,"current_range_meters":12800,"station_id":"ce4bhgh2rcd13ifvqfb0","pricing_plan_id":"cebpf4jnsgd1na2vs0mg"},{"bike_id":"34721204-9cc8-4128-8304-5b698c26b1e6","system_id":"levelo_inurba_marseille","lat":43.23195,"lon":5.40002,"is_reserved":false,"is_disabled":false,"rental_uris":{"android":"levelo://app?vid=34721204-9cc8-4128-8304-5b698c26b1e6","ios":"levelo://app?vid=34721204-9cc8-4128-8304-5b698c26b1e6"},"vehicle_type_id":"4","last_reported":1726279483,"current_range_meters":39200,"station_id":"ce4bhn12rcd13ifvqgqg","pricing_plan_id":"cebpf4jnsgd1na2vs0mg"},{"bike_id":"8a405b78-72cd-40ea-92f3-99b1759848ad","system_id":"levelo_inurba_marseille","lat":43.28047,"lon":5.3695,"is_reserved":false,"is_disabled":false,"rental_uris":{"android":"levelo://app?vid=8a405b78-72cd-40ea-92f3-99b1759848ad","ios":"levelo://app?vid=8a405b78-72cd-40ea-92f3-99b1759848ad"},"vehicle_type_id":"4","last_reported":1726279483,"current_range_meters":38000,"station_id":"ce4bha12rcd13ifvqef0","pricing_plan_id":"cebpf4jnsgd1na2vs0mg"},{"bike_id":"7ed33938-c7db-4cac-9cdc-6edba2702770","system_id":"levelo_inurba_marseille","lat":43.31323,"lon":5.39698,"is_reserved":false,"is_disabled":false,"rental_uris":{"android":"levelo://app?vid=7ed33938-c7db-4cac-9cdc-6edba2702770","ios":"levelo://app?vid=7ed33938-c7db-4cac-9cdc-6edba2702770"},"vehicle_type_id":"4","last_reported":1726279483,"current_range_meters":24000,"station_id":"ce4bgvp2rcd13ifvqcu0","pricing_plan_id":"cebpf4jnsgd1na2vs0mg"},{"bike_id":"0124e22a-940d-4592-a669-5febf603375d","system_id":"levelo_inurba_marseille","lat":43.28074,"lon":5.39641,"is_reserved":false,"is_disabled":false,"rental_uris":{"android":"levelo://app?vid=0124e22a-940d-4592-a669-5febf603375d","ios":"levelo://app?vid=0124e22a-940d-4592-a669-5febf603375d"},"vehicle_type_id":"4","last_reported":1726279483,"current_range_meters":39200,"station_id":"ce4bho12rcd13ifvqh2g","pricing_plan_id":"cebpf4jnsgd1na2vs0mg"},{"bike_id":"39b86749-80ef-4310-953b-c60370086942","system_id":"levelo_inurba_marseille","lat":43.24546,"lon":5.39517,"is_reserved":false,"is_disabled":false,"rental_uris":{"android":"levelo://app?vid=39b86749-80ef-4310-953b-c60370086942","ios":"levelo://app?vid=39b86749-80ef-4310-953b-c60370086942"},"vehicle_type_id":"4","last_reported":1726279483,"current_range_meters":27600,"station_id":"ce4bhlp2rcd13ifvqgjg","pricing_plan_id":"cebpf4jnsgd1na2vs0mg"},{"bike_id":"c966576c-ce97-4ff9-b484-566e2a6b9eb4","system_id":"levelo_inurba_marseille","lat":43.255,"lon":5.37651,"is_reserved":false,"is_disabled":false,"rental_uris":{"android":"levelo://app?vid=c966576c-ce97-4ff9-b484-566e2a6b9eb4","ios":"levelo://app?vid=c966576c-ce97-4ff9-b484-566e2a6b9eb4"},"vehicle_type_id":"4","last_reported":1726279483,"current_range_meters":34800,"station_id":"ce4bhh12rcd13ifvqff0","pricing_plan_id":"cebpf4jnsgd1na2vs0mg"},{"bike_id":"8d5b25d6-85cf-470f-b20d-70e82ac1472e","system_id":"levelo_inurba_marseille","lat":43.29056,"lon":5.3591,"is_reserved":false,"is_disabled":false,"rental_uris":{"android":"levelo://app?vid=8d5b25d6-85cf-470f-b20d-70e82ac1472e","ios":"levelo://app?vid=8d5b25d6-85cf-470f-b20d-70e82ac1472e"},"vehicle_type_id":"4","last_reported":1726279483,"current_range_meters":6000,"station_id":"ce4bha92rcd13ifvqeg0","pricing_plan_id":"cebpf4jnsgd1na2vs0mg"},{"bike_id":"483c51ab-5fd2-4f21-822e-bb759562225e","system_id":"levelo_inurba_marseille","lat":43.28699,"lon":5.39988,"is_reserved":false,"is_disabled":false,"rental_uris":{"android":"levelo://app?vid=483c51ab-5fd2-4f21-822e-bb759562225e","ios":"levelo://app?vid=483c51ab-5fd2-4f21-822e-bb759562225e"},"vehicle_type_id":"4","last_reported":1726279483,"current_range_meters":36800,"station_id":"ce4bho92rcd13ifvqh3g","pricing_plan_id":"cebpf4jnsgd1na2vs0mg"},{"bike_id":"a42702f2-d81c-4242-a835-f22a778e5eb6","system_id":"levelo_inurba_marseille","lat":43.33603,"lon":5.41022,"is_reserved":false,"is_disabled":false,"rental_uris":{"android":"levelo://app?vid=a42702f2-d81c-4242-a835-f22a778e5eb6","ios":"levelo://app?vid=a42702f2-d81c-4242-a835-f22a778e5eb6"},"vehicle_type_id":"4","last_reported":1726279483,"current_range_meters":38800,"station_id":"ce4bhqh2rcd13ifvqhmg","pricing_plan_id":"cebpf4jnsgd1na2vs0mg"},{"bike_id":"148ffffa-d147-44e1-bbf1-392cc4e31e96","system_id":"levelo_inurba_marseille","lat":43.31258,"lon":5.40158,"is_reserved":false,"is_disabled":false,"rental_uris":{"android":"levelo://app?vid=148ffffa-d147-44e1-bbf1-392cc4e31e96","ios":"levelo://app?vid=148ffffa-d147-44e1-bbf1-392cc4e31e96"},"vehicle_type_id":"4","last_reported":1726279483,"current_range_meters":37600,"station_id":"ce4bh092rcd13ifvqd30","pricing_plan_id":"cebpf4jnsgd1na2vs0mg"},{"bike_id":"a87d933a-553a-42eb-9796-c89c54499a55","system_id":"levelo_inurba_marseille","lat":43.29041,"lon":5.3994,"is_reserved":false,"is_disabled":false,"rental_uris":{"android":"levelo://app?vid=a87d933a-553a-42eb-9796-c89c54499a55","ios":"levelo://app?vid=a87d933a-553a-42eb-9796-c89c54499a55"},"vehicle_type_id":"4","last_reported":1726279483,"current_range_meters":11600,"station_id":"ce4bh392rcd13ifvqdm0","pricing_plan_id":"cebpf4jnsgd1na2vs0mg"},{"bike_id":"b60e78fd-3f0b-4ac6-887d-ece15c705a85","system_id":"levelo_inurba_marseille","lat":43.28855,"lon":5.35862,"is_reserved":false,"is_disabled":false,"rental_uris":{"android":"levelo://app?vid=b60e78fd-3f0b-4ac6-887d-ece15c705a85","ios":"levelo://app?vid=b60e78fd-3f0b-4ac6-887d-ece15c705a85"},"vehicle_type_id":"4","last_reported":1726279483,"current_range_meters":36000,"station_id":"ce4bhb12rcd13ifvqem0","pricing_plan_id":"cebpf4jnsgd1na2vs0mg"},{"bike_id":"4977420a-67b1-4cf6-b7dd-1c881248bbc5","system_id":"levelo_inurba_marseille","lat":43.2848,"lon":5.35869,"is_reserved":false,"is_disabled":false,"rental_uris":{"android":"levelo://app?vid=4977420a-67b1-4cf6-b7dd-1c881248bbc5","ios":"levelo://app?vid=4977420a-67b1-4cf6-b7dd-1c881248bbc5"},"vehicle_type_id":"4","last_reported":1726279483,"current_range_meters":28800,"station_id":"ce4bhah2rcd13ifvqei0","pricing_plan_id":"cebpf4jnsgd1na2vs0mg"},{"bike_id":"5e0d25a3-836b-47b7-bce4-106bc54306d5","system_id":"levelo_inurba_marseille","lat":43.27975,"lon":5.38757,"is_reserved":false,"is_disabled":false,"rental_uris":{"android":"levelo://app?vid=5e0d25a3-836b-47b7-bce4-106bc54306d5","ios":"levelo://app?vid=5e0d25a3-836b-47b7-bce4-106bc54306d5"},"vehicle_type_id":"4","last_reported":1726279483,"current_range_meters":38400,"station_id":"ce4bhg12rcd13ifvqf80","pricing_plan_id":"cebpf4jnsgd1na2vs0mg"},{"bike_id":"0d9e139c-b91b-4d9a-a323-fba67f47547f","system_id":"levelo_inurba_marseille","lat":43.29003,"lon":5.35621,"is_reserved":false,"is_disabled":false,"rental_uris":{"android":"levelo://app?vid=0d9e139c-b91b-4d9a-a323-fba67f47547f","ios":"levelo://app?vid=0d9e139c-b91b-4d9a-a323-fba67f47547f"},"vehicle_type_id":"4","last_reported":1726279483,"current_range_meters":38400,"station_id":"ce4bhb92rcd13ifvqen0","pricing_plan_id":"cebpf4jnsgd1na2vs0mg"},{"bike_id":"cade2501-95bb-491a-b8de-c573db7615e8","system_id":"levelo_inurba_marseille","lat":43.275,"lon":5.42449,"is_reserved":false,"is_disabled":false,"rental_uris":{"android":"levelo://app?vid=cade2501-95bb-491a-b8de-c573db7615e8","ios":"levelo://app?vid=cade2501-95bb-491a-b8de-c573db7615e8"},"vehicle_type_id":"4","last_reported":1726279483,"current_range_meters":40000,"station_id":"ce4bhn92rcd13ifvqgrg","pricing_plan_id":"cebpf4jnsgd1na2vs0mg"},{"bike_id":"cca28bcf-5218-415d-8f71-c19a7365d061","system_id":"levelo_inurba_marseille","lat":43.31894,"lon":5.4073,"is_reserved":false,"is_disabled":false,"rental_uris":{"android":"levelo://app?vid=cca28bcf-5218-415d-8f71-c19a7365d061","ios":"levelo://app?vid=cca28bcf-5218-415d-8f71-c19a7365d061"},"vehicle_type_id":"4","last_reported":1726279483,"current_range_meters":38800,"station_id":"ce4bhq12rcd13ifvqhig","pricing_plan_id":"cebpf4jnsgd1na2vs0mg"},{"bike_id":"22d2f471-5a16-4b03-b18d-2939ff036709","system_id":"levelo_inurba_marseille","lat":43.31361,"lon":5.38498,"is_reserved":false,"is_disabled":false,"rental_uris":{"android":"levelo://app?vid=22d2f471-5a16-4b03-b18d-2939ff036709","ios":"levelo://app?vid=22d2f471-5a16-4b03-b18d-2939ff036709"},"vehicle_type_id":"4","last_reported":1726279483,"current_range_meters":32000,"station_id":"ce4bgt92rcd13ifvqcf0","pricing_plan_id":"cebpf4jnsgd1na2vs0mg"},{"bike_id":"d133b573-c0b0-4d66-a7f2-7788e370a926","system_id":"levelo_inurba_marseille","lat":43.29042,"lon":5.39969,"is_reserved":false,"is_disabled":false,"rental_uris":{"android":"levelo://app?vid=d133b573-c0b0-4d66-a7f2-7788e370a926","ios":"levelo://app?vid=d133b573-c0b0-4d66-a7f2-7788e370a926"},"vehicle_type_id":"4","last_reported":1726279483,"current_range_meters":28000,"station_id":"ce4bh392rcd13ifvqdm0","pricing_plan_id":"cebpf4jnsgd1na2vs0mg"},{"bike_id":"dbc5e236-e325-4b10-b35b-2dfae7a1bac7","system_id":"levelo_inurba_marseille","lat":43.23199,"lon":5.39986,"is_reserved":false,"is_disabled":false,"rental_uris":{"android":"levelo://app?vid=dbc5e236-e325-4b10-b35b-2dfae7a1bac7","ios":"levelo://app?vid=dbc5e236-e325-4b10-b35b-2dfae7a1bac7"},"vehicle_type_id":"4","last_reported":1726279483,"current_range_meters":12000,"station_id":"ce4bhn12rcd13ifvqgqg","pricing_plan_id":"cebpf4jnsgd1na2vs0mg"},{"bike_id":"315021f7-3367-4fd9-a8d3-04a6323bc426","system_id":"levelo_inurba_marseille","lat":43.30329,"lon":5.40442,"is_reserved":false,"is_disabled":false,"rental_uris":{"android":"levelo://app?vid=315021f7-3367-4fd9-a8d3-04a6323bc426","ios":"levelo://app?vid=315021f7-3367-4fd9-a8d3-04a6323bc426"},"vehicle_type_id":"4","last_reported":1726279483,"current_range_meters":33600,"station_id":"ce4bh012rcd13ifvqd10","pricing_plan_id":"cebpf4jnsgd1na2vs0mg"},{"bike_id":"eaf3218e-3b2a-4dde-9c15-99a6c4254e56","system_id":"levelo_inurba_marseille","lat":43.29903,"lon":5.43672,"is_reserved":false,"is_disabled":false,"rental_uris":{"android":"levelo://app?vid=eaf3218e-3b2a-4dde-9c15-99a6c4254e56","ios":"levelo://app?vid=eaf3218e-3b2a-4dde-9c15-99a6c4254e56"},"vehicle_type_id":"4","last_reported":1726279483,"current_range_meters":38800,"station_id":"ce4bhpp2rcd13ifvqhfg","pricing_plan_id":"cebpf4jnsgd1na2vs0mg"},{"bike_id":"f006df28-0150-41a2-8fdd-5888c4049744","system_id":"levelo_inurba_marseille","lat":43.29634,"lon":5.4061,"is_reserved":false,"is_disabled":false,"rental_uris":{"android":"levelo://app?vid=f006df28-0150-41a2-8fdd-5888c4049744","ios":"levelo://app?vid=f006df28-0150-41a2-8fdd-5888c4049744"},"vehicle_type_id":"4","last_reported":1726279483,"current_range_meters":28000,"station_id":"ce4bh0h2rcd13ifvqd60","pricing_plan_id":"cebpf4jnsgd1na2vs0mg"},{"bike_id":"578fe535-1ca5-46e4-9e6c-f0e8aa8560bc","system_id":"levelo_inurba_marseille","lat":43.32361,"lon":5.38879,"is_reserved":false,"is_disabled":false,"rental_uris":{"android":"levelo://app?vid=578fe535-1ca5-46e4-9e6c-f0e8aa8560bc","ios":"levelo://app?vid=578fe535-1ca5-46e4-9e6c-f0e8aa8560bc"},"vehicle_type_id":"4","last_reported":1726279483,"current_range_meters":12800,"station_id":"ce4bhqp2rcd13ifvqhog","pricing_plan_id":"cebpf4jnsgd1na2vs0mg"},{"bike_id":"fa3f6f9c-da95-4cc1-a274-3eeb35012c31","system_id":"levelo_inurba_marseille","lat":43.31705,"lon":5.43698,"is_reserved":false,"is_disabled":false,"rental_uris":{"android":"levelo://app?vid=fa3f6f9c-da95-4cc1-a274-3eeb35012c31","ios":"levelo://app?vid=fa3f6f9c-da95-4cc1-a274-3eeb35012c31"},"vehicle_type_id":"4","last_reported":1726279483,"current_range_meters":24000,"station_id":"ce4bhp92rcd13ifvqhcg","pricing_plan_id":"cebpf4jnsgd1na2vs0mg"},{"bike_id":"16ca6d91-7513-415c-9a61-5d33eb8ad677","system_id":"levelo_inurba_marseille","lat":43.2292,"lon":5.35392,"is_reserved":false,"is_disabled":false,"rental_uris":{"android":"levelo://app?vid=16ca6d91-7513-415c-9a61-5d33eb8ad677","ios":"levelo://app?vid=16ca6d91-7513-415c-9a61-5d33eb8ad677"},"vehicle_type_id":"4","last_reported":1726279483,"current_range_meters":24000,"station_id":"cpo3532slgdg3j2ikp40","pricing_plan_id":"cebpf4jnsgd1na2vs0mg"},{"bike_id":"ee9a40c5-9cf7-4635-bf9c-f699710f709f","system_id":"levelo_inurba_marseille","lat":43.30422,"lon":5.39758,"is_reserved":false,"is_disabled":false,"rental_uris":{"android":"levelo://app?vid=ee9a40c5-9cf7-4635-bf9c-f699710f709f","ios":"levelo://app?vid=ee9a40c5-9cf7-4635-bf9c-f699710f709f"},"vehicle_type_id":"4","last_reported":1726279483,"current_range_meters":30800,"station_id":"ce4bh092rcd13ifvqd20","pricing_plan_id":"cebpf4jnsgd1na2vs0mg"},{"bike_id":"3e6b0e10-dcd6-41e1-b539-76bda94e42ac","system_id":"levelo_inurba_marseille","lat":43.24678,"lon":5.38168,"is_reserved":false,"is_disabled":false,"rental_uris":{"android":"levelo://app?vid=3e6b0e10-dcd6-41e1-b539-76bda94e42ac","ios":"levelo://app?vid=3e6b0e10-dcd6-41e1-b539-76bda94e42ac"},"vehicle_type_id":"4","last_reported":1726279483,"current_range_meters":36400,"station_id":"ce4bhih2rcd13ifvqfr0","pricing_plan_id":"cebpf4jnsgd1na2vs0mg"},{"bike_id":"ecc5ad03-92b6-4b3e-8327-03f760a43277","system_id":"levelo_inurba_marseille","lat":43.23191,"lon":5.39983,"is_reserved":false,"is_disabled":false,"rental_uris":{"android":"levelo://app?vid=ecc5ad03-92b6-4b3e-8327-03f760a43277","ios":"levelo://app?vid=ecc5ad03-92b6-4b3e-8327-03f760a43277"},"vehicle_type_id":"4","last_reported":1726279483,"current_range_meters":32000,"station_id":"ce4bhn12rcd13ifvqgqg","pricing_plan_id":"cebpf4jnsgd1na2vs0mg"},{"bike_id":"c5465ea1-4e69-4539-880b-a7ffba1e41db","system_id":"levelo_inurba_marseille","lat":43.25675,"lon":5.41091,"is_reserved":false,"is_disabled":false,"rental_uris":{"android":"levelo://app?vid=c5465ea1-4e69-4539-880b-a7ffba1e41db","ios":"levelo://app?vid=c5465ea1-4e69-4539-880b-a7ffba1e41db"},"vehicle_type_id":"4","last_reported":1726279483,"current_range_meters":36800,"station_id":"ce4bhkp2rcd13ifvqgd0","pricing_plan_id":"cebpf4jnsgd1na2vs0mg"},{"bike_id":"f4c36463-ddf2-4e8a-90a8-c12391e72ce0","system_id":"levelo_inurba_marseille","lat":43.28275,"lon":5.35081,"is_reserved":false,"is_disabled":false,"rental_uris":{"android":"levelo://app?vid=f4c36463-ddf2-4e8a-90a8-c12391e72ce0","ios":"levelo://app?vid=f4c36463-ddf2-4e8a-90a8-c12391e72ce0"},"vehicle_type_id":"4","last_reported":1726279483,"current_range_meters":11200,"station_id":"ce4bhbp2rcd13ifvqerg","pricing_plan_id":"cebpf4jnsgd1na2vs0mg"},{"bike_id":"ce45b02b-b167-4654-b305-eb82cd566863","system_id":"levelo_inurba_marseille","lat":43.23194,"lon":5.35556,"is_reserved":false,"is_disabled":false,"rental_uris":{"android":"levelo://app?vid=ce45b02b-b167-4654-b305-eb82cd566863","ios":"levelo://app?vid=ce45b02b-b167-4654-b305-eb82cd566863"},"vehicle_type_id":"4","last_reported":1726279483,"current_range_meters":27600,"station_id":"ce4bhu92rcd13ifvqi70","pricing_plan_id":"cebpf4jnsgd1na2vs0mg"},{"bike_id":"20eb79bb-ff64-4462-bded-f38c96fac37b","system_id":"levelo_inurba_marseille","lat":43.2795,"lon":5.38677,"is_reserved":false,"is_disabled":false,"rental_uris":{"android":"levelo://app?vid=20eb79bb-ff64-4462-bded-f38c96fac37b","ios":"levelo://app?vid=20eb79bb-ff64-4462-bded-f38c96fac37b"},"vehicle_type_id":"4","last_reported":1726279483,"current_range_meters":38000,"station_id":"ce4bhg12rcd13ifvqf80","pricing_plan_id":"cebpf4jnsgd1na2vs0mg"},{"bike_id":"43f91729-b23c-4f31-bdb2-8366483e8266","system_id":"levelo_inurba_marseille","lat":43.3128,"lon":5.40152,"is_reserved":false,"is_disabled":false,"rental_uris":{"android":"levelo://app?vid=43f91729-b23c-4f31-bdb2-8366483e8266","ios":"levelo://app?vid=43f91729-b23c-4f31-bdb2-8366483e8266"},"vehicle_type_id":"4","last_reported":1726279483,"current_range_meters":39200,"station_id":"ce4bh092rcd13ifvqd30","pricing_plan_id":"cebpf4jnsgd1na2vs0mg"},{"bike_id":"7daab2d3-1c23-41fa-98fe-4046e78ab47a","system_id":"levelo_inurba_marseille","lat":43.32337,"lon":5.40615,"is_reserved":false,"is_disabled":false,"rental_uris":{"android":"levelo://app?vid=7daab2d3-1c23-41fa-98fe-4046e78ab47a","ios":"levelo://app?vid=7daab2d3-1c23-41fa-98fe-4046e78ab47a"},"vehicle_type_id":"4","last_reported":1726279483,"current_range_meters":39200,"station_id":"ce4bhq92rcd13ifvqhjg","pricing_plan_id":"cebpf4jnsgd1na2vs0mg"},{"bike_id":"81e09287-c37e-48bf-84ca-c74098cac04e","system_id":"levelo_inurba_marseille","lat":43.31121,"lon":5.37761,"is_reserved":false,"is_disabled":false,"rental_uris":{"android":"levelo://app?vid=81e09287-c37e-48bf-84ca-c74098cac04e","ios":"levelo://app?vid=81e09287-c37e-48bf-84ca-c74098cac04e"},"vehicle_type_id":"4","last_reported":1726279483,"current_range_meters":32800,"station_id":"ce4bgt92rcd13ifvqcg0","pricing_plan_id":"cebpf4jnsgd1na2vs0mg"},{"bike_id":"43fdcb14-ac18-4289-83f9-be7bf1bd4e28","system_id":"levelo_inurba_marseille","lat":43.29001,"lon":5.35617,"is_reserved":false,"is_disabled":false,"rental_uris":{"android":"levelo://app?vid=43fdcb14-ac18-4289-83f9-be7bf1bd4e28","ios":"levelo://app?vid=43fdcb14-ac18-4289-83f9-be7bf1bd4e28"},"vehicle_type_id":"4","last_reported":1726279483,"current_range_meters":12400,"station_id":"ce4bhb92rcd13ifvqen0","pricing_plan_id":"cebpf4jnsgd1na2vs0mg"},{"bike_id":"9c54bd01-194f-4c2b-9c68-7300bba0c10c","system_id":"levelo_inurba_marseille","lat":43.30252,"lon":5.40119,"is_reserved":false,"is_disabled":false,"rental_uris":{"android":"levelo://app?vid=9c54bd01-194f-4c2b-9c68-7300bba0c10c","ios":"levelo://app?vid=9c54bd01-194f-4c2b-9c68-7300bba0c10c"},"vehicle_type_id":"4","last_reported":1726279483,"current_range_meters":38000,"station_id":"ce4bgvh2rcd13ifvqcs0","pricing_plan_id":"cebpf4jnsgd1na2vs0mg"},{"bike_id":"e195004b-16a1-40cb-9c8a-84c3b3e4c6aa","system_id":"levelo_inurba_marseille","lat":43.27832,"lon":5.39196,"is_reserved":false,"is_disabled":false,"rental_uris":{"android":"levelo://app?vid=e195004b-16a1-40cb-9c8a-84c3b3e4c6aa","ios":"levelo://app?vid=e195004b-16a1-40cb-9c8a-84c3b3e4c6aa"},"vehicle_type_id":"4","last_reported":1726279483,"current_range_meters":38800,"station_id":"ce4bhjp2rcd13ifvqga0","pricing_plan_id":"cebpf4jnsgd1na2vs0mg"},{"bike_id":"26db0265-0a91-4c66-8aa8-67a94f7eef0d","system_id":"levelo_inurba_marseille","lat":43.26936,"lon":5.40056,"is_reserved":false,"is_disabled":false,"rental_uris":{"android":"levelo://app?vid=26db0265-0a91-4c66-8aa8-67a94f7eef0d","ios":"levelo://app?vid=26db0265-0a91-4c66-8aa8-67a94f7eef0d"},"vehicle_type_id":"4","last_reported":1726279483,"current_range_meters":19600,"station_id":"","pricing_plan_id":"cebpf4jnsgd1na2vs0mg"},{"bike_id":"9b49fc06-69dc-4375-9bc8-2ab31283d424","system_id":"levelo_inurba_marseille","lat":43.29898,"lon":5.43667,"is_reserved":false,"is_disabled":false,"rental_uris":{"android":"levelo://app?vid=9b49fc06-69dc-4375-9bc8-2ab31283d424","ios":"levelo://app?vid=9b49fc06-69dc-4375-9bc8-2ab31283d424"},"vehicle_type_id":"4","last_reported":1726279483,"current_range_meters":34800,"station_id":"ce4bhpp2rcd13ifvqhfg","pricing_plan_id":"cebpf4jnsgd1na2vs0mg"},{"bike_id":"c13b1b15-7687-49c3-9a4e-98d7cd5336eb","system_id":"levelo_inurba_marseille","lat":43.23959,"lon":5.36641,"is_reserved":false,"is_disabled":false,"rental_uris":{"android":"levelo://app?vid=c13b1b15-7687-49c3-9a4e-98d7cd5336eb","ios":"levelo://app?vid=c13b1b15-7687-49c3-9a4e-98d7cd5336eb"},"vehicle_type_id":"4","last_reported":1726279483,"current_range_meters":40000,"station_id":"ce4bhi12rcd13ifvqfp0","pricing_plan_id":"cebpf4jnsgd1na2vs0mg"},{"bike_id":"2bb7cfa6-d238-400e-a6c0-8666ff646552","system_id":"levelo_inurba_marseille","lat":43.24673,"lon":5.38145,"is_reserved":false,"is_disabled":false,"rental_uris":{"android":"levelo://app?vid=2bb7cfa6-d238-400e-a6c0-8666ff646552","ios":"levelo://app?vid=2bb7cfa6-d238-400e-a6c0-8666ff646552"},"vehicle_type_id":"4","last_reported":1726279483,"current_range_meters":38000,"station_id":"ce4bhih2rcd13ifvqfr0","pricing_plan_id":"cebpf4jnsgd1na2vs0mg"},{"bike_id":"ee35b2c2-5928-4a43-9f52-6820a33fc314","system_id":"levelo_inurba_marseille","lat":43.231813,"lon":5.399935,"is_reserved":false,"is_disabled":false,"rental_uris":{"android":"levelo://app?vid=ee35b2c2-5928-4a43-9f52-6820a33fc314","ios":"levelo://app?vid=ee35b2c2-5928-4a43-9f52-6820a33fc314"},"vehicle_type_id":"4","last_reported":1726279483,"current_range_meters":34800,"station_id":"ce4bhn12rcd13ifvqgqg","pricing_plan_id":"cebpf4jnsgd1na2vs0mg"},{"bike_id":"9825d48f-f87a-42f4-baeb-91b0fe735b4e","system_id":"levelo_inurba_marseille","lat":43.26795,"lon":5.40268,"is_reserved":false,"is_disabled":false,"rental_uris":{"android":"levelo://app?vid=9825d48f-f87a-42f4-baeb-91b0fe735b4e","ios":"levelo://app?vid=9825d48f-f87a-42f4-baeb-91b0fe735b4e"},"vehicle_type_id":"4","last_reported":1726279483,"current_range_meters":38800,"station_id":"ce501612rcd8frsf0b60","pricing_plan_id":"cebpf4jnsgd1na2vs0mg"},{"bike_id":"d81b309c-a20b-4503-90ea-fb932cbc3d2e","system_id":"levelo_inurba_marseille","lat":43.29036,"lon":5.35925,"is_reserved":false,"is_disabled":false,"rental_uris":{"android":"levelo://app?vid=d81b309c-a20b-4503-90ea-fb932cbc3d2e","ios":"levelo://app?vid=d81b309c-a20b-4503-90ea-fb932cbc3d2e"},"vehicle_type_id":"4","last_reported":1726279483,"current_range_meters":38800,"station_id":"ce4bha92rcd13ifvqeg0","pricing_plan_id":"cebpf4jnsgd1na2vs0mg"},{"bike_id":"c7cd67a6-2f65-43e6-9e58-1489cab32866","system_id":"levelo_inurba_marseille","lat":43.24168,"lon":5.36397,"is_reserved":false,"is_disabled":false,"rental_uris":{"android":"levelo://app?vid=c7cd67a6-2f65-43e6-9e58-1489cab32866","ios":"levelo://app?vid=c7cd67a6-2f65-43e6-9e58-1489cab32866"},"vehicle_type_id":"4","last_reported":1726279483,"current_range_meters":6400,"station_id":"cpo36qri1sfpv3e86is0","pricing_plan_id":"cebpf4jnsgd1na2vs0mg"},{"bike_id":"1378d9b7-aa84-48e9-9c1b-9b129112f4dc","system_id":"levelo_inurba_marseille","lat":43.28626,"lon":5.35104,"is_reserved":false,"is_disabled":false,"rental_uris":{"android":"levelo://app?vid=1378d9b7-aa84-48e9-9c1b-9b129112f4dc","ios":"levelo://app?vid=1378d9b7-aa84-48e9-9c1b-9b129112f4dc"},"vehicle_type_id":"4","last_reported":1726279483,"current_range_meters":30800,"station_id":"ce4bhch2rcd13ifvqeug","pricing_plan_id":"cebpf4jnsgd1na2vs0mg"},{"bike_id":"57f5eb88-52cc-441f-9282-b914e7106782","system_id":"levelo_inurba_marseille","lat":43.28032,"lon":5.36958,"is_reserved":false,"is_disabled":false,"rental_uris":{"android":"levelo://app?vid=57f5eb88-52cc-441f-9282-b914e7106782","ios":"levelo://app?vid=57f5eb88-52cc-441f-9282-b914e7106782"},"vehicle_type_id":"4","last_reported":1726279483,"current_range_meters":38800,"station_id":"ce4bha12rcd13ifvqef0","pricing_plan_id":"cebpf4jnsgd1na2vs0mg"},{"bike_id":"89ca4bfe-39ef-4e1a-8ee9-a022ec365b0c","system_id":"levelo_inurba_marseille","lat":43.2834,"lon":5.38113,"is_reserved":false,"is_disabled":false,"rental_uris":{"android":"levelo://app?vid=89ca4bfe-39ef-4e1a-8ee9-a022ec365b0c","ios":"levelo://app?vid=89ca4bfe-39ef-4e1a-8ee9-a022ec365b0c"},"vehicle_type_id":"4","last_reported":1726279483,"current_range_meters":38800,"station_id":"ce4bh412rcd13ifvqdr0","pricing_plan_id":"cebpf4jnsgd1na2vs0mg"},{"bike_id":"e00d038a-00c7-4258-ab4b-259bdb081cfd","system_id":"levelo_inurba_marseille","lat":43.23191,"lon":5.35549,"is_reserved":false,"is_disabled":false,"rental_uris":{"android":"levelo://app?vid=e00d038a-00c7-4258-ab4b-259bdb081cfd","ios":"levelo://app?vid=e00d038a-00c7-4258-ab4b-259bdb081cfd"},"vehicle_type_id":"4","last_reported":1726279483,"current_range_meters":37600,"station_id":"ce4bhu92rcd13ifvqi70","pricing_plan_id":"cebpf4jnsgd1na2vs0mg"},{"bike_id":"4f847161-8733-40c0-9d1a-924c211b3057","system_id":"levelo_inurba_marseille","lat":43.23198,"lon":5.35544,"is_reserved":false,"is_disabled":false,"rental_uris":{"android":"levelo://app?vid=4f847161-8733-40c0-9d1a-924c211b3057","ios":"levelo://app?vid=4f847161-8733-40c0-9d1a-924c211b3057"},"vehicle_type_id":"4","last_reported":1726279483,"current_range_meters":38800,"station_id":"ce4bhu92rcd13ifvqi70","pricing_plan_id":"cebpf4jnsgd1na2vs0mg"},{"bike_id":"0aed42d7-96ca-4540-bc11-7125cfb3d99e","system_id":"levelo_inurba_marseille","lat":43.30886,"lon":5.39642,"is_reserved":false,"is_disabled":false,"rental_uris":{"android":"levelo://app?vid=0aed42d7-96ca-4540-bc11-7125cfb3d99e","ios":"levelo://app?vid=0aed42d7-96ca-4540-bc11-7125cfb3d99e"},"vehicle_type_id":"4","last_reported":1726279483,"current_range_meters":16000,"station_id":"ce4bh012rcd13ifvqcv0","pricing_plan_id":"cebpf4jnsgd1na2vs0mg"},{"bike_id":"79b7950d-90c8-4e3c-a243-1a31b18cd68e","system_id":"levelo_inurba_marseille","lat":43.23964,"lon":5.36644,"is_reserved":false,"is_disabled":false,"rental_uris":{"android":"levelo://app?vid=79b7950d-90c8-4e3c-a243-1a31b18cd68e","ios":"levelo://app?vid=79b7950d-90c8-4e3c-a243-1a31b18cd68e"},"vehicle_type_id":"4","last_reported":1726279483,"current_range_meters":8400,"station_id":"ce4bhi12rcd13ifvqfp0","pricing_plan_id":"cebpf4jnsgd1na2vs0mg"},{"bike_id":"8ce4abbe-aae7-434c-b92a-9bec98856472","system_id":"levelo_inurba_marseille","lat":43.2559,"lon":5.38235,"is_reserved":false,"is_disabled":false,"rental_uris":{"android":"levelo://app?vid=8ce4abbe-aae7-434c-b92a-9bec98856472","ios":"levelo://app?vid=8ce4abbe-aae7-434c-b92a-9bec98856472"},"vehicle_type_id":"4","last_reported":1726279483,"current_range_meters":19200,"station_id":"ce4bhih2rcd13ifvqfs0","pricing_plan_id":"cebpf4jnsgd1na2vs0mg"},{"bike_id":"8cdd94dd-d1f4-4daa-8d20-0d3dfb9a99d1","system_id":"levelo_inurba_marseille","lat":43.27927,"lon":5.38007,"is_reserved":false,"is_disabled":false,"rental_uris":{"android":"levelo://app?vid=8cdd94dd-d1f4-4daa-8d20-0d3dfb9a99d1","ios":"levelo://app?vid=8cdd94dd-d1f4-4daa-8d20-0d3dfb9a99d1"},"vehicle_type_id":"4","last_reported":1726279483,"current_range_meters":11600,"station_id":"ce4bhf92rcd13ifvqf50","pricing_plan_id":"cebpf4jnsgd1na2vs0mg"},{"bike_id":"6bd1576a-e467-440f-aff2-c72956e0823a","system_id":"levelo_inurba_marseille","lat":43.30444,"lon":5.38876,"is_reserved":false,"is_disabled":false,"rental_uris":{"android":"levelo://app?vid=6bd1576a-e467-440f-aff2-c72956e0823a","ios":"levelo://app?vid=6bd1576a-e467-440f-aff2-c72956e0823a"},"vehicle_type_id":"4","last_reported":1726279483,"current_range_meters":39200,"station_id":"ce4bgk12rcd13ifvqbi0","pricing_plan_id":"cebpf4jnsgd1na2vs0mg"},{"bike_id":"f50b3f8f-a85a-4fe9-84c4-baf4c6d0a776","system_id":"levelo_inurba_marseille","lat":43.3042,"lon":5.39763,"is_reserved":false,"is_disabled":false,"rental_uris":{"android":"levelo://app?vid=f50b3f8f-a85a-4fe9-84c4-baf4c6d0a776","ios":"levelo://app?vid=f50b3f8f-a85a-4fe9-84c4-baf4c6d0a776"},"vehicle_type_id":"4","last_reported":1726279483,"current_range_meters":19200,"station_id":"ce4bh092rcd13ifvqd20","pricing_plan_id":"cebpf4jnsgd1na2vs0mg"},{"bike_id":"9e6b05d9-5b9e-4e8c-a7ed-a6aa23fe9a42","system_id":"levelo_inurba_marseille","lat":43.28613,"lon":5.35093,"is_reserved":false,"is_disabled":false,"rental_uris":{"android":"levelo://app?vid=9e6b05d9-5b9e-4e8c-a7ed-a6aa23fe9a42","ios":"levelo://app?vid=9e6b05d9-5b9e-4e8c-a7ed-a6aa23fe9a42"},"vehicle_type_id":"4","last_reported":1726279483,"current_range_meters":30000,"station_id":"ce4bhch2rcd13ifvqeug","pricing_plan_id":"cebpf4jnsgd1na2vs0mg"},{"bike_id":"e18ef51c-3647-4357-85f0-bb301c5654fc","system_id":"levelo_inurba_marseille","lat":43.23964,"lon":5.36638,"is_reserved":false,"is_disabled":false,"rental_uris":{"android":"levelo://app?vid=e18ef51c-3647-4357-85f0-bb301c5654fc","ios":"levelo://app?vid=e18ef51c-3647-4357-85f0-bb301c5654fc"},"vehicle_type_id":"4","last_reported":1726279483,"current_range_meters":39200,"station_id":"ce4bhi12rcd13ifvqfp0","pricing_plan_id":"cebpf4jnsgd1na2vs0mg"},{"bike_id":"9f687c73-7bb2-455b-bc39-5836fb2ce3db","system_id":"levelo_inurba_marseille","lat":43.2783,"lon":5.39208,"is_reserved":false,"is_disabled":false,"rental_uris":{"android":"levelo://app?vid=9f687c73-7bb2-455b-bc39-5836fb2ce3db","ios":"levelo://app?vid=9f687c73-7bb2-455b-bc39-5836fb2ce3db"},"vehicle_type_id":"4","last_reported":1726279483,"current_range_meters":25600,"station_id":"ce4bhjp2rcd13ifvqga0","pricing_plan_id":"cebpf4jnsgd1na2vs0mg"},{"bike_id":"7d61f96e-3af9-4905-8791-7729f86bc4f8","system_id":"levelo_inurba_marseille","lat":43.32489,"lon":5.36563,"is_reserved":false,"is_disabled":false,"rental_uris":{"android":"levelo://app?vid=7d61f96e-3af9-4905-8791-7729f86bc4f8","ios":"levelo://app?vid=7d61f96e-3af9-4905-8791-7729f86bc4f8"},"vehicle_type_id":"4","last_reported":1726279483,"current_range_meters":10000,"station_id":"ce4bhs12rcd13ifvqhvg","pricing_plan_id":"cebpf4jnsgd1na2vs0mg"},{"bike_id":"4e51448f-1004-4ba6-be6c-d4416316cb00","system_id":"levelo_inurba_marseille","lat":43.28457,"lon":5.35889,"is_reserved":false,"is_disabled":false,"rental_uris":{"android":"levelo://app?vid=4e51448f-1004-4ba6-be6c-d4416316cb00","ios":"levelo://app?vid=4e51448f-1004-4ba6-be6c-d4416316cb00"},"vehicle_type_id":"4","last_reported":1726279483,"current_range_meters":28800,"station_id":"ce4bhah2rcd13ifvqei0","pricing_plan_id":"cebpf4jnsgd1na2vs0mg"},{"bike_id":"7ed87cd5-90a6-49a7-9949-d394b2823404","system_id":"levelo_inurba_marseille","lat":43.27072,"lon":5.42284,"is_reserved":false,"is_disabled":false,"rental_uris":{"android":"levelo://app?vid=7ed87cd5-90a6-49a7-9949-d394b2823404","ios":"levelo://app?vid=7ed87cd5-90a6-49a7-9949-d394b2823404"},"vehicle_type_id":"4","last_reported":1726279483,"current_range_meters":11200,"station_id":"ce4bhk92rcd13ifvqgb0","pricing_plan_id":"cebpf4jnsgd1na2vs0mg"},{"bike_id":"8d569a04-84e8-4c81-b2ee-40bf9568ebcd","system_id":"levelo_inurba_marseille","lat":43.27997,"lon":5.4001,"is_reserved":false,"is_disabled":false,"rental_uris":{"android":"levelo://app?vid=8d569a04-84e8-4c81-b2ee-40bf9568ebcd","ios":"levelo://app?vid=8d569a04-84e8-4c81-b2ee-40bf9568ebcd"},"vehicle_type_id":"4","last_reported":1726279483,"current_range_meters":14000,"station_id":"ce4bho92rcd13ifvqh4g","pricing_plan_id":"cebpf4jnsgd1na2vs0mg"},{"bike_id":"51efaa28-be78-438d-9593-a5c65646c0fd","system_id":"levelo_inurba_marseille","lat":43.25933,"lon":5.4091,"is_reserved":false,"is_disabled":false,"rental_uris":{"android":"levelo://app?vid=51efaa28-be78-438d-9593-a5c65646c0fd","ios":"levelo://app?vid=51efaa28-be78-438d-9593-a5c65646c0fd"},"vehicle_type_id":"4","last_reported":1726279483,"current_range_meters":36800,"station_id":"ce4bhm92rcd13ifvqglg","pricing_plan_id":"cebpf4jnsgd1na2vs0mg"},{"bike_id":"21f1670a-78a5-44cc-b6c0-5152ed0c65f9","system_id":"levelo_inurba_marseille","lat":43.27618,"lon":5.36115,"is_reserved":false,"is_disabled":false,"rental_uris":{"android":"levelo://app?vid=21f1670a-78a5-44cc-b6c0-5152ed0c65f9","ios":"levelo://app?vid=21f1670a-78a5-44cc-b6c0-5152ed0c65f9"},"vehicle_type_id":"4","last_reported":1726279483,"current_range_meters":39200,"station_id":"ce4bgj92rcd13ifvqbe0","pricing_plan_id":"cebpf4jnsgd1na2vs0mg"},{"bike_id":"2dab5e79-19eb-4cde-b219-3fbf7d01979c","system_id":"levelo_inurba_marseille","lat":43.2756,"lon":5.38431,"is_reserved":false,"is_disabled":false,"rental_uris":{"android":"levelo://app?vid=2dab5e79-19eb-4cde-b219-3fbf7d01979c","ios":"levelo://app?vid=2dab5e79-19eb-4cde-b219-3fbf7d01979c"},"vehicle_type_id":"4","last_reported":1726279483,"current_range_meters":39200,"station_id":"ce4bhh92rcd13ifvqfi0","pricing_plan_id":"cebpf4jnsgd1na2vs0mg"},{"bike_id":"39088654-1493-49de-a50e-7af120c7f37c","system_id":"levelo_inurba_marseille","lat":43.23959,"lon":5.36629,"is_reserved":false,"is_disabled":false,"rental_uris":{"android":"levelo://app?vid=39088654-1493-49de-a50e-7af120c7f37c","ios":"levelo://app?vid=39088654-1493-49de-a50e-7af120c7f37c"},"vehicle_type_id":"4","last_reported":1726279483,"current_range_meters":38800,"station_id":"ce4bhi12rcd13ifvqfp0","pricing_plan_id":"cebpf4jnsgd1na2vs0mg"},{"bike_id":"1238613a-5efd-4b1b-b7cc-529d0a2a4cc8","system_id":"levelo_inurba_marseille","lat":43.28379,"lon":5.38657,"is_reserved":false,"is_disabled":false,"rental_uris":{"android":"levelo://app?vid=1238613a-5efd-4b1b-b7cc-529d0a2a4cc8","ios":"levelo://app?vid=1238613a-5efd-4b1b-b7cc-529d0a2a4cc8"},"vehicle_type_id":"4","last_reported":1726279483,"current_range_meters":25600,"station_id":"ce4bh492rcd13ifvqdvg","pricing_plan_id":"cebpf4jnsgd1na2vs0mg"},{"bike_id":"2b516ddd-0555-4101-9164-390b058c5056","system_id":"levelo_inurba_marseille","lat":43.3131,"lon":5.3969,"is_reserved":false,"is_disabled":false,"rental_uris":{"android":"levelo://app?vid=2b516ddd-0555-4101-9164-390b058c5056","ios":"levelo://app?vid=2b516ddd-0555-4101-9164-390b058c5056"},"vehicle_type_id":"4","last_reported":1726279483,"current_range_meters":14000,"station_id":"ce4bgvp2rcd13ifvqcu0","pricing_plan_id":"cebpf4jnsgd1na2vs0mg"},{"bike_id":"2eb88377-f4ae-42ff-912d-f853bde4a3ea","system_id":"levelo_inurba_marseille","lat":43.26522,"lon":5.39554,"is_reserved":false,"is_disabled":false,"rental_uris":{"android":"levelo://app?vid=2eb88377-f4ae-42ff-912d-f853bde4a3ea","ios":"levelo://app?vid=2eb88377-f4ae-42ff-912d-f853bde4a3ea"},"vehicle_type_id":"4","last_reported":1726279483,"current_range_meters":37600,"station_id":"ce4bhi12rcd13ifvqfq0","pricing_plan_id":"cebpf4jnsgd1na2vs0mg"},{"bike_id":"f1409f60-76f3-4334-898a-55e433cde666","system_id":"levelo_inurba_marseille","lat":43.26639,"lon":5.4019,"is_reserved":false,"is_disabled":false,"rental_uris":{"android":"levelo://app?vid=f1409f60-76f3-4334-898a-55e433cde666","ios":"levelo://app?vid=f1409f60-76f3-4334-898a-55e433cde666"},"vehicle_type_id":"4","last_reported":1726279483,"current_range_meters":35200,"station_id":"","pricing_plan_id":"cebpf4jnsgd1na2vs0mg"},{"bike_id":"71cbb578-5c4f-4bae-b5ab-3f387855ff35","system_id":"levelo_inurba_marseille","lat":43.28427,"lon":5.39192,"is_reserved":false,"is_disabled":false,"rental_uris":{"android":"levelo://app?vid=71cbb578-5c4f-4bae-b5ab-3f387855ff35","ios":"levelo://app?vid=71cbb578-5c4f-4bae-b5ab-3f387855ff35"},"vehicle_type_id":"4","last_reported":1726279483,"current_range_meters":40000,"station_id":"ce4bhoh2rcd13ifvqh5g","pricing_plan_id":"cebpf4jnsgd1na2vs0mg"},{"bike_id":"2f1b8297-f2a7-4890-9a93-d0cf9b5b0250","system_id":"levelo_inurba_marseille","lat":43.27491,"lon":5.42458,"is_reserved":false,"is_disabled":false,"rental_uris":{"android":"levelo://app?vid=2f1b8297-f2a7-4890-9a93-d0cf9b5b0250","ios":"levelo://app?vid=2f1b8297-f2a7-4890-9a93-d0cf9b5b0250"},"vehicle_type_id":"4","last_reported":1726279483,"current_range_meters":33200,"station_id":"ce4bhn92rcd13ifvqgrg","pricing_plan_id":"cebpf4jnsgd1na2vs0mg"},{"bike_id":"b64d2685-3475-4d8d-bec3-7da408ec0f88","system_id":"levelo_inurba_marseille","lat":43.28718,"lon":5.36077,"is_reserved":false,"is_disabled":false,"rental_uris":{"android":"levelo://app?vid=b64d2685-3475-4d8d-bec3-7da408ec0f88","ios":"levelo://app?vid=b64d2685-3475-4d8d-bec3-7da408ec0f88"},"vehicle_type_id":"4","last_reported":1726279483,"current_range_meters":16000,"station_id":"cki0cbj6b192h4jlfktg","pricing_plan_id":"cebpf4jnsgd1na2vs0mg"},{"bike_id":"a1e86bae-027a-4263-97a0-3dddfd0fa6f7","system_id":"levelo_inurba_marseille","lat":43.27322,"lon":5.39138,"is_reserved":false,"is_disabled":false,"rental_uris":{"android":"levelo://app?vid=a1e86bae-027a-4263-97a0-3dddfd0fa6f7","ios":"levelo://app?vid=a1e86bae-027a-4263-97a0-3dddfd0fa6f7"},"vehicle_type_id":"4","last_reported":1726279483,"current_range_meters":24400,"station_id":"ce4bhgp2rcd13ifvqfe0","pricing_plan_id":"cebpf4jnsgd1na2vs0mg"},{"bike_id":"81d81b1a-742e-4e7e-9632-041d7fe88266","system_id":"levelo_inurba_marseille","lat":43.31123,"lon":5.37778,"is_reserved":false,"is_disabled":false,"rental_uris":{"android":"levelo://app?vid=81d81b1a-742e-4e7e-9632-041d7fe88266","ios":"levelo://app?vid=81d81b1a-742e-4e7e-9632-041d7fe88266"},"vehicle_type_id":"4","last_reported":1726279483,"current_range_meters":38800,"station_id":"ce4bgt92rcd13ifvqcg0","pricing_plan_id":"cebpf4jnsgd1na2vs0mg"},{"bike_id":"75c35499-0de6-41a0-acf5-7c9b58381038","system_id":"levelo_inurba_marseille","lat":43.23192,"lon":5.39981,"is_reserved":false,"is_disabled":false,"rental_uris":{"android":"levelo://app?vid=75c35499-0de6-41a0-acf5-7c9b58381038","ios":"levelo://app?vid=75c35499-0de6-41a0-acf5-7c9b58381038"},"vehicle_type_id":"4","last_reported":1726279483,"current_range_meters":39200,"station_id":"ce4bhn12rcd13ifvqgqg","pricing_plan_id":"cebpf4jnsgd1na2vs0mg"},{"bike_id":"ae55d6cd-5778-4804-a0b3-2891400036ce","system_id":"levelo_inurba_marseille","lat":43.27839,"lon":5.39199,"is_reserved":false,"is_disabled":false,"rental_uris":{"android":"levelo://app?vid=ae55d6cd-5778-4804-a0b3-2891400036ce","ios":"levelo://app?vid=ae55d6cd-5778-4804-a0b3-2891400036ce"},"vehicle_type_id":"4","last_reported":1726279483,"current_range_meters":22400,"station_id":"ce4bhjp2rcd13ifvqga0","pricing_plan_id":"cebpf4jnsgd1na2vs0mg"},{"bike_id":"11152a54-7f4b-45a6-95a4-d66b0581a9e2","system_id":"levelo_inurba_marseille","lat":43.27982,"lon":5.4003,"is_reserved":false,"is_disabled":false,"rental_uris":{"android":"levelo://app?vid=11152a54-7f4b-45a6-95a4-d66b0581a9e2","ios":"levelo://app?vid=11152a54-7f4b-45a6-95a4-d66b0581a9e2"},"vehicle_type_id":"4","last_reported":1726279483,"current_range_meters":24800,"station_id":"ce4bho92rcd13ifvqh4g","pricing_plan_id":"cebpf4jnsgd1na2vs0mg"},{"bike_id":"786aae2d-49aa-4332-b24f-adb8ba59780b","system_id":"levelo_inurba_marseille","lat":43.28447,"lon":5.35892,"is_reserved":false,"is_disabled":false,"rental_uris":{"android":"levelo://app?vid=786aae2d-49aa-4332-b24f-adb8ba59780b","ios":"levelo://app?vid=786aae2d-49aa-4332-b24f-adb8ba59780b"},"vehicle_type_id":"4","last_reported":1726279483,"current_range_meters":38800,"station_id":"ce4bhah2rcd13ifvqei0","pricing_plan_id":"cebpf4jnsgd1na2vs0mg"},{"bike_id":"0200e915-f816-4757-ad7c-c8320137b243","system_id":"levelo_inurba_marseille","lat":43.3302,"lon":5.39044,"is_reserved":false,"is_disabled":false,"rental_uris":{"android":"levelo://app?vid=0200e915-f816-4757-ad7c-c8320137b243","ios":"levelo://app?vid=0200e915-f816-4757-ad7c-c8320137b243"},"vehicle_type_id":"4","last_reported":1726279483,"current_range_meters":14800,"station_id":"ce4bhr92rcd13ifvqhrg","pricing_plan_id":"cebpf4jnsgd1na2vs0mg"},{"bike_id":"b645ac77-0d58-4fa9-8ad3-947af8bdb1d9","system_id":"levelo_inurba_marseille","lat":43.29899,"lon":5.43674,"is_reserved":false,"is_disabled":false,"rental_uris":{"android":"levelo://app?vid=b645ac77-0d58-4fa9-8ad3-947af8bdb1d9","ios":"levelo://app?vid=b645ac77-0d58-4fa9-8ad3-947af8bdb1d9"},"vehicle_type_id":"4","last_reported":1726279483,"current_range_meters":38800,"station_id":"ce4bhpp2rcd13ifvqhfg","pricing_plan_id":"cebpf4jnsgd1na2vs0mg"},{"bike_id":"198840d4-6ee7-4d11-b14f-6b78ebcfa5b0","system_id":"levelo_inurba_marseille","lat":43.28375,"lon":5.38617,"is_reserved":false,"is_disabled":false,"rental_uris":{"android":"levelo://app?vid=198840d4-6ee7-4d11-b14f-6b78ebcfa5b0","ios":"levelo://app?vid=198840d4-6ee7-4d11-b14f-6b78ebcfa5b0"},"vehicle_type_id":"4","last_reported":1726279483,"current_range_meters":33600,"station_id":"ce4bh492rcd13ifvqdvg","pricing_plan_id":"cebpf4jnsgd1na2vs0mg"},{"bike_id":"91d155a1-0e95-42f4-9cf2-24e586735a13","system_id":"levelo_inurba_marseille","lat":43.33718,"lon":5.39194,"is_reserved":false,"is_disabled":false,"rental_uris":{"android":"levelo://app?vid=91d155a1-0e95-42f4-9cf2-24e586735a13","ios":"levelo://app?vid=91d155a1-0e95-42f4-9cf2-24e586735a13"},"vehicle_type_id":"4","last_reported":1726279483,"current_range_meters":38800,"station_id":"ce4bhr92rcd13ifvqhsg","pricing_plan_id":"cebpf4jnsgd1na2vs0mg"},{"bike_id":"19cb6015-d35b-4ea8-bb63-e19547cc4f55","system_id":"levelo_inurba_marseille","lat":43.31317,"lon":5.39696,"is_reserved":false,"is_disabled":false,"rental_uris":{"android":"levelo://app?vid=19cb6015-d35b-4ea8-bb63-e19547cc4f55","ios":"levelo://app?vid=19cb6015-d35b-4ea8-bb63-e19547cc4f55"},"vehicle_type_id":"4","last_reported":1726279483,"current_range_meters":28000,"station_id":"ce4bgvp2rcd13ifvqcu0","pricing_plan_id":"cebpf4jnsgd1na2vs0mg"},{"bike_id":"006b4443-3e00-42a1-8883-330c8700c5f7","system_id":"levelo_inurba_marseille","lat":43.31766,"lon":5.39012,"is_reserved":false,"is_disabled":false,"rental_uris":{"android":"levelo://app?vid=006b4443-3e00-42a1-8883-330c8700c5f7","ios":"levelo://app?vid=006b4443-3e00-42a1-8883-330c8700c5f7"},"vehicle_type_id":"4","last_reported":1726279483,"current_range_meters":39200,"station_id":"ce4bhqp2rcd13ifvqhng","pricing_plan_id":"cebpf4jnsgd1na2vs0mg"},{"bike_id":"770f8c4a-cd67-4677-809e-37fcd39b2e16","system_id":"levelo_inurba_marseille","lat":43.28566,"lon":5.39497,"is_reserved":false,"is_disabled":false,"rental_uris":{"android":"levelo://app?vid=770f8c4a-cd67-4677-809e-37fcd39b2e16","ios":"levelo://app?vid=770f8c4a-cd67-4677-809e-37fcd39b2e16"},"vehicle_type_id":"4","last_reported":1726279483,"current_range_meters":30400,"station_id":"ce4bh292rcd13ifvqdg0","pricing_plan_id":"cebpf4jnsgd1na2vs0mg"},{"bike_id":"81337a85-4ab9-4d62-b451-9850010dd5f2","system_id":"levelo_inurba_marseille","lat":43.28368,"lon":5.38649,"is_reserved":false,"is_disabled":false,"rental_uris":{"android":"levelo://app?vid=81337a85-4ab9-4d62-b451-9850010dd5f2","ios":"levelo://app?vid=81337a85-4ab9-4d62-b451-9850010dd5f2"},"vehicle_type_id":"4","last_reported":1726279483,"current_range_meters":38800,"station_id":"ce4bh492rcd13ifvqdvg","pricing_plan_id":"cebpf4jnsgd1na2vs0mg"},{"bike_id":"9a827cb2-29d0-403f-b256-032839c34ce3","system_id":"levelo_inurba_marseille","lat":43.30775,"lon":5.37644,"is_reserved":false,"is_disabled":false,"rental_uris":{"android":"levelo://app?vid=9a827cb2-29d0-403f-b256-032839c34ce3","ios":"levelo://app?vid=9a827cb2-29d0-403f-b256-032839c34ce3"},"vehicle_type_id":"4","last_reported":1726279483,"current_range_meters":34800,"station_id":"ce4bgv92rcd13ifvqcq0","pricing_plan_id":"cebpf4jnsgd1na2vs0mg"},{"bike_id":"9368e81d-9d41-40d8-9614-e043ff6b63f3","system_id":"levelo_inurba_marseille","lat":43.31385,"lon":5.385,"is_reserved":false,"is_disabled":false,"rental_uris":{"android":"levelo://app?vid=9368e81d-9d41-40d8-9614-e043ff6b63f3","ios":"levelo://app?vid=9368e81d-9d41-40d8-9614-e043ff6b63f3"},"vehicle_type_id":"4","last_reported":1726279483,"current_range_meters":20800,"station_id":"ce4bgt92rcd13ifvqcf0","pricing_plan_id":"cebpf4jnsgd1na2vs0mg"},{"bike_id":"44023f7c-8753-4d1f-b87d-3c831108799a","system_id":"levelo_inurba_marseille","lat":43.28426,"lon":5.3499,"is_reserved":false,"is_disabled":false,"rental_uris":{"android":"levelo://app?vid=44023f7c-8753-4d1f-b87d-3c831108799a","ios":"levelo://app?vid=44023f7c-8753-4d1f-b87d-3c831108799a"},"vehicle_type_id":"4","last_reported":1726279483,"current_range_meters":32800,"station_id":"ce4bhbh2rcd13ifvqepg","pricing_plan_id":"cebpf4jnsgd1na2vs0mg"},{"bike_id":"a8408bc0-1ad0-4261-92e7-4324637d7c82","system_id":"levelo_inurba_marseille","lat":43.29014,"lon":5.35617,"is_reserved":false,"is_disabled":false,"rental_uris":{"android":"levelo://app?vid=a8408bc0-1ad0-4261-92e7-4324637d7c82","ios":"levelo://app?vid=a8408bc0-1ad0-4261-92e7-4324637d7c82"},"vehicle_type_id":"4","last_reported":1726279483,"current_range_meters":38400,"station_id":"ce4bhb92rcd13ifvqen0","pricing_plan_id":"cebpf4jnsgd1na2vs0mg"},{"bike_id":"0d9f035c-8e47-426d-8593-e2bc7f05f235","system_id":"levelo_inurba_marseille","lat":43.30452,"lon":5.36477,"is_reserved":false,"is_disabled":false,"rental_uris":{"android":"levelo://app?vid=0d9f035c-8e47-426d-8593-e2bc7f05f235","ios":"levelo://app?vid=0d9f035c-8e47-426d-8593-e2bc7f05f235"},"vehicle_type_id":"4","last_reported":1726279483,"current_range_meters":12400,"station_id":"","pricing_plan_id":"cebpf4jnsgd1na2vs0mg"},{"bike_id":"25f18187-4b35-4c65-a771-73d737ef7005","system_id":"levelo_inurba_marseille","lat":43.33021,"lon":5.39036,"is_reserved":false,"is_disabled":false,"rental_uris":{"android":"levelo://app?vid=25f18187-4b35-4c65-a771-73d737ef7005","ios":"levelo://app?vid=25f18187-4b35-4c65-a771-73d737ef7005"},"vehicle_type_id":"4","last_reported":1726279483,"current_range_meters":38800,"station_id":"ce4bhr92rcd13ifvqhrg","pricing_plan_id":"cebpf4jnsgd1na2vs0mg"},{"bike_id":"012af03f-bb0f-4149-b9f8-1f80ec3f3901","system_id":"levelo_inurba_marseille","lat":43.24297,"lon":5.38362,"is_reserved":false,"is_disabled":false,"rental_uris":{"android":"levelo://app?vid=012af03f-bb0f-4149-b9f8-1f80ec3f3901","ios":"levelo://app?vid=012af03f-bb0f-4149-b9f8-1f80ec3f3901"},"vehicle_type_id":"4","last_reported":1726279483,"current_range_meters":21600,"station_id":"","pricing_plan_id":"cebpf4jnsgd1na2vs0mg"},{"bike_id":"fe149c97-e6be-4551-a663-ae6c6d6bda3c","system_id":"levelo_inurba_marseille","lat":43.30939,"lon":5.40153,"is_reserved":false,"is_disabled":false,"rental_uris":{"android":"levelo://app?vid=fe149c97-e6be-4551-a663-ae6c6d6bda3c","ios":"levelo://app?vid=fe149c97-e6be-4551-a663-ae6c6d6bda3c"},"vehicle_type_id":"4","last_reported":1726279483,"current_range_meters":30400,"station_id":"ce4bgvp2rcd13ifvqct0","pricing_plan_id":"cebpf4jnsgd1na2vs0mg"},{"bike_id":"e61a439f-5d40-4246-ad47-ab8a4d665798","system_id":"levelo_inurba_marseille","lat":43.27626,"lon":5.36106,"is_reserved":false,"is_disabled":false,"rental_uris":{"android":"levelo://app?vid=e61a439f-5d40-4246-ad47-ab8a4d665798","ios":"levelo://app?vid=e61a439f-5d40-4246-ad47-ab8a4d665798"},"vehicle_type_id":"4","last_reported":1726279483,"current_range_meters":5600,"station_id":"ce4bgj92rcd13ifvqbe0","pricing_plan_id":"cebpf4jnsgd1na2vs0mg"},{"bike_id":"c2e4599f-df07-44b6-9551-dcbcfe6fee56","system_id":"levelo_inurba_marseille","lat":43.31166,"lon":5.38721,"is_reserved":false,"is_disabled":false,"rental_uris":{"android":"levelo://app?vid=c2e4599f-df07-44b6-9551-dcbcfe6fee56","ios":"levelo://app?vid=c2e4599f-df07-44b6-9551-dcbcfe6fee56"},"vehicle_type_id":"4","last_reported":1726279483,"current_range_meters":17600,"station_id":"ce4bgv12rcd13ifvqcp0","pricing_plan_id":"cebpf4jnsgd1na2vs0mg"},{"bike_id":"1839b253-6652-4320-b2e5-cbeb069273e9","system_id":"levelo_inurba_marseille","lat":43.28703,"lon":5.39991,"is_reserved":false,"is_disabled":false,"rental_uris":{"android":"levelo://app?vid=1839b253-6652-4320-b2e5-cbeb069273e9","ios":"levelo://app?vid=1839b253-6652-4320-b2e5-cbeb069273e9"},"vehicle_type_id":"4","last_reported":1726279483,"current_range_meters":20000,"station_id":"ce4bho92rcd13ifvqh3g","pricing_plan_id":"cebpf4jnsgd1na2vs0mg"},{"bike_id":"d57407f8-bf56-4fd3-a5c0-9daedd1527be","system_id":"levelo_inurba_marseille","lat":43.31278,"lon":5.40168,"is_reserved":false,"is_disabled":false,"rental_uris":{"android":"levelo://app?vid=d57407f8-bf56-4fd3-a5c0-9daedd1527be","ios":"levelo://app?vid=d57407f8-bf56-4fd3-a5c0-9daedd1527be"},"vehicle_type_id":"4","last_reported":1726279483,"current_range_meters":8800,"station_id":"ce4bh092rcd13ifvqd30","pricing_plan_id":"cebpf4jnsgd1na2vs0mg"},{"bike_id":"552ccea4-a0ab-4fa2-9015-1ea8da64cd61","system_id":"levelo_inurba_marseille","lat":43.25585,"lon":5.38248,"is_reserved":false,"is_disabled":false,"rental_uris":{"android":"levelo://app?vid=552ccea4-a0ab-4fa2-9015-1ea8da64cd61","ios":"levelo://app?vid=552ccea4-a0ab-4fa2-9015-1ea8da64cd61"},"vehicle_type_id":"4","last_reported":1726279483,"current_range_meters":6800,"station_id":"ce4bhih2rcd13ifvqfs0","pricing_plan_id":"cebpf4jnsgd1na2vs0mg"},{"bike_id":"df8a7d4a-4b44-46db-a163-69740286d1e4","system_id":"levelo_inurba_marseille","lat":43.32653,"lon":5.40988,"is_reserved":false,"is_disabled":false,"rental_uris":{"android":"levelo://app?vid=df8a7d4a-4b44-46db-a163-69740286d1e4","ios":"levelo://app?vid=df8a7d4a-4b44-46db-a163-69740286d1e4"},"vehicle_type_id":"4","last_reported":1726279483,"current_range_meters":38800,"station_id":"ce4bhpp2rcd13ifvqhgg","pricing_plan_id":"cebpf4jnsgd1na2vs0mg"},{"bike_id":"2a465d11-1444-48d6-893c-483c594ee25c","system_id":"levelo_inurba_marseille","lat":43.29632,"lon":5.40612,"is_reserved":false,"is_disabled":false,"rental_uris":{"android":"levelo://app?vid=2a465d11-1444-48d6-893c-483c594ee25c","ios":"levelo://app?vid=2a465d11-1444-48d6-893c-483c594ee25c"},"vehicle_type_id":"4","last_reported":1726279483,"current_range_meters":27200,"station_id":"ce4bh0h2rcd13ifvqd60","pricing_plan_id":"cebpf4jnsgd1na2vs0mg"},{"bike_id":"262907ac-79dd-4a13-b6e2-591b1cc219dc","system_id":"levelo_inurba_marseille","lat":43.31171,"lon":5.38728,"is_reserved":false,"is_disabled":false,"rental_uris":{"android":"levelo://app?vid=262907ac-79dd-4a13-b6e2-591b1cc219dc","ios":"levelo://app?vid=262907ac-79dd-4a13-b6e2-591b1cc219dc"},"vehicle_type_id":"4","last_reported":1726279483,"current_range_meters":31200,"station_id":"ce4bgv12rcd13ifvqcp0","pricing_plan_id":"cebpf4jnsgd1na2vs0mg"},{"bike_id":"7ce34b7b-e6b0-4356-8d51-c03590714b37","system_id":"levelo_inurba_marseille","lat":43.24658,"lon":5.38886,"is_reserved":false,"is_disabled":false,"rental_uris":{"android":"levelo://app?vid=7ce34b7b-e6b0-4356-8d51-c03590714b37","ios":"levelo://app?vid=7ce34b7b-e6b0-4356-8d51-c03590714b37"},"vehicle_type_id":"4","last_reported":1726279483,"current_range_meters":38400,"station_id":"ce4bhg12rcd13ifvqf60","pricing_plan_id":"cebpf4jnsgd1na2vs0mg"},{"bike_id":"7a1235e9-007e-4942-9886-cdd34a67165e","system_id":"levelo_inurba_marseille","lat":43.317,"lon":5.43694,"is_reserved":false,"is_disabled":false,"rental_uris":{"android":"levelo://app?vid=7a1235e9-007e-4942-9886-cdd34a67165e","ios":"levelo://app?vid=7a1235e9-007e-4942-9886-cdd34a67165e"},"vehicle_type_id":"4","last_reported":1726279483,"current_range_meters":39200,"station_id":"ce4bhp92rcd13ifvqhcg","pricing_plan_id":"cebpf4jnsgd1na2vs0mg"},{"bike_id":"3275e4b1-5584-4c59-b3d9-e163da6a34fe","system_id":"levelo_inurba_marseille","lat":43.24674,"lon":5.38147,"is_reserved":false,"is_disabled":false,"rental_uris":{"android":"levelo://app?vid=3275e4b1-5584-4c59-b3d9-e163da6a34fe","ios":"levelo://app?vid=3275e4b1-5584-4c59-b3d9-e163da6a34fe"},"vehicle_type_id":"4","last_reported":1726279483,"current_range_meters":7200,"station_id":"ce4bhih2rcd13ifvqfr0","pricing_plan_id":"cebpf4jnsgd1na2vs0mg"},{"bike_id":"1bf0db5f-5142-4765-b21d-727dad3862a8","system_id":"levelo_inurba_marseille","lat":43.32489,"lon":5.36586,"is_reserved":false,"is_disabled":false,"rental_uris":{"android":"levelo://app?vid=1bf0db5f-5142-4765-b21d-727dad3862a8","ios":"levelo://app?vid=1bf0db5f-5142-4765-b21d-727dad3862a8"},"vehicle_type_id":"4","last_reported":1726279483,"current_range_meters":38800,"station_id":"ce4bhs12rcd13ifvqhvg","pricing_plan_id":"cebpf4jnsgd1na2vs0mg"},{"bike_id":"47256090-df38-4d20-80a7-55e4db538620","system_id":"levelo_inurba_marseille","lat":43.26485,"lon":5.39561,"is_reserved":false,"is_disabled":false,"rental_uris":{"android":"levelo://app?vid=47256090-df38-4d20-80a7-55e4db538620","ios":"levelo://app?vid=47256090-df38-4d20-80a7-55e4db538620"},"vehicle_type_id":"4","last_reported":1726279483,"current_range_meters":37600,"station_id":"ce4bhi12rcd13ifvqfq0","pricing_plan_id":"cebpf4jnsgd1na2vs0mg"},{"bike_id":"ac29ceae-fed9-49cf-b739-967a5ba6ae22","system_id":"levelo_inurba_marseille","lat":43.29932,"lon":5.37459,"is_reserved":false,"is_disabled":false,"rental_uris":{"android":"levelo://app?vid=ac29ceae-fed9-49cf-b739-967a5ba6ae22","ios":"levelo://app?vid=ac29ceae-fed9-49cf-b739-967a5ba6ae22"},"vehicle_type_id":"4","last_reported":1726279483,"current_range_meters":25600,"station_id":"ce4bgjh2rcd13ifvqbg0","pricing_plan_id":"cebpf4jnsgd1na2vs0mg"},{"bike_id":"53a2d874-293d-47cc-bdbd-a03b3468623b","system_id":"levelo_inurba_marseille","lat":43.299,"lon":5.4368,"is_reserved":false,"is_disabled":false,"rental_uris":{"android":"levelo://app?vid=53a2d874-293d-47cc-bdbd-a03b3468623b","ios":"levelo://app?vid=53a2d874-293d-47cc-bdbd-a03b3468623b"},"vehicle_type_id":"4","last_reported":1726279483,"current_range_meters":10000,"station_id":"ce4bhpp2rcd13ifvqhfg","pricing_plan_id":"cebpf4jnsgd1na2vs0mg"},{"bike_id":"c70b9e9a-c362-4f34-868a-2205d447cb5f","system_id":"levelo_inurba_marseille","lat":43.28928,"lon":5.38401,"is_reserved":false,"is_disabled":false,"rental_uris":{"android":"levelo://app?vid=c70b9e9a-c362-4f34-868a-2205d447cb5f","ios":"levelo://app?vid=c70b9e9a-c362-4f34-868a-2205d447cb5f"},"vehicle_type_id":"4","last_reported":1726279483,"current_range_meters":16000,"station_id":"ce4bh612rcd13ifvqe6g","pricing_plan_id":"cebpf4jnsgd1na2vs0mg"},{"bike_id":"07fd60ee-19ad-432a-b83c-321f2d4b57e8","system_id":"levelo_inurba_marseille","lat":43.28696,"lon":5.37396,"is_reserved":false,"is_disabled":false,"rental_uris":{"android":"levelo://app?vid=07fd60ee-19ad-432a-b83c-321f2d4b57e8","ios":"levelo://app?vid=07fd60ee-19ad-432a-b83c-321f2d4b57e8"},"vehicle_type_id":"4","last_reported":1726279483,"current_range_meters":38800,"station_id":"ce4bh3p2rcd13ifvqdq0","pricing_plan_id":"cebpf4jnsgd1na2vs0mg"},{"bike_id":"bb7acf50-b6bc-4b2d-adf4-833abc23b24c","system_id":"levelo_inurba_marseille","lat":43.2319,"lon":5.3555,"is_reserved":false,"is_disabled":false,"rental_uris":{"android":"levelo://app?vid=bb7acf50-b6bc-4b2d-adf4-833abc23b24c","ios":"levelo://app?vid=bb7acf50-b6bc-4b2d-adf4-833abc23b24c"},"vehicle_type_id":"4","last_reported":1726279483,"current_range_meters":39200,"station_id":"ce4bhu92rcd13ifvqi70","pricing_plan_id":"cebpf4jnsgd1na2vs0mg"},{"bike_id":"6b604633-853d-470b-951d-86635bcb9111","system_id":"levelo_inurba_marseille","lat":43.31179,"lon":5.38726,"is_reserved":false,"is_disabled":false,"rental_uris":{"android":"levelo://app?vid=6b604633-853d-470b-951d-86635bcb9111","ios":"levelo://app?vid=6b604633-853d-470b-951d-86635bcb9111"},"vehicle_type_id":"4","last_reported":1726279483,"current_range_meters":38800,"station_id":"ce4bgv12rcd13ifvqcp0","pricing_plan_id":"cebpf4jnsgd1na2vs0mg"},{"bike_id":"273a04d2-00cf-4d11-a338-a91c0d03b2f9","system_id":"levelo_inurba_marseille","lat":43.2808,"lon":5.39632,"is_reserved":false,"is_disabled":false,"rental_uris":{"android":"levelo://app?vid=273a04d2-00cf-4d11-a338-a91c0d03b2f9","ios":"levelo://app?vid=273a04d2-00cf-4d11-a338-a91c0d03b2f9"},"vehicle_type_id":"4","last_reported":1726279483,"current_range_meters":28000,"station_id":"ce4bho12rcd13ifvqh2g","pricing_plan_id":"cebpf4jnsgd1na2vs0mg"},{"bike_id":"bc8be1fd-7bee-49c5-817c-184bdd69b536","system_id":"levelo_inurba_marseille","lat":43.27377,"lon":5.41948,"is_reserved":false,"is_disabled":false,"rental_uris":{"android":"levelo://app?vid=bc8be1fd-7bee-49c5-817c-184bdd69b536","ios":"levelo://app?vid=bc8be1fd-7bee-49c5-817c-184bdd69b536"},"vehicle_type_id":"4","last_reported":1726279483,"current_range_meters":27600,"station_id":"","pricing_plan_id":"cebpf4jnsgd1na2vs0mg"},{"bike_id":"d49ecde1-a11e-44e6-85a4-60701fb718a6","system_id":"levelo_inurba_marseille","lat":43.28468,"lon":5.35877,"is_reserved":false,"is_disabled":false,"rental_uris":{"android":"levelo://app?vid=d49ecde1-a11e-44e6-85a4-60701fb718a6","ios":"levelo://app?vid=d49ecde1-a11e-44e6-85a4-60701fb718a6"},"vehicle_type_id":"4","last_reported":1726279483,"current_range_meters":30800,"station_id":"ce4bhah2rcd13ifvqei0","pricing_plan_id":"cebpf4jnsgd1na2vs0mg"},{"bike_id":"4c5fff00-0f9c-470b-9feb-00b18f88d448","system_id":"levelo_inurba_marseille","lat":43.31168,"lon":5.38722,"is_reserved":false,"is_disabled":false,"rental_uris":{"android":"levelo://app?vid=4c5fff00-0f9c-470b-9feb-00b18f88d448","ios":"levelo://app?vid=4c5fff00-0f9c-470b-9feb-00b18f88d448"},"vehicle_type_id":"4","last_reported":1726279483,"current_range_meters":36000,"station_id":"ce4bgv12rcd13ifvqcp0","pricing_plan_id":"cebpf4jnsgd1na2vs0mg"},{"bike_id":"67d15022-cd3b-48b5-ba3a-7d7504290205","system_id":"levelo_inurba_marseille","lat":43.31109,"lon":5.37772,"is_reserved":false,"is_disabled":false,"rental_uris":{"android":"levelo://app?vid=67d15022-cd3b-48b5-ba3a-7d7504290205","ios":"levelo://app?vid=67d15022-cd3b-48b5-ba3a-7d7504290205"},"vehicle_type_id":"4","last_reported":1726279483,"current_range_meters":19200,"station_id":"ce4bgt92rcd13ifvqcg0","pricing_plan_id":"cebpf4jnsgd1na2vs0mg"},{"bike_id":"d60a5e34-444f-438b-9b1b-b44df5776e38","system_id":"levelo_inurba_marseille","lat":43.31272,"lon":5.40157,"is_reserved":false,"is_disabled":false,"rental_uris":{"android":"levelo://app?vid=d60a5e34-444f-438b-9b1b-b44df5776e38","ios":"levelo://app?vid=d60a5e34-444f-438b-9b1b-b44df5776e38"},"vehicle_type_id":"4","last_reported":1726279483,"current_range_meters":20400,"station_id":"ce4bh092rcd13ifvqd30","pricing_plan_id":"cebpf4jnsgd1na2vs0mg"},{"bike_id":"d008cb99-abde-452f-827e-8789eee7795a","system_id":"levelo_inurba_marseille","lat":43.27176,"lon":5.4099,"is_reserved":false,"is_disabled":false,"rental_uris":{"android":"levelo://app?vid=d008cb99-abde-452f-827e-8789eee7795a","ios":"levelo://app?vid=d008cb99-abde-452f-827e-8789eee7795a"},"vehicle_type_id":"4","last_reported":1726279483,"current_range_meters":38800,"station_id":"ce4bhl12rcd13ifvqgf0","pricing_plan_id":"cebpf4jnsgd1na2vs0mg"},{"bike_id":"5f6f15d1-ffcd-42bd-8353-baf15cef1256","system_id":"levelo_inurba_marseille","lat":43.30895,"lon":5.39638,"is_reserved":false,"is_disabled":false,"rental_uris":{"android":"levelo://app?vid=5f6f15d1-ffcd-42bd-8353-baf15cef1256","ios":"levelo://app?vid=5f6f15d1-ffcd-42bd-8353-baf15cef1256"},"vehicle_type_id":"4","last_reported":1726279483,"current_range_meters":27600,"station_id":"ce4bh012rcd13ifvqcv0","pricing_plan_id":"cebpf4jnsgd1na2vs0mg"},{"bike_id":"c63c1e37-80ca-479d-9bd5-088636ee01e0","system_id":"levelo_inurba_marseille","lat":43.27613,"lon":5.36119,"is_reserved":false,"is_disabled":false,"rental_uris":{"android":"levelo://app?vid=c63c1e37-80ca-479d-9bd5-088636ee01e0","ios":"levelo://app?vid=c63c1e37-80ca-479d-9bd5-088636ee01e0"},"vehicle_type_id":"4","last_reported":1726279483,"current_range_meters":24800,"station_id":"ce4bgj92rcd13ifvqbe0","pricing_plan_id":"cebpf4jnsgd1na2vs0mg"},{"bike_id":"41b662f5-102e-4e96-b76f-ea08bd77a70a","system_id":"levelo_inurba_marseille","lat":43.25113,"lon":5.40318,"is_reserved":false,"is_disabled":false,"rental_uris":{"android":"levelo://app?vid=41b662f5-102e-4e96-b76f-ea08bd77a70a","ios":"levelo://app?vid=41b662f5-102e-4e96-b76f-ea08bd77a70a"},"vehicle_type_id":"4","last_reported":1726279483,"current_range_meters":22800,"station_id":"ce4bhlh2rcd13ifvqgig","pricing_plan_id":"cebpf4jnsgd1na2vs0mg"},{"bike_id":"f5ce7a0e-bae9-46bf-9de8-007491c66701","system_id":"levelo_inurba_marseille","lat":43.34147,"lon":5.40906,"is_reserved":false,"is_disabled":false,"rental_uris":{"android":"levelo://app?vid=f5ce7a0e-bae9-46bf-9de8-007491c66701","ios":"levelo://app?vid=f5ce7a0e-bae9-46bf-9de8-007491c66701"},"vehicle_type_id":"4","last_reported":1726279483,"current_range_meters":37600,"station_id":"ce4bhqh2rcd13ifvqhlg","pricing_plan_id":"cebpf4jnsgd1na2vs0mg"},{"bike_id":"a556139b-e56c-479b-b4cc-03b2112f3a29","system_id":"levelo_inurba_marseille","lat":43.28072,"lon":5.39644,"is_reserved":false,"is_disabled":false,"rental_uris":{"android":"levelo://app?vid=a556139b-e56c-479b-b4cc-03b2112f3a29","ios":"levelo://app?vid=a556139b-e56c-479b-b4cc-03b2112f3a29"},"vehicle_type_id":"4","last_reported":1726279483,"current_range_meters":8400,"station_id":"ce4bho12rcd13ifvqh2g","pricing_plan_id":"cebpf4jnsgd1na2vs0mg"},{"bike_id":"81f1a965-ff8b-4d74-9682-ff18567684f9","system_id":"levelo_inurba_marseille","lat":43.33025,"lon":5.39039,"is_reserved":false,"is_disabled":false,"rental_uris":{"android":"levelo://app?vid=81f1a965-ff8b-4d74-9682-ff18567684f9","ios":"levelo://app?vid=81f1a965-ff8b-4d74-9682-ff18567684f9"},"vehicle_type_id":"4","last_reported":1726279483,"current_range_meters":38400,"station_id":"ce4bhr92rcd13ifvqhrg","pricing_plan_id":"cebpf4jnsgd1na2vs0mg"},{"bike_id":"b6a5802b-4786-42a9-9b22-5e0b280071e6","system_id":"levelo_inurba_marseille","lat":43.30498,"lon":5.36809,"is_reserved":false,"is_disabled":false,"rental_uris":{"android":"levelo://app?vid=b6a5802b-4786-42a9-9b22-5e0b280071e6","ios":"levelo://app?vid=b6a5802b-4786-42a9-9b22-5e0b280071e6"},"vehicle_type_id":"4","last_reported":1726279483,"current_range_meters":22400,"station_id":"","pricing_plan_id":"cebpf4jnsgd1na2vs0mg"},{"bike_id":"623c2dab-0b50-4369-995d-9ffb093cd17d","system_id":"levelo_inurba_marseille","lat":43.30594,"lon":5.37219,"is_reserved":false,"is_disabled":false,"rental_uris":{"android":"levelo://app?vid=623c2dab-0b50-4369-995d-9ffb093cd17d","ios":"levelo://app?vid=623c2dab-0b50-4369-995d-9ffb093cd17d"},"vehicle_type_id":"4","last_reported":1726279483,"current_range_meters":35600,"station_id":"ce4bgqh2rcd13ifvqc4g","pricing_plan_id":"cebpf4jnsgd1na2vs0mg"},{"bike_id":"2eb33fb1-02a8-47f0-b9f3-e5c4ac2dcf0b","system_id":"levelo_inurba_marseille","lat":43.25864,"lon":5.3988,"is_reserved":false,"is_disabled":false,"rental_uris":{"android":"levelo://app?vid=2eb33fb1-02a8-47f0-b9f3-e5c4ac2dcf0b","ios":"levelo://app?vid=2eb33fb1-02a8-47f0-b9f3-e5c4ac2dcf0b"},"vehicle_type_id":"4","last_reported":1726279483,"current_range_meters":35600,"station_id":"ce4bhl92rcd13ifvqghg","pricing_plan_id":"cebpf4jnsgd1na2vs0mg"},{"bike_id":"c28ff0f1-1713-431a-bccf-4e7a21e8e39b","system_id":"levelo_inurba_marseille","lat":43.25498,"lon":5.37657,"is_reserved":false,"is_disabled":false,"rental_uris":{"android":"levelo://app?vid=c28ff0f1-1713-431a-bccf-4e7a21e8e39b","ios":"levelo://app?vid=c28ff0f1-1713-431a-bccf-4e7a21e8e39b"},"vehicle_type_id":"4","last_reported":1726279483,"current_range_meters":38800,"station_id":"ce4bhh12rcd13ifvqff0","pricing_plan_id":"cebpf4jnsgd1na2vs0mg"},{"bike_id":"eef74e6f-8247-4014-afbc-f6f8a623d03c","system_id":"levelo_inurba_marseille","lat":43.28735,"lon":5.36079,"is_reserved":false,"is_disabled":false,"rental_uris":{"android":"levelo://app?vid=eef74e6f-8247-4014-afbc-f6f8a623d03c","ios":"levelo://app?vid=eef74e6f-8247-4014-afbc-f6f8a623d03c"},"vehicle_type_id":"4","last_reported":1726279483,"current_range_meters":38800,"station_id":"cki0cbj6b192h4jlfktg","pricing_plan_id":"cebpf4jnsgd1na2vs0mg"},{"bike_id":"1c543642-8a7c-42ea-9f42-804d0c6e3363","system_id":"levelo_inurba_marseille","lat":43.29975,"lon":5.37147,"is_reserved":false,"is_disabled":false,"rental_uris":{"android":"levelo://app?vid=1c543642-8a7c-42ea-9f42-804d0c6e3363","ios":"levelo://app?vid=1c543642-8a7c-42ea-9f42-804d0c6e3363"},"vehicle_type_id":"4","last_reported":1726279483,"current_range_meters":4000,"station_id":"ce4bgr92rcd13ifvqc7g","pricing_plan_id":"cebpf4jnsgd1na2vs0mg"},{"bike_id":"d63b08fd-7716-422a-94e4-8f1dfff5bb11","system_id":"levelo_inurba_marseille","lat":43.2863,"lon":5.35086,"is_reserved":false,"is_disabled":false,"rental_uris":{"android":"levelo://app?vid=d63b08fd-7716-422a-94e4-8f1dfff5bb11","ios":"levelo://app?vid=d63b08fd-7716-422a-94e4-8f1dfff5bb11"},"vehicle_type_id":"4","last_reported":1726279483,"current_range_meters":36400,"station_id":"ce4bhch2rcd13ifvqeug","pricing_plan_id":"cebpf4jnsgd1na2vs0mg"},{"bike_id":"ec70d30b-37ec-4b5c-b10c-9617e30c7fa0","system_id":"levelo_inurba_marseille","lat":43.29897,"lon":5.36622,"is_reserved":false,"is_disabled":false,"rental_uris":{"android":"levelo://app?vid=ec70d30b-37ec-4b5c-b10c-9617e30c7fa0","ios":"levelo://app?vid=ec70d30b-37ec-4b5c-b10c-9617e30c7fa0"},"vehicle_type_id":"4","last_reported":1726279483,"current_range_meters":14400,"station_id":"","pricing_plan_id":"cebpf4jnsgd1na2vs0mg"},{"bike_id":"e5e83860-a920-4528-beec-a85ec50b81f5","system_id":"levelo_inurba_marseille","lat":43.25819,"lon":5.39427,"is_reserved":false,"is_disabled":false,"rental_uris":{"android":"levelo://app?vid=e5e83860-a920-4528-beec-a85ec50b81f5","ios":"levelo://app?vid=e5e83860-a920-4528-beec-a85ec50b81f5"},"vehicle_type_id":"4","last_reported":1726279483,"current_range_meters":30000,"station_id":"ce4bhip2rcd13ifvqft0","pricing_plan_id":"cebpf4jnsgd1na2vs0mg"},{"bike_id":"6f385b7a-33fd-4324-ae34-e76ab80158d0","system_id":"levelo_inurba_marseille","lat":43.30331,"lon":5.40446,"is_reserved":false,"is_disabled":false,"rental_uris":{"android":"levelo://app?vid=6f385b7a-33fd-4324-ae34-e76ab80158d0","ios":"levelo://app?vid=6f385b7a-33fd-4324-ae34-e76ab80158d0"},"vehicle_type_id":"4","last_reported":1726279483,"current_range_meters":38800,"station_id":"ce4bh012rcd13ifvqd10","pricing_plan_id":"cebpf4jnsgd1na2vs0mg"},{"bike_id":"026a8105-a313-4bd8-96fb-a8d6d1b140a9","system_id":"levelo_inurba_marseille","lat":43.23192,"lon":5.35555,"is_reserved":false,"is_disabled":false,"rental_uris":{"android":"levelo://app?vid=026a8105-a313-4bd8-96fb-a8d6d1b140a9","ios":"levelo://app?vid=026a8105-a313-4bd8-96fb-a8d6d1b140a9"},"vehicle_type_id":"4","last_reported":1726279483,"current_range_meters":38800,"station_id":"ce4bhu92rcd13ifvqi70","pricing_plan_id":"cebpf4jnsgd1na2vs0mg"},{"bike_id":"f7895c69-0c82-4105-9f66-dc2416af2f55","system_id":"levelo_inurba_marseille","lat":43.2549,"lon":5.3765,"is_reserved":false,"is_disabled":false,"rental_uris":{"android":"levelo://app?vid=f7895c69-0c82-4105-9f66-dc2416af2f55","ios":"levelo://app?vid=f7895c69-0c82-4105-9f66-dc2416af2f55"},"vehicle_type_id":"4","last_reported":1726279483,"current_range_meters":27200,"station_id":"ce4bhh12rcd13ifvqff0","pricing_plan_id":"cebpf4jnsgd1na2vs0mg"},{"bike_id":"0e7e1069-5070-4309-af57-4745d796fe4b","system_id":"levelo_inurba_marseille","lat":43.2895,"lon":5.36404,"is_reserved":false,"is_disabled":false,"rental_uris":{"android":"levelo://app?vid=0e7e1069-5070-4309-af57-4745d796fe4b","ios":"levelo://app?vid=0e7e1069-5070-4309-af57-4745d796fe4b"},"vehicle_type_id":"4","last_reported":1726279483,"current_range_meters":38800,"station_id":"ce4bhc92rcd13ifvqetg","pricing_plan_id":"cebpf4jnsgd1na2vs0mg"},{"bike_id":"2b1d1d87-754b-4746-8040-b7847974e140","system_id":"levelo_inurba_marseille","lat":43.27494,"lon":5.42459,"is_reserved":false,"is_disabled":false,"rental_uris":{"android":"levelo://app?vid=2b1d1d87-754b-4746-8040-b7847974e140","ios":"levelo://app?vid=2b1d1d87-754b-4746-8040-b7847974e140"},"vehicle_type_id":"4","last_reported":1726279483,"current_range_meters":38800,"station_id":"ce4bhn92rcd13ifvqgrg","pricing_plan_id":"cebpf4jnsgd1na2vs0mg"},{"bike_id":"f13d7826-b267-4133-aa0e-251169d87a13","system_id":"levelo_inurba_marseille","lat":43.28382,"lon":5.38646,"is_reserved":false,"is_disabled":false,"rental_uris":{"android":"levelo://app?vid=f13d7826-b267-4133-aa0e-251169d87a13","ios":"levelo://app?vid=f13d7826-b267-4133-aa0e-251169d87a13"},"vehicle_type_id":"4","last_reported":1726279483,"current_range_meters":38800,"station_id":"ce4bh492rcd13ifvqdvg","pricing_plan_id":"cebpf4jnsgd1na2vs0mg"},{"bike_id":"9378e46c-90ff-48e5-9112-f5aafd156a5f","system_id":"levelo_inurba_marseille","lat":43.29551,"lon":5.42277,"is_reserved":false,"is_disabled":false,"rental_uris":{"android":"levelo://app?vid=9378e46c-90ff-48e5-9112-f5aafd156a5f","ios":"levelo://app?vid=9378e46c-90ff-48e5-9112-f5aafd156a5f"},"vehicle_type_id":"4","last_reported":1726279483,"current_range_meters":27200,"station_id":"ce4bhph2rcd13ifvqhdg","pricing_plan_id":"cebpf4jnsgd1na2vs0mg"},{"bike_id":"3177e633-0fd8-43af-996d-3a14d65969e6","system_id":"levelo_inurba_marseille","lat":43.32669,"lon":5.40987,"is_reserved":false,"is_disabled":false,"rental_uris":{"android":"levelo://app?vid=3177e633-0fd8-43af-996d-3a14d65969e6","ios":"levelo://app?vid=3177e633-0fd8-43af-996d-3a14d65969e6"},"vehicle_type_id":"4","last_reported":1726279483,"current_range_meters":38000,"station_id":"ce4bhpp2rcd13ifvqhgg","pricing_plan_id":"cebpf4jnsgd1na2vs0mg"},{"bike_id":"ccec67f3-1035-4133-9184-f8d7ebdbc156","system_id":"levelo_inurba_marseille","lat":43.30672,"lon":5.40069,"is_reserved":false,"is_disabled":false,"rental_uris":{"android":"levelo://app?vid=ccec67f3-1035-4133-9184-f8d7ebdbc156","ios":"levelo://app?vid=ccec67f3-1035-4133-9184-f8d7ebdbc156"},"vehicle_type_id":"4","last_reported":1726279483,"current_range_meters":18800,"station_id":"ce4bh112rcd13ifvqda0","pricing_plan_id":"cebpf4jnsgd1na2vs0mg"},{"bike_id":"51b93f73-c647-4dd9-b993-0e72de9b0462","system_id":"levelo_inurba_marseille","lat":43.28307,"lon":5.39072,"is_reserved":false,"is_disabled":false,"rental_uris":{"android":"levelo://app?vid=51b93f73-c647-4dd9-b993-0e72de9b0462","ios":"levelo://app?vid=51b93f73-c647-4dd9-b993-0e72de9b0462"},"vehicle_type_id":"4","last_reported":1726279483,"current_range_meters":30400,"station_id":"","pricing_plan_id":"cebpf4jnsgd1na2vs0mg"},{"bike_id":"12bb7073-9032-4c94-948d-b026b2803e6c","system_id":"levelo_inurba_marseille","lat":43.30887,"lon":5.39659,"is_reserved":false,"is_disabled":false,"rental_uris":{"android":"levelo://app?vid=12bb7073-9032-4c94-948d-b026b2803e6c","ios":"levelo://app?vid=12bb7073-9032-4c94-948d-b026b2803e6c"},"vehicle_type_id":"4","last_reported":1726279483,"current_range_meters":37600,"station_id":"ce4bh012rcd13ifvqcv0","pricing_plan_id":"cebpf4jnsgd1na2vs0mg"},{"bike_id":"1a4afac7-4f04-413e-8457-62d98bd42198","system_id":"levelo_inurba_marseille","lat":43.28162,"lon":5.42634,"is_reserved":false,"is_disabled":false,"rental_uris":{"android":"levelo://app?vid=1a4afac7-4f04-413e-8457-62d98bd42198","ios":"levelo://app?vid=1a4afac7-4f04-413e-8457-62d98bd42198"},"vehicle_type_id":"4","last_reported":1726279483,"current_range_meters":20400,"station_id":"ce4bhnh2rcd13ifvqgug","pricing_plan_id":"cebpf4jnsgd1na2vs0mg"},{"bike_id":"5270d553-d621-434e-9a65-5b2cac507a4b","system_id":"levelo_inurba_marseille","lat":43.24669,"lon":5.38154,"is_reserved":false,"is_disabled":false,"rental_uris":{"android":"levelo://app?vid=5270d553-d621-434e-9a65-5b2cac507a4b","ios":"levelo://app?vid=5270d553-d621-434e-9a65-5b2cac507a4b"},"vehicle_type_id":"4","last_reported":1726279483,"current_range_meters":30800,"station_id":"ce4bhih2rcd13ifvqfr0","pricing_plan_id":"cebpf4jnsgd1na2vs0mg"},{"bike_id":"64fbf282-c9ca-4980-80b5-0666f36e10dd","system_id":"levelo_inurba_marseille","lat":43.29993,"lon":5.37176,"is_reserved":false,"is_disabled":false,"rental_uris":{"android":"levelo://app?vid=64fbf282-c9ca-4980-80b5-0666f36e10dd","ios":"levelo://app?vid=64fbf282-c9ca-4980-80b5-0666f36e10dd"},"vehicle_type_id":"4","last_reported":1726279483,"current_range_meters":8800,"station_id":"ce4bgr92rcd13ifvqc7g","pricing_plan_id":"cebpf4jnsgd1na2vs0mg"},{"bike_id":"e6591df9-968c-4330-8ba1-70756b51f761","system_id":"levelo_inurba_marseille","lat":43.26496,"lon":5.39544,"is_reserved":false,"is_disabled":false,"rental_uris":{"android":"levelo://app?vid=e6591df9-968c-4330-8ba1-70756b51f761","ios":"levelo://app?vid=e6591df9-968c-4330-8ba1-70756b51f761"},"vehicle_type_id":"4","last_reported":1726279483,"current_range_meters":36800,"station_id":"ce4bhi12rcd13ifvqfq0","pricing_plan_id":"cebpf4jnsgd1na2vs0mg"},{"bike_id":"199173dd-81f3-49b4-8a8f-60c08cd744a0","system_id":"levelo_inurba_marseille","lat":43.28615,"lon":5.35104,"is_reserved":false,"is_disabled":false,"rental_uris":{"android":"levelo://app?vid=199173dd-81f3-49b4-8a8f-60c08cd744a0","ios":"levelo://app?vid=199173dd-81f3-49b4-8a8f-60c08cd744a0"},"vehicle_type_id":"4","last_reported":1726279483,"current_range_meters":26000,"station_id":"ce4bhch2rcd13ifvqeug","pricing_plan_id":"cebpf4jnsgd1na2vs0mg"},{"bike_id":"8921f9ca-fe58-43f4-9a72-6ef02a0ce870","system_id":"levelo_inurba_marseille","lat":43.32045,"lon":5.41564,"is_reserved":false,"is_disabled":false,"rental_uris":{"android":"levelo://app?vid=8921f9ca-fe58-43f4-9a72-6ef02a0ce870","ios":"levelo://app?vid=8921f9ca-fe58-43f4-9a72-6ef02a0ce870"},"vehicle_type_id":"4","last_reported":1726279483,"current_range_meters":37600,"station_id":"ce4bhq92rcd13ifvqhkg","pricing_plan_id":"cebpf4jnsgd1na2vs0mg"},{"bike_id":"67950061-e447-4497-b15e-bc5c5ee0128e","system_id":"levelo_inurba_marseille","lat":43.24807,"lon":5.3746,"is_reserved":false,"is_disabled":false,"rental_uris":{"android":"levelo://app?vid=67950061-e447-4497-b15e-bc5c5ee0128e","ios":"levelo://app?vid=67950061-e447-4497-b15e-bc5c5ee0128e"},"vehicle_type_id":"4","last_reported":1726279483,"current_range_meters":19200,"station_id":"ce4bhgh2rcd13ifvqfb0","pricing_plan_id":"cebpf4jnsgd1na2vs0mg"},{"bike_id":"fe7bda53-4c2f-48b9-8833-6ed8d119f5b7","system_id":"levelo_inurba_marseille","lat":43.28704,"lon":5.37396,"is_reserved":false,"is_disabled":false,"rental_uris":{"android":"levelo://app?vid=fe7bda53-4c2f-48b9-8833-6ed8d119f5b7","ios":"levelo://app?vid=fe7bda53-4c2f-48b9-8833-6ed8d119f5b7"},"vehicle_type_id":"4","last_reported":1726279483,"current_range_meters":39200,"station_id":"ce4bh3p2rcd13ifvqdq0","pricing_plan_id":"cebpf4jnsgd1na2vs0mg"},{"bike_id":"1e9ab519-e28c-400f-aecb-cbc58f39def2","system_id":"levelo_inurba_marseille","lat":43.29785,"lon":5.37893,"is_reserved":false,"is_disabled":false,"rental_uris":{"android":"levelo://app?vid=1e9ab519-e28c-400f-aecb-cbc58f39def2","ios":"levelo://app?vid=1e9ab519-e28c-400f-aecb-cbc58f39def2"},"vehicle_type_id":"4","last_reported":1726279483,"current_range_meters":5600,"station_id":"","pricing_plan_id":"cebpf4jnsgd1na2vs0mg"},{"bike_id":"b2e3c13f-e5d7-4801-ae89-c6a149b3cd8b","system_id":"levelo_inurba_marseille","lat":43.24085,"lon":5.37749,"is_reserved":false,"is_disabled":false,"rental_uris":{"android":"levelo://app?vid=b2e3c13f-e5d7-4801-ae89-c6a149b3cd8b","ios":"levelo://app?vid=b2e3c13f-e5d7-4801-ae89-c6a149b3cd8b"},"vehicle_type_id":"4","last_reported":1726279483,"current_range_meters":36800,"station_id":"ce4bhnp2rcd13ifvqgvg","pricing_plan_id":"cebpf4jnsgd1na2vs0mg"},{"bike_id":"e9f0c1b2-6c2b-4408-8ca3-3246b53f8ed7","system_id":"levelo_inurba_marseille","lat":43.23966,"lon":5.36637,"is_reserved":false,"is_disabled":false,"rental_uris":{"android":"levelo://app?vid=e9f0c1b2-6c2b-4408-8ca3-3246b53f8ed7","ios":"levelo://app?vid=e9f0c1b2-6c2b-4408-8ca3-3246b53f8ed7"},"vehicle_type_id":"4","last_reported":1726279483,"current_range_meters":30800,"station_id":"ce4bhi12rcd13ifvqfp0","pricing_plan_id":"cebpf4jnsgd1na2vs0mg"},{"bike_id":"b276bdbd-b693-4001-81eb-31ae0a45da59","system_id":"levelo_inurba_marseille","lat":43.31354,"lon":5.38489,"is_reserved":false,"is_disabled":false,"rental_uris":{"android":"levelo://app?vid=b276bdbd-b693-4001-81eb-31ae0a45da59","ios":"levelo://app?vid=b276bdbd-b693-4001-81eb-31ae0a45da59"},"vehicle_type_id":"4","last_reported":1726279483,"current_range_meters":36800,"station_id":"ce4bgt92rcd13ifvqcf0","pricing_plan_id":"cebpf4jnsgd1na2vs0mg"},{"bike_id":"82dec1e1-c024-4a59-b080-1ca526441f94","system_id":"levelo_inurba_marseille","lat":43.337612,"lon":5.374504,"is_reserved":false,"is_disabled":false,"rental_uris":{"android":"levelo://app?vid=82dec1e1-c024-4a59-b080-1ca526441f94","ios":"levelo://app?vid=82dec1e1-c024-4a59-b080-1ca526441f94"},"vehicle_type_id":"4","last_reported":1726279483,"current_range_meters":12000,"station_id":"","pricing_plan_id":"cebpf4jnsgd1na2vs0mg"},{"bike_id":"02269f0e-1758-473f-8a5c-764f1ddf9ddc","system_id":"levelo_inurba_marseille","lat":43.23189,"lon":5.3998,"is_reserved":false,"is_disabled":false,"rental_uris":{"android":"levelo://app?vid=02269f0e-1758-473f-8a5c-764f1ddf9ddc","ios":"levelo://app?vid=02269f0e-1758-473f-8a5c-764f1ddf9ddc"},"vehicle_type_id":"4","last_reported":1726279483,"current_range_meters":38800,"station_id":"ce4bhn12rcd13ifvqgqg","pricing_plan_id":"cebpf4jnsgd1na2vs0mg"},{"bike_id":"43412657-8f93-44d7-90fb-da7639962547","system_id":"levelo_inurba_marseille","lat":43.33741,"lon":5.39177,"is_reserved":false,"is_disabled":false,"rental_uris":{"android":"levelo://app?vid=43412657-8f93-44d7-90fb-da7639962547","ios":"levelo://app?vid=43412657-8f93-44d7-90fb-da7639962547"},"vehicle_type_id":"4","last_reported":1726279483,"current_range_meters":27600,"station_id":"ce4bhr92rcd13ifvqhsg","pricing_plan_id":"cebpf4jnsgd1na2vs0mg"},{"bike_id":"48d2b125-23cb-4ca4-80e7-d3c7d926055c","system_id":"levelo_inurba_marseille","lat":43.30244,"lon":5.40071,"is_reserved":false,"is_disabled":false,"rental_uris":{"android":"levelo://app?vid=48d2b125-23cb-4ca4-80e7-d3c7d926055c","ios":"levelo://app?vid=48d2b125-23cb-4ca4-80e7-d3c7d926055c"},"vehicle_type_id":"4","last_reported":1726279483,"current_range_meters":40000,"station_id":"ce4bgvh2rcd13ifvqcs0","pricing_plan_id":"cebpf4jnsgd1na2vs0mg"},{"bike_id":"22142966-f421-47f2-a5d3-b7426737eae8","system_id":"levelo_inurba_marseille","lat":43.26037,"lon":5.37541,"is_reserved":false,"is_disabled":false,"rental_uris":{"android":"levelo://app?vid=22142966-f421-47f2-a5d3-b7426737eae8","ios":"levelo://app?vid=22142966-f421-47f2-a5d3-b7426737eae8"},"vehicle_type_id":"4","last_reported":1726279483,"current_range_meters":38400,"station_id":"ce4bhgh2rcd13ifvqfa0","pricing_plan_id":"cebpf4jnsgd1na2vs0mg"},{"bike_id":"1d59b23f-ddd0-4cb8-9db3-204353674299","system_id":"levelo_inurba_marseille","lat":43.26497,"lon":5.39553,"is_reserved":false,"is_disabled":false,"rental_uris":{"android":"levelo://app?vid=1d59b23f-ddd0-4cb8-9db3-204353674299","ios":"levelo://app?vid=1d59b23f-ddd0-4cb8-9db3-204353674299"},"vehicle_type_id":"4","last_reported":1726279483,"current_range_meters":17600,"station_id":"ce4bhi12rcd13ifvqfq0","pricing_plan_id":"cebpf4jnsgd1na2vs0mg"},