{"last_updated":1740557565,"ttl":60,"version":"2.2","data":{"bikes":[{"bike_id":"5183519e-56f9-4aec-aa5b-3e58a617c414","system_id":"levelo_inurba_marseille","lat":43.25495,"lon":5.37651,"is_reserved":false,"is_disabled":false,"rental_uris":{"android":"levelo://app?vid=5183519e-56f9-4aec-aa5b-3e58a617c414","ios":"levelo://app?vid=5183519e-56f9-4aec-aa5b-3e58a617c414"},"vehicle_type_id":"4","last_reported":1740557565,"current_range_meters":4000,"station_id":"ce4bhh12rcd13ifvqff0","pricing_plan_id":"cebpf4jnsgd1na2vs0mg"},{"bike_id":"f9a89d32-29dd-4d2a-9c22-97ce576102b6","system_id":"levelo_inurba_marseille","lat":43.29047,"lon":5.39963,"is_reserved":false,"is_disabled":false,"rental_uris":{"android":"levelo://app?vid=f9a89d32-29dd-4d2a-9c22-97ce576102b6","ios":"levelo://app?vid=f9a89d32-29dd-4d2a-9c22-97ce576102b6"},"vehicle_type_id":"4","last_reported":1740557565,"current_range_meters":2800,"station_id":"ce4bh392rcd13ifvqdm0","pricing_plan_id":"cebpf4jnsgd1na2vs0mg"},{"bike_id":"e4c427bd-c5a6-4e70-9a73-d666cf433222","system_id":"levelo_inurba_marseille","lat":43.28468,"lon":5.38426,"is_reserved":false,"is_disabled":false,"rental_uris":{"android":"levelo://app?vid=e4c427bd-c5a6-4e70-9a73-d666cf433222","ios":"levelo://app?vid=e4c427bd-c5a6-4e70-9a73-d666cf433222"},"vehicle_type_id":"4","last_reported":1740557565,"current_range_meters":2800,"station_id":"ce4bh512rcd13ifvqe3g","pricing_plan_id":"cebpf4jnsgd1na2vs0mg"},{"bike_id":"82f544c9-f86a-42dd-aedb-98df464a4767","system_id":"levelo_inurba_marseille","lat":43.29134,"lon":5.3833,"is_reserved":false,"is_disabled":false,"rental_uris":{"android":"levelo://app?vid=82f544c9-f86a-42dd-aedb-98df464a4767","ios":"levelo://app?vid=82f544c9-f86a-42dd-aedb-98df464a4767"},"vehicle_type_id":"4","last_reported":1740557565,"current_range_meters":3200,"station_id":"","pricing_plan_id":"cebpf4jnsgd1na2vs0mg"},{"bike_id":"62d15c4f-7042-4517-a997-e164d749d664","system_id":"levelo_inurba_marseille","lat":43.24535,"lon":5.39533,"is_reserved":false,"is_disabled":false,"rental_uris":{"android":"levelo://app?vid=62d15c4f-7042-4517-a997-e164d749d664","ios":"levelo://app?vid=62d15c4f-7042-4517-a997-e164d749d664"},"vehicle_type_id":"4","last_reported":1740557565,"current_range_meters":3200,"station_id":"ce4bhlp2rcd13ifvqgjg","pricing_plan_id":"cebpf4jnsgd1na2vs0mg"},{"bike_id":"6e4e00d8-0665-4eea-9970-9b04e7796995","system_id":"levelo_inurba_marseille","lat":43.24178,"lon":5.3973,"is_reserved":false,"is_disabled":false,"rental_uris":{"android":"levelo://app?vid=6e4e00d8-0665-4eea-9970-9b04e7796995","ios":"levelo://app?vid=6e4e00d8-0665-4eea-9970-9b04e7796995"},"vehicle_type_id":"4","last_reported":1740557565,"current_range_meters":1200,"station_id":"ce4bhn12rcd13ifvqgpg","pricing_plan_id":"cebpf4jnsgd1na2vs0mg"},{"bike_id":"a20f4f86-8a37-41be-bf41-963fa04395e3","system_id":"levelo_inurba_marseille","lat":43.29028,"lon":5.38607,"is_reserved":false,"is_disabled":true,"rental_uris":{"android":"levelo://app?vid=a20f4f86-8a37-41be-bf41-963fa04395e3","ios":"levelo://app?vid=a20f4f86-8a37-41be-bf41-963fa04395e3"},"vehicle_type_id":"4","last_reported":1740557565,"current_range_meters":3200,"station_id":"ce4bh4p2rcd13ifvqe0g","pricing_plan_id":"cebpf4jnsgd1na2vs0mg"},{"bike_id":"755a0161-62b4-4833-ab12-ccd6ceb6dd1f","system_id":"levelo_inurba_marseille","lat":43.30899,"lon":5.401803,"is_reserved":false,"is_disabled":true,"rental_uris":{"android":"levelo://app?vid=755a0161-62b4-4833-ab12-ccd6ceb6dd1f","ios":"levelo://app?vid=755a0161-62b4-4833-ab12-ccd6ceb6dd1f"},"vehicle_type_id":"4","last_reported":1740557565,"current_range_meters":3200,"station_id":"","pricing_plan_id":"cebpf4jnsgd1na2vs0mg"},{"bike_id":"9728f3a2-27d3-4e15-bae5-973e3d6f10a8","system_id":"levelo_inurba_marseille","lat":43.30543,"lon":5.36564,"is_reserved":false,"is_disabled":false,"rental_uris":{"android":"levelo://app?vid=9728f3a2-27d3-4e15-bae5-973e3d6f10a8","ios":"levelo://app?vid=9728f3a2-27d3-4e15-bae5-973e3d6f10a8"},"vehicle_type_id":"4","last_reported":1740557565,"current_range_meters":4000,"station_id":"ce4bgs12rcd13ifvqcag","pricing_plan_id":"cebpf4jnsgd1na2vs0mg"},{"bike_id":"0a318165-f551-43bc-8710-166642330e44","system_id":"levelo_inurba_marseille","lat":43.24072,"lon":5.37765,"is_reserved":false,"is_disabled":false,"rental_uris":{"android":"levelo://app?vid=0a318165-f551-43bc-8710-166642330e44","ios":"levelo://app?vid=0a318165-f551-43bc-8710-166642330e44"},"vehicle_type_id":"4","last_reported":1740557565,"current_range_meters":3600,"station_id":"ce4bhnp2rcd13ifvqgvg","pricing_plan_id":"cebpf4jnsgd1na2vs0mg"},{"bike_id":"298ef839-ad13-4fe9-86ba-c707bf1244f3","system_id":"levelo_inurba_marseille","lat":43.269684,"lon":5.40302,"is_reserved":false,"is_disabled":false,"rental_uris":{"android":"levelo://app?vid=298ef839-ad13-4fe9-86ba-c707bf1244f3","ios":"levelo://app?vid=298ef839-ad13-4fe9-86ba-c707bf1244f3"},"vehicle_type_id":"4","last_reported":1740557565,"current_range_meters":4000,"station_id":"ce4bhk92rcd13ifvqgc0","pricing_plan_id":"cebpf4jnsgd1na2vs0mg"},{"bike_id":"a029797b-26aa-43f7-a644-1e5542062099","system_id":"levelo_inurba_marseille","lat":43.30923,"lon":5.40172,"is_reserved":false,"is_disabled":true,"rental_uris":{"android":"levelo://app?vid=a029797b-26aa-43f7-a644-1e5542062099","ios":"levelo://app?vid=a029797b-26aa-43f7-a644-1e5542062099"},"vehicle_type_id":"4","last_reported":1740557565,"current_range_meters":4000,"station_id":"ce4bgvp2rcd13ifvqct0","pricing_plan_id":"cebpf4jnsgd1na2vs0mg"},{"bike_id":"3ea37c56-b314-4c02-bbef-be7d6d893474","system_id":"levelo_inurba_marseille","lat":43.30964,"lon":5.3903,"is_reserved":false,"is_disabled":false,"rental_uris":{"android":"levelo://app?vid=3ea37c56-b314-4c02-bbef-be7d6d893474","ios":"levelo://app?vid=3ea37c56-b314-4c02-bbef-be7d6d893474"},"vehicle_type_id":"4","last_reported":1740557565,"current_range_meters":1200,"station_id":"ce4bgup2rcd13ifvqco0","pricing_plan_id":"cebpf4jnsgd1na2vs0mg"},{"bike_id":"da634367-acad-40de-ac7c-eb1fe9e9f106","system_id":"levelo_inurba_marseille","lat":43.28693,"lon":5.37406,"is_reserved":false,"is_disabled":true,"rental_uris":{"android":"levelo://app?vid=da634367-acad-40de-ac7c-eb1fe9e9f106","ios":"levelo://app?vid=da634367-acad-40de-ac7c-eb1fe9e9f106"},"vehicle_type_id":"4","last_reported":1740557565,"current_range_meters":4400,"station_id":"ce4bh3p2rcd13ifvqdq0","pricing_plan_id":"cebpf4jnsgd1na2vs0mg"},{"bike_id":"5b356c4d-99d6-495a-b09e-a2a78325e3a5","system_id":"levelo_inurba_marseille","lat":43.26476,"lon":5.39563,"is_reserved":false,"is_disabled":false,"rental_uris":{"android":"levelo://app?vid=5b356c4d-99d6-495a-b09e-a2a78325e3a5","ios":"levelo://app?vid=5b356c4d-99d6-495a-b09e-a2a78325e3a5"},"vehicle_type_id":"4","last_reported":1740557565,"current_range_meters":4400,"station_id":"ce4bhi12rcd13ifvqfq0","pricing_plan_id":"cebpf4jnsgd1na2vs0mg"},{"bike_id":"252fce85-628b-4a5e-ac10-83a95c4db4fa","system_id":"levelo_inurba_marseille","lat":43.3054,"lon":5.36583,"is_reserved":false,"is_disabled":false,"rental_uris":{"android":"levelo://app?vid=252fce85-628b-4a5e-ac10-83a95c4db4fa","ios":"levelo://app?vid=252fce85-628b-4a5e-ac10-83a95c4db4fa"},"vehicle_type_id":"4","last_reported":1740557565,"current_range_meters":4000,"station_id":"ce4bgs12rcd13ifvqcag","pricing_plan_id":"cebpf4jnsgd1na2vs0mg"},{"bike_id":"270aa626-fab8-4dbc-869e-39e8761f9d78","system_id":"levelo_inurba_marseille","lat":43.29192,"lon":5.39313,"is_reserved":false,"is_disabled":false,"rental_uris":{"android":"levelo://app?vid=270aa626-fab8-4dbc-869e-39e8761f9d78","ios":"levelo://app?vid=270aa626-fab8-4dbc-869e-39e8761f9d78"},"vehicle_type_id":"4","last_reported":1740557565,"current_range_meters":4400,"station_id":"ce4bh192rcd13ifvqdd0","pricing_plan_id":"cebpf4jnsgd1na2vs0mg"},{"bike_id":"0ca81608-f491-428e-8676-572d859eb79c","system_id":"levelo_inurba_marseille","lat":43.23193,"lon":5.39976,"is_reserved":false,"is_disabled":false,"rental_uris":{"android":"levelo://app?vid=0ca81608-f491-428e-8676-572d859eb79c","ios":"levelo://app?vid=0ca81608-f491-428e-8676-572d859eb79c"},"vehicle_type_id":"4","last_reported":1740557565,"current_range_meters":4400,"station_id":"ce4bhn12rcd13ifvqgqg","pricing_plan_id":"cebpf4jnsgd1na2vs0mg"},{"bike_id":"cb0f46ec-fb86-40e7-a7a6-b4654c85358b","system_id":"levelo_inurba_marseille","lat":43.30458,"lon":5.37905,"is_reserved":false,"is_disabled":false,"rental_uris":{"android":"levelo://app?vid=cb0f46ec-fb86-40e7-a7a6-b4654c85358b","ios":"levelo://app?vid=cb0f46ec-fb86-40e7-a7a6-b4654c85358b"},"vehicle_type_id":"4","last_reported":1740557565,"current_range_meters":5600,"station_id":"ce4bgup2rcd13ifvqcn0","pricing_plan_id":"cebpf4jnsgd1na2vs0mg"},{"bike_id":"1be777c3-bad9-4c05-9e61-a05c8b90a97a","system_id":"levelo_inurba_marseille","lat":43.30208,"lon":5.3947,"is_reserved":false,"is_disabled":false,"rental_uris":{"android":"levelo://app?vid=1be777c3-bad9-4c05-9e61-a05c8b90a97a","ios":"levelo://app?vid=1be777c3-bad9-4c05-9e61-a05c8b90a97a"},"vehicle_type_id":"4","last_reported":1740557565,"current_range_meters":4400,"station_id":"ce4bh0p2rcd13ifvqd70","pricing_plan_id":"cebpf4jnsgd1na2vs0mg"},{"bike_id":"e7b815cc-df06-4225-b4a6-c7bfd0557c54","system_id":"levelo_inurba_marseille","lat":43.25938,"lon":5.40905,"is_reserved":false,"is_disabled":false,"rental_uris":{"android":"levelo://app?vid=e7b815cc-df06-4225-b4a6-c7bfd0557c54","ios":"levelo://app?vid=e7b815cc-df06-4225-b4a6-c7bfd0557c54"},"vehicle_type_id":"4","last_reported":1740557565,"current_range_meters":4800,"station_id":"ce4bhm92rcd13ifvqglg","pricing_plan_id":"cebpf4jnsgd1na2vs0mg"},{"bike_id":"53ea8d78-c003-44dc-9f3f-23b519078b62","system_id":"levelo_inurba_marseille","lat":43.31344,"lon":5.3671,"is_reserved":false,"is_disabled":false,"rental_uris":{"android":"levelo://app?vid=53ea8d78-c003-44dc-9f3f-23b519078b62","ios":"levelo://app?vid=53ea8d78-c003-44dc-9f3f-23b519078b62"},"vehicle_type_id":"4","last_reported":1740557565,"current_range_meters":7200,"station_id":"ce4bgr92rcd13ifvqc6g","pricing_plan_id":"cebpf4jnsgd1na2vs0mg"},{"bike_id":"3ecb5c1e-fdcd-4620-8ea5-a393e4f4cf28","system_id":"levelo_inurba_marseille","lat":43.25925,"lon":5.40932,"is_reserved":false,"is_disabled":false,"rental_uris":{"android":"levelo://app?vid=3ecb5c1e-fdcd-4620-8ea5-a393e4f4cf28","ios":"levelo://app?vid=3ecb5c1e-fdcd-4620-8ea5-a393e4f4cf28"},"vehicle_type_id":"4","last_reported":1740557565,"current_range_meters":800,"station_id":"ce4bhm92rcd13ifvqglg","pricing_plan_id":"cebpf4jnsgd1na2vs0mg"},{"bike_id":"537eddd2-bd14-4db2-bf63-c32f991eb56e","system_id":"levelo_inurba_marseille","lat":43.28472,"lon":5.38418,"is_reserved":false,"is_disabled":false,"rental_uris":{"android":"levelo://app?vid=537eddd2-bd14-4db2-bf63-c32f991eb56e","ios":"levelo://app?vid=537eddd2-bd14-4db2-bf63-c32f991eb56e"},"vehicle_type_id":"4","last_reported":1740557565,"current_range_meters":3600,"station_id":"ce4bh512rcd13ifvqe3g","pricing_plan_id":"cebpf4jnsgd1na2vs0mg"},{"bike_id":"827fc5d9-15fa-45c8-8c28-75ebda028cb8","system_id":"levelo_inurba_marseille","lat":43.29029,"lon":5.38638,"is_reserved":false,"is_disabled":false,"rental_uris":{"android":"levelo://app?vid=827fc5d9-15fa-45c8-8c28-75ebda028cb8","ios":"levelo://app?vid=827fc5d9-15fa-45c8-8c28-75ebda028cb8"},"vehicle_type_id":"4","last_reported":1740557565,"current_range_meters":5600,"station_id":"ce4bh4p2rcd13ifvqe0g","pricing_plan_id":"cebpf4jnsgd1na2vs0mg"},{"bike_id":"42dd8b64-9c79-4089-9a1a-9ee91727da30","system_id":"levelo_inurba_marseille","lat":43.26945,"lon":5.38638,"is_reserved":false,"is_disabled":false,"rental_uris":{"android":"levelo://app?vid=42dd8b64-9c79-4089-9a1a-9ee91727da30","ios":"levelo://app?vid=42dd8b64-9c79-4089-9a1a-9ee91727da30"},"vehicle_type_id":"4","last_reported":1740557565,"current_range_meters":4000,"station_id":"ce4bhh92rcd13ifvqfh0","pricing_plan_id":"cebpf4jnsgd1na2vs0mg"},{"bike_id":"a873a5ed-969b-4923-b927-66d4f9a73bfa","system_id":"levelo_inurba_marseille","lat":43.28473,"lon":5.38426,"is_reserved":false,"is_disabled":false,"rental_uris":{"android":"levelo://app?vid=a873a5ed-969b-4923-b927-66d4f9a73bfa","ios":"levelo://app?vid=a873a5ed-969b-4923-b927-66d4f9a73bfa"},"vehicle_type_id":"4","last_reported":1740557565,"current_range_meters":5600,"station_id":"ce4bh512rcd13ifvqe3g","pricing_plan_id":"cebpf4jnsgd1na2vs0mg"},{"bike_id":"cb1a3e88-6ecf-40aa-9601-231e5c755a14","system_id":"levelo_inurba_marseille","lat":43.297877,"lon":5.371009,"is_reserved":false,"is_disabled":false,"rental_uris":{"android":"levelo://app?vid=cb1a3e88-6ecf-40aa-9601-231e5c755a14","ios":"levelo://app?vid=cb1a3e88-6ecf-40aa-9601-231e5c755a14"},"vehicle_type_id":"4","last_reported":1740557565,"current_range_meters":5600,"station_id":"ce4bgs92rcd13ifvqcc0","pricing_plan_id":"cebpf4jnsgd1na2vs0mg"},{"bike_id":"ad15a503-e243-4704-8cbb-77d92c75e1d9","system_id":"levelo_inurba_marseille","lat":43.28437,"lon":5.39203,"is_reserved":false,"is_disabled":true,"rental_uris":{"android":"levelo://app?vid=ad15a503-e243-4704-8cbb-77d92c75e1d9","ios":"levelo://app?vid=ad15a503-e243-4704-8cbb-77d92c75e1d9"},"vehicle_type_id":"4","last_reported":1740557565,"current_range_meters":5600,"station_id":"ce4bhoh2rcd13ifvqh5g","pricing_plan_id":"cebpf4jnsgd1na2vs0mg"},{"bike_id":"e07c4d3e-b317-4b10-b919-c6146de26647","system_id":"levelo_inurba_marseille","lat":43.325374,"lon":5.414265,"is_reserved":false,"is_disabled":false,"rental_uris":{"android":"levelo://app?vid=e07c4d3e-b317-4b10-b919-c6146de26647","ios":"levelo://app?vid=e07c4d3e-b317-4b10-b919-c6146de26647"},"vehicle_type_id":"4","last_reported":1740557565,"current_range_meters":5600,"station_id":"ce4bhq12rcd13ifvqhhg","pricing_plan_id":"cebpf4jnsgd1na2vs0mg"},{"bike_id":"1c8236a9-96fb-443c-bf9a-d26ed00cc14f","system_id":"levelo_inurba_marseille","lat":43.24676,"lon":5.38152,"is_reserved":false,"is_disabled":false,"rental_uris":{"android":"levelo://app?vid=1c8236a9-96fb-443c-bf9a-d26ed00cc14f","ios":"levelo://app?vid=1c8236a9-96fb-443c-bf9a-d26ed00cc14f"},"vehicle_type_id":"4","last_reported":1740557565,"current_range_meters":5600,"station_id":"ce4bhih2rcd13ifvqfr0","pricing_plan_id":"cebpf4jnsgd1na2vs0mg"},{"bike_id":"cbb3e626-4da7-428e-aa2d-03e52e1e0b23","system_id":"levelo_inurba_marseille","lat":43.28247,"lon":5.35062,"is_reserved":false,"is_disabled":false,"rental_uris":{"android":"levelo://app?vid=cbb3e626-4da7-428e-aa2d-03e52e1e0b23","ios":"levelo://app?vid=cbb3e626-4da7-428e-aa2d-03e52e1e0b23"},"vehicle_type_id":"4","last_reported":1740557565,"current_range_meters":6000,"station_id":"ce4bhbp2rcd13ifvqerg","pricing_plan_id":"cebpf4jnsgd1na2vs0mg"},{"bike_id":"66613f8e-b400-438d-83dc-9aed1edc478d","system_id":"levelo_inurba_marseille","lat":43.28609,"lon":5.35122,"is_reserved":false,"is_disabled":false,"rental_uris":{"android":"levelo://app?vid=66613f8e-b400-438d-83dc-9aed1edc478d","ios":"levelo://app?vid=66613f8e-b400-438d-83dc-9aed1edc478d"},"vehicle_type_id":"4","last_reported":1740557565,"current_range_meters":6400,"station_id":"ce4bhch2rcd13ifvqeug","pricing_plan_id":"cebpf4jnsgd1na2vs0mg"},{"bike_id":"1fb0e46b-bdba-4a0b-8c63-b6e48236eaf3","system_id":"levelo_inurba_marseille","lat":43.31337,"lon":5.36715,"is_reserved":false,"is_disabled":false,"rental_uris":{"android":"levelo://app?vid=1fb0e46b-bdba-4a0b-8c63-b6e48236eaf3","ios":"levelo://app?vid=1fb0e46b-bdba-4a0b-8c63-b6e48236eaf3"},"vehicle_type_id":"4","last_reported":1740557565,"current_range_meters":5600,"station_id":"ce4bgr92rcd13ifvqc6g","pricing_plan_id":"cebpf4jnsgd1na2vs0mg"},{"bike_id":"b6eb1e76-a88a-437e-98c4-9a612de71195","system_id":"levelo_inurba_marseille","lat":43.23154,"lon":5.43709,"is_reserved":false,"is_disabled":false,"rental_uris":{"android":"levelo://app?vid=b6eb1e76-a88a-437e-98c4-9a612de71195","ios":"levelo://app?vid=b6eb1e76-a88a-437e-98c4-9a612de71195"},"vehicle_type_id":"4","last_reported":1740557565,"current_range_meters":1600,"station_id":"ce4bhmp2rcd13ifvqgog","pricing_plan_id":"cebpf4jnsgd1na2vs0mg"},{"bike_id":"5c54b968-63bc-48cf-b48d-bfcf4de91853","system_id":"levelo_inurba_marseille","lat":43.30583,"lon":5.39354,"is_reserved":false,"is_disabled":false,"rental_uris":{"android":"levelo://app?vid=5c54b968-63bc-48cf-b48d-bfcf4de91853","ios":"levelo://app?vid=5c54b968-63bc-48cf-b48d-bfcf4de91853"},"vehicle_type_id":"4","last_reported":1740557565,"current_range_meters":6000,"station_id":"ce4bh0p2rcd13ifvqd80","pricing_plan_id":"cebpf4jnsgd1na2vs0mg"},{"bike_id":"c206b190-f2b4-4b8b-9c9b-97c35630bf2b","system_id":"levelo_inurba_marseille","lat":43.30533,"lon":5.36718,"is_reserved":false,"is_disabled":false,"rental_uris":{"android":"levelo://app?vid=c206b190-f2b4-4b8b-9c9b-97c35630bf2b","ios":"levelo://app?vid=c206b190-f2b4-4b8b-9c9b-97c35630bf2b"},"vehicle_type_id":"4","last_reported":1740557565,"current_range_meters":6400,"station_id":"ce4bgrp2rcd13ifvqc9g","pricing_plan_id":"cebpf4jnsgd1na2vs0mg"},{"bike_id":"8f7adbe2-73f5-4971-9ac5-27f60402847e","system_id":"levelo_inurba_marseille","lat":43.29534,"lon":5.38551,"is_reserved":false,"is_disabled":false,"rental_uris":{"android":"levelo://app?vid=8f7adbe2-73f5-4971-9ac5-27f60402847e","ios":"levelo://app?vid=8f7adbe2-73f5-4971-9ac5-27f60402847e"},"vehicle_type_id":"4","last_reported":1740557565,"current_range_meters":6400,"station_id":"ce4bgih2rcd13ifvqba0","pricing_plan_id":"cebpf4jnsgd1na2vs0mg"},{"bike_id":"f0f74fbc-eeb3-4967-b4b8-49d762bb5054","system_id":"levelo_inurba_marseille","lat":43.337444,"lon":5.374475,"is_reserved":false,"is_disabled":false,"rental_uris":{"android":"levelo://app?vid=f0f74fbc-eeb3-4967-b4b8-49d762bb5054","ios":"levelo://app?vid=f0f74fbc-eeb3-4967-b4b8-49d762bb5054"},"vehicle_type_id":"4","last_reported":1740557565,"current_range_meters":3600,"station_id":"","pricing_plan_id":"cebpf4jnsgd1na2vs0mg"},{"bike_id":"1358decb-b549-4804-b32b-0a8c4c2e87a2","system_id":"levelo_inurba_marseille","lat":43.28478,"lon":5.38421,"is_reserved":false,"is_disabled":false,"rental_uris":{"android":"levelo://app?vid=1358decb-b549-4804-b32b-0a8c4c2e87a2","ios":"levelo://app?vid=1358decb-b549-4804-b32b-0a8c4c2e87a2"},"vehicle_type_id":"4","last_reported":1740557565,"current_range_meters":6400,"station_id":"ce4bh512rcd13ifvqe3g","pricing_plan_id":"cebpf4jnsgd1na2vs0mg"},{"bike_id":"6afe72aa-5e17-4ec7-ba3c-112605884a67","system_id":"levelo_inurba_marseille","lat":43.30472,"lon":5.37915,"is_reserved":false,"is_disabled":false,"rental_uris":{"android":"levelo://app?vid=6afe72aa-5e17-4ec7-ba3c-112605884a67","ios":"levelo://app?vid=6afe72aa-5e17-4ec7-ba3c-112605884a67"},"vehicle_type_id":"4","last_reported":1740557565,"current_range_meters":6400,"station_id":"ce4bgup2rcd13ifvqcn0","pricing_plan_id":"cebpf4jnsgd1na2vs0mg"},{"bike_id":"c405406a-0919-45e3-83f8-567ea8622701","system_id":"levelo_inurba_marseille","lat":43.24176,"lon":5.39741,"is_reserved":false,"is_disabled":false,"rental_uris":{"android":"levelo://app?vid=c405406a-0919-45e3-83f8-567ea8622701","ios":"levelo://app?vid=c405406a-0919-45e3-83f8-567ea8622701"},"vehicle_type_id":"4","last_reported":1740557565,"current_range_meters":6400,"station_id":"ce4bhn12rcd13ifvqgpg","pricing_plan_id":"cebpf4jnsgd1na2vs0mg"},{"bike_id":"64604e48-7463-4eb1-9c72-a67b9c58cd25","system_id":"levelo_inurba_marseille","lat":43.31339,"lon":5.36724,"is_reserved":false,"is_disabled":false,"rental_uris":{"android":"levelo://app?vid=64604e48-7463-4eb1-9c72-a67b9c58cd25","ios":"levelo://app?vid=64604e48-7463-4eb1-9c72-a67b9c58cd25"},"vehicle_type_id":"4","last_reported":1740557565,"current_range_meters":6000,"station_id":"ce4bgr92rcd13ifvqc6g","pricing_plan_id":"cebpf4jnsgd1na2vs0mg"},{"bike_id":"04fed40f-6366-4adc-8110-34cd72fc4be4","system_id":"levelo_inurba_marseille","lat":43.2847,"lon":5.35887,"is_reserved":false,"is_disabled":false,"rental_uris":{"android":"levelo://app?vid=04fed40f-6366-4adc-8110-34cd72fc4be4","ios":"levelo://app?vid=04fed40f-6366-4adc-8110-34cd72fc4be4"},"vehicle_type_id":"4","last_reported":1740557565,"current_range_meters":6800,"station_id":"ce4bhah2rcd13ifvqei0","pricing_plan_id":"cebpf4jnsgd1na2vs0mg"},{"bike_id":"7624aba0-ef91-45f4-b574-494bcd5f0f45","system_id":"levelo_inurba_marseille","lat":43.29051,"lon":5.39985,"is_reserved":false,"is_disabled":false,"rental_uris":{"android":"levelo://app?vid=7624aba0-ef91-45f4-b574-494bcd5f0f45","ios":"levelo://app?vid=7624aba0-ef91-45f4-b574-494bcd5f0f45"},"vehicle_type_id":"4","last_reported":1740557565,"current_range_meters":6800,"station_id":"ce4bh392rcd13ifvqdm0","pricing_plan_id":"cebpf4jnsgd1na2vs0mg"},{"bike_id":"06743959-29e7-4ab7-9e1d-652a412c6725","system_id":"levelo_inurba_marseille","lat":43.26566,"lon":5.39014,"is_reserved":false,"is_disabled":false,"rental_uris":{"android":"levelo://app?vid=06743959-29e7-4ab7-9e1d-652a412c6725","ios":"levelo://app?vid=06743959-29e7-4ab7-9e1d-652a412c6725"},"vehicle_type_id":"4","last_reported":1740557565,"current_range_meters":6800,"station_id":"ce4bhe12rcd13ifvqf30","pricing_plan_id":"cebpf4jnsgd1na2vs0mg"},{"bike_id":"53d5ec87-e6ba-4f62-b996-318e78dadae9","system_id":"levelo_inurba_marseille","lat":43.33591,"lon":5.41006,"is_reserved":false,"is_disabled":false,"rental_uris":{"android":"levelo://app?vid=53d5ec87-e6ba-4f62-b996-318e78dadae9","ios":"levelo://app?vid=53d5ec87-e6ba-4f62-b996-318e78dadae9"},"vehicle_type_id":"4","last_reported":1740557565,"current_range_meters":6400,"station_id":"ce4bhqh2rcd13ifvqhmg","pricing_plan_id":"cebpf4jnsgd1na2vs0mg"},{"bike_id":"62e93aaa-9b8e-444f-b359-20000bdf93ae","system_id":"levelo_inurba_marseille","lat":43.27493,"lon":5.42468,"is_reserved":false,"is_disabled":false,"rental_uris":{"android":"levelo://app?vid=62e93aaa-9b8e-444f-b359-20000bdf93ae","ios":"levelo://app?vid=62e93aaa-9b8e-444f-b359-20000bdf93ae"},"vehicle_type_id":"4","last_reported":1740557565,"current_range_meters":7200,"station_id":"ce4bhn92rcd13ifvqgrg","pricing_plan_id":"cebpf4jnsgd1na2vs0mg"},{"bike_id":"6d8219f7-3246-4cc2-be2a-b2fe4f98e40e","system_id":"levelo_inurba_marseille","lat":43.2977,"lon":5.38134,"is_reserved":false,"is_disabled":false,"rental_uris":{"android":"levelo://app?vid=6d8219f7-3246-4cc2-be2a-b2fe4f98e40e","ios":"levelo://app?vid=6d8219f7-3246-4cc2-be2a-b2fe4f98e40e"},"vehicle_type_id":"4","last_reported":1740557565,"current_range_meters":6800,"station_id":"ce4bgip2rcd13ifvqbb0","pricing_plan_id":"cebpf4jnsgd1na2vs0mg"},{"bike_id":"ca6a2022-cb96-4f44-9dfd-8e5d31faee29","system_id":"levelo_inurba_marseille","lat":43.28345,"lon":5.3812,"is_reserved":false,"is_disabled":false,"rental_uris":{"android":"levelo://app?vid=ca6a2022-cb96-4f44-9dfd-8e5d31faee29","ios":"levelo://app?vid=ca6a2022-cb96-4f44-9dfd-8e5d31faee29"},"vehicle_type_id":"4","last_reported":1740557565,"current_range_meters":6800,"station_id":"ce4bh412rcd13ifvqdr0","pricing_plan_id":"cebpf4jnsgd1na2vs0mg"},{"bike_id":"3d6d5f78-b986-40b1-955c-b9d9ef93d5f4","system_id":"levelo_inurba_marseille","lat":43.30977,"lon":5.39031,"is_reserved":false,"is_disabled":false,"rental_uris":{"android":"levelo://app?vid=3d6d5f78-b986-40b1-955c-b9d9ef93d5f4","ios":"levelo://app?vid=3d6d5f78-b986-40b1-955c-b9d9ef93d5f4"},"vehicle_type_id":"4","last_reported":1740557565,"current_range_meters":6400,"station_id":"ce4bgup2rcd13ifvqco0","pricing_plan_id":"cebpf4jnsgd1na2vs0mg"},{"bike_id":"0fe45d5a-9140-4074-904e-8776f2a0c858","system_id":"levelo_inurba_marseille","lat":43.3017,"lon":5.38097,"is_reserved":false,"is_disabled":false,"rental_uris":{"android":"levelo://app?vid=0fe45d5a-9140-4074-904e-8776f2a0c858","ios":"levelo://app?vid=0fe45d5a-9140-4074-904e-8776f2a0c858"},"vehicle_type_id":"4","last_reported":1740557565,"current_range_meters":6000,"station_id":"ce4bgjp2rcd13ifvqbh0","pricing_plan_id":"cebpf4jnsgd1na2vs0mg"},{"bike_id":"41a82718-5578-41f7-be7c-4a36792814f7","system_id":"levelo_inurba_marseille","lat":43.25011,"lon":5.38926,"is_reserved":false,"is_disabled":false,"rental_uris":{"android":"levelo://app?vid=41a82718-5578-41f7-be7c-4a36792814f7","ios":"levelo://app?vid=41a82718-5578-41f7-be7c-4a36792814f7"},"vehicle_type_id":"4","last_reported":1740557565,"current_range_meters":7200,"station_id":"ce4bhgp2rcd13ifvqfd0","pricing_plan_id":"cebpf4jnsgd1na2vs0mg"},{"bike_id":"e84aba14-8678-4c9d-aedc-4fc48e21e259","system_id":"levelo_inurba_marseille","lat":43.28374,"lon":5.38618,"is_reserved":false,"is_disabled":false,"rental_uris":{"android":"levelo://app?vid=e84aba14-8678-4c9d-aedc-4fc48e21e259","ios":"levelo://app?vid=e84aba14-8678-4c9d-aedc-4fc48e21e259"},"vehicle_type_id":"4","last_reported":1740557565,"current_range_meters":7200,"station_id":"ce4bh492rcd13ifvqdvg","pricing_plan_id":"cebpf4jnsgd1na2vs0mg"},{"bike_id":"3e6f481f-dd06-4ba3-a7fe-c6813d323e62","system_id":"levelo_inurba_marseille","lat":43.30953,"lon":5.39031,"is_reserved":false,"is_disabled":false,"rental_uris":{"android":"levelo://app?vid=3e6f481f-dd06-4ba3-a7fe-c6813d323e62","ios":"levelo://app?vid=3e6f481f-dd06-4ba3-a7fe-c6813d323e62"},"vehicle_type_id":"4","last_reported":1740557565,"current_range_meters":7200,"station_id":"ce4bgup2rcd13ifvqco0","pricing_plan_id":"cebpf4jnsgd1na2vs0mg"},{"bike_id":"9406bc1a-e388-45c1-91df-f0e38a0a2560","system_id":"levelo_inurba_marseille","lat":43.29267,"lon":5.36859,"is_reserved":false,"is_disabled":false,"rental_uris":{"android":"levelo://app?vid=9406bc1a-e388-45c1-91df-f0e38a0a2560","ios":"levelo://app?vid=9406bc1a-e388-45c1-91df-f0e38a0a2560"},"vehicle_type_id":"4","last_reported":1740557565,"current_range_meters":7200,"station_id":"ce4bhbp2rcd13ifvqesg","pricing_plan_id":"cebpf4jnsgd1na2vs0mg"},{"bike_id":"841e3362-40a0-4bff-8810-220d2f5348a6","system_id":"levelo_inurba_marseille","lat":43.26944,"lon":5.38638,"is_reserved":false,"is_disabled":false,"rental_uris":{"android":"levelo://app?vid=841e3362-40a0-4bff-8810-220d2f5348a6","ios":"levelo://app?vid=841e3362-40a0-4bff-8810-220d2f5348a6"},"vehicle_type_id":"4","last_reported":1740557565,"current_range_meters":7200,"station_id":"ce4bhh92rcd13ifvqfh0","pricing_plan_id":"cebpf4jnsgd1na2vs0mg"},{"bike_id":"70656a71-7b5b-49e4-a2ca-c422d39a1205","system_id":"levelo_inurba_marseille","lat":43.2706,"lon":5.42284,"is_reserved":false,"is_disabled":false,"rental_uris":{"android":"levelo://app?vid=70656a71-7b5b-49e4-a2ca-c422d39a1205","ios":"levelo://app?vid=70656a71-7b5b-49e4-a2ca-c422d39a1205"},"vehicle_type_id":"4","last_reported":1740557565,"current_range_meters":8000,"station_id":"ce4bhk92rcd13ifvqgb0","pricing_plan_id":"cebpf4jnsgd1na2vs0mg"},{"bike_id":"1f8430a0-a831-441d-a382-be3bd24fffbf","system_id":"levelo_inurba_marseille","lat":43.281561,"lon":5.426426,"is_reserved":false,"is_disabled":false,"rental_uris":{"android":"levelo://app?vid=1f8430a0-a831-441d-a382-be3bd24fffbf","ios":"levelo://app?vid=1f8430a0-a831-441d-a382-be3bd24fffbf"},"vehicle_type_id":"4","last_reported":1740557565,"current_range_meters":8000,"station_id":"ce4bgh92rcd13ifvqb50","pricing_plan_id":"cebpf4jnsgd1na2vs0mg"},{"bike_id":"f3e4a7d3-2b16-4b83-b40c-644e70872c43","system_id":"levelo_inurba_marseille","lat":43.314982,"lon":5.373136,"is_reserved":false,"is_disabled":false,"rental_uris":{"android":"levelo://app?vid=f3e4a7d3-2b16-4b83-b40c-644e70872c43","ios":"levelo://app?vid=f3e4a7d3-2b16-4b83-b40c-644e70872c43"},"vehicle_type_id":"4","last_reported":1740557565,"current_range_meters":6800,"station_id":"ce4bgup2rcd13ifvqcn0","pricing_plan_id":"cebpf4jnsgd1na2vs0mg"},{"bike_id":"091a5130-fe95-455d-813c-ef5f4d6aebea","system_id":"levelo_inurba_marseille","lat":43.24067,"lon":5.37763,"is_reserved":false,"is_disabled":false,"rental_uris":{"android":"levelo://app?vid=091a5130-fe95-455d-813c-ef5f4d6aebea","ios":"levelo://app?vid=091a5130-fe95-455d-813c-ef5f4d6aebea"},"vehicle_type_id":"4","last_reported":1740557565,"current_range_meters":8000,"station_id":"ce4bhnp2rcd13ifvqgvg","pricing_plan_id":"cebpf4jnsgd1na2vs0mg"},{"bike_id":"6e7dc168-d384-462a-9e48-e7eb22ec3d79","system_id":"levelo_inurba_marseille","lat":43.28256,"lon":5.35081,"is_reserved":false,"is_disabled":false,"rental_uris":{"android":"levelo://app?vid=6e7dc168-d384-462a-9e48-e7eb22ec3d79","ios":"levelo://app?vid=6e7dc168-d384-462a-9e48-e7eb22ec3d79"},"vehicle_type_id":"4","last_reported":1740557565,"current_range_meters":8400,"station_id":"ce4bhbp2rcd13ifvqerg","pricing_plan_id":"cebpf4jnsgd1na2vs0mg"},{"bike_id":"c787407e-a9b4-4149-bdad-d60b5ec75e8e","system_id":"levelo_inurba_marseille","lat":43.30473,"lon":5.37911,"is_reserved":false,"is_disabled":false,"rental_uris":{"android":"levelo://app?vid=c787407e-a9b4-4149-bdad-d60b5ec75e8e","ios":"levelo://app?vid=c787407e-a9b4-4149-bdad-d60b5ec75e8e"},"vehicle_type_id":"4","last_reported":1740557565,"current_range_meters":8000,"station_id":"ce4bgup2rcd13ifvqcn0","pricing_plan_id":"cebpf4jnsgd1na2vs0mg"},{"bike_id":"25abbc48-386e-464a-a962-99fad8e53fe0","system_id":"levelo_inurba_marseille","lat":43.28481,"lon":5.38407,"is_reserved":false,"is_disabled":false,"rental_uris":{"android":"levelo://app?vid=25abbc48-386e-464a-a962-99fad8e53fe0","ios":"levelo://app?vid=25abbc48-386e-464a-a962-99fad8e53fe0"},"vehicle_type_id":"4","last_reported":1740557565,"current_range_meters":8000,"station_id":"ce4bh512rcd13ifvqe3g","pricing_plan_id":"cebpf4jnsgd1na2vs0mg"},{"bike_id":"d369ff6c-bf31-4417-88b2-8e645dc45456","system_id":"levelo_inurba_marseille","lat":43.270815,"lon":5.423023,"is_reserved":false,"is_disabled":false,"rental_uris":{"android":"levelo://app?vid=d369ff6c-bf31-4417-88b2-8e645dc45456","ios":"levelo://app?vid=d369ff6c-bf31-4417-88b2-8e645dc45456"},"vehicle_type_id":"4","last_reported":1740557565,"current_range_meters":8400,"station_id":"ce4bhk92rcd13ifvqgb0","pricing_plan_id":"cebpf4jnsgd1na2vs0mg"},{"bike_id":"601d9d1a-b924-4349-8cfa-62d99997e8fb","system_id":"levelo_inurba_marseille","lat":43.23195,"lon":5.39994,"is_reserved":false,"is_disabled":false,"rental_uris":{"android":"levelo://app?vid=601d9d1a-b924-4349-8cfa-62d99997e8fb","ios":"levelo://app?vid=601d9d1a-b924-4349-8cfa-62d99997e8fb"},"vehicle_type_id":"4","last_reported":1740557565,"current_range_meters":8000,"station_id":"ce4bhn12rcd13ifvqgqg","pricing_plan_id":"cebpf4jnsgd1na2vs0mg"},{"bike_id":"3ff97877-4a55-4663-9acd-eca55a48980c","system_id":"levelo_inurba_marseille","lat":43.27492,"lon":5.4247,"is_reserved":false,"is_disabled":false,"rental_uris":{"android":"levelo://app?vid=3ff97877-4a55-4663-9acd-eca55a48980c","ios":"levelo://app?vid=3ff97877-4a55-4663-9acd-eca55a48980c"},"vehicle_type_id":"4","last_reported":1740557565,"current_range_meters":8000,"station_id":"ce4bhn92rcd13ifvqgrg","pricing_plan_id":"cebpf4jnsgd1na2vs0mg"},{"bike_id":"7c45866a-bd99-4c12-9747-66203f12a96e","system_id":"levelo_inurba_marseille","lat":43.2314,"lon":5.3551,"is_reserved":false,"is_disabled":false,"rental_uris":{"android":"levelo://app?vid=7c45866a-bd99-4c12-9747-66203f12a96e","ios":"levelo://app?vid=7c45866a-bd99-4c12-9747-66203f12a96e"},"vehicle_type_id":"4","last_reported":1740557565,"current_range_meters":8000,"station_id":"","pricing_plan_id":"cebpf4jnsgd1na2vs0mg"},{"bike_id":"608ff0c8-52a7-4ea8-bd22-35afb0e1306f","system_id":"levelo_inurba_marseille","lat":43.27493,"lon":5.42449,"is_reserved":false,"is_disabled":false,"rental_uris":{"android":"levelo://app?vid=608ff0c8-52a7-4ea8-bd22-35afb0e1306f","ios":"levelo://app?vid=608ff0c8-52a7-4ea8-bd22-35afb0e1306f"},"vehicle_type_id":"4","last_reported":1740557565,"current_range_meters":7200,"station_id":"ce4bhn92rcd13ifvqgrg","pricing_plan_id":"cebpf4jnsgd1na2vs0mg"},{"bike_id":"c0103b3d-a816-4d6f-9ace-685925eb6cf2","system_id":"levelo_inurba_marseille","lat":43.28277,"lon":5.35071,"is_reserved":false,"is_disabled":false,"rental_uris":{"android":"levelo://app?vid=c0103b3d-a816-4d6f-9ace-685925eb6cf2","ios":"levelo://app?vid=c0103b3d-a816-4d6f-9ace-685925eb6cf2"},"vehicle_type_id":"4","last_reported":1740557565,"current_range_meters":8400,"station_id":"ce4bhbp2rcd13ifvqerg","pricing_plan_id":"cebpf4jnsgd1na2vs0mg"},{"bike_id":"e5c275a2-a964-47d8-9489-ed1126cf4cef","system_id":"levelo_inurba_marseille","lat":43.29628,"lon":5.37899,"is_reserved":false,"is_disabled":false,"rental_uris":{"android":"levelo://app?vid=e5c275a2-a964-47d8-9489-ed1126cf4cef","ios":"levelo://app?vid=e5c275a2-a964-47d8-9489-ed1126cf4cef"},"vehicle_type_id":"4","last_reported":1740557565,"current_range_meters":8400,"station_id":"","pricing_plan_id":"cebpf4jnsgd1na2vs0mg"},{"bike_id":"e252f8ba-4bac-44c1-bd4b-632dc051fe9c","system_id":"levelo_inurba_marseille","lat":43.29935,"lon":5.3744,"is_reserved":false,"is_disabled":false,"rental_uris":{"android":"levelo://app?vid=e252f8ba-4bac-44c1-bd4b-632dc051fe9c","ios":"levelo://app?vid=e252f8ba-4bac-44c1-bd4b-632dc051fe9c"},"vehicle_type_id":"4","last_reported":1740557565,"current_range_meters":8400,"station_id":"ce4bgjh2rcd13ifvqbg0","pricing_plan_id":"cebpf4jnsgd1na2vs0mg"},{"bike_id":"e4cd531c-53f6-497b-b684-69896df31ea1","system_id":"levelo_inurba_marseille","lat":43.24176,"lon":5.39731,"is_reserved":false,"is_disabled":false,"rental_uris":{"android":"levelo://app?vid=e4cd531c-53f6-497b-b684-69896df31ea1","ios":"levelo://app?vid=e4cd531c-53f6-497b-b684-69896df31ea1"},"vehicle_type_id":"4","last_reported":1740557565,"current_range_meters":8400,"station_id":"ce4bhn12rcd13ifvqgpg","pricing_plan_id":"cebpf4jnsgd1na2vs0mg"},{"bike_id":"ae8a19c6-d644-4dc9-829e-8caf6b1d2af0","system_id":"levelo_inurba_marseille","lat":43.27218,"lon":5.39184,"is_reserved":false,"is_disabled":true,"rental_uris":{"android":"levelo://app?vid=ae8a19c6-d644-4dc9-829e-8caf6b1d2af0","ios":"levelo://app?vid=ae8a19c6-d644-4dc9-829e-8caf6b1d2af0"},"vehicle_type_id":"4","last_reported":1740557565,"current_range_meters":8400,"station_id":"ce4bhhp2rcd13ifvqfm0","pricing_plan_id":"cebpf4jnsgd1na2vs0mg"},{"bike_id":"8a347558-4d24-4798-bc0f-3e92792b691e","system_id":"levelo_inurba_marseille","lat":43.312192,"lon":5.368562,"is_reserved":false,"is_disabled":false,"rental_uris":{"android":"levelo://app?vid=8a347558-4d24-4798-bc0f-3e92792b691e","ios":"levelo://app?vid=8a347558-4d24-4798-bc0f-3e92792b691e"},"vehicle_type_id":"4","last_reported":1740557565,"current_range_meters":8400,"station_id":"ce4bgl92rcd13ifvqbq0","pricing_plan_id":"cebpf4jnsgd1na2vs0mg"},{"bike_id":"6bde17a0-6e11-4413-bf1b-d6751ce7e53e","system_id":"levelo_inurba_marseille","lat":43.25496,"lon":5.37651,"is_reserved":false,"is_disabled":false,"rental_uris":{"android":"levelo://app?vid=6bde17a0-6e11-4413-bf1b-d6751ce7e53e","ios":"levelo://app?vid=6bde17a0-6e11-4413-bf1b-d6751ce7e53e"},"vehicle_type_id":"4","last_reported":1740557565,"current_range_meters":8400,"station_id":"ce4bhh12rcd13ifvqff0","pricing_plan_id":"cebpf4jnsgd1na2vs0mg"},{"bike_id":"fa0fd479-49df-47e5-9d21-fe77857465d8","system_id":"levelo_inurba_marseille","lat":43.23966,"lon":5.36632,"is_reserved":false,"is_disabled":false,"rental_uris":{"android":"levelo://app?vid=fa0fd479-49df-47e5-9d21-fe77857465d8","ios":"levelo://app?vid=fa0fd479-49df-47e5-9d21-fe77857465d8"},"vehicle_type_id":"4","last_reported":1740557565,"current_range_meters":8400,"station_id":"ce4bhi12rcd13ifvqfp0","pricing_plan_id":"cebpf4jnsgd1na2vs0mg"},{"bike_id":"2e7606f9-1465-4d96-9784-c0f9109a1d3d","system_id":"levelo_inurba_marseille","lat":43.259316,"lon":5.416374,"is_reserved":false,"is_disabled":false,"rental_uris":{"android":"levelo://app?vid=2e7606f9-1465-4d96-9784-c0f9109a1d3d","ios":"levelo://app?vid=2e7606f9-1465-4d96-9784-c0f9109a1d3d"},"vehicle_type_id":"4","last_reported":1740557565,"current_range_meters":8000,"station_id":"ce4bhmp2rcd13ifvqgog","pricing_plan_id":"cebpf4jnsgd1na2vs0mg"},{"bike_id":"b75e4e7a-498d-4a33-9ab2-8a3feaaaf040","system_id":"levelo_inurba_marseille","lat":43.29311,"lon":5.37183,"is_reserved":false,"is_disabled":false,"rental_uris":{"android":"levelo://app?vid=b75e4e7a-498d-4a33-9ab2-8a3feaaaf040","ios":"levelo://app?vid=b75e4e7a-498d-4a33-9ab2-8a3feaaaf040"},"vehicle_type_id":"4","last_reported":1740557565,"current_range_meters":8400,"station_id":"ce4bgh92rcd13ifvqb40","pricing_plan_id":"cebpf4jnsgd1na2vs0mg"},{"bike_id":"57023fbf-61ca-460e-85b9-db15eb745ed4","system_id":"levelo_inurba_marseille","lat":43.27504,"lon":5.42471,"is_reserved":false,"is_disabled":false,"rental_uris":{"android":"levelo://app?vid=57023fbf-61ca-460e-85b9-db15eb745ed4","ios":"levelo://app?vid=57023fbf-61ca-460e-85b9-db15eb745ed4"},"vehicle_type_id":"4","last_reported":1740557565,"current_range_meters":8800,"station_id":"ce4bhn92rcd13ifvqgrg","pricing_plan_id":"cebpf4jnsgd1na2vs0mg"},{"bike_id":"a807631f-b70f-46a8-b8e4-24d3684b48f5","system_id":"levelo_inurba_marseille","lat":43.30912,"lon":5.36853,"is_reserved":false,"is_disabled":false,"rental_uris":{"android":"levelo://app?vid=a807631f-b70f-46a8-b8e4-24d3684b48f5","ios":"levelo://app?vid=a807631f-b70f-46a8-b8e4-24d3684b48f5"},"vehicle_type_id":"4","last_reported":1740557565,"current_range_meters":8800,"station_id":"ce4bgn92rcd13ifvqbvg","pricing_plan_id":"cebpf4jnsgd1na2vs0mg"},{"bike_id":"5e51c786-3ebc-4393-8ece-91f8158141cd","system_id":"levelo_inurba_marseille","lat":43.24064,"lon":5.37758,"is_reserved":false,"is_disabled":false,"rental_uris":{"android":"levelo://app?vid=5e51c786-3ebc-4393-8ece-91f8158141cd","ios":"levelo://app?vid=5e51c786-3ebc-4393-8ece-91f8158141cd"},"vehicle_type_id":"4","last_reported":1740557565,"current_range_meters":8800,"station_id":"ce4bhnp2rcd13ifvqgvg","pricing_plan_id":"cebpf4jnsgd1na2vs0mg"},{"bike_id":"2d7fe260-ca98-4404-ab01-0e86bb72db9e","system_id":"levelo_inurba_marseille","lat":43.29717,"lon":5.3769,"is_reserved":false,"is_disabled":false,"rental_uris":{"android":"levelo://app?vid=2d7fe260-ca98-4404-ab01-0e86bb72db9e","ios":"levelo://app?vid=2d7fe260-ca98-4404-ab01-0e86bb72db9e"},"vehicle_type_id":"4","last_reported":1740557565,"current_range_meters":8800,"station_id":"ce4bgkh2rcd13ifvqbl0","pricing_plan_id":"cebpf4jnsgd1na2vs0mg"},{"bike_id":"0755804b-e938-4970-a1f5-1ee40c67f3e0","system_id":"levelo_inurba_marseille","lat":43.24071,"lon":5.37762,"is_reserved":false,"is_disabled":false,"rental_uris":{"android":"levelo://app?vid=0755804b-e938-4970-a1f5-1ee40c67f3e0","ios":"levelo://app?vid=0755804b-e938-4970-a1f5-1ee40c67f3e0"},"vehicle_type_id":"4","last_reported":1740557565,"current_range_meters":8800,"station_id":"ce4bhnp2rcd13ifvqgvg","pricing_plan_id":"cebpf4jnsgd1na2vs0mg"},{"bike_id":"fd27a87b-beed-48d0-9c1f-b1fb51341453","system_id":"levelo_inurba_marseille","lat":43.27615,"lon":5.36125,"is_reserved":false,"is_disabled":true,"rental_uris":{"android":"levelo://app?vid=fd27a87b-beed-48d0-9c1f-b1fb51341453","ios":"levelo://app?vid=fd27a87b-beed-48d0-9c1f-b1fb51341453"},"vehicle_type_id":"4","last_reported":1740557565,"current_range_meters":8800,"station_id":"ce4bgj92rcd13ifvqbe0","pricing_plan_id":"cebpf4jnsgd1na2vs0mg"},{"bike_id":"0a1c232b-9f96-40a1-a4f1-63537d45ae21","system_id":"levelo_inurba_marseille","lat":43.27493,"lon":5.42457,"is_reserved":false,"is_disabled":false,"rental_uris":{"android":"levelo://app?vid=0a1c232b-9f96-40a1-a4f1-63537d45ae21","ios":"levelo://app?vid=0a1c232b-9f96-40a1-a4f1-63537d45ae21"},"vehicle_type_id":"4","last_reported":1740557565,"current_range_meters":8800,"station_id":"ce4bhn92rcd13ifvqgrg","pricing_plan_id":"cebpf4jnsgd1na2vs0mg"},{"bike_id":"fb39df75-7629-48d2-ba76-36233804e68e","system_id":"levelo_inurba_marseille","lat":43.267972,"lon":5.394086,"is_reserved":false,"is_disabled":false,"rental_uris":{"android":"levelo://app?vid=fb39df75-7629-48d2-ba76-36233804e68e","ios":"levelo://app?vid=fb39df75-7629-48d2-ba76-36233804e68e"},"vehicle_type_id":"4","last_reported":1740557565,"current_range_meters":11600,"station_id":"ce4bhh12rcd13ifvqfg0","pricing_plan_id":"cebpf4jnsgd1na2vs0mg"},{"bike_id":"25255681-d668-4957-b49d-3fba4d0fc5e1","system_id":"levelo_inurba_marseille","lat":43.27874,"lon":5.38024,"is_reserved":false,"is_disabled":false,"rental_uris":{"android":"levelo://app?vid=25255681-d668-4957-b49d-3fba4d0fc5e1","ios":"levelo://app?vid=25255681-d668-4957-b49d-3fba4d0fc5e1"},"vehicle_type_id":"4","last_reported":1740557565,"current_range_meters":9200,"station_id":"ce4bhf92rcd13ifvqf50","pricing_plan_id":"cebpf4jnsgd1na2vs0mg"},{"bike_id":"50fcb5bc-2f7c-4b81-8a86-a84f7def9e15","system_id":"levelo_inurba_marseille","lat":43.24661,"lon":5.38172,"is_reserved":false,"is_disabled":false,"rental_uris":{"android":"levelo://app?vid=50fcb5bc-2f7c-4b81-8a86-a84f7def9e15","ios":"levelo://app?vid=50fcb5bc-2f7c-4b81-8a86-a84f7def9e15"},"vehicle_type_id":"4","last_reported":1740557565,"current_range_meters":8800,"station_id":"ce4bhih2rcd13ifvqfr0","pricing_plan_id":"cebpf4jnsgd1na2vs0mg"},{"bike_id":"0f1f3b76-2791-4f0f-845e-300b9a8eb89b","system_id":"levelo_inurba_marseille","lat":43.231923,"lon":5.355585,"is_reserved":false,"is_disabled":false,"rental_uris":{"android":"levelo://app?vid=0f1f3b76-2791-4f0f-845e-300b9a8eb89b","ios":"levelo://app?vid=0f1f3b76-2791-4f0f-845e-300b9a8eb89b"},"vehicle_type_id":"4","last_reported":1740557565,"current_range_meters":9200,"station_id":"ce4bhu92rcd13ifvqi70","pricing_plan_id":"cebpf4jnsgd1na2vs0mg"},{"bike_id":"f5d8d05d-3632-43c8-8d3c-fa56bd5050e5","system_id":"levelo_inurba_marseille","lat":43.29873,"lon":5.39747,"is_reserved":false,"is_disabled":true,"rental_uris":{"android":"levelo://app?vid=f5d8d05d-3632-43c8-8d3c-fa56bd5050e5","ios":"levelo://app?vid=f5d8d05d-3632-43c8-8d3c-fa56bd5050e5"},"vehicle_type_id":"4","last_reported":1740557565,"current_range_meters":9200,"station_id":"ce4bh0h2rcd13ifvqd50","pricing_plan_id":"cebpf4jnsgd1na2vs0mg"},{"bike_id":"bcd0f2a4-72fb-4190-a46f-f3967cee773d","system_id":"levelo_inurba_marseille","lat":43.24994,"lon":5.38945,"is_reserved":false,"is_disabled":false,"rental_uris":{"android":"levelo://app?vid=bcd0f2a4-72fb-4190-a46f-f3967cee773d","ios":"levelo://app?vid=bcd0f2a4-72fb-4190-a46f-f3967cee773d"},"vehicle_type_id":"4","last_reported":1740557565,"current_range_meters":9200,"station_id":"ce4bhgp2rcd13ifvqfd0","pricing_plan_id":"cebpf4jnsgd1na2vs0mg"},{"bike_id":"9f6b1a57-8b18-4910-92c4-7c3c71b26e15","system_id":"levelo_inurba_marseille","lat":43.233516,"lon":5.360103,"is_reserved":false,"is_disabled":false,"rental_uris":{"android":"levelo://app?vid=9f6b1a57-8b18-4910-92c4-7c3c71b26e15","ios":"levelo://app?vid=9f6b1a57-8b18-4910-92c4-7c3c71b26e15"},"vehicle_type_id":"4","last_reported":1740557565,"current_range_meters":9200,"station_id":"","pricing_plan_id":"cebpf4jnsgd1na2vs0mg"},{"bike_id":"76ec9e61-d179-48d7-a2e2-2a6d97fad434","system_id":"levelo_inurba_marseille","lat":43.28412,"lon":5.34999,"is_reserved":false,"is_disabled":false,"rental_uris":{"android":"levelo://app?vid=76ec9e61-d179-48d7-a2e2-2a6d97fad434","ios":"levelo://app?vid=76ec9e61-d179-48d7-a2e2-2a6d97fad434"},"vehicle_type_id":"4","last_reported":1740557565,"current_range_meters":9200,"station_id":"ce4bhbh2rcd13ifvqepg","pricing_plan_id":"cebpf4jnsgd1na2vs0mg"},{"bike_id":"13301daf-0444-439c-90f5-309514bd90a4","system_id":"levelo_inurba_marseille","lat":43.3153,"lon":5.38033,"is_reserved":false,"is_disabled":false,"rental_uris":{"android":"levelo://app?vid=13301daf-0444-439c-90f5-309514bd90a4","ios":"levelo://app?vid=13301daf-0444-439c-90f5-309514bd90a4"},"vehicle_type_id":"4","last_reported":1740557565,"current_range_meters":9200,"station_id":"ce4bhsp2rcd13ifvqi50","pricing_plan_id":"cebpf4jnsgd1na2vs0mg"},{"bike_id":"a1ca3ad0-4f52-4569-bb87-4293f6934d8b","system_id":"levelo_inurba_marseille","lat":43.23213,"lon":5.35551,"is_reserved":false,"is_disabled":false,"rental_uris":{"android":"levelo://app?vid=a1ca3ad0-4f52-4569-bb87-4293f6934d8b","ios":"levelo://app?vid=a1ca3ad0-4f52-4569-bb87-4293f6934d8b"},"vehicle_type_id":"4","last_reported":1740557565,"current_range_meters":9200,"station_id":"ce4bhu92rcd13ifvqi70","pricing_plan_id":"cebpf4jnsgd1na2vs0mg"},{"bike_id":"88b52384-b6a3-474a-978f-7cedd3127205","system_id":"levelo_inurba_marseille","lat":43.29203,"lon":5.35811,"is_reserved":false,"is_disabled":false,"rental_uris":{"android":"levelo://app?vid=88b52384-b6a3-474a-978f-7cedd3127205","ios":"levelo://app?vid=88b52384-b6a3-474a-978f-7cedd3127205"},"vehicle_type_id":"4","last_reported":1740557565,"current_range_meters":9200,"station_id":"ce4bhb12rcd13ifvqel0","pricing_plan_id":"cebpf4jnsgd1na2vs0mg"},{"bike_id":"e7234b8e-3807-4b4c-852c-4a3fe63998d8","system_id":"levelo_inurba_marseille","lat":43.28864,"lon":5.3582,"is_reserved":false,"is_disabled":false,"rental_uris":{"android":"levelo://app?vid=e7234b8e-3807-4b4c-852c-4a3fe63998d8","ios":"levelo://app?vid=e7234b8e-3807-4b4c-852c-4a3fe63998d8"},"vehicle_type_id":"4","last_reported":1740557565,"current_range_meters":9600,"station_id":"ce4bhb12rcd13ifvqem0","pricing_plan_id":"cebpf4jnsgd1na2vs0mg"},{"bike_id":"05f51bd6-bf8c-4b6c-ba2f-d7bf7cec3006","system_id":"levelo_inurba_marseille","lat":43.23188,"lon":5.35567,"is_reserved":false,"is_disabled":false,"rental_uris":{"android":"levelo://app?vid=05f51bd6-bf8c-4b6c-ba2f-d7bf7cec3006","ios":"levelo://app?vid=05f51bd6-bf8c-4b6c-ba2f-d7bf7cec3006"},"vehicle_type_id":"4","last_reported":1740557565,"current_range_meters":9600,"station_id":"ce4bhu92rcd13ifvqi70","pricing_plan_id":"cebpf4jnsgd1na2vs0mg"},{"bike_id":"e36f9542-d005-455a-aff1-f8670f10af67","system_id":"levelo_inurba_marseille","lat":43.30903,"lon":5.37182,"is_reserved":false,"is_disabled":false,"rental_uris":{"android":"levelo://app?vid=e36f9542-d005-455a-aff1-f8670f10af67","ios":"levelo://app?vid=e36f9542-d005-455a-aff1-f8670f10af67"},"vehicle_type_id":"4","last_reported":1740557565,"current_range_meters":9200,"station_id":"ce4bguh2rcd13ifvqckg","pricing_plan_id":"cebpf4jnsgd1na2vs0mg"},{"bike_id":"3329f2ab-f4e6-48ac-85b5-2c3f7261a92f","system_id":"levelo_inurba_marseille","lat":43.28656,"lon":5.36355,"is_reserved":false,"is_disabled":false,"rental_uris":{"android":"levelo://app?vid=3329f2ab-f4e6-48ac-85b5-2c3f7261a92f","ios":"levelo://app?vid=3329f2ab-f4e6-48ac-85b5-2c3f7261a92f"},"vehicle_type_id":"4","last_reported":1740557565,"current_range_meters":10000,"station_id":"ce4bhah2rcd13ifvqej0","pricing_plan_id":"cebpf4jnsgd1na2vs0mg"},{"bike_id":"f5bfb493-1d01-482c-abfd-6b0a1771c9b5","system_id":"levelo_inurba_marseille","lat":43.28949,"lon":5.363944,"is_reserved":false,"is_disabled":false,"rental_uris":{"android":"levelo://app?vid=f5bfb493-1d01-482c-abfd-6b0a1771c9b5","ios":"levelo://app?vid=f5bfb493-1d01-482c-abfd-6b0a1771c9b5"},"vehicle_type_id":"4","last_reported":1740557565,"current_range_meters":9600,"station_id":"ce4bhc92rcd13ifvqetg","pricing_plan_id":"cebpf4jnsgd1na2vs0mg"},{"bike_id":"9fdc4bcb-37a1-4a1b-9387-b304f9f6eba4","system_id":"levelo_inurba_marseille","lat":43.26952,"lon":5.3863,"is_reserved":false,"is_disabled":false,"rental_uris":{"android":"levelo://app?vid=9fdc4bcb-37a1-4a1b-9387-b304f9f6eba4","ios":"levelo://app?vid=9fdc4bcb-37a1-4a1b-9387-b304f9f6eba4"},"vehicle_type_id":"4","last_reported":1740557565,"current_range_meters":9600,"station_id":"ce4bhh92rcd13ifvqfh0","pricing_plan_id":"cebpf4jnsgd1na2vs0mg"},{"bike_id":"c52acbad-9974-48d6-b92b-1d6c12a1b66d","system_id":"levelo_inurba_marseille","lat":43.2593,"lon":5.409,"is_reserved":false,"is_disabled":false,"rental_uris":{"android":"levelo://app?vid=c52acbad-9974-48d6-b92b-1d6c12a1b66d","ios":"levelo://app?vid=c52acbad-9974-48d6-b92b-1d6c12a1b66d"},"vehicle_type_id":"4","last_reported":1740557565,"current_range_meters":10000,"station_id":"ce4bhm92rcd13ifvqglg","pricing_plan_id":"cebpf4jnsgd1na2vs0mg"},{"bike_id":"f5232ca0-a0ea-4b65-9be9-c58c9ab586fb","system_id":"levelo_inurba_marseille","lat":43.28156,"lon":5.42636,"is_reserved":false,"is_disabled":false,"rental_uris":{"android":"levelo://app?vid=f5232ca0-a0ea-4b65-9be9-c58c9ab586fb","ios":"levelo://app?vid=f5232ca0-a0ea-4b65-9be9-c58c9ab586fb"},"vehicle_type_id":"4","last_reported":1740557565,"current_range_meters":10000,"station_id":"ce4bhnh2rcd13ifvqgug","pricing_plan_id":"cebpf4jnsgd1na2vs0mg"},{"bike_id":"5e86fa3c-6aa7-4f46-be09-54d1d538c52e","system_id":"levelo_inurba_marseille","lat":43.29565,"lon":5.37518,"is_reserved":false,"is_disabled":false,"rental_uris":{"android":"levelo://app?vid=5e86fa3c-6aa7-4f46-be09-54d1d538c52e","ios":"levelo://app?vid=5e86fa3c-6aa7-4f46-be09-54d1d538c52e"},"vehicle_type_id":"4","last_reported":1740557565,"current_range_meters":9600,"station_id":"ce4bgh92rcd13ifvqb50","pricing_plan_id":"cebpf4jnsgd1na2vs0mg"},{"bike_id":"7d66929a-702e-4b5b-8723-eb07e86a2e1e","system_id":"levelo_inurba_marseille","lat":43.30313,"lon":5.39212,"is_reserved":false,"is_disabled":true,"rental_uris":{"android":"levelo://app?vid=7d66929a-702e-4b5b-8723-eb07e86a2e1e","ios":"levelo://app?vid=7d66929a-702e-4b5b-8723-eb07e86a2e1e"},"vehicle_type_id":"4","last_reported":1740557565,"current_range_meters":10000,"station_id":"ce4bgkh2rcd13ifvqbk0","pricing_plan_id":"cebpf4jnsgd1na2vs0mg"},{"bike_id":"7c8aaa9b-e43a-43de-8b4f-a531a44d3724","system_id":"levelo_inurba_marseille","lat":43.27939,"lon":5.41053,"is_reserved":false,"is_disabled":false,"rental_uris":{"android":"levelo://app?vid=7c8aaa9b-e43a-43de-8b4f-a531a44d3724","ios":"levelo://app?vid=7c8aaa9b-e43a-43de-8b4f-a531a44d3724"},"vehicle_type_id":"4","last_reported":1740557565,"current_range_meters":10000,"station_id":"ce4bhnp2rcd13ifvqh0g","pricing_plan_id":"cebpf4jnsgd1na2vs0mg"},{"bike_id":"6b286004-f086-4023-9675-02a95f8e917b","system_id":"levelo_inurba_marseille","lat":43.3097,"lon":5.39041,"is_reserved":false,"is_disabled":true,"rental_uris":{"android":"levelo://app?vid=6b286004-f086-4023-9675-02a95f8e917b","ios":"levelo://app?vid=6b286004-f086-4023-9675-02a95f8e917b"},"vehicle_type_id":"4","last_reported":1740557565,"current_range_meters":10000,"station_id":"ce4bgup2rcd13ifvqco0","pricing_plan_id":"cebpf4jnsgd1na2vs0mg"},{"bike_id":"b007f058-4163-4bbe-ba13-50835769bd43","system_id":"levelo_inurba_marseille","lat":43.31713,"lon":5.43713,"is_reserved":false,"is_disabled":false,"rental_uris":{"android":"levelo://app?vid=b007f058-4163-4bbe-ba13-50835769bd43","ios":"levelo://app?vid=b007f058-4163-4bbe-ba13-50835769bd43"},"vehicle_type_id":"4","last_reported":1740557565,"current_range_meters":10000,"station_id":"ce4bhp92rcd13ifvqhcg","pricing_plan_id":"cebpf4jnsgd1na2vs0mg"},{"bike_id":"4bcee7f2-7a8a-43dd-853c-163df9362300","system_id":"levelo_inurba_marseille","lat":43.27978,"lon":5.39973,"is_reserved":false,"is_disabled":false,"rental_uris":{"android":"levelo://app?vid=4bcee7f2-7a8a-43dd-853c-163df9362300","ios":"levelo://app?vid=4bcee7f2-7a8a-43dd-853c-163df9362300"},"vehicle_type_id":"4","last_reported":1740557565,"current_range_meters":10000,"station_id":"ce4bho92rcd13ifvqh4g","pricing_plan_id":"cebpf4jnsgd1na2vs0mg"},{"bike_id":"5c7765f6-0c64-44a3-963c-66eff25c0296","system_id":"levelo_inurba_marseille","lat":43.3046,"lon":5.37907,"is_reserved":false,"is_disabled":false,"rental_uris":{"android":"levelo://app?vid=5c7765f6-0c64-44a3-963c-66eff25c0296","ios":"levelo://app?vid=5c7765f6-0c64-44a3-963c-66eff25c0296"},"vehicle_type_id":"4","last_reported":1740557565,"current_range_meters":10000,"station_id":"ce4bgup2rcd13ifvqcn0","pricing_plan_id":"cebpf4jnsgd1na2vs0mg"},{"bike_id":"dcdfafc4-ad04-4f03-b713-a44cb5c77c53","system_id":"levelo_inurba_marseille","lat":43.29555,"lon":5.39952,"is_reserved":false,"is_disabled":true,"rental_uris":{"android":"levelo://app?vid=dcdfafc4-ad04-4f03-b713-a44cb5c77c53","ios":"levelo://app?vid=dcdfafc4-ad04-4f03-b713-a44cb5c77c53"},"vehicle_type_id":"4","last_reported":1740557565,"current_range_meters":10800,"station_id":"ce4bh312rcd13ifvqdj0","pricing_plan_id":"cebpf4jnsgd1na2vs0mg"},{"bike_id":"85710084-a931-47e8-ab4c-1f19a337f065","system_id":"levelo_inurba_marseille","lat":43.29166,"lon":5.38607,"is_reserved":false,"is_disabled":false,"rental_uris":{"android":"levelo://app?vid=85710084-a931-47e8-ab4c-1f19a337f065","ios":"levelo://app?vid=85710084-a931-47e8-ab4c-1f19a337f065"},"vehicle_type_id":"4","last_reported":1740557565,"current_range_meters":10800,"station_id":"","pricing_plan_id":"cebpf4jnsgd1na2vs0mg"},{"bike_id":"6d868570-4a79-4602-b067-8f69145b3a5c","system_id":"levelo_inurba_marseille","lat":43.2781,"lon":5.40741,"is_reserved":false,"is_disabled":false,"rental_uris":{"android":"levelo://app?vid=6d868570-4a79-4602-b067-8f69145b3a5c","ios":"levelo://app?vid=6d868570-4a79-4602-b067-8f69145b3a5c"},"vehicle_type_id":"4","last_reported":1740557565,"current_range_meters":10800,"station_id":"ce4bhnh2rcd13ifvqgtg","pricing_plan_id":"cebpf4jnsgd1na2vs0mg"},{"bike_id":"f89a258c-8d78-41c4-82ec-c2fa0afba070","system_id":"levelo_inurba_marseille","lat":43.27494,"lon":5.42464,"is_reserved":false,"is_disabled":false,"rental_uris":{"android":"levelo://app?vid=f89a258c-8d78-41c4-82ec-c2fa0afba070","ios":"levelo://app?vid=f89a258c-8d78-41c4-82ec-c2fa0afba070"},"vehicle_type_id":"4","last_reported":1740557565,"current_range_meters":10800,"station_id":"ce4bhn92rcd13ifvqgrg","pricing_plan_id":"cebpf4jnsgd1na2vs0mg"},{"bike_id":"dfd23175-6a62-4c95-a53c-9500be447999","system_id":"levelo_inurba_marseille","lat":43.24065,"lon":5.37761,"is_reserved":false,"is_disabled":false,"rental_uris":{"android":"levelo://app?vid=dfd23175-6a62-4c95-a53c-9500be447999","ios":"levelo://app?vid=dfd23175-6a62-4c95-a53c-9500be447999"},"vehicle_type_id":"4","last_reported":1740557565,"current_range_meters":10800,"station_id":"ce4bhnp2rcd13ifvqgvg","pricing_plan_id":"cebpf4jnsgd1na2vs0mg"},{"bike_id":"b7e76cce-cd59-41fc-bddd-abd519a7d294","system_id":"levelo_inurba_marseille","lat":43.33762,"lon":5.37438,"is_reserved":false,"is_disabled":false,"rental_uris":{"android":"levelo://app?vid=b7e76cce-cd59-41fc-bddd-abd519a7d294","ios":"levelo://app?vid=b7e76cce-cd59-41fc-bddd-abd519a7d294"},"vehicle_type_id":"4","last_reported":1740557565,"current_range_meters":34000,"station_id":"","pricing_plan_id":"cebpf4jnsgd1na2vs0mg"},{"bike_id":"b6b4064c-0dc9-42a8-ba8d-0da6aa769c92","system_id":"levelo_inurba_marseille","lat":43.28466,"lon":5.38472,"is_reserved":false,"is_disabled":false,"rental_uris":{"android":"levelo://app?vid=b6b4064c-0dc9-42a8-ba8d-0da6aa769c92","ios":"levelo://app?vid=b6b4064c-0dc9-42a8-ba8d-0da6aa769c92"},"vehicle_type_id":"4","last_reported":1740557565,"current_range_meters":11200,"station_id":"ce4bh512rcd13ifvqe3g","pricing_plan_id":"cebpf4jnsgd1na2vs0mg"},{"bike_id":"2f4da43f-20a1-4327-a5ab-751d963f0834","system_id":"levelo_inurba_marseille","lat":43.26946,"lon":5.3863,"is_reserved":false,"is_disabled":false,"rental_uris":{"android":"levelo://app?vid=2f4da43f-20a1-4327-a5ab-751d963f0834","ios":"levelo://app?vid=2f4da43f-20a1-4327-a5ab-751d963f0834"},"vehicle_type_id":"4","last_reported":1740557565,"current_range_meters":10800,"station_id":"ce4bhh92rcd13ifvqfh0","pricing_plan_id":"cebpf4jnsgd1na2vs0mg"},{"bike_id":"8cc076ca-2237-4fc3-96c6-fd5f51829409","system_id":"levelo_inurba_marseille","lat":43.30916,"lon":5.37159,"is_reserved":false,"is_disabled":false,"rental_uris":{"android":"levelo://app?vid=8cc076ca-2237-4fc3-96c6-fd5f51829409","ios":"levelo://app?vid=8cc076ca-2237-4fc3-96c6-fd5f51829409"},"vehicle_type_id":"4","last_reported":1740557565,"current_range_meters":11600,"station_id":"ce4bguh2rcd13ifvqckg","pricing_plan_id":"cebpf4jnsgd1na2vs0mg"},{"bike_id":"d4e4e661-6e96-4525-96d6-df208e9a978c","system_id":"levelo_inurba_marseille","lat":43.30274,"lon":5.37719,"is_reserved":false,"is_disabled":false,"rental_uris":{"android":"levelo://app?vid=d4e4e661-6e96-4525-96d6-df208e9a978c","ios":"levelo://app?vid=d4e4e661-6e96-4525-96d6-df208e9a978c"},"vehicle_type_id":"4","last_reported":1740557565,"current_range_meters":10000,"station_id":"ce4bguh2rcd13ifvqcj0","pricing_plan_id":"cebpf4jnsgd1na2vs0mg"},{"bike_id":"43efa006-368d-4ee4-8797-947bae9fe6f4","system_id":"levelo_inurba_marseille","lat":43.29029,"lon":5.38117,"is_reserved":false,"is_disabled":false,"rental_uris":{"android":"levelo://app?vid=43efa006-368d-4ee4-8797-947bae9fe6f4","ios":"levelo://app?vid=43efa006-368d-4ee4-8797-947bae9fe6f4"},"vehicle_type_id":"4","last_reported":1740557565,"current_range_meters":14800,"station_id":"ce4bh4p2rcd13ifvqe1g","pricing_plan_id":"cebpf4jnsgd1na2vs0mg"},{"bike_id":"d0801915-0de0-4f9d-9726-750b42c06614","system_id":"levelo_inurba_marseille","lat":43.32112,"lon":5.36772,"is_reserved":false,"is_disabled":false,"rental_uris":{"android":"levelo://app?vid=d0801915-0de0-4f9d-9726-750b42c06614","ios":"levelo://app?vid=d0801915-0de0-4f9d-9726-750b42c06614"},"vehicle_type_id":"4","last_reported":1740557565,"current_range_meters":11200,"station_id":"ce4bhrh2rcd13ifvqhug","pricing_plan_id":"cebpf4jnsgd1na2vs0mg"},{"bike_id":"67ee95a1-160f-49c1-b11e-b3640680cd0d","system_id":"levelo_inurba_marseille","lat":43.32084,"lon":5.36794,"is_reserved":false,"is_disabled":false,"rental_uris":{"android":"levelo://app?vid=67ee95a1-160f-49c1-b11e-b3640680cd0d","ios":"levelo://app?vid=67ee95a1-160f-49c1-b11e-b3640680cd0d"},"vehicle_type_id":"4","last_reported":1740557565,"current_range_meters":11600,"station_id":"ce4bhrh2rcd13ifvqhug","pricing_plan_id":"cebpf4jnsgd1na2vs0mg"},{"bike_id":"b6a4cfb9-fdd3-4bf6-9402-2e45d150b5a9","system_id":"levelo_inurba_marseille","lat":43.31757,"lon":5.39032,"is_reserved":false,"is_disabled":false,"rental_uris":{"android":"levelo://app?vid=b6a4cfb9-fdd3-4bf6-9402-2e45d150b5a9","ios":"levelo://app?vid=b6a4cfb9-fdd3-4bf6-9402-2e45d150b5a9"},"vehicle_type_id":"4","last_reported":1740557565,"current_range_meters":11600,"station_id":"ce4bhqp2rcd13ifvqhng","pricing_plan_id":"cebpf4jnsgd1na2vs0mg"},{"bike_id":"2c4964c4-716a-4f90-842d-fd947ad4e3eb","system_id":"levelo_inurba_marseille","lat":43.29019,"lon":5.37798,"is_reserved":false,"is_disabled":false,"rental_uris":{"android":"levelo://app?vid=2c4964c4-716a-4f90-842d-fd947ad4e3eb","ios":"levelo://app?vid=2c4964c4-716a-4f90-842d-fd947ad4e3eb"},"vehicle_type_id":"4","last_reported":1740557565,"current_range_meters":10800,"station_id":"ce4bh9p2rcd13ifvqed0","pricing_plan_id":"cebpf4jnsgd1na2vs0mg"},{"bike_id":"581d5065-5cc7-4bcd-8b11-86fddef42c75","system_id":"levelo_inurba_marseille","lat":43.30914,"lon":5.36851,"is_reserved":false,"is_disabled":false,"rental_uris":{"android":"levelo://app?vid=581d5065-5cc7-4bcd-8b11-86fddef42c75","ios":"levelo://app?vid=581d5065-5cc7-4bcd-8b11-86fddef42c75"},"vehicle_type_id":"4","last_reported":1740557565,"current_range_meters":11200,"station_id":"ce4bgn92rcd13ifvqbvg","pricing_plan_id":"cebpf4jnsgd1na2vs0mg"},{"bike_id":"93c46a23-b3f4-41ca-bf17-176901be15e0","system_id":"levelo_inurba_marseille","lat":43.28271,"lon":5.3506,"is_reserved":false,"is_disabled":false,"rental_uris":{"android":"levelo://app?vid=93c46a23-b3f4-41ca-bf17-176901be15e0","ios":"levelo://app?vid=93c46a23-b3f4-41ca-bf17-176901be15e0"},"vehicle_type_id":"4","last_reported":1740557565,"current_range_meters":11200,"station_id":"ce4bhbp2rcd13ifvqerg","pricing_plan_id":"cebpf4jnsgd1na2vs0mg"},{"bike_id":"62fc71ec-18de-4079-8c83-2e6318c4fee3","system_id":"levelo_inurba_marseille","lat":43.28356,"lon":5.38643,"is_reserved":false,"is_disabled":false,"rental_uris":{"android":"levelo://app?vid=62fc71ec-18de-4079-8c83-2e6318c4fee3","ios":"levelo://app?vid=62fc71ec-18de-4079-8c83-2e6318c4fee3"},"vehicle_type_id":"4","last_reported":1740557565,"current_range_meters":12000,"station_id":"ce4bh492rcd13ifvqdvg","pricing_plan_id":"cebpf4jnsgd1na2vs0mg"},{"bike_id":"91c5d31b-54af-460a-b0c6-f46713b2db0a","system_id":"levelo_inurba_marseille","lat":43.257147,"lon":5.410753,"is_reserved":false,"is_disabled":false,"rental_uris":{"android":"levelo://app?vid=91c5d31b-54af-460a-b0c6-f46713b2db0a","ios":"levelo://app?vid=91c5d31b-54af-460a-b0c6-f46713b2db0a"},"vehicle_type_id":"4","last_reported":1740557565,"current_range_meters":12000,"station_id":"ce4bhkp2rcd13ifvqgd0","pricing_plan_id":"cebpf4jnsgd1na2vs0mg"},{"bike_id":"faa99684-7aa3-42bd-b0aa-73e57405eff8","system_id":"levelo_inurba_marseille","lat":43.29356,"lon":5.37851,"is_reserved":false,"is_disabled":false,"rental_uris":{"android":"levelo://app?vid=faa99684-7aa3-42bd-b0aa-73e57405eff8","ios":"levelo://app?vid=faa99684-7aa3-42bd-b0aa-73e57405eff8"},"vehicle_type_id":"4","last_reported":1740557565,"current_range_meters":12400,"station_id":"ce4bgjh2rcd13ifvqbf0","pricing_plan_id":"cebpf4jnsgd1na2vs0mg"},{"bike_id":"10b28a6b-604b-41ed-9116-436f5ebf413b","system_id":"levelo_inurba_marseille","lat":43.30939,"lon":5.3904,"is_reserved":false,"is_disabled":false,"rental_uris":{"android":"levelo://app?vid=10b28a6b-604b-41ed-9116-436f5ebf413b","ios":"levelo://app?vid=10b28a6b-604b-41ed-9116-436f5ebf413b"},"vehicle_type_id":"4","last_reported":1740557565,"current_range_meters":12400,"station_id":"ce4bgup2rcd13ifvqco0","pricing_plan_id":"cebpf4jnsgd1na2vs0mg"},{"bike_id":"88bfa930-974d-4a47-bf7d-f57812786c88","system_id":"levelo_inurba_marseille","lat":43.27434,"lon":5.39403,"is_reserved":false,"is_disabled":false,"rental_uris":{"android":"levelo://app?vid=88bfa930-974d-4a47-bf7d-f57812786c88","ios":"levelo://app?vid=88bfa930-974d-4a47-bf7d-f57812786c88"},"vehicle_type_id":"4","last_reported":1740557565,"current_range_meters":6800,"station_id":"ce4bhdp2rcd13ifvqf20","pricing_plan_id":"cebpf4jnsgd1na2vs0mg"},{"bike_id":"0b2f5009-1e4e-4593-8abd-b74dc1937c26","system_id":"levelo_inurba_marseille","lat":43.23163,"lon":5.40039,"is_reserved":false,"is_disabled":false,"rental_uris":{"android":"levelo://app?vid=0b2f5009-1e4e-4593-8abd-b74dc1937c26","ios":"levelo://app?vid=0b2f5009-1e4e-4593-8abd-b74dc1937c26"},"vehicle_type_id":"4","last_reported":1740557565,"current_range_meters":12800,"station_id":"ce4bhn12rcd13ifvqgqg","pricing_plan_id":"cebpf4jnsgd1na2vs0mg"},{"bike_id":"6044aef5-0b09-4567-92e4-8e30f7b19c24","system_id":"levelo_inurba_marseille","lat":43.28476,"lon":5.38419,"is_reserved":false,"is_disabled":false,"rental_uris":{"android":"levelo://app?vid=6044aef5-0b09-4567-92e4-8e30f7b19c24","ios":"levelo://app?vid=6044aef5-0b09-4567-92e4-8e30f7b19c24"},"vehicle_type_id":"4","last_reported":1740557565,"current_range_meters":13600,"station_id":"ce4bh512rcd13ifvqe3g","pricing_plan_id":"cebpf4jnsgd1na2vs0mg"},{"bike_id":"b426a55b-6079-4410-bdcf-64a0360c349f","system_id":"levelo_inurba_marseille","lat":43.28423,"lon":5.34987,"is_reserved":false,"is_disabled":false,"rental_uris":{"android":"levelo://app?vid=b426a55b-6079-4410-bdcf-64a0360c349f","ios":"levelo://app?vid=b426a55b-6079-4410-bdcf-64a0360c349f"},"vehicle_type_id":"4","last_reported":1740557565,"current_range_meters":13600,"station_id":"ce4bhbh2rcd13ifvqepg","pricing_plan_id":"cebpf4jnsgd1na2vs0mg"},{"bike_id":"6544427c-4ad2-4d31-bf03-c4d17c5f3bfe","system_id":"levelo_inurba_marseille","lat":43.26944,"lon":5.38637,"is_reserved":false,"is_disabled":false,"rental_uris":{"android":"levelo://app?vid=6544427c-4ad2-4d31-bf03-c4d17c5f3bfe","ios":"levelo://app?vid=6544427c-4ad2-4d31-bf03-c4d17c5f3bfe"},"vehicle_type_id":"4","last_reported":1740557565,"current_range_meters":13600,"station_id":"ce4bhh92rcd13ifvqfh0","pricing_plan_id":"cebpf4jnsgd1na2vs0mg"},{"bike_id":"927b81cc-cd8d-4819-9f52-27bfd72e5126","system_id":"levelo_inurba_marseille","lat":43.29072,"lon":5.37177,"is_reserved":false,"is_disabled":false,"rental_uris":{"android":"levelo://app?vid=927b81cc-cd8d-4819-9f52-27bfd72e5126","ios":"levelo://app?vid=927b81cc-cd8d-4819-9f52-27bfd72e5126"},"vehicle_type_id":"4","last_reported":1740557565,"current_range_meters":13600,"station_id":"ce4bh5p2rcd13ifvqe4g","pricing_plan_id":"cebpf4jnsgd1na2vs0mg"},{"bike_id":"776c47a9-dd32-41b7-80b2-d00a11229cfd","system_id":"levelo_inurba_marseille","lat":43.26679,"lon":5.38271,"is_reserved":false,"is_disabled":false,"rental_uris":{"android":"levelo://app?vid=776c47a9-dd32-41b7-80b2-d00a11229cfd","ios":"levelo://app?vid=776c47a9-dd32-41b7-80b2-d00a11229cfd"},"vehicle_type_id":"4","last_reported":1740557565,"current_range_meters":15200,"station_id":"ce4bhg92rcd13ifvqf90","pricing_plan_id":"cebpf4jnsgd1na2vs0mg"},{"bike_id":"1e5ac813-058c-490f-82bd-294165363f6f","system_id":"levelo_inurba_marseille","lat":43.28716,"lon":5.37945,"is_reserved":false,"is_disabled":false,"rental_uris":{"android":"levelo://app?vid=1e5ac813-058c-490f-82bd-294165363f6f","ios":"levelo://app?vid=1e5ac813-058c-490f-82bd-294165363f6f"},"vehicle_type_id":"4","last_reported":1740557565,"current_range_meters":13600,"station_id":"ce4bh9p2rcd13ifvqec0","pricing_plan_id":"cebpf4jnsgd1na2vs0mg"},{"bike_id":"32dbdfc6-9a16-48f7-91d3-22f95b0ebdc9","system_id":"levelo_inurba_marseille","lat":43.29576,"lon":5.37502,"is_reserved":false,"is_disabled":false,"rental_uris":{"android":"levelo://app?vid=32dbdfc6-9a16-48f7-91d3-22f95b0ebdc9","ios":"levelo://app?vid=32dbdfc6-9a16-48f7-91d3-22f95b0ebdc9"},"vehicle_type_id":"4","last_reported":1740557565,"current_range_meters":14400,"station_id":"ce4bgh92rcd13ifvqb50","pricing_plan_id":"cebpf4jnsgd1na2vs0mg"},{"bike_id":"652f540e-5bd9-4b40-b408-aa42275d7a13","system_id":"levelo_inurba_marseille","lat":43.28268,"lon":5.35057,"is_reserved":false,"is_disabled":false,"rental_uris":{"android":"levelo://app?vid=652f540e-5bd9-4b40-b408-aa42275d7a13","ios":"levelo://app?vid=652f540e-5bd9-4b40-b408-aa42275d7a13"},"vehicle_type_id":"4","last_reported":1740557565,"current_range_meters":14400,"station_id":"ce4bhbp2rcd13ifvqerg","pricing_plan_id":"cebpf4jnsgd1na2vs0mg"},{"bike_id":"56c90c05-21dd-4258-af01-641c62e92e64","system_id":"levelo_inurba_marseille","lat":43.28649,"lon":5.35091,"is_reserved":false,"is_disabled":false,"rental_uris":{"android":"levelo://app?vid=56c90c05-21dd-4258-af01-641c62e92e64","ios":"levelo://app?vid=56c90c05-21dd-4258-af01-641c62e92e64"},"vehicle_type_id":"4","last_reported":1740557565,"current_range_meters":14400,"station_id":"ce4bhch2rcd13ifvqeug","pricing_plan_id":"cebpf4jnsgd1na2vs0mg"},{"bike_id":"1f8fd212-6e49-4507-86eb-4c1e4b5c63bb","system_id":"levelo_inurba_marseille","lat":43.2851,"lon":5.39168,"is_reserved":false,"is_disabled":false,"rental_uris":{"android":"levelo://app?vid=1f8fd212-6e49-4507-86eb-4c1e4b5c63bb","ios":"levelo://app?vid=1f8fd212-6e49-4507-86eb-4c1e4b5c63bb"},"vehicle_type_id":"4","last_reported":1740557565,"current_range_meters":14400,"station_id":"","pricing_plan_id":"cebpf4jnsgd1na2vs0mg"},{"bike_id":"5deccfe0-673a-4db9-9aec-8048e78299d1","system_id":"levelo_inurba_marseille","lat":43.29084,"lon":5.37165,"is_reserved":false,"is_disabled":false,"rental_uris":{"android":"levelo://app?vid=5deccfe0-673a-4db9-9aec-8048e78299d1","ios":"levelo://app?vid=5deccfe0-673a-4db9-9aec-8048e78299d1"},"vehicle_type_id":"4","last_reported":1740557565,"current_range_meters":14800,"station_id":"ce4bh5p2rcd13ifvqe4g","pricing_plan_id":"cebpf4jnsgd1na2vs0mg"},{"bike_id":"f3887607-fd2f-4f52-92a3-a468a3f6c7d5","system_id":"levelo_inurba_marseille","lat":43.273919,"lon":5.36242,"is_reserved":false,"is_disabled":false,"rental_uris":{"android":"levelo://app?vid=f3887607-fd2f-4f52-92a3-a468a3f6c7d5","ios":"levelo://app?vid=f3887607-fd2f-4f52-92a3-a468a3f6c7d5"},"vehicle_type_id":"4","last_reported":1740557565,"current_range_meters":14400,"station_id":"ce4bhbh2rcd13ifvqeo0","pricing_plan_id":"cebpf4jnsgd1na2vs0mg"},{"bike_id":"b7305dfb-e788-46ec-8e0d-868880f9abcc","system_id":"levelo_inurba_marseille","lat":43.30132,"lon":5.37453,"is_reserved":false,"is_disabled":false,"rental_uris":{"android":"levelo://app?vid=b7305dfb-e788-46ec-8e0d-868880f9abcc","ios":"levelo://app?vid=b7305dfb-e788-46ec-8e0d-868880f9abcc"},"vehicle_type_id":"4","last_reported":1740557565,"current_range_meters":14000,"station_id":"ce4bgs92rcd13ifvqcc0","pricing_plan_id":"cebpf4jnsgd1na2vs0mg"},{"bike_id":"0e02e91c-0d7a-41e4-9d58-37bd8f9106d1","system_id":"levelo_inurba_marseille","lat":43.24179,"lon":5.39732,"is_reserved":false,"is_disabled":false,"rental_uris":{"android":"levelo://app?vid=0e02e91c-0d7a-41e4-9d58-37bd8f9106d1","ios":"levelo://app?vid=0e02e91c-0d7a-41e4-9d58-37bd8f9106d1"},"vehicle_type_id":"4","last_reported":1740557565,"current_range_meters":14400,"station_id":"ce4bhn12rcd13ifvqgpg","pricing_plan_id":"cebpf4jnsgd1na2vs0mg"},{"bike_id":"ae22bd30-ab33-4463-8cd4-1fd39b5d41bc","system_id":"levelo_inurba_marseille","lat":43.30586,"lon":5.36477,"is_reserved":false,"is_disabled":false,"rental_uris":{"android":"levelo://app?vid=ae22bd30-ab33-4463-8cd4-1fd39b5d41bc","ios":"levelo://app?vid=ae22bd30-ab33-4463-8cd4-1fd39b5d41bc"},"vehicle_type_id":"4","last_reported":1740557565,"current_range_meters":14800,"station_id":"ce4bgs12rcd13ifvqcag","pricing_plan_id":"cebpf4jnsgd1na2vs0mg"},{"bike_id":"4a17589c-288a-4fe3-bcca-b67dceeddf97","system_id":"levelo_inurba_marseille","lat":43.25931,"lon":5.40911,"is_reserved":false,"is_disabled":false,"rental_uris":{"android":"levelo://app?vid=4a17589c-288a-4fe3-bcca-b67dceeddf97","ios":"levelo://app?vid=4a17589c-288a-4fe3-bcca-b67dceeddf97"},"vehicle_type_id":"4","last_reported":1740557565,"current_range_meters":14800,"station_id":"ce4bhm92rcd13ifvqglg","pricing_plan_id":"cebpf4jnsgd1na2vs0mg"},{"bike_id":"b8779f08-75d5-4e01-9cda-7c898988967c","system_id":"levelo_inurba_marseille","lat":43.25919,"lon":5.40855,"is_reserved":false,"is_disabled":false,"rental_uris":{"android":"levelo://app?vid=b8779f08-75d5-4e01-9cda-7c898988967c","ios":"levelo://app?vid=b8779f08-75d5-4e01-9cda-7c898988967c"},"vehicle_type_id":"4","last_reported":1740557565,"current_range_meters":14800,"station_id":"ce4bhm92rcd13ifvqglg","pricing_plan_id":"cebpf4jnsgd1na2vs0mg"},{"bike_id":"a258e744-c3f4-45f9-a939-120ff6639dcc","system_id":"levelo_inurba_marseille","lat":43.29958,"lon":5.38505,"is_reserved":false,"is_disabled":false,"rental_uris":{"android":"levelo://app?vid=a258e744-c3f4-45f9-a939-120ff6639dcc","ios":"levelo://app?vid=a258e744-c3f4-45f9-a939-120ff6639dcc"},"vehicle_type_id":"4","last_reported":1740557565,"current_range_meters":14400,"station_id":"ce4bgj92rcd13ifvqbd0","pricing_plan_id":"cebpf4jnsgd1na2vs0mg"},{"bike_id":"ad9571bc-5194-4f71-90ef-f1cb0835f36e","system_id":"levelo_inurba_marseille","lat":43.25499,"lon":5.37655,"is_reserved":false,"is_disabled":false,"rental_uris":{"android":"levelo://app?vid=ad9571bc-5194-4f71-90ef-f1cb0835f36e","ios":"levelo://app?vid=ad9571bc-5194-4f71-90ef-f1cb0835f36e"},"vehicle_type_id":"4","last_reported":1740557565,"current_range_meters":14800,"station_id":"ce4bhh12rcd13ifvqff0","pricing_plan_id":"cebpf4jnsgd1na2vs0mg"},{"bike_id":"00ed27c2-66ec-48a6-a97d-b4f8857ddc06","system_id":"levelo_inurba_marseille","lat":43.28292,"lon":5.35087,"is_reserved":false,"is_disabled":false,"rental_uris":{"android":"levelo://app?vid=00ed27c2-66ec-48a6-a97d-b4f8857ddc06","ios":"levelo://app?vid=00ed27c2-66ec-48a6-a97d-b4f8857ddc06"},"vehicle_type_id":"4","last_reported":1740557565,"current_range_meters":14800,"station_id":"ce4bhbp2rcd13ifvqerg","pricing_plan_id":"cebpf4jnsgd1na2vs0mg"},{"bike_id":"25411262-23d1-41bb-a382-a545d4af1ec3","system_id":"levelo_inurba_marseille","lat":43.25122,"lon":5.40329,"is_reserved":false,"is_disabled":false,"rental_uris":{"android":"levelo://app?vid=25411262-23d1-41bb-a382-a545d4af1ec3","ios":"levelo://app?vid=25411262-23d1-41bb-a382-a545d4af1ec3"},"vehicle_type_id":"4","last_reported":1740557565,"current_range_meters":15200,"station_id":"ce4bhlh2rcd13ifvqgig","pricing_plan_id":"cebpf4jnsgd1na2vs0mg"},{"bike_id":"02028f5d-7181-4e7f-80ba-abb06cf96801","system_id":"levelo_inurba_marseille","lat":43.28405,"lon":5.34993,"is_reserved":false,"is_disabled":false,"rental_uris":{"android":"levelo://app?vid=02028f5d-7181-4e7f-80ba-abb06cf96801","ios":"levelo://app?vid=02028f5d-7181-4e7f-80ba-abb06cf96801"},"vehicle_type_id":"4","last_reported":1740557565,"current_range_meters":15200,"station_id":"ce4bhbh2rcd13ifvqepg","pricing_plan_id":"cebpf4jnsgd1na2vs0mg"},{"bike_id":"b3b7c115-575b-4239-8c18-44054db2acb7","system_id":"levelo_inurba_marseille","lat":43.293028,"lon":5.37456,"is_reserved":false,"is_disabled":false,"rental_uris":{"android":"levelo://app?vid=b3b7c115-575b-4239-8c18-44054db2acb7","ios":"levelo://app?vid=b3b7c115-575b-4239-8c18-44054db2acb7"},"vehicle_type_id":"4","last_reported":1740557565,"current_range_meters":14800,"station_id":"ce4bgi12rcd13ifvqb70","pricing_plan_id":"cebpf4jnsgd1na2vs0mg"},{"bike_id":"f66913d8-adc8-4497-b81a-8613461ae8a9","system_id":"levelo_inurba_marseille","lat":43.28419,"lon":5.34987,"is_reserved":false,"is_disabled":false,"rental_uris":{"android":"levelo://app?vid=f66913d8-adc8-4497-b81a-8613461ae8a9","ios":"levelo://app?vid=f66913d8-adc8-4497-b81a-8613461ae8a9"},"vehicle_type_id":"4","last_reported":1740557565,"current_range_meters":15200,"station_id":"ce4bhbh2rcd13ifvqepg","pricing_plan_id":"cebpf4jnsgd1na2vs0mg"},{"bike_id":"18730abb-cb2f-4488-bd8a-8d191cf255bd","system_id":"levelo_inurba_marseille","lat":43.24079,"lon":5.37764,"is_reserved":false,"is_disabled":false,"rental_uris":{"android":"levelo://app?vid=18730abb-cb2f-4488-bd8a-8d191cf255bd","ios":"levelo://app?vid=18730abb-cb2f-4488-bd8a-8d191cf255bd"},"vehicle_type_id":"4","last_reported":1740557565,"current_range_meters":15200,"station_id":"ce4bhnp2rcd13ifvqgvg","pricing_plan_id":"cebpf4jnsgd1na2vs0mg"},{"bike_id":"76fdf9d3-5524-4c25-9632-1a312033a49a","system_id":"levelo_inurba_marseille","lat":43.2956,"lon":5.37492,"is_reserved":false,"is_disabled":false,"rental_uris":{"android":"levelo://app?vid=76fdf9d3-5524-4c25-9632-1a312033a49a","ios":"levelo://app?vid=76fdf9d3-5524-4c25-9632-1a312033a49a"},"vehicle_type_id":"4","last_reported":1740557565,"current_range_meters":14400,"station_id":"ce4bgjh2rcd13ifvqbf0","pricing_plan_id":"cebpf4jnsgd1na2vs0mg"},{"bike_id":"620faf8f-9860-4e84-b6cd-4559a0b9a89c","system_id":"levelo_inurba_marseille","lat":43.32466,"lon":5.36553,"is_reserved":false,"is_disabled":false,"rental_uris":{"android":"levelo://app?vid=620faf8f-9860-4e84-b6cd-4559a0b9a89c","ios":"levelo://app?vid=620faf8f-9860-4e84-b6cd-4559a0b9a89c"},"vehicle_type_id":"4","last_reported":1740557565,"current_range_meters":15200,"station_id":"ce4bhs12rcd13ifvqhvg","pricing_plan_id":"cebpf4jnsgd1na2vs0mg"},{"bike_id":"68a6333b-8059-4aa4-942a-daea6545754b","system_id":"levelo_inurba_marseille","lat":43.29941,"lon":5.38142,"is_reserved":false,"is_disabled":false,"rental_uris":{"android":"levelo://app?vid=68a6333b-8059-4aa4-942a-daea6545754b","ios":"levelo://app?vid=68a6333b-8059-4aa4-942a-daea6545754b"},"vehicle_type_id":"4","last_reported":1740557565,"current_range_meters":15200,"station_id":"ce4bgj12rcd13ifvqbc0","pricing_plan_id":"cebpf4jnsgd1na2vs0mg"},{"bike_id":"1ca5b1d5-5a53-46dd-b1b2-e83fd71df428","system_id":"levelo_inurba_marseille","lat":43.27953,"lon":5.41057,"is_reserved":false,"is_disabled":false,"rental_uris":{"android":"levelo://app?vid=1ca5b1d5-5a53-46dd-b1b2-e83fd71df428","ios":"levelo://app?vid=1ca5b1d5-5a53-46dd-b1b2-e83fd71df428"},"vehicle_type_id":"4","last_reported":1740557565,"current_range_meters":15200,"station_id":"ce4bhnp2rcd13ifvqh0g","pricing_plan_id":"cebpf4jnsgd1na2vs0mg"},{"bike_id":"40bd775e-5ce3-4948-be2f-acfa8e48e7a0","system_id":"levelo_inurba_marseille","lat":43.28616,"lon":5.35125,"is_reserved":false,"is_disabled":false,"rental_uris":{"android":"levelo://app?vid=40bd775e-5ce3-4948-be2f-acfa8e48e7a0","ios":"levelo://app?vid=40bd775e-5ce3-4948-be2f-acfa8e48e7a0"},"vehicle_type_id":"4","last_reported":1740557565,"current_range_meters":15200,"station_id":"ce4bhch2rcd13ifvqeug","pricing_plan_id":"cebpf4jnsgd1na2vs0mg"},{"bike_id":"876d87db-b321-410b-9729-9596ffd5c075","system_id":"levelo_inurba_marseille","lat":43.30465,"lon":5.37907,"is_reserved":false,"is_disabled":false,"rental_uris":{"android":"levelo://app?vid=876d87db-b321-410b-9729-9596ffd5c075","ios":"levelo://app?vid=876d87db-b321-410b-9729-9596ffd5c075"},"vehicle_type_id":"4","last_reported":1740557565,"current_range_meters":16000,"station_id":"ce4bgup2rcd13ifvqcn0","pricing_plan_id":"cebpf4jnsgd1na2vs0mg"},{"bike_id":"7f5dbe42-da8b-47f5-9beb-ac4cf767c9c8","system_id":"levelo_inurba_marseille","lat":43.31227,"lon":5.36825,"is_reserved":false,"is_disabled":false,"rental_uris":{"android":"levelo://app?vid=7f5dbe42-da8b-47f5-9beb-ac4cf767c9c8","ios":"levelo://app?vid=7f5dbe42-da8b-47f5-9beb-ac4cf767c9c8"},"vehicle_type_id":"4","last_reported":1740557565,"current_range_meters":18800,"station_id":"ce4bgl92rcd13ifvqbq0","pricing_plan_id":"cebpf4jnsgd1na2vs0mg"},{"bike_id":"1bd422cb-b0ff-4b77-bdca-898a5b637934","system_id":"levelo_inurba_marseille","lat":43.29605,"lon":5.37712,"is_reserved":false,"is_disabled":false,"rental_uris":{"android":"levelo://app?vid=1bd422cb-b0ff-4b77-bdca-898a5b637934","ios":"levelo://app?vid=1bd422cb-b0ff-4b77-bdca-898a5b637934"},"vehicle_type_id":"4","last_reported":1740557565,"current_range_meters":16000,"station_id":"ce4bgi92rcd13ifvqb90","pricing_plan_id":"cebpf4jnsgd1na2vs0mg"},{"bike_id":"b71bd6d6-170b-4d32-8019-0f5f4edcec6b","system_id":"levelo_inurba_marseille","lat":43.280987,"lon":5.386755,"is_reserved":false,"is_disabled":false,"rental_uris":{"android":"levelo://app?vid=b71bd6d6-170b-4d32-8019-0f5f4edcec6b","ios":"levelo://app?vid=b71bd6d6-170b-4d32-8019-0f5f4edcec6b"},"vehicle_type_id":"4","last_reported":1740557565,"current_range_meters":16000,"station_id":"ce4bhh12rcd13ifvqfg0","pricing_plan_id":"cebpf4jnsgd1na2vs0mg"},{"bike_id":"450b715b-c372-41c8-886d-bad392327f92","system_id":"levelo_inurba_marseille","lat":43.29076,"lon":5.37161,"is_reserved":false,"is_disabled":false,"rental_uris":{"android":"levelo://app?vid=450b715b-c372-41c8-886d-bad392327f92","ios":"levelo://app?vid=450b715b-c372-41c8-886d-bad392327f92"},"vehicle_type_id":"4","last_reported":1740557565,"current_range_meters":15200,"station_id":"ce4bh5p2rcd13ifvqe4g","pricing_plan_id":"cebpf4jnsgd1na2vs0mg"},{"bike_id":"8ea04a0e-93b6-4da6-88e0-da4113c36200","system_id":"levelo_inurba_marseille","lat":43.30289,"lon":5.39202,"is_reserved":false,"is_disabled":false,"rental_uris":{"android":"levelo://app?vid=8ea04a0e-93b6-4da6-88e0-da4113c36200","ios":"levelo://app?vid=8ea04a0e-93b6-4da6-88e0-da4113c36200"},"vehicle_type_id":"4","last_reported":1740557565,"current_range_meters":21600,"station_id":"ce4bgkh2rcd13ifvqbk0","pricing_plan_id":"cebpf4jnsgd1na2vs0mg"},{"bike_id":"f1de0992-68c7-4ed1-bdd1-630b39d23f3a","system_id":"levelo_inurba_marseille","lat":43.291971,"lon":5.358026,"is_reserved":false,"is_disabled":false,"rental_uris":{"android":"levelo://app?vid=f1de0992-68c7-4ed1-bdd1-630b39d23f3a","ios":"levelo://app?vid=f1de0992-68c7-4ed1-bdd1-630b39d23f3a"},"vehicle_type_id":"4","last_reported":1740557565,"current_range_meters":16000,"station_id":"ce4bgi12rcd13ifvqb70","pricing_plan_id":"cebpf4jnsgd1na2vs0mg"},{"bike_id":"41bcbd39-dc6c-4708-80c1-49116771c9e4","system_id":"levelo_inurba_marseille","lat":43.28933,"lon":5.36697,"is_reserved":false,"is_disabled":false,"rental_uris":{"android":"levelo://app?vid=41bcbd39-dc6c-4708-80c1-49116771c9e4","ios":"levelo://app?vid=41bcbd39-dc6c-4708-80c1-49116771c9e4"},"vehicle_type_id":"4","last_reported":1740557565,"current_range_meters":16400,"station_id":"ce4bhap2rcd13ifvqek0","pricing_plan_id":"cebpf4jnsgd1na2vs0mg"},{"bike_id":"6578fd60-843d-47ee-9c6d-63ad8e946af2","system_id":"levelo_inurba_marseille","lat":43.30886,"lon":5.37189,"is_reserved":false,"is_disabled":false,"rental_uris":{"android":"levelo://app?vid=6578fd60-843d-47ee-9c6d-63ad8e946af2","ios":"levelo://app?vid=6578fd60-843d-47ee-9c6d-63ad8e946af2"},"vehicle_type_id":"4","last_reported":1740557565,"current_range_meters":16400,"station_id":"ce4bguh2rcd13ifvqckg","pricing_plan_id":"cebpf4jnsgd1na2vs0mg"},{"bike_id":"f3c1842a-b552-4e04-b90a-c61f62f8a561","system_id":"levelo_inurba_marseille","lat":43.26193,"lon":5.37448,"is_reserved":false,"is_disabled":false,"rental_uris":{"android":"levelo://app?vid=f3c1842a-b552-4e04-b90a-c61f62f8a561","ios":"levelo://app?vid=f3c1842a-b552-4e04-b90a-c61f62f8a561"},"vehicle_type_id":"4","last_reported":1740557565,"current_range_meters":16400,"station_id":"ce4bhgp2rcd13ifvqfc0","pricing_plan_id":"cebpf4jnsgd1na2vs0mg"},{"bike_id":"05a20dee-8eea-406b-b6c2-4def24beef1d","system_id":"levelo_inurba_marseille","lat":43.30463,"lon":5.37913,"is_reserved":false,"is_disabled":false,"rental_uris":{"android":"levelo://app?vid=05a20dee-8eea-406b-b6c2-4def24beef1d","ios":"levelo://app?vid=05a20dee-8eea-406b-b6c2-4def24beef1d"},"vehicle_type_id":"4","last_reported":1740557565,"current_range_meters":16400,"station_id":"ce4bgup2rcd13ifvqcn0","pricing_plan_id":"cebpf4jnsgd1na2vs0mg"},{"bike_id":"0dbfe16e-a5c9-478b-92c2-21eecde69568","system_id":"levelo_inurba_marseille","lat":43.28851,"lon":5.39324,"is_reserved":false,"is_disabled":false,"rental_uris":{"android":"levelo://app?vid=0dbfe16e-a5c9-478b-92c2-21eecde69568","ios":"levelo://app?vid=0dbfe16e-a5c9-478b-92c2-21eecde69568"},"vehicle_type_id":"4","last_reported":1740557565,"current_range_meters":16400,"station_id":"ce4bh2p2rcd13ifvqdi0","pricing_plan_id":"cebpf4jnsgd1na2vs0mg"},{"bike_id":"22d2349d-ce87-429c-a58a-fe756c454790","system_id":"levelo_inurba_marseille","lat":43.29104,"lon":5.38137,"is_reserved":false,"is_disabled":false,"rental_uris":{"android":"levelo://app?vid=22d2349d-ce87-429c-a58a-fe756c454790","ios":"levelo://app?vid=22d2349d-ce87-429c-a58a-fe756c454790"},"vehicle_type_id":"4","last_reported":1740557565,"current_range_meters":15200,"station_id":"ce4bh512rcd13ifvqe2g","pricing_plan_id":"cebpf4jnsgd1na2vs0mg"},{"bike_id":"dde4bb75-96fa-4181-9445-cd7388922872","system_id":"levelo_inurba_marseille","lat":43.30531,"lon":5.36723,"is_reserved":false,"is_disabled":false,"rental_uris":{"android":"levelo://app?vid=dde4bb75-96fa-4181-9445-cd7388922872","ios":"levelo://app?vid=dde4bb75-96fa-4181-9445-cd7388922872"},"vehicle_type_id":"4","last_reported":1740557565,"current_range_meters":16400,"station_id":"ce4bgrp2rcd13ifvqc9g","pricing_plan_id":"cebpf4jnsgd1na2vs0mg"},{"bike_id":"9dc7e2d5-119c-4c57-96cd-7fcca21c9c6c","system_id":"levelo_inurba_marseille","lat":43.32479,"lon":5.36571,"is_reserved":false,"is_disabled":false,"rental_uris":{"android":"levelo://app?vid=9dc7e2d5-119c-4c57-96cd-7fcca21c9c6c","ios":"levelo://app?vid=9dc7e2d5-119c-4c57-96cd-7fcca21c9c6c"},"vehicle_type_id":"4","last_reported":1740557565,"current_range_meters":16400,"station_id":"ce4bhs12rcd13ifvqhvg","pricing_plan_id":"cebpf4jnsgd1na2vs0mg"},{"bike_id":"8d814be1-0a5b-427d-b58a-926a7a1415f0","system_id":"levelo_inurba_marseille","lat":43.240814,"lon":5.377495,"is_reserved":false,"is_disabled":false,"rental_uris":{"android":"levelo://app?vid=8d814be1-0a5b-427d-b58a-926a7a1415f0","ios":"levelo://app?vid=8d814be1-0a5b-427d-b58a-926a7a1415f0"},"vehicle_type_id":"4","last_reported":1740557565,"current_range_meters":16400,"station_id":"ce4bhih2rcd13ifvqfr0","pricing_plan_id":"cebpf4jnsgd1na2vs0mg"},{"bike_id":"3fefd632-ceb6-4e6f-ac3b-6af1be92e2b5","system_id":"levelo_inurba_marseille","lat":43.23194,"lon":5.39973,"is_reserved":false,"is_disabled":false,"rental_uris":{"android":"levelo://app?vid=3fefd632-ceb6-4e6f-ac3b-6af1be92e2b5","ios":"levelo://app?vid=3fefd632-ceb6-4e6f-ac3b-6af1be92e2b5"},"vehicle_type_id":"4","last_reported":1740557565,"current_range_meters":16400,"station_id":"ce4bhn12rcd13ifvqgqg","pricing_plan_id":"cebpf4jnsgd1na2vs0mg"},{"bike_id":"04b17830-3c9d-49a3-8254-3247c395e42f","system_id":"levelo_inurba_marseille","lat":43.32367,"lon":5.38895,"is_reserved":false,"is_disabled":false,"rental_uris":{"android":"levelo://app?vid=04b17830-3c9d-49a3-8254-3247c395e42f","ios":"levelo://app?vid=04b17830-3c9d-49a3-8254-3247c395e42f"},"vehicle_type_id":"4","last_reported":1740557565,"current_range_meters":16400,"station_id":"","pricing_plan_id":"cebpf4jnsgd1na2vs0mg"},{"bike_id":"0561577e-2525-455e-92b8-6da786fc4574","system_id":"levelo_inurba_marseille","lat":43.2816,"lon":5.42689,"is_reserved":false,"is_disabled":false,"rental_uris":{"android":"levelo://app?vid=0561577e-2525-455e-92b8-6da786fc4574","ios":"levelo://app?vid=0561577e-2525-455e-92b8-6da786fc4574"},"vehicle_type_id":"4","last_reported":1740557565,"current_range_meters":16400,"station_id":"ce4bhnh2rcd13ifvqgug","pricing_plan_id":"cebpf4jnsgd1na2vs0mg"},{"bike_id":"aada47c6-4b3a-41ce-97dd-a63194114a19","system_id":"levelo_inurba_marseille","lat":43.31261,"lon":5.40183,"is_reserved":false,"is_disabled":true,"rental_uris":{"android":"levelo://app?vid=aada47c6-4b3a-41ce-97dd-a63194114a19","ios":"levelo://app?vid=aada47c6-4b3a-41ce-97dd-a63194114a19"},"vehicle_type_id":"4","last_reported":1740557565,"current_range_meters":16400,"station_id":"ce4bh092rcd13ifvqd30","pricing_plan_id":"cebpf4jnsgd1na2vs0mg"},{"bike_id":"17973595-0627-4cbe-be09-6d52168568c1","system_id":"levelo_inurba_marseille","lat":43.27798,"lon":5.40753,"is_reserved":false,"is_disabled":false,"rental_uris":{"android":"levelo://app?vid=17973595-0627-4cbe-be09-6d52168568c1","ios":"levelo://app?vid=17973595-0627-4cbe-be09-6d52168568c1"},"vehicle_type_id":"4","last_reported":1740557565,"current_range_meters":16400,"station_id":"ce4bhnh2rcd13ifvqgtg","pricing_plan_id":"cebpf4jnsgd1na2vs0mg"},{"bike_id":"dc340825-e06e-40ac-ae46-973db298fabe","system_id":"levelo_inurba_marseille","lat":43.2668,"lon":5.38271,"is_reserved":false,"is_disabled":false,"rental_uris":{"android":"levelo://app?vid=dc340825-e06e-40ac-ae46-973db298fabe","ios":"levelo://app?vid=dc340825-e06e-40ac-ae46-973db298fabe"},"vehicle_type_id":"4","last_reported":1740557565,"current_range_meters":16400,"station_id":"ce4bhg92rcd13ifvqf90","pricing_plan_id":"cebpf4jnsgd1na2vs0mg"},{"bike_id":"19e4983d-b74d-4524-9c14-80fb6905f947","system_id":"levelo_inurba_marseille","lat":43.32105,"lon":5.36767,"is_reserved":false,"is_disabled":false,"rental_uris":{"android":"levelo://app?vid=19e4983d-b74d-4524-9c14-80fb6905f947","ios":"levelo://app?vid=19e4983d-b74d-4524-9c14-80fb6905f947"},"vehicle_type_id":"4","last_reported":1740557565,"current_range_meters":16400,"station_id":"ce4bhrh2rcd13ifvqhug","pricing_plan_id":"cebpf4jnsgd1na2vs0mg"},{"bike_id":"b196e3fe-fced-4e6c-8983-78e64578be87","system_id":"levelo_inurba_marseille","lat":43.2804,"lon":5.3695,"is_reserved":false,"is_disabled":false,"rental_uris":{"android":"levelo://app?vid=b196e3fe-fced-4e6c-8983-78e64578be87","ios":"levelo://app?vid=b196e3fe-fced-4e6c-8983-78e64578be87"},"vehicle_type_id":"4","last_reported":1740557565,"current_range_meters":16800,"station_id":"ce4bha12rcd13ifvqef0","pricing_plan_id":"cebpf4jnsgd1na2vs0mg"},{"bike_id":"a67652f3-9c19-4329-a7eb-a2feb0770574","system_id":"levelo_inurba_marseille","lat":43.24068,"lon":5.37767,"is_reserved":false,"is_disabled":false,"rental_uris":{"android":"levelo://app?vid=a67652f3-9c19-4329-a7eb-a2feb0770574","ios":"levelo://app?vid=a67652f3-9c19-4329-a7eb-a2feb0770574"},"vehicle_type_id":"4","last_reported":1740557565,"current_range_meters":16800,"station_id":"ce4bhnp2rcd13ifvqgvg","pricing_plan_id":"cebpf4jnsgd1na2vs0mg"},{"bike_id":"631b9677-c04d-4284-a101-d6062f06bd34","system_id":"levelo_inurba_marseille","lat":43.29808,"lon":5.38106,"is_reserved":false,"is_disabled":false,"rental_uris":{"android":"levelo://app?vid=631b9677-c04d-4284-a101-d6062f06bd34","ios":"levelo://app?vid=631b9677-c04d-4284-a101-d6062f06bd34"},"vehicle_type_id":"4","last_reported":1740557565,"current_range_meters":16800,"station_id":"ce4bgip2rcd13ifvqbb0","pricing_plan_id":"cebpf4jnsgd1na2vs0mg"},{"bike_id":"8eae58ae-89bd-445d-bda4-d953222b55f1","system_id":"levelo_inurba_marseille","lat":43.28042,"lon":5.36939,"is_reserved":false,"is_disabled":false,"rental_uris":{"android":"levelo://app?vid=8eae58ae-89bd-445d-bda4-d953222b55f1","ios":"levelo://app?vid=8eae58ae-89bd-445d-bda4-d953222b55f1"},"vehicle_type_id":"4","last_reported":1740557565,"current_range_meters":16800,"station_id":"ce4bha12rcd13ifvqef0","pricing_plan_id":"cebpf4jnsgd1na2vs0mg"},{"bike_id":"c653bffd-d711-4c0b-9be3-ba0ded1a55f8","system_id":"levelo_inurba_marseille","lat":43.27961,"lon":5.41033,"is_reserved":false,"is_disabled":false,"rental_uris":{"android":"levelo://app?vid=c653bffd-d711-4c0b-9be3-ba0ded1a55f8","ios":"levelo://app?vid=c653bffd-d711-4c0b-9be3-ba0ded1a55f8"},"vehicle_type_id":"4","last_reported":1740557565,"current_range_meters":16800,"station_id":"ce4bhnp2rcd13ifvqh0g","pricing_plan_id":"cebpf4jnsgd1na2vs0mg"},{"bike_id":"b54c0c77-a568-4419-8a53-721954a3d5ef","system_id":"levelo_inurba_marseille","lat":43.27699,"lon":5.41548,"is_reserved":false,"is_disabled":false,"rental_uris":{"android":"levelo://app?vid=b54c0c77-a568-4419-8a53-721954a3d5ef","ios":"levelo://app?vid=b54c0c77-a568-4419-8a53-721954a3d5ef"},"vehicle_type_id":"4","last_reported":1740557565,"current_range_meters":16800,"station_id":"","pricing_plan_id":"cebpf4jnsgd1na2vs0mg"},{"bike_id":"3a3a98eb-0bce-4b49-abea-c8820746db3d","system_id":"levelo_inurba_marseille","lat":43.29617,"lon":5.37156,"is_reserved":false,"is_disabled":false,"rental_uris":{"android":"levelo://app?vid=3a3a98eb-0bce-4b49-abea-c8820746db3d","ios":"levelo://app?vid=3a3a98eb-0bce-4b49-abea-c8820746db3d"},"vehicle_type_id":"4","last_reported":1740557565,"current_range_meters":17200,"station_id":"ce4bgnh2rcd13ifvqc0g","pricing_plan_id":"cebpf4jnsgd1na2vs0mg"},{"bike_id":"4a1ad47f-2773-4897-8cba-c67679113501","system_id":"levelo_inurba_marseille","lat":43.289628,"lon":5.365148,"is_reserved":false,"is_disabled":false,"rental_uris":{"android":"levelo://app?vid=4a1ad47f-2773-4897-8cba-c67679113501","ios":"levelo://app?vid=4a1ad47f-2773-4897-8cba-c67679113501"},"vehicle_type_id":"4","last_reported":1740557565,"current_range_meters":16400,"station_id":"ce4bgs12rcd13ifvqcag","pricing_plan_id":"cebpf4jnsgd1na2vs0mg"},{"bike_id":"3f1a44c4-7ef4-43f5-9e69-b00932aede85","system_id":"levelo_inurba_marseille","lat":43.31524,"lon":5.38047,"is_reserved":false,"is_disabled":false,"rental_uris":{"android":"levelo://app?vid=3f1a44c4-7ef4-43f5-9e69-b00932aede85","ios":"levelo://app?vid=3f1a44c4-7ef4-43f5-9e69-b00932aede85"},"vehicle_type_id":"4","last_reported":1740557565,"current_range_meters":16800,"station_id":"ce4bhsp2rcd13ifvqi50","pricing_plan_id":"cebpf4jnsgd1na2vs0mg"},{"bike_id":"658e10dc-9ec8-4c82-a86c-f0d37535b96d","system_id":"levelo_inurba_marseille","lat":43.23187,"lon":5.39971,"is_reserved":false,"is_disabled":false,"rental_uris":{"android":"levelo://app?vid=658e10dc-9ec8-4c82-a86c-f0d37535b96d","ios":"levelo://app?vid=658e10dc-9ec8-4c82-a86c-f0d37535b96d"},"vehicle_type_id":"4","last_reported":1740557565,"current_range_meters":17200,"station_id":"ce4bhn12rcd13ifvqgqg","pricing_plan_id":"cebpf4jnsgd1na2vs0mg"},{"bike_id":"38fcaffb-7b27-4a8c-b575-b7c772aad6aa","system_id":"levelo_inurba_marseille","lat":43.27491,"lon":5.42465,"is_reserved":false,"is_disabled":false,"rental_uris":{"android":"levelo://app?vid=38fcaffb-7b27-4a8c-b575-b7c772aad6aa","ios":"levelo://app?vid=38fcaffb-7b27-4a8c-b575-b7c772aad6aa"},"vehicle_type_id":"4","last_reported":1740557565,"current_range_meters":16800,"station_id":"ce4bhn92rcd13ifvqgrg","pricing_plan_id":"cebpf4jnsgd1na2vs0mg"},{"bike_id":"d0eed576-967a-4a22-90f0-1b8c0372f57a","system_id":"levelo_inurba_marseille","lat":43.25017,"lon":5.38935,"is_reserved":false,"is_disabled":false,"rental_uris":{"android":"levelo://app?vid=d0eed576-967a-4a22-90f0-1b8c0372f57a","ios":"levelo://app?vid=d0eed576-967a-4a22-90f0-1b8c0372f57a"},"vehicle_type_id":"4","last_reported":1740557565,"current_range_meters":17200,"station_id":"ce4bhgp2rcd13ifvqfd0","pricing_plan_id":"cebpf4jnsgd1na2vs0mg"},{"bike_id":"7ac82a98-f2e6-4915-922a-da0a36222b9f","system_id":"levelo_inurba_marseille","lat":43.259312,"lon":5.40857,"is_reserved":false,"is_disabled":false,"rental_uris":{"android":"levelo://app?vid=7ac82a98-f2e6-4915-922a-da0a36222b9f","ios":"levelo://app?vid=7ac82a98-f2e6-4915-922a-da0a36222b9f"},"vehicle_type_id":"4","last_reported":1740557565,"current_range_meters":17200,"station_id":"ce4bhm92rcd13ifvqglg","pricing_plan_id":"cebpf4jnsgd1na2vs0mg"},{"bike_id":"d79740e8-2b58-4dab-9092-7c075618d6db","system_id":"levelo_inurba_marseille","lat":43.23194,"lon":5.39978,"is_reserved":false,"is_disabled":false,"rental_uris":{"android":"levelo://app?vid=d79740e8-2b58-4dab-9092-7c075618d6db","ios":"levelo://app?vid=d79740e8-2b58-4dab-9092-7c075618d6db"},"vehicle_type_id":"4","last_reported":1740557565,"current_range_meters":17200,"station_id":"ce4bhn12rcd13ifvqgqg","pricing_plan_id":"cebpf4jnsgd1na2vs0mg"},{"bike_id":"4f078033-1ccf-4cb1-8dc6-47fc9002c401","system_id":"levelo_inurba_marseille","lat":43.27497,"lon":5.42446,"is_reserved":false,"is_disabled":false,"rental_uris":{"android":"levelo://app?vid=4f078033-1ccf-4cb1-8dc6-47fc9002c401","ios":"levelo://app?vid=4f078033-1ccf-4cb1-8dc6-47fc9002c401"},"vehicle_type_id":"4","last_reported":1740557565,"current_range_meters":17200,"station_id":"ce4bhn92rcd13ifvqgrg","pricing_plan_id":"cebpf4jnsgd1na2vs0mg"},{"bike_id":"75886ce9-2965-4560-bc9c-0eb7160bbeed","system_id":"levelo_inurba_marseille","lat":43.24077,"lon":5.37754,"is_reserved":false,"is_disabled":false,"rental_uris":{"android":"levelo://app?vid=75886ce9-2965-4560-bc9c-0eb7160bbeed","ios":"levelo://app?vid=75886ce9-2965-4560-bc9c-0eb7160bbeed"},"vehicle_type_id":"4","last_reported":1740557565,"current_range_meters":17200,"station_id":"ce4bhnp2rcd13ifvqgvg","pricing_plan_id":"cebpf4jnsgd1na2vs0mg"},{"bike_id":"8f3b6311-1465-46a9-8dfe-dac9c732534f","system_id":"levelo_inurba_marseille","lat":43.30897,"lon":5.3706,"is_reserved":false,"is_disabled":false,"rental_uris":{"android":"levelo://app?vid=8f3b6311-1465-46a9-8dfe-dac9c732534f","ios":"levelo://app?vid=8f3b6311-1465-46a9-8dfe-dac9c732534f"},"vehicle_type_id":"4","last_reported":1740557565,"current_range_meters":17600,"station_id":"","pricing_plan_id":"cebpf4jnsgd1na2vs0mg"},{"bike_id":"e3f079e2-0514-4585-916a-633bb3d222c0","system_id":"levelo_inurba_marseille","lat":43.30217,"lon":5.39466,"is_reserved":false,"is_disabled":false,"rental_uris":{"android":"levelo://app?vid=e3f079e2-0514-4585-916a-633bb3d222c0","ios":"levelo://app?vid=e3f079e2-0514-4585-916a-633bb3d222c0"},"vehicle_type_id":"4","last_reported":1740557565,"current_range_meters":17600,"station_id":"ce4bh0p2rcd13ifvqd70","pricing_plan_id":"cebpf4jnsgd1na2vs0mg"},{"bike_id":"d5ef1571-c6b9-4f13-96ed-bfaef3f9a56f","system_id":"levelo_inurba_marseille","lat":43.28941,"lon":5.36392,"is_reserved":false,"is_disabled":true,"rental_uris":{"android":"levelo://app?vid=d5ef1571-c6b9-4f13-96ed-bfaef3f9a56f","ios":"levelo://app?vid=d5ef1571-c6b9-4f13-96ed-bfaef3f9a56f"},"vehicle_type_id":"4","last_reported":1740557565,"current_range_meters":11200,"station_id":"ce4bhc92rcd13ifvqetg","pricing_plan_id":"cebpf4jnsgd1na2vs0mg"},{"bike_id":"9eb63fb4-7dd1-4ed8-8c98-37f9165028cf","system_id":"levelo_inurba_marseille","lat":43.31755,"lon":5.39024,"is_reserved":false,"is_disabled":false,"rental_uris":{"android":"levelo://app?vid=9eb63fb4-7dd1-4ed8-8c98-37f9165028cf","ios":"levelo://app?vid=9eb63fb4-7dd1-4ed8-8c98-37f9165028cf"},"vehicle_type_id":"4","last_reported":1740557565,"current_range_meters":17600,"station_id":"ce4bhqp2rcd13ifvqhng","pricing_plan_id":"cebpf4jnsgd1na2vs0mg"},{"bike_id":"7c2ac46c-f06f-4ddc-8135-c4348d55fa7b","system_id":"levelo_inurba_marseille","lat":43.32473,"lon":5.36569,"is_reserved":false,"is_disabled":false,"rental_uris":{"android":"levelo://app?vid=7c2ac46c-f06f-4ddc-8135-c4348d55fa7b","ios":"levelo://app?vid=7c2ac46c-f06f-4ddc-8135-c4348d55fa7b"},"vehicle_type_id":"4","last_reported":1740557565,"current_range_meters":17200,"station_id":"ce4bhs12rcd13ifvqhvg","pricing_plan_id":"cebpf4jnsgd1na2vs0mg"},{"bike_id":"2c1f1620-b6c5-40b5-80b1-6537474b1478","system_id":"levelo_inurba_marseille","lat":43.29712,"lon":5.36592,"is_reserved":false,"is_disabled":false,"rental_uris":{"android":"levelo://app?vid=2c1f1620-b6c5-40b5-80b1-6537474b1478","ios":"levelo://app?vid=2c1f1620-b6c5-40b5-80b1-6537474b1478"},"vehicle_type_id":"4","last_reported":1740557565,"current_range_meters":17600,"station_id":"ce4bgn12rcd13ifvqbt0","pricing_plan_id":"cebpf4jnsgd1na2vs0mg"},{"bike_id":"d52621a7-0a55-4e5b-8a76-da13389902cc","system_id":"levelo_inurba_marseille","lat":43.25353,"lon":5.42615,"is_reserved":false,"is_disabled":false,"rental_uris":{"android":"levelo://app?vid=d52621a7-0a55-4e5b-8a76-da13389902cc","ios":"levelo://app?vid=d52621a7-0a55-4e5b-8a76-da13389902cc"},"vehicle_type_id":"4","last_reported":1740557565,"current_range_meters":17600,"station_id":"","pricing_plan_id":"cebpf4jnsgd1na2vs0mg"},{"bike_id":"e44aabe8-c568-485f-ad33-5d8c2c106717","system_id":"levelo_inurba_marseille","lat":43.2984,"lon":5.3627,"is_reserved":false,"is_disabled":false,"rental_uris":{"android":"levelo://app?vid=e44aabe8-c568-485f-ad33-5d8c2c106717","ios":"levelo://app?vid=e44aabe8-c568-485f-ad33-5d8c2c106717"},"vehicle_type_id":"4","last_reported":1740557565,"current_range_meters":17600,"station_id":"ce4bgpp2rcd13ifvqc3g","pricing_plan_id":"cebpf4jnsgd1na2vs0mg"},{"bike_id":"f0efcf49-dca5-4aca-a88d-8c0ecd1fd06d","system_id":"levelo_inurba_marseille","lat":43.26785,"lon":5.39411,"is_reserved":false,"is_disabled":false,"rental_uris":{"android":"levelo://app?vid=f0efcf49-dca5-4aca-a88d-8c0ecd1fd06d","ios":"levelo://app?vid=f0efcf49-dca5-4aca-a88d-8c0ecd1fd06d"},"vehicle_type_id":"4","last_reported":1740557565,"current_range_meters":17600,"station_id":"ce4bhh12rcd13ifvqfg0","pricing_plan_id":"cebpf4jnsgd1na2vs0mg"},{"bike_id":"c3d0fefa-5db4-49bd-a964-1a22da440d36","system_id":"levelo_inurba_marseille","lat":43.269559,"lon":5.386313,"is_reserved":false,"is_disabled":true,"rental_uris":{"android":"levelo://app?vid=c3d0fefa-5db4-49bd-a964-1a22da440d36","ios":"levelo://app?vid=c3d0fefa-5db4-49bd-a964-1a22da440d36"},"vehicle_type_id":"4","last_reported":1740557565,"current_range_meters":17600,"station_id":"","pricing_plan_id":"cebpf4jnsgd1na2vs0mg"},{"bike_id":"3819748c-611a-4b5c-ade3-ef3f14039791","system_id":"levelo_inurba_marseille","lat":43.26681,"lon":5.38273,"is_reserved":false,"is_disabled":false,"rental_uris":{"android":"levelo://app?vid=3819748c-611a-4b5c-ade3-ef3f14039791","ios":"levelo://app?vid=3819748c-611a-4b5c-ade3-ef3f14039791"},"vehicle_type_id":"4","last_reported":1740557565,"current_range_meters":18000,"station_id":"ce4bhg92rcd13ifvqf90","pricing_plan_id":"cebpf4jnsgd1na2vs0mg"},{"bike_id":"bc37a9d0-d36c-4507-afca-c32c38867653","system_id":"levelo_inurba_marseille","lat":43.28833,"lon":5.35882,"is_reserved":false,"is_disabled":false,"rental_uris":{"android":"levelo://app?vid=bc37a9d0-d36c-4507-afca-c32c38867653","ios":"levelo://app?vid=bc37a9d0-d36c-4507-afca-c32c38867653"},"vehicle_type_id":"4","last_reported":1740557565,"current_range_meters":18000,"station_id":"ce4bhb12rcd13ifvqem0","pricing_plan_id":"cebpf4jnsgd1na2vs0mg"},{"bike_id":"cb678562-ddfa-4dbd-a135-6f6da8f79745","system_id":"levelo_inurba_marseille","lat":43.24072,"lon":5.37765,"is_reserved":false,"is_disabled":false,"rental_uris":{"android":"levelo://app?vid=cb678562-ddfa-4dbd-a135-6f6da8f79745","ios":"levelo://app?vid=cb678562-ddfa-4dbd-a135-6f6da8f79745"},"vehicle_type_id":"4","last_reported":1740557565,"current_range_meters":18000,"station_id":"ce4bhnp2rcd13ifvqgvg","pricing_plan_id":"cebpf4jnsgd1na2vs0mg"},{"bike_id":"f9eed1e4-1895-44e2-8624-cc9551693ed5","system_id":"levelo_inurba_marseille","lat":43.2985,"lon":5.36291,"is_reserved":false,"is_disabled":false,"rental_uris":{"android":"levelo://app?vid=f9eed1e4-1895-44e2-8624-cc9551693ed5","ios":"levelo://app?vid=f9eed1e4-1895-44e2-8624-cc9551693ed5"},"vehicle_type_id":"4","last_reported":1740557565,"current_range_meters":18000,"station_id":"ce4bgpp2rcd13ifvqc3g","pricing_plan_id":"cebpf4jnsgd1na2vs0mg"},{"bike_id":"26784f1d-016d-42b9-9af0-c70c87c47092","system_id":"levelo_inurba_marseille","lat":43.31517,"lon":5.38049,"is_reserved":false,"is_disabled":false,"rental_uris":{"android":"levelo://app?vid=26784f1d-016d-42b9-9af0-c70c87c47092","ios":"levelo://app?vid=26784f1d-016d-42b9-9af0-c70c87c47092"},"vehicle_type_id":"4","last_reported":1740557565,"current_range_meters":18000,"station_id":"ce4bhsp2rcd13ifvqi50","pricing_plan_id":"cebpf4jnsgd1na2vs0mg"},