{"last_updated":1743602958,"ttl":60,"version":"2.2","data":{"bikes":[{"bike_id":"56b4e6d7-632f-403d-ac34-9911f5ba4e5c","system_id":"levelo_inurba_marseille","lat":43.29535,"lon":5.38532,"is_reserved":false,"is_disabled":false,"rental_uris":{"android":"levelo://app?vid=56b4e6d7-632f-403d-ac34-9911f5ba4e5c","ios":"levelo://app?vid=56b4e6d7-632f-403d-ac34-9911f5ba4e5c"},"vehicle_type_id":"4","last_reported":1743602958,"current_range_meters":2800,"station_id":"ce4bgih2rcd13ifvqba0","pricing_plan_id":"cebpf4jnsgd1na2vs0mg"},{"bike_id":"54abb1c4-83e7-44cd-961f-862637957f12","system_id":"levelo_inurba_marseille","lat":43.28115,"lon":5.37838,"is_reserved":false,"is_disabled":false,"rental_uris":{"android":"levelo://app?vid=54abb1c4-83e7-44cd-961f-862637957f12","ios":"levelo://app?vid=54abb1c4-83e7-44cd-961f-862637957f12"},"vehicle_type_id":"4","last_reported":1743602958,"current_range_meters":3200,"station_id":"ce4bha12rcd13ifvqee0","pricing_plan_id":"cebpf4jnsgd1na2vs0mg"},{"bike_id":"64fdf408-f04b-43ac-9163-06e99e660ab9","system_id":"levelo_inurba_marseille","lat":43.28278,"lon":5.35075,"is_reserved":false,"is_disabled":false,"rental_uris":{"android":"levelo://app?vid=64fdf408-f04b-43ac-9163-06e99e660ab9","ios":"levelo://app?vid=64fdf408-f04b-43ac-9163-06e99e660ab9"},"vehicle_type_id":"4","last_reported":1743602958,"current_range_meters":2800,"station_id":"ce4bhbp2rcd13ifvqerg","pricing_plan_id":"cebpf4jnsgd1na2vs0mg"},{"bike_id":"6b774f37-45b8-41c6-8300-8fe1056801ce","system_id":"levelo_inurba_marseille","lat":43.29513,"lon":5.39046,"is_reserved":false,"is_disabled":false,"rental_uris":{"android":"levelo://app?vid=6b774f37-45b8-41c6-8300-8fe1056801ce","ios":"levelo://app?vid=6b774f37-45b8-41c6-8300-8fe1056801ce"},"vehicle_type_id":"4","last_reported":1743602958,"current_range_meters":3200,"station_id":"ce4bh3p2rcd13ifvqdp0","pricing_plan_id":"cebpf4jnsgd1na2vs0mg"},{"bike_id":"db0d5b6e-5601-4ee8-960d-7937f4574584","system_id":"levelo_inurba_marseille","lat":43.28106,"lon":5.37834,"is_reserved":false,"is_disabled":false,"rental_uris":{"android":"levelo://app?vid=db0d5b6e-5601-4ee8-960d-7937f4574584","ios":"levelo://app?vid=db0d5b6e-5601-4ee8-960d-7937f4574584"},"vehicle_type_id":"4","last_reported":1743602958,"current_range_meters":3200,"station_id":"ce4bha12rcd13ifvqee0","pricing_plan_id":"cebpf4jnsgd1na2vs0mg"},{"bike_id":"f59eeb0e-6999-4f8d-bc96-56a8d5ce5fc9","system_id":"levelo_inurba_marseille","lat":43.30416,"lon":5.41287,"is_reserved":false,"is_disabled":false,"rental_uris":{"android":"levelo://app?vid=f59eeb0e-6999-4f8d-bc96-56a8d5ce5fc9","ios":"levelo://app?vid=f59eeb0e-6999-4f8d-bc96-56a8d5ce5fc9"},"vehicle_type_id":"4","last_reported":1743602958,"current_range_meters":3200,"station_id":"ce4bhop2rcd13ifvqh8g","pricing_plan_id":"cebpf4jnsgd1na2vs0mg"},{"bike_id":"7018c222-b3c9-40cc-b215-7f60e9031f8b","system_id":"levelo_inurba_marseille","lat":43.23152,"lon":5.43711,"is_reserved":false,"is_disabled":false,"rental_uris":{"android":"levelo://app?vid=7018c222-b3c9-40cc-b215-7f60e9031f8b","ios":"levelo://app?vid=7018c222-b3c9-40cc-b215-7f60e9031f8b"},"vehicle_type_id":"4","last_reported":1743602958,"current_range_meters":3200,"station_id":"ce4bhmp2rcd13ifvqgog","pricing_plan_id":"cebpf4jnsgd1na2vs0mg"},{"bike_id":"4ad73676-975d-4eb4-8ab0-34916f3a4594","system_id":"levelo_inurba_marseille","lat":43.30668,"lon":5.37155,"is_reserved":false,"is_disabled":false,"rental_uris":{"android":"levelo://app?vid=4ad73676-975d-4eb4-8ab0-34916f3a4594","ios":"levelo://app?vid=4ad73676-975d-4eb4-8ab0-34916f3a4594"},"vehicle_type_id":"4","last_reported":1743602958,"current_range_meters":3200,"station_id":"","pricing_plan_id":"cebpf4jnsgd1na2vs0mg"},{"bike_id":"d662608d-504d-43ae-8d4a-6ba237d6c000","system_id":"levelo_inurba_marseille","lat":43.27853,"lon":5.38474,"is_reserved":false,"is_disabled":false,"rental_uris":{"android":"levelo://app?vid=d662608d-504d-43ae-8d4a-6ba237d6c000","ios":"levelo://app?vid=d662608d-504d-43ae-8d4a-6ba237d6c000"},"vehicle_type_id":"4","last_reported":1743602958,"current_range_meters":3200,"station_id":"","pricing_plan_id":"cebpf4jnsgd1na2vs0mg"},{"bike_id":"d5f6082f-9fc2-4e6a-96ce-3069283abb2f","system_id":"levelo_inurba_marseille","lat":43.29062,"lon":5.37149,"is_reserved":false,"is_disabled":false,"rental_uris":{"android":"levelo://app?vid=d5f6082f-9fc2-4e6a-96ce-3069283abb2f","ios":"levelo://app?vid=d5f6082f-9fc2-4e6a-96ce-3069283abb2f"},"vehicle_type_id":"4","last_reported":1743602958,"current_range_meters":2000,"station_id":"ce4bh5p2rcd13ifvqe4g","pricing_plan_id":"cebpf4jnsgd1na2vs0mg"},{"bike_id":"8b8baf5a-1598-4d04-bedd-e52998820c4d","system_id":"levelo_inurba_marseille","lat":43.290222,"lon":5.381211,"is_reserved":false,"is_disabled":false,"rental_uris":{"android":"levelo://app?vid=8b8baf5a-1598-4d04-bedd-e52998820c4d","ios":"levelo://app?vid=8b8baf5a-1598-4d04-bedd-e52998820c4d"},"vehicle_type_id":"4","last_reported":1743602958,"current_range_meters":3200,"station_id":"ce4bha12rcd13ifvqef0","pricing_plan_id":"cebpf4jnsgd1na2vs0mg"},{"bike_id":"c3535b73-6b63-4d15-a874-b72bc960d46c","system_id":"levelo_inurba_marseille","lat":43.28574,"lon":5.39496,"is_reserved":false,"is_disabled":false,"rental_uris":{"android":"levelo://app?vid=c3535b73-6b63-4d15-a874-b72bc960d46c","ios":"levelo://app?vid=c3535b73-6b63-4d15-a874-b72bc960d46c"},"vehicle_type_id":"4","last_reported":1743602958,"current_range_meters":3600,"station_id":"ce4bh292rcd13ifvqdg0","pricing_plan_id":"cebpf4jnsgd1na2vs0mg"},{"bike_id":"55d071cc-a0f3-4eaa-9951-c403081674dc","system_id":"levelo_inurba_marseille","lat":43.2558,"lon":5.38231,"is_reserved":false,"is_disabled":false,"rental_uris":{"android":"levelo://app?vid=55d071cc-a0f3-4eaa-9951-c403081674dc","ios":"levelo://app?vid=55d071cc-a0f3-4eaa-9951-c403081674dc"},"vehicle_type_id":"4","last_reported":1743602958,"current_range_meters":4000,"station_id":"ce4bhih2rcd13ifvqfs0","pricing_plan_id":"cebpf4jnsgd1na2vs0mg"},{"bike_id":"86bb9193-80ac-48e9-88ab-7c1dc1665daf","system_id":"levelo_inurba_marseille","lat":43.281539,"lon":5.425742,"is_reserved":false,"is_disabled":false,"rental_uris":{"android":"levelo://app?vid=86bb9193-80ac-48e9-88ab-7c1dc1665daf","ios":"levelo://app?vid=86bb9193-80ac-48e9-88ab-7c1dc1665daf"},"vehicle_type_id":"4","last_reported":1743602958,"current_range_meters":2000,"station_id":"ce4bhnh2rcd13ifvqgug","pricing_plan_id":"cebpf4jnsgd1na2vs0mg"},{"bike_id":"bf863d0e-e71a-483c-9a37-781ef894e7de","system_id":"levelo_inurba_marseille","lat":43.29007,"lon":5.356124,"is_reserved":false,"is_disabled":false,"rental_uris":{"android":"levelo://app?vid=bf863d0e-e71a-483c-9a37-781ef894e7de","ios":"levelo://app?vid=bf863d0e-e71a-483c-9a37-781ef894e7de"},"vehicle_type_id":"4","last_reported":1743602958,"current_range_meters":4000,"station_id":"ce4bgi92rcd13ifvqb90","pricing_plan_id":"cebpf4jnsgd1na2vs0mg"},{"bike_id":"c03dd29f-0cde-4498-919e-04963833ac77","system_id":"levelo_inurba_marseille","lat":43.30274,"lon":5.37721,"is_reserved":false,"is_disabled":false,"rental_uris":{"android":"levelo://app?vid=c03dd29f-0cde-4498-919e-04963833ac77","ios":"levelo://app?vid=c03dd29f-0cde-4498-919e-04963833ac77"},"vehicle_type_id":"4","last_reported":1743602958,"current_range_meters":3600,"station_id":"ce4bguh2rcd13ifvqcj0","pricing_plan_id":"cebpf4jnsgd1na2vs0mg"},{"bike_id":"c68ca063-6bf2-4202-9ffa-f42d7c3e497e","system_id":"levelo_inurba_marseille","lat":43.31224,"lon":5.36851,"is_reserved":false,"is_disabled":false,"rental_uris":{"android":"levelo://app?vid=c68ca063-6bf2-4202-9ffa-f42d7c3e497e","ios":"levelo://app?vid=c68ca063-6bf2-4202-9ffa-f42d7c3e497e"},"vehicle_type_id":"4","last_reported":1743602958,"current_range_meters":4000,"station_id":"ce4bgl92rcd13ifvqbq0","pricing_plan_id":"cebpf4jnsgd1na2vs0mg"},{"bike_id":"5e6c3a84-834c-4d83-a2d3-580b827057a1","system_id":"levelo_inurba_marseille","lat":43.23151,"lon":5.43702,"is_reserved":false,"is_disabled":false,"rental_uris":{"android":"levelo://app?vid=5e6c3a84-834c-4d83-a2d3-580b827057a1","ios":"levelo://app?vid=5e6c3a84-834c-4d83-a2d3-580b827057a1"},"vehicle_type_id":"4","last_reported":1743602958,"current_range_meters":4000,"station_id":"ce4bhmp2rcd13ifvqgog","pricing_plan_id":"cebpf4jnsgd1na2vs0mg"},{"bike_id":"862f6c9d-9a20-4d47-a3ed-9d790c3c7959","system_id":"levelo_inurba_marseille","lat":43.23057,"lon":5.35493,"is_reserved":false,"is_disabled":false,"rental_uris":{"android":"levelo://app?vid=862f6c9d-9a20-4d47-a3ed-9d790c3c7959","ios":"levelo://app?vid=862f6c9d-9a20-4d47-a3ed-9d790c3c7959"},"vehicle_type_id":"4","last_reported":1743602958,"current_range_meters":4400,"station_id":"cpo3342slgdg3j2ifvpg","pricing_plan_id":"cebpf4jnsgd1na2vs0mg"},{"bike_id":"f11f1514-b14b-4c0b-ba3a-c4aa5c5642d2","system_id":"levelo_inurba_marseille","lat":43.294203,"lon":5.386293,"is_reserved":false,"is_disabled":false,"rental_uris":{"android":"levelo://app?vid=f11f1514-b14b-4c0b-ba3a-c4aa5c5642d2","ios":"levelo://app?vid=f11f1514-b14b-4c0b-ba3a-c4aa5c5642d2"},"vehicle_type_id":"4","last_reported":1743602958,"current_range_meters":4400,"station_id":"ce4bh2h2rcd13ifvqdh0","pricing_plan_id":"cebpf4jnsgd1na2vs0mg"},{"bike_id":"5832e744-4317-4ac4-b49c-bb881c7938eb","system_id":"levelo_inurba_marseille","lat":43.24554,"lon":5.39521,"is_reserved":false,"is_disabled":false,"rental_uris":{"android":"levelo://app?vid=5832e744-4317-4ac4-b49c-bb881c7938eb","ios":"levelo://app?vid=5832e744-4317-4ac4-b49c-bb881c7938eb"},"vehicle_type_id":"4","last_reported":1743602958,"current_range_meters":4400,"station_id":"ce4bhlp2rcd13ifvqgjg","pricing_plan_id":"cebpf4jnsgd1na2vs0mg"},{"bike_id":"b9638fec-418c-4571-8a03-5371deb72a60","system_id":"levelo_inurba_marseille","lat":43.28275,"lon":5.35068,"is_reserved":false,"is_disabled":false,"rental_uris":{"android":"levelo://app?vid=b9638fec-418c-4571-8a03-5371deb72a60","ios":"levelo://app?vid=b9638fec-418c-4571-8a03-5371deb72a60"},"vehicle_type_id":"4","last_reported":1743602958,"current_range_meters":4400,"station_id":"ce4bhbp2rcd13ifvqerg","pricing_plan_id":"cebpf4jnsgd1na2vs0mg"},{"bike_id":"9141921e-3f56-4b1d-8ae7-75bce3d7cd31","system_id":"levelo_inurba_marseille","lat":43.23061,"lon":5.35488,"is_reserved":false,"is_disabled":false,"rental_uris":{"android":"levelo://app?vid=9141921e-3f56-4b1d-8ae7-75bce3d7cd31","ios":"levelo://app?vid=9141921e-3f56-4b1d-8ae7-75bce3d7cd31"},"vehicle_type_id":"4","last_reported":1743602958,"current_range_meters":4800,"station_id":"cpo3342slgdg3j2ifvpg","pricing_plan_id":"cebpf4jnsgd1na2vs0mg"},{"bike_id":"e6a195af-23cf-4ba2-b663-1c1be8116a23","system_id":"levelo_inurba_marseille","lat":43.24175,"lon":5.39711,"is_reserved":false,"is_disabled":false,"rental_uris":{"android":"levelo://app?vid=e6a195af-23cf-4ba2-b663-1c1be8116a23","ios":"levelo://app?vid=e6a195af-23cf-4ba2-b663-1c1be8116a23"},"vehicle_type_id":"4","last_reported":1743602958,"current_range_meters":4800,"station_id":"ce4bhn12rcd13ifvqgpg","pricing_plan_id":"cebpf4jnsgd1na2vs0mg"},{"bike_id":"a8cf3f92-8f7a-4cb3-90d8-ee02badcd426","system_id":"levelo_inurba_marseille","lat":43.232577,"lon":5.399859,"is_reserved":false,"is_disabled":false,"rental_uris":{"android":"levelo://app?vid=a8cf3f92-8f7a-4cb3-90d8-ee02badcd426","ios":"levelo://app?vid=a8cf3f92-8f7a-4cb3-90d8-ee02badcd426"},"vehicle_type_id":"4","last_reported":1743602958,"current_range_meters":4800,"station_id":"ce4bhn12rcd13ifvqgqg","pricing_plan_id":"cebpf4jnsgd1na2vs0mg"},{"bike_id":"f3528672-1956-4454-bde0-262db75fb9b9","system_id":"levelo_inurba_marseille","lat":43.29014,"lon":5.38623,"is_reserved":false,"is_disabled":false,"rental_uris":{"android":"levelo://app?vid=f3528672-1956-4454-bde0-262db75fb9b9","ios":"levelo://app?vid=f3528672-1956-4454-bde0-262db75fb9b9"},"vehicle_type_id":"4","last_reported":1743602958,"current_range_meters":5600,"station_id":"ce4bh4p2rcd13ifvqe0g","pricing_plan_id":"cebpf4jnsgd1na2vs0mg"},{"bike_id":"d10bd936-2fca-4607-82d0-6e154162cbfd","system_id":"levelo_inurba_marseille","lat":43.30889,"lon":5.39654,"is_reserved":false,"is_disabled":true,"rental_uris":{"android":"levelo://app?vid=d10bd936-2fca-4607-82d0-6e154162cbfd","ios":"levelo://app?vid=d10bd936-2fca-4607-82d0-6e154162cbfd"},"vehicle_type_id":"4","last_reported":1743602958,"current_range_meters":5600,"station_id":"ce4bh012rcd13ifvqcv0","pricing_plan_id":"cebpf4jnsgd1na2vs0mg"},{"bike_id":"6a0d14cb-3012-4eeb-8bfd-58c2b6467b74","system_id":"levelo_inurba_marseille","lat":43.26036,"lon":5.37554,"is_reserved":false,"is_disabled":false,"rental_uris":{"android":"levelo://app?vid=6a0d14cb-3012-4eeb-8bfd-58c2b6467b74","ios":"levelo://app?vid=6a0d14cb-3012-4eeb-8bfd-58c2b6467b74"},"vehicle_type_id":"4","last_reported":1743602958,"current_range_meters":4800,"station_id":"ce4bhgh2rcd13ifvqfa0","pricing_plan_id":"cebpf4jnsgd1na2vs0mg"},{"bike_id":"313ce9e7-d8c6-4b46-9c01-eb2c967ac930","system_id":"levelo_inurba_marseille","lat":43.26802,"lon":5.40267,"is_reserved":false,"is_disabled":false,"rental_uris":{"android":"levelo://app?vid=313ce9e7-d8c6-4b46-9c01-eb2c967ac930","ios":"levelo://app?vid=313ce9e7-d8c6-4b46-9c01-eb2c967ac930"},"vehicle_type_id":"4","last_reported":1743602958,"current_range_meters":5600,"station_id":"ce501612rcd8frsf0b60","pricing_plan_id":"cebpf4jnsgd1na2vs0mg"},{"bike_id":"85b7488a-274e-4a57-a545-cd9b422c92bb","system_id":"levelo_inurba_marseille","lat":43.25928,"lon":5.40888,"is_reserved":false,"is_disabled":false,"rental_uris":{"android":"levelo://app?vid=85b7488a-274e-4a57-a545-cd9b422c92bb","ios":"levelo://app?vid=85b7488a-274e-4a57-a545-cd9b422c92bb"},"vehicle_type_id":"4","last_reported":1743602958,"current_range_meters":5600,"station_id":"ce4bhm92rcd13ifvqglg","pricing_plan_id":"cebpf4jnsgd1na2vs0mg"},{"bike_id":"22b30664-f25d-43ac-8355-50f063a99143","system_id":"levelo_inurba_marseille","lat":43.2656,"lon":5.39002,"is_reserved":false,"is_disabled":false,"rental_uris":{"android":"levelo://app?vid=22b30664-f25d-43ac-8355-50f063a99143","ios":"levelo://app?vid=22b30664-f25d-43ac-8355-50f063a99143"},"vehicle_type_id":"4","last_reported":1743602958,"current_range_meters":5600,"station_id":"ce4bhe12rcd13ifvqf30","pricing_plan_id":"cebpf4jnsgd1na2vs0mg"},{"bike_id":"577b084d-71c0-4e6e-b3d2-57cb9bf5c9c2","system_id":"levelo_inurba_marseille","lat":43.2594,"lon":5.4089,"is_reserved":false,"is_disabled":false,"rental_uris":{"android":"levelo://app?vid=577b084d-71c0-4e6e-b3d2-57cb9bf5c9c2","ios":"levelo://app?vid=577b084d-71c0-4e6e-b3d2-57cb9bf5c9c2"},"vehicle_type_id":"4","last_reported":1743602958,"current_range_meters":5600,"station_id":"ce4bhm92rcd13ifvqglg","pricing_plan_id":"cebpf4jnsgd1na2vs0mg"},{"bike_id":"7549bd43-15b2-4001-a4c7-d590c7fffdef","system_id":"levelo_inurba_marseille","lat":43.32118,"lon":5.36764,"is_reserved":false,"is_disabled":false,"rental_uris":{"android":"levelo://app?vid=7549bd43-15b2-4001-a4c7-d590c7fffdef","ios":"levelo://app?vid=7549bd43-15b2-4001-a4c7-d590c7fffdef"},"vehicle_type_id":"4","last_reported":1743602958,"current_range_meters":5600,"station_id":"ce4bhrh2rcd13ifvqhug","pricing_plan_id":"cebpf4jnsgd1na2vs0mg"},{"bike_id":"222689fe-bf41-45f2-9fc7-f640ab6710c8","system_id":"levelo_inurba_marseille","lat":43.28423,"lon":5.34992,"is_reserved":false,"is_disabled":false,"rental_uris":{"android":"levelo://app?vid=222689fe-bf41-45f2-9fc7-f640ab6710c8","ios":"levelo://app?vid=222689fe-bf41-45f2-9fc7-f640ab6710c8"},"vehicle_type_id":"4","last_reported":1743602958,"current_range_meters":5600,"station_id":"ce4bhbh2rcd13ifvqepg","pricing_plan_id":"cebpf4jnsgd1na2vs0mg"},{"bike_id":"cc7ae825-8b89-41b2-ba97-46c8454f2018","system_id":"levelo_inurba_marseille","lat":43.29423,"lon":5.38631,"is_reserved":false,"is_disabled":false,"rental_uris":{"android":"levelo://app?vid=cc7ae825-8b89-41b2-ba97-46c8454f2018","ios":"levelo://app?vid=cc7ae825-8b89-41b2-ba97-46c8454f2018"},"vehicle_type_id":"4","last_reported":1743602958,"current_range_meters":5600,"station_id":"ce4bh2h2rcd13ifvqdh0","pricing_plan_id":"cebpf4jnsgd1na2vs0mg"},{"bike_id":"951a7332-cda9-4da3-9452-7a6667d95c4f","system_id":"levelo_inurba_marseille","lat":43.30131,"lon":5.39859,"is_reserved":false,"is_disabled":false,"rental_uris":{"android":"levelo://app?vid=951a7332-cda9-4da3-9452-7a6667d95c4f","ios":"levelo://app?vid=951a7332-cda9-4da3-9452-7a6667d95c4f"},"vehicle_type_id":"4","last_reported":1743602958,"current_range_meters":5600,"station_id":"ce4bh0h2rcd13ifvqd40","pricing_plan_id":"cebpf4jnsgd1na2vs0mg"},{"bike_id":"8171ffec-68b4-4cb3-8d46-3678de17bd72","system_id":"levelo_inurba_marseille","lat":43.28352,"lon":5.38105,"is_reserved":false,"is_disabled":false,"rental_uris":{"android":"levelo://app?vid=8171ffec-68b4-4cb3-8d46-3678de17bd72","ios":"levelo://app?vid=8171ffec-68b4-4cb3-8d46-3678de17bd72"},"vehicle_type_id":"4","last_reported":1743602958,"current_range_meters":5600,"station_id":"ce4bh412rcd13ifvqdr0","pricing_plan_id":"cebpf4jnsgd1na2vs0mg"},{"bike_id":"7ed94b94-3fc1-4492-9478-fe195d47778b","system_id":"levelo_inurba_marseille","lat":43.25581,"lon":5.38236,"is_reserved":false,"is_disabled":false,"rental_uris":{"android":"levelo://app?vid=7ed94b94-3fc1-4492-9478-fe195d47778b","ios":"levelo://app?vid=7ed94b94-3fc1-4492-9478-fe195d47778b"},"vehicle_type_id":"4","last_reported":1743602958,"current_range_meters":6000,"station_id":"ce4bhih2rcd13ifvqfs0","pricing_plan_id":"cebpf4jnsgd1na2vs0mg"},{"bike_id":"1167d76f-0701-42ca-9566-e6b8288b4501","system_id":"levelo_inurba_marseille","lat":43.28289,"lon":5.37878,"is_reserved":false,"is_disabled":false,"rental_uris":{"android":"levelo://app?vid=1167d76f-0701-42ca-9566-e6b8288b4501","ios":"levelo://app?vid=1167d76f-0701-42ca-9566-e6b8288b4501"},"vehicle_type_id":"4","last_reported":1743602958,"current_range_meters":6000,"station_id":"","pricing_plan_id":"cebpf4jnsgd1na2vs0mg"},{"bike_id":"c6c438e8-d3ab-4770-968b-7a1a93e8a8c6","system_id":"levelo_inurba_marseille","lat":43.28906,"lon":5.45853,"is_reserved":false,"is_disabled":false,"rental_uris":{"android":"levelo://app?vid=c6c438e8-d3ab-4770-968b-7a1a93e8a8c6","ios":"levelo://app?vid=c6c438e8-d3ab-4770-968b-7a1a93e8a8c6"},"vehicle_type_id":"4","last_reported":1743602958,"current_range_meters":6000,"station_id":"","pricing_plan_id":"cebpf4jnsgd1na2vs0mg"},{"bike_id":"55b6660a-e1a9-4889-aa7f-7f9492899d50","system_id":"levelo_inurba_marseille","lat":43.31224,"lon":5.36861,"is_reserved":false,"is_disabled":false,"rental_uris":{"android":"levelo://app?vid=55b6660a-e1a9-4889-aa7f-7f9492899d50","ios":"levelo://app?vid=55b6660a-e1a9-4889-aa7f-7f9492899d50"},"vehicle_type_id":"4","last_reported":1743602958,"current_range_meters":6000,"station_id":"ce4bgl92rcd13ifvqbq0","pricing_plan_id":"cebpf4jnsgd1na2vs0mg"},{"bike_id":"4edd6e19-4ba6-444c-9ed9-10270c120be7","system_id":"levelo_inurba_marseille","lat":43.26495,"lon":5.3954,"is_reserved":false,"is_disabled":false,"rental_uris":{"android":"levelo://app?vid=4edd6e19-4ba6-444c-9ed9-10270c120be7","ios":"levelo://app?vid=4edd6e19-4ba6-444c-9ed9-10270c120be7"},"vehicle_type_id":"4","last_reported":1743602958,"current_range_meters":6400,"station_id":"ce4bhi12rcd13ifvqfq0","pricing_plan_id":"cebpf4jnsgd1na2vs0mg"},{"bike_id":"46e5321f-1f0e-476d-9557-3a470246f9d4","system_id":"levelo_inurba_marseille","lat":43.23154,"lon":5.43714,"is_reserved":false,"is_disabled":false,"rental_uris":{"android":"levelo://app?vid=46e5321f-1f0e-476d-9557-3a470246f9d4","ios":"levelo://app?vid=46e5321f-1f0e-476d-9557-3a470246f9d4"},"vehicle_type_id":"4","last_reported":1743602958,"current_range_meters":6400,"station_id":"ce4bhmp2rcd13ifvqgog","pricing_plan_id":"cebpf4jnsgd1na2vs0mg"},{"bike_id":"2b2ec814-e298-4bdc-9cae-7188c33e5976","system_id":"levelo_inurba_marseille","lat":43.26785,"lon":5.3942,"is_reserved":false,"is_disabled":false,"rental_uris":{"android":"levelo://app?vid=2b2ec814-e298-4bdc-9cae-7188c33e5976","ios":"levelo://app?vid=2b2ec814-e298-4bdc-9cae-7188c33e5976"},"vehicle_type_id":"4","last_reported":1743602958,"current_range_meters":6800,"station_id":"ce4bhh12rcd13ifvqfg0","pricing_plan_id":"cebpf4jnsgd1na2vs0mg"},{"bike_id":"5ef6b633-cf2f-42de-995a-43dea0a55a29","system_id":"levelo_inurba_marseille","lat":43.32083,"lon":5.36769,"is_reserved":false,"is_disabled":false,"rental_uris":{"android":"levelo://app?vid=5ef6b633-cf2f-42de-995a-43dea0a55a29","ios":"levelo://app?vid=5ef6b633-cf2f-42de-995a-43dea0a55a29"},"vehicle_type_id":"4","last_reported":1743602958,"current_range_meters":6800,"station_id":"ce4bhrh2rcd13ifvqhug","pricing_plan_id":"cebpf4jnsgd1na2vs0mg"},{"bike_id":"8ddede31-6b86-40ee-84c3-e65c1b94876f","system_id":"levelo_inurba_marseille","lat":43.31072,"lon":5.38357,"is_reserved":false,"is_disabled":false,"rental_uris":{"android":"levelo://app?vid=8ddede31-6b86-40ee-84c3-e65c1b94876f","ios":"levelo://app?vid=8ddede31-6b86-40ee-84c3-e65c1b94876f"},"vehicle_type_id":"4","last_reported":1743602958,"current_range_meters":6800,"station_id":"ce4bgv92rcd13ifvqcr0","pricing_plan_id":"cebpf4jnsgd1na2vs0mg"},{"bike_id":"85ea35a7-8a65-474a-9ee7-f5b48eac24a1","system_id":"levelo_inurba_marseille","lat":43.27575,"lon":5.38431,"is_reserved":false,"is_disabled":false,"rental_uris":{"android":"levelo://app?vid=85ea35a7-8a65-474a-9ee7-f5b48eac24a1","ios":"levelo://app?vid=85ea35a7-8a65-474a-9ee7-f5b48eac24a1"},"vehicle_type_id":"4","last_reported":1743602958,"current_range_meters":6800,"station_id":"ce4bhh92rcd13ifvqfi0","pricing_plan_id":"cebpf4jnsgd1na2vs0mg"},{"bike_id":"0a8d07dd-db7d-4bd3-9059-559cb936ec18","system_id":"levelo_inurba_marseille","lat":43.331242,"lon":5.392365,"is_reserved":false,"is_disabled":false,"rental_uris":{"android":"levelo://app?vid=0a8d07dd-db7d-4bd3-9059-559cb936ec18","ios":"levelo://app?vid=0a8d07dd-db7d-4bd3-9059-559cb936ec18"},"vehicle_type_id":"4","last_reported":1743602958,"current_range_meters":6800,"station_id":"","pricing_plan_id":"cebpf4jnsgd1na2vs0mg"},{"bike_id":"5b7bdeae-2e87-4735-a9f2-7e65cf553788","system_id":"levelo_inurba_marseille","lat":43.29632,"lon":5.40591,"is_reserved":false,"is_disabled":false,"rental_uris":{"android":"levelo://app?vid=5b7bdeae-2e87-4735-a9f2-7e65cf553788","ios":"levelo://app?vid=5b7bdeae-2e87-4735-a9f2-7e65cf553788"},"vehicle_type_id":"4","last_reported":1743602958,"current_range_meters":6800,"station_id":"ce4bh0h2rcd13ifvqd60","pricing_plan_id":"cebpf4jnsgd1na2vs0mg"},{"bike_id":"e47bc61d-df2d-41b3-b26b-dd94e6e5e301","system_id":"levelo_inurba_marseille","lat":43.26245,"lon":5.4213,"is_reserved":false,"is_disabled":false,"rental_uris":{"android":"levelo://app?vid=e47bc61d-df2d-41b3-b26b-dd94e6e5e301","ios":"levelo://app?vid=e47bc61d-df2d-41b3-b26b-dd94e6e5e301"},"vehicle_type_id":"4","last_reported":1743602958,"current_range_meters":6800,"station_id":"","pricing_plan_id":"cebpf4jnsgd1na2vs0mg"},{"bike_id":"7bdf0d60-3026-4723-ac07-ebb25b9cf79f","system_id":"levelo_inurba_marseille","lat":43.287925,"lon":5.3868,"is_reserved":false,"is_disabled":false,"rental_uris":{"android":"levelo://app?vid=7bdf0d60-3026-4723-ac07-ebb25b9cf79f","ios":"levelo://app?vid=7bdf0d60-3026-4723-ac07-ebb25b9cf79f"},"vehicle_type_id":"4","last_reported":1743602958,"current_range_meters":6800,"station_id":"","pricing_plan_id":"cebpf4jnsgd1na2vs0mg"},{"bike_id":"e15d1b5d-d573-42df-8efe-b3471bb0240d","system_id":"levelo_inurba_marseille","lat":43.30552,"lon":5.36519,"is_reserved":false,"is_disabled":false,"rental_uris":{"android":"levelo://app?vid=e15d1b5d-d573-42df-8efe-b3471bb0240d","ios":"levelo://app?vid=e15d1b5d-d573-42df-8efe-b3471bb0240d"},"vehicle_type_id":"4","last_reported":1743602958,"current_range_meters":6800,"station_id":"ce4bgs12rcd13ifvqcag","pricing_plan_id":"cebpf4jnsgd1na2vs0mg"},{"bike_id":"66a6759f-f104-404f-ba35-7dd5d87e6d0b","system_id":"levelo_inurba_marseille","lat":43.30152,"lon":5.37666,"is_reserved":false,"is_disabled":false,"rental_uris":{"android":"levelo://app?vid=66a6759f-f104-404f-ba35-7dd5d87e6d0b","ios":"levelo://app?vid=66a6759f-f104-404f-ba35-7dd5d87e6d0b"},"vehicle_type_id":"4","last_reported":1743602958,"current_range_meters":6800,"station_id":"","pricing_plan_id":"cebpf4jnsgd1na2vs0mg"},{"bike_id":"222aa77c-f833-4c80-96e1-78b1df52b329","system_id":"levelo_inurba_marseille","lat":43.25816,"lon":5.39432,"is_reserved":false,"is_disabled":false,"rental_uris":{"android":"levelo://app?vid=222aa77c-f833-4c80-96e1-78b1df52b329","ios":"levelo://app?vid=222aa77c-f833-4c80-96e1-78b1df52b329"},"vehicle_type_id":"4","last_reported":1743602958,"current_range_meters":7200,"station_id":"ce4bhip2rcd13ifvqft0","pricing_plan_id":"cebpf4jnsgd1na2vs0mg"},{"bike_id":"d899c0fb-ef5e-460d-b42b-352281bec7ad","system_id":"levelo_inurba_marseille","lat":43.29511,"lon":5.39041,"is_reserved":false,"is_disabled":false,"rental_uris":{"android":"levelo://app?vid=d899c0fb-ef5e-460d-b42b-352281bec7ad","ios":"levelo://app?vid=d899c0fb-ef5e-460d-b42b-352281bec7ad"},"vehicle_type_id":"4","last_reported":1743602958,"current_range_meters":7200,"station_id":"ce4bh3p2rcd13ifvqdp0","pricing_plan_id":"cebpf4jnsgd1na2vs0mg"},{"bike_id":"d4a79d36-bcea-44b7-bf75-1ca1bbe236f7","system_id":"levelo_inurba_marseille","lat":43.32339,"lon":5.40624,"is_reserved":false,"is_disabled":false,"rental_uris":{"android":"levelo://app?vid=d4a79d36-bcea-44b7-bf75-1ca1bbe236f7","ios":"levelo://app?vid=d4a79d36-bcea-44b7-bf75-1ca1bbe236f7"},"vehicle_type_id":"4","last_reported":1743602958,"current_range_meters":7200,"station_id":"ce4bhq92rcd13ifvqhjg","pricing_plan_id":"cebpf4jnsgd1na2vs0mg"},{"bike_id":"fdd74cea-2420-4f5e-97f2-a48b67190c4e","system_id":"levelo_inurba_marseille","lat":43.337444,"lon":5.374475,"is_reserved":false,"is_disabled":false,"rental_uris":{"android":"levelo://app?vid=fdd74cea-2420-4f5e-97f2-a48b67190c4e","ios":"levelo://app?vid=fdd74cea-2420-4f5e-97f2-a48b67190c4e"},"vehicle_type_id":"4","last_reported":1743602958,"current_range_meters":7200,"station_id":"","pricing_plan_id":"cebpf4jnsgd1na2vs0mg"},{"bike_id":"4f1fb305-fdac-49af-98f8-e5ebaa4429a4","system_id":"levelo_inurba_marseille","lat":43.22938,"lon":5.3538,"is_reserved":false,"is_disabled":false,"rental_uris":{"android":"levelo://app?vid=4f1fb305-fdac-49af-98f8-e5ebaa4429a4","ios":"levelo://app?vid=4f1fb305-fdac-49af-98f8-e5ebaa4429a4"},"vehicle_type_id":"4","last_reported":1743602958,"current_range_meters":7200,"station_id":"cpo3532slgdg3j2ikp40","pricing_plan_id":"cebpf4jnsgd1na2vs0mg"},{"bike_id":"bf9115f3-535d-46c6-9c51-7930b587bb17","system_id":"levelo_inurba_marseille","lat":43.28698,"lon":5.37401,"is_reserved":false,"is_disabled":false,"rental_uris":{"android":"levelo://app?vid=bf9115f3-535d-46c6-9c51-7930b587bb17","ios":"levelo://app?vid=bf9115f3-535d-46c6-9c51-7930b587bb17"},"vehicle_type_id":"4","last_reported":1743602958,"current_range_meters":7200,"station_id":"ce4bh3p2rcd13ifvqdq0","pricing_plan_id":"cebpf4jnsgd1na2vs0mg"},{"bike_id":"1827d567-63bf-40e6-8158-6f62fabcef89","system_id":"levelo_inurba_marseille","lat":43.29615,"lon":5.37727,"is_reserved":false,"is_disabled":false,"rental_uris":{"android":"levelo://app?vid=1827d567-63bf-40e6-8158-6f62fabcef89","ios":"levelo://app?vid=1827d567-63bf-40e6-8158-6f62fabcef89"},"vehicle_type_id":"4","last_reported":1743602958,"current_range_meters":7200,"station_id":"ce4bgi92rcd13ifvqb90","pricing_plan_id":"cebpf4jnsgd1na2vs0mg"},{"bike_id":"77440c5f-47d5-438d-805a-bdd16d77d3c5","system_id":"levelo_inurba_marseille","lat":43.26955,"lon":5.3863,"is_reserved":false,"is_disabled":false,"rental_uris":{"android":"levelo://app?vid=77440c5f-47d5-438d-805a-bdd16d77d3c5","ios":"levelo://app?vid=77440c5f-47d5-438d-805a-bdd16d77d3c5"},"vehicle_type_id":"4","last_reported":1743602958,"current_range_meters":7200,"station_id":"ce4bhh92rcd13ifvqfh0","pricing_plan_id":"cebpf4jnsgd1na2vs0mg"},{"bike_id":"1d1fcf5b-c1ba-42a5-a64a-efa6d25fc73d","system_id":"levelo_inurba_marseille","lat":43.23152,"lon":5.43709,"is_reserved":false,"is_disabled":false,"rental_uris":{"android":"levelo://app?vid=1d1fcf5b-c1ba-42a5-a64a-efa6d25fc73d","ios":"levelo://app?vid=1d1fcf5b-c1ba-42a5-a64a-efa6d25fc73d"},"vehicle_type_id":"4","last_reported":1743602958,"current_range_meters":7200,"station_id":"ce4bhmp2rcd13ifvqgog","pricing_plan_id":"cebpf4jnsgd1na2vs0mg"},{"bike_id":"312ed70b-1ac3-481a-88c0-b0159fcd0caf","system_id":"levelo_inurba_marseille","lat":43.23154,"lon":5.43712,"is_reserved":false,"is_disabled":false,"rental_uris":{"android":"levelo://app?vid=312ed70b-1ac3-481a-88c0-b0159fcd0caf","ios":"levelo://app?vid=312ed70b-1ac3-481a-88c0-b0159fcd0caf"},"vehicle_type_id":"4","last_reported":1743602958,"current_range_meters":7200,"station_id":"ce4bhmp2rcd13ifvqgog","pricing_plan_id":"cebpf4jnsgd1na2vs0mg"},{"bike_id":"f06067fe-c409-49ce-b995-b28658dd37fb","system_id":"levelo_inurba_marseille","lat":43.28665,"lon":5.37395,"is_reserved":false,"is_disabled":true,"rental_uris":{"android":"levelo://app?vid=f06067fe-c409-49ce-b995-b28658dd37fb","ios":"levelo://app?vid=f06067fe-c409-49ce-b995-b28658dd37fb"},"vehicle_type_id":"4","last_reported":1743602958,"current_range_meters":8000,"station_id":"ce4bh3p2rcd13ifvqdq0","pricing_plan_id":"cebpf4jnsgd1na2vs0mg"},{"bike_id":"93eb57be-6e76-46e4-a5ce-bf21001073ab","system_id":"levelo_inurba_marseille","lat":43.23145,"lon":5.43709,"is_reserved":false,"is_disabled":false,"rental_uris":{"android":"levelo://app?vid=93eb57be-6e76-46e4-a5ce-bf21001073ab","ios":"levelo://app?vid=93eb57be-6e76-46e4-a5ce-bf21001073ab"},"vehicle_type_id":"4","last_reported":1743602958,"current_range_meters":8000,"station_id":"ce4bhmp2rcd13ifvqgog","pricing_plan_id":"cebpf4jnsgd1na2vs0mg"},{"bike_id":"0c78c78a-48af-4c02-ab10-e21affc5286c","system_id":"levelo_inurba_marseille","lat":43.31078,"lon":5.42447,"is_reserved":false,"is_disabled":false,"rental_uris":{"android":"levelo://app?vid=0c78c78a-48af-4c02-ab10-e21affc5286c","ios":"levelo://app?vid=0c78c78a-48af-4c02-ab10-e21affc5286c"},"vehicle_type_id":"4","last_reported":1743602958,"current_range_meters":8000,"station_id":"ce4bhp92rcd13ifvqhag","pricing_plan_id":"cebpf4jnsgd1na2vs0mg"},{"bike_id":"17d31aed-a53a-49b6-adc6-b7506a533da4","system_id":"levelo_inurba_marseille","lat":43.30326,"lon":5.40445,"is_reserved":false,"is_disabled":false,"rental_uris":{"android":"levelo://app?vid=17d31aed-a53a-49b6-adc6-b7506a533da4","ios":"levelo://app?vid=17d31aed-a53a-49b6-adc6-b7506a533da4"},"vehicle_type_id":"4","last_reported":1743602958,"current_range_meters":8000,"station_id":"ce4bh012rcd13ifvqd10","pricing_plan_id":"cebpf4jnsgd1na2vs0mg"},{"bike_id":"25c9da1a-b5c2-481b-a59e-5c1900e213f6","system_id":"levelo_inurba_marseille","lat":43.25578,"lon":5.38232,"is_reserved":false,"is_disabled":false,"rental_uris":{"android":"levelo://app?vid=25c9da1a-b5c2-481b-a59e-5c1900e213f6","ios":"levelo://app?vid=25c9da1a-b5c2-481b-a59e-5c1900e213f6"},"vehicle_type_id":"4","last_reported":1743602958,"current_range_meters":8000,"station_id":"ce4bhih2rcd13ifvqfs0","pricing_plan_id":"cebpf4jnsgd1na2vs0mg"},{"bike_id":"df8b9060-bfd7-4d99-acaa-eacd5a0937e2","system_id":"levelo_inurba_marseille","lat":43.29622,"lon":5.37713,"is_reserved":false,"is_disabled":false,"rental_uris":{"android":"levelo://app?vid=df8b9060-bfd7-4d99-acaa-eacd5a0937e2","ios":"levelo://app?vid=df8b9060-bfd7-4d99-acaa-eacd5a0937e2"},"vehicle_type_id":"4","last_reported":1743602958,"current_range_meters":8000,"station_id":"ce4bgi92rcd13ifvqb90","pricing_plan_id":"cebpf4jnsgd1na2vs0mg"},{"bike_id":"6b98463d-28ae-49d8-bf2f-1e900930583a","system_id":"levelo_inurba_marseille","lat":43.26795,"lon":5.39407,"is_reserved":false,"is_disabled":false,"rental_uris":{"android":"levelo://app?vid=6b98463d-28ae-49d8-bf2f-1e900930583a","ios":"levelo://app?vid=6b98463d-28ae-49d8-bf2f-1e900930583a"},"vehicle_type_id":"4","last_reported":1743602958,"current_range_meters":8000,"station_id":"ce4bhh12rcd13ifvqfg0","pricing_plan_id":"cebpf4jnsgd1na2vs0mg"},{"bike_id":"4a0b6dd5-5121-4046-ac4b-36b309c44731","system_id":"levelo_inurba_marseille","lat":43.284534,"lon":5.374116,"is_reserved":false,"is_disabled":false,"rental_uris":{"android":"levelo://app?vid=4a0b6dd5-5121-4046-ac4b-36b309c44731","ios":"levelo://app?vid=4a0b6dd5-5121-4046-ac4b-36b309c44731"},"vehicle_type_id":"4","last_reported":1743602958,"current_range_meters":8000,"station_id":"ce4bh5p2rcd13ifvqe4g","pricing_plan_id":"cebpf4jnsgd1na2vs0mg"},{"bike_id":"bade20e5-74a0-4eb7-9d46-037933eeba0f","system_id":"levelo_inurba_marseille","lat":43.31222,"lon":5.36866,"is_reserved":false,"is_disabled":false,"rental_uris":{"android":"levelo://app?vid=bade20e5-74a0-4eb7-9d46-037933eeba0f","ios":"levelo://app?vid=bade20e5-74a0-4eb7-9d46-037933eeba0f"},"vehicle_type_id":"4","last_reported":1743602958,"current_range_meters":8000,"station_id":"ce4bgl92rcd13ifvqbq0","pricing_plan_id":"cebpf4jnsgd1na2vs0mg"},{"bike_id":"41b75288-2ef6-47c6-b40b-10edebfec4f1","system_id":"levelo_inurba_marseille","lat":43.29263,"lon":5.38431,"is_reserved":false,"is_disabled":false,"rental_uris":{"android":"levelo://app?vid=41b75288-2ef6-47c6-b40b-10edebfec4f1","ios":"levelo://app?vid=41b75288-2ef6-47c6-b40b-10edebfec4f1"},"vehicle_type_id":"4","last_reported":1743602958,"current_range_meters":8000,"station_id":"ce4bh692rcd13ifvqea0","pricing_plan_id":"cebpf4jnsgd1na2vs0mg"},{"bike_id":"ded29af6-b75f-4abe-bf75-c0898ba57939","system_id":"levelo_inurba_marseille","lat":43.2936,"lon":5.37838,"is_reserved":false,"is_disabled":false,"rental_uris":{"android":"levelo://app?vid=ded29af6-b75f-4abe-bf75-c0898ba57939","ios":"levelo://app?vid=ded29af6-b75f-4abe-bf75-c0898ba57939"},"vehicle_type_id":"4","last_reported":1743602958,"current_range_meters":8000,"station_id":"ce4bgjh2rcd13ifvqbf0","pricing_plan_id":"cebpf4jnsgd1na2vs0mg"},{"bike_id":"0b8a01ea-b4ac-4743-b0a7-a5aff81bf844","system_id":"levelo_inurba_marseille","lat":43.2679,"lon":5.39422,"is_reserved":false,"is_disabled":false,"rental_uris":{"android":"levelo://app?vid=0b8a01ea-b4ac-4743-b0a7-a5aff81bf844","ios":"levelo://app?vid=0b8a01ea-b4ac-4743-b0a7-a5aff81bf844"},"vehicle_type_id":"4","last_reported":1743602958,"current_range_meters":8000,"station_id":"ce4bhh12rcd13ifvqfg0","pricing_plan_id":"cebpf4jnsgd1na2vs0mg"},{"bike_id":"c4ef0165-fcb7-4aad-baca-49348c62b42a","system_id":"levelo_inurba_marseille","lat":43.29523,"lon":5.38534,"is_reserved":false,"is_disabled":false,"rental_uris":{"android":"levelo://app?vid=c4ef0165-fcb7-4aad-baca-49348c62b42a","ios":"levelo://app?vid=c4ef0165-fcb7-4aad-baca-49348c62b42a"},"vehicle_type_id":"4","last_reported":1743602958,"current_range_meters":8000,"station_id":"ce4bgih2rcd13ifvqba0","pricing_plan_id":"cebpf4jnsgd1na2vs0mg"},{"bike_id":"2d6e915f-9d78-42f3-9f2a-3bf94802db03","system_id":"levelo_inurba_marseille","lat":43.26497,"lon":5.39534,"is_reserved":false,"is_disabled":false,"rental_uris":{"android":"levelo://app?vid=2d6e915f-9d78-42f3-9f2a-3bf94802db03","ios":"levelo://app?vid=2d6e915f-9d78-42f3-9f2a-3bf94802db03"},"vehicle_type_id":"4","last_reported":1743602958,"current_range_meters":8400,"station_id":"ce4bhi12rcd13ifvqfq0","pricing_plan_id":"cebpf4jnsgd1na2vs0mg"},{"bike_id":"cd22e8f6-4b63-4e00-b2fd-554ac28913f8","system_id":"levelo_inurba_marseille","lat":43.26798,"lon":5.42673,"is_reserved":false,"is_disabled":false,"rental_uris":{"android":"levelo://app?vid=cd22e8f6-4b63-4e00-b2fd-554ac28913f8","ios":"levelo://app?vid=cd22e8f6-4b63-4e00-b2fd-554ac28913f8"},"vehicle_type_id":"4","last_reported":1743602958,"current_range_meters":8400,"station_id":"","pricing_plan_id":"cebpf4jnsgd1na2vs0mg"},{"bike_id":"1f1218d9-ebac-4975-84ee-2ba3e4d4bcb4","system_id":"levelo_inurba_marseille","lat":43.30884,"lon":5.37789,"is_reserved":false,"is_disabled":false,"rental_uris":{"android":"levelo://app?vid=1f1218d9-ebac-4975-84ee-2ba3e4d4bcb4","ios":"levelo://app?vid=1f1218d9-ebac-4975-84ee-2ba3e4d4bcb4"},"vehicle_type_id":"4","last_reported":1743602958,"current_range_meters":8400,"station_id":"","pricing_plan_id":"cebpf4jnsgd1na2vs0mg"},{"bike_id":"3e5329f3-c0cd-422c-afb1-2f46242590da","system_id":"levelo_inurba_marseille","lat":43.31913,"lon":5.37542,"is_reserved":false,"is_disabled":false,"rental_uris":{"android":"levelo://app?vid=3e5329f3-c0cd-422c-afb1-2f46242590da","ios":"levelo://app?vid=3e5329f3-c0cd-422c-afb1-2f46242590da"},"vehicle_type_id":"4","last_reported":1743602958,"current_range_meters":8400,"station_id":"","pricing_plan_id":"cebpf4jnsgd1na2vs0mg"},{"bike_id":"b376a7cf-1561-41e9-9332-5b4c2f449e92","system_id":"levelo_inurba_marseille","lat":43.30921,"lon":5.40165,"is_reserved":false,"is_disabled":false,"rental_uris":{"android":"levelo://app?vid=b376a7cf-1561-41e9-9332-5b4c2f449e92","ios":"levelo://app?vid=b376a7cf-1561-41e9-9332-5b4c2f449e92"},"vehicle_type_id":"4","last_reported":1743602958,"current_range_meters":8400,"station_id":"ce4bgvp2rcd13ifvqct0","pricing_plan_id":"cebpf4jnsgd1na2vs0mg"},{"bike_id":"ac85701c-18fe-47e7-8435-c69a0efd01c0","system_id":"levelo_inurba_marseille","lat":43.27058,"lon":5.40256,"is_reserved":false,"is_disabled":false,"rental_uris":{"android":"levelo://app?vid=ac85701c-18fe-47e7-8435-c69a0efd01c0","ios":"levelo://app?vid=ac85701c-18fe-47e7-8435-c69a0efd01c0"},"vehicle_type_id":"4","last_reported":1743602958,"current_range_meters":8400,"station_id":"ce4bhk92rcd13ifvqgc0","pricing_plan_id":"cebpf4jnsgd1na2vs0mg"},{"bike_id":"60b901b6-ba89-49cd-ab6f-9da2bc791337","system_id":"levelo_inurba_marseille","lat":43.31229,"lon":5.36845,"is_reserved":false,"is_disabled":false,"rental_uris":{"android":"levelo://app?vid=60b901b6-ba89-49cd-ab6f-9da2bc791337","ios":"levelo://app?vid=60b901b6-ba89-49cd-ab6f-9da2bc791337"},"vehicle_type_id":"4","last_reported":1743602958,"current_range_meters":8800,"station_id":"ce4bgl92rcd13ifvqbq0","pricing_plan_id":"cebpf4jnsgd1na2vs0mg"},{"bike_id":"998d557f-6dcb-47bf-b253-9af9cfece282","system_id":"levelo_inurba_marseille","lat":43.29795,"lon":5.38126,"is_reserved":false,"is_disabled":false,"rental_uris":{"android":"levelo://app?vid=998d557f-6dcb-47bf-b253-9af9cfece282","ios":"levelo://app?vid=998d557f-6dcb-47bf-b253-9af9cfece282"},"vehicle_type_id":"4","last_reported":1743602958,"current_range_meters":8800,"station_id":"ce4bgip2rcd13ifvqbb0","pricing_plan_id":"cebpf4jnsgd1na2vs0mg"},{"bike_id":"129f9a59-343c-494e-b3cd-53db19a5b6cd","system_id":"levelo_inurba_marseille","lat":43.22929,"lon":5.35381,"is_reserved":false,"is_disabled":false,"rental_uris":{"android":"levelo://app?vid=129f9a59-343c-494e-b3cd-53db19a5b6cd","ios":"levelo://app?vid=129f9a59-343c-494e-b3cd-53db19a5b6cd"},"vehicle_type_id":"4","last_reported":1743602958,"current_range_meters":8800,"station_id":"cpo3532slgdg3j2ikp40","pricing_plan_id":"cebpf4jnsgd1na2vs0mg"},{"bike_id":"20b17803-0c59-497c-8f99-59661d37aefa","system_id":"levelo_inurba_marseille","lat":43.26555,"lon":5.37282,"is_reserved":false,"is_disabled":false,"rental_uris":{"android":"levelo://app?vid=20b17803-0c59-497c-8f99-59661d37aefa","ios":"levelo://app?vid=20b17803-0c59-497c-8f99-59661d37aefa"},"vehicle_type_id":"4","last_reported":1743602958,"current_range_meters":8800,"station_id":"ce4bhg12rcd13ifvqf70","pricing_plan_id":"cebpf4jnsgd1na2vs0mg"},{"bike_id":"2d5b05ab-3fbf-4245-a566-4ad78ee6292a","system_id":"levelo_inurba_marseille","lat":43.24989,"lon":5.38978,"is_reserved":false,"is_disabled":false,"rental_uris":{"android":"levelo://app?vid=2d5b05ab-3fbf-4245-a566-4ad78ee6292a","ios":"levelo://app?vid=2d5b05ab-3fbf-4245-a566-4ad78ee6292a"},"vehicle_type_id":"4","last_reported":1743602958,"current_range_meters":8800,"station_id":"","pricing_plan_id":"cebpf4jnsgd1na2vs0mg"},{"bike_id":"d3345442-2654-4ddc-b869-fce22decea38","system_id":"levelo_inurba_marseille","lat":43.23057,"lon":5.35492,"is_reserved":false,"is_disabled":false,"rental_uris":{"android":"levelo://app?vid=d3345442-2654-4ddc-b869-fce22decea38","ios":"levelo://app?vid=d3345442-2654-4ddc-b869-fce22decea38"},"vehicle_type_id":"4","last_reported":1743602958,"current_range_meters":8800,"station_id":"cpo3342slgdg3j2ifvpg","pricing_plan_id":"cebpf4jnsgd1na2vs0mg"},{"bike_id":"5b926d7d-8310-47ba-8bcd-be3c79e26511","system_id":"levelo_inurba_marseille","lat":43.28459,"lon":5.35903,"is_reserved":false,"is_disabled":false,"rental_uris":{"android":"levelo://app?vid=5b926d7d-8310-47ba-8bcd-be3c79e26511","ios":"levelo://app?vid=5b926d7d-8310-47ba-8bcd-be3c79e26511"},"vehicle_type_id":"4","last_reported":1743602958,"current_range_meters":8400,"station_id":"ce4bhah2rcd13ifvqei0","pricing_plan_id":"cebpf4jnsgd1na2vs0mg"},{"bike_id":"3ba6ccff-1eda-46d4-acbd-01dbdd65bb76","system_id":"levelo_inurba_marseille","lat":43.298997,"lon":5.436777,"is_reserved":false,"is_disabled":false,"rental_uris":{"android":"levelo://app?vid=3ba6ccff-1eda-46d4-acbd-01dbdd65bb76","ios":"levelo://app?vid=3ba6ccff-1eda-46d4-acbd-01dbdd65bb76"},"vehicle_type_id":"4","last_reported":1743602958,"current_range_meters":8800,"station_id":"ce4bhpp2rcd13ifvqhfg","pricing_plan_id":"cebpf4jnsgd1na2vs0mg"},{"bike_id":"bf99569a-4f45-458b-b148-b21042c1d3c0","system_id":"levelo_inurba_marseille","lat":43.28156,"lon":5.42642,"is_reserved":false,"is_disabled":false,"rental_uris":{"android":"levelo://app?vid=bf99569a-4f45-458b-b148-b21042c1d3c0","ios":"levelo://app?vid=bf99569a-4f45-458b-b148-b21042c1d3c0"},"vehicle_type_id":"4","last_reported":1743602958,"current_range_meters":8800,"station_id":"ce4bhnh2rcd13ifvqgug","pricing_plan_id":"cebpf4jnsgd1na2vs0mg"},{"bike_id":"30ed5948-f33e-4660-8f4e-dd46777be562","system_id":"levelo_inurba_marseille","lat":43.28934,"lon":5.38408,"is_reserved":false,"is_disabled":false,"rental_uris":{"android":"levelo://app?vid=30ed5948-f33e-4660-8f4e-dd46777be562","ios":"levelo://app?vid=30ed5948-f33e-4660-8f4e-dd46777be562"},"vehicle_type_id":"4","last_reported":1743602958,"current_range_meters":8400,"station_id":"ce4bh612rcd13ifvqe6g","pricing_plan_id":"cebpf4jnsgd1na2vs0mg"},{"bike_id":"c04ec2c8-8f50-4ee8-8a69-122203b15c48","system_id":"levelo_inurba_marseille","lat":43.28597,"lon":5.37055,"is_reserved":false,"is_disabled":false,"rental_uris":{"android":"levelo://app?vid=c04ec2c8-8f50-4ee8-8a69-122203b15c48","ios":"levelo://app?vid=c04ec2c8-8f50-4ee8-8a69-122203b15c48"},"vehicle_type_id":"4","last_reported":1743602958,"current_range_meters":9200,"station_id":"ce4bht12rcd13ifvqi60","pricing_plan_id":"cebpf4jnsgd1na2vs0mg"},{"bike_id":"e3d01a26-5542-45dc-8373-1b19a6bf2880","system_id":"levelo_inurba_marseille","lat":43.23145,"lon":5.43694,"is_reserved":false,"is_disabled":false,"rental_uris":{"android":"levelo://app?vid=e3d01a26-5542-45dc-8373-1b19a6bf2880","ios":"levelo://app?vid=e3d01a26-5542-45dc-8373-1b19a6bf2880"},"vehicle_type_id":"4","last_reported":1743602958,"current_range_meters":9200,"station_id":"ce4bhmp2rcd13ifvqgog","pricing_plan_id":"cebpf4jnsgd1na2vs0mg"},{"bike_id":"7aa08c36-ee27-4e8e-996a-fcb4923ecbbb","system_id":"levelo_inurba_marseille","lat":43.28284,"lon":5.35075,"is_reserved":false,"is_disabled":true,"rental_uris":{"android":"levelo://app?vid=7aa08c36-ee27-4e8e-996a-fcb4923ecbbb","ios":"levelo://app?vid=7aa08c36-ee27-4e8e-996a-fcb4923ecbbb"},"vehicle_type_id":"4","last_reported":1743602958,"current_range_meters":9200,"station_id":"ce4bhbp2rcd13ifvqerg","pricing_plan_id":"cebpf4jnsgd1na2vs0mg"},{"bike_id":"c05ea898-9b73-4ac7-a114-d869d4e9a852","system_id":"levelo_inurba_marseille","lat":43.26226,"lon":5.3744,"is_reserved":false,"is_disabled":false,"rental_uris":{"android":"levelo://app?vid=c05ea898-9b73-4ac7-a114-d869d4e9a852","ios":"levelo://app?vid=c05ea898-9b73-4ac7-a114-d869d4e9a852"},"vehicle_type_id":"4","last_reported":1743602958,"current_range_meters":9200,"station_id":"","pricing_plan_id":"cebpf4jnsgd1na2vs0mg"},{"bike_id":"4ec591aa-4134-4f92-b4f0-f8fdab82aec3","system_id":"levelo_inurba_marseille","lat":43.299788,"lon":5.371778,"is_reserved":false,"is_disabled":false,"rental_uris":{"android":"levelo://app?vid=4ec591aa-4134-4f92-b4f0-f8fdab82aec3","ios":"levelo://app?vid=4ec591aa-4134-4f92-b4f0-f8fdab82aec3"},"vehicle_type_id":"4","last_reported":1743602958,"current_range_meters":9200,"station_id":"ce4bhlp2rcd13ifvqgjg","pricing_plan_id":"cebpf4jnsgd1na2vs0mg"},{"bike_id":"d120d6b8-7c34-45a1-bfdf-2a5356fa3a50","system_id":"levelo_inurba_marseille","lat":43.26212,"lon":5.37448,"is_reserved":false,"is_disabled":false,"rental_uris":{"android":"levelo://app?vid=d120d6b8-7c34-45a1-bfdf-2a5356fa3a50","ios":"levelo://app?vid=d120d6b8-7c34-45a1-bfdf-2a5356fa3a50"},"vehicle_type_id":"4","last_reported":1743602958,"current_range_meters":9200,"station_id":"ce4bhgp2rcd13ifvqfc0","pricing_plan_id":"cebpf4jnsgd1na2vs0mg"},{"bike_id":"7bb679e1-127d-4f3e-8f14-167fc222acc0","system_id":"levelo_inurba_marseille","lat":43.294149,"lon":5.386217,"is_reserved":false,"is_disabled":false,"rental_uris":{"android":"levelo://app?vid=7bb679e1-127d-4f3e-8f14-167fc222acc0","ios":"levelo://app?vid=7bb679e1-127d-4f3e-8f14-167fc222acc0"},"vehicle_type_id":"4","last_reported":1743602958,"current_range_meters":9200,"station_id":"ce4bh2h2rcd13ifvqdh0","pricing_plan_id":"cebpf4jnsgd1na2vs0mg"},{"bike_id":"ab4c5dc3-b81e-4a9c-a3fd-25715b9d3e23","system_id":"levelo_inurba_marseille","lat":43.29044,"lon":5.35928,"is_reserved":false,"is_disabled":false,"rental_uris":{"android":"levelo://app?vid=ab4c5dc3-b81e-4a9c-a3fd-25715b9d3e23","ios":"levelo://app?vid=ab4c5dc3-b81e-4a9c-a3fd-25715b9d3e23"},"vehicle_type_id":"4","last_reported":1743602958,"current_range_meters":9200,"station_id":"ce4bha92rcd13ifvqeg0","pricing_plan_id":"cebpf4jnsgd1na2vs0mg"},{"bike_id":"2ed9404d-458e-44d9-afcd-e53713075f99","system_id":"levelo_inurba_marseille","lat":43.22934,"lon":5.35368,"is_reserved":false,"is_disabled":false,"rental_uris":{"android":"levelo://app?vid=2ed9404d-458e-44d9-afcd-e53713075f99","ios":"levelo://app?vid=2ed9404d-458e-44d9-afcd-e53713075f99"},"vehicle_type_id":"4","last_reported":1743602958,"current_range_meters":9600,"station_id":"cpo3532slgdg3j2ikp40","pricing_plan_id":"cebpf4jnsgd1na2vs0mg"},{"bike_id":"9df1ea73-0ce9-4d97-be8b-4917261e0c76","system_id":"levelo_inurba_marseille","lat":43.32546,"lon":5.41449,"is_reserved":false,"is_disabled":false,"rental_uris":{"android":"levelo://app?vid=9df1ea73-0ce9-4d97-be8b-4917261e0c76","ios":"levelo://app?vid=9df1ea73-0ce9-4d97-be8b-4917261e0c76"},"vehicle_type_id":"4","last_reported":1743602958,"current_range_meters":9600,"station_id":"ce4bhq12rcd13ifvqhhg","pricing_plan_id":"cebpf4jnsgd1na2vs0mg"},{"bike_id":"d1b5d6c6-563b-4dc0-99fd-5e93b8acdd06","system_id":"levelo_inurba_marseille","lat":43.23152,"lon":5.4371,"is_reserved":false,"is_disabled":false,"rental_uris":{"android":"levelo://app?vid=d1b5d6c6-563b-4dc0-99fd-5e93b8acdd06","ios":"levelo://app?vid=d1b5d6c6-563b-4dc0-99fd-5e93b8acdd06"},"vehicle_type_id":"4","last_reported":1743602958,"current_range_meters":9600,"station_id":"ce4bhmp2rcd13ifvqgog","pricing_plan_id":"cebpf4jnsgd1na2vs0mg"},{"bike_id":"6e6a66e5-58ca-4db1-9695-b46ed5c28827","system_id":"levelo_inurba_marseille","lat":43.31791,"lon":5.36786,"is_reserved":false,"is_disabled":false,"rental_uris":{"android":"levelo://app?vid=6e6a66e5-58ca-4db1-9695-b46ed5c28827","ios":"levelo://app?vid=6e6a66e5-58ca-4db1-9695-b46ed5c28827"},"vehicle_type_id":"4","last_reported":1743602958,"current_range_meters":9600,"station_id":"","pricing_plan_id":"cebpf4jnsgd1na2vs0mg"},{"bike_id":"f55695a6-b65f-4a30-99ab-94b2bfa63268","system_id":"levelo_inurba_marseille","lat":43.23194,"lon":5.35553,"is_reserved":false,"is_disabled":false,"rental_uris":{"android":"levelo://app?vid=f55695a6-b65f-4a30-99ab-94b2bfa63268","ios":"levelo://app?vid=f55695a6-b65f-4a30-99ab-94b2bfa63268"},"vehicle_type_id":"4","last_reported":1743602958,"current_range_meters":9600,"station_id":"ce4bhu92rcd13ifvqi70","pricing_plan_id":"cebpf4jnsgd1na2vs0mg"},{"bike_id":"30d1ff82-96a1-44e5-b4ef-86e4045ab08e","system_id":"levelo_inurba_marseille","lat":43.29715,"lon":5.37694,"is_reserved":false,"is_disabled":false,"rental_uris":{"android":"levelo://app?vid=30d1ff82-96a1-44e5-b4ef-86e4045ab08e","ios":"levelo://app?vid=30d1ff82-96a1-44e5-b4ef-86e4045ab08e"},"vehicle_type_id":"4","last_reported":1743602958,"current_range_meters":9600,"station_id":"ce4bgkh2rcd13ifvqbl0","pricing_plan_id":"cebpf4jnsgd1na2vs0mg"},{"bike_id":"2e1d0491-8046-4a1c-910c-6d230f4ca468","system_id":"levelo_inurba_marseille","lat":43.3067,"lon":5.37361,"is_reserved":false,"is_disabled":false,"rental_uris":{"android":"levelo://app?vid=2e1d0491-8046-4a1c-910c-6d230f4ca468","ios":"levelo://app?vid=2e1d0491-8046-4a1c-910c-6d230f4ca468"},"vehicle_type_id":"4","last_reported":1743602958,"current_range_meters":9600,"station_id":"","pricing_plan_id":"cebpf4jnsgd1na2vs0mg"},{"bike_id":"7b869cea-1d61-42d2-b04b-29df5bd7497f","system_id":"levelo_inurba_marseille","lat":43.3211,"lon":5.36765,"is_reserved":false,"is_disabled":false,"rental_uris":{"android":"levelo://app?vid=7b869cea-1d61-42d2-b04b-29df5bd7497f","ios":"levelo://app?vid=7b869cea-1d61-42d2-b04b-29df5bd7497f"},"vehicle_type_id":"4","last_reported":1743602958,"current_range_meters":10000,"station_id":"ce4bhrh2rcd13ifvqhug","pricing_plan_id":"cebpf4jnsgd1na2vs0mg"},{"bike_id":"e960fa97-1c55-49ad-ab61-f5f5e67bf8ff","system_id":"levelo_inurba_marseille","lat":43.29572,"lon":5.3998,"is_reserved":false,"is_disabled":false,"rental_uris":{"android":"levelo://app?vid=e960fa97-1c55-49ad-ab61-f5f5e67bf8ff","ios":"levelo://app?vid=e960fa97-1c55-49ad-ab61-f5f5e67bf8ff"},"vehicle_type_id":"4","last_reported":1743602958,"current_range_meters":10000,"station_id":"ce4bh312rcd13ifvqdj0","pricing_plan_id":"cebpf4jnsgd1na2vs0mg"},{"bike_id":"b80ee275-2592-4659-b2e9-175feb839700","system_id":"levelo_inurba_marseille","lat":43.23197,"lon":5.35546,"is_reserved":false,"is_disabled":false,"rental_uris":{"android":"levelo://app?vid=b80ee275-2592-4659-b2e9-175feb839700","ios":"levelo://app?vid=b80ee275-2592-4659-b2e9-175feb839700"},"vehicle_type_id":"4","last_reported":1743602958,"current_range_meters":10000,"station_id":"ce4bhu92rcd13ifvqi70","pricing_plan_id":"cebpf4jnsgd1na2vs0mg"},{"bike_id":"f87e996c-206a-47d9-8697-84a2d463fdc3","system_id":"levelo_inurba_marseille","lat":43.2319,"lon":5.35572,"is_reserved":false,"is_disabled":false,"rental_uris":{"android":"levelo://app?vid=f87e996c-206a-47d9-8697-84a2d463fdc3","ios":"levelo://app?vid=f87e996c-206a-47d9-8697-84a2d463fdc3"},"vehicle_type_id":"4","last_reported":1743602958,"current_range_meters":10000,"station_id":"ce4bhu92rcd13ifvqi70","pricing_plan_id":"cebpf4jnsgd1na2vs0mg"},{"bike_id":"0b296519-f821-4f88-8100-f478a06aa1db","system_id":"levelo_inurba_marseille","lat":43.30464,"lon":5.37904,"is_reserved":false,"is_disabled":false,"rental_uris":{"android":"levelo://app?vid=0b296519-f821-4f88-8100-f478a06aa1db","ios":"levelo://app?vid=0b296519-f821-4f88-8100-f478a06aa1db"},"vehicle_type_id":"4","last_reported":1743602958,"current_range_meters":10000,"station_id":"ce4bgup2rcd13ifvqcn0","pricing_plan_id":"cebpf4jnsgd1na2vs0mg"},{"bike_id":"08fa120d-1b7b-45e2-8662-4ad042922a84","system_id":"levelo_inurba_marseille","lat":43.25589,"lon":5.38236,"is_reserved":false,"is_disabled":false,"rental_uris":{"android":"levelo://app?vid=08fa120d-1b7b-45e2-8662-4ad042922a84","ios":"levelo://app?vid=08fa120d-1b7b-45e2-8662-4ad042922a84"},"vehicle_type_id":"4","last_reported":1743602958,"current_range_meters":10000,"station_id":"ce4bhih2rcd13ifvqfs0","pricing_plan_id":"cebpf4jnsgd1na2vs0mg"},{"bike_id":"c3d811f8-c2e8-4c0b-a3f2-42f68cf8f94c","system_id":"levelo_inurba_marseille","lat":43.23139,"lon":5.43744,"is_reserved":false,"is_disabled":false,"rental_uris":{"android":"levelo://app?vid=c3d811f8-c2e8-4c0b-a3f2-42f68cf8f94c","ios":"levelo://app?vid=c3d811f8-c2e8-4c0b-a3f2-42f68cf8f94c"},"vehicle_type_id":"4","last_reported":1743602958,"current_range_meters":10000,"station_id":"ce4bhmp2rcd13ifvqgog","pricing_plan_id":"cebpf4jnsgd1na2vs0mg"},{"bike_id":"d53c6405-ebc2-4039-a2fc-47c24b51e6f6","system_id":"levelo_inurba_marseille","lat":43.29423,"lon":5.38613,"is_reserved":false,"is_disabled":false,"rental_uris":{"android":"levelo://app?vid=d53c6405-ebc2-4039-a2fc-47c24b51e6f6","ios":"levelo://app?vid=d53c6405-ebc2-4039-a2fc-47c24b51e6f6"},"vehicle_type_id":"4","last_reported":1743602958,"current_range_meters":10000,"station_id":"ce4bh2h2rcd13ifvqdh0","pricing_plan_id":"cebpf4jnsgd1na2vs0mg"},{"bike_id":"a6d25717-0db4-4a18-b77c-e49dc99dee91","system_id":"levelo_inurba_marseille","lat":43.25729,"lon":5.4111,"is_reserved":false,"is_disabled":false,"rental_uris":{"android":"levelo://app?vid=a6d25717-0db4-4a18-b77c-e49dc99dee91","ios":"levelo://app?vid=a6d25717-0db4-4a18-b77c-e49dc99dee91"},"vehicle_type_id":"4","last_reported":1743602958,"current_range_meters":10000,"station_id":"ce4bhkp2rcd13ifvqgd0","pricing_plan_id":"cebpf4jnsgd1na2vs0mg"},{"bike_id":"bd85d8e2-c46c-4a7f-a66b-1892178ef080","system_id":"levelo_inurba_marseille","lat":43.27672,"lon":5.38897,"is_reserved":false,"is_disabled":true,"rental_uris":{"android":"levelo://app?vid=bd85d8e2-c46c-4a7f-a66b-1892178ef080","ios":"levelo://app?vid=bd85d8e2-c46c-4a7f-a66b-1892178ef080"},"vehicle_type_id":"4","last_reported":1743602958,"current_range_meters":10000,"station_id":"ce4bhi12rcd13ifvqfo0","pricing_plan_id":"cebpf4jnsgd1na2vs0mg"},{"bike_id":"d044cc17-f95d-4c62-8d87-3de8e64b6fe1","system_id":"levelo_inurba_marseille","lat":43.29707,"lon":5.36598,"is_reserved":false,"is_disabled":false,"rental_uris":{"android":"levelo://app?vid=d044cc17-f95d-4c62-8d87-3de8e64b6fe1","ios":"levelo://app?vid=d044cc17-f95d-4c62-8d87-3de8e64b6fe1"},"vehicle_type_id":"4","last_reported":1743602958,"current_range_meters":10000,"station_id":"ce4bgn12rcd13ifvqbt0","pricing_plan_id":"cebpf4jnsgd1na2vs0mg"},{"bike_id":"d8a1595a-9afa-4c5b-a8ee-e7e465b947db","system_id":"levelo_inurba_marseille","lat":43.31324,"lon":5.37336,"is_reserved":false,"is_disabled":false,"rental_uris":{"android":"levelo://app?vid=d8a1595a-9afa-4c5b-a8ee-e7e465b947db","ios":"levelo://app?vid=d8a1595a-9afa-4c5b-a8ee-e7e465b947db"},"vehicle_type_id":"4","last_reported":1743602958,"current_range_meters":10000,"station_id":"","pricing_plan_id":"cebpf4jnsgd1na2vs0mg"},{"bike_id":"49428efe-bbd8-4963-9aaf-ed822fd5c61b","system_id":"levelo_inurba_marseille","lat":43.292187,"lon":5.443857,"is_reserved":false,"is_disabled":false,"rental_uris":{"android":"levelo://app?vid=49428efe-bbd8-4963-9aaf-ed822fd5c61b","ios":"levelo://app?vid=49428efe-bbd8-4963-9aaf-ed822fd5c61b"},"vehicle_type_id":"4","last_reported":1743602958,"current_range_meters":10000,"station_id":"","pricing_plan_id":"cebpf4jnsgd1na2vs0mg"},{"bike_id":"071fc4a5-9ba5-43c4-ad03-afd44bfff01a","system_id":"levelo_inurba_marseille","lat":43.30316,"lon":5.39214,"is_reserved":false,"is_disabled":false,"rental_uris":{"android":"levelo://app?vid=071fc4a5-9ba5-43c4-ad03-afd44bfff01a","ios":"levelo://app?vid=071fc4a5-9ba5-43c4-ad03-afd44bfff01a"},"vehicle_type_id":"4","last_reported":1743602958,"current_range_meters":10000,"station_id":"ce4bgkh2rcd13ifvqbk0","pricing_plan_id":"cebpf4jnsgd1na2vs0mg"},{"bike_id":"b52eafbb-0fdc-487b-b3ce-3a3f8cf7e638","system_id":"levelo_inurba_marseille","lat":43.33114,"lon":5.39248,"is_reserved":false,"is_disabled":false,"rental_uris":{"android":"levelo://app?vid=b52eafbb-0fdc-487b-b3ce-3a3f8cf7e638","ios":"levelo://app?vid=b52eafbb-0fdc-487b-b3ce-3a3f8cf7e638"},"vehicle_type_id":"4","last_reported":1743602958,"current_range_meters":10800,"station_id":"","pricing_plan_id":"cebpf4jnsgd1na2vs0mg"},{"bike_id":"d157a8ac-f1ea-480a-a1ee-9ac00962bb01","system_id":"levelo_inurba_marseille","lat":43.2955,"lon":5.4231,"is_reserved":false,"is_disabled":false,"rental_uris":{"android":"levelo://app?vid=d157a8ac-f1ea-480a-a1ee-9ac00962bb01","ios":"levelo://app?vid=d157a8ac-f1ea-480a-a1ee-9ac00962bb01"},"vehicle_type_id":"4","last_reported":1743602958,"current_range_meters":10800,"station_id":"ce4bhph2rcd13ifvqhdg","pricing_plan_id":"cebpf4jnsgd1na2vs0mg"},{"bike_id":"13874fc4-e916-4702-948c-845c0a8b40f5","system_id":"levelo_inurba_marseille","lat":43.27047,"lon":5.40267,"is_reserved":false,"is_disabled":false,"rental_uris":{"android":"levelo://app?vid=13874fc4-e916-4702-948c-845c0a8b40f5","ios":"levelo://app?vid=13874fc4-e916-4702-948c-845c0a8b40f5"},"vehicle_type_id":"4","last_reported":1743602958,"current_range_meters":10800,"station_id":"ce4bhk92rcd13ifvqgc0","pricing_plan_id":"cebpf4jnsgd1na2vs0mg"},{"bike_id":"f2633860-c0a8-4a91-be4b-c1cbfa13574a","system_id":"levelo_inurba_marseille","lat":43.28603,"lon":5.37046,"is_reserved":false,"is_disabled":false,"rental_uris":{"android":"levelo://app?vid=f2633860-c0a8-4a91-be4b-c1cbfa13574a","ios":"levelo://app?vid=f2633860-c0a8-4a91-be4b-c1cbfa13574a"},"vehicle_type_id":"4","last_reported":1743602958,"current_range_meters":10800,"station_id":"ce4bht12rcd13ifvqi60","pricing_plan_id":"cebpf4jnsgd1na2vs0mg"},{"bike_id":"77fd553e-4cc7-4ee1-b6bc-281f17ec491f","system_id":"levelo_inurba_marseille","lat":43.23138,"lon":5.43708,"is_reserved":false,"is_disabled":false,"rental_uris":{"android":"levelo://app?vid=77fd553e-4cc7-4ee1-b6bc-281f17ec491f","ios":"levelo://app?vid=77fd553e-4cc7-4ee1-b6bc-281f17ec491f"},"vehicle_type_id":"4","last_reported":1743602958,"current_range_meters":10800,"station_id":"ce4bhmp2rcd13ifvqgog","pricing_plan_id":"cebpf4jnsgd1na2vs0mg"},{"bike_id":"dd3db03f-0f43-4986-9ec8-2a76818fb28c","system_id":"levelo_inurba_marseille","lat":43.232,"lon":5.35552,"is_reserved":false,"is_disabled":false,"rental_uris":{"android":"levelo://app?vid=dd3db03f-0f43-4986-9ec8-2a76818fb28c","ios":"levelo://app?vid=dd3db03f-0f43-4986-9ec8-2a76818fb28c"},"vehicle_type_id":"4","last_reported":1743602958,"current_range_meters":10800,"station_id":"ce4bhu92rcd13ifvqi70","pricing_plan_id":"cebpf4jnsgd1na2vs0mg"},{"bike_id":"7a897049-4a0a-47d0-9f73-d716def9e686","system_id":"levelo_inurba_marseille","lat":43.30079,"lon":5.39083,"is_reserved":false,"is_disabled":false,"rental_uris":{"android":"levelo://app?vid=7a897049-4a0a-47d0-9f73-d716def9e686","ios":"levelo://app?vid=7a897049-4a0a-47d0-9f73-d716def9e686"},"vehicle_type_id":"4","last_reported":1743602958,"current_range_meters":10800,"station_id":"ce4bh192rcd13ifvqdb0","pricing_plan_id":"cebpf4jnsgd1na2vs0mg"},{"bike_id":"1d901708-f2b0-4298-b219-881ba909d64b","system_id":"levelo_inurba_marseille","lat":43.30609,"lon":5.37237,"is_reserved":false,"is_disabled":false,"rental_uris":{"android":"levelo://app?vid=1d901708-f2b0-4298-b219-881ba909d64b","ios":"levelo://app?vid=1d901708-f2b0-4298-b219-881ba909d64b"},"vehicle_type_id":"4","last_reported":1743602958,"current_range_meters":10800,"station_id":"ce4bgqh2rcd13ifvqc4g","pricing_plan_id":"cebpf4jnsgd1na2vs0mg"},{"bike_id":"e3b382ad-e4ba-4561-b96c-3c6894f7c5ed","system_id":"levelo_inurba_marseille","lat":43.299528,"lon":5.385532,"is_reserved":false,"is_disabled":false,"rental_uris":{"android":"levelo://app?vid=e3b382ad-e4ba-4561-b96c-3c6894f7c5ed","ios":"levelo://app?vid=e3b382ad-e4ba-4561-b96c-3c6894f7c5ed"},"vehicle_type_id":"4","last_reported":1743602958,"current_range_meters":10800,"station_id":"ce4bh0h2rcd13ifvqd50","pricing_plan_id":"cebpf4jnsgd1na2vs0mg"},{"bike_id":"75dae32f-059a-4b5b-a5e8-963c6eda2f66","system_id":"levelo_inurba_marseille","lat":43.2752,"lon":5.41037,"is_reserved":false,"is_disabled":false,"rental_uris":{"android":"levelo://app?vid=75dae32f-059a-4b5b-a5e8-963c6eda2f66","ios":"levelo://app?vid=75dae32f-059a-4b5b-a5e8-963c6eda2f66"},"vehicle_type_id":"4","last_reported":1743602958,"current_range_meters":10800,"station_id":"","pricing_plan_id":"cebpf4jnsgd1na2vs0mg"},{"bike_id":"c6690021-1673-449c-992a-f8e08d7f8f48","system_id":"levelo_inurba_marseille","lat":43.334101,"lon":5.396269,"is_reserved":false,"is_disabled":false,"rental_uris":{"android":"levelo://app?vid=c6690021-1673-449c-992a-f8e08d7f8f48","ios":"levelo://app?vid=c6690021-1673-449c-992a-f8e08d7f8f48"},"vehicle_type_id":"4","last_reported":1743602958,"current_range_meters":10800,"station_id":"ce4bhqp2rcd13ifvqhng","pricing_plan_id":"cebpf4jnsgd1na2vs0mg"},{"bike_id":"cd3b9616-86e8-44d4-b2e2-0a92b2b09ed1","system_id":"levelo_inurba_marseille","lat":43.31219,"lon":5.36874,"is_reserved":false,"is_disabled":false,"rental_uris":{"android":"levelo://app?vid=cd3b9616-86e8-44d4-b2e2-0a92b2b09ed1","ios":"levelo://app?vid=cd3b9616-86e8-44d4-b2e2-0a92b2b09ed1"},"vehicle_type_id":"4","last_reported":1743602958,"current_range_meters":11200,"station_id":"ce4bgl92rcd13ifvqbq0","pricing_plan_id":"cebpf4jnsgd1na2vs0mg"},{"bike_id":"4dc59989-3080-416b-9ac5-717749e014fa","system_id":"levelo_inurba_marseille","lat":43.26515,"lon":5.39555,"is_reserved":false,"is_disabled":false,"rental_uris":{"android":"levelo://app?vid=4dc59989-3080-416b-9ac5-717749e014fa","ios":"levelo://app?vid=4dc59989-3080-416b-9ac5-717749e014fa"},"vehicle_type_id":"4","last_reported":1743602958,"current_range_meters":11200,"station_id":"ce4bhi12rcd13ifvqfq0","pricing_plan_id":"cebpf4jnsgd1na2vs0mg"},{"bike_id":"2d48cd09-9ee2-4630-8cab-be4140a04965","system_id":"levelo_inurba_marseille","lat":43.23192,"lon":5.35564,"is_reserved":false,"is_disabled":false,"rental_uris":{"android":"levelo://app?vid=2d48cd09-9ee2-4630-8cab-be4140a04965","ios":"levelo://app?vid=2d48cd09-9ee2-4630-8cab-be4140a04965"},"vehicle_type_id":"4","last_reported":1743602958,"current_range_meters":11200,"station_id":"ce4bhu92rcd13ifvqi70","pricing_plan_id":"cebpf4jnsgd1na2vs0mg"},{"bike_id":"e111ace5-39c9-4488-9abf-b8ef3074cbfe","system_id":"levelo_inurba_marseille","lat":43.265549,"lon":5.372864,"is_reserved":false,"is_disabled":false,"rental_uris":{"android":"levelo://app?vid=e111ace5-39c9-4488-9abf-b8ef3074cbfe","ios":"levelo://app?vid=e111ace5-39c9-4488-9abf-b8ef3074cbfe"},"vehicle_type_id":"4","last_reported":1743602958,"current_range_meters":11200,"station_id":"ce4bhg12rcd13ifvqf70","pricing_plan_id":"cebpf4jnsgd1na2vs0mg"},{"bike_id":"cfe8c8ed-09ca-464f-984b-cc5e9324ed47","system_id":"levelo_inurba_marseille","lat":43.24998,"lon":5.38933,"is_reserved":false,"is_disabled":false,"rental_uris":{"android":"levelo://app?vid=cfe8c8ed-09ca-464f-984b-cc5e9324ed47","ios":"levelo://app?vid=cfe8c8ed-09ca-464f-984b-cc5e9324ed47"},"vehicle_type_id":"4","last_reported":1743602958,"current_range_meters":11200,"station_id":"ce4bhgp2rcd13ifvqfd0","pricing_plan_id":"cebpf4jnsgd1na2vs0mg"},{"bike_id":"7ae64626-49ff-4023-a551-f84c4787e9de","system_id":"levelo_inurba_marseille","lat":43.24808,"lon":5.37457,"is_reserved":false,"is_disabled":false,"rental_uris":{"android":"levelo://app?vid=7ae64626-49ff-4023-a551-f84c4787e9de","ios":"levelo://app?vid=7ae64626-49ff-4023-a551-f84c4787e9de"},"vehicle_type_id":"4","last_reported":1743602958,"current_range_meters":11200,"station_id":"ce4bhgh2rcd13ifvqfb0","pricing_plan_id":"cebpf4jnsgd1na2vs0mg"},{"bike_id":"bd302444-c35e-41fd-b6b1-ae9f7324a71c","system_id":"levelo_inurba_marseille","lat":43.32543,"lon":5.41433,"is_reserved":false,"is_disabled":false,"rental_uris":{"android":"levelo://app?vid=bd302444-c35e-41fd-b6b1-ae9f7324a71c","ios":"levelo://app?vid=bd302444-c35e-41fd-b6b1-ae9f7324a71c"},"vehicle_type_id":"4","last_reported":1743602958,"current_range_meters":11200,"station_id":"ce4bhq12rcd13ifvqhhg","pricing_plan_id":"cebpf4jnsgd1na2vs0mg"},{"bike_id":"94c723aa-7272-4b4b-b154-1d3a82f1f149","system_id":"levelo_inurba_marseille","lat":43.27055,"lon":5.40252,"is_reserved":false,"is_disabled":false,"rental_uris":{"android":"levelo://app?vid=94c723aa-7272-4b4b-b154-1d3a82f1f149","ios":"levelo://app?vid=94c723aa-7272-4b4b-b154-1d3a82f1f149"},"vehicle_type_id":"4","last_reported":1743602958,"current_range_meters":11600,"station_id":"ce4bhk92rcd13ifvqgc0","pricing_plan_id":"cebpf4jnsgd1na2vs0mg"},{"bike_id":"6e8019c4-8b00-4f90-a092-9709644b7601","system_id":"levelo_inurba_marseille","lat":43.26209,"lon":5.37469,"is_reserved":false,"is_disabled":false,"rental_uris":{"android":"levelo://app?vid=6e8019c4-8b00-4f90-a092-9709644b7601","ios":"levelo://app?vid=6e8019c4-8b00-4f90-a092-9709644b7601"},"vehicle_type_id":"4","last_reported":1743602958,"current_range_meters":11600,"station_id":"ce4bhgp2rcd13ifvqfc0","pricing_plan_id":"cebpf4jnsgd1na2vs0mg"},{"bike_id":"b6144d09-6dd1-4ca4-97f5-4ec37918d3dd","system_id":"levelo_inurba_marseille","lat":43.26689,"lon":5.38282,"is_reserved":false,"is_disabled":false,"rental_uris":{"android":"levelo://app?vid=b6144d09-6dd1-4ca4-97f5-4ec37918d3dd","ios":"levelo://app?vid=b6144d09-6dd1-4ca4-97f5-4ec37918d3dd"},"vehicle_type_id":"4","last_reported":1743602958,"current_range_meters":11600,"station_id":"ce4bhg92rcd13ifvqf90","pricing_plan_id":"cebpf4jnsgd1na2vs0mg"},{"bike_id":"6ad5733d-d8de-4198-9a68-8a1704614653","system_id":"levelo_inurba_marseille","lat":43.231583,"lon":5.437071,"is_reserved":false,"is_disabled":false,"rental_uris":{"android":"levelo://app?vid=6ad5733d-d8de-4198-9a68-8a1704614653","ios":"levelo://app?vid=6ad5733d-d8de-4198-9a68-8a1704614653"},"vehicle_type_id":"4","last_reported":1743602958,"current_range_meters":12000,"station_id":"ce4bhmp2rcd13ifvqgog","pricing_plan_id":"cebpf4jnsgd1na2vs0mg"},{"bike_id":"ec419c35-c776-465a-a882-889b60416d26","system_id":"levelo_inurba_marseille","lat":43.30539,"lon":5.36554,"is_reserved":false,"is_disabled":false,"rental_uris":{"android":"levelo://app?vid=ec419c35-c776-465a-a882-889b60416d26","ios":"levelo://app?vid=ec419c35-c776-465a-a882-889b60416d26"},"vehicle_type_id":"4","last_reported":1743602958,"current_range_meters":12000,"station_id":"ce4bgs12rcd13ifvqcag","pricing_plan_id":"cebpf4jnsgd1na2vs0mg"},{"bike_id":"c2e6881a-04a3-4a38-9cc0-75cacf165e78","system_id":"levelo_inurba_marseille","lat":43.28832,"lon":5.364645,"is_reserved":false,"is_disabled":false,"rental_uris":{"android":"levelo://app?vid=c2e6881a-04a3-4a38-9cc0-75cacf165e78","ios":"levelo://app?vid=c2e6881a-04a3-4a38-9cc0-75cacf165e78"},"vehicle_type_id":"4","last_reported":1743602958,"current_range_meters":12000,"station_id":"","pricing_plan_id":"cebpf4jnsgd1na2vs0mg"},{"bike_id":"0ac74a60-a27e-4a26-8b97-a7b15d204ed9","system_id":"levelo_inurba_marseille","lat":43.28665,"lon":5.38679,"is_reserved":false,"is_disabled":false,"rental_uris":{"android":"levelo://app?vid=0ac74a60-a27e-4a26-8b97-a7b15d204ed9","ios":"levelo://app?vid=0ac74a60-a27e-4a26-8b97-a7b15d204ed9"},"vehicle_type_id":"4","last_reported":1743602958,"current_range_meters":11600,"station_id":"ce4bh492rcd13ifvqdug","pricing_plan_id":"cebpf4jnsgd1na2vs0mg"},{"bike_id":"0bce655f-fb68-4000-819d-155ffecd0d2a","system_id":"levelo_inurba_marseille","lat":43.22935,"lon":5.35376,"is_reserved":false,"is_disabled":false,"rental_uris":{"android":"levelo://app?vid=0bce655f-fb68-4000-819d-155ffecd0d2a","ios":"levelo://app?vid=0bce655f-fb68-4000-819d-155ffecd0d2a"},"vehicle_type_id":"4","last_reported":1743602958,"current_range_meters":12000,"station_id":"cpo3532slgdg3j2ikp40","pricing_plan_id":"cebpf4jnsgd1na2vs0mg"},{"bike_id":"b3fa5155-ca80-411d-912a-932589dc3780","system_id":"levelo_inurba_marseille","lat":43.26958,"lon":5.38638,"is_reserved":false,"is_disabled":false,"rental_uris":{"android":"levelo://app?vid=b3fa5155-ca80-411d-912a-932589dc3780","ios":"levelo://app?vid=b3fa5155-ca80-411d-912a-932589dc3780"},"vehicle_type_id":"4","last_reported":1743602958,"current_range_meters":12000,"station_id":"ce4bhh92rcd13ifvqfh0","pricing_plan_id":"cebpf4jnsgd1na2vs0mg"},{"bike_id":"9e997935-3a59-42ad-b561-8c0ed3de4388","system_id":"levelo_inurba_marseille","lat":43.30555,"lon":5.36536,"is_reserved":false,"is_disabled":false,"rental_uris":{"android":"levelo://app?vid=9e997935-3a59-42ad-b561-8c0ed3de4388","ios":"levelo://app?vid=9e997935-3a59-42ad-b561-8c0ed3de4388"},"vehicle_type_id":"4","last_reported":1743602958,"current_range_meters":12400,"station_id":"ce4bgs12rcd13ifvqcag","pricing_plan_id":"cebpf4jnsgd1na2vs0mg"},{"bike_id":"e68c6be6-9dff-458c-a28c-75215e8ded7f","system_id":"levelo_inurba_marseille","lat":43.2466,"lon":5.38163,"is_reserved":false,"is_disabled":false,"rental_uris":{"android":"levelo://app?vid=e68c6be6-9dff-458c-a28c-75215e8ded7f","ios":"levelo://app?vid=e68c6be6-9dff-458c-a28c-75215e8ded7f"},"vehicle_type_id":"4","last_reported":1743602958,"current_range_meters":12400,"station_id":"ce4bhih2rcd13ifvqfr0","pricing_plan_id":"cebpf4jnsgd1na2vs0mg"},{"bike_id":"7ba67d0a-4dd2-434e-9233-c217be617343","system_id":"levelo_inurba_marseille","lat":43.33742,"lon":5.37492,"is_reserved":false,"is_disabled":false,"rental_uris":{"android":"levelo://app?vid=7ba67d0a-4dd2-434e-9233-c217be617343","ios":"levelo://app?vid=7ba67d0a-4dd2-434e-9233-c217be617343"},"vehicle_type_id":"4","last_reported":1743602958,"current_range_meters":12400,"station_id":"","pricing_plan_id":"cebpf4jnsgd1na2vs0mg"},{"bike_id":"0e6fa36c-f7a4-4560-b88b-1863d7f6c444","system_id":"levelo_inurba_marseille","lat":43.28134,"lon":5.42626,"is_reserved":false,"is_disabled":false,"rental_uris":{"android":"levelo://app?vid=0e6fa36c-f7a4-4560-b88b-1863d7f6c444","ios":"levelo://app?vid=0e6fa36c-f7a4-4560-b88b-1863d7f6c444"},"vehicle_type_id":"4","last_reported":1743602958,"current_range_meters":12400,"station_id":"ce4bhnh2rcd13ifvqgug","pricing_plan_id":"cebpf4jnsgd1na2vs0mg"},{"bike_id":"b5fa61b4-55c0-4d0f-b518-f0583e71aca3","system_id":"levelo_inurba_marseille","lat":43.22927,"lon":5.35371,"is_reserved":false,"is_disabled":false,"rental_uris":{"android":"levelo://app?vid=b5fa61b4-55c0-4d0f-b518-f0583e71aca3","ios":"levelo://app?vid=b5fa61b4-55c0-4d0f-b518-f0583e71aca3"},"vehicle_type_id":"4","last_reported":1743602958,"current_range_meters":12400,"station_id":"cpo3532slgdg3j2ikp40","pricing_plan_id":"cebpf4jnsgd1na2vs0mg"},{"bike_id":"adb099cf-52ed-409b-a796-c724fb1ce34d","system_id":"levelo_inurba_marseille","lat":43.23154,"lon":5.43706,"is_reserved":false,"is_disabled":false,"rental_uris":{"android":"levelo://app?vid=adb099cf-52ed-409b-a796-c724fb1ce34d","ios":"levelo://app?vid=adb099cf-52ed-409b-a796-c724fb1ce34d"},"vehicle_type_id":"4","last_reported":1743602958,"current_range_meters":12400,"station_id":"ce4bhmp2rcd13ifvqgog","pricing_plan_id":"cebpf4jnsgd1na2vs0mg"},{"bike_id":"9c3e3a9c-82d3-49f1-a4dc-cd0b65e48d89","system_id":"levelo_inurba_marseille","lat":43.297107,"lon":5.376936,"is_reserved":false,"is_disabled":false,"rental_uris":{"android":"levelo://app?vid=9c3e3a9c-82d3-49f1-a4dc-cd0b65e48d89","ios":"levelo://app?vid=9c3e3a9c-82d3-49f1-a4dc-cd0b65e48d89"},"vehicle_type_id":"4","last_reported":1743602958,"current_range_meters":12400,"station_id":"ce4bgkh2rcd13ifvqbl0","pricing_plan_id":"cebpf4jnsgd1na2vs0mg"},{"bike_id":"46572bb1-7848-4cef-adb2-eaf522c7f416","system_id":"levelo_inurba_marseille","lat":43.25927,"lon":5.40862,"is_reserved":false,"is_disabled":false,"rental_uris":{"android":"levelo://app?vid=46572bb1-7848-4cef-adb2-eaf522c7f416","ios":"levelo://app?vid=46572bb1-7848-4cef-adb2-eaf522c7f416"},"vehicle_type_id":"4","last_reported":1743602958,"current_range_meters":12400,"station_id":"ce4bhm92rcd13ifvqglg","pricing_plan_id":"cebpf4jnsgd1na2vs0mg"},{"bike_id":"2d370ecd-6d21-49be-a59a-19645dc94659","system_id":"levelo_inurba_marseille","lat":43.31225,"lon":5.36857,"is_reserved":false,"is_disabled":false,"rental_uris":{"android":"levelo://app?vid=2d370ecd-6d21-49be-a59a-19645dc94659","ios":"levelo://app?vid=2d370ecd-6d21-49be-a59a-19645dc94659"},"vehicle_type_id":"4","last_reported":1743602958,"current_range_meters":12400,"station_id":"ce4bgl92rcd13ifvqbq0","pricing_plan_id":"cebpf4jnsgd1na2vs0mg"},{"bike_id":"6fa1f49b-fadb-48d0-a76c-16bc16fe7f50","system_id":"levelo_inurba_marseille","lat":43.29632,"lon":5.40589,"is_reserved":false,"is_disabled":false,"rental_uris":{"android":"levelo://app?vid=6fa1f49b-fadb-48d0-a76c-16bc16fe7f50","ios":"levelo://app?vid=6fa1f49b-fadb-48d0-a76c-16bc16fe7f50"},"vehicle_type_id":"4","last_reported":1743602958,"current_range_meters":12800,"station_id":"ce4bh0h2rcd13ifvqd60","pricing_plan_id":"cebpf4jnsgd1na2vs0mg"},{"bike_id":"b6c83da9-b3c4-4843-9a1d-36871e12515b","system_id":"levelo_inurba_marseille","lat":43.26126,"lon":5.41458,"is_reserved":false,"is_disabled":false,"rental_uris":{"android":"levelo://app?vid=b6c83da9-b3c4-4843-9a1d-36871e12515b","ios":"levelo://app?vid=b6c83da9-b3c4-4843-9a1d-36871e12515b"},"vehicle_type_id":"4","last_reported":1743602958,"current_range_meters":12400,"station_id":"","pricing_plan_id":"cebpf4jnsgd1na2vs0mg"},{"bike_id":"e1b03b21-5eb0-483c-b4ac-ea8a29304382","system_id":"levelo_inurba_marseille","lat":43.23066,"lon":5.35496,"is_reserved":false,"is_disabled":false,"rental_uris":{"android":"levelo://app?vid=e1b03b21-5eb0-483c-b4ac-ea8a29304382","ios":"levelo://app?vid=e1b03b21-5eb0-483c-b4ac-ea8a29304382"},"vehicle_type_id":"4","last_reported":1743602958,"current_range_meters":12800,"station_id":"cpo3342slgdg3j2ifvpg","pricing_plan_id":"cebpf4jnsgd1na2vs0mg"},{"bike_id":"f14d62c0-c4ab-4bc4-bcdc-9b74bca29f6b","system_id":"levelo_inurba_marseille","lat":43.30946,"lon":5.39028,"is_reserved":false,"is_disabled":false,"rental_uris":{"android":"levelo://app?vid=f14d62c0-c4ab-4bc4-bcdc-9b74bca29f6b","ios":"levelo://app?vid=f14d62c0-c4ab-4bc4-bcdc-9b74bca29f6b"},"vehicle_type_id":"4","last_reported":1743602958,"current_range_meters":12800,"station_id":"ce4bgup2rcd13ifvqco0","pricing_plan_id":"cebpf4jnsgd1na2vs0mg"},{"bike_id":"b20dbb9e-b68e-440c-80fd-a956bf55bf4d","system_id":"levelo_inurba_marseille","lat":43.3112,"lon":5.37765,"is_reserved":false,"is_disabled":false,"rental_uris":{"android":"levelo://app?vid=b20dbb9e-b68e-440c-80fd-a956bf55bf4d","ios":"levelo://app?vid=b20dbb9e-b68e-440c-80fd-a956bf55bf4d"},"vehicle_type_id":"4","last_reported":1743602958,"current_range_meters":12800,"station_id":"ce4bgt92rcd13ifvqcg0","pricing_plan_id":"cebpf4jnsgd1na2vs0mg"},{"bike_id":"367c8ec0-5153-4ff9-a075-ee210f160460","system_id":"levelo_inurba_marseille","lat":43.2846,"lon":5.35892,"is_reserved":false,"is_disabled":false,"rental_uris":{"android":"levelo://app?vid=367c8ec0-5153-4ff9-a075-ee210f160460","ios":"levelo://app?vid=367c8ec0-5153-4ff9-a075-ee210f160460"},"vehicle_type_id":"4","last_reported":1743602958,"current_range_meters":12800,"station_id":"ce4bhah2rcd13ifvqei0","pricing_plan_id":"cebpf4jnsgd1na2vs0mg"},{"bike_id":"84554551-6a42-488e-8a3a-e31132de9d2c","system_id":"levelo_inurba_marseille","lat":43.23145,"lon":5.4371,"is_reserved":false,"is_disabled":false,"rental_uris":{"android":"levelo://app?vid=84554551-6a42-488e-8a3a-e31132de9d2c","ios":"levelo://app?vid=84554551-6a42-488e-8a3a-e31132de9d2c"},"vehicle_type_id":"4","last_reported":1743602958,"current_range_meters":12800,"station_id":"ce4bhmp2rcd13ifvqgog","pricing_plan_id":"cebpf4jnsgd1na2vs0mg"},{"bike_id":"7237ca61-3920-480c-90e9-77efe4648f15","system_id":"levelo_inurba_marseille","lat":43.31719,"lon":5.4239,"is_reserved":false,"is_disabled":false,"rental_uris":{"android":"levelo://app?vid=7237ca61-3920-480c-90e9-77efe4648f15","ios":"levelo://app?vid=7237ca61-3920-480c-90e9-77efe4648f15"},"vehicle_type_id":"4","last_reported":1743602958,"current_range_meters":12800,"station_id":"ce4bhp92rcd13ifvqhbg","pricing_plan_id":"cebpf4jnsgd1na2vs0mg"},{"bike_id":"7d49898d-4c6e-4131-9fdb-37de62f2c79c","system_id":"levelo_inurba_marseille","lat":43.28898,"lon":5.37126,"is_reserved":false,"is_disabled":false,"rental_uris":{"android":"levelo://app?vid=7d49898d-4c6e-4131-9fdb-37de62f2c79c","ios":"levelo://app?vid=7d49898d-4c6e-4131-9fdb-37de62f2c79c"},"vehicle_type_id":"4","last_reported":1743602958,"current_range_meters":12800,"station_id":"","pricing_plan_id":"cebpf4jnsgd1na2vs0mg"},{"bike_id":"f76f36b0-5ce6-4738-80f9-3e3fd1af0c85","system_id":"levelo_inurba_marseille","lat":43.2679,"lon":5.39416,"is_reserved":false,"is_disabled":false,"rental_uris":{"android":"levelo://app?vid=f76f36b0-5ce6-4738-80f9-3e3fd1af0c85","ios":"levelo://app?vid=f76f36b0-5ce6-4738-80f9-3e3fd1af0c85"},"vehicle_type_id":"4","last_reported":1743602958,"current_range_meters":12800,"station_id":"ce4bhh12rcd13ifvqfg0","pricing_plan_id":"cebpf4jnsgd1na2vs0mg"},{"bike_id":"97362498-3b16-4b29-b111-2702a908202e","system_id":"levelo_inurba_marseille","lat":43.25588,"lon":5.38227,"is_reserved":false,"is_disabled":false,"rental_uris":{"android":"levelo://app?vid=97362498-3b16-4b29-b111-2702a908202e","ios":"levelo://app?vid=97362498-3b16-4b29-b111-2702a908202e"},"vehicle_type_id":"4","last_reported":1743602958,"current_range_meters":12800,"station_id":"ce4bhih2rcd13ifvqfs0","pricing_plan_id":"cebpf4jnsgd1na2vs0mg"},{"bike_id":"70e5b39f-29e3-4ea9-aa83-5a60a8eec6f8","system_id":"levelo_inurba_marseille","lat":43.25052,"lon":5.41696,"is_reserved":false,"is_disabled":false,"rental_uris":{"android":"levelo://app?vid=70e5b39f-29e3-4ea9-aa83-5a60a8eec6f8","ios":"levelo://app?vid=70e5b39f-29e3-4ea9-aa83-5a60a8eec6f8"},"vehicle_type_id":"4","last_reported":1743602958,"current_range_meters":12800,"station_id":"","pricing_plan_id":"cebpf4jnsgd1na2vs0mg"},{"bike_id":"07509e08-5c12-431f-ac8b-d4947f66b3c8","system_id":"levelo_inurba_marseille","lat":43.31336,"lon":5.39687,"is_reserved":false,"is_disabled":false,"rental_uris":{"android":"levelo://app?vid=07509e08-5c12-431f-ac8b-d4947f66b3c8","ios":"levelo://app?vid=07509e08-5c12-431f-ac8b-d4947f66b3c8"},"vehicle_type_id":"4","last_reported":1743602958,"current_range_meters":13600,"station_id":"ce4bgvp2rcd13ifvqcu0","pricing_plan_id":"cebpf4jnsgd1na2vs0mg"},{"bike_id":"be9f4ed3-e1ad-4d0b-b1a1-ddfd43ed6aad","system_id":"levelo_inurba_marseille","lat":43.31231,"lon":5.36861,"is_reserved":false,"is_disabled":false,"rental_uris":{"android":"levelo://app?vid=be9f4ed3-e1ad-4d0b-b1a1-ddfd43ed6aad","ios":"levelo://app?vid=be9f4ed3-e1ad-4d0b-b1a1-ddfd43ed6aad"},"vehicle_type_id":"4","last_reported":1743602958,"current_range_meters":13600,"station_id":"ce4bgl92rcd13ifvqbq0","pricing_plan_id":"cebpf4jnsgd1na2vs0mg"},{"bike_id":"beb96b4f-eecd-41ac-ae26-0e35fadf070e","system_id":"levelo_inurba_marseille","lat":43.2952,"lon":5.39044,"is_reserved":false,"is_disabled":false,"rental_uris":{"android":"levelo://app?vid=beb96b4f-eecd-41ac-ae26-0e35fadf070e","ios":"levelo://app?vid=beb96b4f-eecd-41ac-ae26-0e35fadf070e"},"vehicle_type_id":"4","last_reported":1743602958,"current_range_meters":12800,"station_id":"ce4bh3p2rcd13ifvqdp0","pricing_plan_id":"cebpf4jnsgd1na2vs0mg"},{"bike_id":"cd83c8ac-ed09-4369-9279-b6f36f2bbd3c","system_id":"levelo_inurba_marseille","lat":43.30802,"lon":5.3824,"is_reserved":false,"is_disabled":false,"rental_uris":{"android":"levelo://app?vid=cd83c8ac-ed09-4369-9279-b6f36f2bbd3c","ios":"levelo://app?vid=cd83c8ac-ed09-4369-9279-b6f36f2bbd3c"},"vehicle_type_id":"4","last_reported":1743602958,"current_range_meters":13600,"station_id":"","pricing_plan_id":"cebpf4jnsgd1na2vs0mg"},{"bike_id":"0cadffe9-cfd5-4589-82c9-c8914f1c2cba","system_id":"levelo_inurba_marseille","lat":43.28663,"lon":5.36346,"is_reserved":false,"is_disabled":false,"rental_uris":{"android":"levelo://app?vid=0cadffe9-cfd5-4589-82c9-c8914f1c2cba","ios":"levelo://app?vid=0cadffe9-cfd5-4589-82c9-c8914f1c2cba"},"vehicle_type_id":"4","last_reported":1743602958,"current_range_meters":13600,"station_id":"ce4bhah2rcd13ifvqej0","pricing_plan_id":"cebpf4jnsgd1na2vs0mg"},{"bike_id":"2de02dc7-cfe6-435f-b869-3978a65a1e19","system_id":"levelo_inurba_marseille","lat":43.28864,"lon":5.35851,"is_reserved":false,"is_disabled":false,"rental_uris":{"android":"levelo://app?vid=2de02dc7-cfe6-435f-b869-3978a65a1e19","ios":"levelo://app?vid=2de02dc7-cfe6-435f-b869-3978a65a1e19"},"vehicle_type_id":"4","last_reported":1743602958,"current_range_meters":12800,"station_id":"ce4bhb12rcd13ifvqem0","pricing_plan_id":"cebpf4jnsgd1na2vs0mg"},{"bike_id":"1a592dd4-05f6-451a-a281-45bcd19f68ca","system_id":"levelo_inurba_marseille","lat":43.23184,"lon":5.39974,"is_reserved":false,"is_disabled":false,"rental_uris":{"android":"levelo://app?vid=1a592dd4-05f6-451a-a281-45bcd19f68ca","ios":"levelo://app?vid=1a592dd4-05f6-451a-a281-45bcd19f68ca"},"vehicle_type_id":"4","last_reported":1743602958,"current_range_meters":13600,"station_id":"ce4bhn12rcd13ifvqgqg","pricing_plan_id":"cebpf4jnsgd1na2vs0mg"},{"bike_id":"1925d2eb-79cc-4495-ac55-0d86108c91ee","system_id":"levelo_inurba_marseille","lat":43.23784,"lon":5.39608,"is_reserved":false,"is_disabled":false,"rental_uris":{"android":"levelo://app?vid=1925d2eb-79cc-4495-ac55-0d86108c91ee","ios":"levelo://app?vid=1925d2eb-79cc-4495-ac55-0d86108c91ee"},"vehicle_type_id":"4","last_reported":1743602958,"current_range_meters":13600,"station_id":"","pricing_plan_id":"cebpf4jnsgd1na2vs0mg"},{"bike_id":"ba8fe21e-81b7-4fcb-aaa6-274b2288ad74","system_id":"levelo_inurba_marseille","lat":43.29258,"lon":5.37621,"is_reserved":false,"is_disabled":false,"rental_uris":{"android":"levelo://app?vid=ba8fe21e-81b7-4fcb-aaa6-274b2288ad74","ios":"levelo://app?vid=ba8fe21e-81b7-4fcb-aaa6-274b2288ad74"},"vehicle_type_id":"4","last_reported":1743602958,"current_range_meters":13600,"station_id":"ce4bgi12rcd13ifvqb80","pricing_plan_id":"cebpf4jnsgd1na2vs0mg"},{"bike_id":"ddf4f7bc-b429-4ca6-98cc-3ac180d0ed5f","system_id":"levelo_inurba_marseille","lat":43.23198,"lon":5.35568,"is_reserved":false,"is_disabled":false,"rental_uris":{"android":"levelo://app?vid=ddf4f7bc-b429-4ca6-98cc-3ac180d0ed5f","ios":"levelo://app?vid=ddf4f7bc-b429-4ca6-98cc-3ac180d0ed5f"},"vehicle_type_id":"4","last_reported":1743602958,"current_range_meters":13600,"station_id":"ce4bhu92rcd13ifvqi70","pricing_plan_id":"cebpf4jnsgd1na2vs0mg"},{"bike_id":"3026be77-df9c-4a4a-83d6-132b5a38a0dc","system_id":"levelo_inurba_marseille","lat":43.231915,"lon":5.399789,"is_reserved":false,"is_disabled":false,"rental_uris":{"android":"levelo://app?vid=3026be77-df9c-4a4a-83d6-132b5a38a0dc","ios":"levelo://app?vid=3026be77-df9c-4a4a-83d6-132b5a38a0dc"},"vehicle_type_id":"4","last_reported":1743602958,"current_range_meters":13600,"station_id":"ce4bhn12rcd13ifvqgqg","pricing_plan_id":"cebpf4jnsgd1na2vs0mg"},{"bike_id":"18b33a43-8113-4d0f-b40c-6a7201a04dd5","system_id":"levelo_inurba_marseille","lat":43.32369,"lon":5.36769,"is_reserved":false,"is_disabled":false,"rental_uris":{"android":"levelo://app?vid=18b33a43-8113-4d0f-b40c-6a7201a04dd5","ios":"levelo://app?vid=18b33a43-8113-4d0f-b40c-6a7201a04dd5"},"vehicle_type_id":"4","last_reported":1743602958,"current_range_meters":13600,"station_id":"ce4bhsh2rcd13ifvqi2g","pricing_plan_id":"cebpf4jnsgd1na2vs0mg"},{"bike_id":"63b29d5c-07dc-4a58-be51-b9c1e4575ad8","system_id":"levelo_inurba_marseille","lat":43.297115,"lon":5.366122,"is_reserved":false,"is_disabled":false,"rental_uris":{"android":"levelo://app?vid=63b29d5c-07dc-4a58-be51-b9c1e4575ad8","ios":"levelo://app?vid=63b29d5c-07dc-4a58-be51-b9c1e4575ad8"},"vehicle_type_id":"4","last_reported":1743602958,"current_range_meters":12400,"station_id":"ce4bgi92rcd13ifvqb90","pricing_plan_id":"cebpf4jnsgd1na2vs0mg"},{"bike_id":"7ff6eea9-fc34-4c93-8420-99e94c0e4cbf","system_id":"levelo_inurba_marseille","lat":43.28418,"lon":5.34987,"is_reserved":false,"is_disabled":false,"rental_uris":{"android":"levelo://app?vid=7ff6eea9-fc34-4c93-8420-99e94c0e4cbf","ios":"levelo://app?vid=7ff6eea9-fc34-4c93-8420-99e94c0e4cbf"},"vehicle_type_id":"4","last_reported":1743602958,"current_range_meters":14000,"station_id":"ce4bhbh2rcd13ifvqepg","pricing_plan_id":"cebpf4jnsgd1na2vs0mg"},{"bike_id":"7b6f0481-a84c-4960-ab76-136f58cac558","system_id":"levelo_inurba_marseille","lat":43.28452,"lon":5.3589,"is_reserved":false,"is_disabled":false,"rental_uris":{"android":"levelo://app?vid=7b6f0481-a84c-4960-ab76-136f58cac558","ios":"levelo://app?vid=7b6f0481-a84c-4960-ab76-136f58cac558"},"vehicle_type_id":"4","last_reported":1743602958,"current_range_meters":14000,"station_id":"ce4bhah2rcd13ifvqei0","pricing_plan_id":"cebpf4jnsgd1na2vs0mg"},{"bike_id":"eca000f3-7adb-462c-b7ed-61fb5b2098fc","system_id":"levelo_inurba_marseille","lat":43.22947,"lon":5.35349,"is_reserved":false,"is_disabled":false,"rental_uris":{"android":"levelo://app?vid=eca000f3-7adb-462c-b7ed-61fb5b2098fc","ios":"levelo://app?vid=eca000f3-7adb-462c-b7ed-61fb5b2098fc"},"vehicle_type_id":"4","last_reported":1743602958,"current_range_meters":14000,"station_id":"cpo3532slgdg3j2ikp40","pricing_plan_id":"cebpf4jnsgd1na2vs0mg"},{"bike_id":"9f62f29e-b083-4314-9e82-a49e79ecd17d","system_id":"levelo_inurba_marseille","lat":43.22927,"lon":5.35377,"is_reserved":false,"is_disabled":false,"rental_uris":{"android":"levelo://app?vid=9f62f29e-b083-4314-9e82-a49e79ecd17d","ios":"levelo://app?vid=9f62f29e-b083-4314-9e82-a49e79ecd17d"},"vehicle_type_id":"4","last_reported":1743602958,"current_range_meters":14400,"station_id":"cpo3532slgdg3j2ikp40","pricing_plan_id":"cebpf4jnsgd1na2vs0mg"},{"bike_id":"6e05811e-06e7-4304-8ce9-6c25e6bc01dd","system_id":"levelo_inurba_marseille","lat":43.32112,"lon":5.36771,"is_reserved":false,"is_disabled":false,"rental_uris":{"android":"levelo://app?vid=6e05811e-06e7-4304-8ce9-6c25e6bc01dd","ios":"levelo://app?vid=6e05811e-06e7-4304-8ce9-6c25e6bc01dd"},"vehicle_type_id":"4","last_reported":1743602958,"current_range_meters":14400,"station_id":"ce4bhrh2rcd13ifvqhug","pricing_plan_id":"cebpf4jnsgd1na2vs0mg"},{"bike_id":"315b043a-e448-4a49-a6d7-b30a3f3bfd3d","system_id":"levelo_inurba_marseille","lat":43.2307,"lon":5.35491,"is_reserved":false,"is_disabled":false,"rental_uris":{"android":"levelo://app?vid=315b043a-e448-4a49-a6d7-b30a3f3bfd3d","ios":"levelo://app?vid=315b043a-e448-4a49-a6d7-b30a3f3bfd3d"},"vehicle_type_id":"4","last_reported":1743602958,"current_range_meters":14400,"station_id":"cpo3342slgdg3j2ifvpg","pricing_plan_id":"cebpf4jnsgd1na2vs0mg"},{"bike_id":"f53d98b0-5dde-4a02-a89d-a79c748915fa","system_id":"levelo_inurba_marseille","lat":43.31399,"lon":5.40347,"is_reserved":false,"is_disabled":false,"rental_uris":{"android":"levelo://app?vid=f53d98b0-5dde-4a02-a89d-a79c748915fa","ios":"levelo://app?vid=f53d98b0-5dde-4a02-a89d-a79c748915fa"},"vehicle_type_id":"4","last_reported":1743602958,"current_range_meters":14800,"station_id":"","pricing_plan_id":"cebpf4jnsgd1na2vs0mg"},{"bike_id":"62a0631e-546d-40b2-a063-9ddec04e2276","system_id":"levelo_inurba_marseille","lat":43.32111,"lon":5.367792,"is_reserved":false,"is_disabled":false,"rental_uris":{"android":"levelo://app?vid=62a0631e-546d-40b2-a063-9ddec04e2276","ios":"levelo://app?vid=62a0631e-546d-40b2-a063-9ddec04e2276"},"vehicle_type_id":"4","last_reported":1743602958,"current_range_meters":14800,"station_id":"ce4bhrh2rcd13ifvqhug","pricing_plan_id":"cebpf4jnsgd1na2vs0mg"},{"bike_id":"4c5af6eb-9f3a-429a-a9a5-908f23088311","system_id":"levelo_inurba_marseille","lat":43.27367,"lon":5.36253,"is_reserved":false,"is_disabled":false,"rental_uris":{"android":"levelo://app?vid=4c5af6eb-9f3a-429a-a9a5-908f23088311","ios":"levelo://app?vid=4c5af6eb-9f3a-429a-a9a5-908f23088311"},"vehicle_type_id":"4","last_reported":1743602958,"current_range_meters":14800,"station_id":"ce4bhbh2rcd13ifvqeo0","pricing_plan_id":"cebpf4jnsgd1na2vs0mg"},{"bike_id":"c97c18e2-80ba-45fb-8944-918f985d8a47","system_id":"levelo_inurba_marseille","lat":43.24997,"lon":5.3893,"is_reserved":false,"is_disabled":false,"rental_uris":{"android":"levelo://app?vid=c97c18e2-80ba-45fb-8944-918f985d8a47","ios":"levelo://app?vid=c97c18e2-80ba-45fb-8944-918f985d8a47"},"vehicle_type_id":"4","last_reported":1743602958,"current_range_meters":14800,"station_id":"ce4bhgp2rcd13ifvqfd0","pricing_plan_id":"cebpf4jnsgd1na2vs0mg"},{"bike_id":"2b7563bf-72ce-4546-bdfe-0681f54925e9","system_id":"levelo_inurba_marseille","lat":43.29261,"lon":5.38431,"is_reserved":false,"is_disabled":true,"rental_uris":{"android":"levelo://app?vid=2b7563bf-72ce-4546-bdfe-0681f54925e9","ios":"levelo://app?vid=2b7563bf-72ce-4546-bdfe-0681f54925e9"},"vehicle_type_id":"4","last_reported":1743602958,"current_range_meters":14800,"station_id":"ce4bh692rcd13ifvqea0","pricing_plan_id":"cebpf4jnsgd1na2vs0mg"},{"bike_id":"87610366-df68-46f8-9ddf-c69324fafc23","system_id":"levelo_inurba_marseille","lat":43.30483,"lon":5.37906,"is_reserved":false,"is_disabled":false,"rental_uris":{"android":"levelo://app?vid=87610366-df68-46f8-9ddf-c69324fafc23","ios":"levelo://app?vid=87610366-df68-46f8-9ddf-c69324fafc23"},"vehicle_type_id":"4","last_reported":1743602958,"current_range_meters":14800,"station_id":"ce4bgup2rcd13ifvqcn0","pricing_plan_id":"cebpf4jnsgd1na2vs0mg"},{"bike_id":"a1566f65-7974-4adb-bc5b-c64d03a44f23","system_id":"levelo_inurba_marseille","lat":43.25013,"lon":5.38916,"is_reserved":false,"is_disabled":false,"rental_uris":{"android":"levelo://app?vid=a1566f65-7974-4adb-bc5b-c64d03a44f23","ios":"levelo://app?vid=a1566f65-7974-4adb-bc5b-c64d03a44f23"},"vehicle_type_id":"4","last_reported":1743602958,"current_range_meters":15200,"station_id":"ce4bhgp2rcd13ifvqfd0","pricing_plan_id":"cebpf4jnsgd1na2vs0mg"},{"bike_id":"72e319cf-2ef8-44ab-a514-901819391099","system_id":"levelo_inurba_marseille","lat":43.29418,"lon":5.38625,"is_reserved":false,"is_disabled":false,"rental_uris":{"android":"levelo://app?vid=72e319cf-2ef8-44ab-a514-901819391099","ios":"levelo://app?vid=72e319cf-2ef8-44ab-a514-901819391099"},"vehicle_type_id":"4","last_reported":1743602958,"current_range_meters":15200,"station_id":"ce4bh2h2rcd13ifvqdh0","pricing_plan_id":"cebpf4jnsgd1na2vs0mg"},{"bike_id":"c96f0f34-62f2-4d4b-8b60-b9ff4f4632a1","system_id":"levelo_inurba_marseille","lat":43.27926,"lon":5.39594,"is_reserved":false,"is_disabled":false,"rental_uris":{"android":"levelo://app?vid=c96f0f34-62f2-4d4b-8b60-b9ff4f4632a1","ios":"levelo://app?vid=c96f0f34-62f2-4d4b-8b60-b9ff4f4632a1"},"vehicle_type_id":"4","last_reported":1743602958,"current_range_meters":15200,"station_id":"ce4bhf92rcd13ifvqf40","pricing_plan_id":"cebpf4jnsgd1na2vs0mg"},{"bike_id":"05e47c8e-44a5-4876-acfe-b80ae07cb3e9","system_id":"levelo_inurba_marseille","lat":43.28483,"lon":5.38546,"is_reserved":false,"is_disabled":false,"rental_uris":{"android":"levelo://app?vid=05e47c8e-44a5-4876-acfe-b80ae07cb3e9","ios":"levelo://app?vid=05e47c8e-44a5-4876-acfe-b80ae07cb3e9"},"vehicle_type_id":"4","last_reported":1743602958,"current_range_meters":15200,"station_id":"ce4bh8p2rcd13ifvqeb0","pricing_plan_id":"cebpf4jnsgd1na2vs0mg"},{"bike_id":"af1eb195-7b62-49b6-8333-a22bc59eb988","system_id":"levelo_inurba_marseille","lat":43.305328,"lon":5.365326,"is_reserved":false,"is_disabled":false,"rental_uris":{"android":"levelo://app?vid=af1eb195-7b62-49b6-8333-a22bc59eb988","ios":"levelo://app?vid=af1eb195-7b62-49b6-8333-a22bc59eb988"},"vehicle_type_id":"4","last_reported":1743602958,"current_range_meters":15200,"station_id":"ce4bgs12rcd13ifvqcag","pricing_plan_id":"cebpf4jnsgd1na2vs0mg"},{"bike_id":"db4f2fea-dd78-4839-8016-eeab270922ec","system_id":"levelo_inurba_marseille","lat":43.23152,"lon":5.43709,"is_reserved":false,"is_disabled":false,"rental_uris":{"android":"levelo://app?vid=db4f2fea-dd78-4839-8016-eeab270922ec","ios":"levelo://app?vid=db4f2fea-dd78-4839-8016-eeab270922ec"},"vehicle_type_id":"4","last_reported":1743602958,"current_range_meters":15200,"station_id":"ce4bhmp2rcd13ifvqgog","pricing_plan_id":"cebpf4jnsgd1na2vs0mg"},{"bike_id":"4c22f064-9f40-4741-aad5-ca6e69c6a2d5","system_id":"levelo_inurba_marseille","lat":43.306487,"lon":5.400868,"is_reserved":false,"is_disabled":false,"rental_uris":{"android":"levelo://app?vid=4c22f064-9f40-4741-aad5-ca6e69c6a2d5","ios":"levelo://app?vid=4c22f064-9f40-4741-aad5-ca6e69c6a2d5"},"vehicle_type_id":"4","last_reported":1743602958,"current_range_meters":15200,"station_id":"ce4bh112rcd13ifvqda0","pricing_plan_id":"cebpf4jnsgd1na2vs0mg"},{"bike_id":"010ff397-c0d4-49b6-ae9d-c5c094fbc4c7","system_id":"levelo_inurba_marseille","lat":43.295227,"lon":5.385195,"is_reserved":false,"is_disabled":false,"rental_uris":{"android":"levelo://app?vid=010ff397-c0d4-49b6-ae9d-c5c094fbc4c7","ios":"levelo://app?vid=010ff397-c0d4-49b6-ae9d-c5c094fbc4c7"},"vehicle_type_id":"4","last_reported":1743602958,"current_range_meters":15200,"station_id":"","pricing_plan_id":"cebpf4jnsgd1na2vs0mg"},{"bike_id":"f676d916-cce9-4dea-a34c-e09b6fcaa02e","system_id":"levelo_inurba_marseille","lat":43.29781,"lon":5.39353,"is_reserved":false,"is_disabled":false,"rental_uris":{"android":"levelo://app?vid=f676d916-cce9-4dea-a34c-e09b6fcaa02e","ios":"levelo://app?vid=f676d916-cce9-4dea-a34c-e09b6fcaa02e"},"vehicle_type_id":"4","last_reported":1743602958,"current_range_meters":14800,"station_id":"chh1huq6cuj3fo74tm60","pricing_plan_id":"cebpf4jnsgd1na2vs0mg"},{"bike_id":"5ac00bb8-ceaa-4327-8b40-5ecd6d340223","system_id":"levelo_inurba_marseille","lat":43.27802,"lon":5.40708,"is_reserved":false,"is_disabled":false,"rental_uris":{"android":"levelo://app?vid=5ac00bb8-ceaa-4327-8b40-5ecd6d340223","ios":"levelo://app?vid=5ac00bb8-ceaa-4327-8b40-5ecd6d340223"},"vehicle_type_id":"4","last_reported":1743602958,"current_range_meters":15200,"station_id":"ce4bhnh2rcd13ifvqgtg","pricing_plan_id":"cebpf4jnsgd1na2vs0mg"},{"bike_id":"aa6eb6e5-54e5-4685-95e1-a7038d2da636","system_id":"levelo_inurba_marseille","lat":43.2293,"lon":5.3538,"is_reserved":false,"is_disabled":false,"rental_uris":{"android":"levelo://app?vid=aa6eb6e5-54e5-4685-95e1-a7038d2da636","ios":"levelo://app?vid=aa6eb6e5-54e5-4685-95e1-a7038d2da636"},"vehicle_type_id":"4","last_reported":1743602958,"current_range_meters":15200,"station_id":"cpo3532slgdg3j2ikp40","pricing_plan_id":"cebpf4jnsgd1na2vs0mg"},{"bike_id":"125a979b-2e3c-43f8-bd64-844e063bc707","system_id":"levelo_inurba_marseille","lat":43.29714,"lon":5.36603,"is_reserved":false,"is_disabled":false,"rental_uris":{"android":"levelo://app?vid=125a979b-2e3c-43f8-bd64-844e063bc707","ios":"levelo://app?vid=125a979b-2e3c-43f8-bd64-844e063bc707"},"vehicle_type_id":"4","last_reported":1743602958,"current_range_meters":15200,"station_id":"ce4bgn12rcd13ifvqbt0","pricing_plan_id":"cebpf4jnsgd1na2vs0mg"},{"bike_id":"94ce65fd-4b4a-4349-b21d-580fec8fa1c1","system_id":"levelo_inurba_marseille","lat":43.25934,"lon":5.40888,"is_reserved":false,"is_disabled":false,"rental_uris":{"android":"levelo://app?vid=94ce65fd-4b4a-4349-b21d-580fec8fa1c1","ios":"levelo://app?vid=94ce65fd-4b4a-4349-b21d-580fec8fa1c1"},"vehicle_type_id":"4","last_reported":1743602958,"current_range_meters":16000,"station_id":"ce4bhm92rcd13ifvqglg","pricing_plan_id":"cebpf4jnsgd1na2vs0mg"},{"bike_id":"ff1b5d3c-a1ef-4c2d-abed-fb11386cee8f","system_id":"levelo_inurba_marseille","lat":43.31221,"lon":5.36854,"is_reserved":false,"is_disabled":false,"rental_uris":{"android":"levelo://app?vid=ff1b5d3c-a1ef-4c2d-abed-fb11386cee8f","ios":"levelo://app?vid=ff1b5d3c-a1ef-4c2d-abed-fb11386cee8f"},"vehicle_type_id":"4","last_reported":1743602958,"current_range_meters":16000,"station_id":"ce4bgl92rcd13ifvqbq0","pricing_plan_id":"cebpf4jnsgd1na2vs0mg"},{"bike_id":"24460289-845f-4b05-bf5e-fc39bc8c3cc0","system_id":"levelo_inurba_marseille","lat":43.23145,"lon":5.43704,"is_reserved":false,"is_disabled":false,"rental_uris":{"android":"levelo://app?vid=24460289-845f-4b05-bf5e-fc39bc8c3cc0","ios":"levelo://app?vid=24460289-845f-4b05-bf5e-fc39bc8c3cc0"},"vehicle_type_id":"4","last_reported":1743602958,"current_range_meters":16000,"station_id":"ce4bhmp2rcd13ifvqgog","pricing_plan_id":"cebpf4jnsgd1na2vs0mg"},{"bike_id":"22d47046-8bb1-41ae-9bb4-96eb088b2e63","system_id":"levelo_inurba_marseille","lat":43.321098,"lon":5.367694,"is_reserved":false,"is_disabled":false,"rental_uris":{"android":"levelo://app?vid=22d47046-8bb1-41ae-9bb4-96eb088b2e63","ios":"levelo://app?vid=22d47046-8bb1-41ae-9bb4-96eb088b2e63"},"vehicle_type_id":"4","last_reported":1743602958,"current_range_meters":16000,"station_id":"ce4bhrh2rcd13ifvqhug","pricing_plan_id":"cebpf4jnsgd1na2vs0mg"},{"bike_id":"a4fae94b-5b43-4304-a3d0-ccdcba5e455f","system_id":"levelo_inurba_marseille","lat":43.30801,"lon":5.43522,"is_reserved":false,"is_disabled":false,"rental_uris":{"android":"levelo://app?vid=a4fae94b-5b43-4304-a3d0-ccdcba5e455f","ios":"levelo://app?vid=a4fae94b-5b43-4304-a3d0-ccdcba5e455f"},"vehicle_type_id":"4","last_reported":1743602958,"current_range_meters":16000,"station_id":"ce4bhph2rcd13ifvqheg","pricing_plan_id":"cebpf4jnsgd1na2vs0mg"},{"bike_id":"b581593f-e2c3-40e4-8110-a1665fe839eb","system_id":"levelo_inurba_marseille","lat":43.29225,"lon":5.3606,"is_reserved":false,"is_disabled":false,"rental_uris":{"android":"levelo://app?vid=b581593f-e2c3-40e4-8110-a1665fe839eb","ios":"levelo://app?vid=b581593f-e2c3-40e4-8110-a1665fe839eb"},"vehicle_type_id":"4","last_reported":1743602958,"current_range_meters":16000,"station_id":"ce4bhbh2rcd13ifvqeqg","pricing_plan_id":"cebpf4jnsgd1na2vs0mg"},{"bike_id":"6fd15896-5697-470b-8f07-45b11106795c","system_id":"levelo_inurba_marseille","lat":43.32104,"lon":5.36776,"is_reserved":false,"is_disabled":false,"rental_uris":{"android":"levelo://app?vid=6fd15896-5697-470b-8f07-45b11106795c","ios":"levelo://app?vid=6fd15896-5697-470b-8f07-45b11106795c"},"vehicle_type_id":"4","last_reported":1743602958,"current_range_meters":16000,"station_id":"ce4bhrh2rcd13ifvqhug","pricing_plan_id":"cebpf4jnsgd1na2vs0mg"},{"bike_id":"f15ee8fe-f3a9-42ac-8447-9a8939016c64","system_id":"levelo_inurba_marseille","lat":43.286161,"lon":5.350992,"is_reserved":false,"is_disabled":false,"rental_uris":{"android":"levelo://app?vid=f15ee8fe-f3a9-42ac-8447-9a8939016c64","ios":"levelo://app?vid=f15ee8fe-f3a9-42ac-8447-9a8939016c64"},"vehicle_type_id":"4","last_reported":1743602958,"current_range_meters":16000,"station_id":"ce4bhch2rcd13ifvqeug","pricing_plan_id":"cebpf4jnsgd1na2vs0mg"},{"bike_id":"97aa5e6f-e45b-4e21-a47e-52761ee9cdb1","system_id":"levelo_inurba_marseille","lat":43.321181,"lon":5.3677,"is_reserved":false,"is_disabled":false,"rental_uris":{"android":"levelo://app?vid=97aa5e6f-e45b-4e21-a47e-52761ee9cdb1","ios":"levelo://app?vid=97aa5e6f-e45b-4e21-a47e-52761ee9cdb1"},"vehicle_type_id":"4","last_reported":1743602958,"current_range_meters":16000,"station_id":"ce4bhrh2rcd13ifvqhug","pricing_plan_id":"cebpf4jnsgd1na2vs0mg"},{"bike_id":"ae19c2b9-a881-4c11-9719-0aa378aa7aab","system_id":"levelo_inurba_marseille","lat":43.27816,"lon":5.40715,"is_reserved":false,"is_disabled":false,"rental_uris":{"android":"levelo://app?vid=ae19c2b9-a881-4c11-9719-0aa378aa7aab","ios":"levelo://app?vid=ae19c2b9-a881-4c11-9719-0aa378aa7aab"},"vehicle_type_id":"4","last_reported":1743602958,"current_range_meters":16000,"station_id":"ce4bhnh2rcd13ifvqgtg","pricing_plan_id":"cebpf4jnsgd1na2vs0mg"},{"bike_id":"e6f02e74-383c-4bae-b8c4-037430863270","system_id":"levelo_inurba_marseille","lat":43.23072,"lon":5.35479,"is_reserved":false,"is_disabled":false,"rental_uris":{"android":"levelo://app?vid=e6f02e74-383c-4bae-b8c4-037430863270","ios":"levelo://app?vid=e6f02e74-383c-4bae-b8c4-037430863270"},"vehicle_type_id":"4","last_reported":1743602958,"current_range_meters":16000,"station_id":"cpo3342slgdg3j2ifvpg","pricing_plan_id":"cebpf4jnsgd1na2vs0mg"},{"bike_id":"b86b5b87-f029-48ac-aa00-3a50d7e2c1d2","system_id":"levelo_inurba_marseille","lat":43.32377,"lon":5.36735,"is_reserved":false,"is_disabled":true,"rental_uris":{"android":"levelo://app?vid=b86b5b87-f029-48ac-aa00-3a50d7e2c1d2","ios":"levelo://app?vid=b86b5b87-f029-48ac-aa00-3a50d7e2c1d2"},"vehicle_type_id":"4","last_reported":1743602958,"current_range_meters":16000,"station_id":"ce4bhsh2rcd13ifvqi2g","pricing_plan_id":"cebpf4jnsgd1na2vs0mg"},{"bike_id":"66e46067-3e6b-4a8c-95bd-25fc31de1db8","system_id":"levelo_inurba_marseille","lat":43.28603,"lon":5.37059,"is_reserved":false,"is_disabled":false,"rental_uris":{"android":"levelo://app?vid=66e46067-3e6b-4a8c-95bd-25fc31de1db8","ios":"levelo://app?vid=66e46067-3e6b-4a8c-95bd-25fc31de1db8"},"vehicle_type_id":"4","last_reported":1743602958,"current_range_meters":16000,"station_id":"ce4bht12rcd13ifvqi60","pricing_plan_id":"cebpf4jnsgd1na2vs0mg"},{"bike_id":"d92b6e29-f8a7-48e8-87e1-9c086a44fb81","system_id":"levelo_inurba_marseille","lat":43.28002,"lon":5.40011,"is_reserved":false,"is_disabled":false,"rental_uris":{"android":"levelo://app?vid=d92b6e29-f8a7-48e8-87e1-9c086a44fb81","ios":"levelo://app?vid=d92b6e29-f8a7-48e8-87e1-9c086a44fb81"},"vehicle_type_id":"4","last_reported":1743602958,"current_range_meters":15200,"station_id":"ce4bho92rcd13ifvqh4g","pricing_plan_id":"cebpf4jnsgd1na2vs0mg"},