{"last_updated":1728338938,"ttl":60,"version":"2.2","data":{"bikes":[{"bike_id":"57553b10-65c5-4902-93ea-d1debdf4f122","system_id":"levelo_inurba_marseille","lat":43.2828,"lon":5.35074,"is_reserved":false,"is_disabled":false,"rental_uris":{"android":"levelo://app?vid=57553b10-65c5-4902-93ea-d1debdf4f122","ios":"levelo://app?vid=57553b10-65c5-4902-93ea-d1debdf4f122"},"vehicle_type_id":"4","last_reported":1728338939,"current_range_meters":39200,"station_id":"ce4bhbp2rcd13ifvqerg","pricing_plan_id":"cebpf4jnsgd1na2vs0mg"},{"bike_id":"f388f7a0-ce81-424e-81ff-f56071b4276d","system_id":"levelo_inurba_marseille","lat":43.25726,"lon":5.41108,"is_reserved":false,"is_disabled":false,"rental_uris":{"android":"levelo://app?vid=f388f7a0-ce81-424e-81ff-f56071b4276d","ios":"levelo://app?vid=f388f7a0-ce81-424e-81ff-f56071b4276d"},"vehicle_type_id":"4","last_reported":1728338939,"current_range_meters":29600,"station_id":"ce4bhkp2rcd13ifvqgd0","pricing_plan_id":"cebpf4jnsgd1na2vs0mg"},{"bike_id":"6ea71e61-0162-482a-8abc-aba97e9028bf","system_id":"levelo_inurba_marseille","lat":43.2815,"lon":5.42643,"is_reserved":false,"is_disabled":false,"rental_uris":{"android":"levelo://app?vid=6ea71e61-0162-482a-8abc-aba97e9028bf","ios":"levelo://app?vid=6ea71e61-0162-482a-8abc-aba97e9028bf"},"vehicle_type_id":"4","last_reported":1728338939,"current_range_meters":38800,"station_id":"ce4bhnh2rcd13ifvqgug","pricing_plan_id":"cebpf4jnsgd1na2vs0mg"},{"bike_id":"9c4c72c6-a204-4ec6-b60f-4072f9a90ddd","system_id":"levelo_inurba_marseille","lat":43.28704,"lon":5.37389,"is_reserved":false,"is_disabled":false,"rental_uris":{"android":"levelo://app?vid=9c4c72c6-a204-4ec6-b60f-4072f9a90ddd","ios":"levelo://app?vid=9c4c72c6-a204-4ec6-b60f-4072f9a90ddd"},"vehicle_type_id":"4","last_reported":1728338939,"current_range_meters":38800,"station_id":"ce4bh3p2rcd13ifvqdq0","pricing_plan_id":"cebpf4jnsgd1na2vs0mg"},{"bike_id":"66e2e7d1-daec-4bcd-bd63-1d4dfbdaeb38","system_id":"levelo_inurba_marseille","lat":43.26062,"lon":5.39389,"is_reserved":false,"is_disabled":false,"rental_uris":{"android":"levelo://app?vid=66e2e7d1-daec-4bcd-bd63-1d4dfbdaeb38","ios":"levelo://app?vid=66e2e7d1-daec-4bcd-bd63-1d4dfbdaeb38"},"vehicle_type_id":"4","last_reported":1728338939,"current_range_meters":30800,"station_id":"ce4bhh92rcd13ifvqfj0","pricing_plan_id":"cebpf4jnsgd1na2vs0mg"},{"bike_id":"b439fff5-cbbc-4cd9-a0e5-659f779678d9","system_id":"levelo_inurba_marseille","lat":43.29041,"lon":5.35908,"is_reserved":false,"is_disabled":false,"rental_uris":{"android":"levelo://app?vid=b439fff5-cbbc-4cd9-a0e5-659f779678d9","ios":"levelo://app?vid=b439fff5-cbbc-4cd9-a0e5-659f779678d9"},"vehicle_type_id":"4","last_reported":1728338939,"current_range_meters":30400,"station_id":"ce4bha92rcd13ifvqeg0","pricing_plan_id":"cebpf4jnsgd1na2vs0mg"},{"bike_id":"3edccbad-c604-40df-acb2-6e9d91b67298","system_id":"levelo_inurba_marseille","lat":43.23059,"lon":5.35488,"is_reserved":false,"is_disabled":false,"rental_uris":{"android":"levelo://app?vid=3edccbad-c604-40df-acb2-6e9d91b67298","ios":"levelo://app?vid=3edccbad-c604-40df-acb2-6e9d91b67298"},"vehicle_type_id":"4","last_reported":1728338939,"current_range_meters":18000,"station_id":"cpo3342slgdg3j2ifvpg","pricing_plan_id":"cebpf4jnsgd1na2vs0mg"},{"bike_id":"a989dcd4-4f7f-42a6-b472-767b8e02677c","system_id":"levelo_inurba_marseille","lat":43.28457,"lon":5.35882,"is_reserved":false,"is_disabled":false,"rental_uris":{"android":"levelo://app?vid=a989dcd4-4f7f-42a6-b472-767b8e02677c","ios":"levelo://app?vid=a989dcd4-4f7f-42a6-b472-767b8e02677c"},"vehicle_type_id":"4","last_reported":1728338939,"current_range_meters":27600,"station_id":"ce4bhah2rcd13ifvqei0","pricing_plan_id":"cebpf4jnsgd1na2vs0mg"},{"bike_id":"56d3a2c1-cbab-4447-a367-83dfb2dbdacd","system_id":"levelo_inurba_marseille","lat":43.30886,"lon":5.3967,"is_reserved":false,"is_disabled":false,"rental_uris":{"android":"levelo://app?vid=56d3a2c1-cbab-4447-a367-83dfb2dbdacd","ios":"levelo://app?vid=56d3a2c1-cbab-4447-a367-83dfb2dbdacd"},"vehicle_type_id":"4","last_reported":1728338939,"current_range_meters":10000,"station_id":"ce4bh012rcd13ifvqcv0","pricing_plan_id":"cebpf4jnsgd1na2vs0mg"},{"bike_id":"6f011674-22a2-48c6-9f3c-a4692e4becfb","system_id":"levelo_inurba_marseille","lat":43.31375,"lon":5.38507,"is_reserved":false,"is_disabled":false,"rental_uris":{"android":"levelo://app?vid=6f011674-22a2-48c6-9f3c-a4692e4becfb","ios":"levelo://app?vid=6f011674-22a2-48c6-9f3c-a4692e4becfb"},"vehicle_type_id":"4","last_reported":1728338939,"current_range_meters":22000,"station_id":"ce4bgt92rcd13ifvqcf0","pricing_plan_id":"cebpf4jnsgd1na2vs0mg"},{"bike_id":"79f4c1e9-f463-464a-a6d1-9bda4de9e697","system_id":"levelo_inurba_marseille","lat":43.27946,"lon":5.41045,"is_reserved":false,"is_disabled":false,"rental_uris":{"android":"levelo://app?vid=79f4c1e9-f463-464a-a6d1-9bda4de9e697","ios":"levelo://app?vid=79f4c1e9-f463-464a-a6d1-9bda4de9e697"},"vehicle_type_id":"4","last_reported":1728338939,"current_range_meters":20000,"station_id":"ce4bhnp2rcd13ifvqh0g","pricing_plan_id":"cebpf4jnsgd1na2vs0mg"},{"bike_id":"52f0b8b5-6eaf-4c1c-bebf-564bf53fe900","system_id":"levelo_inurba_marseille","lat":43.29634,"lon":5.40599,"is_reserved":false,"is_disabled":false,"rental_uris":{"android":"levelo://app?vid=52f0b8b5-6eaf-4c1c-bebf-564bf53fe900","ios":"levelo://app?vid=52f0b8b5-6eaf-4c1c-bebf-564bf53fe900"},"vehicle_type_id":"4","last_reported":1728338939,"current_range_meters":27200,"station_id":"ce4bh0h2rcd13ifvqd60","pricing_plan_id":"cebpf4jnsgd1na2vs0mg"},{"bike_id":"194545a4-9a17-410e-84e8-f3516539e740","system_id":"levelo_inurba_marseille","lat":43.2827,"lon":5.35063,"is_reserved":false,"is_disabled":false,"rental_uris":{"android":"levelo://app?vid=194545a4-9a17-410e-84e8-f3516539e740","ios":"levelo://app?vid=194545a4-9a17-410e-84e8-f3516539e740"},"vehicle_type_id":"4","last_reported":1728338939,"current_range_meters":40000,"station_id":"ce4bhbp2rcd13ifvqerg","pricing_plan_id":"cebpf4jnsgd1na2vs0mg"},{"bike_id":"9efca536-2449-489f-b891-6ec000112a62","system_id":"levelo_inurba_marseille","lat":43.29536,"lon":5.39404,"is_reserved":false,"is_disabled":false,"rental_uris":{"android":"levelo://app?vid=9efca536-2449-489f-b891-6ec000112a62","ios":"levelo://app?vid=9efca536-2449-489f-b891-6ec000112a62"},"vehicle_type_id":"4","last_reported":1728338939,"current_range_meters":24400,"station_id":"ce4bh292rcd13ifvqdf0","pricing_plan_id":"cebpf4jnsgd1na2vs0mg"},{"bike_id":"09c86d2a-7e11-4c9e-bec7-62f912b5a3ed","system_id":"levelo_inurba_marseille","lat":43.30341,"lon":5.40078,"is_reserved":false,"is_disabled":false,"rental_uris":{"android":"levelo://app?vid=09c86d2a-7e11-4c9e-bec7-62f912b5a3ed","ios":"levelo://app?vid=09c86d2a-7e11-4c9e-bec7-62f912b5a3ed"},"vehicle_type_id":"4","last_reported":1728338939,"current_range_meters":8400,"station_id":"","pricing_plan_id":"cebpf4jnsgd1na2vs0mg"},{"bike_id":"5cbc9c45-d090-40f0-bf46-98bb0454ae1f","system_id":"levelo_inurba_marseille","lat":43.29193,"lon":5.39309,"is_reserved":false,"is_disabled":false,"rental_uris":{"android":"levelo://app?vid=5cbc9c45-d090-40f0-bf46-98bb0454ae1f","ios":"levelo://app?vid=5cbc9c45-d090-40f0-bf46-98bb0454ae1f"},"vehicle_type_id":"4","last_reported":1728338939,"current_range_meters":38400,"station_id":"ce4bh192rcd13ifvqdd0","pricing_plan_id":"cebpf4jnsgd1na2vs0mg"},{"bike_id":"d05b1e81-608f-458b-9e86-e02121b5a6a2","system_id":"levelo_inurba_marseille","lat":43.29907,"lon":5.38141,"is_reserved":false,"is_disabled":false,"rental_uris":{"android":"levelo://app?vid=d05b1e81-608f-458b-9e86-e02121b5a6a2","ios":"levelo://app?vid=d05b1e81-608f-458b-9e86-e02121b5a6a2"},"vehicle_type_id":"4","last_reported":1728338939,"current_range_meters":38800,"station_id":"ce4bgj12rcd13ifvqbc0","pricing_plan_id":"cebpf4jnsgd1na2vs0mg"},{"bike_id":"f1fcf759-323f-47ed-8065-17977692e5a8","system_id":"levelo_inurba_marseille","lat":43.3356,"lon":5.40961,"is_reserved":false,"is_disabled":false,"rental_uris":{"android":"levelo://app?vid=f1fcf759-323f-47ed-8065-17977692e5a8","ios":"levelo://app?vid=f1fcf759-323f-47ed-8065-17977692e5a8"},"vehicle_type_id":"4","last_reported":1728338939,"current_range_meters":30000,"station_id":"ce4bhqh2rcd13ifvqhmg","pricing_plan_id":"cebpf4jnsgd1na2vs0mg"},{"bike_id":"11b35691-6b69-4e44-9896-778a89c5f594","system_id":"levelo_inurba_marseille","lat":43.28847,"lon":5.35849,"is_reserved":false,"is_disabled":false,"rental_uris":{"android":"levelo://app?vid=11b35691-6b69-4e44-9896-778a89c5f594","ios":"levelo://app?vid=11b35691-6b69-4e44-9896-778a89c5f594"},"vehicle_type_id":"4","last_reported":1728338939,"current_range_meters":38800,"station_id":"ce4bhb12rcd13ifvqem0","pricing_plan_id":"cebpf4jnsgd1na2vs0mg"},{"bike_id":"81b07a05-4c57-4e76-99d6-5f6e3acbb201","system_id":"levelo_inurba_marseille","lat":43.2306,"lon":5.35484,"is_reserved":false,"is_disabled":false,"rental_uris":{"android":"levelo://app?vid=81b07a05-4c57-4e76-99d6-5f6e3acbb201","ios":"levelo://app?vid=81b07a05-4c57-4e76-99d6-5f6e3acbb201"},"vehicle_type_id":"4","last_reported":1728338939,"current_range_meters":10000,"station_id":"cpo3342slgdg3j2ifvpg","pricing_plan_id":"cebpf4jnsgd1na2vs0mg"},{"bike_id":"f6f735b2-2c7f-4bda-80c2-a88a32bd651a","system_id":"levelo_inurba_marseille","lat":43.28456,"lon":5.35882,"is_reserved":false,"is_disabled":false,"rental_uris":{"android":"levelo://app?vid=f6f735b2-2c7f-4bda-80c2-a88a32bd651a","ios":"levelo://app?vid=f6f735b2-2c7f-4bda-80c2-a88a32bd651a"},"vehicle_type_id":"4","last_reported":1728338939,"current_range_meters":21600,"station_id":"ce4bhah2rcd13ifvqei0","pricing_plan_id":"cebpf4jnsgd1na2vs0mg"},{"bike_id":"e04bac3b-3017-4264-87e3-39689488fd05","system_id":"levelo_inurba_marseille","lat":43.28462,"lon":5.35892,"is_reserved":false,"is_disabled":false,"rental_uris":{"android":"levelo://app?vid=e04bac3b-3017-4264-87e3-39689488fd05","ios":"levelo://app?vid=e04bac3b-3017-4264-87e3-39689488fd05"},"vehicle_type_id":"4","last_reported":1728338939,"current_range_meters":29600,"station_id":"ce4bhah2rcd13ifvqei0","pricing_plan_id":"cebpf4jnsgd1na2vs0mg"},{"bike_id":"b014f02c-99bd-498f-a572-9a513a2b9a99","system_id":"levelo_inurba_marseille","lat":43.28717,"lon":5.39986,"is_reserved":false,"is_disabled":false,"rental_uris":{"android":"levelo://app?vid=b014f02c-99bd-498f-a572-9a513a2b9a99","ios":"levelo://app?vid=b014f02c-99bd-498f-a572-9a513a2b9a99"},"vehicle_type_id":"4","last_reported":1728338939,"current_range_meters":9200,"station_id":"ce4bho92rcd13ifvqh3g","pricing_plan_id":"cebpf4jnsgd1na2vs0mg"},{"bike_id":"dcb0f448-2134-46dd-912a-ba72f0d7ccf2","system_id":"levelo_inurba_marseille","lat":43.28155,"lon":5.4265,"is_reserved":false,"is_disabled":false,"rental_uris":{"android":"levelo://app?vid=dcb0f448-2134-46dd-912a-ba72f0d7ccf2","ios":"levelo://app?vid=dcb0f448-2134-46dd-912a-ba72f0d7ccf2"},"vehicle_type_id":"4","last_reported":1728338939,"current_range_meters":38800,"station_id":"ce4bhnh2rcd13ifvqgug","pricing_plan_id":"cebpf4jnsgd1na2vs0mg"},{"bike_id":"3ef37b24-db49-4571-8903-257e514e9f58","system_id":"levelo_inurba_marseille","lat":43.28724,"lon":5.36083,"is_reserved":false,"is_disabled":false,"rental_uris":{"android":"levelo://app?vid=3ef37b24-db49-4571-8903-257e514e9f58","ios":"levelo://app?vid=3ef37b24-db49-4571-8903-257e514e9f58"},"vehicle_type_id":"4","last_reported":1728338939,"current_range_meters":40000,"station_id":"cki0cbj6b192h4jlfktg","pricing_plan_id":"cebpf4jnsgd1na2vs0mg"},{"bike_id":"97859cce-2739-4870-920f-9160c684d214","system_id":"levelo_inurba_marseille","lat":43.29549,"lon":5.4228,"is_reserved":false,"is_disabled":false,"rental_uris":{"android":"levelo://app?vid=97859cce-2739-4870-920f-9160c684d214","ios":"levelo://app?vid=97859cce-2739-4870-920f-9160c684d214"},"vehicle_type_id":"4","last_reported":1728338939,"current_range_meters":38800,"station_id":"ce4bhph2rcd13ifvqhdg","pricing_plan_id":"cebpf4jnsgd1na2vs0mg"},{"bike_id":"1353961b-833b-4034-9c64-7bda01fbcbcd","system_id":"levelo_inurba_marseille","lat":43.308066,"lon":5.381506,"is_reserved":false,"is_disabled":false,"rental_uris":{"android":"levelo://app?vid=1353961b-833b-4034-9c64-7bda01fbcbcd","ios":"levelo://app?vid=1353961b-833b-4034-9c64-7bda01fbcbcd"},"vehicle_type_id":"4","last_reported":1728338939,"current_range_meters":30400,"station_id":"ce4bgt12rcd13ifvqce0","pricing_plan_id":"cebpf4jnsgd1na2vs0mg"},{"bike_id":"c2dbe9fe-42fc-49ee-8f65-625ce0153505","system_id":"levelo_inurba_marseille","lat":43.28725,"lon":5.36083,"is_reserved":false,"is_disabled":false,"rental_uris":{"android":"levelo://app?vid=c2dbe9fe-42fc-49ee-8f65-625ce0153505","ios":"levelo://app?vid=c2dbe9fe-42fc-49ee-8f65-625ce0153505"},"vehicle_type_id":"4","last_reported":1728338939,"current_range_meters":13600,"station_id":"cki0cbj6b192h4jlfktg","pricing_plan_id":"cebpf4jnsgd1na2vs0mg"},{"bike_id":"663d807d-5236-4795-8907-d41427101515","system_id":"levelo_inurba_marseille","lat":43.33028,"lon":5.39042,"is_reserved":false,"is_disabled":false,"rental_uris":{"android":"levelo://app?vid=663d807d-5236-4795-8907-d41427101515","ios":"levelo://app?vid=663d807d-5236-4795-8907-d41427101515"},"vehicle_type_id":"4","last_reported":1728338939,"current_range_meters":38000,"station_id":"ce4bhr92rcd13ifvqhrg","pricing_plan_id":"cebpf4jnsgd1na2vs0mg"},{"bike_id":"0190a491-52c0-46a5-be20-b72d156a36de","system_id":"levelo_inurba_marseille","lat":43.31269,"lon":5.40165,"is_reserved":false,"is_disabled":false,"rental_uris":{"android":"levelo://app?vid=0190a491-52c0-46a5-be20-b72d156a36de","ios":"levelo://app?vid=0190a491-52c0-46a5-be20-b72d156a36de"},"vehicle_type_id":"4","last_reported":1728338939,"current_range_meters":36400,"station_id":"ce4bh092rcd13ifvqd30","pricing_plan_id":"cebpf4jnsgd1na2vs0mg"},{"bike_id":"066ccb90-6b9a-4302-bde4-9c97dfce747d","system_id":"levelo_inurba_marseille","lat":43.33725,"lon":5.39193,"is_reserved":false,"is_disabled":false,"rental_uris":{"android":"levelo://app?vid=066ccb90-6b9a-4302-bde4-9c97dfce747d","ios":"levelo://app?vid=066ccb90-6b9a-4302-bde4-9c97dfce747d"},"vehicle_type_id":"4","last_reported":1728338939,"current_range_meters":38800,"station_id":"ce4bhr92rcd13ifvqhsg","pricing_plan_id":"cebpf4jnsgd1na2vs0mg"},{"bike_id":"a031a740-e40c-4609-ab41-f160c724e97a","system_id":"levelo_inurba_marseille","lat":43.29979,"lon":5.37177,"is_reserved":false,"is_disabled":false,"rental_uris":{"android":"levelo://app?vid=a031a740-e40c-4609-ab41-f160c724e97a","ios":"levelo://app?vid=a031a740-e40c-4609-ab41-f160c724e97a"},"vehicle_type_id":"4","last_reported":1728338939,"current_range_meters":40000,"station_id":"ce4bgr92rcd13ifvqc7g","pricing_plan_id":"cebpf4jnsgd1na2vs0mg"},{"bike_id":"12974a0f-2544-4d26-91a5-435eae1a2365","system_id":"levelo_inurba_marseille","lat":43.31689,"lon":5.40477,"is_reserved":false,"is_disabled":false,"rental_uris":{"android":"levelo://app?vid=12974a0f-2544-4d26-91a5-435eae1a2365","ios":"levelo://app?vid=12974a0f-2544-4d26-91a5-435eae1a2365"},"vehicle_type_id":"4","last_reported":1728338939,"current_range_meters":38400,"station_id":"ce4bh012rcd13ifvqd00","pricing_plan_id":"cebpf4jnsgd1na2vs0mg"},{"bike_id":"f44a0142-05f1-4a99-80bf-c703ade1ad74","system_id":"levelo_inurba_marseille","lat":43.28663,"lon":5.36349,"is_reserved":false,"is_disabled":false,"rental_uris":{"android":"levelo://app?vid=f44a0142-05f1-4a99-80bf-c703ade1ad74","ios":"levelo://app?vid=f44a0142-05f1-4a99-80bf-c703ade1ad74"},"vehicle_type_id":"4","last_reported":1728338939,"current_range_meters":21600,"station_id":"ce4bhah2rcd13ifvqej0","pricing_plan_id":"cebpf4jnsgd1na2vs0mg"},{"bike_id":"ec307642-e1af-46bf-bf9a-6c367a642997","system_id":"levelo_inurba_marseille","lat":43.28357,"lon":5.38093,"is_reserved":false,"is_disabled":false,"rental_uris":{"android":"levelo://app?vid=ec307642-e1af-46bf-bf9a-6c367a642997","ios":"levelo://app?vid=ec307642-e1af-46bf-bf9a-6c367a642997"},"vehicle_type_id":"4","last_reported":1728338939,"current_range_meters":24400,"station_id":"ce4bh412rcd13ifvqdr0","pricing_plan_id":"cebpf4jnsgd1na2vs0mg"},{"bike_id":"a8ce887c-a758-454e-9c1a-6b6577112135","system_id":"levelo_inurba_marseille","lat":43.27187,"lon":5.40998,"is_reserved":false,"is_disabled":false,"rental_uris":{"android":"levelo://app?vid=a8ce887c-a758-454e-9c1a-6b6577112135","ios":"levelo://app?vid=a8ce887c-a758-454e-9c1a-6b6577112135"},"vehicle_type_id":"4","last_reported":1728338939,"current_range_meters":38800,"station_id":"ce4bhl12rcd13ifvqgf0","pricing_plan_id":"cebpf4jnsgd1na2vs0mg"},{"bike_id":"35db5aab-a536-4286-87d7-90ec43783f24","system_id":"levelo_inurba_marseille","lat":43.23193,"lon":5.35557,"is_reserved":false,"is_disabled":false,"rental_uris":{"android":"levelo://app?vid=35db5aab-a536-4286-87d7-90ec43783f24","ios":"levelo://app?vid=35db5aab-a536-4286-87d7-90ec43783f24"},"vehicle_type_id":"4","last_reported":1728338939,"current_range_meters":34000,"station_id":"ce4bhu92rcd13ifvqi70","pricing_plan_id":"cebpf4jnsgd1na2vs0mg"},{"bike_id":"af5317ea-de29-4cfc-ab27-6363076a4af0","system_id":"levelo_inurba_marseille","lat":43.30806,"lon":5.3815,"is_reserved":false,"is_disabled":false,"rental_uris":{"android":"levelo://app?vid=af5317ea-de29-4cfc-ab27-6363076a4af0","ios":"levelo://app?vid=af5317ea-de29-4cfc-ab27-6363076a4af0"},"vehicle_type_id":"4","last_reported":1728338939,"current_range_meters":24000,"station_id":"ce4bgt12rcd13ifvqce0","pricing_plan_id":"cebpf4jnsgd1na2vs0mg"},{"bike_id":"860c37f5-ffde-4aa9-95ed-4f2ed1f0a5e2","system_id":"levelo_inurba_marseille","lat":43.25119,"lon":5.40319,"is_reserved":false,"is_disabled":false,"rental_uris":{"android":"levelo://app?vid=860c37f5-ffde-4aa9-95ed-4f2ed1f0a5e2","ios":"levelo://app?vid=860c37f5-ffde-4aa9-95ed-4f2ed1f0a5e2"},"vehicle_type_id":"4","last_reported":1728338939,"current_range_meters":39200,"station_id":"ce4bhlh2rcd13ifvqgig","pricing_plan_id":"cebpf4jnsgd1na2vs0mg"},{"bike_id":"62dfd99c-f976-4937-b2d0-5b50f5ae699f","system_id":"levelo_inurba_marseille","lat":43.24175,"lon":5.364,"is_reserved":false,"is_disabled":false,"rental_uris":{"android":"levelo://app?vid=62dfd99c-f976-4937-b2d0-5b50f5ae699f","ios":"levelo://app?vid=62dfd99c-f976-4937-b2d0-5b50f5ae699f"},"vehicle_type_id":"4","last_reported":1728338939,"current_range_meters":8400,"station_id":"cpo36qri1sfpv3e86is0","pricing_plan_id":"cebpf4jnsgd1na2vs0mg"},{"bike_id":"f76e7ecd-1ce9-4ad7-a3e6-7c720fed9b5f","system_id":"levelo_inurba_marseille","lat":43.32293,"lon":5.38253,"is_reserved":false,"is_disabled":false,"rental_uris":{"android":"levelo://app?vid=f76e7ecd-1ce9-4ad7-a3e6-7c720fed9b5f","ios":"levelo://app?vid=f76e7ecd-1ce9-4ad7-a3e6-7c720fed9b5f"},"vehicle_type_id":"4","last_reported":1728338939,"current_range_meters":38800,"station_id":"ce4bhr12rcd13ifvqhqg","pricing_plan_id":"cebpf4jnsgd1na2vs0mg"},{"bike_id":"d5b8bfb4-409c-4850-a69d-4732b5060224","system_id":"levelo_inurba_marseille","lat":43.31355,"lon":5.36722,"is_reserved":false,"is_disabled":false,"rental_uris":{"android":"levelo://app?vid=d5b8bfb4-409c-4850-a69d-4732b5060224","ios":"levelo://app?vid=d5b8bfb4-409c-4850-a69d-4732b5060224"},"vehicle_type_id":"4","last_reported":1728338939,"current_range_meters":38800,"station_id":"ce4bgr92rcd13ifvqc6g","pricing_plan_id":"cebpf4jnsgd1na2vs0mg"},{"bike_id":"f4793b99-7728-4628-8857-6672386d2140","system_id":"levelo_inurba_marseille","lat":43.30199,"lon":5.36616,"is_reserved":false,"is_disabled":false,"rental_uris":{"android":"levelo://app?vid=f4793b99-7728-4628-8857-6672386d2140","ios":"levelo://app?vid=f4793b99-7728-4628-8857-6672386d2140"},"vehicle_type_id":"4","last_reported":1728338939,"current_range_meters":38800,"station_id":"ce4bgrh2rcd13ifvqc8g","pricing_plan_id":"cebpf4jnsgd1na2vs0mg"},{"bike_id":"d8c8186f-15ba-4e39-aa78-81086f7a0cb4","system_id":"levelo_inurba_marseille","lat":43.29883,"lon":5.38905,"is_reserved":false,"is_disabled":false,"rental_uris":{"android":"levelo://app?vid=d8c8186f-15ba-4e39-aa78-81086f7a0cb4","ios":"levelo://app?vid=d8c8186f-15ba-4e39-aa78-81086f7a0cb4"},"vehicle_type_id":"4","last_reported":1728338939,"current_range_meters":32800,"station_id":"ce4bh392rcd13ifvqdl0","pricing_plan_id":"cebpf4jnsgd1na2vs0mg"},{"bike_id":"74e3cf56-2968-4ce7-bb1a-6073197f7427","system_id":"levelo_inurba_marseille","lat":43.28424,"lon":5.37506,"is_reserved":false,"is_disabled":false,"rental_uris":{"android":"levelo://app?vid=74e3cf56-2968-4ce7-bb1a-6073197f7427","ios":"levelo://app?vid=74e3cf56-2968-4ce7-bb1a-6073197f7427"},"vehicle_type_id":"4","last_reported":1728338939,"current_range_meters":19600,"station_id":"ce4bh412rcd13ifvqds0","pricing_plan_id":"cebpf4jnsgd1na2vs0mg"},{"bike_id":"e2ccf4a1-3a30-455f-aee7-06171700f2b9","system_id":"levelo_inurba_marseille","lat":43.32656,"lon":5.40991,"is_reserved":false,"is_disabled":false,"rental_uris":{"android":"levelo://app?vid=e2ccf4a1-3a30-455f-aee7-06171700f2b9","ios":"levelo://app?vid=e2ccf4a1-3a30-455f-aee7-06171700f2b9"},"vehicle_type_id":"4","last_reported":1728338939,"current_range_meters":20800,"station_id":"ce4bhpp2rcd13ifvqhgg","pricing_plan_id":"cebpf4jnsgd1na2vs0mg"},{"bike_id":"e2ccd035-e2f6-4b13-8c3b-407f63e2c6d1","system_id":"levelo_inurba_marseille","lat":43.33024,"lon":5.39044,"is_reserved":false,"is_disabled":false,"rental_uris":{"android":"levelo://app?vid=e2ccd035-e2f6-4b13-8c3b-407f63e2c6d1","ios":"levelo://app?vid=e2ccd035-e2f6-4b13-8c3b-407f63e2c6d1"},"vehicle_type_id":"4","last_reported":1728338939,"current_range_meters":5600,"station_id":"ce4bhr92rcd13ifvqhrg","pricing_plan_id":"cebpf4jnsgd1na2vs0mg"},{"bike_id":"51ea515d-944c-489c-8a74-b1f09acd3971","system_id":"levelo_inurba_marseille","lat":43.25582,"lon":5.38228,"is_reserved":false,"is_disabled":false,"rental_uris":{"android":"levelo://app?vid=51ea515d-944c-489c-8a74-b1f09acd3971","ios":"levelo://app?vid=51ea515d-944c-489c-8a74-b1f09acd3971"},"vehicle_type_id":"4","last_reported":1728338939,"current_range_meters":26800,"station_id":"ce4bhih2rcd13ifvqfs0","pricing_plan_id":"cebpf4jnsgd1na2vs0mg"},{"bike_id":"5809b552-aeb4-4660-8222-01a555ad230d","system_id":"levelo_inurba_marseille","lat":43.30327,"lon":5.40435,"is_reserved":false,"is_disabled":false,"rental_uris":{"android":"levelo://app?vid=5809b552-aeb4-4660-8222-01a555ad230d","ios":"levelo://app?vid=5809b552-aeb4-4660-8222-01a555ad230d"},"vehicle_type_id":"4","last_reported":1728338939,"current_range_meters":10000,"station_id":"ce4bh012rcd13ifvqd10","pricing_plan_id":"cebpf4jnsgd1na2vs0mg"},{"bike_id":"677f605d-69c8-4382-98b6-5ffff180ce39","system_id":"levelo_inurba_marseille","lat":43.26928,"lon":5.40317,"is_reserved":false,"is_disabled":false,"rental_uris":{"android":"levelo://app?vid=677f605d-69c8-4382-98b6-5ffff180ce39","ios":"levelo://app?vid=677f605d-69c8-4382-98b6-5ffff180ce39"},"vehicle_type_id":"4","last_reported":1728338939,"current_range_meters":24400,"station_id":"","pricing_plan_id":"cebpf4jnsgd1na2vs0mg"},{"bike_id":"b8f42f5e-5297-48bb-901f-68b928d70285","system_id":"levelo_inurba_marseille","lat":43.28455,"lon":5.35884,"is_reserved":false,"is_disabled":false,"rental_uris":{"android":"levelo://app?vid=b8f42f5e-5297-48bb-901f-68b928d70285","ios":"levelo://app?vid=b8f42f5e-5297-48bb-901f-68b928d70285"},"vehicle_type_id":"4","last_reported":1728338939,"current_range_meters":28400,"station_id":"ce4bhah2rcd13ifvqei0","pricing_plan_id":"cebpf4jnsgd1na2vs0mg"},{"bike_id":"e7ca1121-dfae-49ab-95f7-00c35a3a4f04","system_id":"levelo_inurba_marseille","lat":43.30775,"lon":5.37658,"is_reserved":false,"is_disabled":false,"rental_uris":{"android":"levelo://app?vid=e7ca1121-dfae-49ab-95f7-00c35a3a4f04","ios":"levelo://app?vid=e7ca1121-dfae-49ab-95f7-00c35a3a4f04"},"vehicle_type_id":"4","last_reported":1728338939,"current_range_meters":38800,"station_id":"ce4bgv92rcd13ifvqcq0","pricing_plan_id":"cebpf4jnsgd1na2vs0mg"},{"bike_id":"a854f9eb-d697-4507-b33a-9376691b2f9b","system_id":"levelo_inurba_marseille","lat":43.27998,"lon":5.40014,"is_reserved":false,"is_disabled":false,"rental_uris":{"android":"levelo://app?vid=a854f9eb-d697-4507-b33a-9376691b2f9b","ios":"levelo://app?vid=a854f9eb-d697-4507-b33a-9376691b2f9b"},"vehicle_type_id":"4","last_reported":1728338939,"current_range_meters":38800,"station_id":"ce4bho92rcd13ifvqh4g","pricing_plan_id":"cebpf4jnsgd1na2vs0mg"},{"bike_id":"dc2e07b6-2d88-4c3a-9e54-908d68323f78","system_id":"levelo_inurba_marseille","lat":43.29518,"lon":5.394,"is_reserved":false,"is_disabled":false,"rental_uris":{"android":"levelo://app?vid=dc2e07b6-2d88-4c3a-9e54-908d68323f78","ios":"levelo://app?vid=dc2e07b6-2d88-4c3a-9e54-908d68323f78"},"vehicle_type_id":"4","last_reported":1728338939,"current_range_meters":38800,"station_id":"ce4bh292rcd13ifvqdf0","pricing_plan_id":"cebpf4jnsgd1na2vs0mg"},{"bike_id":"71557b2f-0cba-4338-83db-d8c00bdfcacb","system_id":"levelo_inurba_marseille","lat":43.31708,"lon":5.37746,"is_reserved":false,"is_disabled":false,"rental_uris":{"android":"levelo://app?vid=71557b2f-0cba-4338-83db-d8c00bdfcacb","ios":"levelo://app?vid=71557b2f-0cba-4338-83db-d8c00bdfcacb"},"vehicle_type_id":"4","last_reported":1728338939,"current_range_meters":24000,"station_id":"ce4bgth2rcd13ifvqch0","pricing_plan_id":"cebpf4jnsgd1na2vs0mg"},{"bike_id":"e94f3760-34b3-4503-bb94-a753f8233f74","system_id":"levelo_inurba_marseille","lat":43.31335,"lon":5.39697,"is_reserved":false,"is_disabled":false,"rental_uris":{"android":"levelo://app?vid=e94f3760-34b3-4503-bb94-a753f8233f74","ios":"levelo://app?vid=e94f3760-34b3-4503-bb94-a753f8233f74"},"vehicle_type_id":"4","last_reported":1728338939,"current_range_meters":24400,"station_id":"ce4bgvp2rcd13ifvqcu0","pricing_plan_id":"cebpf4jnsgd1na2vs0mg"},{"bike_id":"3e1d0942-6577-476b-971c-b0a91ff7c57b","system_id":"levelo_inurba_marseille","lat":43.27188,"lon":5.40994,"is_reserved":false,"is_disabled":false,"rental_uris":{"android":"levelo://app?vid=3e1d0942-6577-476b-971c-b0a91ff7c57b","ios":"levelo://app?vid=3e1d0942-6577-476b-971c-b0a91ff7c57b"},"vehicle_type_id":"4","last_reported":1728338939,"current_range_meters":37600,"station_id":"ce4bhl12rcd13ifvqgf0","pricing_plan_id":"cebpf4jnsgd1na2vs0mg"},{"bike_id":"4af55307-045f-4c66-a045-a91d88bb4c16","system_id":"levelo_inurba_marseille","lat":43.22933,"lon":5.3538,"is_reserved":false,"is_disabled":false,"rental_uris":{"android":"levelo://app?vid=4af55307-045f-4c66-a045-a91d88bb4c16","ios":"levelo://app?vid=4af55307-045f-4c66-a045-a91d88bb4c16"},"vehicle_type_id":"4","last_reported":1728338939,"current_range_meters":24800,"station_id":"cpo3532slgdg3j2ikp40","pricing_plan_id":"cebpf4jnsgd1na2vs0mg"},{"bike_id":"aa598db1-3c3a-48c0-acd0-1929a2b13407","system_id":"levelo_inurba_marseille","lat":43.31716,"lon":5.43709,"is_reserved":false,"is_disabled":false,"rental_uris":{"android":"levelo://app?vid=aa598db1-3c3a-48c0-acd0-1929a2b13407","ios":"levelo://app?vid=aa598db1-3c3a-48c0-acd0-1929a2b13407"},"vehicle_type_id":"4","last_reported":1728338939,"current_range_meters":40000,"station_id":"ce4bhp92rcd13ifvqhcg","pricing_plan_id":"cebpf4jnsgd1na2vs0mg"},{"bike_id":"47efe985-66e3-4fb1-a00d-60851f779f19","system_id":"levelo_inurba_marseille","lat":43.32551,"lon":5.41441,"is_reserved":false,"is_disabled":false,"rental_uris":{"android":"levelo://app?vid=47efe985-66e3-4fb1-a00d-60851f779f19","ios":"levelo://app?vid=47efe985-66e3-4fb1-a00d-60851f779f19"},"vehicle_type_id":"4","last_reported":1728338939,"current_range_meters":28400,"station_id":"ce4bhq12rcd13ifvqhhg","pricing_plan_id":"cebpf4jnsgd1na2vs0mg"},{"bike_id":"6482b1fb-67cb-4384-a7c9-6c0a7b56e3b4","system_id":"levelo_inurba_marseille","lat":43.28843,"lon":5.43329,"is_reserved":false,"is_disabled":false,"rental_uris":{"android":"levelo://app?vid=6482b1fb-67cb-4384-a7c9-6c0a7b56e3b4","ios":"levelo://app?vid=6482b1fb-67cb-4384-a7c9-6c0a7b56e3b4"},"vehicle_type_id":"4","last_reported":1728338939,"current_range_meters":3200,"station_id":"","pricing_plan_id":"cebpf4jnsgd1na2vs0mg"},{"bike_id":"5252fed1-452c-4c8e-88a8-b98c3ec44db4","system_id":"levelo_inurba_marseille","lat":43.25705,"lon":5.411132,"is_reserved":false,"is_disabled":false,"rental_uris":{"android":"levelo://app?vid=5252fed1-452c-4c8e-88a8-b98c3ec44db4","ios":"levelo://app?vid=5252fed1-452c-4c8e-88a8-b98c3ec44db4"},"vehicle_type_id":"4","last_reported":1728338939,"current_range_meters":28000,"station_id":"ce4bhkp2rcd13ifvqgd0","pricing_plan_id":"cebpf4jnsgd1na2vs0mg"},{"bike_id":"294882e4-04ea-4ba9-8d89-0381ed6bba4d","system_id":"levelo_inurba_marseille","lat":43.31328,"lon":5.39679,"is_reserved":false,"is_disabled":false,"rental_uris":{"android":"levelo://app?vid=294882e4-04ea-4ba9-8d89-0381ed6bba4d","ios":"levelo://app?vid=294882e4-04ea-4ba9-8d89-0381ed6bba4d"},"vehicle_type_id":"4","last_reported":1728338939,"current_range_meters":33600,"station_id":"ce4bgvp2rcd13ifvqcu0","pricing_plan_id":"cebpf4jnsgd1na2vs0mg"},{"bike_id":"480eecf8-5d47-4f93-815e-826c050e484c","system_id":"levelo_inurba_marseille","lat":43.31336,"lon":5.39693,"is_reserved":false,"is_disabled":false,"rental_uris":{"android":"levelo://app?vid=480eecf8-5d47-4f93-815e-826c050e484c","ios":"levelo://app?vid=480eecf8-5d47-4f93-815e-826c050e484c"},"vehicle_type_id":"4","last_reported":1728338939,"current_range_meters":40000,"station_id":"ce4bgvp2rcd13ifvqcu0","pricing_plan_id":"cebpf4jnsgd1na2vs0mg"},{"bike_id":"c12c46a4-bd86-493d-803e-5d507cd7924b","system_id":"levelo_inurba_marseille","lat":43.23192,"lon":5.35538,"is_reserved":false,"is_disabled":false,"rental_uris":{"android":"levelo://app?vid=c12c46a4-bd86-493d-803e-5d507cd7924b","ios":"levelo://app?vid=c12c46a4-bd86-493d-803e-5d507cd7924b"},"vehicle_type_id":"4","last_reported":1728338939,"current_range_meters":22800,"station_id":"ce4bhu92rcd13ifvqi70","pricing_plan_id":"cebpf4jnsgd1na2vs0mg"},{"bike_id":"1e22ea5d-d406-4b63-92d6-06a783dc0af8","system_id":"levelo_inurba_marseille","lat":43.23185,"lon":5.39981,"is_reserved":false,"is_disabled":false,"rental_uris":{"android":"levelo://app?vid=1e22ea5d-d406-4b63-92d6-06a783dc0af8","ios":"levelo://app?vid=1e22ea5d-d406-4b63-92d6-06a783dc0af8"},"vehicle_type_id":"4","last_reported":1728338939,"current_range_meters":22400,"station_id":"ce4bhn12rcd13ifvqgqg","pricing_plan_id":"cebpf4jnsgd1na2vs0mg"},{"bike_id":"e0ef52ca-c7fa-41d7-a3ea-c3e5235a2597","system_id":"levelo_inurba_marseille","lat":43.25084,"lon":5.3952,"is_reserved":false,"is_disabled":false,"rental_uris":{"android":"levelo://app?vid=e0ef52ca-c7fa-41d7-a3ea-c3e5235a2597","ios":"levelo://app?vid=e0ef52ca-c7fa-41d7-a3ea-c3e5235a2597"},"vehicle_type_id":"4","last_reported":1728338939,"current_range_meters":28400,"station_id":"ce4bhm12rcd13ifvqgkg","pricing_plan_id":"cebpf4jnsgd1na2vs0mg"},{"bike_id":"847db019-abc2-4347-82ea-dd888d03f3c4","system_id":"levelo_inurba_marseille","lat":43.26556,"lon":5.37287,"is_reserved":false,"is_disabled":false,"rental_uris":{"android":"levelo://app?vid=847db019-abc2-4347-82ea-dd888d03f3c4","ios":"levelo://app?vid=847db019-abc2-4347-82ea-dd888d03f3c4"},"vehicle_type_id":"4","last_reported":1728338939,"current_range_meters":36800,"station_id":"ce4bhg12rcd13ifvqf70","pricing_plan_id":"cebpf4jnsgd1na2vs0mg"},{"bike_id":"85a8b07e-682b-4725-800e-b0749654fba5","system_id":"levelo_inurba_marseille","lat":43.24171,"lon":5.36396,"is_reserved":false,"is_disabled":false,"rental_uris":{"android":"levelo://app?vid=85a8b07e-682b-4725-800e-b0749654fba5","ios":"levelo://app?vid=85a8b07e-682b-4725-800e-b0749654fba5"},"vehicle_type_id":"4","last_reported":1728338939,"current_range_meters":22000,"station_id":"cpo36qri1sfpv3e86is0","pricing_plan_id":"cebpf4jnsgd1na2vs0mg"},{"bike_id":"19c6dacc-bcb8-4e79-b8b4-d18a54cc1928","system_id":"levelo_inurba_marseille","lat":43.27983,"lon":5.41656,"is_reserved":false,"is_disabled":false,"rental_uris":{"android":"levelo://app?vid=19c6dacc-bcb8-4e79-b8b4-d18a54cc1928","ios":"levelo://app?vid=19c6dacc-bcb8-4e79-b8b4-d18a54cc1928"},"vehicle_type_id":"4","last_reported":1728338939,"current_range_meters":38800,"station_id":"ce4bho12rcd13ifvqh1g","pricing_plan_id":"cebpf4jnsgd1na2vs0mg"},{"bike_id":"eb8fc8ee-c5fc-4298-a869-d0284f45a890","system_id":"levelo_inurba_marseille","lat":43.32365,"lon":5.38885,"is_reserved":false,"is_disabled":false,"rental_uris":{"android":"levelo://app?vid=eb8fc8ee-c5fc-4298-a869-d0284f45a890","ios":"levelo://app?vid=eb8fc8ee-c5fc-4298-a869-d0284f45a890"},"vehicle_type_id":"4","last_reported":1728338939,"current_range_meters":36800,"station_id":"ce4bhqp2rcd13ifvqhog","pricing_plan_id":"cebpf4jnsgd1na2vs0mg"},{"bike_id":"b6640f17-7ab3-4932-bbd1-5fe22e83845e","system_id":"levelo_inurba_marseille","lat":43.32308,"lon":5.38266,"is_reserved":false,"is_disabled":false,"rental_uris":{"android":"levelo://app?vid=b6640f17-7ab3-4932-bbd1-5fe22e83845e","ios":"levelo://app?vid=b6640f17-7ab3-4932-bbd1-5fe22e83845e"},"vehicle_type_id":"4","last_reported":1728338939,"current_range_meters":38800,"station_id":"ce4bhr12rcd13ifvqhqg","pricing_plan_id":"cebpf4jnsgd1na2vs0mg"},{"bike_id":"b5d0d5d7-5971-4c5e-bed9-a155ed94b0cf","system_id":"levelo_inurba_marseille","lat":43.30661,"lon":5.40085,"is_reserved":false,"is_disabled":false,"rental_uris":{"android":"levelo://app?vid=b5d0d5d7-5971-4c5e-bed9-a155ed94b0cf","ios":"levelo://app?vid=b5d0d5d7-5971-4c5e-bed9-a155ed94b0cf"},"vehicle_type_id":"4","last_reported":1728338939,"current_range_meters":37600,"station_id":"ce4bh112rcd13ifvqda0","pricing_plan_id":"cebpf4jnsgd1na2vs0mg"},{"bike_id":"6c5fa1c1-e4ab-438c-b3c6-bbf101b21f39","system_id":"levelo_inurba_marseille","lat":43.28944,"lon":5.364,"is_reserved":false,"is_disabled":false,"rental_uris":{"android":"levelo://app?vid=6c5fa1c1-e4ab-438c-b3c6-bbf101b21f39","ios":"levelo://app?vid=6c5fa1c1-e4ab-438c-b3c6-bbf101b21f39"},"vehicle_type_id":"4","last_reported":1728338939,"current_range_meters":30400,"station_id":"ce4bhc92rcd13ifvqetg","pricing_plan_id":"cebpf4jnsgd1na2vs0mg"},{"bike_id":"aa77d5fb-8989-4713-80a5-2c3ab7ee1a19","system_id":"levelo_inurba_marseille","lat":43.29252,"lon":5.40907,"is_reserved":false,"is_disabled":false,"rental_uris":{"android":"levelo://app?vid=aa77d5fb-8989-4713-80a5-2c3ab7ee1a19","ios":"levelo://app?vid=aa77d5fb-8989-4713-80a5-2c3ab7ee1a19"},"vehicle_type_id":"4","last_reported":1728338939,"current_range_meters":25600,"station_id":"ce4bh192rcd13ifvqdc0","pricing_plan_id":"cebpf4jnsgd1na2vs0mg"},{"bike_id":"1d8a8722-9820-4f3d-a130-18024aaa2b06","system_id":"levelo_inurba_marseille","lat":43.26947,"lon":5.4025,"is_reserved":false,"is_disabled":false,"rental_uris":{"android":"levelo://app?vid=1d8a8722-9820-4f3d-a130-18024aaa2b06","ios":"levelo://app?vid=1d8a8722-9820-4f3d-a130-18024aaa2b06"},"vehicle_type_id":"4","last_reported":1728338939,"current_range_meters":36400,"station_id":"cjm6bp8fraef2m0cb0m0","pricing_plan_id":"cebpf4jnsgd1na2vs0mg"},{"bike_id":"f87c1dd0-d204-4a41-ae92-687c3cddfed1","system_id":"levelo_inurba_marseille","lat":43.24668,"lon":5.38163,"is_reserved":false,"is_disabled":false,"rental_uris":{"android":"levelo://app?vid=f87c1dd0-d204-4a41-ae92-687c3cddfed1","ios":"levelo://app?vid=f87c1dd0-d204-4a41-ae92-687c3cddfed1"},"vehicle_type_id":"4","last_reported":1728338939,"current_range_meters":5600,"station_id":"ce4bhih2rcd13ifvqfr0","pricing_plan_id":"cebpf4jnsgd1na2vs0mg"},{"bike_id":"80771c91-a7e6-46c5-8168-115408374db8","system_id":"levelo_inurba_marseille","lat":43.27998,"lon":5.40015,"is_reserved":false,"is_disabled":false,"rental_uris":{"android":"levelo://app?vid=80771c91-a7e6-46c5-8168-115408374db8","ios":"levelo://app?vid=80771c91-a7e6-46c5-8168-115408374db8"},"vehicle_type_id":"4","last_reported":1728338939,"current_range_meters":38800,"station_id":"ce4bho92rcd13ifvqh4g","pricing_plan_id":"cebpf4jnsgd1na2vs0mg"},{"bike_id":"927fa5e3-a8b8-48ff-8c01-e878e03d2ba9","system_id":"levelo_inurba_marseille","lat":43.28939,"lon":5.39621,"is_reserved":false,"is_disabled":false,"rental_uris":{"android":"levelo://app?vid=927fa5e3-a8b8-48ff-8c01-e878e03d2ba9","ios":"levelo://app?vid=927fa5e3-a8b8-48ff-8c01-e878e03d2ba9"},"vehicle_type_id":"4","last_reported":1728338939,"current_range_meters":12400,"station_id":"ce4bh3h2rcd13ifvqdn0","pricing_plan_id":"cebpf4jnsgd1na2vs0mg"},{"bike_id":"62c20907-37b0-4a30-9212-04239ba69697","system_id":"levelo_inurba_marseille","lat":43.31338,"lon":5.39695,"is_reserved":false,"is_disabled":false,"rental_uris":{"android":"levelo://app?vid=62c20907-37b0-4a30-9212-04239ba69697","ios":"levelo://app?vid=62c20907-37b0-4a30-9212-04239ba69697"},"vehicle_type_id":"4","last_reported":1728338939,"current_range_meters":40000,"station_id":"ce4bgvp2rcd13ifvqcu0","pricing_plan_id":"cebpf4jnsgd1na2vs0mg"},{"bike_id":"d00a3477-782a-4de0-b711-15ed9dd434f4","system_id":"levelo_inurba_marseille","lat":43.23052,"lon":5.35497,"is_reserved":false,"is_disabled":false,"rental_uris":{"android":"levelo://app?vid=d00a3477-782a-4de0-b711-15ed9dd434f4","ios":"levelo://app?vid=d00a3477-782a-4de0-b711-15ed9dd434f4"},"vehicle_type_id":"4","last_reported":1728338939,"current_range_meters":8000,"station_id":"cpo3342slgdg3j2ifvpg","pricing_plan_id":"cebpf4jnsgd1na2vs0mg"},{"bike_id":"723a9ecd-2170-48ac-aed2-47ee1acfbf4e","system_id":"levelo_inurba_marseille","lat":43.30935,"lon":5.4014,"is_reserved":false,"is_disabled":false,"rental_uris":{"android":"levelo://app?vid=723a9ecd-2170-48ac-aed2-47ee1acfbf4e","ios":"levelo://app?vid=723a9ecd-2170-48ac-aed2-47ee1acfbf4e"},"vehicle_type_id":"4","last_reported":1728338939,"current_range_meters":40000,"station_id":"ce4bgvp2rcd13ifvqct0","pricing_plan_id":"cebpf4jnsgd1na2vs0mg"},{"bike_id":"d702d83d-fc8f-401a-b86a-fea9c5c03cd2","system_id":"levelo_inurba_marseille","lat":43.30881,"lon":5.3964,"is_reserved":false,"is_disabled":false,"rental_uris":{"android":"levelo://app?vid=d702d83d-fc8f-401a-b86a-fea9c5c03cd2","ios":"levelo://app?vid=d702d83d-fc8f-401a-b86a-fea9c5c03cd2"},"vehicle_type_id":"4","last_reported":1728338939,"current_range_meters":40000,"station_id":"ce4bh012rcd13ifvqcv0","pricing_plan_id":"cebpf4jnsgd1na2vs0mg"},{"bike_id":"9c5d863a-5a7e-4174-aa67-2817a0e74f57","system_id":"levelo_inurba_marseille","lat":43.284553,"lon":5.358862,"is_reserved":false,"is_disabled":false,"rental_uris":{"android":"levelo://app?vid=9c5d863a-5a7e-4174-aa67-2817a0e74f57","ios":"levelo://app?vid=9c5d863a-5a7e-4174-aa67-2817a0e74f57"},"vehicle_type_id":"4","last_reported":1728338939,"current_range_meters":39200,"station_id":"ce4bhah2rcd13ifvqei0","pricing_plan_id":"cebpf4jnsgd1na2vs0mg"},{"bike_id":"c41645cc-9ca8-4599-a273-1dfae7017ffb","system_id":"levelo_inurba_marseille","lat":43.3126,"lon":5.40169,"is_reserved":false,"is_disabled":false,"rental_uris":{"android":"levelo://app?vid=c41645cc-9ca8-4599-a273-1dfae7017ffb","ios":"levelo://app?vid=c41645cc-9ca8-4599-a273-1dfae7017ffb"},"vehicle_type_id":"4","last_reported":1728338939,"current_range_meters":11600,"station_id":"ce4bh092rcd13ifvqd30","pricing_plan_id":"cebpf4jnsgd1na2vs0mg"},{"bike_id":"0addcf89-f5f6-4899-92b3-5cd2981eb4de","system_id":"levelo_inurba_marseille","lat":43.3171,"lon":5.37746,"is_reserved":false,"is_disabled":false,"rental_uris":{"android":"levelo://app?vid=0addcf89-f5f6-4899-92b3-5cd2981eb4de","ios":"levelo://app?vid=0addcf89-f5f6-4899-92b3-5cd2981eb4de"},"vehicle_type_id":"4","last_reported":1728338939,"current_range_meters":38400,"station_id":"ce4bgth2rcd13ifvqch0","pricing_plan_id":"cebpf4jnsgd1na2vs0mg"},{"bike_id":"383e6238-5106-499a-8e26-d16b81b00a77","system_id":"levelo_inurba_marseille","lat":43.299626,"lon":5.413329,"is_reserved":false,"is_disabled":false,"rental_uris":{"android":"levelo://app?vid=383e6238-5106-499a-8e26-d16b81b00a77","ios":"levelo://app?vid=383e6238-5106-499a-8e26-d16b81b00a77"},"vehicle_type_id":"4","last_reported":1728338939,"current_range_meters":19600,"station_id":"ce4bhp12rcd13ifvqh9g","pricing_plan_id":"cebpf4jnsgd1na2vs0mg"},{"bike_id":"e8f38f77-6572-42be-9296-0cbe6e7cb972","system_id":"levelo_inurba_marseille","lat":43.23054,"lon":5.35492,"is_reserved":false,"is_disabled":false,"rental_uris":{"android":"levelo://app?vid=e8f38f77-6572-42be-9296-0cbe6e7cb972","ios":"levelo://app?vid=e8f38f77-6572-42be-9296-0cbe6e7cb972"},"vehicle_type_id":"4","last_reported":1728338939,"current_range_meters":35600,"station_id":"cpo3342slgdg3j2ifvpg","pricing_plan_id":"cebpf4jnsgd1na2vs0mg"},{"bike_id":"da2bef50-9604-4ee2-b6fe-7fbad7a1e331","system_id":"levelo_inurba_marseille","lat":43.31714,"lon":5.37762,"is_reserved":false,"is_disabled":false,"rental_uris":{"android":"levelo://app?vid=da2bef50-9604-4ee2-b6fe-7fbad7a1e331","ios":"levelo://app?vid=da2bef50-9604-4ee2-b6fe-7fbad7a1e331"},"vehicle_type_id":"4","last_reported":1728338939,"current_range_meters":38800,"station_id":"ce4bgth2rcd13ifvqch0","pricing_plan_id":"cebpf4jnsgd1na2vs0mg"},{"bike_id":"6383107e-a90b-48e5-ad67-a00f3da06e6b","system_id":"levelo_inurba_marseille","lat":43.28087,"lon":5.3966,"is_reserved":false,"is_disabled":false,"rental_uris":{"android":"levelo://app?vid=6383107e-a90b-48e5-ad67-a00f3da06e6b","ios":"levelo://app?vid=6383107e-a90b-48e5-ad67-a00f3da06e6b"},"vehicle_type_id":"4","last_reported":1728338939,"current_range_meters":16800,"station_id":"ce4bho12rcd13ifvqh2g","pricing_plan_id":"cebpf4jnsgd1na2vs0mg"},{"bike_id":"a8a49a1e-e355-4c00-a15e-72bc8ea4727f","system_id":"levelo_inurba_marseille","lat":43.2978,"lon":5.39349,"is_reserved":false,"is_disabled":false,"rental_uris":{"android":"levelo://app?vid=a8a49a1e-e355-4c00-a15e-72bc8ea4727f","ios":"levelo://app?vid=a8a49a1e-e355-4c00-a15e-72bc8ea4727f"},"vehicle_type_id":"4","last_reported":1728338939,"current_range_meters":31200,"station_id":"chh1huq6cuj3fo74tm60","pricing_plan_id":"cebpf4jnsgd1na2vs0mg"},{"bike_id":"aba7126a-32fe-4f2d-8597-35f362949104","system_id":"levelo_inurba_marseille","lat":43.28106,"lon":5.37836,"is_reserved":false,"is_disabled":false,"rental_uris":{"android":"levelo://app?vid=aba7126a-32fe-4f2d-8597-35f362949104","ios":"levelo://app?vid=aba7126a-32fe-4f2d-8597-35f362949104"},"vehicle_type_id":"4","last_reported":1728338939,"current_range_meters":38800,"station_id":"ce4bha12rcd13ifvqee0","pricing_plan_id":"cebpf4jnsgd1na2vs0mg"},{"bike_id":"485bc90e-76e5-4ef0-8a60-6695dcc5102a","system_id":"levelo_inurba_marseille","lat":43.32467,"lon":5.36582,"is_reserved":false,"is_disabled":false,"rental_uris":{"android":"levelo://app?vid=485bc90e-76e5-4ef0-8a60-6695dcc5102a","ios":"levelo://app?vid=485bc90e-76e5-4ef0-8a60-6695dcc5102a"},"vehicle_type_id":"4","last_reported":1728338939,"current_range_meters":16800,"station_id":"ce4bhs12rcd13ifvqhvg","pricing_plan_id":"cebpf4jnsgd1na2vs0mg"},{"bike_id":"1d1560c0-8aa1-4179-bbe3-ec5398903439","system_id":"levelo_inurba_marseille","lat":43.29872,"lon":5.39729,"is_reserved":false,"is_disabled":false,"rental_uris":{"android":"levelo://app?vid=1d1560c0-8aa1-4179-bbe3-ec5398903439","ios":"levelo://app?vid=1d1560c0-8aa1-4179-bbe3-ec5398903439"},"vehicle_type_id":"4","last_reported":1728338939,"current_range_meters":14400,"station_id":"ce4bh0h2rcd13ifvqd50","pricing_plan_id":"cebpf4jnsgd1na2vs0mg"},{"bike_id":"26b10502-c168-4dc5-b070-1f18ddc4f76e","system_id":"levelo_inurba_marseille","lat":43.33024,"lon":5.39041,"is_reserved":false,"is_disabled":false,"rental_uris":{"android":"levelo://app?vid=26b10502-c168-4dc5-b070-1f18ddc4f76e","ios":"levelo://app?vid=26b10502-c168-4dc5-b070-1f18ddc4f76e"},"vehicle_type_id":"4","last_reported":1728338939,"current_range_meters":36000,"station_id":"ce4bhr92rcd13ifvqhrg","pricing_plan_id":"cebpf4jnsgd1na2vs0mg"},{"bike_id":"2fe9a872-9d35-432b-917d-ada3867c3c80","system_id":"levelo_inurba_marseille","lat":43.31531,"lon":5.38026,"is_reserved":false,"is_disabled":false,"rental_uris":{"android":"levelo://app?vid=2fe9a872-9d35-432b-917d-ada3867c3c80","ios":"levelo://app?vid=2fe9a872-9d35-432b-917d-ada3867c3c80"},"vehicle_type_id":"4","last_reported":1728338939,"current_range_meters":28800,"station_id":"ce4bhsp2rcd13ifvqi50","pricing_plan_id":"cebpf4jnsgd1na2vs0mg"},{"bike_id":"aa601155-2306-483c-91c1-5b8c5bc2381a","system_id":"levelo_inurba_marseille","lat":43.30646,"lon":5.40077,"is_reserved":false,"is_disabled":false,"rental_uris":{"android":"levelo://app?vid=aa601155-2306-483c-91c1-5b8c5bc2381a","ios":"levelo://app?vid=aa601155-2306-483c-91c1-5b8c5bc2381a"},"vehicle_type_id":"4","last_reported":1728338939,"current_range_meters":36800,"station_id":"ce4bh112rcd13ifvqda0","pricing_plan_id":"cebpf4jnsgd1na2vs0mg"},{"bike_id":"f015bd54-21f5-44e5-9eea-f82cf322db89","system_id":"levelo_inurba_marseille","lat":43.31999,"lon":5.3815,"is_reserved":false,"is_disabled":false,"rental_uris":{"android":"levelo://app?vid=f015bd54-21f5-44e5-9eea-f82cf322db89","ios":"levelo://app?vid=f015bd54-21f5-44e5-9eea-f82cf322db89"},"vehicle_type_id":"4","last_reported":1728338939,"current_range_meters":29600,"station_id":"ce4bhr12rcd13ifvqhpg","pricing_plan_id":"cebpf4jnsgd1na2vs0mg"},{"bike_id":"1d458ef6-e087-49c9-a1c6-43605559605c","system_id":"levelo_inurba_marseille","lat":43.31276,"lon":5.40166,"is_reserved":false,"is_disabled":false,"rental_uris":{"android":"levelo://app?vid=1d458ef6-e087-49c9-a1c6-43605559605c","ios":"levelo://app?vid=1d458ef6-e087-49c9-a1c6-43605559605c"},"vehicle_type_id":"4","last_reported":1728338939,"current_range_meters":30400,"station_id":"ce4bh092rcd13ifvqd30","pricing_plan_id":"cebpf4jnsgd1na2vs0mg"},{"bike_id":"2f4b888d-5c74-4153-900e-18576b429381","system_id":"levelo_inurba_marseille","lat":43.31696,"lon":5.40459,"is_reserved":false,"is_disabled":false,"rental_uris":{"android":"levelo://app?vid=2f4b888d-5c74-4153-900e-18576b429381","ios":"levelo://app?vid=2f4b888d-5c74-4153-900e-18576b429381"},"vehicle_type_id":"4","last_reported":1728338939,"current_range_meters":38400,"station_id":"ce4bh012rcd13ifvqd00","pricing_plan_id":"cebpf4jnsgd1na2vs0mg"},{"bike_id":"d0edae7e-7f2f-48a4-bab7-915ac2cfe93c","system_id":"levelo_inurba_marseille","lat":43.29518,"lon":5.39405,"is_reserved":false,"is_disabled":false,"rental_uris":{"android":"levelo://app?vid=d0edae7e-7f2f-48a4-bab7-915ac2cfe93c","ios":"levelo://app?vid=d0edae7e-7f2f-48a4-bab7-915ac2cfe93c"},"vehicle_type_id":"4","last_reported":1728338939,"current_range_meters":12400,"station_id":"ce4bh292rcd13ifvqdf0","pricing_plan_id":"cebpf4jnsgd1na2vs0mg"},{"bike_id":"6d4525a1-4df9-4bde-8481-acf85ddf64a9","system_id":"levelo_inurba_marseille","lat":43.31724,"lon":5.42393,"is_reserved":false,"is_disabled":false,"rental_uris":{"android":"levelo://app?vid=6d4525a1-4df9-4bde-8481-acf85ddf64a9","ios":"levelo://app?vid=6d4525a1-4df9-4bde-8481-acf85ddf64a9"},"vehicle_type_id":"4","last_reported":1728338939,"current_range_meters":8800,"station_id":"ce4bhp92rcd13ifvqhbg","pricing_plan_id":"cebpf4jnsgd1na2vs0mg"},{"bike_id":"559befd4-2954-4f80-af08-dbea1929f927","system_id":"levelo_inurba_marseille","lat":43.29212,"lon":5.39322,"is_reserved":false,"is_disabled":false,"rental_uris":{"android":"levelo://app?vid=559befd4-2954-4f80-af08-dbea1929f927","ios":"levelo://app?vid=559befd4-2954-4f80-af08-dbea1929f927"},"vehicle_type_id":"4","last_reported":1728338939,"current_range_meters":17200,"station_id":"ce4bh192rcd13ifvqdd0","pricing_plan_id":"cebpf4jnsgd1na2vs0mg"},{"bike_id":"285b25de-39a9-476e-b0a1-77f2594c2a5e","system_id":"levelo_inurba_marseille","lat":43.3093,"lon":5.40136,"is_reserved":false,"is_disabled":false,"rental_uris":{"android":"levelo://app?vid=285b25de-39a9-476e-b0a1-77f2594c2a5e","ios":"levelo://app?vid=285b25de-39a9-476e-b0a1-77f2594c2a5e"},"vehicle_type_id":"4","last_reported":1728338939,"current_range_meters":3600,"station_id":"ce4bgvp2rcd13ifvqct0","pricing_plan_id":"cebpf4jnsgd1na2vs0mg"},{"bike_id":"513184d9-4a6b-49fd-81e0-1b13bcd19fd6","system_id":"levelo_inurba_marseille","lat":43.28415,"lon":5.40032,"is_reserved":false,"is_disabled":false,"rental_uris":{"android":"levelo://app?vid=513184d9-4a6b-49fd-81e0-1b13bcd19fd6","ios":"levelo://app?vid=513184d9-4a6b-49fd-81e0-1b13bcd19fd6"},"vehicle_type_id":"4","last_reported":1728338939,"current_range_meters":25600,"station_id":"","pricing_plan_id":"cebpf4jnsgd1na2vs0mg"},{"bike_id":"f15e7e2e-a7e1-47b2-877a-c595706545c7","system_id":"levelo_inurba_marseille","lat":43.28154,"lon":5.42646,"is_reserved":false,"is_disabled":false,"rental_uris":{"android":"levelo://app?vid=f15e7e2e-a7e1-47b2-877a-c595706545c7","ios":"levelo://app?vid=f15e7e2e-a7e1-47b2-877a-c595706545c7"},"vehicle_type_id":"4","last_reported":1728338939,"current_range_meters":40000,"station_id":"ce4bhnh2rcd13ifvqgug","pricing_plan_id":"cebpf4jnsgd1na2vs0mg"},{"bike_id":"529413b5-3e58-41ef-a18c-8f3ba1b334a4","system_id":"levelo_inurba_marseille","lat":43.31753,"lon":5.39017,"is_reserved":false,"is_disabled":false,"rental_uris":{"android":"levelo://app?vid=529413b5-3e58-41ef-a18c-8f3ba1b334a4","ios":"levelo://app?vid=529413b5-3e58-41ef-a18c-8f3ba1b334a4"},"vehicle_type_id":"4","last_reported":1728338939,"current_range_meters":31200,"station_id":"ce4bhqp2rcd13ifvqhng","pricing_plan_id":"cebpf4jnsgd1na2vs0mg"},{"bike_id":"93d45870-2e1c-4ed1-9664-7b219a4ed443","system_id":"levelo_inurba_marseille","lat":43.22931,"lon":5.35382,"is_reserved":false,"is_disabled":false,"rental_uris":{"android":"levelo://app?vid=93d45870-2e1c-4ed1-9664-7b219a4ed443","ios":"levelo://app?vid=93d45870-2e1c-4ed1-9664-7b219a4ed443"},"vehicle_type_id":"4","last_reported":1728338939,"current_range_meters":35200,"station_id":"cpo3532slgdg3j2ikp40","pricing_plan_id":"cebpf4jnsgd1na2vs0mg"},{"bike_id":"d4dfa52e-76b8-410b-b129-46d068df677c","system_id":"levelo_inurba_marseille","lat":43.31529,"lon":5.3803,"is_reserved":false,"is_disabled":false,"rental_uris":{"android":"levelo://app?vid=d4dfa52e-76b8-410b-b129-46d068df677c","ios":"levelo://app?vid=d4dfa52e-76b8-410b-b129-46d068df677c"},"vehicle_type_id":"4","last_reported":1728338939,"current_range_meters":28000,"station_id":"ce4bhsp2rcd13ifvqi50","pricing_plan_id":"cebpf4jnsgd1na2vs0mg"},{"bike_id":"0e3bfff6-2bee-4be5-8568-766c0160a493","system_id":"levelo_inurba_marseille","lat":43.31721,"lon":5.43709,"is_reserved":false,"is_disabled":false,"rental_uris":{"android":"levelo://app?vid=0e3bfff6-2bee-4be5-8568-766c0160a493","ios":"levelo://app?vid=0e3bfff6-2bee-4be5-8568-766c0160a493"},"vehicle_type_id":"4","last_reported":1728338939,"current_range_meters":10000,"station_id":"ce4bhp92rcd13ifvqhcg","pricing_plan_id":"cebpf4jnsgd1na2vs0mg"},{"bike_id":"6e512044-ef12-457b-bcca-26bd86c5618a","system_id":"levelo_inurba_marseille","lat":43.23061,"lon":5.3549,"is_reserved":false,"is_disabled":false,"rental_uris":{"android":"levelo://app?vid=6e512044-ef12-457b-bcca-26bd86c5618a","ios":"levelo://app?vid=6e512044-ef12-457b-bcca-26bd86c5618a"},"vehicle_type_id":"4","last_reported":1728338939,"current_range_meters":35600,"station_id":"cpo3342slgdg3j2ifvpg","pricing_plan_id":"cebpf4jnsgd1na2vs0mg"},{"bike_id":"e8d281f6-c5b8-4d98-98b0-b7493abaa4ce","system_id":"levelo_inurba_marseille","lat":43.30894,"lon":5.39635,"is_reserved":false,"is_disabled":false,"rental_uris":{"android":"levelo://app?vid=e8d281f6-c5b8-4d98-98b0-b7493abaa4ce","ios":"levelo://app?vid=e8d281f6-c5b8-4d98-98b0-b7493abaa4ce"},"vehicle_type_id":"4","last_reported":1728338939,"current_range_meters":27600,"station_id":"ce4bh012rcd13ifvqcv0","pricing_plan_id":"cebpf4jnsgd1na2vs0mg"},{"bike_id":"baba4cb0-5224-4c87-9a3d-c3e70a3aff74","system_id":"levelo_inurba_marseille","lat":43.28429,"lon":5.37527,"is_reserved":false,"is_disabled":false,"rental_uris":{"android":"levelo://app?vid=baba4cb0-5224-4c87-9a3d-c3e70a3aff74","ios":"levelo://app?vid=baba4cb0-5224-4c87-9a3d-c3e70a3aff74"},"vehicle_type_id":"4","last_reported":1728338939,"current_range_meters":25200,"station_id":"ce4bh412rcd13ifvqds0","pricing_plan_id":"cebpf4jnsgd1na2vs0mg"},{"bike_id":"05cdd18b-31f3-485d-a57c-ec63823a912c","system_id":"levelo_inurba_marseille","lat":43.26572,"lon":5.39003,"is_reserved":false,"is_disabled":false,"rental_uris":{"android":"levelo://app?vid=05cdd18b-31f3-485d-a57c-ec63823a912c","ios":"levelo://app?vid=05cdd18b-31f3-485d-a57c-ec63823a912c"},"vehicle_type_id":"4","last_reported":1728338939,"current_range_meters":38800,"station_id":"ce4bhe12rcd13ifvqf30","pricing_plan_id":"cebpf4jnsgd1na2vs0mg"},{"bike_id":"ead3619f-60d8-4a18-87d6-5f04c41c331e","system_id":"levelo_inurba_marseille","lat":43.292917,"lon":5.3691,"is_reserved":false,"is_disabled":false,"rental_uris":{"android":"levelo://app?vid=ead3619f-60d8-4a18-87d6-5f04c41c331e","ios":"levelo://app?vid=ead3619f-60d8-4a18-87d6-5f04c41c331e"},"vehicle_type_id":"4","last_reported":1728338939,"current_range_meters":35600,"station_id":"","pricing_plan_id":"cebpf4jnsgd1na2vs0mg"},{"bike_id":"93a538e2-33d2-44e2-ac66-feb42e05dfad","system_id":"levelo_inurba_marseille","lat":43.24166,"lon":5.36399,"is_reserved":false,"is_disabled":false,"rental_uris":{"android":"levelo://app?vid=93a538e2-33d2-44e2-ac66-feb42e05dfad","ios":"levelo://app?vid=93a538e2-33d2-44e2-ac66-feb42e05dfad"},"vehicle_type_id":"4","last_reported":1728338939,"current_range_meters":27600,"station_id":"cpo36qri1sfpv3e86is0","pricing_plan_id":"cebpf4jnsgd1na2vs0mg"},{"bike_id":"1483a7e5-09c9-4fdc-83b6-d874310e7a94","system_id":"levelo_inurba_marseille","lat":43.28622,"lon":5.35096,"is_reserved":false,"is_disabled":false,"rental_uris":{"android":"levelo://app?vid=1483a7e5-09c9-4fdc-83b6-d874310e7a94","ios":"levelo://app?vid=1483a7e5-09c9-4fdc-83b6-d874310e7a94"},"vehicle_type_id":"4","last_reported":1728338939,"current_range_meters":5600,"station_id":"ce4bhch2rcd13ifvqeug","pricing_plan_id":"cebpf4jnsgd1na2vs0mg"},{"bike_id":"0459141a-cc24-4e8c-b966-1ce7a4ce76ac","system_id":"levelo_inurba_marseille","lat":43.3089,"lon":5.39649,"is_reserved":false,"is_disabled":false,"rental_uris":{"android":"levelo://app?vid=0459141a-cc24-4e8c-b966-1ce7a4ce76ac","ios":"levelo://app?vid=0459141a-cc24-4e8c-b966-1ce7a4ce76ac"},"vehicle_type_id":"4","last_reported":1728338939,"current_range_meters":20400,"station_id":"ce4bh012rcd13ifvqcv0","pricing_plan_id":"cebpf4jnsgd1na2vs0mg"},{"bike_id":"b8c34910-bedb-4fbe-8bb0-a9baebff9f55","system_id":"levelo_inurba_marseille","lat":43.30593,"lon":5.39345,"is_reserved":false,"is_disabled":false,"rental_uris":{"android":"levelo://app?vid=b8c34910-bedb-4fbe-8bb0-a9baebff9f55","ios":"levelo://app?vid=b8c34910-bedb-4fbe-8bb0-a9baebff9f55"},"vehicle_type_id":"4","last_reported":1728338939,"current_range_meters":14000,"station_id":"ce4bh0p2rcd13ifvqd80","pricing_plan_id":"cebpf4jnsgd1na2vs0mg"},{"bike_id":"dbe99237-60a3-406a-a961-ce0f26ed3702","system_id":"levelo_inurba_marseille","lat":43.27172,"lon":5.40993,"is_reserved":false,"is_disabled":false,"rental_uris":{"android":"levelo://app?vid=dbe99237-60a3-406a-a961-ce0f26ed3702","ios":"levelo://app?vid=dbe99237-60a3-406a-a961-ce0f26ed3702"},"vehicle_type_id":"4","last_reported":1728338939,"current_range_meters":24400,"station_id":"ce4bhl12rcd13ifvqgf0","pricing_plan_id":"cebpf4jnsgd1na2vs0mg"},{"bike_id":"64cb4806-2dca-46c9-8853-786b90a4cb81","system_id":"levelo_inurba_marseille","lat":43.28714,"lon":5.379351,"is_reserved":false,"is_disabled":false,"rental_uris":{"android":"levelo://app?vid=64cb4806-2dca-46c9-8853-786b90a4cb81","ios":"levelo://app?vid=64cb4806-2dca-46c9-8853-786b90a4cb81"},"vehicle_type_id":"4","last_reported":1728338939,"current_range_meters":30800,"station_id":"ce4bh9p2rcd13ifvqec0","pricing_plan_id":"cebpf4jnsgd1na2vs0mg"},{"bike_id":"2a9899af-5714-4404-b731-ffd6243bebc6","system_id":"levelo_inurba_marseille","lat":43.28425,"lon":5.34975,"is_reserved":false,"is_disabled":false,"rental_uris":{"android":"levelo://app?vid=2a9899af-5714-4404-b731-ffd6243bebc6","ios":"levelo://app?vid=2a9899af-5714-4404-b731-ffd6243bebc6"},"vehicle_type_id":"4","last_reported":1728338939,"current_range_meters":30800,"station_id":"ce4bhbh2rcd13ifvqepg","pricing_plan_id":"cebpf4jnsgd1na2vs0mg"},{"bike_id":"29966f94-93ce-4253-868a-a618db9926bb","system_id":"levelo_inurba_marseille","lat":43.25118,"lon":5.40316,"is_reserved":false,"is_disabled":false,"rental_uris":{"android":"levelo://app?vid=29966f94-93ce-4253-868a-a618db9926bb","ios":"levelo://app?vid=29966f94-93ce-4253-868a-a618db9926bb"},"vehicle_type_id":"4","last_reported":1728338939,"current_range_meters":38800,"station_id":"ce4bhlh2rcd13ifvqgig","pricing_plan_id":"cebpf4jnsgd1na2vs0mg"},{"bike_id":"6bcac0a6-2078-48bc-b66d-6c9b385c37ba","system_id":"levelo_inurba_marseille","lat":43.27428,"lon":5.39416,"is_reserved":false,"is_disabled":false,"rental_uris":{"android":"levelo://app?vid=6bcac0a6-2078-48bc-b66d-6c9b385c37ba","ios":"levelo://app?vid=6bcac0a6-2078-48bc-b66d-6c9b385c37ba"},"vehicle_type_id":"4","last_reported":1728338939,"current_range_meters":38800,"station_id":"ce4bhdp2rcd13ifvqf20","pricing_plan_id":"cebpf4jnsgd1na2vs0mg"},{"bike_id":"fcf10dee-7ff3-4f9e-bcbd-f97b3340a290","system_id":"levelo_inurba_marseille","lat":43.28712,"lon":5.39995,"is_reserved":false,"is_disabled":false,"rental_uris":{"android":"levelo://app?vid=fcf10dee-7ff3-4f9e-bcbd-f97b3340a290","ios":"levelo://app?vid=fcf10dee-7ff3-4f9e-bcbd-f97b3340a290"},"vehicle_type_id":"4","last_reported":1728338939,"current_range_meters":36800,"station_id":"ce4bho92rcd13ifvqh3g","pricing_plan_id":"cebpf4jnsgd1na2vs0mg"},{"bike_id":"f72a7e61-6a77-4ec8-baa6-83065951bb84","system_id":"levelo_inurba_marseille","lat":43.25865,"lon":5.39903,"is_reserved":false,"is_disabled":false,"rental_uris":{"android":"levelo://app?vid=f72a7e61-6a77-4ec8-baa6-83065951bb84","ios":"levelo://app?vid=f72a7e61-6a77-4ec8-baa6-83065951bb84"},"vehicle_type_id":"4","last_reported":1728338939,"current_range_meters":38800,"station_id":"ce4bhl92rcd13ifvqghg","pricing_plan_id":"cebpf4jnsgd1na2vs0mg"},{"bike_id":"5860f3b2-f051-4a4c-8c56-9c5e6381f8e9","system_id":"levelo_inurba_marseille","lat":43.2846,"lon":5.35885,"is_reserved":false,"is_disabled":false,"rental_uris":{"android":"levelo://app?vid=5860f3b2-f051-4a4c-8c56-9c5e6381f8e9","ios":"levelo://app?vid=5860f3b2-f051-4a4c-8c56-9c5e6381f8e9"},"vehicle_type_id":"4","last_reported":1728338939,"current_range_meters":6800,"station_id":"ce4bhah2rcd13ifvqei0","pricing_plan_id":"cebpf4jnsgd1na2vs0mg"},{"bike_id":"d8423ceb-ab39-4641-959d-007170ecd69d","system_id":"levelo_inurba_marseille","lat":43.29628,"lon":5.406,"is_reserved":false,"is_disabled":false,"rental_uris":{"android":"levelo://app?vid=d8423ceb-ab39-4641-959d-007170ecd69d","ios":"levelo://app?vid=d8423ceb-ab39-4641-959d-007170ecd69d"},"vehicle_type_id":"4","last_reported":1728338939,"current_range_meters":20800,"station_id":"ce4bh0h2rcd13ifvqd60","pricing_plan_id":"cebpf4jnsgd1na2vs0mg"},{"bike_id":"72f40ed7-a504-4daf-b024-071eeacd5158","system_id":"levelo_inurba_marseille","lat":43.274213,"lon":5.361983,"is_reserved":false,"is_disabled":false,"rental_uris":{"android":"levelo://app?vid=72f40ed7-a504-4daf-b024-071eeacd5158","ios":"levelo://app?vid=72f40ed7-a504-4daf-b024-071eeacd5158"},"vehicle_type_id":"4","last_reported":1728338939,"current_range_meters":38000,"station_id":"ce4bhbh2rcd13ifvqeo0","pricing_plan_id":"cebpf4jnsgd1na2vs0mg"},{"bike_id":"17dbb085-5164-41ed-87e1-785561e83a63","system_id":"levelo_inurba_marseille","lat":43.306459,"lon":5.400989,"is_reserved":false,"is_disabled":false,"rental_uris":{"android":"levelo://app?vid=17dbb085-5164-41ed-87e1-785561e83a63","ios":"levelo://app?vid=17dbb085-5164-41ed-87e1-785561e83a63"},"vehicle_type_id":"4","last_reported":1728338939,"current_range_meters":36400,"station_id":"ce4bh112rcd13ifvqda0","pricing_plan_id":"cebpf4jnsgd1na2vs0mg"},{"bike_id":"f1988fd3-c19f-4737-89f0-61132baf5697","system_id":"levelo_inurba_marseille","lat":43.31333,"lon":5.39687,"is_reserved":false,"is_disabled":false,"rental_uris":{"android":"levelo://app?vid=f1988fd3-c19f-4737-89f0-61132baf5697","ios":"levelo://app?vid=f1988fd3-c19f-4737-89f0-61132baf5697"},"vehicle_type_id":"4","last_reported":1728338939,"current_range_meters":13600,"station_id":"ce4bgvp2rcd13ifvqcu0","pricing_plan_id":"cebpf4jnsgd1na2vs0mg"},{"bike_id":"7ad06205-868a-4802-a1e3-0dc7e4c673d2","system_id":"levelo_inurba_marseille","lat":43.32478,"lon":5.36568,"is_reserved":false,"is_disabled":false,"rental_uris":{"android":"levelo://app?vid=7ad06205-868a-4802-a1e3-0dc7e4c673d2","ios":"levelo://app?vid=7ad06205-868a-4802-a1e3-0dc7e4c673d2"},"vehicle_type_id":"4","last_reported":1728338939,"current_range_meters":33600,"station_id":"ce4bhs12rcd13ifvqhvg","pricing_plan_id":"cebpf4jnsgd1na2vs0mg"},{"bike_id":"08b86dd2-eb8a-47fa-a598-4218310a9dcc","system_id":"levelo_inurba_marseille","lat":43.28271,"lon":5.35063,"is_reserved":false,"is_disabled":false,"rental_uris":{"android":"levelo://app?vid=08b86dd2-eb8a-47fa-a598-4218310a9dcc","ios":"levelo://app?vid=08b86dd2-eb8a-47fa-a598-4218310a9dcc"},"vehicle_type_id":"4","last_reported":1728338939,"current_range_meters":27600,"station_id":"ce4bhbp2rcd13ifvqerg","pricing_plan_id":"cebpf4jnsgd1na2vs0mg"},{"bike_id":"ab0ef8f6-2d64-477f-ab35-7e54daa51f0f","system_id":"levelo_inurba_marseille","lat":43.31712,"lon":5.4371,"is_reserved":false,"is_disabled":false,"rental_uris":{"android":"levelo://app?vid=ab0ef8f6-2d64-477f-ab35-7e54daa51f0f","ios":"levelo://app?vid=ab0ef8f6-2d64-477f-ab35-7e54daa51f0f"},"vehicle_type_id":"4","last_reported":1728338939,"current_range_meters":24400,"station_id":"ce4bhp92rcd13ifvqhcg","pricing_plan_id":"cebpf4jnsgd1na2vs0mg"},{"bike_id":"c45340a7-5257-408a-897a-01994bd38219","system_id":"levelo_inurba_marseille","lat":43.28454,"lon":5.35893,"is_reserved":false,"is_disabled":false,"rental_uris":{"android":"levelo://app?vid=c45340a7-5257-408a-897a-01994bd38219","ios":"levelo://app?vid=c45340a7-5257-408a-897a-01994bd38219"},"vehicle_type_id":"4","last_reported":1728338939,"current_range_meters":4000,"station_id":"ce4bhah2rcd13ifvqei0","pricing_plan_id":"cebpf4jnsgd1na2vs0mg"},{"bike_id":"22e357fa-c099-46f6-b123-0f532103db8c","system_id":"levelo_inurba_marseille","lat":43.31336,"lon":5.39702,"is_reserved":false,"is_disabled":false,"rental_uris":{"android":"levelo://app?vid=22e357fa-c099-46f6-b123-0f532103db8c","ios":"levelo://app?vid=22e357fa-c099-46f6-b123-0f532103db8c"},"vehicle_type_id":"4","last_reported":1728338939,"current_range_meters":19600,"station_id":"ce4bgvp2rcd13ifvqcu0","pricing_plan_id":"cebpf4jnsgd1na2vs0mg"},{"bike_id":"f7612392-4f4b-453b-a64c-499de3c2600f","system_id":"levelo_inurba_marseille","lat":43.24168,"lon":5.36396,"is_reserved":false,"is_disabled":false,"rental_uris":{"android":"levelo://app?vid=f7612392-4f4b-453b-a64c-499de3c2600f","ios":"levelo://app?vid=f7612392-4f4b-453b-a64c-499de3c2600f"},"vehicle_type_id":"4","last_reported":1728338939,"current_range_meters":34800,"station_id":"cpo36qri1sfpv3e86is0","pricing_plan_id":"cebpf4jnsgd1na2vs0mg"},{"bike_id":"b9f7e217-2396-4f17-99e6-316574934f3f","system_id":"levelo_inurba_marseille","lat":43.28455,"lon":5.35885,"is_reserved":false,"is_disabled":false,"rental_uris":{"android":"levelo://app?vid=b9f7e217-2396-4f17-99e6-316574934f3f","ios":"levelo://app?vid=b9f7e217-2396-4f17-99e6-316574934f3f"},"vehicle_type_id":"4","last_reported":1728338939,"current_range_meters":40000,"station_id":"ce4bhah2rcd13ifvqei0","pricing_plan_id":"cebpf4jnsgd1na2vs0mg"},{"bike_id":"a0a650e6-c87c-4eea-a629-fe9b6c5d380b","system_id":"levelo_inurba_marseille","lat":43.25583,"lon":5.38229,"is_reserved":false,"is_disabled":false,"rental_uris":{"android":"levelo://app?vid=a0a650e6-c87c-4eea-a629-fe9b6c5d380b","ios":"levelo://app?vid=a0a650e6-c87c-4eea-a629-fe9b6c5d380b"},"vehicle_type_id":"4","last_reported":1728338939,"current_range_meters":38800,"station_id":"ce4bhih2rcd13ifvqfs0","pricing_plan_id":"cebpf4jnsgd1na2vs0mg"},{"bike_id":"9a873b21-4325-4346-9f74-80b6d80ab720","system_id":"levelo_inurba_marseille","lat":43.26948,"lon":5.38632,"is_reserved":false,"is_disabled":false,"rental_uris":{"android":"levelo://app?vid=9a873b21-4325-4346-9f74-80b6d80ab720","ios":"levelo://app?vid=9a873b21-4325-4346-9f74-80b6d80ab720"},"vehicle_type_id":"4","last_reported":1728338939,"current_range_meters":20400,"station_id":"ce4bhh92rcd13ifvqfh0","pricing_plan_id":"cebpf4jnsgd1na2vs0mg"},{"bike_id":"e7244c4d-5cb8-439c-ad7b-ed13b630c5ff","system_id":"levelo_inurba_marseille","lat":43.32285,"lon":5.38257,"is_reserved":false,"is_disabled":false,"rental_uris":{"android":"levelo://app?vid=e7244c4d-5cb8-439c-ad7b-ed13b630c5ff","ios":"levelo://app?vid=e7244c4d-5cb8-439c-ad7b-ed13b630c5ff"},"vehicle_type_id":"4","last_reported":1728338939,"current_range_meters":37600,"station_id":"ce4bhr12rcd13ifvqhqg","pricing_plan_id":"cebpf4jnsgd1na2vs0mg"},{"bike_id":"c1eabd8c-fe5d-45fc-a2f1-735f8b49b934","system_id":"levelo_inurba_marseille","lat":43.30928,"lon":5.40133,"is_reserved":false,"is_disabled":false,"rental_uris":{"android":"levelo://app?vid=c1eabd8c-fe5d-45fc-a2f1-735f8b49b934","ios":"levelo://app?vid=c1eabd8c-fe5d-45fc-a2f1-735f8b49b934"},"vehicle_type_id":"4","last_reported":1728338939,"current_range_meters":33600,"station_id":"ce4bgvp2rcd13ifvqct0","pricing_plan_id":"cebpf4jnsgd1na2vs0mg"},{"bike_id":"62ffd9a6-6954-4d30-82e9-c6d501fe541b","system_id":"levelo_inurba_marseille","lat":43.31332,"lon":5.397,"is_reserved":false,"is_disabled":false,"rental_uris":{"android":"levelo://app?vid=62ffd9a6-6954-4d30-82e9-c6d501fe541b","ios":"levelo://app?vid=62ffd9a6-6954-4d30-82e9-c6d501fe541b"},"vehicle_type_id":"4","last_reported":1728338939,"current_range_meters":9600,"station_id":"ce4bgvp2rcd13ifvqcu0","pricing_plan_id":"cebpf4jnsgd1na2vs0mg"},{"bike_id":"e592fa8f-aa5a-46f1-b2f4-aa0aa5f30808","system_id":"levelo_inurba_marseille","lat":43.24661,"lon":5.38156,"is_reserved":false,"is_disabled":false,"rental_uris":{"android":"levelo://app?vid=e592fa8f-aa5a-46f1-b2f4-aa0aa5f30808","ios":"levelo://app?vid=e592fa8f-aa5a-46f1-b2f4-aa0aa5f30808"},"vehicle_type_id":"4","last_reported":1728338939,"current_range_meters":17600,"station_id":"ce4bhih2rcd13ifvqfr0","pricing_plan_id":"cebpf4jnsgd1na2vs0mg"},{"bike_id":"b36e8b1f-bc79-47f3-b875-c65c4943f06f","system_id":"levelo_inurba_marseille","lat":43.25817,"lon":5.39425,"is_reserved":false,"is_disabled":false,"rental_uris":{"android":"levelo://app?vid=b36e8b1f-bc79-47f3-b875-c65c4943f06f","ios":"levelo://app?vid=b36e8b1f-bc79-47f3-b875-c65c4943f06f"},"vehicle_type_id":"4","last_reported":1728338939,"current_range_meters":38800,"station_id":"ce4bhip2rcd13ifvqft0","pricing_plan_id":"cebpf4jnsgd1na2vs0mg"},{"bike_id":"5005bbdf-c11c-46c5-8e2f-61b3caedfbd1","system_id":"levelo_inurba_marseille","lat":43.27818,"lon":5.40712,"is_reserved":false,"is_disabled":false,"rental_uris":{"android":"levelo://app?vid=5005bbdf-c11c-46c5-8e2f-61b3caedfbd1","ios":"levelo://app?vid=5005bbdf-c11c-46c5-8e2f-61b3caedfbd1"},"vehicle_type_id":"4","last_reported":1728338939,"current_range_meters":39200,"station_id":"ce4bhnh2rcd13ifvqgtg","pricing_plan_id":"cebpf4jnsgd1na2vs0mg"},{"bike_id":"56db9344-a034-485c-ae82-57c3e91166bb","system_id":"levelo_inurba_marseille","lat":43.27059,"lon":5.40267,"is_reserved":false,"is_disabled":false,"rental_uris":{"android":"levelo://app?vid=56db9344-a034-485c-ae82-57c3e91166bb","ios":"levelo://app?vid=56db9344-a034-485c-ae82-57c3e91166bb"},"vehicle_type_id":"4","last_reported":1728338939,"current_range_meters":38800,"station_id":"ce4bhk92rcd13ifvqgc0","pricing_plan_id":"cebpf4jnsgd1na2vs0mg"},{"bike_id":"e1c9d18b-2a8a-45d7-a26f-341b63761362","system_id":"levelo_inurba_marseille","lat":43.34303,"lon":5.40869,"is_reserved":false,"is_disabled":false,"rental_uris":{"android":"levelo://app?vid=e1c9d18b-2a8a-45d7-a26f-341b63761362","ios":"levelo://app?vid=e1c9d18b-2a8a-45d7-a26f-341b63761362"},"vehicle_type_id":"4","last_reported":1728338939,"current_range_meters":6800,"station_id":"","pricing_plan_id":"cebpf4jnsgd1na2vs0mg"},{"bike_id":"c5c92b30-a4fd-4638-95c2-adacabee43d1","system_id":"levelo_inurba_marseille","lat":43.25581,"lon":5.38219,"is_reserved":false,"is_disabled":false,"rental_uris":{"android":"levelo://app?vid=c5c92b30-a4fd-4638-95c2-adacabee43d1","ios":"levelo://app?vid=c5c92b30-a4fd-4638-95c2-adacabee43d1"},"vehicle_type_id":"4","last_reported":1728338939,"current_range_meters":18800,"station_id":"ce4bhih2rcd13ifvqfs0","pricing_plan_id":"cebpf4jnsgd1na2vs0mg"},{"bike_id":"908a6a8f-fe51-456d-8950-79ae85ea5537","system_id":"levelo_inurba_marseille","lat":43.25119,"lon":5.40318,"is_reserved":false,"is_disabled":false,"rental_uris":{"android":"levelo://app?vid=908a6a8f-fe51-456d-8950-79ae85ea5537","ios":"levelo://app?vid=908a6a8f-fe51-456d-8950-79ae85ea5537"},"vehicle_type_id":"4","last_reported":1728338939,"current_range_meters":27600,"station_id":"ce4bhlh2rcd13ifvqgig","pricing_plan_id":"cebpf4jnsgd1na2vs0mg"},{"bike_id":"d0c27835-2cc9-45f7-b009-ddcb789e0339","system_id":"levelo_inurba_marseille","lat":43.306,"lon":5.37228,"is_reserved":false,"is_disabled":false,"rental_uris":{"android":"levelo://app?vid=d0c27835-2cc9-45f7-b009-ddcb789e0339","ios":"levelo://app?vid=d0c27835-2cc9-45f7-b009-ddcb789e0339"},"vehicle_type_id":"4","last_reported":1728338939,"current_range_meters":14400,"station_id":"ce4bgqh2rcd13ifvqc4g","pricing_plan_id":"cebpf4jnsgd1na2vs0mg"},{"bike_id":"c99142a8-9bc4-4fda-b727-c3f121942b33","system_id":"levelo_inurba_marseille","lat":43.29807,"lon":5.40404,"is_reserved":false,"is_disabled":false,"rental_uris":{"android":"levelo://app?vid=c99142a8-9bc4-4fda-b727-c3f121942b33","ios":"levelo://app?vid=c99142a8-9bc4-4fda-b727-c3f121942b33"},"vehicle_type_id":"4","last_reported":1728338939,"current_range_meters":24800,"station_id":"ce4bh112rcd13ifvqd90","pricing_plan_id":"cebpf4jnsgd1na2vs0mg"},{"bike_id":"12cfbe49-322e-4e6e-8e64-3f34de285b4f","system_id":"levelo_inurba_marseille","lat":43.31343,"lon":5.39693,"is_reserved":false,"is_disabled":false,"rental_uris":{"android":"levelo://app?vid=12cfbe49-322e-4e6e-8e64-3f34de285b4f","ios":"levelo://app?vid=12cfbe49-322e-4e6e-8e64-3f34de285b4f"},"vehicle_type_id":"4","last_reported":1728338939,"current_range_meters":38000,"station_id":"ce4bgvp2rcd13ifvqcu0","pricing_plan_id":"cebpf4jnsgd1na2vs0mg"},{"bike_id":"20d1726b-8240-4411-9d91-ee6a94082428","system_id":"levelo_inurba_marseille","lat":43.23962,"lon":5.36631,"is_reserved":false,"is_disabled":false,"rental_uris":{"android":"levelo://app?vid=20d1726b-8240-4411-9d91-ee6a94082428","ios":"levelo://app?vid=20d1726b-8240-4411-9d91-ee6a94082428"},"vehicle_type_id":"4","last_reported":1728338939,"current_range_meters":14800,"station_id":"ce4bhi12rcd13ifvqfp0","pricing_plan_id":"cebpf4jnsgd1na2vs0mg"},{"bike_id":"f89ffac7-188e-4d3b-94e4-106f4f8956d0","system_id":"levelo_inurba_marseille","lat":43.30415,"lon":5.38889,"is_reserved":false,"is_disabled":false,"rental_uris":{"android":"levelo://app?vid=f89ffac7-188e-4d3b-94e4-106f4f8956d0","ios":"levelo://app?vid=f89ffac7-188e-4d3b-94e4-106f4f8956d0"},"vehicle_type_id":"4","last_reported":1728338939,"current_range_meters":38800,"station_id":"ce4bgk12rcd13ifvqbi0","pricing_plan_id":"cebpf4jnsgd1na2vs0mg"},{"bike_id":"2e6ceb57-f2d6-46b3-bdc7-30a7314840db","system_id":"levelo_inurba_marseille","lat":43.279497,"lon":5.410457,"is_reserved":false,"is_disabled":false,"rental_uris":{"android":"levelo://app?vid=2e6ceb57-f2d6-46b3-bdc7-30a7314840db","ios":"levelo://app?vid=2e6ceb57-f2d6-46b3-bdc7-30a7314840db"},"vehicle_type_id":"4","last_reported":1728338939,"current_range_meters":24800,"station_id":"ce4bhnp2rcd13ifvqh0g","pricing_plan_id":"cebpf4jnsgd1na2vs0mg"},{"bike_id":"550b9f1b-76f2-4979-a430-35bd0d1101bd","system_id":"levelo_inurba_marseille","lat":43.32365,"lon":5.38883,"is_reserved":false,"is_disabled":false,"rental_uris":{"android":"levelo://app?vid=550b9f1b-76f2-4979-a430-35bd0d1101bd","ios":"levelo://app?vid=550b9f1b-76f2-4979-a430-35bd0d1101bd"},"vehicle_type_id":"4","last_reported":1728338939,"current_range_meters":38800,"station_id":"ce4bhqp2rcd13ifvqhog","pricing_plan_id":"cebpf4jnsgd1na2vs0mg"},{"bike_id":"e6c13b0d-61b0-4cd5-b927-f4673881a7ed","system_id":"levelo_inurba_marseille","lat":43.28275,"lon":5.35075,"is_reserved":false,"is_disabled":false,"rental_uris":{"android":"levelo://app?vid=e6c13b0d-61b0-4cd5-b927-f4673881a7ed","ios":"levelo://app?vid=e6c13b0d-61b0-4cd5-b927-f4673881a7ed"},"vehicle_type_id":"4","last_reported":1728338939,"current_range_meters":9600,"station_id":"ce4bhbp2rcd13ifvqerg","pricing_plan_id":"cebpf4jnsgd1na2vs0mg"},{"bike_id":"542404d0-7ad8-4d88-9837-14b7ea9cdc5a","system_id":"levelo_inurba_marseille","lat":43.31715,"lon":5.43703,"is_reserved":false,"is_disabled":false,"rental_uris":{"android":"levelo://app?vid=542404d0-7ad8-4d88-9837-14b7ea9cdc5a","ios":"levelo://app?vid=542404d0-7ad8-4d88-9837-14b7ea9cdc5a"},"vehicle_type_id":"4","last_reported":1728338939,"current_range_meters":38800,"station_id":"ce4bhp92rcd13ifvqhcg","pricing_plan_id":"cebpf4jnsgd1na2vs0mg"},{"bike_id":"0d5796fb-87ef-472d-940f-653fb21948cf","system_id":"levelo_inurba_marseille","lat":43.2955,"lon":5.42278,"is_reserved":false,"is_disabled":false,"rental_uris":{"android":"levelo://app?vid=0d5796fb-87ef-472d-940f-653fb21948cf","ios":"levelo://app?vid=0d5796fb-87ef-472d-940f-653fb21948cf"},"vehicle_type_id":"4","last_reported":1728338939,"current_range_meters":38800,"station_id":"ce4bhph2rcd13ifvqhdg","pricing_plan_id":"cebpf4jnsgd1na2vs0mg"},{"bike_id":"a774f550-3ce3-43eb-9d80-b5fdc228d567","system_id":"levelo_inurba_marseille","lat":43.31078,"lon":5.38351,"is_reserved":false,"is_disabled":false,"rental_uris":{"android":"levelo://app?vid=a774f550-3ce3-43eb-9d80-b5fdc228d567","ios":"levelo://app?vid=a774f550-3ce3-43eb-9d80-b5fdc228d567"},"vehicle_type_id":"4","last_reported":1728338939,"current_range_meters":38800,"station_id":"ce4bgv92rcd13ifvqcr0","pricing_plan_id":"cebpf4jnsgd1na2vs0mg"},{"bike_id":"6731d1b1-b391-47f7-84a2-e5222ded00d2","system_id":"levelo_inurba_marseille","lat":43.33023,"lon":5.39043,"is_reserved":false,"is_disabled":false,"rental_uris":{"android":"levelo://app?vid=6731d1b1-b391-47f7-84a2-e5222ded00d2","ios":"levelo://app?vid=6731d1b1-b391-47f7-84a2-e5222ded00d2"},"vehicle_type_id":"4","last_reported":1728338939,"current_range_meters":28000,"station_id":"ce4bhr92rcd13ifvqhrg","pricing_plan_id":"cebpf4jnsgd1na2vs0mg"},{"bike_id":"dcd9b145-ef49-4714-9fdf-d1cd0124bfe4","system_id":"levelo_inurba_marseille","lat":43.30421,"lon":5.39747,"is_reserved":false,"is_disabled":false,"rental_uris":{"android":"levelo://app?vid=dcd9b145-ef49-4714-9fdf-d1cd0124bfe4","ios":"levelo://app?vid=dcd9b145-ef49-4714-9fdf-d1cd0124bfe4"},"vehicle_type_id":"4","last_reported":1728338939,"current_range_meters":32800,"station_id":"ce4bh092rcd13ifvqd20","pricing_plan_id":"cebpf4jnsgd1na2vs0mg"},{"bike_id":"54a538c6-ff8c-4fa6-a908-43972cc779a7","system_id":"levelo_inurba_marseille","lat":43.26205,"lon":5.37929,"is_reserved":false,"is_disabled":false,"rental_uris":{"android":"levelo://app?vid=54a538c6-ff8c-4fa6-a908-43972cc779a7","ios":"levelo://app?vid=54a538c6-ff8c-4fa6-a908-43972cc779a7"},"vehicle_type_id":"4","last_reported":1728338939,"current_range_meters":7200,"station_id":"ce4bhjp2rcd13ifvqg90","pricing_plan_id":"cebpf4jnsgd1na2vs0mg"},{"bike_id":"d2ab88d2-c26b-4ca1-9b2d-11e524a27e4d","system_id":"levelo_inurba_marseille","lat":43.28716,"lon":5.37397,"is_reserved":false,"is_disabled":false,"rental_uris":{"android":"levelo://app?vid=d2ab88d2-c26b-4ca1-9b2d-11e524a27e4d","ios":"levelo://app?vid=d2ab88d2-c26b-4ca1-9b2d-11e524a27e4d"},"vehicle_type_id":"4","last_reported":1728338939,"current_range_meters":39200,"station_id":"ce4bh3p2rcd13ifvqdq0","pricing_plan_id":"cebpf4jnsgd1na2vs0mg"},{"bike_id":"28dd64c1-74cd-4a60-b7b8-3e1344481c8e","system_id":"levelo_inurba_marseille","lat":43.28086,"lon":5.3965,"is_reserved":false,"is_disabled":false,"rental_uris":{"android":"levelo://app?vid=28dd64c1-74cd-4a60-b7b8-3e1344481c8e","ios":"levelo://app?vid=28dd64c1-74cd-4a60-b7b8-3e1344481c8e"},"vehicle_type_id":"4","last_reported":1728338939,"current_range_meters":10000,"station_id":"ce4bho12rcd13ifvqh2g","pricing_plan_id":"cebpf4jnsgd1na2vs0mg"},{"bike_id":"2d543eca-c8bf-427c-a3fa-e17e301f5c9b","system_id":"levelo_inurba_marseille","lat":43.26082,"lon":5.40313,"is_reserved":false,"is_disabled":false,"rental_uris":{"android":"levelo://app?vid=2d543eca-c8bf-427c-a3fa-e17e301f5c9b","ios":"levelo://app?vid=2d543eca-c8bf-427c-a3fa-e17e301f5c9b"},"vehicle_type_id":"4","last_reported":1728338939,"current_range_meters":5600,"station_id":"","pricing_plan_id":"cebpf4jnsgd1na2vs0mg"},{"bike_id":"9a81026c-2e29-49a6-9df9-c06033bddde4","system_id":"levelo_inurba_marseille","lat":43.24999,"lon":5.38921,"is_reserved":false,"is_disabled":false,"rental_uris":{"android":"levelo://app?vid=9a81026c-2e29-49a6-9df9-c06033bddde4","ios":"levelo://app?vid=9a81026c-2e29-49a6-9df9-c06033bddde4"},"vehicle_type_id":"4","last_reported":1728338939,"current_range_meters":38800,"station_id":"ce4bhgp2rcd13ifvqfd0","pricing_plan_id":"cebpf4jnsgd1na2vs0mg"},{"bike_id":"89bbdcb0-0d4b-45a3-ae3e-b367660213be","system_id":"levelo_inurba_marseille","lat":43.29554,"lon":5.42295,"is_reserved":false,"is_disabled":false,"rental_uris":{"android":"levelo://app?vid=89bbdcb0-0d4b-45a3-ae3e-b367660213be","ios":"levelo://app?vid=89bbdcb0-0d4b-45a3-ae3e-b367660213be"},"vehicle_type_id":"4","last_reported":1728338939,"current_range_meters":38400,"station_id":"ce4bhph2rcd13ifvqhdg","pricing_plan_id":"cebpf4jnsgd1na2vs0mg"},{"bike_id":"8d48be17-6047-463c-875a-65a99fa31c5e","system_id":"levelo_inurba_marseille","lat":43.3047,"lon":5.37897,"is_reserved":false,"is_disabled":false,"rental_uris":{"android":"levelo://app?vid=8d48be17-6047-463c-875a-65a99fa31c5e","ios":"levelo://app?vid=8d48be17-6047-463c-875a-65a99fa31c5e"},"vehicle_type_id":"4","last_reported":1728338939,"current_range_meters":4400,"station_id":"ce4bgup2rcd13ifvqcn0","pricing_plan_id":"cebpf4jnsgd1na2vs0mg"},{"bike_id":"c1975eeb-029e-4d79-92b5-3c802b1901e0","system_id":"levelo_inurba_marseille","lat":43.28462,"lon":5.35881,"is_reserved":false,"is_disabled":false,"rental_uris":{"android":"levelo://app?vid=c1975eeb-029e-4d79-92b5-3c802b1901e0","ios":"levelo://app?vid=c1975eeb-029e-4d79-92b5-3c802b1901e0"},"vehicle_type_id":"4","last_reported":1728338939,"current_range_meters":33200,"station_id":"ce4bhah2rcd13ifvqei0","pricing_plan_id":"cebpf4jnsgd1na2vs0mg"},{"bike_id":"1e988290-55c9-424f-98ec-3e019277f83d","system_id":"levelo_inurba_marseille","lat":43.26062,"lon":5.394,"is_reserved":false,"is_disabled":false,"rental_uris":{"android":"levelo://app?vid=1e988290-55c9-424f-98ec-3e019277f83d","ios":"levelo://app?vid=1e988290-55c9-424f-98ec-3e019277f83d"},"vehicle_type_id":"4","last_reported":1728338939,"current_range_meters":38800,"station_id":"ce4bhh92rcd13ifvqfj0","pricing_plan_id":"cebpf4jnsgd1na2vs0mg"},{"bike_id":"f1510c6a-ec9a-4cb6-ba53-8ced3616703a","system_id":"levelo_inurba_marseille","lat":43.322941,"lon":5.367655,"is_reserved":false,"is_disabled":false,"rental_uris":{"android":"levelo://app?vid=f1510c6a-ec9a-4cb6-ba53-8ced3616703a","ios":"levelo://app?vid=f1510c6a-ec9a-4cb6-ba53-8ced3616703a"},"vehicle_type_id":"4","last_reported":1728338939,"current_range_meters":38800,"station_id":"ce4bhs12rcd13ifvqhvg","pricing_plan_id":"cebpf4jnsgd1na2vs0mg"},{"bike_id":"dc67eb8e-efc8-4251-a6f2-8b76ca5a1908","system_id":"levelo_inurba_marseille","lat":43.320492,"lon":5.415795,"is_reserved":false,"is_disabled":false,"rental_uris":{"android":"levelo://app?vid=dc67eb8e-efc8-4251-a6f2-8b76ca5a1908","ios":"levelo://app?vid=dc67eb8e-efc8-4251-a6f2-8b76ca5a1908"},"vehicle_type_id":"4","last_reported":1728338939,"current_range_meters":22800,"station_id":"ce4bhq92rcd13ifvqhkg","pricing_plan_id":"cebpf4jnsgd1na2vs0mg"},{"bike_id":"09ef71aa-0817-4eb5-83ac-bde0ebd31387","system_id":"levelo_inurba_marseille","lat":43.32371,"lon":5.38888,"is_reserved":false,"is_disabled":false,"rental_uris":{"android":"levelo://app?vid=09ef71aa-0817-4eb5-83ac-bde0ebd31387","ios":"levelo://app?vid=09ef71aa-0817-4eb5-83ac-bde0ebd31387"},"vehicle_type_id":"4","last_reported":1728338939,"current_range_meters":38800,"station_id":"ce4bhqp2rcd13ifvqhog","pricing_plan_id":"cebpf4jnsgd1na2vs0mg"},{"bike_id":"6e14ac97-d5ce-4f91-b9ed-3d3c9175f77d","system_id":"levelo_inurba_marseille","lat":43.30663,"lon":5.40095,"is_reserved":false,"is_disabled":false,"rental_uris":{"android":"levelo://app?vid=6e14ac97-d5ce-4f91-b9ed-3d3c9175f77d","ios":"levelo://app?vid=6e14ac97-d5ce-4f91-b9ed-3d3c9175f77d"},"vehicle_type_id":"4","last_reported":1728338939,"current_range_meters":32000,"station_id":"ce4bh112rcd13ifvqda0","pricing_plan_id":"cebpf4jnsgd1na2vs0mg"},{"bike_id":"6826c930-8aa2-4db5-96a6-4b67fd5214fe","system_id":"levelo_inurba_marseille","lat":43.28276,"lon":5.35062,"is_reserved":false,"is_disabled":false,"rental_uris":{"android":"levelo://app?vid=6826c930-8aa2-4db5-96a6-4b67fd5214fe","ios":"levelo://app?vid=6826c930-8aa2-4db5-96a6-4b67fd5214fe"},"vehicle_type_id":"4","last_reported":1728338939,"current_range_meters":8800,"station_id":"ce4bhbp2rcd13ifvqerg","pricing_plan_id":"cebpf4jnsgd1na2vs0mg"},{"bike_id":"c7c933ea-453c-4444-a304-2fa069327739","system_id":"levelo_inurba_marseille","lat":43.23066,"lon":5.3549,"is_reserved":false,"is_disabled":false,"rental_uris":{"android":"levelo://app?vid=c7c933ea-453c-4444-a304-2fa069327739","ios":"levelo://app?vid=c7c933ea-453c-4444-a304-2fa069327739"},"vehicle_type_id":"4","last_reported":1728338939,"current_range_meters":9600,"station_id":"cpo3342slgdg3j2ifvpg","pricing_plan_id":"cebpf4jnsgd1na2vs0mg"},{"bike_id":"a6d70310-27ce-49a4-a3c6-5ed786684119","system_id":"levelo_inurba_marseille","lat":43.28463,"lon":5.35877,"is_reserved":false,"is_disabled":false,"rental_uris":{"android":"levelo://app?vid=a6d70310-27ce-49a4-a3c6-5ed786684119","ios":"levelo://app?vid=a6d70310-27ce-49a4-a3c6-5ed786684119"},"vehicle_type_id":"4","last_reported":1728338939,"current_range_meters":35200,"station_id":"ce4bhah2rcd13ifvqei0","pricing_plan_id":"cebpf4jnsgd1na2vs0mg"},{"bike_id":"352f7cd1-9557-4fd7-8b1d-bd3186fdb5cc","system_id":"levelo_inurba_marseille","lat":43.28461,"lon":5.35892,"is_reserved":false,"is_disabled":false,"rental_uris":{"android":"levelo://app?vid=352f7cd1-9557-4fd7-8b1d-bd3186fdb5cc","ios":"levelo://app?vid=352f7cd1-9557-4fd7-8b1d-bd3186fdb5cc"},"vehicle_type_id":"4","last_reported":1728338939,"current_range_meters":17600,"station_id":"ce4bhah2rcd13ifvqei0","pricing_plan_id":"cebpf4jnsgd1na2vs0mg"},{"bike_id":"589f1824-3363-4ff3-be43-92e81d3f7ccb","system_id":"levelo_inurba_marseille","lat":43.28277,"lon":5.35075,"is_reserved":false,"is_disabled":false,"rental_uris":{"android":"levelo://app?vid=589f1824-3363-4ff3-be43-92e81d3f7ccb","ios":"levelo://app?vid=589f1824-3363-4ff3-be43-92e81d3f7ccb"},"vehicle_type_id":"4","last_reported":1728338939,"current_range_meters":27600,"station_id":"ce4bhbp2rcd13ifvqerg","pricing_plan_id":"cebpf4jnsgd1na2vs0mg"},{"bike_id":"1e89ff62-86ea-4d9b-83e6-20ce97cfea76","system_id":"levelo_inurba_marseille","lat":43.28456,"lon":5.35878,"is_reserved":false,"is_disabled":false,"rental_uris":{"android":"levelo://app?vid=1e89ff62-86ea-4d9b-83e6-20ce97cfea76","ios":"levelo://app?vid=1e89ff62-86ea-4d9b-83e6-20ce97cfea76"},"vehicle_type_id":"4","last_reported":1728338939,"current_range_meters":40000,"station_id":"ce4bhah2rcd13ifvqei0","pricing_plan_id":"cebpf4jnsgd1na2vs0mg"},{"bike_id":"eac0ea91-2230-46a9-bf6c-0a918e577cec","system_id":"levelo_inurba_marseille","lat":43.2467,"lon":5.38167,"is_reserved":false,"is_disabled":false,"rental_uris":{"android":"levelo://app?vid=eac0ea91-2230-46a9-bf6c-0a918e577cec","ios":"levelo://app?vid=eac0ea91-2230-46a9-bf6c-0a918e577cec"},"vehicle_type_id":"4","last_reported":1728338939,"current_range_meters":12000,"station_id":"ce4bhih2rcd13ifvqfr0","pricing_plan_id":"cebpf4jnsgd1na2vs0mg"},{"bike_id":"282fd314-a587-400e-9604-92e306a21a11","system_id":"levelo_inurba_marseille","lat":43.27571,"lon":5.38406,"is_reserved":false,"is_disabled":false,"rental_uris":{"android":"levelo://app?vid=282fd314-a587-400e-9604-92e306a21a11","ios":"levelo://app?vid=282fd314-a587-400e-9604-92e306a21a11"},"vehicle_type_id":"4","last_reported":1728338939,"current_range_meters":38800,"station_id":"ce4bhh92rcd13ifvqfi0","pricing_plan_id":"cebpf4jnsgd1na2vs0mg"},{"bike_id":"7a284141-427f-4b3a-b279-a9138bc649ca","system_id":"levelo_inurba_marseille","lat":43.33023,"lon":5.39045,"is_reserved":false,"is_disabled":false,"rental_uris":{"android":"levelo://app?vid=7a284141-427f-4b3a-b279-a9138bc649ca","ios":"levelo://app?vid=7a284141-427f-4b3a-b279-a9138bc649ca"},"vehicle_type_id":"4","last_reported":1728338939,"current_range_meters":38800,"station_id":"ce4bhr92rcd13ifvqhrg","pricing_plan_id":"cebpf4jnsgd1na2vs0mg"},{"bike_id":"c190b4a1-ea1d-47e2-b2e8-eefa3099f9cc","system_id":"levelo_inurba_marseille","lat":43.23191,"lon":5.35556,"is_reserved":false,"is_disabled":false,"rental_uris":{"android":"levelo://app?vid=c190b4a1-ea1d-47e2-b2e8-eefa3099f9cc","ios":"levelo://app?vid=c190b4a1-ea1d-47e2-b2e8-eefa3099f9cc"},"vehicle_type_id":"4","last_reported":1728338939,"current_range_meters":38000,"station_id":"ce4bhu92rcd13ifvqi70","pricing_plan_id":"cebpf4jnsgd1na2vs0mg"},{"bike_id":"38a20d7a-dae1-4df2-949c-4c41da90639b","system_id":"levelo_inurba_marseille","lat":43.28266,"lon":5.35047,"is_reserved":false,"is_disabled":false,"rental_uris":{"android":"levelo://app?vid=38a20d7a-dae1-4df2-949c-4c41da90639b","ios":"levelo://app?vid=38a20d7a-dae1-4df2-949c-4c41da90639b"},"vehicle_type_id":"4","last_reported":1728338939,"current_range_meters":15200,"station_id":"ce4bhbp2rcd13ifvqerg","pricing_plan_id":"cebpf4jnsgd1na2vs0mg"},{"bike_id":"f0655ef3-b8ec-45e4-9e27-ad5610781ae0","system_id":"levelo_inurba_marseille","lat":43.30325,"lon":5.40442,"is_reserved":false,"is_disabled":false,"rental_uris":{"android":"levelo://app?vid=f0655ef3-b8ec-45e4-9e27-ad5610781ae0","ios":"levelo://app?vid=f0655ef3-b8ec-45e4-9e27-ad5610781ae0"},"vehicle_type_id":"4","last_reported":1728338939,"current_range_meters":22800,"station_id":"ce4bh012rcd13ifvqd10","pricing_plan_id":"cebpf4jnsgd1na2vs0mg"},{"bike_id":"fce0682f-45d4-4f2f-945f-00fcd9ebed5f","system_id":"levelo_inurba_marseille","lat":43.28712,"lon":5.39984,"is_reserved":false,"is_disabled":false,"rental_uris":{"android":"levelo://app?vid=fce0682f-45d4-4f2f-945f-00fcd9ebed5f","ios":"levelo://app?vid=fce0682f-45d4-4f2f-945f-00fcd9ebed5f"},"vehicle_type_id":"4","last_reported":1728338939,"current_range_meters":36400,"station_id":"ce4bho92rcd13ifvqh3g","pricing_plan_id":"cebpf4jnsgd1na2vs0mg"},{"bike_id":"3332939d-bc6d-4b61-8518-fe8d6ac2b691","system_id":"levelo_inurba_marseille","lat":43.305639,"lon":5.384303,"is_reserved":false,"is_disabled":false,"rental_uris":{"android":"levelo://app?vid=3332939d-bc6d-4b61-8518-fe8d6ac2b691","ios":"levelo://app?vid=3332939d-bc6d-4b61-8518-fe8d6ac2b691"},"vehicle_type_id":"4","last_reported":1728338939,"current_range_meters":38400,"station_id":"ce4bgt92rcd13ifvqcf0","pricing_plan_id":"cebpf4jnsgd1na2vs0mg"},{"bike_id":"1350fd2c-b9e9-43cd-9325-cd67b9835ac5","system_id":"levelo_inurba_marseille","lat":43.28456,"lon":5.35883,"is_reserved":false,"is_disabled":false,"rental_uris":{"android":"levelo://app?vid=1350fd2c-b9e9-43cd-9325-cd67b9835ac5","ios":"levelo://app?vid=1350fd2c-b9e9-43cd-9325-cd67b9835ac5"},"vehicle_type_id":"4","last_reported":1728338939,"current_range_meters":40000,"station_id":"ce4bhah2rcd13ifvqei0","pricing_plan_id":"cebpf4jnsgd1na2vs0mg"},{"bike_id":"f1a587de-a4d9-42a8-8fe6-d4518f6dd1b0","system_id":"levelo_inurba_marseille","lat":43.23063,"lon":5.35493,"is_reserved":false,"is_disabled":false,"rental_uris":{"android":"levelo://app?vid=f1a587de-a4d9-42a8-8fe6-d4518f6dd1b0","ios":"levelo://app?vid=f1a587de-a4d9-42a8-8fe6-d4518f6dd1b0"},"vehicle_type_id":"4","last_reported":1728338939,"current_range_meters":9600,"station_id":"cpo3342slgdg3j2ifvpg","pricing_plan_id":"cebpf4jnsgd1na2vs0mg"},{"bike_id":"6b4618ac-bf15-42bd-b8ce-f62f3e28352b","system_id":"levelo_inurba_marseille","lat":43.23194,"lon":5.35552,"is_reserved":false,"is_disabled":false,"rental_uris":{"android":"levelo://app?vid=6b4618ac-bf15-42bd-b8ce-f62f3e28352b","ios":"levelo://app?vid=6b4618ac-bf15-42bd-b8ce-f62f3e28352b"},"vehicle_type_id":"4","last_reported":1728338939,"current_range_meters":30800,"station_id":"ce4bhu92rcd13ifvqi70","pricing_plan_id":"cebpf4jnsgd1na2vs0mg"},{"bike_id":"cc98bb88-7ebe-43d2-8874-28ef16a178b2","system_id":"levelo_inurba_marseille","lat":43.23181,"lon":5.39986,"is_reserved":false,"is_disabled":false,"rental_uris":{"android":"levelo://app?vid=cc98bb88-7ebe-43d2-8874-28ef16a178b2","ios":"levelo://app?vid=cc98bb88-7ebe-43d2-8874-28ef16a178b2"},"vehicle_type_id":"4","last_reported":1728338939,"current_range_meters":22400,"station_id":"ce4bhn12rcd13ifvqgqg","pricing_plan_id":"cebpf4jnsgd1na2vs0mg"},{"bike_id":"c1c8973f-cba6-4e8d-8db6-6ffbb650fd9f","system_id":"levelo_inurba_marseille","lat":43.27903,"lon":5.37998,"is_reserved":false,"is_disabled":false,"rental_uris":{"android":"levelo://app?vid=c1c8973f-cba6-4e8d-8db6-6ffbb650fd9f","ios":"levelo://app?vid=c1c8973f-cba6-4e8d-8db6-6ffbb650fd9f"},"vehicle_type_id":"4","last_reported":1728338939,"current_range_meters":8000,"station_id":"ce4bhf92rcd13ifvqf50","pricing_plan_id":"cebpf4jnsgd1na2vs0mg"},{"bike_id":"24de9f65-9f62-46f2-a55b-39194eb1533d","system_id":"levelo_inurba_marseille","lat":43.31333,"lon":5.39695,"is_reserved":false,"is_disabled":false,"rental_uris":{"android":"levelo://app?vid=24de9f65-9f62-46f2-a55b-39194eb1533d","ios":"levelo://app?vid=24de9f65-9f62-46f2-a55b-39194eb1533d"},"vehicle_type_id":"4","last_reported":1728338939,"current_range_meters":12000,"station_id":"ce4bgvp2rcd13ifvqcu0","pricing_plan_id":"cebpf4jnsgd1na2vs0mg"},{"bike_id":"5cb07fad-9609-46b3-ad52-39ff30f85547","system_id":"levelo_inurba_marseille","lat":43.28722,"lon":5.36082,"is_reserved":false,"is_disabled":false,"rental_uris":{"android":"levelo://app?vid=5cb07fad-9609-46b3-ad52-39ff30f85547","ios":"levelo://app?vid=5cb07fad-9609-46b3-ad52-39ff30f85547"},"vehicle_type_id":"4","last_reported":1728338939,"current_range_meters":8800,"station_id":"cki0cbj6b192h4jlfktg","pricing_plan_id":"cebpf4jnsgd1na2vs0mg"},{"bike_id":"29564967-44a6-43df-861d-037e6511af6d","system_id":"levelo_inurba_marseille","lat":43.32365,"lon":5.38887,"is_reserved":false,"is_disabled":false,"rental_uris":{"android":"levelo://app?vid=29564967-44a6-43df-861d-037e6511af6d","ios":"levelo://app?vid=29564967-44a6-43df-861d-037e6511af6d"},"vehicle_type_id":"4","last_reported":1728338939,"current_range_meters":30800,"station_id":"ce4bhqp2rcd13ifvqhog","pricing_plan_id":"cebpf4jnsgd1na2vs0mg"},{"bike_id":"8f03373a-690f-4d11-807c-cff8e7b5629a","system_id":"levelo_inurba_marseille","lat":43.29785,"lon":5.39351,"is_reserved":false,"is_disabled":false,"rental_uris":{"android":"levelo://app?vid=8f03373a-690f-4d11-807c-cff8e7b5629a","ios":"levelo://app?vid=8f03373a-690f-4d11-807c-cff8e7b5629a"},"vehicle_type_id":"4","last_reported":1728338939,"current_range_meters":30400,"station_id":"chh1huq6cuj3fo74tm60","pricing_plan_id":"cebpf4jnsgd1na2vs0mg"},{"bike_id":"27424202-b210-4031-88b8-e9a74b320169","system_id":"levelo_inurba_marseille","lat":43.30279,"lon":5.38654,"is_reserved":false,"is_disabled":false,"rental_uris":{"android":"levelo://app?vid=27424202-b210-4031-88b8-e9a74b320169","ios":"levelo://app?vid=27424202-b210-4031-88b8-e9a74b320169"},"vehicle_type_id":"4","last_reported":1728338939,"current_range_meters":33600,"station_id":"ce4bgv92rcd13ifvqcq0","pricing_plan_id":"cebpf4jnsgd1na2vs0mg"},{"bike_id":"b7aca3bb-d3f1-4339-8c39-efa7eefdebfd","system_id":"levelo_inurba_marseille","lat":43.24807,"lon":5.37454,"is_reserved":false,"is_disabled":false,"rental_uris":{"android":"levelo://app?vid=b7aca3bb-d3f1-4339-8c39-efa7eefdebfd","ios":"levelo://app?vid=b7aca3bb-d3f1-4339-8c39-efa7eefdebfd"},"vehicle_type_id":"4","last_reported":1728338939,"current_range_meters":17200,"station_id":"ce4bhgh2rcd13ifvqfb0","pricing_plan_id":"cebpf4jnsgd1na2vs0mg"},{"bike_id":"4dbc9b22-4c46-419e-b5a6-9c9438a9829f","system_id":"levelo_inurba_marseille","lat":43.31357,"lon":5.38495,"is_reserved":false,"is_disabled":false,"rental_uris":{"android":"levelo://app?vid=4dbc9b22-4c46-419e-b5a6-9c9438a9829f","ios":"levelo://app?vid=4dbc9b22-4c46-419e-b5a6-9c9438a9829f"},"vehicle_type_id":"4","last_reported":1728338939,"current_range_meters":36800,"station_id":"ce4bgt92rcd13ifvqcf0","pricing_plan_id":"cebpf4jnsgd1na2vs0mg"},{"bike_id":"30ab7d88-30d8-4409-8d6c-b57095f57189","system_id":"levelo_inurba_marseille","lat":43.25867,"lon":5.39891,"is_reserved":false,"is_disabled":false,"rental_uris":{"android":"levelo://app?vid=30ab7d88-30d8-4409-8d6c-b57095f57189","ios":"levelo://app?vid=30ab7d88-30d8-4409-8d6c-b57095f57189"},"vehicle_type_id":"4","last_reported":1728338939,"current_range_meters":38800,"station_id":"ce4bhl92rcd13ifvqghg","pricing_plan_id":"cebpf4jnsgd1na2vs0mg"},{"bike_id":"b21d74f7-f353-4bc0-8c95-a5aada38b0ee","system_id":"levelo_inurba_marseille","lat":43.25582,"lon":5.38244,"is_reserved":false,"is_disabled":false,"rental_uris":{"android":"levelo://app?vid=b21d74f7-f353-4bc0-8c95-a5aada38b0ee","ios":"levelo://app?vid=b21d74f7-f353-4bc0-8c95-a5aada38b0ee"},"vehicle_type_id":"4","last_reported":1728338939,"current_range_meters":38800,"station_id":"ce4bhih2rcd13ifvqfs0","pricing_plan_id":"cebpf4jnsgd1na2vs0mg"},{"bike_id":"3ed32f64-d7de-47e0-9877-21d78ea4e59d","system_id":"levelo_inurba_marseille","lat":43.25106,"lon":5.40337,"is_reserved":false,"is_disabled":false,"rental_uris":{"android":"levelo://app?vid=3ed32f64-d7de-47e0-9877-21d78ea4e59d","ios":"levelo://app?vid=3ed32f64-d7de-47e0-9877-21d78ea4e59d"},"vehicle_type_id":"4","last_reported":1728338939,"current_range_meters":38800,"station_id":"ce4bhlh2rcd13ifvqgig","pricing_plan_id":"cebpf4jnsgd1na2vs0mg"},{"bike_id":"9f7bb594-fb34-4e78-a4aa-b9e9b8fc8e6a","system_id":"levelo_inurba_marseille","lat":43.31334,"lon":5.397,"is_reserved":false,"is_disabled":false,"rental_uris":{"android":"levelo://app?vid=9f7bb594-fb34-4e78-a4aa-b9e9b8fc8e6a","ios":"levelo://app?vid=9f7bb594-fb34-4e78-a4aa-b9e9b8fc8e6a"},"vehicle_type_id":"4","last_reported":1728338939,"current_range_meters":32800,"station_id":"ce4bgvp2rcd13ifvqcu0","pricing_plan_id":"cebpf4jnsgd1na2vs0mg"},{"bike_id":"926380f0-4ec2-45d5-8c58-de39b75f601e","system_id":"levelo_inurba_marseille","lat":43.23066,"lon":5.35481,"is_reserved":false,"is_disabled":false,"rental_uris":{"android":"levelo://app?vid=926380f0-4ec2-45d5-8c58-de39b75f601e","ios":"levelo://app?vid=926380f0-4ec2-45d5-8c58-de39b75f601e"},"vehicle_type_id":"4","last_reported":1728338939,"current_range_meters":12800,"station_id":"cpo3342slgdg3j2ifvpg","pricing_plan_id":"cebpf4jnsgd1na2vs0mg"},{"bike_id":"043eb5a6-5021-4443-9c24-3017c5a226e7","system_id":"levelo_inurba_marseille","lat":43.28614,"lon":5.35102,"is_reserved":false,"is_disabled":false,"rental_uris":{"android":"levelo://app?vid=043eb5a6-5021-4443-9c24-3017c5a226e7","ios":"levelo://app?vid=043eb5a6-5021-4443-9c24-3017c5a226e7"},"vehicle_type_id":"4","last_reported":1728338939,"current_range_meters":26000,"station_id":"ce4bhch2rcd13ifvqeug","pricing_plan_id":"cebpf4jnsgd1na2vs0mg"},{"bike_id":"07a7138c-1ecb-4cbb-923a-5bea6802a8c2","system_id":"levelo_inurba_marseille","lat":43.28041,"lon":5.38653,"is_reserved":false,"is_disabled":false,"rental_uris":{"android":"levelo://app?vid=07a7138c-1ecb-4cbb-923a-5bea6802a8c2","ios":"levelo://app?vid=07a7138c-1ecb-4cbb-923a-5bea6802a8c2"},"vehicle_type_id":"4","last_reported":1728338939,"current_range_meters":3600,"station_id":"ce4bhf92rcd13ifvqf50","pricing_plan_id":"cebpf4jnsgd1na2vs0mg"},{"bike_id":"f236458b-a68f-4be5-ae65-f5ccd4ea25a1","system_id":"levelo_inurba_marseille","lat":43.31991,"lon":5.38144,"is_reserved":false,"is_disabled":false,"rental_uris":{"android":"levelo://app?vid=f236458b-a68f-4be5-ae65-f5ccd4ea25a1","ios":"levelo://app?vid=f236458b-a68f-4be5-ae65-f5ccd4ea25a1"},"vehicle_type_id":"4","last_reported":1728338939,"current_range_meters":39200,"station_id":"ce4bhr12rcd13ifvqhpg","pricing_plan_id":"cebpf4jnsgd1na2vs0mg"},{"bike_id":"404b4697-2249-46d0-afb0-44351c2d122f","system_id":"levelo_inurba_marseille","lat":43.29542,"lon":5.42271,"is_reserved":false,"is_disabled":false,"rental_uris":{"android":"levelo://app?vid=404b4697-2249-46d0-afb0-44351c2d122f","ios":"levelo://app?vid=404b4697-2249-46d0-afb0-44351c2d122f"},"vehicle_type_id":"4","last_reported":1728338939,"current_range_meters":20000,"station_id":"ce4bhph2rcd13ifvqhdg","pricing_plan_id":"cebpf4jnsgd1na2vs0mg"},{"bike_id":"fb7d3969-8fa4-4c98-92d1-c00b9de439cc","system_id":"levelo_inurba_marseille","lat":43.312486,"lon":5.401561,"is_reserved":false,"is_disabled":false,"rental_uris":{"android":"levelo://app?vid=fb7d3969-8fa4-4c98-92d1-c00b9de439cc","ios":"levelo://app?vid=fb7d3969-8fa4-4c98-92d1-c00b9de439cc"},"vehicle_type_id":"4","last_reported":1728338939,"current_range_meters":9600,"station_id":"ce4bh092rcd13ifvqd30","pricing_plan_id":"cebpf4jnsgd1na2vs0mg"},{"bike_id":"79c06d44-1cfb-4473-b0cd-9fc54eeab714","system_id":"levelo_inurba_marseille","lat":43.31073,"lon":5.38343,"is_reserved":false,"is_disabled":false,"rental_uris":{"android":"levelo://app?vid=79c06d44-1cfb-4473-b0cd-9fc54eeab714","ios":"levelo://app?vid=79c06d44-1cfb-4473-b0cd-9fc54eeab714"},"vehicle_type_id":"4","last_reported":1728338939,"current_range_meters":28000,"station_id":"ce4bgv92rcd13ifvqcr0","pricing_plan_id":"cebpf4jnsgd1na2vs0mg"},{"bike_id":"b625834a-54ef-4eab-8c9d-e8c85e149a97","system_id":"levelo_inurba_marseille","lat":43.31081,"lon":5.4243,"is_reserved":false,"is_disabled":false,"rental_uris":{"android":"levelo://app?vid=b625834a-54ef-4eab-8c9d-e8c85e149a97","ios":"levelo://app?vid=b625834a-54ef-4eab-8c9d-e8c85e149a97"},"vehicle_type_id":"4","last_reported":1728338939,"current_range_meters":38800,"station_id":"ce4bhp92rcd13ifvqhag","pricing_plan_id":"cebpf4jnsgd1na2vs0mg"},{"bike_id":"63592292-2dc9-4a32-9a4c-38846e6bd417","system_id":"levelo_inurba_marseille","lat":43.31068,"lon":5.383533,"is_reserved":false,"is_disabled":false,"rental_uris":{"android":"levelo://app?vid=63592292-2dc9-4a32-9a4c-38846e6bd417","ios":"levelo://app?vid=63592292-2dc9-4a32-9a4c-38846e6bd417"},"vehicle_type_id":"4","last_reported":1728338939,"current_range_meters":18000,"station_id":"ce4bgv92rcd13ifvqcr0","pricing_plan_id":"cebpf4jnsgd1na2vs0mg"},{"bike_id":"cd45fa6f-1279-4a3f-893c-968d70f8dedf","system_id":"levelo_inurba_marseille","lat":43.3112,"lon":5.37763,"is_reserved":false,"is_disabled":false,"rental_uris":{"android":"levelo://app?vid=cd45fa6f-1279-4a3f-893c-968d70f8dedf","ios":"levelo://app?vid=cd45fa6f-1279-4a3f-893c-968d70f8dedf"},"vehicle_type_id":"4","last_reported":1728338939,"current_range_meters":29600,"station_id":"ce4bgt92rcd13ifvqcg0","pricing_plan_id":"cebpf4jnsgd1na2vs0mg"},{"bike_id":"0fc4071b-24d9-40d3-8249-e1b3d1b77983","system_id":"levelo_inurba_marseille","lat":43.32297,"lon":5.40637,"is_reserved":false,"is_disabled":false,"rental_uris":{"android":"levelo://app?vid=0fc4071b-24d9-40d3-8249-e1b3d1b77983","ios":"levelo://app?vid=0fc4071b-24d9-40d3-8249-e1b3d1b77983"},"vehicle_type_id":"4","last_reported":1728338939,"current_range_meters":38800,"station_id":"ce4bhq92rcd13ifvqhjg","pricing_plan_id":"cebpf4jnsgd1na2vs0mg"},{"bike_id":"5033828f-25d8-4cd1-bd77-e9aa9d5c1adc","system_id":"levelo_inurba_marseille","lat":43.31892,"lon":5.40736,"is_reserved":false,"is_disabled":false,"rental_uris":{"android":"levelo://app?vid=5033828f-25d8-4cd1-bd77-e9aa9d5c1adc","ios":"levelo://app?vid=5033828f-25d8-4cd1-bd77-e9aa9d5c1adc"},"vehicle_type_id":"4","last_reported":1728338939,"current_range_meters":38800,"station_id":"ce4bhq12rcd13ifvqhig","pricing_plan_id":"cebpf4jnsgd1na2vs0mg"},{"bike_id":"59d39fdf-306d-4218-a19c-262b47728bed","system_id":"levelo_inurba_marseille","lat":43.27496,"lon":5.42451,"is_reserved":false,"is_disabled":false,"rental_uris":{"android":"levelo://app?vid=59d39fdf-306d-4218-a19c-262b47728bed","ios":"levelo://app?vid=59d39fdf-306d-4218-a19c-262b47728bed"},"vehicle_type_id":"4","last_reported":1728338939,"current_range_meters":40000,"station_id":"ce4bhn92rcd13ifvqgrg","pricing_plan_id":"cebpf4jnsgd1na2vs0mg"},