{"last_updated":1778539659,"ttl":60,"version":"2.2","data":{"bikes":[{"bike_id":"86595fdd-e48d-45f2-9e09-e81a7e509de4","system_id":"levelo_inurba_marseille","lat":43.3168,"lon":5.40476,"is_reserved":false,"is_disabled":false,"rental_uris":{"android":"levelo://app?vid=86595fdd-e48d-45f2-9e09-e81a7e509de4","ios":"levelo://app?vid=86595fdd-e48d-45f2-9e09-e81a7e509de4"},"vehicle_type_id":"4","last_reported":1778539659,"current_range_meters":2800,"station_id":"ce4bh012rcd13ifvqd00","pricing_plan_id":"cebpf4jnsgd1na2vs0mg"},{"bike_id":"beada459-878a-4580-8db4-6192f3de0230","system_id":"levelo_inurba_marseille","lat":43.29619,"lon":5.4059,"is_reserved":false,"is_disabled":false,"rental_uris":{"android":"levelo://app?vid=beada459-878a-4580-8db4-6192f3de0230","ios":"levelo://app?vid=beada459-878a-4580-8db4-6192f3de0230"},"vehicle_type_id":"4","last_reported":1778539659,"current_range_meters":2800,"station_id":"ce4bh0h2rcd13ifvqd60","pricing_plan_id":"cebpf4jnsgd1na2vs0mg"},{"bike_id":"328fc79b-6804-4d01-af71-228a208e5176","system_id":"levelo_inurba_marseille","lat":43.23304,"lon":5.35807,"is_reserved":false,"is_disabled":false,"rental_uris":{"android":"levelo://app?vid=328fc79b-6804-4d01-af71-228a208e5176","ios":"levelo://app?vid=328fc79b-6804-4d01-af71-228a208e5176"},"vehicle_type_id":"4","last_reported":1778539659,"current_range_meters":2800,"station_id":"","pricing_plan_id":"cebpf4jnsgd1na2vs0mg"},{"bike_id":"20eebee4-7cbc-4cad-b2b1-c61fa0b49420","system_id":"levelo_inurba_marseille","lat":43.27577,"lon":5.3839,"is_reserved":false,"is_disabled":false,"rental_uris":{"android":"levelo://app?vid=20eebee4-7cbc-4cad-b2b1-c61fa0b49420","ios":"levelo://app?vid=20eebee4-7cbc-4cad-b2b1-c61fa0b49420"},"vehicle_type_id":"4","last_reported":1778539659,"current_range_meters":2800,"station_id":"ce4bhh92rcd13ifvqfi0","pricing_plan_id":"cebpf4jnsgd1na2vs0mg"},{"bike_id":"c1775866-e028-474b-ad8d-5f809a1ea766","system_id":"levelo_inurba_marseille","lat":43.3105,"lon":5.36861,"is_reserved":false,"is_disabled":false,"rental_uris":{"android":"levelo://app?vid=c1775866-e028-474b-ad8d-5f809a1ea766","ios":"levelo://app?vid=c1775866-e028-474b-ad8d-5f809a1ea766"},"vehicle_type_id":"4","last_reported":1778539659,"current_range_meters":3200,"station_id":"","pricing_plan_id":"cebpf4jnsgd1na2vs0mg"},{"bike_id":"50b9163b-20cf-4836-b9a5-535132894940","system_id":"levelo_inurba_marseille","lat":43.28871,"lon":5.42529,"is_reserved":false,"is_disabled":false,"rental_uris":{"android":"levelo://app?vid=50b9163b-20cf-4836-b9a5-535132894940","ios":"levelo://app?vid=50b9163b-20cf-4836-b9a5-535132894940"},"vehicle_type_id":"4","last_reported":1778539659,"current_range_meters":3200,"station_id":"st_d3b462108ojc7389ooeg","pricing_plan_id":"cebpf4jnsgd1na2vs0mg"},{"bike_id":"7af80540-6d65-440b-9c53-454f2de71937","system_id":"levelo_inurba_marseille","lat":43.29255,"lon":5.38425,"is_reserved":false,"is_disabled":false,"rental_uris":{"android":"levelo://app?vid=7af80540-6d65-440b-9c53-454f2de71937","ios":"levelo://app?vid=7af80540-6d65-440b-9c53-454f2de71937"},"vehicle_type_id":"4","last_reported":1778539659,"current_range_meters":3200,"station_id":"ce4bh692rcd13ifvqea0","pricing_plan_id":"cebpf4jnsgd1na2vs0mg"},{"bike_id":"6e96bdee-a3dd-4fea-9080-1f4f927aa10f","system_id":"levelo_inurba_marseille","lat":43.25591,"lon":5.38202,"is_reserved":false,"is_disabled":false,"rental_uris":{"android":"levelo://app?vid=6e96bdee-a3dd-4fea-9080-1f4f927aa10f","ios":"levelo://app?vid=6e96bdee-a3dd-4fea-9080-1f4f927aa10f"},"vehicle_type_id":"4","last_reported":1778539659,"current_range_meters":3200,"station_id":"ce4bhih2rcd13ifvqfs0","pricing_plan_id":"cebpf4jnsgd1na2vs0mg"},{"bike_id":"f7325664-231f-4d91-adea-08851f268f90","system_id":"levelo_inurba_marseille","lat":43.33169,"lon":5.37673,"is_reserved":false,"is_disabled":false,"rental_uris":{"android":"levelo://app?vid=f7325664-231f-4d91-adea-08851f268f90","ios":"levelo://app?vid=f7325664-231f-4d91-adea-08851f268f90"},"vehicle_type_id":"4","last_reported":1778539659,"current_range_meters":3200,"station_id":"st_d46cu089ee8s73dldbu0","pricing_plan_id":"cebpf4jnsgd1na2vs0mg"},{"bike_id":"40326dfc-c43c-49b9-91fd-f253b800ccf8","system_id":"levelo_inurba_marseille","lat":43.28731,"lon":5.37925,"is_reserved":false,"is_disabled":true,"rental_uris":{"android":"levelo://app?vid=40326dfc-c43c-49b9-91fd-f253b800ccf8","ios":"levelo://app?vid=40326dfc-c43c-49b9-91fd-f253b800ccf8"},"vehicle_type_id":"4","last_reported":1778539659,"current_range_meters":3600,"station_id":"ce4bh9p2rcd13ifvqec0","pricing_plan_id":"cebpf4jnsgd1na2vs0mg"},{"bike_id":"77353947-9ea4-4d5f-a3ba-efd4ffdafca3","system_id":"levelo_inurba_marseille","lat":43.24388,"lon":5.41084,"is_reserved":false,"is_disabled":false,"rental_uris":{"android":"levelo://app?vid=77353947-9ea4-4d5f-a3ba-efd4ffdafca3","ios":"levelo://app?vid=77353947-9ea4-4d5f-a3ba-efd4ffdafca3"},"vehicle_type_id":"4","last_reported":1778539659,"current_range_meters":3600,"station_id":"","pricing_plan_id":"cebpf4jnsgd1na2vs0mg"},{"bike_id":"f15d5df6-7ab6-48e7-af66-dab0794f7384","system_id":"levelo_inurba_marseille","lat":43.21186,"lon":5.35072,"is_reserved":false,"is_disabled":false,"rental_uris":{"android":"levelo://app?vid=f15d5df6-7ab6-48e7-af66-dab0794f7384","ios":"levelo://app?vid=f15d5df6-7ab6-48e7-af66-dab0794f7384"},"vehicle_type_id":"4","last_reported":1778539659,"current_range_meters":3600,"station_id":"st_cvj6sg6p6f1abm77japg","pricing_plan_id":"cebpf4jnsgd1na2vs0mg"},{"bike_id":"b8528c49-e778-4cdd-b6ce-2710cf1c80f4","system_id":"levelo_inurba_marseille","lat":43.28539,"lon":5.42889,"is_reserved":false,"is_disabled":false,"rental_uris":{"android":"levelo://app?vid=b8528c49-e778-4cdd-b6ce-2710cf1c80f4","ios":"levelo://app?vid=b8528c49-e778-4cdd-b6ce-2710cf1c80f4"},"vehicle_type_id":"4","last_reported":1778539659,"current_range_meters":3600,"station_id":"","pricing_plan_id":"cebpf4jnsgd1na2vs0mg"},{"bike_id":"90b763b7-3ec0-4d80-a1f0-5e6f528c0a56","system_id":"levelo_inurba_marseille","lat":43.28136,"lon":5.42657,"is_reserved":false,"is_disabled":true,"rental_uris":{"android":"levelo://app?vid=90b763b7-3ec0-4d80-a1f0-5e6f528c0a56","ios":"levelo://app?vid=90b763b7-3ec0-4d80-a1f0-5e6f528c0a56"},"vehicle_type_id":"4","last_reported":1778539659,"current_range_meters":3600,"station_id":"ce4bhnh2rcd13ifvqgug","pricing_plan_id":"cebpf4jnsgd1na2vs0mg"},{"bike_id":"06b66f67-386c-4e64-a00b-7655d12467fd","system_id":"levelo_inurba_marseille","lat":43.28344,"lon":5.38118,"is_reserved":false,"is_disabled":false,"rental_uris":{"android":"levelo://app?vid=06b66f67-386c-4e64-a00b-7655d12467fd","ios":"levelo://app?vid=06b66f67-386c-4e64-a00b-7655d12467fd"},"vehicle_type_id":"4","last_reported":1778539659,"current_range_meters":3600,"station_id":"ce4bh412rcd13ifvqdr0","pricing_plan_id":"cebpf4jnsgd1na2vs0mg"},{"bike_id":"91ba7ddb-9273-43b7-bfd6-3b1070b92b90","system_id":"levelo_inurba_marseille","lat":43.2846,"lon":5.35896,"is_reserved":false,"is_disabled":false,"rental_uris":{"android":"levelo://app?vid=91ba7ddb-9273-43b7-bfd6-3b1070b92b90","ios":"levelo://app?vid=91ba7ddb-9273-43b7-bfd6-3b1070b92b90"},"vehicle_type_id":"4","last_reported":1778539659,"current_range_meters":3600,"station_id":"ce4bhah2rcd13ifvqei0","pricing_plan_id":"cebpf4jnsgd1na2vs0mg"},{"bike_id":"dc3d872f-b541-4dd3-a578-2855f0ad8694","system_id":"levelo_inurba_marseille","lat":43.33163,"lon":5.37671,"is_reserved":false,"is_disabled":false,"rental_uris":{"android":"levelo://app?vid=dc3d872f-b541-4dd3-a578-2855f0ad8694","ios":"levelo://app?vid=dc3d872f-b541-4dd3-a578-2855f0ad8694"},"vehicle_type_id":"4","last_reported":1778539659,"current_range_meters":3600,"station_id":"st_d46cu089ee8s73dldbu0","pricing_plan_id":"cebpf4jnsgd1na2vs0mg"},{"bike_id":"6ed004a5-8489-49b9-83b6-f09efcb76f62","system_id":"levelo_inurba_marseille","lat":43.248092,"lon":5.374632,"is_reserved":false,"is_disabled":false,"rental_uris":{"android":"levelo://app?vid=6ed004a5-8489-49b9-83b6-f09efcb76f62","ios":"levelo://app?vid=6ed004a5-8489-49b9-83b6-f09efcb76f62"},"vehicle_type_id":"4","last_reported":1778539659,"current_range_meters":4000,"station_id":"ce4bhgh2rcd13ifvqfb0","pricing_plan_id":"cebpf4jnsgd1na2vs0mg"},{"bike_id":"735acf5a-4df3-4724-bfab-8be70eff296f","system_id":"levelo_inurba_marseille","lat":43.27804,"lon":5.4072,"is_reserved":false,"is_disabled":false,"rental_uris":{"android":"levelo://app?vid=735acf5a-4df3-4724-bfab-8be70eff296f","ios":"levelo://app?vid=735acf5a-4df3-4724-bfab-8be70eff296f"},"vehicle_type_id":"4","last_reported":1778539659,"current_range_meters":4000,"station_id":"ce4bhnh2rcd13ifvqgtg","pricing_plan_id":"cebpf4jnsgd1na2vs0mg"},{"bike_id":"30556c87-ff3c-4660-b8b1-da977798e9b2","system_id":"levelo_inurba_marseille","lat":43.24604,"lon":5.42067,"is_reserved":false,"is_disabled":false,"rental_uris":{"android":"levelo://app?vid=30556c87-ff3c-4660-b8b1-da977798e9b2","ios":"levelo://app?vid=30556c87-ff3c-4660-b8b1-da977798e9b2"},"vehicle_type_id":"4","last_reported":1778539659,"current_range_meters":4000,"station_id":"","pricing_plan_id":"cebpf4jnsgd1na2vs0mg"},{"bike_id":"37b581d4-a78c-4db1-8701-3ab33cd83c8a","system_id":"levelo_inurba_marseille","lat":43.30137,"lon":5.43105,"is_reserved":false,"is_disabled":true,"rental_uris":{"android":"levelo://app?vid=37b581d4-a78c-4db1-8701-3ab33cd83c8a","ios":"levelo://app?vid=37b581d4-a78c-4db1-8701-3ab33cd83c8a"},"vehicle_type_id":"4","last_reported":1778539659,"current_range_meters":4000,"station_id":"st_d3js3co5814s73ftftug","pricing_plan_id":"cebpf4jnsgd1na2vs0mg"},{"bike_id":"d4aff205-73f1-42ee-8e1f-95ea17a0f3d5","system_id":"levelo_inurba_marseille","lat":43.2888,"lon":5.37822,"is_reserved":false,"is_disabled":false,"rental_uris":{"android":"levelo://app?vid=d4aff205-73f1-42ee-8e1f-95ea17a0f3d5","ios":"levelo://app?vid=d4aff205-73f1-42ee-8e1f-95ea17a0f3d5"},"vehicle_type_id":"4","last_reported":1778539659,"current_range_meters":4000,"station_id":"","pricing_plan_id":"cebpf4jnsgd1na2vs0mg"},{"bike_id":"85b91fc3-5e4b-4ab8-871e-244077c4ec75","system_id":"levelo_inurba_marseille","lat":43.24622,"lon":5.43153,"is_reserved":false,"is_disabled":false,"rental_uris":{"android":"levelo://app?vid=85b91fc3-5e4b-4ab8-871e-244077c4ec75","ios":"levelo://app?vid=85b91fc3-5e4b-4ab8-871e-244077c4ec75"},"vehicle_type_id":"4","last_reported":1778539659,"current_range_meters":4000,"station_id":"st_d2m6c4gdas8pm72e190g","pricing_plan_id":"cebpf4jnsgd1na2vs0mg"},{"bike_id":"6c8726f0-7827-4d37-a372-bf3bc27c26ca","system_id":"levelo_inurba_marseille","lat":43.28607,"lon":5.39889,"is_reserved":false,"is_disabled":false,"rental_uris":{"android":"levelo://app?vid=6c8726f0-7827-4d37-a372-bf3bc27c26ca","ios":"levelo://app?vid=6c8726f0-7827-4d37-a372-bf3bc27c26ca"},"vehicle_type_id":"4","last_reported":1778539659,"current_range_meters":4000,"station_id":"st_d4a7ka997mjs738ck50g","pricing_plan_id":"cebpf4jnsgd1na2vs0mg"},{"bike_id":"55ffb50f-2fd4-4e52-8ede-6286e349f10a","system_id":"levelo_inurba_marseille","lat":43.21203,"lon":5.35072,"is_reserved":false,"is_disabled":true,"rental_uris":{"android":"levelo://app?vid=55ffb50f-2fd4-4e52-8ede-6286e349f10a","ios":"levelo://app?vid=55ffb50f-2fd4-4e52-8ede-6286e349f10a"},"vehicle_type_id":"4","last_reported":1778539659,"current_range_meters":4000,"station_id":"st_cvj6sg6p6f1abm77japg","pricing_plan_id":"cebpf4jnsgd1na2vs0mg"},{"bike_id":"92898ab7-4a80-4e3f-a36e-4fe8ee6c9259","system_id":"levelo_inurba_marseille","lat":43.25102,"lon":5.4033,"is_reserved":false,"is_disabled":false,"rental_uris":{"android":"levelo://app?vid=92898ab7-4a80-4e3f-a36e-4fe8ee6c9259","ios":"levelo://app?vid=92898ab7-4a80-4e3f-a36e-4fe8ee6c9259"},"vehicle_type_id":"4","last_reported":1778539659,"current_range_meters":4400,"station_id":"ce4bhlh2rcd13ifvqgig","pricing_plan_id":"cebpf4jnsgd1na2vs0mg"},{"bike_id":"0dabfbc0-4a0f-4f2b-89ae-d1cc3f1139a9","system_id":"levelo_inurba_marseille","lat":43.26551,"lon":5.37289,"is_reserved":false,"is_disabled":false,"rental_uris":{"android":"levelo://app?vid=0dabfbc0-4a0f-4f2b-89ae-d1cc3f1139a9","ios":"levelo://app?vid=0dabfbc0-4a0f-4f2b-89ae-d1cc3f1139a9"},"vehicle_type_id":"4","last_reported":1778539659,"current_range_meters":4400,"station_id":"ce4bhg12rcd13ifvqf70","pricing_plan_id":"cebpf4jnsgd1na2vs0mg"},{"bike_id":"64c0b735-e604-4295-a4dc-68daf370ff2e","system_id":"levelo_inurba_marseille","lat":43.24163,"lon":5.36388,"is_reserved":false,"is_disabled":false,"rental_uris":{"android":"levelo://app?vid=64c0b735-e604-4295-a4dc-68daf370ff2e","ios":"levelo://app?vid=64c0b735-e604-4295-a4dc-68daf370ff2e"},"vehicle_type_id":"4","last_reported":1778539659,"current_range_meters":4400,"station_id":"cpo36qri1sfpv3e86is0","pricing_plan_id":"cebpf4jnsgd1na2vs0mg"},{"bike_id":"ac2f3b4e-4d5f-47ab-a54f-a79122b769fc","system_id":"levelo_inurba_marseille","lat":43.33156,"lon":5.37678,"is_reserved":false,"is_disabled":false,"rental_uris":{"android":"levelo://app?vid=ac2f3b4e-4d5f-47ab-a54f-a79122b769fc","ios":"levelo://app?vid=ac2f3b4e-4d5f-47ab-a54f-a79122b769fc"},"vehicle_type_id":"4","last_reported":1778539659,"current_range_meters":4400,"station_id":"st_d46cu089ee8s73dldbu0","pricing_plan_id":"cebpf4jnsgd1na2vs0mg"},{"bike_id":"08e9f916-44a4-4122-a214-51bda689e260","system_id":"levelo_inurba_marseille","lat":43.24555,"lon":5.39524,"is_reserved":false,"is_disabled":false,"rental_uris":{"android":"levelo://app?vid=08e9f916-44a4-4122-a214-51bda689e260","ios":"levelo://app?vid=08e9f916-44a4-4122-a214-51bda689e260"},"vehicle_type_id":"4","last_reported":1778539659,"current_range_meters":4400,"station_id":"ce4bhlp2rcd13ifvqgjg","pricing_plan_id":"cebpf4jnsgd1na2vs0mg"},{"bike_id":"390b0db0-9531-4ed5-8ee2-c5021109ceb1","system_id":"levelo_inurba_marseille","lat":43.26511,"lon":5.37148,"is_reserved":false,"is_disabled":false,"rental_uris":{"android":"levelo://app?vid=390b0db0-9531-4ed5-8ee2-c5021109ceb1","ios":"levelo://app?vid=390b0db0-9531-4ed5-8ee2-c5021109ceb1"},"vehicle_type_id":"4","last_reported":1778539659,"current_range_meters":4400,"station_id":"","pricing_plan_id":"cebpf4jnsgd1na2vs0mg"},{"bike_id":"88049ccf-a823-49be-a699-eb2ad440588f","system_id":"levelo_inurba_marseille","lat":43.2586,"lon":5.39887,"is_reserved":false,"is_disabled":true,"rental_uris":{"android":"levelo://app?vid=88049ccf-a823-49be-a699-eb2ad440588f","ios":"levelo://app?vid=88049ccf-a823-49be-a699-eb2ad440588f"},"vehicle_type_id":"4","last_reported":1778539659,"current_range_meters":4400,"station_id":"ce4bhl92rcd13ifvqghg","pricing_plan_id":"cebpf4jnsgd1na2vs0mg"},{"bike_id":"47559409-0fc5-4332-af63-6d2351c0a07b","system_id":"levelo_inurba_marseille","lat":43.28557,"lon":5.38314,"is_reserved":false,"is_disabled":false,"rental_uris":{"android":"levelo://app?vid=47559409-0fc5-4332-af63-6d2351c0a07b","ios":"levelo://app?vid=47559409-0fc5-4332-af63-6d2351c0a07b"},"vehicle_type_id":"4","last_reported":1778539659,"current_range_meters":4800,"station_id":"","pricing_plan_id":"cebpf4jnsgd1na2vs0mg"},{"bike_id":"94c7adb8-7b44-440f-88bf-b37804150397","system_id":"levelo_inurba_marseille","lat":43.2708,"lon":5.4227,"is_reserved":false,"is_disabled":false,"rental_uris":{"android":"levelo://app?vid=94c7adb8-7b44-440f-88bf-b37804150397","ios":"levelo://app?vid=94c7adb8-7b44-440f-88bf-b37804150397"},"vehicle_type_id":"4","last_reported":1778539659,"current_range_meters":4800,"station_id":"ce4bhk92rcd13ifvqgb0","pricing_plan_id":"cebpf4jnsgd1na2vs0mg"},{"bike_id":"2a88c8d6-901a-46de-936e-8ca8169700e0","system_id":"levelo_inurba_marseille","lat":43.2464,"lon":5.38893,"is_reserved":false,"is_disabled":false,"rental_uris":{"android":"levelo://app?vid=2a88c8d6-901a-46de-936e-8ca8169700e0","ios":"levelo://app?vid=2a88c8d6-901a-46de-936e-8ca8169700e0"},"vehicle_type_id":"4","last_reported":1778539659,"current_range_meters":4800,"station_id":"ce4bhg12rcd13ifvqf60","pricing_plan_id":"cebpf4jnsgd1na2vs0mg"},{"bike_id":"1e62eaef-16fb-4e52-b268-80128839798f","system_id":"levelo_inurba_marseille","lat":43.30209,"lon":5.39459,"is_reserved":false,"is_disabled":false,"rental_uris":{"android":"levelo://app?vid=1e62eaef-16fb-4e52-b268-80128839798f","ios":"levelo://app?vid=1e62eaef-16fb-4e52-b268-80128839798f"},"vehicle_type_id":"4","last_reported":1778539659,"current_range_meters":4800,"station_id":"ce4bh0p2rcd13ifvqd70","pricing_plan_id":"cebpf4jnsgd1na2vs0mg"},{"bike_id":"51c33c4f-93e3-4914-8b70-f8494a43df13","system_id":"levelo_inurba_marseille","lat":43.2955,"lon":5.38194,"is_reserved":false,"is_disabled":true,"rental_uris":{"android":"levelo://app?vid=51c33c4f-93e3-4914-8b70-f8494a43df13","ios":"levelo://app?vid=51c33c4f-93e3-4914-8b70-f8494a43df13"},"vehicle_type_id":"4","last_reported":1778539659,"current_range_meters":4800,"station_id":"","pricing_plan_id":"cebpf4jnsgd1na2vs0mg"},{"bike_id":"44b82dc4-674a-446b-8c81-727d389f2177","system_id":"levelo_inurba_marseille","lat":43.28696,"lon":5.46682,"is_reserved":false,"is_disabled":false,"rental_uris":{"android":"levelo://app?vid=44b82dc4-674a-446b-8c81-727d389f2177","ios":"levelo://app?vid=44b82dc4-674a-446b-8c81-727d389f2177"},"vehicle_type_id":"4","last_reported":1778539659,"current_range_meters":4800,"station_id":"st_d6tc3vkotcvc738tfjhg","pricing_plan_id":"cebpf4jnsgd1na2vs0mg"},{"bike_id":"ca4e35a0-d5f0-4e64-9a0d-eaec2ebca584","system_id":"levelo_inurba_marseille","lat":43.30801,"lon":5.38154,"is_reserved":false,"is_disabled":false,"rental_uris":{"android":"levelo://app?vid=ca4e35a0-d5f0-4e64-9a0d-eaec2ebca584","ios":"levelo://app?vid=ca4e35a0-d5f0-4e64-9a0d-eaec2ebca584"},"vehicle_type_id":"4","last_reported":1778539659,"current_range_meters":4800,"station_id":"ce4bgt12rcd13ifvqce0","pricing_plan_id":"cebpf4jnsgd1na2vs0mg"},{"bike_id":"c2e7a83f-4005-4921-aed2-b73c33c42bf5","system_id":"levelo_inurba_marseille","lat":43.31274,"lon":5.40172,"is_reserved":false,"is_disabled":false,"rental_uris":{"android":"levelo://app?vid=c2e7a83f-4005-4921-aed2-b73c33c42bf5","ios":"levelo://app?vid=c2e7a83f-4005-4921-aed2-b73c33c42bf5"},"vehicle_type_id":"4","last_reported":1778539659,"current_range_meters":4800,"station_id":"ce4bh092rcd13ifvqd30","pricing_plan_id":"cebpf4jnsgd1na2vs0mg"},{"bike_id":"7c55a5ad-4385-40d8-b5dc-7678d937c0ab","system_id":"levelo_inurba_marseille","lat":43.30936,"lon":5.40131,"is_reserved":false,"is_disabled":false,"rental_uris":{"android":"levelo://app?vid=7c55a5ad-4385-40d8-b5dc-7678d937c0ab","ios":"levelo://app?vid=7c55a5ad-4385-40d8-b5dc-7678d937c0ab"},"vehicle_type_id":"4","last_reported":1778539659,"current_range_meters":4800,"station_id":"ce4bgvp2rcd13ifvqct0","pricing_plan_id":"cebpf4jnsgd1na2vs0mg"},{"bike_id":"81ddc047-b6c4-4963-bd7a-dc4b97bd04f5","system_id":"levelo_inurba_marseille","lat":43.27965,"lon":5.38759,"is_reserved":false,"is_disabled":false,"rental_uris":{"android":"levelo://app?vid=81ddc047-b6c4-4963-bd7a-dc4b97bd04f5","ios":"levelo://app?vid=81ddc047-b6c4-4963-bd7a-dc4b97bd04f5"},"vehicle_type_id":"4","last_reported":1778539659,"current_range_meters":4800,"station_id":"ce4bhg12rcd13ifvqf80","pricing_plan_id":"cebpf4jnsgd1na2vs0mg"},{"bike_id":"0c64acdb-e8c1-4c41-abc8-f3040a106904","system_id":"levelo_inurba_marseille","lat":43.23946,"lon":5.36629,"is_reserved":false,"is_disabled":false,"rental_uris":{"android":"levelo://app?vid=0c64acdb-e8c1-4c41-abc8-f3040a106904","ios":"levelo://app?vid=0c64acdb-e8c1-4c41-abc8-f3040a106904"},"vehicle_type_id":"4","last_reported":1778539659,"current_range_meters":4800,"station_id":"ce4bhi12rcd13ifvqfp0","pricing_plan_id":"cebpf4jnsgd1na2vs0mg"},{"bike_id":"e4e765a0-1aab-4d4e-ae7a-cc4e5a5cbe69","system_id":"levelo_inurba_marseille","lat":43.27999,"lon":5.40008,"is_reserved":false,"is_disabled":false,"rental_uris":{"android":"levelo://app?vid=e4e765a0-1aab-4d4e-ae7a-cc4e5a5cbe69","ios":"levelo://app?vid=e4e765a0-1aab-4d4e-ae7a-cc4e5a5cbe69"},"vehicle_type_id":"4","last_reported":1778539659,"current_range_meters":4800,"station_id":"ce4bho92rcd13ifvqh4g","pricing_plan_id":"cebpf4jnsgd1na2vs0mg"},{"bike_id":"6300b651-1d21-47ef-9d4d-23181396e345","system_id":"levelo_inurba_marseille","lat":43.24813,"lon":5.37455,"is_reserved":false,"is_disabled":false,"rental_uris":{"android":"levelo://app?vid=6300b651-1d21-47ef-9d4d-23181396e345","ios":"levelo://app?vid=6300b651-1d21-47ef-9d4d-23181396e345"},"vehicle_type_id":"4","last_reported":1778539659,"current_range_meters":4800,"station_id":"ce4bhgh2rcd13ifvqfb0","pricing_plan_id":"cebpf4jnsgd1na2vs0mg"},{"bike_id":"85848f87-2086-4bcc-99c6-54082387897b","system_id":"levelo_inurba_marseille","lat":43.24626,"lon":5.43148,"is_reserved":false,"is_disabled":false,"rental_uris":{"android":"levelo://app?vid=85848f87-2086-4bcc-99c6-54082387897b","ios":"levelo://app?vid=85848f87-2086-4bcc-99c6-54082387897b"},"vehicle_type_id":"4","last_reported":1778539659,"current_range_meters":5600,"station_id":"st_d2m6c4gdas8pm72e190g","pricing_plan_id":"cebpf4jnsgd1na2vs0mg"},{"bike_id":"ca8fc2f4-2b28-46f5-a851-53f57db24260","system_id":"levelo_inurba_marseille","lat":43.29779,"lon":5.39378,"is_reserved":false,"is_disabled":false,"rental_uris":{"android":"levelo://app?vid=ca8fc2f4-2b28-46f5-a851-53f57db24260","ios":"levelo://app?vid=ca8fc2f4-2b28-46f5-a851-53f57db24260"},"vehicle_type_id":"4","last_reported":1778539659,"current_range_meters":5600,"station_id":"chh1huq6cuj3fo74tm60","pricing_plan_id":"cebpf4jnsgd1na2vs0mg"},{"bike_id":"98ab0ff5-8aff-4a49-b025-b2967ef87973","system_id":"levelo_inurba_marseille","lat":43.29552,"lon":5.38242,"is_reserved":false,"is_disabled":false,"rental_uris":{"android":"levelo://app?vid=98ab0ff5-8aff-4a49-b025-b2967ef87973","ios":"levelo://app?vid=98ab0ff5-8aff-4a49-b025-b2967ef87973"},"vehicle_type_id":"4","last_reported":1778539659,"current_range_meters":5600,"station_id":"","pricing_plan_id":"cebpf4jnsgd1na2vs0mg"},{"bike_id":"8136485b-a690-40b0-bdb4-9378b03d6db1","system_id":"levelo_inurba_marseille","lat":43.282,"lon":5.39064,"is_reserved":false,"is_disabled":false,"rental_uris":{"android":"levelo://app?vid=8136485b-a690-40b0-bdb4-9378b03d6db1","ios":"levelo://app?vid=8136485b-a690-40b0-bdb4-9378b03d6db1"},"vehicle_type_id":"4","last_reported":1778539659,"current_range_meters":5600,"station_id":"ce4bhn92rcd13ifvqgsg","pricing_plan_id":"cebpf4jnsgd1na2vs0mg"},{"bike_id":"8f90c932-e265-4a77-a8ee-d1da59d25970","system_id":"levelo_inurba_marseille","lat":43.29945,"lon":5.36513,"is_reserved":false,"is_disabled":false,"rental_uris":{"android":"levelo://app?vid=8f90c932-e265-4a77-a8ee-d1da59d25970","ios":"levelo://app?vid=8f90c932-e265-4a77-a8ee-d1da59d25970"},"vehicle_type_id":"4","last_reported":1778539659,"current_range_meters":5600,"station_id":"ce4bgm92rcd13ifvqbr0","pricing_plan_id":"cebpf4jnsgd1na2vs0mg"},{"bike_id":"5508c535-e4e8-4b7d-b0dd-7fd82570b8ad","system_id":"levelo_inurba_marseille","lat":43.25332,"lon":5.42179,"is_reserved":false,"is_disabled":false,"rental_uris":{"android":"levelo://app?vid=5508c535-e4e8-4b7d-b0dd-7fd82570b8ad","ios":"levelo://app?vid=5508c535-e4e8-4b7d-b0dd-7fd82570b8ad"},"vehicle_type_id":"4","last_reported":1778539659,"current_range_meters":5600,"station_id":"st_d2m65c5bi1j21697t3ng","pricing_plan_id":"cebpf4jnsgd1na2vs0mg"},{"bike_id":"cf6e1ad4-0d06-4814-9123-fe5de6e20024","system_id":"levelo_inurba_marseille","lat":43.30476,"lon":5.37286,"is_reserved":false,"is_disabled":false,"rental_uris":{"android":"levelo://app?vid=cf6e1ad4-0d06-4814-9123-fe5de6e20024","ios":"levelo://app?vid=cf6e1ad4-0d06-4814-9123-fe5de6e20024"},"vehicle_type_id":"4","last_reported":1778539659,"current_range_meters":5600,"station_id":"","pricing_plan_id":"cebpf4jnsgd1na2vs0mg"},{"bike_id":"e6f97e5e-858e-416a-abde-cea17b95debe","system_id":"levelo_inurba_marseille","lat":43.28709,"lon":5.46683,"is_reserved":false,"is_disabled":false,"rental_uris":{"android":"levelo://app?vid=e6f97e5e-858e-416a-abde-cea17b95debe","ios":"levelo://app?vid=e6f97e5e-858e-416a-abde-cea17b95debe"},"vehicle_type_id":"4","last_reported":1778539659,"current_range_meters":5600,"station_id":"","pricing_plan_id":"cebpf4jnsgd1na2vs0mg"},{"bike_id":"21e79dcc-06b7-45c8-a376-d297bffd56fe","system_id":"levelo_inurba_marseille","lat":43.28716,"lon":5.37947,"is_reserved":false,"is_disabled":false,"rental_uris":{"android":"levelo://app?vid=21e79dcc-06b7-45c8-a376-d297bffd56fe","ios":"levelo://app?vid=21e79dcc-06b7-45c8-a376-d297bffd56fe"},"vehicle_type_id":"4","last_reported":1778539659,"current_range_meters":5600,"station_id":"ce4bh9p2rcd13ifvqec0","pricing_plan_id":"cebpf4jnsgd1na2vs0mg"},{"bike_id":"d41dd175-5bfe-48c4-8352-4a80d32b168e","system_id":"levelo_inurba_marseille","lat":43.25028,"lon":5.38894,"is_reserved":false,"is_disabled":false,"rental_uris":{"android":"levelo://app?vid=d41dd175-5bfe-48c4-8352-4a80d32b168e","ios":"levelo://app?vid=d41dd175-5bfe-48c4-8352-4a80d32b168e"},"vehicle_type_id":"4","last_reported":1778539659,"current_range_meters":5600,"station_id":"ce4bhgp2rcd13ifvqfd0","pricing_plan_id":"cebpf4jnsgd1na2vs0mg"},{"bike_id":"cf7ae309-d891-460e-ab87-bc46e8324309","system_id":"levelo_inurba_marseille","lat":43.33512,"lon":5.37503,"is_reserved":false,"is_disabled":false,"rental_uris":{"android":"levelo://app?vid=cf7ae309-d891-460e-ab87-bc46e8324309","ios":"levelo://app?vid=cf7ae309-d891-460e-ab87-bc46e8324309"},"vehicle_type_id":"4","last_reported":1778539659,"current_range_meters":6000,"station_id":"","pricing_plan_id":"cebpf4jnsgd1na2vs0mg"},{"bike_id":"f00444fb-66cf-45c8-80b5-c220db1297e9","system_id":"levelo_inurba_marseille","lat":43.29567,"lon":5.3997,"is_reserved":false,"is_disabled":false,"rental_uris":{"android":"levelo://app?vid=f00444fb-66cf-45c8-80b5-c220db1297e9","ios":"levelo://app?vid=f00444fb-66cf-45c8-80b5-c220db1297e9"},"vehicle_type_id":"4","last_reported":1778539659,"current_range_meters":6000,"station_id":"ce4bh312rcd13ifvqdj0","pricing_plan_id":"cebpf4jnsgd1na2vs0mg"},{"bike_id":"ac3d0288-806c-484d-a53f-2698f9156917","system_id":"levelo_inurba_marseille","lat":43.26069,"lon":5.39408,"is_reserved":false,"is_disabled":false,"rental_uris":{"android":"levelo://app?vid=ac3d0288-806c-484d-a53f-2698f9156917","ios":"levelo://app?vid=ac3d0288-806c-484d-a53f-2698f9156917"},"vehicle_type_id":"4","last_reported":1778539659,"current_range_meters":6000,"station_id":"ce4bhh92rcd13ifvqfj0","pricing_plan_id":"cebpf4jnsgd1na2vs0mg"},{"bike_id":"2c88e219-8c30-4d86-9ffb-7e85abf6c678","system_id":"levelo_inurba_marseille","lat":43.29976,"lon":5.37164,"is_reserved":false,"is_disabled":false,"rental_uris":{"android":"levelo://app?vid=2c88e219-8c30-4d86-9ffb-7e85abf6c678","ios":"levelo://app?vid=2c88e219-8c30-4d86-9ffb-7e85abf6c678"},"vehicle_type_id":"4","last_reported":1778539659,"current_range_meters":6000,"station_id":"ce4bgr92rcd13ifvqc7g","pricing_plan_id":"cebpf4jnsgd1na2vs0mg"},{"bike_id":"e0dcdb7c-f6c9-48b1-9d51-9065196df587","system_id":"levelo_inurba_marseille","lat":43.2815,"lon":5.4264,"is_reserved":false,"is_disabled":true,"rental_uris":{"android":"levelo://app?vid=e0dcdb7c-f6c9-48b1-9d51-9065196df587","ios":"levelo://app?vid=e0dcdb7c-f6c9-48b1-9d51-9065196df587"},"vehicle_type_id":"4","last_reported":1778539659,"current_range_meters":6000,"station_id":"ce4bhnh2rcd13ifvqgug","pricing_plan_id":"cebpf4jnsgd1na2vs0mg"},{"bike_id":"662c8520-bfe6-4791-897f-ed06d541dc6e","system_id":"levelo_inurba_marseille","lat":43.27069,"lon":5.38324,"is_reserved":false,"is_disabled":false,"rental_uris":{"android":"levelo://app?vid=662c8520-bfe6-4791-897f-ed06d541dc6e","ios":"levelo://app?vid=662c8520-bfe6-4791-897f-ed06d541dc6e"},"vehicle_type_id":"4","last_reported":1778539659,"current_range_meters":6000,"station_id":"st_d3n2fo6cfp8s73cte1j0","pricing_plan_id":"cebpf4jnsgd1na2vs0mg"},{"bike_id":"dbc30a86-cb82-4b41-bc40-321ccad8be9f","system_id":"levelo_inurba_marseille","lat":43.296098,"lon":5.376745,"is_reserved":false,"is_disabled":true,"rental_uris":{"android":"levelo://app?vid=dbc30a86-cb82-4b41-bc40-321ccad8be9f","ios":"levelo://app?vid=dbc30a86-cb82-4b41-bc40-321ccad8be9f"},"vehicle_type_id":"4","last_reported":1778539659,"current_range_meters":6000,"station_id":"ce4bgi92rcd13ifvqb90","pricing_plan_id":"cebpf4jnsgd1na2vs0mg"},{"bike_id":"e461e96d-9bcf-4941-b3c0-cc34caae2fc7","system_id":"levelo_inurba_marseille","lat":43.28394,"lon":5.37507,"is_reserved":false,"is_disabled":false,"rental_uris":{"android":"levelo://app?vid=e461e96d-9bcf-4941-b3c0-cc34caae2fc7","ios":"levelo://app?vid=e461e96d-9bcf-4941-b3c0-cc34caae2fc7"},"vehicle_type_id":"4","last_reported":1778539659,"current_range_meters":6000,"station_id":"ce4bh412rcd13ifvqds0","pricing_plan_id":"cebpf4jnsgd1na2vs0mg"},{"bike_id":"bebc2005-6016-4783-97ac-f70ce7c5cdd0","system_id":"levelo_inurba_marseille","lat":43.24354,"lon":5.3706,"is_reserved":false,"is_disabled":false,"rental_uris":{"android":"levelo://app?vid=bebc2005-6016-4783-97ac-f70ce7c5cdd0","ios":"levelo://app?vid=bebc2005-6016-4783-97ac-f70ce7c5cdd0"},"vehicle_type_id":"4","last_reported":1778539659,"current_range_meters":6000,"station_id":"ce4bhhh2rcd13ifvqfk0","pricing_plan_id":"cebpf4jnsgd1na2vs0mg"},{"bike_id":"704ef1b4-c37f-42f2-856b-86a2d338b4e1","system_id":"levelo_inurba_marseille","lat":43.21183,"lon":5.35073,"is_reserved":false,"is_disabled":false,"rental_uris":{"android":"levelo://app?vid=704ef1b4-c37f-42f2-856b-86a2d338b4e1","ios":"levelo://app?vid=704ef1b4-c37f-42f2-856b-86a2d338b4e1"},"vehicle_type_id":"4","last_reported":1778539659,"current_range_meters":6000,"station_id":"st_cvj6sg6p6f1abm77japg","pricing_plan_id":"cebpf4jnsgd1na2vs0mg"},{"bike_id":"ed38f90f-8a32-4d6c-b2bc-fd0c34613ef4","system_id":"levelo_inurba_marseille","lat":43.29481,"lon":5.38594,"is_reserved":false,"is_disabled":false,"rental_uris":{"android":"levelo://app?vid=ed38f90f-8a32-4d6c-b2bc-fd0c34613ef4","ios":"levelo://app?vid=ed38f90f-8a32-4d6c-b2bc-fd0c34613ef4"},"vehicle_type_id":"4","last_reported":1778539659,"current_range_meters":6000,"station_id":"","pricing_plan_id":"cebpf4jnsgd1na2vs0mg"},{"bike_id":"eb77a4c1-971a-4242-88f3-b2ec5c06ea79","system_id":"levelo_inurba_marseille","lat":43.33152,"lon":5.37681,"is_reserved":false,"is_disabled":false,"rental_uris":{"android":"levelo://app?vid=eb77a4c1-971a-4242-88f3-b2ec5c06ea79","ios":"levelo://app?vid=eb77a4c1-971a-4242-88f3-b2ec5c06ea79"},"vehicle_type_id":"4","last_reported":1778539659,"current_range_meters":6000,"station_id":"st_d46cu089ee8s73dldbu0","pricing_plan_id":"cebpf4jnsgd1na2vs0mg"},{"bike_id":"da16bc4b-fc6a-407a-af03-a54feb9f1478","system_id":"levelo_inurba_marseille","lat":43.24052,"lon":5.37756,"is_reserved":false,"is_disabled":false,"rental_uris":{"android":"levelo://app?vid=da16bc4b-fc6a-407a-af03-a54feb9f1478","ios":"levelo://app?vid=da16bc4b-fc6a-407a-af03-a54feb9f1478"},"vehicle_type_id":"4","last_reported":1778539659,"current_range_meters":6000,"station_id":"ce4bhnp2rcd13ifvqgvg","pricing_plan_id":"cebpf4jnsgd1na2vs0mg"},{"bike_id":"8db7f519-7e89-46fb-81d9-c17d63ae9738","system_id":"levelo_inurba_marseille","lat":43.29623,"lon":5.37717,"is_reserved":false,"is_disabled":true,"rental_uris":{"android":"levelo://app?vid=8db7f519-7e89-46fb-81d9-c17d63ae9738","ios":"levelo://app?vid=8db7f519-7e89-46fb-81d9-c17d63ae9738"},"vehicle_type_id":"4","last_reported":1778539659,"current_range_meters":6000,"station_id":"ce4bgi92rcd13ifvqb90","pricing_plan_id":"cebpf4jnsgd1na2vs0mg"},{"bike_id":"9aad11a4-9a52-4fec-9725-ef5ceb82088c","system_id":"levelo_inurba_marseille","lat":43.24626,"lon":5.43157,"is_reserved":false,"is_disabled":true,"rental_uris":{"android":"levelo://app?vid=9aad11a4-9a52-4fec-9725-ef5ceb82088c","ios":"levelo://app?vid=9aad11a4-9a52-4fec-9725-ef5ceb82088c"},"vehicle_type_id":"4","last_reported":1778539659,"current_range_meters":6000,"station_id":"st_d2m6c4gdas8pm72e190g","pricing_plan_id":"cebpf4jnsgd1na2vs0mg"},{"bike_id":"4b8e7de5-f943-4c39-a632-54a908e5ef58","system_id":"levelo_inurba_marseille","lat":43.28396,"lon":5.37498,"is_reserved":false,"is_disabled":false,"rental_uris":{"android":"levelo://app?vid=4b8e7de5-f943-4c39-a632-54a908e5ef58","ios":"levelo://app?vid=4b8e7de5-f943-4c39-a632-54a908e5ef58"},"vehicle_type_id":"4","last_reported":1778539659,"current_range_meters":6000,"station_id":"ce4bh412rcd13ifvqds0","pricing_plan_id":"cebpf4jnsgd1na2vs0mg"},{"bike_id":"6617e328-969f-49ef-9adb-e96452a8b968","system_id":"levelo_inurba_marseille","lat":43.25073,"lon":5.39729,"is_reserved":false,"is_disabled":false,"rental_uris":{"android":"levelo://app?vid=6617e328-969f-49ef-9adb-e96452a8b968","ios":"levelo://app?vid=6617e328-969f-49ef-9adb-e96452a8b968"},"vehicle_type_id":"4","last_reported":1778539659,"current_range_meters":6000,"station_id":"","pricing_plan_id":"cebpf4jnsgd1na2vs0mg"},{"bike_id":"6f3e2e64-390a-4f6b-82f0-5e1c1fec0699","system_id":"levelo_inurba_marseille","lat":43.28227,"lon":5.39071,"is_reserved":false,"is_disabled":false,"rental_uris":{"android":"levelo://app?vid=6f3e2e64-390a-4f6b-82f0-5e1c1fec0699","ios":"levelo://app?vid=6f3e2e64-390a-4f6b-82f0-5e1c1fec0699"},"vehicle_type_id":"4","last_reported":1778539659,"current_range_meters":6000,"station_id":"ce4bhn92rcd13ifvqgsg","pricing_plan_id":"cebpf4jnsgd1na2vs0mg"},{"bike_id":"a687de40-285a-4965-b64b-ee2f6457bc7f","system_id":"levelo_inurba_marseille","lat":43.337444,"lon":5.374475,"is_reserved":false,"is_disabled":false,"rental_uris":{"android":"levelo://app?vid=a687de40-285a-4965-b64b-ee2f6457bc7f","ios":"levelo://app?vid=a687de40-285a-4965-b64b-ee2f6457bc7f"},"vehicle_type_id":"4","last_reported":1778539659,"current_range_meters":6400,"station_id":"ce4bgjh2rcd13ifvqbf0","pricing_plan_id":"cebpf4jnsgd1na2vs0mg"},{"bike_id":"de85ec04-6d78-48b2-91b9-65592c313c39","system_id":"levelo_inurba_marseille","lat":43.31485,"lon":5.37292,"is_reserved":false,"is_disabled":false,"rental_uris":{"android":"levelo://app?vid=de85ec04-6d78-48b2-91b9-65592c313c39","ios":"levelo://app?vid=de85ec04-6d78-48b2-91b9-65592c313c39"},"vehicle_type_id":"4","last_reported":1778539659,"current_range_meters":6400,"station_id":"ce4bgt12rcd13ifvqcd0","pricing_plan_id":"cebpf4jnsgd1na2vs0mg"},{"bike_id":"0f3f228a-c6a3-4bbf-a9ca-a4998d96400e","system_id":"levelo_inurba_marseille","lat":43.29843,"lon":5.39713,"is_reserved":false,"is_disabled":false,"rental_uris":{"android":"levelo://app?vid=0f3f228a-c6a3-4bbf-a9ca-a4998d96400e","ios":"levelo://app?vid=0f3f228a-c6a3-4bbf-a9ca-a4998d96400e"},"vehicle_type_id":"4","last_reported":1778539659,"current_range_meters":6400,"station_id":"ce4bh0h2rcd13ifvqd50","pricing_plan_id":"cebpf4jnsgd1na2vs0mg"},{"bike_id":"7a719baf-45da-4386-a92f-6deb44393b6e","system_id":"levelo_inurba_marseille","lat":43.292339,"lon":5.360721,"is_reserved":false,"is_disabled":true,"rental_uris":{"android":"levelo://app?vid=7a719baf-45da-4386-a92f-6deb44393b6e","ios":"levelo://app?vid=7a719baf-45da-4386-a92f-6deb44393b6e"},"vehicle_type_id":"4","last_reported":1778539659,"current_range_meters":6400,"station_id":"","pricing_plan_id":"cebpf4jnsgd1na2vs0mg"},{"bike_id":"369803e0-cf2f-4230-a91a-a5b633dc7de3","system_id":"levelo_inurba_marseille","lat":43.33159,"lon":5.37676,"is_reserved":false,"is_disabled":false,"rental_uris":{"android":"levelo://app?vid=369803e0-cf2f-4230-a91a-a5b633dc7de3","ios":"levelo://app?vid=369803e0-cf2f-4230-a91a-a5b633dc7de3"},"vehicle_type_id":"4","last_reported":1778539659,"current_range_meters":6400,"station_id":"st_d46cu089ee8s73dldbu0","pricing_plan_id":"cebpf4jnsgd1na2vs0mg"},{"bike_id":"8aa5b6fe-8d4e-4f93-9a0a-0b58264ad05b","system_id":"levelo_inurba_marseille","lat":43.24767,"lon":5.3742,"is_reserved":false,"is_disabled":false,"rental_uris":{"android":"levelo://app?vid=8aa5b6fe-8d4e-4f93-9a0a-0b58264ad05b","ios":"levelo://app?vid=8aa5b6fe-8d4e-4f93-9a0a-0b58264ad05b"},"vehicle_type_id":"4","last_reported":1778539659,"current_range_meters":6400,"station_id":"ce4bhgh2rcd13ifvqfb0","pricing_plan_id":"cebpf4jnsgd1na2vs0mg"},{"bike_id":"8ca63be4-57b3-4179-8d1f-c116772701a0","system_id":"levelo_inurba_marseille","lat":43.26508,"lon":5.37281,"is_reserved":false,"is_disabled":false,"rental_uris":{"android":"levelo://app?vid=8ca63be4-57b3-4179-8d1f-c116772701a0","ios":"levelo://app?vid=8ca63be4-57b3-4179-8d1f-c116772701a0"},"vehicle_type_id":"4","last_reported":1778539659,"current_range_meters":6400,"station_id":"","pricing_plan_id":"cebpf4jnsgd1na2vs0mg"},{"bike_id":"6181d33e-484a-4a52-a6be-ae717b49d0af","system_id":"levelo_inurba_marseille","lat":43.24647,"lon":5.38893,"is_reserved":false,"is_disabled":false,"rental_uris":{"android":"levelo://app?vid=6181d33e-484a-4a52-a6be-ae717b49d0af","ios":"levelo://app?vid=6181d33e-484a-4a52-a6be-ae717b49d0af"},"vehicle_type_id":"4","last_reported":1778539659,"current_range_meters":6400,"station_id":"ce4bhg12rcd13ifvqf60","pricing_plan_id":"cebpf4jnsgd1na2vs0mg"},{"bike_id":"1b0e1b1b-c207-40ea-866c-31e9f76a16a0","system_id":"levelo_inurba_marseille","lat":43.24658,"lon":5.3889,"is_reserved":false,"is_disabled":false,"rental_uris":{"android":"levelo://app?vid=1b0e1b1b-c207-40ea-866c-31e9f76a16a0","ios":"levelo://app?vid=1b0e1b1b-c207-40ea-866c-31e9f76a16a0"},"vehicle_type_id":"4","last_reported":1778539659,"current_range_meters":6400,"station_id":"ce4bhg12rcd13ifvqf60","pricing_plan_id":"cebpf4jnsgd1na2vs0mg"},{"bike_id":"e3b32efc-f569-4792-8761-60c097854bfa","system_id":"levelo_inurba_marseille","lat":43.29205,"lon":5.42691,"is_reserved":false,"is_disabled":false,"rental_uris":{"android":"levelo://app?vid=e3b32efc-f569-4792-8761-60c097854bfa","ios":"levelo://app?vid=e3b32efc-f569-4792-8761-60c097854bfa"},"vehicle_type_id":"4","last_reported":1778539659,"current_range_meters":6400,"station_id":"","pricing_plan_id":"cebpf4jnsgd1na2vs0mg"},{"bike_id":"b8033c2c-9df9-449a-b9a9-83b803e8eec4","system_id":"levelo_inurba_marseille","lat":43.27824,"lon":5.40662,"is_reserved":false,"is_disabled":false,"rental_uris":{"android":"levelo://app?vid=b8033c2c-9df9-449a-b9a9-83b803e8eec4","ios":"levelo://app?vid=b8033c2c-9df9-449a-b9a9-83b803e8eec4"},"vehicle_type_id":"4","last_reported":1778539659,"current_range_meters":6800,"station_id":"ce4bhnh2rcd13ifvqgtg","pricing_plan_id":"cebpf4jnsgd1na2vs0mg"},{"bike_id":"156918fb-cb75-4935-9555-b962a05276bd","system_id":"levelo_inurba_marseille","lat":43.28437,"lon":5.39197,"is_reserved":false,"is_disabled":false,"rental_uris":{"android":"levelo://app?vid=156918fb-cb75-4935-9555-b962a05276bd","ios":"levelo://app?vid=156918fb-cb75-4935-9555-b962a05276bd"},"vehicle_type_id":"4","last_reported":1778539659,"current_range_meters":6800,"station_id":"ce4bhoh2rcd13ifvqh5g","pricing_plan_id":"cebpf4jnsgd1na2vs0mg"},{"bike_id":"9efa53dc-9801-474a-81e3-4a5968c0efbf","system_id":"levelo_inurba_marseille","lat":43.30303,"lon":5.39206,"is_reserved":false,"is_disabled":false,"rental_uris":{"android":"levelo://app?vid=9efa53dc-9801-474a-81e3-4a5968c0efbf","ios":"levelo://app?vid=9efa53dc-9801-474a-81e3-4a5968c0efbf"},"vehicle_type_id":"4","last_reported":1778539659,"current_range_meters":6800,"station_id":"ce4bgkh2rcd13ifvqbk0","pricing_plan_id":"cebpf4jnsgd1na2vs0mg"},{"bike_id":"ba27d507-fd31-4d07-a98b-23f24f1237a9","system_id":"levelo_inurba_marseille","lat":43.30784,"lon":5.37639,"is_reserved":false,"is_disabled":false,"rental_uris":{"android":"levelo://app?vid=ba27d507-fd31-4d07-a98b-23f24f1237a9","ios":"levelo://app?vid=ba27d507-fd31-4d07-a98b-23f24f1237a9"},"vehicle_type_id":"4","last_reported":1778539659,"current_range_meters":6800,"station_id":"ce4bgv92rcd13ifvqcq0","pricing_plan_id":"cebpf4jnsgd1na2vs0mg"},{"bike_id":"c300b24d-578c-4534-b551-a731de8afa41","system_id":"levelo_inurba_marseille","lat":43.31991,"lon":5.3816,"is_reserved":false,"is_disabled":false,"rental_uris":{"android":"levelo://app?vid=c300b24d-578c-4534-b551-a731de8afa41","ios":"levelo://app?vid=c300b24d-578c-4534-b551-a731de8afa41"},"vehicle_type_id":"4","last_reported":1778539659,"current_range_meters":6800,"station_id":"ce4bhr12rcd13ifvqhpg","pricing_plan_id":"cebpf4jnsgd1na2vs0mg"},{"bike_id":"76d219d6-3cff-4f6a-b1a3-147937784338","system_id":"levelo_inurba_marseille","lat":43.23188,"lon":5.35542,"is_reserved":false,"is_disabled":false,"rental_uris":{"android":"levelo://app?vid=76d219d6-3cff-4f6a-b1a3-147937784338","ios":"levelo://app?vid=76d219d6-3cff-4f6a-b1a3-147937784338"},"vehicle_type_id":"4","last_reported":1778539659,"current_range_meters":6800,"station_id":"ce4bhu92rcd13ifvqi70","pricing_plan_id":"cebpf4jnsgd1na2vs0mg"},{"bike_id":"f99e5b30-6adf-4af6-9228-9ab20336512c","system_id":"levelo_inurba_marseille","lat":43.21749,"lon":5.34598,"is_reserved":false,"is_disabled":true,"rental_uris":{"android":"levelo://app?vid=f99e5b30-6adf-4af6-9228-9ab20336512c","ios":"levelo://app?vid=f99e5b30-6adf-4af6-9228-9ab20336512c"},"vehicle_type_id":"4","last_reported":1778539659,"current_range_meters":6800,"station_id":"st_cvj6r9ubvosntc0bgbag","pricing_plan_id":"cebpf4jnsgd1na2vs0mg"},{"bike_id":"55d3ad68-33a7-46d5-88e6-cc0721164dc9","system_id":"levelo_inurba_marseille","lat":43.23182,"lon":5.39985,"is_reserved":false,"is_disabled":false,"rental_uris":{"android":"levelo://app?vid=55d3ad68-33a7-46d5-88e6-cc0721164dc9","ios":"levelo://app?vid=55d3ad68-33a7-46d5-88e6-cc0721164dc9"},"vehicle_type_id":"4","last_reported":1778539659,"current_range_meters":6800,"station_id":"ce4bhn12rcd13ifvqgqg","pricing_plan_id":"cebpf4jnsgd1na2vs0mg"},{"bike_id":"c601b697-e58d-4b51-bc4b-771cefe7b023","system_id":"levelo_inurba_marseille","lat":43.26229,"lon":5.40453,"is_reserved":false,"is_disabled":false,"rental_uris":{"android":"levelo://app?vid=c601b697-e58d-4b51-bc4b-771cefe7b023","ios":"levelo://app?vid=c601b697-e58d-4b51-bc4b-771cefe7b023"},"vehicle_type_id":"4","last_reported":1778539659,"current_range_meters":6800,"station_id":"ce4bhmh2rcd13ifvqgmg","pricing_plan_id":"cebpf4jnsgd1na2vs0mg"},{"bike_id":"425d0223-c423-4468-bf2d-5543435dfead","system_id":"levelo_inurba_marseille","lat":43.29709,"lon":5.37697,"is_reserved":false,"is_disabled":false,"rental_uris":{"android":"levelo://app?vid=425d0223-c423-4468-bf2d-5543435dfead","ios":"levelo://app?vid=425d0223-c423-4468-bf2d-5543435dfead"},"vehicle_type_id":"4","last_reported":1778539659,"current_range_meters":6800,"station_id":"ce4bgkh2rcd13ifvqbl0","pricing_plan_id":"cebpf4jnsgd1na2vs0mg"},{"bike_id":"77e67e64-352a-4df1-ad85-48c4b6d0b909","system_id":"levelo_inurba_marseille","lat":43.30079,"lon":5.39081,"is_reserved":false,"is_disabled":false,"rental_uris":{"android":"levelo://app?vid=77e67e64-352a-4df1-ad85-48c4b6d0b909","ios":"levelo://app?vid=77e67e64-352a-4df1-ad85-48c4b6d0b909"},"vehicle_type_id":"4","last_reported":1778539659,"current_range_meters":6800,"station_id":"ce4bh192rcd13ifvqdb0","pricing_plan_id":"cebpf4jnsgd1na2vs0mg"},{"bike_id":"129d0912-fd4c-402b-842c-f5ac2ec55e6e","system_id":"levelo_inurba_marseille","lat":43.2847,"lon":5.48384,"is_reserved":false,"is_disabled":false,"rental_uris":{"android":"levelo://app?vid=129d0912-fd4c-402b-842c-f5ac2ec55e6e","ios":"levelo://app?vid=129d0912-fd4c-402b-842c-f5ac2ec55e6e"},"vehicle_type_id":"4","last_reported":1778539659,"current_range_meters":6800,"station_id":"","pricing_plan_id":"cebpf4jnsgd1na2vs0mg"},{"bike_id":"470ef88b-94b1-44d7-8e67-14e6764e76f0","system_id":"levelo_inurba_marseille","lat":43.28706,"lon":5.39977,"is_reserved":false,"is_disabled":true,"rental_uris":{"android":"levelo://app?vid=470ef88b-94b1-44d7-8e67-14e6764e76f0","ios":"levelo://app?vid=470ef88b-94b1-44d7-8e67-14e6764e76f0"},"vehicle_type_id":"4","last_reported":1778539659,"current_range_meters":7200,"station_id":"ce4bho92rcd13ifvqh3g","pricing_plan_id":"cebpf4jnsgd1na2vs0mg"},{"bike_id":"002d1676-a704-4135-b245-6c297a5aed56","system_id":"levelo_inurba_marseille","lat":43.2417,"lon":5.36403,"is_reserved":false,"is_disabled":false,"rental_uris":{"android":"levelo://app?vid=002d1676-a704-4135-b245-6c297a5aed56","ios":"levelo://app?vid=002d1676-a704-4135-b245-6c297a5aed56"},"vehicle_type_id":"4","last_reported":1778539659,"current_range_meters":7200,"station_id":"cpo36qri1sfpv3e86is0","pricing_plan_id":"cebpf4jnsgd1na2vs0mg"},{"bike_id":"bc8b4f62-757f-4f86-badb-a2ea4e2c51d1","system_id":"levelo_inurba_marseille","lat":43.31349,"lon":5.38489,"is_reserved":false,"is_disabled":false,"rental_uris":{"android":"levelo://app?vid=bc8b4f62-757f-4f86-badb-a2ea4e2c51d1","ios":"levelo://app?vid=bc8b4f62-757f-4f86-badb-a2ea4e2c51d1"},"vehicle_type_id":"4","last_reported":1778539659,"current_range_meters":7200,"station_id":"ce4bgt92rcd13ifvqcf0","pricing_plan_id":"cebpf4jnsgd1na2vs0mg"},{"bike_id":"34f6fe7f-67fe-471a-b268-63379cb50f78","system_id":"levelo_inurba_marseille","lat":43.29269,"lon":5.40127,"is_reserved":false,"is_disabled":false,"rental_uris":{"android":"levelo://app?vid=34f6fe7f-67fe-471a-b268-63379cb50f78","ios":"levelo://app?vid=34f6fe7f-67fe-471a-b268-63379cb50f78"},"vehicle_type_id":"4","last_reported":1778539659,"current_range_meters":7200,"station_id":"ce4bh312rcd13ifvqdk0","pricing_plan_id":"cebpf4jnsgd1na2vs0mg"},{"bike_id":"d865f9a0-14b6-46bd-bba4-d835d1328292","system_id":"levelo_inurba_marseille","lat":43.3118,"lon":5.38692,"is_reserved":false,"is_disabled":true,"rental_uris":{"android":"levelo://app?vid=d865f9a0-14b6-46bd-bba4-d835d1328292","ios":"levelo://app?vid=d865f9a0-14b6-46bd-bba4-d835d1328292"},"vehicle_type_id":"4","last_reported":1778539659,"current_range_meters":7200,"station_id":"ce4bgv12rcd13ifvqcp0","pricing_plan_id":"cebpf4jnsgd1na2vs0mg"},{"bike_id":"6de0e23b-f633-4726-b40d-a9bec32abe76","system_id":"levelo_inurba_marseille","lat":43.2996,"lon":5.37175,"is_reserved":false,"is_disabled":false,"rental_uris":{"android":"levelo://app?vid=6de0e23b-f633-4726-b40d-a9bec32abe76","ios":"levelo://app?vid=6de0e23b-f633-4726-b40d-a9bec32abe76"},"vehicle_type_id":"4","last_reported":1778539659,"current_range_meters":7200,"station_id":"ce4bgr92rcd13ifvqc7g","pricing_plan_id":"cebpf4jnsgd1na2vs0mg"},{"bike_id":"f08fd671-6039-42d3-9555-565586ddb900","system_id":"levelo_inurba_marseille","lat":43.23189,"lon":5.35558,"is_reserved":false,"is_disabled":false,"rental_uris":{"android":"levelo://app?vid=f08fd671-6039-42d3-9555-565586ddb900","ios":"levelo://app?vid=f08fd671-6039-42d3-9555-565586ddb900"},"vehicle_type_id":"4","last_reported":1778539659,"current_range_meters":7200,"station_id":"ce4bhu92rcd13ifvqi70","pricing_plan_id":"cebpf4jnsgd1na2vs0mg"},{"bike_id":"03243661-1970-4f28-b56e-9db07bbc888f","system_id":"levelo_inurba_marseille","lat":43.24654,"lon":5.38163,"is_reserved":false,"is_disabled":false,"rental_uris":{"android":"levelo://app?vid=03243661-1970-4f28-b56e-9db07bbc888f","ios":"levelo://app?vid=03243661-1970-4f28-b56e-9db07bbc888f"},"vehicle_type_id":"4","last_reported":1778539659,"current_range_meters":7200,"station_id":"ce4bhih2rcd13ifvqfr0","pricing_plan_id":"cebpf4jnsgd1na2vs0mg"},{"bike_id":"2ee209a1-9d1d-4e9e-9774-87571da52929","system_id":"levelo_inurba_marseille","lat":43.21189,"lon":5.35085,"is_reserved":false,"is_disabled":false,"rental_uris":{"android":"levelo://app?vid=2ee209a1-9d1d-4e9e-9774-87571da52929","ios":"levelo://app?vid=2ee209a1-9d1d-4e9e-9774-87571da52929"},"vehicle_type_id":"4","last_reported":1778539659,"current_range_meters":7200,"station_id":"st_cvj6sg6p6f1abm77japg","pricing_plan_id":"cebpf4jnsgd1na2vs0mg"},{"bike_id":"e3d48c51-85e4-4b6d-b7c1-f20ce3f52cda","system_id":"levelo_inurba_marseille","lat":43.29704,"lon":5.36615,"is_reserved":false,"is_disabled":false,"rental_uris":{"android":"levelo://app?vid=e3d48c51-85e4-4b6d-b7c1-f20ce3f52cda","ios":"levelo://app?vid=e3d48c51-85e4-4b6d-b7c1-f20ce3f52cda"},"vehicle_type_id":"4","last_reported":1778539659,"current_range_meters":7200,"station_id":"ce4bgn12rcd13ifvqbt0","pricing_plan_id":"cebpf4jnsgd1na2vs0mg"},{"bike_id":"0cd47256-0720-4759-bfd6-176875a52e3c","system_id":"levelo_inurba_marseille","lat":43.24666,"lon":5.38162,"is_reserved":false,"is_disabled":false,"rental_uris":{"android":"levelo://app?vid=0cd47256-0720-4759-bfd6-176875a52e3c","ios":"levelo://app?vid=0cd47256-0720-4759-bfd6-176875a52e3c"},"vehicle_type_id":"4","last_reported":1778539659,"current_range_meters":7200,"station_id":"ce4bhih2rcd13ifvqfr0","pricing_plan_id":"cebpf4jnsgd1na2vs0mg"},{"bike_id":"6183e839-ec28-456f-a69f-f053218db751","system_id":"levelo_inurba_marseille","lat":43.28448,"lon":5.3589,"is_reserved":false,"is_disabled":false,"rental_uris":{"android":"levelo://app?vid=6183e839-ec28-456f-a69f-f053218db751","ios":"levelo://app?vid=6183e839-ec28-456f-a69f-f053218db751"},"vehicle_type_id":"4","last_reported":1778539659,"current_range_meters":7200,"station_id":"ce4bhah2rcd13ifvqei0","pricing_plan_id":"cebpf4jnsgd1na2vs0mg"},{"bike_id":"ec52d4cf-f8c9-43d9-9271-a432f86aa150","system_id":"levelo_inurba_marseille","lat":43.23143,"lon":5.43704,"is_reserved":false,"is_disabled":false,"rental_uris":{"android":"levelo://app?vid=ec52d4cf-f8c9-43d9-9271-a432f86aa150","ios":"levelo://app?vid=ec52d4cf-f8c9-43d9-9271-a432f86aa150"},"vehicle_type_id":"4","last_reported":1778539659,"current_range_meters":7200,"station_id":"ce4bhmp2rcd13ifvqgog","pricing_plan_id":"cebpf4jnsgd1na2vs0mg"},{"bike_id":"757c9eff-7d21-4593-961f-cd540aa2215f","system_id":"levelo_inurba_marseille","lat":43.3089,"lon":5.37211,"is_reserved":false,"is_disabled":false,"rental_uris":{"android":"levelo://app?vid=757c9eff-7d21-4593-961f-cd540aa2215f","ios":"levelo://app?vid=757c9eff-7d21-4593-961f-cd540aa2215f"},"vehicle_type_id":"4","last_reported":1778539659,"current_range_meters":7200,"station_id":"ce4bguh2rcd13ifvqckg","pricing_plan_id":"cebpf4jnsgd1na2vs0mg"},{"bike_id":"a0130f1b-ce31-44b6-bbce-189c0edcff68","system_id":"levelo_inurba_marseille","lat":43.304573,"lon":5.379063,"is_reserved":false,"is_disabled":true,"rental_uris":{"android":"levelo://app?vid=a0130f1b-ce31-44b6-bbce-189c0edcff68","ios":"levelo://app?vid=a0130f1b-ce31-44b6-bbce-189c0edcff68"},"vehicle_type_id":"4","last_reported":1778539659,"current_range_meters":7200,"station_id":"ce4bgup2rcd13ifvqcn0","pricing_plan_id":"cebpf4jnsgd1na2vs0mg"},{"bike_id":"dcda7641-d298-4074-ba99-bfe057f1ffd7","system_id":"levelo_inurba_marseille","lat":43.26559,"lon":5.37267,"is_reserved":false,"is_disabled":false,"rental_uris":{"android":"levelo://app?vid=dcda7641-d298-4074-ba99-bfe057f1ffd7","ios":"levelo://app?vid=dcda7641-d298-4074-ba99-bfe057f1ffd7"},"vehicle_type_id":"4","last_reported":1778539659,"current_range_meters":7200,"station_id":"ce4bhg12rcd13ifvqf70","pricing_plan_id":"cebpf4jnsgd1na2vs0mg"},{"bike_id":"de15025b-6ccd-4c02-a679-94e68edc9c98","system_id":"levelo_inurba_marseille","lat":43.28789,"lon":5.42422,"is_reserved":false,"is_disabled":false,"rental_uris":{"android":"levelo://app?vid=de15025b-6ccd-4c02-a679-94e68edc9c98","ios":"levelo://app?vid=de15025b-6ccd-4c02-a679-94e68edc9c98"},"vehicle_type_id":"4","last_reported":1778539659,"current_range_meters":7200,"station_id":"","pricing_plan_id":"cebpf4jnsgd1na2vs0mg"},{"bike_id":"8fda15f4-4d05-4cf7-a767-45b8d7531dc1","system_id":"levelo_inurba_marseille","lat":43.21753,"lon":5.34592,"is_reserved":false,"is_disabled":false,"rental_uris":{"android":"levelo://app?vid=8fda15f4-4d05-4cf7-a767-45b8d7531dc1","ios":"levelo://app?vid=8fda15f4-4d05-4cf7-a767-45b8d7531dc1"},"vehicle_type_id":"4","last_reported":1778539659,"current_range_meters":7200,"station_id":"st_cvj6r9ubvosntc0bgbag","pricing_plan_id":"cebpf4jnsgd1na2vs0mg"},{"bike_id":"0709f743-ed7e-4881-9369-dbdf806338e4","system_id":"levelo_inurba_marseille","lat":43.33016,"lon":5.39035,"is_reserved":false,"is_disabled":false,"rental_uris":{"android":"levelo://app?vid=0709f743-ed7e-4881-9369-dbdf806338e4","ios":"levelo://app?vid=0709f743-ed7e-4881-9369-dbdf806338e4"},"vehicle_type_id":"4","last_reported":1778539659,"current_range_meters":7200,"station_id":"ce4bhr92rcd13ifvqhrg","pricing_plan_id":"cebpf4jnsgd1na2vs0mg"},{"bike_id":"0e403d26-ae81-44fb-ab96-f3110fa1a174","system_id":"levelo_inurba_marseille","lat":43.26559,"lon":5.39003,"is_reserved":false,"is_disabled":true,"rental_uris":{"android":"levelo://app?vid=0e403d26-ae81-44fb-ab96-f3110fa1a174","ios":"levelo://app?vid=0e403d26-ae81-44fb-ab96-f3110fa1a174"},"vehicle_type_id":"4","last_reported":1778539659,"current_range_meters":8000,"station_id":"ce4bhe12rcd13ifvqf30","pricing_plan_id":"cebpf4jnsgd1na2vs0mg"},{"bike_id":"d17e6582-43ff-45e2-b2c7-bca32efc83d9","system_id":"levelo_inurba_marseille","lat":43.26222,"lon":5.38777,"is_reserved":false,"is_disabled":false,"rental_uris":{"android":"levelo://app?vid=d17e6582-43ff-45e2-b2c7-bca32efc83d9","ios":"levelo://app?vid=d17e6582-43ff-45e2-b2c7-bca32efc83d9"},"vehicle_type_id":"4","last_reported":1778539659,"current_range_meters":8000,"station_id":"","pricing_plan_id":"cebpf4jnsgd1na2vs0mg"},{"bike_id":"6687113e-3a7a-46e3-867b-b9b5b727b9e3","system_id":"levelo_inurba_marseille","lat":43.29714,"lon":5.36614,"is_reserved":false,"is_disabled":true,"rental_uris":{"android":"levelo://app?vid=6687113e-3a7a-46e3-867b-b9b5b727b9e3","ios":"levelo://app?vid=6687113e-3a7a-46e3-867b-b9b5b727b9e3"},"vehicle_type_id":"4","last_reported":1778539659,"current_range_meters":8000,"station_id":"ce4bgn12rcd13ifvqbt0","pricing_plan_id":"cebpf4jnsgd1na2vs0mg"},{"bike_id":"7cbde63b-f390-4c0a-a252-bfa12bc48a0e","system_id":"levelo_inurba_marseille","lat":43.30421,"lon":5.39745,"is_reserved":false,"is_disabled":false,"rental_uris":{"android":"levelo://app?vid=7cbde63b-f390-4c0a-a252-bfa12bc48a0e","ios":"levelo://app?vid=7cbde63b-f390-4c0a-a252-bfa12bc48a0e"},"vehicle_type_id":"4","last_reported":1778539659,"current_range_meters":8000,"station_id":"ce4bh092rcd13ifvqd20","pricing_plan_id":"cebpf4jnsgd1na2vs0mg"},{"bike_id":"ce8907b4-95ae-4cb1-8ed0-698c7f370c57","system_id":"levelo_inurba_marseille","lat":43.28158,"lon":5.4262,"is_reserved":false,"is_disabled":false,"rental_uris":{"android":"levelo://app?vid=ce8907b4-95ae-4cb1-8ed0-698c7f370c57","ios":"levelo://app?vid=ce8907b4-95ae-4cb1-8ed0-698c7f370c57"},"vehicle_type_id":"4","last_reported":1778539659,"current_range_meters":8000,"station_id":"ce4bhnh2rcd13ifvqgug","pricing_plan_id":"cebpf4jnsgd1na2vs0mg"},{"bike_id":"791c74b2-cd78-47b0-86de-d73597579821","system_id":"levelo_inurba_marseille","lat":43.29579,"lon":5.37522,"is_reserved":false,"is_disabled":true,"rental_uris":{"android":"levelo://app?vid=791c74b2-cd78-47b0-86de-d73597579821","ios":"levelo://app?vid=791c74b2-cd78-47b0-86de-d73597579821"},"vehicle_type_id":"4","last_reported":1778539659,"current_range_meters":8000,"station_id":"ce4bgh92rcd13ifvqb50","pricing_plan_id":"cebpf4jnsgd1na2vs0mg"},{"bike_id":"1f9561d8-586e-48b6-8f59-b32daf0821a8","system_id":"levelo_inurba_marseille","lat":43.28702,"lon":5.4668,"is_reserved":false,"is_disabled":false,"rental_uris":{"android":"levelo://app?vid=1f9561d8-586e-48b6-8f59-b32daf0821a8","ios":"levelo://app?vid=1f9561d8-586e-48b6-8f59-b32daf0821a8"},"vehicle_type_id":"4","last_reported":1778539659,"current_range_meters":8000,"station_id":"st_d6tc3vkotcvc738tfjhg","pricing_plan_id":"cebpf4jnsgd1na2vs0mg"},{"bike_id":"3f98417d-62a3-47b4-b263-8215a81bd04c","system_id":"levelo_inurba_marseille","lat":43.23788,"lon":5.36547,"is_reserved":false,"is_disabled":true,"rental_uris":{"android":"levelo://app?vid=3f98417d-62a3-47b4-b263-8215a81bd04c","ios":"levelo://app?vid=3f98417d-62a3-47b4-b263-8215a81bd04c"},"vehicle_type_id":"4","last_reported":1778539659,"current_range_meters":8000,"station_id":"","pricing_plan_id":"cebpf4jnsgd1na2vs0mg"},{"bike_id":"7e89e018-ddd4-468d-81d5-1acd2ea7bb7d","system_id":"levelo_inurba_marseille","lat":43.28608,"lon":5.39874,"is_reserved":false,"is_disabled":false,"rental_uris":{"android":"levelo://app?vid=7e89e018-ddd4-468d-81d5-1acd2ea7bb7d","ios":"levelo://app?vid=7e89e018-ddd4-468d-81d5-1acd2ea7bb7d"},"vehicle_type_id":"4","last_reported":1778539659,"current_range_meters":8000,"station_id":"st_d4a7ka997mjs738ck50g","pricing_plan_id":"cebpf4jnsgd1na2vs0mg"},{"bike_id":"b06dc624-9d1b-44bd-b8d1-2da3c164f736","system_id":"levelo_inurba_marseille","lat":43.3049,"lon":5.45989,"is_reserved":false,"is_disabled":false,"rental_uris":{"android":"levelo://app?vid=b06dc624-9d1b-44bd-b8d1-2da3c164f736","ios":"levelo://app?vid=b06dc624-9d1b-44bd-b8d1-2da3c164f736"},"vehicle_type_id":"4","last_reported":1778539659,"current_range_meters":8000,"station_id":"","pricing_plan_id":"cebpf4jnsgd1na2vs0mg"},{"bike_id":"61ac7924-aeac-4897-90c0-0c4217d06809","system_id":"levelo_inurba_marseille","lat":43.28933,"lon":5.36616,"is_reserved":false,"is_disabled":false,"rental_uris":{"android":"levelo://app?vid=61ac7924-aeac-4897-90c0-0c4217d06809","ios":"levelo://app?vid=61ac7924-aeac-4897-90c0-0c4217d06809"},"vehicle_type_id":"4","last_reported":1778539659,"current_range_meters":8000,"station_id":"ce4bhap2rcd13ifvqek0","pricing_plan_id":"cebpf4jnsgd1na2vs0mg"},{"bike_id":"5606f503-0164-4e86-8fc3-c5456beb6dcf","system_id":"levelo_inurba_marseille","lat":43.28574,"lon":5.39474,"is_reserved":false,"is_disabled":false,"rental_uris":{"android":"levelo://app?vid=5606f503-0164-4e86-8fc3-c5456beb6dcf","ios":"levelo://app?vid=5606f503-0164-4e86-8fc3-c5456beb6dcf"},"vehicle_type_id":"4","last_reported":1778539659,"current_range_meters":8000,"station_id":"ce4bh292rcd13ifvqdg0","pricing_plan_id":"cebpf4jnsgd1na2vs0mg"},{"bike_id":"d0823b7c-018c-49ab-9f02-6e77743233c6","system_id":"levelo_inurba_marseille","lat":43.24879,"lon":5.39106,"is_reserved":false,"is_disabled":false,"rental_uris":{"android":"levelo://app?vid=d0823b7c-018c-49ab-9f02-6e77743233c6","ios":"levelo://app?vid=d0823b7c-018c-49ab-9f02-6e77743233c6"},"vehicle_type_id":"4","last_reported":1778539659,"current_range_meters":8000,"station_id":"","pricing_plan_id":"cebpf4jnsgd1na2vs0mg"},{"bike_id":"eb1c057e-e140-42d0-aee5-bd6e1cccb573","system_id":"levelo_inurba_marseille","lat":43.31903,"lon":5.40922,"is_reserved":false,"is_disabled":false,"rental_uris":{"android":"levelo://app?vid=eb1c057e-e140-42d0-aee5-bd6e1cccb573","ios":"levelo://app?vid=eb1c057e-e140-42d0-aee5-bd6e1cccb573"},"vehicle_type_id":"4","last_reported":1778539659,"current_range_meters":8000,"station_id":"","pricing_plan_id":"cebpf4jnsgd1na2vs0mg"},{"bike_id":"2e7c82a1-ebde-4844-87df-982fa0fc9004","system_id":"levelo_inurba_marseille","lat":43.2441,"lon":5.37412,"is_reserved":false,"is_disabled":false,"rental_uris":{"android":"levelo://app?vid=2e7c82a1-ebde-4844-87df-982fa0fc9004","ios":"levelo://app?vid=2e7c82a1-ebde-4844-87df-982fa0fc9004"},"vehicle_type_id":"4","last_reported":1778539659,"current_range_meters":8000,"station_id":"","pricing_plan_id":"cebpf4jnsgd1na2vs0mg"},{"bike_id":"1fe8397d-8c37-465c-baf5-6eefeccfaa2d","system_id":"levelo_inurba_marseille","lat":43.29519,"lon":5.39034,"is_reserved":false,"is_disabled":false,"rental_uris":{"android":"levelo://app?vid=1fe8397d-8c37-465c-baf5-6eefeccfaa2d","ios":"levelo://app?vid=1fe8397d-8c37-465c-baf5-6eefeccfaa2d"},"vehicle_type_id":"4","last_reported":1778539659,"current_range_meters":8000,"station_id":"ce4bh3p2rcd13ifvqdp0","pricing_plan_id":"cebpf4jnsgd1na2vs0mg"},{"bike_id":"114c105e-250c-47ca-94cc-81a4b8877229","system_id":"levelo_inurba_marseille","lat":43.29886,"lon":5.38903,"is_reserved":false,"is_disabled":false,"rental_uris":{"android":"levelo://app?vid=114c105e-250c-47ca-94cc-81a4b8877229","ios":"levelo://app?vid=114c105e-250c-47ca-94cc-81a4b8877229"},"vehicle_type_id":"4","last_reported":1778539659,"current_range_meters":8000,"station_id":"ce4bh392rcd13ifvqdl0","pricing_plan_id":"cebpf4jnsgd1na2vs0mg"},{"bike_id":"ef6e0b4a-caf0-4363-9dc0-ad5518c23617","system_id":"levelo_inurba_marseille","lat":43.28475,"lon":5.48387,"is_reserved":false,"is_disabled":false,"rental_uris":{"android":"levelo://app?vid=ef6e0b4a-caf0-4363-9dc0-ad5518c23617","ios":"levelo://app?vid=ef6e0b4a-caf0-4363-9dc0-ad5518c23617"},"vehicle_type_id":"4","last_reported":1778539659,"current_range_meters":8000,"station_id":"","pricing_plan_id":"cebpf4jnsgd1na2vs0mg"},{"bike_id":"89057c05-c72e-4f5a-a0db-f5b7c4f54905","system_id":"levelo_inurba_marseille","lat":43.27937,"lon":5.41014,"is_reserved":false,"is_disabled":true,"rental_uris":{"android":"levelo://app?vid=89057c05-c72e-4f5a-a0db-f5b7c4f54905","ios":"levelo://app?vid=89057c05-c72e-4f5a-a0db-f5b7c4f54905"},"vehicle_type_id":"4","last_reported":1778539659,"current_range_meters":8000,"station_id":"ce4bhnp2rcd13ifvqh0g","pricing_plan_id":"cebpf4jnsgd1na2vs0mg"},{"bike_id":"b819c1c5-b6eb-40d8-a056-bf8c9ecdbccf","system_id":"levelo_inurba_marseille","lat":43.30259,"lon":5.4007,"is_reserved":false,"is_disabled":false,"rental_uris":{"android":"levelo://app?vid=b819c1c5-b6eb-40d8-a056-bf8c9ecdbccf","ios":"levelo://app?vid=b819c1c5-b6eb-40d8-a056-bf8c9ecdbccf"},"vehicle_type_id":"4","last_reported":1778539659,"current_range_meters":8000,"station_id":"ce4bgvh2rcd13ifvqcs0","pricing_plan_id":"cebpf4jnsgd1na2vs0mg"},{"bike_id":"465e5bed-9455-4a32-a2fa-e10bfe97aff2","system_id":"levelo_inurba_marseille","lat":43.29787,"lon":5.39358,"is_reserved":false,"is_disabled":false,"rental_uris":{"android":"levelo://app?vid=465e5bed-9455-4a32-a2fa-e10bfe97aff2","ios":"levelo://app?vid=465e5bed-9455-4a32-a2fa-e10bfe97aff2"},"vehicle_type_id":"4","last_reported":1778539659,"current_range_meters":8000,"station_id":"chh1huq6cuj3fo74tm60","pricing_plan_id":"cebpf4jnsgd1na2vs0mg"},{"bike_id":"61422a91-b589-44ee-92e6-4d7f506c0fd1","system_id":"levelo_inurba_marseille","lat":43.24675,"lon":5.38138,"is_reserved":false,"is_disabled":false,"rental_uris":{"android":"levelo://app?vid=61422a91-b589-44ee-92e6-4d7f506c0fd1","ios":"levelo://app?vid=61422a91-b589-44ee-92e6-4d7f506c0fd1"},"vehicle_type_id":"4","last_reported":1778539659,"current_range_meters":8000,"station_id":"ce4bhih2rcd13ifvqfr0","pricing_plan_id":"cebpf4jnsgd1na2vs0mg"},{"bike_id":"df0de1d8-a8c1-4636-b2dd-0b5a7aa223f0","system_id":"levelo_inurba_marseille","lat":43.25096,"lon":5.39498,"is_reserved":false,"is_disabled":false,"rental_uris":{"android":"levelo://app?vid=df0de1d8-a8c1-4636-b2dd-0b5a7aa223f0","ios":"levelo://app?vid=df0de1d8-a8c1-4636-b2dd-0b5a7aa223f0"},"vehicle_type_id":"4","last_reported":1778539659,"current_range_meters":8000,"station_id":"ce4bhm12rcd13ifvqgkg","pricing_plan_id":"cebpf4jnsgd1na2vs0mg"},{"bike_id":"b78c1f4d-2c5a-4df1-935f-54d3bc96c292","system_id":"levelo_inurba_marseille","lat":43.282289,"lon":5.390728,"is_reserved":false,"is_disabled":false,"rental_uris":{"android":"levelo://app?vid=b78c1f4d-2c5a-4df1-935f-54d3bc96c292","ios":"levelo://app?vid=b78c1f4d-2c5a-4df1-935f-54d3bc96c292"},"vehicle_type_id":"4","last_reported":1778539659,"current_range_meters":8000,"station_id":"ce4bhn92rcd13ifvqgsg","pricing_plan_id":"cebpf4jnsgd1na2vs0mg"},{"bike_id":"8e4b050e-78bc-4587-a179-01ce687f4825","system_id":"levelo_inurba_marseille","lat":43.2465,"lon":5.38958,"is_reserved":false,"is_disabled":false,"rental_uris":{"android":"levelo://app?vid=8e4b050e-78bc-4587-a179-01ce687f4825","ios":"levelo://app?vid=8e4b050e-78bc-4587-a179-01ce687f4825"},"vehicle_type_id":"4","last_reported":1778539659,"current_range_meters":8000,"station_id":"ce4bhg12rcd13ifvqf60","pricing_plan_id":"cebpf4jnsgd1na2vs0mg"},{"bike_id":"4bd356ab-895c-4740-9d62-f191e4a3c2eb","system_id":"levelo_inurba_marseille","lat":43.28156,"lon":5.42631,"is_reserved":false,"is_disabled":false,"rental_uris":{"android":"levelo://app?vid=4bd356ab-895c-4740-9d62-f191e4a3c2eb","ios":"levelo://app?vid=4bd356ab-895c-4740-9d62-f191e4a3c2eb"},"vehicle_type_id":"4","last_reported":1778539659,"current_range_meters":8000,"station_id":"ce4bhnh2rcd13ifvqgug","pricing_plan_id":"cebpf4jnsgd1na2vs0mg"},{"bike_id":"aec2d3bd-8cd4-45ff-8878-9c7039eeb6b6","system_id":"levelo_inurba_marseille","lat":43.2953,"lon":5.39037,"is_reserved":false,"is_disabled":false,"rental_uris":{"android":"levelo://app?vid=aec2d3bd-8cd4-45ff-8878-9c7039eeb6b6","ios":"levelo://app?vid=aec2d3bd-8cd4-45ff-8878-9c7039eeb6b6"},"vehicle_type_id":"4","last_reported":1778539659,"current_range_meters":8000,"station_id":"ce4bh3p2rcd13ifvqdp0","pricing_plan_id":"cebpf4jnsgd1na2vs0mg"},{"bike_id":"844cf3d0-13ff-4c48-b2d9-59e18a292a73","system_id":"levelo_inurba_marseille","lat":43.26215,"lon":5.40422,"is_reserved":false,"is_disabled":false,"rental_uris":{"android":"levelo://app?vid=844cf3d0-13ff-4c48-b2d9-59e18a292a73","ios":"levelo://app?vid=844cf3d0-13ff-4c48-b2d9-59e18a292a73"},"vehicle_type_id":"4","last_reported":1778539659,"current_range_meters":8000,"station_id":"ce4bhmh2rcd13ifvqgmg","pricing_plan_id":"cebpf4jnsgd1na2vs0mg"},{"bike_id":"914b94a4-bf59-4af5-993a-5a5d7a6154fb","system_id":"levelo_inurba_marseille","lat":43.31765,"lon":5.39014,"is_reserved":false,"is_disabled":false,"rental_uris":{"android":"levelo://app?vid=914b94a4-bf59-4af5-993a-5a5d7a6154fb","ios":"levelo://app?vid=914b94a4-bf59-4af5-993a-5a5d7a6154fb"},"vehicle_type_id":"4","last_reported":1778539659,"current_range_meters":8000,"station_id":"ce4bhqp2rcd13ifvqhng","pricing_plan_id":"cebpf4jnsgd1na2vs0mg"},{"bike_id":"b4643069-1bba-49d7-9f54-c382b88be3c1","system_id":"levelo_inurba_marseille","lat":43.28398,"lon":5.37509,"is_reserved":false,"is_disabled":false,"rental_uris":{"android":"levelo://app?vid=b4643069-1bba-49d7-9f54-c382b88be3c1","ios":"levelo://app?vid=b4643069-1bba-49d7-9f54-c382b88be3c1"},"vehicle_type_id":"4","last_reported":1778539659,"current_range_meters":8400,"station_id":"ce4bh412rcd13ifvqds0","pricing_plan_id":"cebpf4jnsgd1na2vs0mg"},{"bike_id":"6404d429-d7aa-4fe1-9b5b-cee756c89926","system_id":"levelo_inurba_marseille","lat":43.24652,"lon":5.38144,"is_reserved":false,"is_disabled":false,"rental_uris":{"android":"levelo://app?vid=6404d429-d7aa-4fe1-9b5b-cee756c89926","ios":"levelo://app?vid=6404d429-d7aa-4fe1-9b5b-cee756c89926"},"vehicle_type_id":"4","last_reported":1778539659,"current_range_meters":8400,"station_id":"ce4bhih2rcd13ifvqfr0","pricing_plan_id":"cebpf4jnsgd1na2vs0mg"},{"bike_id":"e3785dea-f699-4ef5-adf5-27138181cbf5","system_id":"levelo_inurba_marseille","lat":43.27544,"lon":5.35912,"is_reserved":false,"is_disabled":false,"rental_uris":{"android":"levelo://app?vid=e3785dea-f699-4ef5-adf5-27138181cbf5","ios":"levelo://app?vid=e3785dea-f699-4ef5-adf5-27138181cbf5"},"vehicle_type_id":"4","last_reported":1778539659,"current_range_meters":8400,"station_id":"","pricing_plan_id":"cebpf4jnsgd1na2vs0mg"},{"bike_id":"5c9db42e-23ec-4934-97f2-f98ed3d293c4","system_id":"levelo_inurba_marseille","lat":43.25082,"lon":5.39514,"is_reserved":false,"is_disabled":false,"rental_uris":{"android":"levelo://app?vid=5c9db42e-23ec-4934-97f2-f98ed3d293c4","ios":"levelo://app?vid=5c9db42e-23ec-4934-97f2-f98ed3d293c4"},"vehicle_type_id":"4","last_reported":1778539659,"current_range_meters":8400,"station_id":"","pricing_plan_id":"cebpf4jnsgd1na2vs0mg"},{"bike_id":"edf25fb2-d0c5-42f9-bc52-289e8f127e3e","system_id":"levelo_inurba_marseille","lat":43.29528,"lon":5.38538,"is_reserved":false,"is_disabled":false,"rental_uris":{"android":"levelo://app?vid=edf25fb2-d0c5-42f9-bc52-289e8f127e3e","ios":"levelo://app?vid=edf25fb2-d0c5-42f9-bc52-289e8f127e3e"},"vehicle_type_id":"4","last_reported":1778539659,"current_range_meters":8400,"station_id":"ce4bgih2rcd13ifvqba0","pricing_plan_id":"cebpf4jnsgd1na2vs0mg"},{"bike_id":"218bc16b-7428-40af-a549-c9b8a851dde3","system_id":"levelo_inurba_marseille","lat":43.27993,"lon":5.41662,"is_reserved":false,"is_disabled":false,"rental_uris":{"android":"levelo://app?vid=218bc16b-7428-40af-a549-c9b8a851dde3","ios":"levelo://app?vid=218bc16b-7428-40af-a549-c9b8a851dde3"},"vehicle_type_id":"4","last_reported":1778539659,"current_range_meters":8400,"station_id":"ce4bho12rcd13ifvqh1g","pricing_plan_id":"cebpf4jnsgd1na2vs0mg"},{"bike_id":"78a9a63d-bfc5-417b-ba0a-b36a92d8cc91","system_id":"levelo_inurba_marseille","lat":43.24814,"lon":5.37465,"is_reserved":false,"is_disabled":false,"rental_uris":{"android":"levelo://app?vid=78a9a63d-bfc5-417b-ba0a-b36a92d8cc91","ios":"levelo://app?vid=78a9a63d-bfc5-417b-ba0a-b36a92d8cc91"},"vehicle_type_id":"4","last_reported":1778539659,"current_range_meters":8400,"station_id":"ce4bhgh2rcd13ifvqfb0","pricing_plan_id":"cebpf4jnsgd1na2vs0mg"},{"bike_id":"6763b0b4-a7d8-410f-aaf8-3fadc4644b7c","system_id":"levelo_inurba_marseille","lat":43.29236,"lon":5.39936,"is_reserved":false,"is_disabled":false,"rental_uris":{"android":"levelo://app?vid=6763b0b4-a7d8-410f-aaf8-3fadc4644b7c","ios":"levelo://app?vid=6763b0b4-a7d8-410f-aaf8-3fadc4644b7c"},"vehicle_type_id":"4","last_reported":1778539659,"current_range_meters":8400,"station_id":"ce4bh312rcd13ifvqdk0","pricing_plan_id":"cebpf4jnsgd1na2vs0mg"},{"bike_id":"d9c00e07-0ccb-44d3-98b5-661f91cd1af0","system_id":"levelo_inurba_marseille","lat":43.24792,"lon":5.3745,"is_reserved":false,"is_disabled":false,"rental_uris":{"android":"levelo://app?vid=d9c00e07-0ccb-44d3-98b5-661f91cd1af0","ios":"levelo://app?vid=d9c00e07-0ccb-44d3-98b5-661f91cd1af0"},"vehicle_type_id":"4","last_reported":1778539659,"current_range_meters":8400,"station_id":"ce4bhgh2rcd13ifvqfb0","pricing_plan_id":"cebpf4jnsgd1na2vs0mg"},{"bike_id":"29bfbd1c-5438-4fe1-8f5e-21c75f0f87df","system_id":"levelo_inurba_marseille","lat":43.31065,"lon":5.3679,"is_reserved":false,"is_disabled":true,"rental_uris":{"android":"levelo://app?vid=29bfbd1c-5438-4fe1-8f5e-21c75f0f87df","ios":"levelo://app?vid=29bfbd1c-5438-4fe1-8f5e-21c75f0f87df"},"vehicle_type_id":"4","last_reported":1778539659,"current_range_meters":8400,"station_id":"ce4bgl92rcd13ifvqbq0","pricing_plan_id":"cebpf4jnsgd1na2vs0mg"},{"bike_id":"40b308dc-3975-46df-808d-caad3b300b93","system_id":"levelo_inurba_marseille","lat":43.2481,"lon":5.37464,"is_reserved":false,"is_disabled":false,"rental_uris":{"android":"levelo://app?vid=40b308dc-3975-46df-808d-caad3b300b93","ios":"levelo://app?vid=40b308dc-3975-46df-808d-caad3b300b93"},"vehicle_type_id":"4","last_reported":1778539659,"current_range_meters":8400,"station_id":"ce4bhgh2rcd13ifvqfb0","pricing_plan_id":"cebpf4jnsgd1na2vs0mg"},{"bike_id":"59d13389-f2c2-42eb-bd06-5bc8ef9eaa6b","system_id":"levelo_inurba_marseille","lat":43.31319,"lon":5.39681,"is_reserved":false,"is_disabled":false,"rental_uris":{"android":"levelo://app?vid=59d13389-f2c2-42eb-bd06-5bc8ef9eaa6b","ios":"levelo://app?vid=59d13389-f2c2-42eb-bd06-5bc8ef9eaa6b"},"vehicle_type_id":"4","last_reported":1778539659,"current_range_meters":8400,"station_id":"ce4bgvp2rcd13ifvqcu0","pricing_plan_id":"cebpf4jnsgd1na2vs0mg"},{"bike_id":"b5e8237e-fbd1-4481-8dd8-2b32ebd8910c","system_id":"levelo_inurba_marseille","lat":43.29281,"lon":5.37142,"is_reserved":false,"is_disabled":true,"rental_uris":{"android":"levelo://app?vid=b5e8237e-fbd1-4481-8dd8-2b32ebd8910c","ios":"levelo://app?vid=b5e8237e-fbd1-4481-8dd8-2b32ebd8910c"},"vehicle_type_id":"4","last_reported":1778539659,"current_range_meters":8400,"station_id":"ce4bgh92rcd13ifvqb40","pricing_plan_id":"cebpf4jnsgd1na2vs0mg"},{"bike_id":"d8f37acd-07c9-492a-869d-e2c04d7908e4","system_id":"levelo_inurba_marseille","lat":43.24327,"lon":5.38414,"is_reserved":false,"is_disabled":false,"rental_uris":{"android":"levelo://app?vid=d8f37acd-07c9-492a-869d-e2c04d7908e4","ios":"levelo://app?vid=d8f37acd-07c9-492a-869d-e2c04d7908e4"},"vehicle_type_id":"4","last_reported":1778539659,"current_range_meters":8400,"station_id":"","pricing_plan_id":"cebpf4jnsgd1na2vs0mg"},{"bike_id":"06845545-d530-4f11-90d2-b18a3cc972db","system_id":"levelo_inurba_marseille","lat":43.28098,"lon":5.37837,"is_reserved":false,"is_disabled":false,"rental_uris":{"android":"levelo://app?vid=06845545-d530-4f11-90d2-b18a3cc972db","ios":"levelo://app?vid=06845545-d530-4f11-90d2-b18a3cc972db"},"vehicle_type_id":"4","last_reported":1778539659,"current_range_meters":8400,"station_id":"ce4bha12rcd13ifvqee0","pricing_plan_id":"cebpf4jnsgd1na2vs0mg"},{"bike_id":"9464ddaa-b0fb-4be8-b319-4607440fdf4d","system_id":"levelo_inurba_marseille","lat":43.29535,"lon":5.38545,"is_reserved":false,"is_disabled":false,"rental_uris":{"android":"levelo://app?vid=9464ddaa-b0fb-4be8-b319-4607440fdf4d","ios":"levelo://app?vid=9464ddaa-b0fb-4be8-b319-4607440fdf4d"},"vehicle_type_id":"4","last_reported":1778539659,"current_range_meters":8400,"station_id":"ce4bgih2rcd13ifvqba0","pricing_plan_id":"cebpf4jnsgd1na2vs0mg"},{"bike_id":"449a7ec8-3b8c-48af-8eeb-ef3e955542ee","system_id":"levelo_inurba_marseille","lat":43.29032,"lon":5.42835,"is_reserved":false,"is_disabled":false,"rental_uris":{"android":"levelo://app?vid=449a7ec8-3b8c-48af-8eeb-ef3e955542ee","ios":"levelo://app?vid=449a7ec8-3b8c-48af-8eeb-ef3e955542ee"},"vehicle_type_id":"4","last_reported":1778539659,"current_range_meters":8400,"station_id":"","pricing_plan_id":"cebpf4jnsgd1na2vs0mg"},{"bike_id":"b8243076-42b6-47f8-9396-d4c9ea6120e5","system_id":"levelo_inurba_marseille","lat":43.2557,"lon":5.38241,"is_reserved":false,"is_disabled":false,"rental_uris":{"android":"levelo://app?vid=b8243076-42b6-47f8-9396-d4c9ea6120e5","ios":"levelo://app?vid=b8243076-42b6-47f8-9396-d4c9ea6120e5"},"vehicle_type_id":"4","last_reported":1778539659,"current_range_meters":8800,"station_id":"ce4bhih2rcd13ifvqfs0","pricing_plan_id":"cebpf4jnsgd1na2vs0mg"},{"bike_id":"aeeee0dc-bc58-425c-b0df-5c909edff647","system_id":"levelo_inurba_marseille","lat":43.2256,"lon":5.41604,"is_reserved":false,"is_disabled":false,"rental_uris":{"android":"levelo://app?vid=aeeee0dc-bc58-425c-b0df-5c909edff647","ios":"levelo://app?vid=aeeee0dc-bc58-425c-b0df-5c909edff647"},"vehicle_type_id":"4","last_reported":1778539659,"current_range_meters":8800,"station_id":"st_d2o4gvlbi1j2169b742g","pricing_plan_id":"cebpf4jnsgd1na2vs0mg"},{"bike_id":"6f859d81-fece-48b6-b52a-50a48ef980da","system_id":"levelo_inurba_marseille","lat":43.292,"lon":5.39327,"is_reserved":false,"is_disabled":false,"rental_uris":{"android":"levelo://app?vid=6f859d81-fece-48b6-b52a-50a48ef980da","ios":"levelo://app?vid=6f859d81-fece-48b6-b52a-50a48ef980da"},"vehicle_type_id":"4","last_reported":1778539659,"current_range_meters":8800,"station_id":"ce4bh192rcd13ifvqdd0","pricing_plan_id":"cebpf4jnsgd1na2vs0mg"},{"bike_id":"faa9ace7-3113-40ca-a34a-3d0fb30b48f6","system_id":"levelo_inurba_marseille","lat":43.29276,"lon":5.4244,"is_reserved":false,"is_disabled":false,"rental_uris":{"android":"levelo://app?vid=faa9ace7-3113-40ca-a34a-3d0fb30b48f6","ios":"levelo://app?vid=faa9ace7-3113-40ca-a34a-3d0fb30b48f6"},"vehicle_type_id":"4","last_reported":1778539659,"current_range_meters":8800,"station_id":"","pricing_plan_id":"cebpf4jnsgd1na2vs0mg"},{"bike_id":"97fd470a-9bbb-46b4-a7a2-2994bf5a6368","system_id":"levelo_inurba_marseille","lat":43.30401,"lon":5.39794,"is_reserved":false,"is_disabled":false,"rental_uris":{"android":"levelo://app?vid=97fd470a-9bbb-46b4-a7a2-2994bf5a6368","ios":"levelo://app?vid=97fd470a-9bbb-46b4-a7a2-2994bf5a6368"},"vehicle_type_id":"4","last_reported":1778539659,"current_range_meters":8800,"station_id":"ce4bh092rcd13ifvqd20","pricing_plan_id":"cebpf4jnsgd1na2vs0mg"},{"bike_id":"87d7976a-feb0-4d2e-84bd-3fa23741c45e","system_id":"levelo_inurba_marseille","lat":43.31241,"lon":5.38063,"is_reserved":false,"is_disabled":false,"rental_uris":{"android":"levelo://app?vid=87d7976a-feb0-4d2e-84bd-3fa23741c45e","ios":"levelo://app?vid=87d7976a-feb0-4d2e-84bd-3fa23741c45e"},"vehicle_type_id":"4","last_reported":1778539659,"current_range_meters":8800,"station_id":"","pricing_plan_id":"cebpf4jnsgd1na2vs0mg"},{"bike_id":"27c51919-2505-4233-a213-45341fbf8846","system_id":"levelo_inurba_marseille","lat":43.3065,"lon":5.40104,"is_reserved":false,"is_disabled":false,"rental_uris":{"android":"levelo://app?vid=27c51919-2505-4233-a213-45341fbf8846","ios":"levelo://app?vid=27c51919-2505-4233-a213-45341fbf8846"},"vehicle_type_id":"4","last_reported":1778539659,"current_range_meters":8800,"station_id":"ce4bh112rcd13ifvqda0","pricing_plan_id":"cebpf4jnsgd1na2vs0mg"},{"bike_id":"8c346002-d709-446e-8be6-9a7bf036b8a0","system_id":"levelo_inurba_marseille","lat":43.317,"lon":5.37754,"is_reserved":false,"is_disabled":false,"rental_uris":{"android":"levelo://app?vid=8c346002-d709-446e-8be6-9a7bf036b8a0","ios":"levelo://app?vid=8c346002-d709-446e-8be6-9a7bf036b8a0"},"vehicle_type_id":"4","last_reported":1778539659,"current_range_meters":8800,"station_id":"ce4bgth2rcd13ifvqch0","pricing_plan_id":"cebpf4jnsgd1na2vs0mg"},{"bike_id":"55158f29-df0a-4c88-8ba0-ff29fe822b43","system_id":"levelo_inurba_marseille","lat":43.31328,"lon":5.39695,"is_reserved":false,"is_disabled":false,"rental_uris":{"android":"levelo://app?vid=55158f29-df0a-4c88-8ba0-ff29fe822b43","ios":"levelo://app?vid=55158f29-df0a-4c88-8ba0-ff29fe822b43"},"vehicle_type_id":"4","last_reported":1778539659,"current_range_meters":8800,"station_id":"ce4bgvp2rcd13ifvqcu0","pricing_plan_id":"cebpf4jnsgd1na2vs0mg"},{"bike_id":"950999ce-49be-43ab-9a27-2eddf048e4e0","system_id":"levelo_inurba_marseille","lat":43.28216,"lon":5.39065,"is_reserved":false,"is_disabled":false,"rental_uris":{"android":"levelo://app?vid=950999ce-49be-43ab-9a27-2eddf048e4e0","ios":"levelo://app?vid=950999ce-49be-43ab-9a27-2eddf048e4e0"},"vehicle_type_id":"4","last_reported":1778539659,"current_range_meters":8800,"station_id":"ce4bhn92rcd13ifvqgsg","pricing_plan_id":"cebpf4jnsgd1na2vs0mg"},{"bike_id":"71a33395-519e-4307-a4fd-d537d1762317","system_id":"levelo_inurba_marseille","lat":43.23196,"lon":5.35559,"is_reserved":false,"is_disabled":false,"rental_uris":{"android":"levelo://app?vid=71a33395-519e-4307-a4fd-d537d1762317","ios":"levelo://app?vid=71a33395-519e-4307-a4fd-d537d1762317"},"vehicle_type_id":"4","last_reported":1778539659,"current_range_meters":8800,"station_id":"ce4bhu92rcd13ifvqi70","pricing_plan_id":"cebpf4jnsgd1na2vs0mg"},{"bike_id":"55f7498e-3a39-4988-9b4c-4bb07862a52d","system_id":"levelo_inurba_marseille","lat":43.28413,"lon":5.37549,"is_reserved":false,"is_disabled":false,"rental_uris":{"android":"levelo://app?vid=55f7498e-3a39-4988-9b4c-4bb07862a52d","ios":"levelo://app?vid=55f7498e-3a39-4988-9b4c-4bb07862a52d"},"vehicle_type_id":"4","last_reported":1778539659,"current_range_meters":8800,"station_id":"ce4bh412rcd13ifvqds0","pricing_plan_id":"cebpf4jnsgd1na2vs0mg"},{"bike_id":"2caec1ee-4d23-4e3b-a3f4-cf802338651a","system_id":"levelo_inurba_marseille","lat":43.27815,"lon":5.40717,"is_reserved":false,"is_disabled":false,"rental_uris":{"android":"levelo://app?vid=2caec1ee-4d23-4e3b-a3f4-cf802338651a","ios":"levelo://app?vid=2caec1ee-4d23-4e3b-a3f4-cf802338651a"},"vehicle_type_id":"4","last_reported":1778539659,"current_range_meters":8800,"station_id":"ce4bhnh2rcd13ifvqgtg","pricing_plan_id":"cebpf4jnsgd1na2vs0mg"},{"bike_id":"297aa530-515f-43a9-9015-75a45bbc9b96","system_id":"levelo_inurba_marseille","lat":43.29789,"lon":5.39344,"is_reserved":false,"is_disabled":false,"rental_uris":{"android":"levelo://app?vid=297aa530-515f-43a9-9015-75a45bbc9b96","ios":"levelo://app?vid=297aa530-515f-43a9-9015-75a45bbc9b96"},"vehicle_type_id":"4","last_reported":1778539659,"current_range_meters":8800,"station_id":"chh1huq6cuj3fo74tm60","pricing_plan_id":"cebpf4jnsgd1na2vs0mg"},{"bike_id":"e58ab2e1-1387-42db-bbae-c83bd2d01bf3","system_id":"levelo_inurba_marseille","lat":43.29361,"lon":5.37835,"is_reserved":false,"is_disabled":true,"rental_uris":{"android":"levelo://app?vid=e58ab2e1-1387-42db-bbae-c83bd2d01bf3","ios":"levelo://app?vid=e58ab2e1-1387-42db-bbae-c83bd2d01bf3"},"vehicle_type_id":"4","last_reported":1778539659,"current_range_meters":8800,"station_id":"ce4bgjh2rcd13ifvqbf0","pricing_plan_id":"cebpf4jnsgd1na2vs0mg"},{"bike_id":"f853f7e2-e101-49d5-95e4-241f21b2ddb0","system_id":"levelo_inurba_marseille","lat":43.25084,"lon":5.39528,"is_reserved":false,"is_disabled":false,"rental_uris":{"android":"levelo://app?vid=f853f7e2-e101-49d5-95e4-241f21b2ddb0","ios":"levelo://app?vid=f853f7e2-e101-49d5-95e4-241f21b2ddb0"},"vehicle_type_id":"4","last_reported":1778539659,"current_range_meters":8800,"station_id":"ce4bhm12rcd13ifvqgkg","pricing_plan_id":"cebpf4jnsgd1na2vs0mg"},{"bike_id":"d40e393a-702e-4a7a-941c-59e58f85eeec","system_id":"levelo_inurba_marseille","lat":43.337518,"lon":5.374433,"is_reserved":false,"is_disabled":false,"rental_uris":{"android":"levelo://app?vid=d40e393a-702e-4a7a-941c-59e58f85eeec","ios":"levelo://app?vid=d40e393a-702e-4a7a-941c-59e58f85eeec"},"vehicle_type_id":"4","last_reported":1778539659,"current_range_meters":8800,"station_id":"","pricing_plan_id":"cebpf4jnsgd1na2vs0mg"},{"bike_id":"6d315273-eacf-4469-b428-31f97e3d2a55","system_id":"levelo_inurba_marseille","lat":43.29806,"lon":5.39353,"is_reserved":false,"is_disabled":false,"rental_uris":{"android":"levelo://app?vid=6d315273-eacf-4469-b428-31f97e3d2a55","ios":"levelo://app?vid=6d315273-eacf-4469-b428-31f97e3d2a55"},"vehicle_type_id":"4","last_reported":1778539659,"current_range_meters":8800,"station_id":"chh1huq6cuj3fo74tm60","pricing_plan_id":"cebpf4jnsgd1na2vs0mg"},{"bike_id":"356a24ad-d24d-4aa8-b1c7-c24edb5c2c11","system_id":"levelo_inurba_marseille","lat":43.30324,"lon":5.36882,"is_reserved":false,"is_disabled":false,"rental_uris":{"android":"levelo://app?vid=356a24ad-d24d-4aa8-b1c7-c24edb5c2c11","ios":"levelo://app?vid=356a24ad-d24d-4aa8-b1c7-c24edb5c2c11"},"vehicle_type_id":"4","last_reported":1778539659,"current_range_meters":8800,"station_id":"ce4bgqh2rcd13ifvqc5g","pricing_plan_id":"cebpf4jnsgd1na2vs0mg"},{"bike_id":"5ee9db7e-cde8-48f5-ac1c-e8e6df0e8d3b","system_id":"levelo_inurba_marseille","lat":43.23777,"lon":5.36625,"is_reserved":false,"is_disabled":false,"rental_uris":{"android":"levelo://app?vid=5ee9db7e-cde8-48f5-ac1c-e8e6df0e8d3b","ios":"levelo://app?vid=5ee9db7e-cde8-48f5-ac1c-e8e6df0e8d3b"},"vehicle_type_id":"4","last_reported":1778539659,"current_range_meters":8800,"station_id":"st_d3nk18o9ro0c73en2l3g","pricing_plan_id":"cebpf4jnsgd1na2vs0mg"},{"bike_id":"0fee0ff2-fad9-4638-b4c1-efe542f5e1c1","system_id":"levelo_inurba_marseille","lat":43.30925,"lon":5.40165,"is_reserved":false,"is_disabled":false,"rental_uris":{"android":"levelo://app?vid=0fee0ff2-fad9-4638-b4c1-efe542f5e1c1","ios":"levelo://app?vid=0fee0ff2-fad9-4638-b4c1-efe542f5e1c1"},"vehicle_type_id":"4","last_reported":1778539659,"current_range_meters":8800,"station_id":"ce4bgvp2rcd13ifvqct0","pricing_plan_id":"cebpf4jnsgd1na2vs0mg"},{"bike_id":"00271e86-8e94-4775-b5aa-cffdea820959","system_id":"levelo_inurba_marseille","lat":43.30609,"lon":5.3717,"is_reserved":false,"is_disabled":false,"rental_uris":{"android":"levelo://app?vid=00271e86-8e94-4775-b5aa-cffdea820959","ios":"levelo://app?vid=00271e86-8e94-4775-b5aa-cffdea820959"},"vehicle_type_id":"4","last_reported":1778539659,"current_range_meters":8800,"station_id":"ce4bgqh2rcd13ifvqc4g","pricing_plan_id":"cebpf4jnsgd1na2vs0mg"},{"bike_id":"709e5872-ac98-4693-bd41-4a52c7ad5d4a","system_id":"levelo_inurba_marseille","lat":43.26762,"lon":5.39403,"is_reserved":false,"is_disabled":true,"rental_uris":{"android":"levelo://app?vid=709e5872-ac98-4693-bd41-4a52c7ad5d4a","ios":"levelo://app?vid=709e5872-ac98-4693-bd41-4a52c7ad5d4a"},"vehicle_type_id":"4","last_reported":1778539659,"current_range_meters":9200,"station_id":"ce4bhh12rcd13ifvqfg0","pricing_plan_id":"cebpf4jnsgd1na2vs0mg"},{"bike_id":"7922a348-e88b-4e46-939f-809d2e982d1c","system_id":"levelo_inurba_marseille","lat":43.30885,"lon":5.38076,"is_reserved":false,"is_disabled":false,"rental_uris":{"android":"levelo://app?vid=7922a348-e88b-4e46-939f-809d2e982d1c","ios":"levelo://app?vid=7922a348-e88b-4e46-939f-809d2e982d1c"},"vehicle_type_id":"4","last_reported":1778539659,"current_range_meters":9200,"station_id":"","pricing_plan_id":"cebpf4jnsgd1na2vs0mg"},{"bike_id":"6f0ee176-5f87-45eb-a3e8-955ecd7c7bc6","system_id":"levelo_inurba_marseille","lat":43.29905,"lon":5.37483,"is_reserved":false,"is_disabled":false,"rental_uris":{"android":"levelo://app?vid=6f0ee176-5f87-45eb-a3e8-955ecd7c7bc6","ios":"levelo://app?vid=6f0ee176-5f87-45eb-a3e8-955ecd7c7bc6"},"vehicle_type_id":"4","last_reported":1778539659,"current_range_meters":9200,"station_id":"ce4bgjh2rcd13ifvqbg0","pricing_plan_id":"cebpf4jnsgd1na2vs0mg"},{"bike_id":"387753a9-a8f2-4c40-8aa8-4e3138ec1873","system_id":"levelo_inurba_marseille","lat":43.31679,"lon":5.40473,"is_reserved":false,"is_disabled":false,"rental_uris":{"android":"levelo://app?vid=387753a9-a8f2-4c40-8aa8-4e3138ec1873","ios":"levelo://app?vid=387753a9-a8f2-4c40-8aa8-4e3138ec1873"},"vehicle_type_id":"4","last_reported":1778539659,"current_range_meters":9200,"station_id":"ce4bh012rcd13ifvqd00","pricing_plan_id":"cebpf4jnsgd1na2vs0mg"},{"bike_id":"c17924e2-fd10-4961-9a64-6e0862332969","system_id":"levelo_inurba_marseille","lat":43.30728,"lon":5.4243,"is_reserved":false,"is_disabled":false,"rental_uris":{"android":"levelo://app?vid=c17924e2-fd10-4961-9a64-6e0862332969","ios":"levelo://app?vid=c17924e2-fd10-4961-9a64-6e0862332969"},"vehicle_type_id":"4","last_reported":1778539659,"current_range_meters":9200,"station_id":"st_cvj6ca6bvosntc0bfgr0","pricing_plan_id":"cebpf4jnsgd1na2vs0mg"},{"bike_id":"84c16214-58d9-4301-bfed-3929feca2904","system_id":"levelo_inurba_marseille","lat":43.26552,"lon":5.37268,"is_reserved":false,"is_disabled":false,"rental_uris":{"android":"levelo://app?vid=84c16214-58d9-4301-bfed-3929feca2904","ios":"levelo://app?vid=84c16214-58d9-4301-bfed-3929feca2904"},"vehicle_type_id":"4","last_reported":1778539659,"current_range_meters":9200,"station_id":"ce4bhg12rcd13ifvqf70","pricing_plan_id":"cebpf4jnsgd1na2vs0mg"},{"bike_id":"a85e746e-5c98-4ed4-9554-4f792e6cbed8","system_id":"levelo_inurba_marseille","lat":43.32809,"lon":5.42633,"is_reserved":false,"is_disabled":false,"rental_uris":{"android":"levelo://app?vid=a85e746e-5c98-4ed4-9554-4f792e6cbed8","ios":"levelo://app?vid=a85e746e-5c98-4ed4-9554-4f792e6cbed8"},"vehicle_type_id":"4","last_reported":1778539659,"current_range_meters":9200,"station_id":"","pricing_plan_id":"cebpf4jnsgd1na2vs0mg"},{"bike_id":"520aff11-9117-4d8b-9d10-223ed2f4b522","system_id":"levelo_inurba_marseille","lat":43.29518,"lon":5.39404,"is_reserved":false,"is_disabled":false,"rental_uris":{"android":"levelo://app?vid=520aff11-9117-4d8b-9d10-223ed2f4b522","ios":"levelo://app?vid=520aff11-9117-4d8b-9d10-223ed2f4b522"},"vehicle_type_id":"4","last_reported":1778539659,"current_range_meters":9200,"station_id":"ce4bh292rcd13ifvqdf0","pricing_plan_id":"cebpf4jnsgd1na2vs0mg"},{"bike_id":"3bf58ae3-c8f1-4d2d-892d-9aa2dacf1a1a","system_id":"levelo_inurba_marseille","lat":43.2619,"lon":5.37457,"is_reserved":false,"is_disabled":true,"rental_uris":{"android":"levelo://app?vid=3bf58ae3-c8f1-4d2d-892d-9aa2dacf1a1a","ios":"levelo://app?vid=3bf58ae3-c8f1-4d2d-892d-9aa2dacf1a1a"},"vehicle_type_id":"4","last_reported":1778539659,"current_range_meters":9200,"station_id":"ce4bhgp2rcd13ifvqfc0","pricing_plan_id":"cebpf4jnsgd1na2vs0mg"},{"bike_id":"7e3b2c83-c329-40f0-9ad6-62be2a9475ef","system_id":"levelo_inurba_marseille","lat":43.275,"lon":5.41569,"is_reserved":false,"is_disabled":true,"rental_uris":{"android":"levelo://app?vid=7e3b2c83-c329-40f0-9ad6-62be2a9475ef","ios":"levelo://app?vid=7e3b2c83-c329-40f0-9ad6-62be2a9475ef"},"vehicle_type_id":"4","last_reported":1778539659,"current_range_meters":9200,"station_id":"st_d6im8g6chgec73a5pndg","pricing_plan_id":"cebpf4jnsgd1na2vs0mg"},{"bike_id":"6bef0bc1-eec9-4766-bd2e-6eb585c57e9e","system_id":"levelo_inurba_marseille","lat":43.30345,"lon":5.39195,"is_reserved":false,"is_disabled":false,"rental_uris":{"android":"levelo://app?vid=6bef0bc1-eec9-4766-bd2e-6eb585c57e9e","ios":"levelo://app?vid=6bef0bc1-eec9-4766-bd2e-6eb585c57e9e"},"vehicle_type_id":"4","last_reported":1778539659,"current_range_meters":9200,"station_id":"","pricing_plan_id":"cebpf4jnsgd1na2vs0mg"},{"bike_id":"98540062-3964-491a-894c-e9cca18ef1a2","system_id":"levelo_inurba_marseille","lat":43.31186,"lon":5.38685,"is_reserved":false,"is_disabled":false,"rental_uris":{"android":"levelo://app?vid=98540062-3964-491a-894c-e9cca18ef1a2","ios":"levelo://app?vid=98540062-3964-491a-894c-e9cca18ef1a2"},"vehicle_type_id":"4","last_reported":1778539659,"current_range_meters":9200,"station_id":"ce4bgv12rcd13ifvqcp0","pricing_plan_id":"cebpf4jnsgd1na2vs0mg"},{"bike_id":"fff28539-cd67-4363-9fdf-ee33f98074e9","system_id":"levelo_inurba_marseille","lat":43.28733,"lon":5.37938,"is_reserved":false,"is_disabled":false,"rental_uris":{"android":"levelo://app?vid=fff28539-cd67-4363-9fdf-ee33f98074e9","ios":"levelo://app?vid=fff28539-cd67-4363-9fdf-ee33f98074e9"},"vehicle_type_id":"4","last_reported":1778539659,"current_range_meters":9200,"station_id":"ce4bh9p2rcd13ifvqec0","pricing_plan_id":"cebpf4jnsgd1na2vs0mg"},{"bike_id":"ec4a6e9f-6f4d-4cd1-84e2-8cf398bffade","system_id":"levelo_inurba_marseille","lat":43.29134,"lon":5.43262,"is_reserved":false,"is_disabled":false,"rental_uris":{"android":"levelo://app?vid=ec4a6e9f-6f4d-4cd1-84e2-8cf398bffade","ios":"levelo://app?vid=ec4a6e9f-6f4d-4cd1-84e2-8cf398bffade"},"vehicle_type_id":"4","last_reported":1778539659,"current_range_meters":9200,"station_id":"","pricing_plan_id":"cebpf4jnsgd1na2vs0mg"},{"bike_id":"d182be56-f5f5-4cd8-b392-8979ef08035c","system_id":"levelo_inurba_marseille","lat":43.30729,"lon":5.4245,"is_reserved":false,"is_disabled":false,"rental_uris":{"android":"levelo://app?vid=d182be56-f5f5-4cd8-b392-8979ef08035c","ios":"levelo://app?vid=d182be56-f5f5-4cd8-b392-8979ef08035c"},"vehicle_type_id":"4","last_reported":1778539659,"current_range_meters":9200,"station_id":"st_cvj6ca6bvosntc0bfgr0","pricing_plan_id":"cebpf4jnsgd1na2vs0mg"},{"bike_id":"bde13b33-55d3-4296-9a21-b8ccc41c339b","system_id":"levelo_inurba_marseille","lat":43.30782,"lon":5.3765,"is_reserved":false,"is_disabled":false,"rental_uris":{"android":"levelo://app?vid=bde13b33-55d3-4296-9a21-b8ccc41c339b","ios":"levelo://app?vid=bde13b33-55d3-4296-9a21-b8ccc41c339b"},"vehicle_type_id":"4","last_reported":1778539659,"current_range_meters":9200,"station_id":"ce4bgv92rcd13ifvqcq0","pricing_plan_id":"cebpf4jnsgd1na2vs0mg"},{"bike_id":"1e81e120-cb06-4f14-a5e6-b1627c7b2b59","system_id":"levelo_inurba_marseille","lat":43.26193,"lon":5.4038,"is_reserved":false,"is_disabled":false,"rental_uris":{"android":"levelo://app?vid=1e81e120-cb06-4f14-a5e6-b1627c7b2b59","ios":"levelo://app?vid=1e81e120-cb06-4f14-a5e6-b1627c7b2b59"},"vehicle_type_id":"4","last_reported":1778539659,"current_range_meters":9600,"station_id":"","pricing_plan_id":"cebpf4jnsgd1na2vs0mg"},{"bike_id":"3f32e2f9-fe08-441c-9f94-6f2ad5268dce","system_id":"levelo_inurba_marseille","lat":43.29258,"lon":5.38449,"is_reserved":false,"is_disabled":false,"rental_uris":{"android":"levelo://app?vid=3f32e2f9-fe08-441c-9f94-6f2ad5268dce","ios":"levelo://app?vid=3f32e2f9-fe08-441c-9f94-6f2ad5268dce"},"vehicle_type_id":"4","last_reported":1778539659,"current_range_meters":9600,"station_id":"ce4bh692rcd13ifvqea0","pricing_plan_id":"cebpf4jnsgd1na2vs0mg"},{"bike_id":"1adb18c2-187f-4146-9362-30d23a7d9953","system_id":"levelo_inurba_marseille","lat":43.30323,"lon":5.40439,"is_reserved":false,"is_disabled":false,"rental_uris":{"android":"levelo://app?vid=1adb18c2-187f-4146-9362-30d23a7d9953","ios":"levelo://app?vid=1adb18c2-187f-4146-9362-30d23a7d9953"},"vehicle_type_id":"4","last_reported":1778539659,"current_range_meters":9600,"station_id":"ce4bh012rcd13ifvqd10","pricing_plan_id":"cebpf4jnsgd1na2vs0mg"},{"bike_id":"36ca05a3-933e-4c1b-9349-1f2595d91534","system_id":"levelo_inurba_marseille","lat":43.28404,"lon":5.3863,"is_reserved":false,"is_disabled":false,"rental_uris":{"android":"levelo://app?vid=36ca05a3-933e-4c1b-9349-1f2595d91534","ios":"levelo://app?vid=36ca05a3-933e-4c1b-9349-1f2595d91534"},"vehicle_type_id":"4","last_reported":1778539659,"current_range_meters":9600,"station_id":"","pricing_plan_id":"cebpf4jnsgd1na2vs0mg"},{"bike_id":"8e7423ba-7dee-4642-bb53-086d344ef9e2","system_id":"levelo_inurba_marseille","lat":43.31322,"lon":5.39706,"is_reserved":false,"is_disabled":false,"rental_uris":{"android":"levelo://app?vid=8e7423ba-7dee-4642-bb53-086d344ef9e2","ios":"levelo://app?vid=8e7423ba-7dee-4642-bb53-086d344ef9e2"},"vehicle_type_id":"4","last_reported":1778539659,"current_range_meters":9600,"station_id":"ce4bgvp2rcd13ifvqcu0","pricing_plan_id":"cebpf4jnsgd1na2vs0mg"},{"bike_id":"912f68ca-c1fa-46b2-a1a9-f59cb9136180","system_id":"levelo_inurba_marseille","lat":43.28156,"lon":5.42636,"is_reserved":false,"is_disabled":false,"rental_uris":{"android":"levelo://app?vid=912f68ca-c1fa-46b2-a1a9-f59cb9136180","ios":"levelo://app?vid=912f68ca-c1fa-46b2-a1a9-f59cb9136180"},"vehicle_type_id":"4","last_reported":1778539659,"current_range_meters":9600,"station_id":"ce4bhnh2rcd13ifvqgug","pricing_plan_id":"cebpf4jnsgd1na2vs0mg"},{"bike_id":"0e8d86dc-b027-4278-b2a0-5a598eb27611","system_id":"levelo_inurba_marseille","lat":43.27591,"lon":5.39657,"is_reserved":false,"is_disabled":false,"rental_uris":{"android":"levelo://app?vid=0e8d86dc-b027-4278-b2a0-5a598eb27611","ios":"levelo://app?vid=0e8d86dc-b027-4278-b2a0-5a598eb27611"},"vehicle_type_id":"4","last_reported":1778539659,"current_range_meters":9600,"station_id":"","pricing_plan_id":"cebpf4jnsgd1na2vs0mg"},{"bike_id":"ef35bb7f-4575-4a05-ae19-a017eda5deec","system_id":"levelo_inurba_marseille","lat":43.31461,"lon":5.37364,"is_reserved":false,"is_disabled":false,"rental_uris":{"android":"levelo://app?vid=ef35bb7f-4575-4a05-ae19-a017eda5deec","ios":"levelo://app?vid=ef35bb7f-4575-4a05-ae19-a017eda5deec"},"vehicle_type_id":"4","last_reported":1778539659,"current_range_meters":9600,"station_id":"ce4bgt12rcd13ifvqcd0","pricing_plan_id":"cebpf4jnsgd1na2vs0mg"},{"bike_id":"8d8012cf-91f1-4687-8084-6ccdbc28b037","system_id":"levelo_inurba_marseille","lat":43.28409,"lon":5.37529,"is_reserved":false,"is_disabled":false,"rental_uris":{"android":"levelo://app?vid=8d8012cf-91f1-4687-8084-6ccdbc28b037","ios":"levelo://app?vid=8d8012cf-91f1-4687-8084-6ccdbc28b037"},"vehicle_type_id":"4","last_reported":1778539659,"current_range_meters":9600,"station_id":"ce4bh412rcd13ifvqds0","pricing_plan_id":"cebpf4jnsgd1na2vs0mg"},{"bike_id":"6cc473ca-8ff4-4402-8ae0-05d58cd075bc","system_id":"levelo_inurba_marseille","lat":43.25072,"lon":5.39527,"is_reserved":false,"is_disabled":false,"rental_uris":{"android":"levelo://app?vid=6cc473ca-8ff4-4402-8ae0-05d58cd075bc","ios":"levelo://app?vid=6cc473ca-8ff4-4402-8ae0-05d58cd075bc"},"vehicle_type_id":"4","last_reported":1778539659,"current_range_meters":9600,"station_id":"ce4bhm12rcd13ifvqgkg","pricing_plan_id":"cebpf4jnsgd1na2vs0mg"},{"bike_id":"2c461445-764c-41d5-865d-ac2482e20ed0","system_id":"levelo_inurba_marseille","lat":43.24775,"lon":5.37468,"is_reserved":false,"is_disabled":false,"rental_uris":{"android":"levelo://app?vid=2c461445-764c-41d5-865d-ac2482e20ed0","ios":"levelo://app?vid=2c461445-764c-41d5-865d-ac2482e20ed0"},"vehicle_type_id":"4","last_reported":1778539659,"current_range_meters":9600,"station_id":"ce4bhgh2rcd13ifvqfb0","pricing_plan_id":"cebpf4jnsgd1na2vs0mg"},{"bike_id":"98a88ef0-6d65-45b5-8adb-e0e8006f7097","system_id":"levelo_inurba_marseille","lat":43.29615,"lon":5.36737,"is_reserved":false,"is_disabled":true,"rental_uris":{"android":"levelo://app?vid=98a88ef0-6d65-45b5-8adb-e0e8006f7097","ios":"levelo://app?vid=98a88ef0-6d65-45b5-8adb-e0e8006f7097"},"vehicle_type_id":"4","last_reported":1778539659,"current_range_meters":9600,"station_id":"ce4bgph2rcd13ifvqc2g","pricing_plan_id":"cebpf4jnsgd1na2vs0mg"},{"bike_id":"288a3d50-e5e6-477b-861f-1f9367841dfb","system_id":"levelo_inurba_marseille","lat":43.29195,"lon":5.39337,"is_reserved":false,"is_disabled":false,"rental_uris":{"android":"levelo://app?vid=288a3d50-e5e6-477b-861f-1f9367841dfb","ios":"levelo://app?vid=288a3d50-e5e6-477b-861f-1f9367841dfb"},"vehicle_type_id":"4","last_reported":1778539659,"current_range_meters":9600,"station_id":"ce4bh192rcd13ifvqdd0","pricing_plan_id":"cebpf4jnsgd1na2vs0mg"},{"bike_id":"5ba4791c-bec8-43c1-8ca8-330656476eab","system_id":"levelo_inurba_marseille","lat":43.28609,"lon":5.39878,"is_reserved":false,"is_disabled":false,"rental_uris":{"android":"levelo://app?vid=5ba4791c-bec8-43c1-8ca8-330656476eab","ios":"levelo://app?vid=5ba4791c-bec8-43c1-8ca8-330656476eab"},"vehicle_type_id":"4","last_reported":1778539659,"current_range_meters":9600,"station_id":"st_d4a7ka997mjs738ck50g","pricing_plan_id":"cebpf4jnsgd1na2vs0mg"},{"bike_id":"e0285e1a-08e6-4851-8389-7f57d6141fc6","system_id":"levelo_inurba_marseille","lat":43.28858,"lon":5.35846,"is_reserved":false,"is_disabled":false,"rental_uris":{"android":"levelo://app?vid=e0285e1a-08e6-4851-8389-7f57d6141fc6","ios":"levelo://app?vid=e0285e1a-08e6-4851-8389-7f57d6141fc6"},"vehicle_type_id":"4","last_reported":1778539659,"current_range_meters":9600,"station_id":"ce4bhb12rcd13ifvqem0","pricing_plan_id":"cebpf4jnsgd1na2vs0mg"},{"bike_id":"efe5e628-7ed6-4d21-b398-d22464f37ff7","system_id":"levelo_inurba_marseille","lat":43.2522,"lon":5.38399,"is_reserved":false,"is_disabled":false,"rental_uris":{"android":"levelo://app?vid=efe5e628-7ed6-4d21-b398-d22464f37ff7","ios":"levelo://app?vid=efe5e628-7ed6-4d21-b398-d22464f37ff7"},"vehicle_type_id":"4","last_reported":1778539659,"current_range_meters":9600,"station_id":"","pricing_plan_id":"cebpf4jnsgd1na2vs0mg"},{"bike_id":"10facb95-e7cb-4c60-a23f-4dbd615b3198","system_id":"levelo_inurba_marseille","lat":43.27938,"lon":5.41049,"is_reserved":false,"is_disabled":false,"rental_uris":{"android":"levelo://app?vid=10facb95-e7cb-4c60-a23f-4dbd615b3198","ios":"levelo://app?vid=10facb95-e7cb-4c60-a23f-4dbd615b3198"},"vehicle_type_id":"4","last_reported":1778539659,"current_range_meters":9600,"station_id":"ce4bhnp2rcd13ifvqh0g","pricing_plan_id":"cebpf4jnsgd1na2vs0mg"},{"bike_id":"9b77dc1c-74f4-416e-9a91-cdae6e24dc9e","system_id":"levelo_inurba_marseille","lat":43.27711,"lon":5.38907,"is_reserved":false,"is_disabled":false,"rental_uris":{"android":"levelo://app?vid=9b77dc1c-74f4-416e-9a91-cdae6e24dc9e","ios":"levelo://app?vid=9b77dc1c-74f4-416e-9a91-cdae6e24dc9e"},"vehicle_type_id":"4","last_reported":1778539659,"current_range_meters":9600,"station_id":"ce4bhi12rcd13ifvqfo0","pricing_plan_id":"cebpf4jnsgd1na2vs0mg"},{"bike_id":"41cfd8df-4668-4998-8370-6093515a874d","system_id":"levelo_inurba_marseille","lat":43.28859,"lon":5.42511,"is_reserved":false,"is_disabled":false,"rental_uris":{"android":"levelo://app?vid=41cfd8df-4668-4998-8370-6093515a874d","ios":"levelo://app?vid=41cfd8df-4668-4998-8370-6093515a874d"},"vehicle_type_id":"4","last_reported":1778539659,"current_range_meters":10000,"station_id":"st_d3b462108ojc7389ooeg","pricing_plan_id":"cebpf4jnsgd1na2vs0mg"},{"bike_id":"a90cafe1-4a7d-4a6f-9fe4-9699d5714fe8","system_id":"levelo_inurba_marseille","lat":43.30897,"lon":5.37194,"is_reserved":false,"is_disabled":false,"rental_uris":{"android":"levelo://app?vid=a90cafe1-4a7d-4a6f-9fe4-9699d5714fe8","ios":"levelo://app?vid=a90cafe1-4a7d-4a6f-9fe4-9699d5714fe8"},"vehicle_type_id":"4","last_reported":1778539659,"current_range_meters":10000,"station_id":"ce4bguh2rcd13ifvqckg","pricing_plan_id":"cebpf4jnsgd1na2vs0mg"},{"bike_id":"b5ed26f9-a3a8-4d08-bd35-011709374a8f","system_id":"levelo_inurba_marseille","lat":43.28707,"lon":5.374,"is_reserved":false,"is_disabled":false,"rental_uris":{"android":"levelo://app?vid=b5ed26f9-a3a8-4d08-bd35-011709374a8f","ios":"levelo://app?vid=b5ed26f9-a3a8-4d08-bd35-011709374a8f"},"vehicle_type_id":"4","last_reported":1778539659,"current_range_meters":10000,"station_id":"ce4bh3p2rcd13ifvqdq0","pricing_plan_id":"cebpf4jnsgd1na2vs0mg"},{"bike_id":"dbee4b08-7464-4586-8fbb-1641ca4ebce6","system_id":"levelo_inurba_marseille","lat":43.22531,"lon":5.34829,"is_reserved":false,"is_disabled":true,"rental_uris":{"android":"levelo://app?vid=dbee4b08-7464-4586-8fbb-1641ca4ebce6","ios":"levelo://app?vid=dbee4b08-7464-4586-8fbb-1641ca4ebce6"},"vehicle_type_id":"4","last_reported":1778539659,"current_range_meters":10000,"station_id":"st_cvj5dfep6f1abm77gieg","pricing_plan_id":"cebpf4jnsgd1na2vs0mg"},{"bike_id":"3c61b503-6b4c-4513-bfc3-c929569a3f2f","system_id":"levelo_inurba_marseille","lat":43.28459,"lon":5.35878,"is_reserved":false,"is_disabled":false,"rental_uris":{"android":"levelo://app?vid=3c61b503-6b4c-4513-bfc3-c929569a3f2f","ios":"levelo://app?vid=3c61b503-6b4c-4513-bfc3-c929569a3f2f"},