{"last_updated":1743196107,"ttl":60,"version":"2.2","data":{"bikes":[{"bike_id":"19959d4a-99e2-46d5-846c-eb5411875503","system_id":"levelo_inurba_marseille","lat":43.29365,"lon":5.37191,"is_reserved":false,"is_disabled":false,"rental_uris":{"android":"levelo://app?vid=19959d4a-99e2-46d5-846c-eb5411875503","ios":"levelo://app?vid=19959d4a-99e2-46d5-846c-eb5411875503"},"vehicle_type_id":"4","last_reported":1743196107,"current_range_meters":3200,"station_id":"","pricing_plan_id":"cebpf4jnsgd1na2vs0mg"},{"bike_id":"7b64bb1d-93e2-4a2a-b4c0-2d4dec2a67de","system_id":"levelo_inurba_marseille","lat":43.28004,"lon":5.4001,"is_reserved":false,"is_disabled":false,"rental_uris":{"android":"levelo://app?vid=7b64bb1d-93e2-4a2a-b4c0-2d4dec2a67de","ios":"levelo://app?vid=7b64bb1d-93e2-4a2a-b4c0-2d4dec2a67de"},"vehicle_type_id":"4","last_reported":1743196107,"current_range_meters":2800,"station_id":"ce4bho92rcd13ifvqh4g","pricing_plan_id":"cebpf4jnsgd1na2vs0mg"},{"bike_id":"3b6642fb-9a62-434c-9a78-b0bd182fc628","system_id":"levelo_inurba_marseille","lat":43.27912,"lon":5.41234,"is_reserved":false,"is_disabled":false,"rental_uris":{"android":"levelo://app?vid=3b6642fb-9a62-434c-9a78-b0bd182fc628","ios":"levelo://app?vid=3b6642fb-9a62-434c-9a78-b0bd182fc628"},"vehicle_type_id":"4","last_reported":1743196107,"current_range_meters":2800,"station_id":"","pricing_plan_id":"cebpf4jnsgd1na2vs0mg"},{"bike_id":"b1eec6d9-c753-4417-ac2c-88a049c213ee","system_id":"levelo_inurba_marseille","lat":43.31751,"lon":5.39017,"is_reserved":false,"is_disabled":false,"rental_uris":{"android":"levelo://app?vid=b1eec6d9-c753-4417-ac2c-88a049c213ee","ios":"levelo://app?vid=b1eec6d9-c753-4417-ac2c-88a049c213ee"},"vehicle_type_id":"4","last_reported":1743196107,"current_range_meters":2800,"station_id":"ce4bhqp2rcd13ifvqhng","pricing_plan_id":"cebpf4jnsgd1na2vs0mg"},{"bike_id":"07dd4ab0-4bf8-4127-a74a-5c72c1f133a4","system_id":"levelo_inurba_marseille","lat":43.31741,"lon":5.40406,"is_reserved":false,"is_disabled":false,"rental_uris":{"android":"levelo://app?vid=07dd4ab0-4bf8-4127-a74a-5c72c1f133a4","ios":"levelo://app?vid=07dd4ab0-4bf8-4127-a74a-5c72c1f133a4"},"vehicle_type_id":"4","last_reported":1743196107,"current_range_meters":3200,"station_id":"","pricing_plan_id":"cebpf4jnsgd1na2vs0mg"},{"bike_id":"416ab19f-428c-48fd-af69-f746173d1e0f","system_id":"levelo_inurba_marseille","lat":43.3089,"lon":5.39653,"is_reserved":false,"is_disabled":false,"rental_uris":{"android":"levelo://app?vid=416ab19f-428c-48fd-af69-f746173d1e0f","ios":"levelo://app?vid=416ab19f-428c-48fd-af69-f746173d1e0f"},"vehicle_type_id":"4","last_reported":1743196107,"current_range_meters":3200,"station_id":"ce4bh012rcd13ifvqcv0","pricing_plan_id":"cebpf4jnsgd1na2vs0mg"},{"bike_id":"0efd9a1f-7062-4345-a05b-1b50ca140de0","system_id":"levelo_inurba_marseille","lat":43.31164,"lon":5.38717,"is_reserved":false,"is_disabled":false,"rental_uris":{"android":"levelo://app?vid=0efd9a1f-7062-4345-a05b-1b50ca140de0","ios":"levelo://app?vid=0efd9a1f-7062-4345-a05b-1b50ca140de0"},"vehicle_type_id":"4","last_reported":1743196107,"current_range_meters":3200,"station_id":"ce4bgv12rcd13ifvqcp0","pricing_plan_id":"cebpf4jnsgd1na2vs0mg"},{"bike_id":"7abd5683-f655-4ffc-b1d8-a5b692d26e3d","system_id":"levelo_inurba_marseille","lat":43.278397,"lon":5.392107,"is_reserved":false,"is_disabled":false,"rental_uris":{"android":"levelo://app?vid=7abd5683-f655-4ffc-b1d8-a5b692d26e3d","ios":"levelo://app?vid=7abd5683-f655-4ffc-b1d8-a5b692d26e3d"},"vehicle_type_id":"4","last_reported":1743196107,"current_range_meters":3200,"station_id":"ce4bh412rcd13ifvqdr0","pricing_plan_id":"cebpf4jnsgd1na2vs0mg"},{"bike_id":"1cf52eee-b557-43b4-a841-b687a2d1c17e","system_id":"levelo_inurba_marseille","lat":43.3136,"lon":5.385,"is_reserved":false,"is_disabled":false,"rental_uris":{"android":"levelo://app?vid=1cf52eee-b557-43b4-a841-b687a2d1c17e","ios":"levelo://app?vid=1cf52eee-b557-43b4-a841-b687a2d1c17e"},"vehicle_type_id":"4","last_reported":1743196107,"current_range_meters":3200,"station_id":"ce4bgt92rcd13ifvqcf0","pricing_plan_id":"cebpf4jnsgd1na2vs0mg"},{"bike_id":"382bce11-bfd1-4815-987a-0113c5bc1768","system_id":"levelo_inurba_marseille","lat":43.29253,"lon":5.38444,"is_reserved":false,"is_disabled":false,"rental_uris":{"android":"levelo://app?vid=382bce11-bfd1-4815-987a-0113c5bc1768","ios":"levelo://app?vid=382bce11-bfd1-4815-987a-0113c5bc1768"},"vehicle_type_id":"4","last_reported":1743196107,"current_range_meters":3600,"station_id":"ce4bh692rcd13ifvqea0","pricing_plan_id":"cebpf4jnsgd1na2vs0mg"},{"bike_id":"bf486d29-80ae-43fc-9394-756ed3e2b73e","system_id":"levelo_inurba_marseille","lat":43.28014,"lon":5.39998,"is_reserved":false,"is_disabled":false,"rental_uris":{"android":"levelo://app?vid=bf486d29-80ae-43fc-9394-756ed3e2b73e","ios":"levelo://app?vid=bf486d29-80ae-43fc-9394-756ed3e2b73e"},"vehicle_type_id":"4","last_reported":1743196107,"current_range_meters":3600,"station_id":"ce4bho92rcd13ifvqh4g","pricing_plan_id":"cebpf4jnsgd1na2vs0mg"},{"bike_id":"17d0f0fd-7393-435f-8cf7-a14f368eb591","system_id":"levelo_inurba_marseille","lat":43.2935,"lon":5.37848,"is_reserved":false,"is_disabled":true,"rental_uris":{"android":"levelo://app?vid=17d0f0fd-7393-435f-8cf7-a14f368eb591","ios":"levelo://app?vid=17d0f0fd-7393-435f-8cf7-a14f368eb591"},"vehicle_type_id":"4","last_reported":1743196107,"current_range_meters":3600,"station_id":"ce4bgjh2rcd13ifvqbf0","pricing_plan_id":"cebpf4jnsgd1na2vs0mg"},{"bike_id":"513b1e47-84ce-4d4d-8c69-76b821b6dd6f","system_id":"levelo_inurba_marseille","lat":43.28604,"lon":5.3512,"is_reserved":false,"is_disabled":false,"rental_uris":{"android":"levelo://app?vid=513b1e47-84ce-4d4d-8c69-76b821b6dd6f","ios":"levelo://app?vid=513b1e47-84ce-4d4d-8c69-76b821b6dd6f"},"vehicle_type_id":"4","last_reported":1743196107,"current_range_meters":3600,"station_id":"ce4bhch2rcd13ifvqeug","pricing_plan_id":"cebpf4jnsgd1na2vs0mg"},{"bike_id":"37feb872-afb0-4162-9d8b-3b6f53cae9f7","system_id":"levelo_inurba_marseille","lat":43.31335,"lon":5.39699,"is_reserved":false,"is_disabled":false,"rental_uris":{"android":"levelo://app?vid=37feb872-afb0-4162-9d8b-3b6f53cae9f7","ios":"levelo://app?vid=37feb872-afb0-4162-9d8b-3b6f53cae9f7"},"vehicle_type_id":"4","last_reported":1743196107,"current_range_meters":3600,"station_id":"ce4bgvp2rcd13ifvqcu0","pricing_plan_id":"cebpf4jnsgd1na2vs0mg"},{"bike_id":"268bbd2e-fdce-4232-abc3-c705f6a79b4f","system_id":"levelo_inurba_marseille","lat":43.27998,"lon":5.40004,"is_reserved":false,"is_disabled":false,"rental_uris":{"android":"levelo://app?vid=268bbd2e-fdce-4232-abc3-c705f6a79b4f","ios":"levelo://app?vid=268bbd2e-fdce-4232-abc3-c705f6a79b4f"},"vehicle_type_id":"4","last_reported":1743196107,"current_range_meters":3600,"station_id":"ce4bho92rcd13ifvqh4g","pricing_plan_id":"cebpf4jnsgd1na2vs0mg"},{"bike_id":"fa301892-584e-4a9c-8a96-6dcb606156c3","system_id":"levelo_inurba_marseille","lat":43.289956,"lon":5.356139,"is_reserved":false,"is_disabled":false,"rental_uris":{"android":"levelo://app?vid=fa301892-584e-4a9c-8a96-6dcb606156c3","ios":"levelo://app?vid=fa301892-584e-4a9c-8a96-6dcb606156c3"},"vehicle_type_id":"4","last_reported":1743196107,"current_range_meters":3600,"station_id":"ce4bhb92rcd13ifvqen0","pricing_plan_id":"cebpf4jnsgd1na2vs0mg"},{"bike_id":"af873dbb-fdb4-49aa-b05a-f8a21cee84f7","system_id":"levelo_inurba_marseille","lat":43.2927,"lon":5.36845,"is_reserved":false,"is_disabled":false,"rental_uris":{"android":"levelo://app?vid=af873dbb-fdb4-49aa-b05a-f8a21cee84f7","ios":"levelo://app?vid=af873dbb-fdb4-49aa-b05a-f8a21cee84f7"},"vehicle_type_id":"4","last_reported":1743196107,"current_range_meters":3600,"station_id":"ce4bhbp2rcd13ifvqesg","pricing_plan_id":"cebpf4jnsgd1na2vs0mg"},{"bike_id":"c18155db-65c7-4d5a-8c5b-923eb75c675d","system_id":"levelo_inurba_marseille","lat":43.32101,"lon":5.36752,"is_reserved":false,"is_disabled":false,"rental_uris":{"android":"levelo://app?vid=c18155db-65c7-4d5a-8c5b-923eb75c675d","ios":"levelo://app?vid=c18155db-65c7-4d5a-8c5b-923eb75c675d"},"vehicle_type_id":"4","last_reported":1743196107,"current_range_meters":3600,"station_id":"ce4bhrh2rcd13ifvqhug","pricing_plan_id":"cebpf4jnsgd1na2vs0mg"},{"bike_id":"1565945e-592f-43be-9bab-e281d66d5369","system_id":"levelo_inurba_marseille","lat":43.298489,"lon":5.362817,"is_reserved":false,"is_disabled":false,"rental_uris":{"android":"levelo://app?vid=1565945e-592f-43be-9bab-e281d66d5369","ios":"levelo://app?vid=1565945e-592f-43be-9bab-e281d66d5369"},"vehicle_type_id":"4","last_reported":1743196107,"current_range_meters":3600,"station_id":"ce4bgpp2rcd13ifvqc3g","pricing_plan_id":"cebpf4jnsgd1na2vs0mg"},{"bike_id":"26c81714-c56c-4e23-9a17-e7de176b0a7c","system_id":"levelo_inurba_marseille","lat":43.25828,"lon":5.39435,"is_reserved":false,"is_disabled":false,"rental_uris":{"android":"levelo://app?vid=26c81714-c56c-4e23-9a17-e7de176b0a7c","ios":"levelo://app?vid=26c81714-c56c-4e23-9a17-e7de176b0a7c"},"vehicle_type_id":"4","last_reported":1743196107,"current_range_meters":3600,"station_id":"ce4bhip2rcd13ifvqft0","pricing_plan_id":"cebpf4jnsgd1na2vs0mg"},{"bike_id":"0049bf52-4963-4831-83a0-a2635db5931e","system_id":"levelo_inurba_marseille","lat":43.29414,"lon":5.38631,"is_reserved":false,"is_disabled":false,"rental_uris":{"android":"levelo://app?vid=0049bf52-4963-4831-83a0-a2635db5931e","ios":"levelo://app?vid=0049bf52-4963-4831-83a0-a2635db5931e"},"vehicle_type_id":"4","last_reported":1743196107,"current_range_meters":4000,"station_id":"ce4bh2h2rcd13ifvqdh0","pricing_plan_id":"cebpf4jnsgd1na2vs0mg"},{"bike_id":"5dc968ac-a7aa-481c-be04-bfe0623abe16","system_id":"levelo_inurba_marseille","lat":43.29934,"lon":5.36559,"is_reserved":false,"is_disabled":false,"rental_uris":{"android":"levelo://app?vid=5dc968ac-a7aa-481c-be04-bfe0623abe16","ios":"levelo://app?vid=5dc968ac-a7aa-481c-be04-bfe0623abe16"},"vehicle_type_id":"4","last_reported":1743196107,"current_range_meters":4000,"station_id":"ce4bgm92rcd13ifvqbr0","pricing_plan_id":"cebpf4jnsgd1na2vs0mg"},{"bike_id":"23fa518d-7be8-44f7-b6f2-f161ce326fe8","system_id":"levelo_inurba_marseille","lat":43.31344,"lon":5.38513,"is_reserved":false,"is_disabled":false,"rental_uris":{"android":"levelo://app?vid=23fa518d-7be8-44f7-b6f2-f161ce326fe8","ios":"levelo://app?vid=23fa518d-7be8-44f7-b6f2-f161ce326fe8"},"vehicle_type_id":"4","last_reported":1743196107,"current_range_meters":4000,"station_id":"ce4bgt92rcd13ifvqcf0","pricing_plan_id":"cebpf4jnsgd1na2vs0mg"},{"bike_id":"d43b2a86-10ae-42b3-8b7e-8bb72fd0fb1c","system_id":"levelo_inurba_marseille","lat":43.28835,"lon":5.35846,"is_reserved":false,"is_disabled":false,"rental_uris":{"android":"levelo://app?vid=d43b2a86-10ae-42b3-8b7e-8bb72fd0fb1c","ios":"levelo://app?vid=d43b2a86-10ae-42b3-8b7e-8bb72fd0fb1c"},"vehicle_type_id":"4","last_reported":1743196107,"current_range_meters":4000,"station_id":"ce4bhb12rcd13ifvqem0","pricing_plan_id":"cebpf4jnsgd1na2vs0mg"},{"bike_id":"e0bd8552-eaef-4342-bdcd-1df755c00099","system_id":"levelo_inurba_marseille","lat":43.26178,"lon":5.42076,"is_reserved":false,"is_disabled":false,"rental_uris":{"android":"levelo://app?vid=e0bd8552-eaef-4342-bdcd-1df755c00099","ios":"levelo://app?vid=e0bd8552-eaef-4342-bdcd-1df755c00099"},"vehicle_type_id":"4","last_reported":1743196107,"current_range_meters":4400,"station_id":"","pricing_plan_id":"cebpf4jnsgd1na2vs0mg"},{"bike_id":"633ece5c-ec93-48b3-a472-f7dd03177551","system_id":"levelo_inurba_marseille","lat":43.30431,"lon":5.41262,"is_reserved":false,"is_disabled":false,"rental_uris":{"android":"levelo://app?vid=633ece5c-ec93-48b3-a472-f7dd03177551","ios":"levelo://app?vid=633ece5c-ec93-48b3-a472-f7dd03177551"},"vehicle_type_id":"4","last_reported":1743196107,"current_range_meters":4400,"station_id":"ce4bhop2rcd13ifvqh8g","pricing_plan_id":"cebpf4jnsgd1na2vs0mg"},{"bike_id":"72fd4046-5b3e-40ff-a9ef-423fa43645d9","system_id":"levelo_inurba_marseille","lat":43.28073,"lon":5.39658,"is_reserved":false,"is_disabled":false,"rental_uris":{"android":"levelo://app?vid=72fd4046-5b3e-40ff-a9ef-423fa43645d9","ios":"levelo://app?vid=72fd4046-5b3e-40ff-a9ef-423fa43645d9"},"vehicle_type_id":"4","last_reported":1743196107,"current_range_meters":4400,"station_id":"ce4bho12rcd13ifvqh2g","pricing_plan_id":"cebpf4jnsgd1na2vs0mg"},{"bike_id":"9108efae-73e9-412e-8196-cfca317be609","system_id":"levelo_inurba_marseille","lat":43.29317,"lon":5.37163,"is_reserved":false,"is_disabled":true,"rental_uris":{"android":"levelo://app?vid=9108efae-73e9-412e-8196-cfca317be609","ios":"levelo://app?vid=9108efae-73e9-412e-8196-cfca317be609"},"vehicle_type_id":"4","last_reported":1743196107,"current_range_meters":4400,"station_id":"ce4bgh92rcd13ifvqb40","pricing_plan_id":"cebpf4jnsgd1na2vs0mg"},{"bike_id":"93719956-b3e3-4d07-a571-c4ec4290a9cc","system_id":"levelo_inurba_marseille","lat":43.2927,"lon":5.36828,"is_reserved":false,"is_disabled":false,"rental_uris":{"android":"levelo://app?vid=93719956-b3e3-4d07-a571-c4ec4290a9cc","ios":"levelo://app?vid=93719956-b3e3-4d07-a571-c4ec4290a9cc"},"vehicle_type_id":"4","last_reported":1743196107,"current_range_meters":4400,"station_id":"ce4bhbp2rcd13ifvqesg","pricing_plan_id":"cebpf4jnsgd1na2vs0mg"},{"bike_id":"9e97e56c-396a-4177-a18f-43130fa78287","system_id":"levelo_inurba_marseille","lat":43.298518,"lon":5.36289,"is_reserved":false,"is_disabled":false,"rental_uris":{"android":"levelo://app?vid=9e97e56c-396a-4177-a18f-43130fa78287","ios":"levelo://app?vid=9e97e56c-396a-4177-a18f-43130fa78287"},"vehicle_type_id":"4","last_reported":1743196107,"current_range_meters":6000,"station_id":"ce4bgpp2rcd13ifvqc3g","pricing_plan_id":"cebpf4jnsgd1na2vs0mg"},{"bike_id":"413e2f7f-8c7e-4723-8476-b6ad27f6313b","system_id":"levelo_inurba_marseille","lat":43.28454,"lon":5.35883,"is_reserved":false,"is_disabled":false,"rental_uris":{"android":"levelo://app?vid=413e2f7f-8c7e-4723-8476-b6ad27f6313b","ios":"levelo://app?vid=413e2f7f-8c7e-4723-8476-b6ad27f6313b"},"vehicle_type_id":"4","last_reported":1743196107,"current_range_meters":4000,"station_id":"ce4bhah2rcd13ifvqei0","pricing_plan_id":"cebpf4jnsgd1na2vs0mg"},{"bike_id":"9b6b5664-07f9-450e-a946-ff576f414882","system_id":"levelo_inurba_marseille","lat":43.27974,"lon":5.38589,"is_reserved":false,"is_disabled":false,"rental_uris":{"android":"levelo://app?vid=9b6b5664-07f9-450e-a946-ff576f414882","ios":"levelo://app?vid=9b6b5664-07f9-450e-a946-ff576f414882"},"vehicle_type_id":"4","last_reported":1743196107,"current_range_meters":4400,"station_id":"","pricing_plan_id":"cebpf4jnsgd1na2vs0mg"},{"bike_id":"319b2b3a-29b9-484f-8b56-77b050f07ca8","system_id":"levelo_inurba_marseille","lat":43.32125,"lon":5.36746,"is_reserved":false,"is_disabled":false,"rental_uris":{"android":"levelo://app?vid=319b2b3a-29b9-484f-8b56-77b050f07ca8","ios":"levelo://app?vid=319b2b3a-29b9-484f-8b56-77b050f07ca8"},"vehicle_type_id":"4","last_reported":1743196107,"current_range_meters":4400,"station_id":"ce4bhrh2rcd13ifvqhug","pricing_plan_id":"cebpf4jnsgd1na2vs0mg"},{"bike_id":"8610c0a7-54e0-46b6-b97c-eb43fd27f9ca","system_id":"levelo_inurba_marseille","lat":43.29645,"lon":5.38007,"is_reserved":false,"is_disabled":false,"rental_uris":{"android":"levelo://app?vid=8610c0a7-54e0-46b6-b97c-eb43fd27f9ca","ios":"levelo://app?vid=8610c0a7-54e0-46b6-b97c-eb43fd27f9ca"},"vehicle_type_id":"4","last_reported":1743196107,"current_range_meters":4400,"station_id":"","pricing_plan_id":"cebpf4jnsgd1na2vs0mg"},{"bike_id":"fe916a8f-0f5c-440f-9b6d-376e7d656c23","system_id":"levelo_inurba_marseille","lat":43.29924,"lon":5.36545,"is_reserved":false,"is_disabled":false,"rental_uris":{"android":"levelo://app?vid=fe916a8f-0f5c-440f-9b6d-376e7d656c23","ios":"levelo://app?vid=fe916a8f-0f5c-440f-9b6d-376e7d656c23"},"vehicle_type_id":"4","last_reported":1743196107,"current_range_meters":4800,"station_id":"ce4bgm92rcd13ifvqbr0","pricing_plan_id":"cebpf4jnsgd1na2vs0mg"},{"bike_id":"01df9f53-82f0-443f-9088-43e667c1a144","system_id":"levelo_inurba_marseille","lat":43.29006,"lon":5.38649,"is_reserved":false,"is_disabled":false,"rental_uris":{"android":"levelo://app?vid=01df9f53-82f0-443f-9088-43e667c1a144","ios":"levelo://app?vid=01df9f53-82f0-443f-9088-43e667c1a144"},"vehicle_type_id":"4","last_reported":1743196107,"current_range_meters":4800,"station_id":"ce4bh4p2rcd13ifvqe0g","pricing_plan_id":"cebpf4jnsgd1na2vs0mg"},{"bike_id":"8bc87a97-b2dd-4281-9a97-90a14dad055d","system_id":"levelo_inurba_marseille","lat":43.308014,"lon":5.381496,"is_reserved":false,"is_disabled":false,"rental_uris":{"android":"levelo://app?vid=8bc87a97-b2dd-4281-9a97-90a14dad055d","ios":"levelo://app?vid=8bc87a97-b2dd-4281-9a97-90a14dad055d"},"vehicle_type_id":"4","last_reported":1743196107,"current_range_meters":4800,"station_id":"ce4bgt12rcd13ifvqce0","pricing_plan_id":"cebpf4jnsgd1na2vs0mg"},{"bike_id":"0d1de0c6-f507-4876-8169-5c518b3c0118","system_id":"levelo_inurba_marseille","lat":43.29295,"lon":5.37451,"is_reserved":false,"is_disabled":false,"rental_uris":{"android":"levelo://app?vid=0d1de0c6-f507-4876-8169-5c518b3c0118","ios":"levelo://app?vid=0d1de0c6-f507-4876-8169-5c518b3c0118"},"vehicle_type_id":"4","last_reported":1743196107,"current_range_meters":4800,"station_id":"ce4bgi12rcd13ifvqb70","pricing_plan_id":"cebpf4jnsgd1na2vs0mg"},{"bike_id":"bc99ebd0-8d83-4ae8-b282-70a471cd8c2b","system_id":"levelo_inurba_marseille","lat":43.29025,"lon":5.38635,"is_reserved":false,"is_disabled":false,"rental_uris":{"android":"levelo://app?vid=bc99ebd0-8d83-4ae8-b282-70a471cd8c2b","ios":"levelo://app?vid=bc99ebd0-8d83-4ae8-b282-70a471cd8c2b"},"vehicle_type_id":"4","last_reported":1743196107,"current_range_meters":4800,"station_id":"ce4bh4p2rcd13ifvqe0g","pricing_plan_id":"cebpf4jnsgd1na2vs0mg"},{"bike_id":"52803407-c6ec-45bb-be39-30b5c2f46387","system_id":"levelo_inurba_marseille","lat":43.287271,"lon":5.360931,"is_reserved":false,"is_disabled":false,"rental_uris":{"android":"levelo://app?vid=52803407-c6ec-45bb-be39-30b5c2f46387","ios":"levelo://app?vid=52803407-c6ec-45bb-be39-30b5c2f46387"},"vehicle_type_id":"4","last_reported":1743196107,"current_range_meters":4800,"station_id":"cki0cbj6b192h4jlfktg","pricing_plan_id":"cebpf4jnsgd1na2vs0mg"},{"bike_id":"6a2508a5-4594-4289-a196-eaa98272754a","system_id":"levelo_inurba_marseille","lat":43.29554,"lon":5.42292,"is_reserved":false,"is_disabled":false,"rental_uris":{"android":"levelo://app?vid=6a2508a5-4594-4289-a196-eaa98272754a","ios":"levelo://app?vid=6a2508a5-4594-4289-a196-eaa98272754a"},"vehicle_type_id":"4","last_reported":1743196107,"current_range_meters":4800,"station_id":"ce4bhph2rcd13ifvqhdg","pricing_plan_id":"cebpf4jnsgd1na2vs0mg"},{"bike_id":"cf49318e-b0f4-4cea-92f2-6aff2f4e5c78","system_id":"levelo_inurba_marseille","lat":43.29192,"lon":5.35795,"is_reserved":false,"is_disabled":false,"rental_uris":{"android":"levelo://app?vid=cf49318e-b0f4-4cea-92f2-6aff2f4e5c78","ios":"levelo://app?vid=cf49318e-b0f4-4cea-92f2-6aff2f4e5c78"},"vehicle_type_id":"4","last_reported":1743196107,"current_range_meters":4800,"station_id":"ce4bhb12rcd13ifvqel0","pricing_plan_id":"cebpf4jnsgd1na2vs0mg"},{"bike_id":"25359bf3-5c4b-490a-abd6-ebea17d165d3","system_id":"levelo_inurba_marseille","lat":43.29858,"lon":5.36343,"is_reserved":false,"is_disabled":false,"rental_uris":{"android":"levelo://app?vid=25359bf3-5c4b-490a-abd6-ebea17d165d3","ios":"levelo://app?vid=25359bf3-5c4b-490a-abd6-ebea17d165d3"},"vehicle_type_id":"4","last_reported":1743196107,"current_range_meters":4800,"station_id":"","pricing_plan_id":"cebpf4jnsgd1na2vs0mg"},{"bike_id":"ee054ecc-11db-469b-a361-0b3836a86812","system_id":"levelo_inurba_marseille","lat":43.28069,"lon":5.43976,"is_reserved":false,"is_disabled":false,"rental_uris":{"android":"levelo://app?vid=ee054ecc-11db-469b-a361-0b3836a86812","ios":"levelo://app?vid=ee054ecc-11db-469b-a361-0b3836a86812"},"vehicle_type_id":"4","last_reported":1743196107,"current_range_meters":4800,"station_id":"","pricing_plan_id":"cebpf4jnsgd1na2vs0mg"},{"bike_id":"fc8e8371-f4e9-4721-bc19-563801e389dc","system_id":"levelo_inurba_marseille","lat":43.337444,"lon":5.374475,"is_reserved":false,"is_disabled":false,"rental_uris":{"android":"levelo://app?vid=fc8e8371-f4e9-4721-bc19-563801e389dc","ios":"levelo://app?vid=fc8e8371-f4e9-4721-bc19-563801e389dc"},"vehicle_type_id":"4","last_reported":1743196107,"current_range_meters":4800,"station_id":"","pricing_plan_id":"cebpf4jnsgd1na2vs0mg"},{"bike_id":"980ff761-ef4f-469b-8661-624f949ac9ec","system_id":"levelo_inurba_marseille","lat":43.25817,"lon":5.39442,"is_reserved":false,"is_disabled":false,"rental_uris":{"android":"levelo://app?vid=980ff761-ef4f-469b-8661-624f949ac9ec","ios":"levelo://app?vid=980ff761-ef4f-469b-8661-624f949ac9ec"},"vehicle_type_id":"4","last_reported":1743196107,"current_range_meters":5600,"station_id":"ce4bhip2rcd13ifvqft0","pricing_plan_id":"cebpf4jnsgd1na2vs0mg"},{"bike_id":"c73f0e70-cf05-4c3d-9791-00361b8a4b59","system_id":"levelo_inurba_marseille","lat":43.26788,"lon":5.39408,"is_reserved":false,"is_disabled":false,"rental_uris":{"android":"levelo://app?vid=c73f0e70-cf05-4c3d-9791-00361b8a4b59","ios":"levelo://app?vid=c73f0e70-cf05-4c3d-9791-00361b8a4b59"},"vehicle_type_id":"4","last_reported":1743196107,"current_range_meters":5600,"station_id":"ce4bhh12rcd13ifvqfg0","pricing_plan_id":"cebpf4jnsgd1na2vs0mg"},{"bike_id":"1b49afde-e8c6-4a37-95eb-caa7d76f7ff4","system_id":"levelo_inurba_marseille","lat":43.29286,"lon":5.38412,"is_reserved":false,"is_disabled":false,"rental_uris":{"android":"levelo://app?vid=1b49afde-e8c6-4a37-95eb-caa7d76f7ff4","ios":"levelo://app?vid=1b49afde-e8c6-4a37-95eb-caa7d76f7ff4"},"vehicle_type_id":"4","last_reported":1743196107,"current_range_meters":5600,"station_id":"ce4bh692rcd13ifvqea0","pricing_plan_id":"cebpf4jnsgd1na2vs0mg"},{"bike_id":"8306ff47-284b-460f-888b-6204683b7222","system_id":"levelo_inurba_marseille","lat":43.28736,"lon":5.36071,"is_reserved":false,"is_disabled":false,"rental_uris":{"android":"levelo://app?vid=8306ff47-284b-460f-888b-6204683b7222","ios":"levelo://app?vid=8306ff47-284b-460f-888b-6204683b7222"},"vehicle_type_id":"4","last_reported":1743196107,"current_range_meters":6000,"station_id":"cki0cbj6b192h4jlfktg","pricing_plan_id":"cebpf4jnsgd1na2vs0mg"},{"bike_id":"fb94d37c-a5f0-424c-9c95-a0f43cd760b8","system_id":"levelo_inurba_marseille","lat":43.3041,"lon":5.39751,"is_reserved":false,"is_disabled":true,"rental_uris":{"android":"levelo://app?vid=fb94d37c-a5f0-424c-9c95-a0f43cd760b8","ios":"levelo://app?vid=fb94d37c-a5f0-424c-9c95-a0f43cd760b8"},"vehicle_type_id":"4","last_reported":1743196107,"current_range_meters":5600,"station_id":"ce4bh092rcd13ifvqd20","pricing_plan_id":"cebpf4jnsgd1na2vs0mg"},{"bike_id":"7cff89a6-066a-485e-b926-e2a31ac78686","system_id":"levelo_inurba_marseille","lat":43.30293,"lon":5.39221,"is_reserved":false,"is_disabled":false,"rental_uris":{"android":"levelo://app?vid=7cff89a6-066a-485e-b926-e2a31ac78686","ios":"levelo://app?vid=7cff89a6-066a-485e-b926-e2a31ac78686"},"vehicle_type_id":"4","last_reported":1743196107,"current_range_meters":6000,"station_id":"ce4bgkh2rcd13ifvqbk0","pricing_plan_id":"cebpf4jnsgd1na2vs0mg"},{"bike_id":"3e902ab3-ff20-4477-86ac-c45289de600e","system_id":"levelo_inurba_marseille","lat":43.32271,"lon":5.38307,"is_reserved":false,"is_disabled":false,"rental_uris":{"android":"levelo://app?vid=3e902ab3-ff20-4477-86ac-c45289de600e","ios":"levelo://app?vid=3e902ab3-ff20-4477-86ac-c45289de600e"},"vehicle_type_id":"4","last_reported":1743196107,"current_range_meters":6000,"station_id":"ce4bhr12rcd13ifvqhqg","pricing_plan_id":"cebpf4jnsgd1na2vs0mg"},{"bike_id":"376e2628-4699-4887-9ff3-b8de9424e7ce","system_id":"levelo_inurba_marseille","lat":43.27989,"lon":5.41657,"is_reserved":false,"is_disabled":false,"rental_uris":{"android":"levelo://app?vid=376e2628-4699-4887-9ff3-b8de9424e7ce","ios":"levelo://app?vid=376e2628-4699-4887-9ff3-b8de9424e7ce"},"vehicle_type_id":"4","last_reported":1743196107,"current_range_meters":6000,"station_id":"ce4bho12rcd13ifvqh1g","pricing_plan_id":"cebpf4jnsgd1na2vs0mg"},{"bike_id":"05c19c64-cc46-42af-9a28-2e6ea7df66e1","system_id":"levelo_inurba_marseille","lat":43.29302,"lon":5.37167,"is_reserved":false,"is_disabled":false,"rental_uris":{"android":"levelo://app?vid=05c19c64-cc46-42af-9a28-2e6ea7df66e1","ios":"levelo://app?vid=05c19c64-cc46-42af-9a28-2e6ea7df66e1"},"vehicle_type_id":"4","last_reported":1743196107,"current_range_meters":6000,"station_id":"ce4bgh92rcd13ifvqb40","pricing_plan_id":"cebpf4jnsgd1na2vs0mg"},{"bike_id":"caf542ed-b448-4b47-8302-0f1de89e5151","system_id":"levelo_inurba_marseille","lat":43.27201,"lon":5.39188,"is_reserved":false,"is_disabled":false,"rental_uris":{"android":"levelo://app?vid=caf542ed-b448-4b47-8302-0f1de89e5151","ios":"levelo://app?vid=caf542ed-b448-4b47-8302-0f1de89e5151"},"vehicle_type_id":"4","last_reported":1743196107,"current_range_meters":5600,"station_id":"ce4bhhp2rcd13ifvqfm0","pricing_plan_id":"cebpf4jnsgd1na2vs0mg"},{"bike_id":"f3c12a40-186a-48f6-9f54-4ece2b648bce","system_id":"levelo_inurba_marseille","lat":43.293069,"lon":5.371769,"is_reserved":false,"is_disabled":false,"rental_uris":{"android":"levelo://app?vid=f3c12a40-186a-48f6-9f54-4ece2b648bce","ios":"levelo://app?vid=f3c12a40-186a-48f6-9f54-4ece2b648bce"},"vehicle_type_id":"4","last_reported":1743196107,"current_range_meters":6000,"station_id":"","pricing_plan_id":"cebpf4jnsgd1na2vs0mg"},{"bike_id":"ddb3e057-8a1c-4f4a-8056-17b5b845e0b9","system_id":"levelo_inurba_marseille","lat":43.2804,"lon":5.39863,"is_reserved":false,"is_disabled":false,"rental_uris":{"android":"levelo://app?vid=ddb3e057-8a1c-4f4a-8056-17b5b845e0b9","ios":"levelo://app?vid=ddb3e057-8a1c-4f4a-8056-17b5b845e0b9"},"vehicle_type_id":"4","last_reported":1743196107,"current_range_meters":6000,"station_id":"","pricing_plan_id":"cebpf4jnsgd1na2vs0mg"},{"bike_id":"111d6fef-5725-4398-9fe4-3cb5ddfd953e","system_id":"levelo_inurba_marseille","lat":43.2867,"lon":5.3865,"is_reserved":false,"is_disabled":false,"rental_uris":{"android":"levelo://app?vid=111d6fef-5725-4398-9fe4-3cb5ddfd953e","ios":"levelo://app?vid=111d6fef-5725-4398-9fe4-3cb5ddfd953e"},"vehicle_type_id":"4","last_reported":1743196107,"current_range_meters":10000,"station_id":"ce4bh492rcd13ifvqdug","pricing_plan_id":"cebpf4jnsgd1na2vs0mg"},{"bike_id":"70d616e3-8eca-4707-9218-38d2fbdccab2","system_id":"levelo_inurba_marseille","lat":43.295228,"lon":5.375022,"is_reserved":false,"is_disabled":true,"rental_uris":{"android":"levelo://app?vid=70d616e3-8eca-4707-9218-38d2fbdccab2","ios":"levelo://app?vid=70d616e3-8eca-4707-9218-38d2fbdccab2"},"vehicle_type_id":"4","last_reported":1743196107,"current_range_meters":6000,"station_id":"ce4bgkp2rcd13ifvqbmg","pricing_plan_id":"cebpf4jnsgd1na2vs0mg"},{"bike_id":"19221227-42ec-4f4b-8f04-42a0818e22f5","system_id":"levelo_inurba_marseille","lat":43.32095,"lon":5.36765,"is_reserved":false,"is_disabled":false,"rental_uris":{"android":"levelo://app?vid=19221227-42ec-4f4b-8f04-42a0818e22f5","ios":"levelo://app?vid=19221227-42ec-4f4b-8f04-42a0818e22f5"},"vehicle_type_id":"4","last_reported":1743196107,"current_range_meters":6000,"station_id":"ce4bhrh2rcd13ifvqhug","pricing_plan_id":"cebpf4jnsgd1na2vs0mg"},{"bike_id":"67a1a2f2-eb76-40dd-b124-62581646fa46","system_id":"levelo_inurba_marseille","lat":43.28051,"lon":5.36946,"is_reserved":false,"is_disabled":false,"rental_uris":{"android":"levelo://app?vid=67a1a2f2-eb76-40dd-b124-62581646fa46","ios":"levelo://app?vid=67a1a2f2-eb76-40dd-b124-62581646fa46"},"vehicle_type_id":"4","last_reported":1743196107,"current_range_meters":6000,"station_id":"ce4bha12rcd13ifvqef0","pricing_plan_id":"cebpf4jnsgd1na2vs0mg"},{"bike_id":"d1d06c45-3e72-4ab3-bb24-5a06ae51f370","system_id":"levelo_inurba_marseille","lat":43.32295,"lon":5.38271,"is_reserved":false,"is_disabled":false,"rental_uris":{"android":"levelo://app?vid=d1d06c45-3e72-4ab3-bb24-5a06ae51f370","ios":"levelo://app?vid=d1d06c45-3e72-4ab3-bb24-5a06ae51f370"},"vehicle_type_id":"4","last_reported":1743196107,"current_range_meters":6000,"station_id":"ce4bhr12rcd13ifvqhqg","pricing_plan_id":"cebpf4jnsgd1na2vs0mg"},{"bike_id":"653f4403-c5cd-4032-b5a8-482768e38f5f","system_id":"levelo_inurba_marseille","lat":43.23963,"lon":5.3664,"is_reserved":false,"is_disabled":false,"rental_uris":{"android":"levelo://app?vid=653f4403-c5cd-4032-b5a8-482768e38f5f","ios":"levelo://app?vid=653f4403-c5cd-4032-b5a8-482768e38f5f"},"vehicle_type_id":"4","last_reported":1743196107,"current_range_meters":6400,"station_id":"ce4bhi12rcd13ifvqfp0","pricing_plan_id":"cebpf4jnsgd1na2vs0mg"},{"bike_id":"6599171c-4931-4cfd-83f2-504f0c5778ed","system_id":"levelo_inurba_marseille","lat":43.293,"lon":5.37458,"is_reserved":false,"is_disabled":false,"rental_uris":{"android":"levelo://app?vid=6599171c-4931-4cfd-83f2-504f0c5778ed","ios":"levelo://app?vid=6599171c-4931-4cfd-83f2-504f0c5778ed"},"vehicle_type_id":"4","last_reported":1743196107,"current_range_meters":6400,"station_id":"ce4bgi12rcd13ifvqb70","pricing_plan_id":"cebpf4jnsgd1na2vs0mg"},{"bike_id":"7fe9a38f-4d97-49ec-8db6-139f7c5ded5a","system_id":"levelo_inurba_marseille","lat":43.28962,"lon":5.36599,"is_reserved":false,"is_disabled":false,"rental_uris":{"android":"levelo://app?vid=7fe9a38f-4d97-49ec-8db6-139f7c5ded5a","ios":"levelo://app?vid=7fe9a38f-4d97-49ec-8db6-139f7c5ded5a"},"vehicle_type_id":"4","last_reported":1743196107,"current_range_meters":6400,"station_id":"","pricing_plan_id":"cebpf4jnsgd1na2vs0mg"},{"bike_id":"f0572f02-d22d-49f0-8f0c-6b0e312e89eb","system_id":"levelo_inurba_marseille","lat":43.31358,"lon":5.38497,"is_reserved":false,"is_disabled":false,"rental_uris":{"android":"levelo://app?vid=f0572f02-d22d-49f0-8f0c-6b0e312e89eb","ios":"levelo://app?vid=f0572f02-d22d-49f0-8f0c-6b0e312e89eb"},"vehicle_type_id":"4","last_reported":1743196107,"current_range_meters":6400,"station_id":"ce4bgt92rcd13ifvqcf0","pricing_plan_id":"cebpf4jnsgd1na2vs0mg"},{"bike_id":"fd3421f3-9336-4d90-b616-c4936932ff9c","system_id":"levelo_inurba_marseille","lat":43.33012,"lon":5.3919,"is_reserved":false,"is_disabled":false,"rental_uris":{"android":"levelo://app?vid=fd3421f3-9336-4d90-b616-c4936932ff9c","ios":"levelo://app?vid=fd3421f3-9336-4d90-b616-c4936932ff9c"},"vehicle_type_id":"4","last_reported":1743196107,"current_range_meters":6400,"station_id":"","pricing_plan_id":"cebpf4jnsgd1na2vs0mg"},{"bike_id":"64f0ea86-1180-4755-95e1-3cbc9c8d4cf5","system_id":"levelo_inurba_marseille","lat":43.3301,"lon":5.43849,"is_reserved":false,"is_disabled":true,"rental_uris":{"android":"levelo://app?vid=64f0ea86-1180-4755-95e1-3cbc9c8d4cf5","ios":"levelo://app?vid=64f0ea86-1180-4755-95e1-3cbc9c8d4cf5"},"vehicle_type_id":"4","last_reported":1743196107,"current_range_meters":6400,"station_id":"","pricing_plan_id":"cebpf4jnsgd1na2vs0mg"},{"bike_id":"8c1147b4-3bd2-4043-814e-4b095599c6dd","system_id":"levelo_inurba_marseille","lat":43.29964,"lon":5.37176,"is_reserved":false,"is_disabled":false,"rental_uris":{"android":"levelo://app?vid=8c1147b4-3bd2-4043-814e-4b095599c6dd","ios":"levelo://app?vid=8c1147b4-3bd2-4043-814e-4b095599c6dd"},"vehicle_type_id":"4","last_reported":1743196107,"current_range_meters":6400,"station_id":"ce4bgr92rcd13ifvqc7g","pricing_plan_id":"cebpf4jnsgd1na2vs0mg"},{"bike_id":"c14a8fc7-e8db-45ab-b563-5fdd959cef0f","system_id":"levelo_inurba_marseille","lat":43.26041,"lon":5.41727,"is_reserved":false,"is_disabled":false,"rental_uris":{"android":"levelo://app?vid=c14a8fc7-e8db-45ab-b563-5fdd959cef0f","ios":"levelo://app?vid=c14a8fc7-e8db-45ab-b563-5fdd959cef0f"},"vehicle_type_id":"4","last_reported":1743196107,"current_range_meters":6400,"station_id":"","pricing_plan_id":"cebpf4jnsgd1na2vs0mg"},{"bike_id":"14054c23-e1aa-4fb0-b7cc-6cf90b5fbd28","system_id":"levelo_inurba_marseille","lat":43.29776,"lon":5.38097,"is_reserved":false,"is_disabled":true,"rental_uris":{"android":"levelo://app?vid=14054c23-e1aa-4fb0-b7cc-6cf90b5fbd28","ios":"levelo://app?vid=14054c23-e1aa-4fb0-b7cc-6cf90b5fbd28"},"vehicle_type_id":"4","last_reported":1743196107,"current_range_meters":6800,"station_id":"ce4bgip2rcd13ifvqbb0","pricing_plan_id":"cebpf4jnsgd1na2vs0mg"},{"bike_id":"ec940620-2a09-4eae-aace-1a0a72b62180","system_id":"levelo_inurba_marseille","lat":43.30284,"lon":5.40088,"is_reserved":false,"is_disabled":false,"rental_uris":{"android":"levelo://app?vid=ec940620-2a09-4eae-aace-1a0a72b62180","ios":"levelo://app?vid=ec940620-2a09-4eae-aace-1a0a72b62180"},"vehicle_type_id":"4","last_reported":1743196107,"current_range_meters":6800,"station_id":"ce4bgvh2rcd13ifvqcs0","pricing_plan_id":"cebpf4jnsgd1na2vs0mg"},{"bike_id":"7a947e5d-1d25-4736-8347-339a47ef211e","system_id":"levelo_inurba_marseille","lat":43.29963,"lon":5.38494,"is_reserved":false,"is_disabled":false,"rental_uris":{"android":"levelo://app?vid=7a947e5d-1d25-4736-8347-339a47ef211e","ios":"levelo://app?vid=7a947e5d-1d25-4736-8347-339a47ef211e"},"vehicle_type_id":"4","last_reported":1743196107,"current_range_meters":6800,"station_id":"ce4bgj92rcd13ifvqbd0","pricing_plan_id":"cebpf4jnsgd1na2vs0mg"},{"bike_id":"c74a2dc2-aa31-4c6d-ada8-0d28ee6aedb4","system_id":"levelo_inurba_marseille","lat":43.28416,"lon":5.34997,"is_reserved":false,"is_disabled":false,"rental_uris":{"android":"levelo://app?vid=c74a2dc2-aa31-4c6d-ada8-0d28ee6aedb4","ios":"levelo://app?vid=c74a2dc2-aa31-4c6d-ada8-0d28ee6aedb4"},"vehicle_type_id":"4","last_reported":1743196107,"current_range_meters":6800,"station_id":"ce4bhbh2rcd13ifvqepg","pricing_plan_id":"cebpf4jnsgd1na2vs0mg"},{"bike_id":"b2fd8e70-5b37-4865-bf49-d30da2481695","system_id":"levelo_inurba_marseille","lat":43.23198,"lon":5.35552,"is_reserved":false,"is_disabled":false,"rental_uris":{"android":"levelo://app?vid=b2fd8e70-5b37-4865-bf49-d30da2481695","ios":"levelo://app?vid=b2fd8e70-5b37-4865-bf49-d30da2481695"},"vehicle_type_id":"4","last_reported":1743196107,"current_range_meters":6800,"station_id":"ce4bhu92rcd13ifvqi70","pricing_plan_id":"cebpf4jnsgd1na2vs0mg"},{"bike_id":"0ac88cdf-dd3a-494f-aaa5-2b24d1ce393f","system_id":"levelo_inurba_marseille","lat":43.23214,"lon":5.35556,"is_reserved":false,"is_disabled":false,"rental_uris":{"android":"levelo://app?vid=0ac88cdf-dd3a-494f-aaa5-2b24d1ce393f","ios":"levelo://app?vid=0ac88cdf-dd3a-494f-aaa5-2b24d1ce393f"},"vehicle_type_id":"4","last_reported":1743196107,"current_range_meters":6800,"station_id":"ce4bhu92rcd13ifvqi70","pricing_plan_id":"cebpf4jnsgd1na2vs0mg"},{"bike_id":"da3eb438-3d64-4408-a000-004cd5b861d5","system_id":"levelo_inurba_marseille","lat":43.27486,"lon":5.42469,"is_reserved":false,"is_disabled":false,"rental_uris":{"android":"levelo://app?vid=da3eb438-3d64-4408-a000-004cd5b861d5","ios":"levelo://app?vid=da3eb438-3d64-4408-a000-004cd5b861d5"},"vehicle_type_id":"4","last_reported":1743196107,"current_range_meters":6800,"station_id":"ce4bhn92rcd13ifvqgrg","pricing_plan_id":"cebpf4jnsgd1na2vs0mg"},{"bike_id":"5fb878e7-3e9d-4bde-be2a-9804b87aa5a2","system_id":"levelo_inurba_marseille","lat":43.29431,"lon":5.3861,"is_reserved":false,"is_disabled":false,"rental_uris":{"android":"levelo://app?vid=5fb878e7-3e9d-4bde-be2a-9804b87aa5a2","ios":"levelo://app?vid=5fb878e7-3e9d-4bde-be2a-9804b87aa5a2"},"vehicle_type_id":"4","last_reported":1743196107,"current_range_meters":6800,"station_id":"ce4bh2h2rcd13ifvqdh0","pricing_plan_id":"cebpf4jnsgd1na2vs0mg"},{"bike_id":"734b06a4-5c41-4d6a-a757-7f5e19975ada","system_id":"levelo_inurba_marseille","lat":43.29275,"lon":5.38436,"is_reserved":false,"is_disabled":false,"rental_uris":{"android":"levelo://app?vid=734b06a4-5c41-4d6a-a757-7f5e19975ada","ios":"levelo://app?vid=734b06a4-5c41-4d6a-a757-7f5e19975ada"},"vehicle_type_id":"4","last_reported":1743196107,"current_range_meters":7200,"station_id":"ce4bh692rcd13ifvqea0","pricing_plan_id":"cebpf4jnsgd1na2vs0mg"},{"bike_id":"961245ca-8d90-4d71-b735-61afea929100","system_id":"levelo_inurba_marseille","lat":43.24163,"lon":5.36399,"is_reserved":false,"is_disabled":false,"rental_uris":{"android":"levelo://app?vid=961245ca-8d90-4d71-b735-61afea929100","ios":"levelo://app?vid=961245ca-8d90-4d71-b735-61afea929100"},"vehicle_type_id":"4","last_reported":1743196107,"current_range_meters":7200,"station_id":"cpo36qri1sfpv3e86is0","pricing_plan_id":"cebpf4jnsgd1na2vs0mg"},{"bike_id":"69d4a96e-aebb-48d7-9d81-4070f7503e98","system_id":"levelo_inurba_marseille","lat":43.30866,"lon":5.37417,"is_reserved":false,"is_disabled":false,"rental_uris":{"android":"levelo://app?vid=69d4a96e-aebb-48d7-9d81-4070f7503e98","ios":"levelo://app?vid=69d4a96e-aebb-48d7-9d81-4070f7503e98"},"vehicle_type_id":"4","last_reported":1743196107,"current_range_meters":7200,"station_id":"","pricing_plan_id":"cebpf4jnsgd1na2vs0mg"},{"bike_id":"6026f9b7-25ae-4d64-8648-76338e9b1c4c","system_id":"levelo_inurba_marseille","lat":43.32365,"lon":5.3888,"is_reserved":false,"is_disabled":false,"rental_uris":{"android":"levelo://app?vid=6026f9b7-25ae-4d64-8648-76338e9b1c4c","ios":"levelo://app?vid=6026f9b7-25ae-4d64-8648-76338e9b1c4c"},"vehicle_type_id":"4","last_reported":1743196107,"current_range_meters":7200,"station_id":"ce4bhqp2rcd13ifvqhog","pricing_plan_id":"cebpf4jnsgd1na2vs0mg"},{"bike_id":"018bbec2-0bfc-4545-87a0-8714158a124b","system_id":"levelo_inurba_marseille","lat":43.27969,"lon":5.38735,"is_reserved":false,"is_disabled":false,"rental_uris":{"android":"levelo://app?vid=018bbec2-0bfc-4545-87a0-8714158a124b","ios":"levelo://app?vid=018bbec2-0bfc-4545-87a0-8714158a124b"},"vehicle_type_id":"4","last_reported":1743196107,"current_range_meters":7200,"station_id":"ce4bhg12rcd13ifvqf80","pricing_plan_id":"cebpf4jnsgd1na2vs0mg"},{"bike_id":"709b5104-db17-4207-9475-583085617977","system_id":"levelo_inurba_marseille","lat":43.250057,"lon":5.389194,"is_reserved":false,"is_disabled":false,"rental_uris":{"android":"levelo://app?vid=709b5104-db17-4207-9475-583085617977","ios":"levelo://app?vid=709b5104-db17-4207-9475-583085617977"},"vehicle_type_id":"4","last_reported":1743196107,"current_range_meters":7200,"station_id":"ce4bhgp2rcd13ifvqfd0","pricing_plan_id":"cebpf4jnsgd1na2vs0mg"},{"bike_id":"d0c2ba62-325f-42ee-b4c5-fe6707aa69d7","system_id":"levelo_inurba_marseille","lat":43.24814,"lon":5.37444,"is_reserved":false,"is_disabled":false,"rental_uris":{"android":"levelo://app?vid=d0c2ba62-325f-42ee-b4c5-fe6707aa69d7","ios":"levelo://app?vid=d0c2ba62-325f-42ee-b4c5-fe6707aa69d7"},"vehicle_type_id":"4","last_reported":1743196107,"current_range_meters":7200,"station_id":"ce4bhgh2rcd13ifvqfb0","pricing_plan_id":"cebpf4jnsgd1na2vs0mg"},{"bike_id":"b3a776b0-d1bb-4d37-bf3e-757d3a65ac06","system_id":"levelo_inurba_marseille","lat":43.296235,"lon":5.371667,"is_reserved":false,"is_disabled":false,"rental_uris":{"android":"levelo://app?vid=b3a776b0-d1bb-4d37-bf3e-757d3a65ac06","ios":"levelo://app?vid=b3a776b0-d1bb-4d37-bf3e-757d3a65ac06"},"vehicle_type_id":"4","last_reported":1743196107,"current_range_meters":4800,"station_id":"ce4bgnh2rcd13ifvqc0g","pricing_plan_id":"cebpf4jnsgd1na2vs0mg"},{"bike_id":"efec2e4f-7291-4336-a1f2-33d2f7cba36f","system_id":"levelo_inurba_marseille","lat":43.29256,"lon":5.38442,"is_reserved":false,"is_disabled":false,"rental_uris":{"android":"levelo://app?vid=efec2e4f-7291-4336-a1f2-33d2f7cba36f","ios":"levelo://app?vid=efec2e4f-7291-4336-a1f2-33d2f7cba36f"},"vehicle_type_id":"4","last_reported":1743196107,"current_range_meters":7200,"station_id":"ce4bh692rcd13ifvqea0","pricing_plan_id":"cebpf4jnsgd1na2vs0mg"},{"bike_id":"0f9862fa-3aea-4a9f-b2bf-c003735a4d06","system_id":"levelo_inurba_marseille","lat":43.29019,"lon":5.38645,"is_reserved":false,"is_disabled":false,"rental_uris":{"android":"levelo://app?vid=0f9862fa-3aea-4a9f-b2bf-c003735a4d06","ios":"levelo://app?vid=0f9862fa-3aea-4a9f-b2bf-c003735a4d06"},"vehicle_type_id":"4","last_reported":1743196107,"current_range_meters":7200,"station_id":"ce4bh4p2rcd13ifvqe0g","pricing_plan_id":"cebpf4jnsgd1na2vs0mg"},{"bike_id":"fbf23545-878e-46e0-b77f-1457e0849656","system_id":"levelo_inurba_marseille","lat":43.286149,"lon":5.351106,"is_reserved":false,"is_disabled":false,"rental_uris":{"android":"levelo://app?vid=fbf23545-878e-46e0-b77f-1457e0849656","ios":"levelo://app?vid=fbf23545-878e-46e0-b77f-1457e0849656"},"vehicle_type_id":"4","last_reported":1743196107,"current_range_meters":7200,"station_id":"ce4bhch2rcd13ifvqeug","pricing_plan_id":"cebpf4jnsgd1na2vs0mg"},{"bike_id":"a43e5931-5a4e-4bcf-977d-45358e944f12","system_id":"levelo_inurba_marseille","lat":43.28034,"lon":5.36938,"is_reserved":false,"is_disabled":false,"rental_uris":{"android":"levelo://app?vid=a43e5931-5a4e-4bcf-977d-45358e944f12","ios":"levelo://app?vid=a43e5931-5a4e-4bcf-977d-45358e944f12"},"vehicle_type_id":"4","last_reported":1743196107,"current_range_meters":7200,"station_id":"ce4bha12rcd13ifvqef0","pricing_plan_id":"cebpf4jnsgd1na2vs0mg"},{"bike_id":"ee2588a0-8a3d-4c56-88e3-6823a90de92d","system_id":"levelo_inurba_marseille","lat":43.2807,"lon":5.3858,"is_reserved":false,"is_disabled":false,"rental_uris":{"android":"levelo://app?vid=ee2588a0-8a3d-4c56-88e3-6823a90de92d","ios":"levelo://app?vid=ee2588a0-8a3d-4c56-88e3-6823a90de92d"},"vehicle_type_id":"4","last_reported":1743196107,"current_range_meters":7200,"station_id":"","pricing_plan_id":"cebpf4jnsgd1na2vs0mg"},{"bike_id":"0dd576f4-2e6b-4da4-b288-35feebf8c995","system_id":"levelo_inurba_marseille","lat":43.27367,"lon":5.36258,"is_reserved":false,"is_disabled":false,"rental_uris":{"android":"levelo://app?vid=0dd576f4-2e6b-4da4-b288-35feebf8c995","ios":"levelo://app?vid=0dd576f4-2e6b-4da4-b288-35feebf8c995"},"vehicle_type_id":"4","last_reported":1743196107,"current_range_meters":7200,"station_id":"ce4bhbh2rcd13ifvqeo0","pricing_plan_id":"cebpf4jnsgd1na2vs0mg"},{"bike_id":"f9a60b82-c3f9-45b0-8292-49bb390a1879","system_id":"levelo_inurba_marseille","lat":43.29269,"lon":5.37615,"is_reserved":false,"is_disabled":false,"rental_uris":{"android":"levelo://app?vid=f9a60b82-c3f9-45b0-8292-49bb390a1879","ios":"levelo://app?vid=f9a60b82-c3f9-45b0-8292-49bb390a1879"},"vehicle_type_id":"4","last_reported":1743196107,"current_range_meters":8000,"station_id":"ce4bgi12rcd13ifvqb80","pricing_plan_id":"cebpf4jnsgd1na2vs0mg"},{"bike_id":"813634ed-e21d-4b9e-88e8-aa8b87581eb3","system_id":"levelo_inurba_marseille","lat":43.32098,"lon":5.36762,"is_reserved":false,"is_disabled":false,"rental_uris":{"android":"levelo://app?vid=813634ed-e21d-4b9e-88e8-aa8b87581eb3","ios":"levelo://app?vid=813634ed-e21d-4b9e-88e8-aa8b87581eb3"},"vehicle_type_id":"4","last_reported":1743196107,"current_range_meters":8000,"station_id":"ce4bhrh2rcd13ifvqhug","pricing_plan_id":"cebpf4jnsgd1na2vs0mg"},{"bike_id":"7cf1ab86-6627-40ea-9381-242fc247eae5","system_id":"levelo_inurba_marseille","lat":43.286185,"lon":5.351016,"is_reserved":false,"is_disabled":false,"rental_uris":{"android":"levelo://app?vid=7cf1ab86-6627-40ea-9381-242fc247eae5","ios":"levelo://app?vid=7cf1ab86-6627-40ea-9381-242fc247eae5"},"vehicle_type_id":"4","last_reported":1743196107,"current_range_meters":8000,"station_id":"","pricing_plan_id":"cebpf4jnsgd1na2vs0mg"},{"bike_id":"fb9b5d83-e13d-407b-b838-22cd645caa9b","system_id":"levelo_inurba_marseille","lat":43.28599,"lon":5.35122,"is_reserved":false,"is_disabled":false,"rental_uris":{"android":"levelo://app?vid=fb9b5d83-e13d-407b-b838-22cd645caa9b","ios":"levelo://app?vid=fb9b5d83-e13d-407b-b838-22cd645caa9b"},"vehicle_type_id":"4","last_reported":1743196107,"current_range_meters":8000,"station_id":"ce4bhch2rcd13ifvqeug","pricing_plan_id":"cebpf4jnsgd1na2vs0mg"},{"bike_id":"fd134268-1499-401e-bb83-137ea2b7a695","system_id":"levelo_inurba_marseille","lat":43.23963,"lon":5.3663,"is_reserved":false,"is_disabled":false,"rental_uris":{"android":"levelo://app?vid=fd134268-1499-401e-bb83-137ea2b7a695","ios":"levelo://app?vid=fd134268-1499-401e-bb83-137ea2b7a695"},"vehicle_type_id":"4","last_reported":1743196107,"current_range_meters":8000,"station_id":"ce4bhi12rcd13ifvqfp0","pricing_plan_id":"cebpf4jnsgd1na2vs0mg"},{"bike_id":"59d7ee56-648c-4b19-8b96-9ff340469da7","system_id":"levelo_inurba_marseille","lat":43.29867,"lon":5.36268,"is_reserved":false,"is_disabled":false,"rental_uris":{"android":"levelo://app?vid=59d7ee56-648c-4b19-8b96-9ff340469da7","ios":"levelo://app?vid=59d7ee56-648c-4b19-8b96-9ff340469da7"},"vehicle_type_id":"4","last_reported":1743196107,"current_range_meters":8000,"station_id":"ce4bgpp2rcd13ifvqc3g","pricing_plan_id":"cebpf4jnsgd1na2vs0mg"},{"bike_id":"a3514274-c949-4c91-b768-3857fda27d00","system_id":"levelo_inurba_marseille","lat":43.28625,"lon":5.37052,"is_reserved":false,"is_disabled":false,"rental_uris":{"android":"levelo://app?vid=a3514274-c949-4c91-b768-3857fda27d00","ios":"levelo://app?vid=a3514274-c949-4c91-b768-3857fda27d00"},"vehicle_type_id":"4","last_reported":1743196107,"current_range_meters":8000,"station_id":"ce4bht12rcd13ifvqi60","pricing_plan_id":"cebpf4jnsgd1na2vs0mg"},{"bike_id":"2e919ca5-ce98-4c47-a9d7-66e6ab7584e4","system_id":"levelo_inurba_marseille","lat":43.32112,"lon":5.36783,"is_reserved":false,"is_disabled":false,"rental_uris":{"android":"levelo://app?vid=2e919ca5-ce98-4c47-a9d7-66e6ab7584e4","ios":"levelo://app?vid=2e919ca5-ce98-4c47-a9d7-66e6ab7584e4"},"vehicle_type_id":"4","last_reported":1743196107,"current_range_meters":8000,"station_id":"ce4bhrh2rcd13ifvqhug","pricing_plan_id":"cebpf4jnsgd1na2vs0mg"},{"bike_id":"e9af4250-7582-4b4f-b8b5-e79f038710ab","system_id":"levelo_inurba_marseille","lat":43.29272,"lon":5.38424,"is_reserved":false,"is_disabled":false,"rental_uris":{"android":"levelo://app?vid=e9af4250-7582-4b4f-b8b5-e79f038710ab","ios":"levelo://app?vid=e9af4250-7582-4b4f-b8b5-e79f038710ab"},"vehicle_type_id":"4","last_reported":1743196107,"current_range_meters":8000,"station_id":"ce4bh692rcd13ifvqea0","pricing_plan_id":"cebpf4jnsgd1na2vs0mg"},{"bike_id":"f6f9fa63-a538-4962-89a2-7e0fd8bec717","system_id":"levelo_inurba_marseille","lat":43.31997,"lon":5.38148,"is_reserved":false,"is_disabled":true,"rental_uris":{"android":"levelo://app?vid=f6f9fa63-a538-4962-89a2-7e0fd8bec717","ios":"levelo://app?vid=f6f9fa63-a538-4962-89a2-7e0fd8bec717"},"vehicle_type_id":"4","last_reported":1743196107,"current_range_meters":8000,"station_id":"ce4bhr12rcd13ifvqhpg","pricing_plan_id":"cebpf4jnsgd1na2vs0mg"},{"bike_id":"6a5faf51-2bec-4782-8a8f-e039ed407c9b","system_id":"levelo_inurba_marseille","lat":43.2507,"lon":5.39533,"is_reserved":false,"is_disabled":false,"rental_uris":{"android":"levelo://app?vid=6a5faf51-2bec-4782-8a8f-e039ed407c9b","ios":"levelo://app?vid=6a5faf51-2bec-4782-8a8f-e039ed407c9b"},"vehicle_type_id":"4","last_reported":1743196107,"current_range_meters":8000,"station_id":"ce4bhm12rcd13ifvqgkg","pricing_plan_id":"cebpf4jnsgd1na2vs0mg"},{"bike_id":"f6646e8b-e53d-4722-b388-dcd1f3259566","system_id":"levelo_inurba_marseille","lat":43.30825,"lon":5.43504,"is_reserved":false,"is_disabled":false,"rental_uris":{"android":"levelo://app?vid=f6646e8b-e53d-4722-b388-dcd1f3259566","ios":"levelo://app?vid=f6646e8b-e53d-4722-b388-dcd1f3259566"},"vehicle_type_id":"4","last_reported":1743196107,"current_range_meters":8000,"station_id":"ce4bhph2rcd13ifvqheg","pricing_plan_id":"cebpf4jnsgd1na2vs0mg"},{"bike_id":"d9540813-5ede-493e-8b83-9a1f29b1c5e2","system_id":"levelo_inurba_marseille","lat":43.29844,"lon":5.36278,"is_reserved":false,"is_disabled":false,"rental_uris":{"android":"levelo://app?vid=d9540813-5ede-493e-8b83-9a1f29b1c5e2","ios":"levelo://app?vid=d9540813-5ede-493e-8b83-9a1f29b1c5e2"},"vehicle_type_id":"4","last_reported":1743196107,"current_range_meters":8000,"station_id":"ce4bgpp2rcd13ifvqc3g","pricing_plan_id":"cebpf4jnsgd1na2vs0mg"},{"bike_id":"90f3d319-5c7b-4e00-ad82-4bf379d19cb3","system_id":"levelo_inurba_marseille","lat":43.29852,"lon":5.36273,"is_reserved":false,"is_disabled":false,"rental_uris":{"android":"levelo://app?vid=90f3d319-5c7b-4e00-ad82-4bf379d19cb3","ios":"levelo://app?vid=90f3d319-5c7b-4e00-ad82-4bf379d19cb3"},"vehicle_type_id":"4","last_reported":1743196107,"current_range_meters":8000,"station_id":"ce4bgpp2rcd13ifvqc3g","pricing_plan_id":"cebpf4jnsgd1na2vs0mg"},{"bike_id":"0009eca3-f243-43d3-a06a-66f6a4a5ccdd","system_id":"levelo_inurba_marseille","lat":43.23181,"lon":5.35574,"is_reserved":false,"is_disabled":false,"rental_uris":{"android":"levelo://app?vid=0009eca3-f243-43d3-a06a-66f6a4a5ccdd","ios":"levelo://app?vid=0009eca3-f243-43d3-a06a-66f6a4a5ccdd"},"vehicle_type_id":"4","last_reported":1743196107,"current_range_meters":8000,"station_id":"ce4bhu92rcd13ifvqi70","pricing_plan_id":"cebpf4jnsgd1na2vs0mg"},{"bike_id":"422a75c2-467f-4b23-9c54-3e84a1bf2eb6","system_id":"levelo_inurba_marseille","lat":43.33026,"lon":5.39034,"is_reserved":false,"is_disabled":false,"rental_uris":{"android":"levelo://app?vid=422a75c2-467f-4b23-9c54-3e84a1bf2eb6","ios":"levelo://app?vid=422a75c2-467f-4b23-9c54-3e84a1bf2eb6"},"vehicle_type_id":"4","last_reported":1743196107,"current_range_meters":8000,"station_id":"ce4bhr92rcd13ifvqhrg","pricing_plan_id":"cebpf4jnsgd1na2vs0mg"},{"bike_id":"8489e4b8-7251-466a-98ef-b6dcd82094be","system_id":"levelo_inurba_marseille","lat":43.29421,"lon":5.386235,"is_reserved":false,"is_disabled":false,"rental_uris":{"android":"levelo://app?vid=8489e4b8-7251-466a-98ef-b6dcd82094be","ios":"levelo://app?vid=8489e4b8-7251-466a-98ef-b6dcd82094be"},"vehicle_type_id":"4","last_reported":1743196107,"current_range_meters":8400,"station_id":"ce4bh2h2rcd13ifvqdh0","pricing_plan_id":"cebpf4jnsgd1na2vs0mg"},{"bike_id":"f787eada-c0d9-406f-a35b-09c634e8a93a","system_id":"levelo_inurba_marseille","lat":43.27896,"lon":5.38013,"is_reserved":false,"is_disabled":false,"rental_uris":{"android":"levelo://app?vid=f787eada-c0d9-406f-a35b-09c634e8a93a","ios":"levelo://app?vid=f787eada-c0d9-406f-a35b-09c634e8a93a"},"vehicle_type_id":"4","last_reported":1743196107,"current_range_meters":8400,"station_id":"ce4bhf92rcd13ifvqf50","pricing_plan_id":"cebpf4jnsgd1na2vs0mg"},{"bike_id":"e81ca1f3-1e85-406c-b9aa-ecf6e69b906d","system_id":"levelo_inurba_marseille","lat":43.28602,"lon":5.37064,"is_reserved":false,"is_disabled":false,"rental_uris":{"android":"levelo://app?vid=e81ca1f3-1e85-406c-b9aa-ecf6e69b906d","ios":"levelo://app?vid=e81ca1f3-1e85-406c-b9aa-ecf6e69b906d"},"vehicle_type_id":"4","last_reported":1743196107,"current_range_meters":8400,"station_id":"ce4bht12rcd13ifvqi60","pricing_plan_id":"cebpf4jnsgd1na2vs0mg"},{"bike_id":"4a42ca1e-41e4-4233-a4bb-a180f04564d6","system_id":"levelo_inurba_marseille","lat":43.29154,"lon":5.37148,"is_reserved":false,"is_disabled":true,"rental_uris":{"android":"levelo://app?vid=4a42ca1e-41e4-4233-a4bb-a180f04564d6","ios":"levelo://app?vid=4a42ca1e-41e4-4233-a4bb-a180f04564d6"},"vehicle_type_id":"4","last_reported":1743196107,"current_range_meters":8400,"station_id":"ce4bha92rcd13ifvqeh0","pricing_plan_id":"cebpf4jnsgd1na2vs0mg"},{"bike_id":"89208f21-4a3a-4714-b849-92ace6610d17","system_id":"levelo_inurba_marseille","lat":43.29024,"lon":5.38637,"is_reserved":false,"is_disabled":false,"rental_uris":{"android":"levelo://app?vid=89208f21-4a3a-4714-b849-92ace6610d17","ios":"levelo://app?vid=89208f21-4a3a-4714-b849-92ace6610d17"},"vehicle_type_id":"4","last_reported":1743196107,"current_range_meters":8400,"station_id":"ce4bh4p2rcd13ifvqe0g","pricing_plan_id":"cebpf4jnsgd1na2vs0mg"},{"bike_id":"861ae205-c318-4688-ac53-947993e1b65f","system_id":"levelo_inurba_marseille","lat":43.2416,"lon":5.364036,"is_reserved":false,"is_disabled":false,"rental_uris":{"android":"levelo://app?vid=861ae205-c318-4688-ac53-947993e1b65f","ios":"levelo://app?vid=861ae205-c318-4688-ac53-947993e1b65f"},"vehicle_type_id":"4","last_reported":1743196107,"current_range_meters":8400,"station_id":"cpo36qri1sfpv3e86is0","pricing_plan_id":"cebpf4jnsgd1na2vs0mg"},{"bike_id":"e4688cc6-b36e-4561-b7b8-c64b508457eb","system_id":"levelo_inurba_marseille","lat":43.30883,"lon":5.39653,"is_reserved":false,"is_disabled":false,"rental_uris":{"android":"levelo://app?vid=e4688cc6-b36e-4561-b7b8-c64b508457eb","ios":"levelo://app?vid=e4688cc6-b36e-4561-b7b8-c64b508457eb"},"vehicle_type_id":"4","last_reported":1743196107,"current_range_meters":8400,"station_id":"ce4bh012rcd13ifvqcv0","pricing_plan_id":"cebpf4jnsgd1na2vs0mg"},{"bike_id":"94436a23-c263-485b-b732-ba153ee199b6","system_id":"levelo_inurba_marseille","lat":43.27664,"lon":5.38915,"is_reserved":false,"is_disabled":false,"rental_uris":{"android":"levelo://app?vid=94436a23-c263-485b-b732-ba153ee199b6","ios":"levelo://app?vid=94436a23-c263-485b-b732-ba153ee199b6"},"vehicle_type_id":"4","last_reported":1743196107,"current_range_meters":8400,"station_id":"ce4bhi12rcd13ifvqfo0","pricing_plan_id":"cebpf4jnsgd1na2vs0mg"},{"bike_id":"3ba33190-788c-44db-b334-d3a41568d8b2","system_id":"levelo_inurba_marseille","lat":43.29266,"lon":5.38437,"is_reserved":false,"is_disabled":false,"rental_uris":{"android":"levelo://app?vid=3ba33190-788c-44db-b334-d3a41568d8b2","ios":"levelo://app?vid=3ba33190-788c-44db-b334-d3a41568d8b2"},"vehicle_type_id":"4","last_reported":1743196107,"current_range_meters":8400,"station_id":"ce4bh692rcd13ifvqea0","pricing_plan_id":"cebpf4jnsgd1na2vs0mg"},{"bike_id":"6db825b4-8be2-4bda-b96c-822e345da3bb","system_id":"levelo_inurba_marseille","lat":43.29017,"lon":5.38648,"is_reserved":false,"is_disabled":false,"rental_uris":{"android":"levelo://app?vid=6db825b4-8be2-4bda-b96c-822e345da3bb","ios":"levelo://app?vid=6db825b4-8be2-4bda-b96c-822e345da3bb"},"vehicle_type_id":"4","last_reported":1743196107,"current_range_meters":8400,"station_id":"ce4bh4p2rcd13ifvqe0g","pricing_plan_id":"cebpf4jnsgd1na2vs0mg"},{"bike_id":"d80314ad-c13b-401c-86a8-592b2449407f","system_id":"levelo_inurba_marseille","lat":43.28675,"lon":5.38656,"is_reserved":false,"is_disabled":false,"rental_uris":{"android":"levelo://app?vid=d80314ad-c13b-401c-86a8-592b2449407f","ios":"levelo://app?vid=d80314ad-c13b-401c-86a8-592b2449407f"},"vehicle_type_id":"4","last_reported":1743196107,"current_range_meters":8000,"station_id":"ce4bh492rcd13ifvqdug","pricing_plan_id":"cebpf4jnsgd1na2vs0mg"},{"bike_id":"424417c8-67c1-4c27-bf29-2d271899c7c0","system_id":"levelo_inurba_marseille","lat":43.29269,"lon":5.38466,"is_reserved":false,"is_disabled":false,"rental_uris":{"android":"levelo://app?vid=424417c8-67c1-4c27-bf29-2d271899c7c0","ios":"levelo://app?vid=424417c8-67c1-4c27-bf29-2d271899c7c0"},"vehicle_type_id":"4","last_reported":1743196107,"current_range_meters":8400,"station_id":"ce4bh692rcd13ifvqea0","pricing_plan_id":"cebpf4jnsgd1na2vs0mg"},{"bike_id":"188bd17a-539c-43bc-baa6-693e9ec09e7f","system_id":"levelo_inurba_marseille","lat":43.2942,"lon":5.38635,"is_reserved":false,"is_disabled":false,"rental_uris":{"android":"levelo://app?vid=188bd17a-539c-43bc-baa6-693e9ec09e7f","ios":"levelo://app?vid=188bd17a-539c-43bc-baa6-693e9ec09e7f"},"vehicle_type_id":"4","last_reported":1743196107,"current_range_meters":8800,"station_id":"ce4bh2h2rcd13ifvqdh0","pricing_plan_id":"cebpf4jnsgd1na2vs0mg"},{"bike_id":"94b5bcc7-6238-4eda-85ba-005d36893295","system_id":"levelo_inurba_marseille","lat":43.29057,"lon":5.35908,"is_reserved":false,"is_disabled":false,"rental_uris":{"android":"levelo://app?vid=94b5bcc7-6238-4eda-85ba-005d36893295","ios":"levelo://app?vid=94b5bcc7-6238-4eda-85ba-005d36893295"},"vehicle_type_id":"4","last_reported":1743196107,"current_range_meters":8800,"station_id":"ce4bha92rcd13ifvqeg0","pricing_plan_id":"cebpf4jnsgd1na2vs0mg"},{"bike_id":"9ee402e7-1a17-4a4f-8096-bc833bafbd6b","system_id":"levelo_inurba_marseille","lat":43.28934,"lon":5.36623,"is_reserved":false,"is_disabled":false,"rental_uris":{"android":"levelo://app?vid=9ee402e7-1a17-4a4f-8096-bc833bafbd6b","ios":"levelo://app?vid=9ee402e7-1a17-4a4f-8096-bc833bafbd6b"},"vehicle_type_id":"4","last_reported":1743196107,"current_range_meters":8800,"station_id":"ce4bhap2rcd13ifvqek0","pricing_plan_id":"cebpf4jnsgd1na2vs0mg"},{"bike_id":"cd380cdd-753d-4062-9634-b246a5e93ebc","system_id":"levelo_inurba_marseille","lat":43.29238,"lon":5.36042,"is_reserved":false,"is_disabled":false,"rental_uris":{"android":"levelo://app?vid=cd380cdd-753d-4062-9634-b246a5e93ebc","ios":"levelo://app?vid=cd380cdd-753d-4062-9634-b246a5e93ebc"},"vehicle_type_id":"4","last_reported":1743196107,"current_range_meters":8800,"station_id":"ce4bhbh2rcd13ifvqeqg","pricing_plan_id":"cebpf4jnsgd1na2vs0mg"},{"bike_id":"0f2f6ea1-7363-466e-9121-0246b2fdd337","system_id":"levelo_inurba_marseille","lat":43.31078,"lon":5.38348,"is_reserved":false,"is_disabled":false,"rental_uris":{"android":"levelo://app?vid=0f2f6ea1-7363-466e-9121-0246b2fdd337","ios":"levelo://app?vid=0f2f6ea1-7363-466e-9121-0246b2fdd337"},"vehicle_type_id":"4","last_reported":1743196107,"current_range_meters":8800,"station_id":"ce4bgv92rcd13ifvqcr0","pricing_plan_id":"cebpf4jnsgd1na2vs0mg"},{"bike_id":"412861a5-6e02-4cec-9e21-82dd2cdb5ee5","system_id":"levelo_inurba_marseille","lat":43.30182,"lon":5.38026,"is_reserved":false,"is_disabled":false,"rental_uris":{"android":"levelo://app?vid=412861a5-6e02-4cec-9e21-82dd2cdb5ee5","ios":"levelo://app?vid=412861a5-6e02-4cec-9e21-82dd2cdb5ee5"},"vehicle_type_id":"4","last_reported":1743196107,"current_range_meters":8800,"station_id":"","pricing_plan_id":"cebpf4jnsgd1na2vs0mg"},{"bike_id":"99eea32e-af3a-4b35-b526-bd722f859f86","system_id":"levelo_inurba_marseille","lat":43.305475,"lon":5.365568,"is_reserved":false,"is_disabled":false,"rental_uris":{"android":"levelo://app?vid=99eea32e-af3a-4b35-b526-bd722f859f86","ios":"levelo://app?vid=99eea32e-af3a-4b35-b526-bd722f859f86"},"vehicle_type_id":"4","last_reported":1743196107,"current_range_meters":8800,"station_id":"ce4bho12rcd13ifvqh1g","pricing_plan_id":"cebpf4jnsgd1na2vs0mg"},{"bike_id":"f0e27e89-7189-48e7-8fa7-1c5343d181a6","system_id":"levelo_inurba_marseille","lat":43.29252,"lon":5.3844,"is_reserved":false,"is_disabled":false,"rental_uris":{"android":"levelo://app?vid=f0e27e89-7189-48e7-8fa7-1c5343d181a6","ios":"levelo://app?vid=f0e27e89-7189-48e7-8fa7-1c5343d181a6"},"vehicle_type_id":"4","last_reported":1743196107,"current_range_meters":8800,"station_id":"ce4bh692rcd13ifvqea0","pricing_plan_id":"cebpf4jnsgd1na2vs0mg"},{"bike_id":"c6b682a7-e903-4363-967f-d69957e8f7ed","system_id":"levelo_inurba_marseille","lat":43.28617,"lon":5.35098,"is_reserved":false,"is_disabled":false,"rental_uris":{"android":"levelo://app?vid=c6b682a7-e903-4363-967f-d69957e8f7ed","ios":"levelo://app?vid=c6b682a7-e903-4363-967f-d69957e8f7ed"},"vehicle_type_id":"4","last_reported":1743196107,"current_range_meters":8800,"station_id":"ce4bhch2rcd13ifvqeug","pricing_plan_id":"cebpf4jnsgd1na2vs0mg"},{"bike_id":"637381b6-9a30-466b-9208-22bc7b0d414d","system_id":"levelo_inurba_marseille","lat":43.29445,"lon":5.38615,"is_reserved":false,"is_disabled":false,"rental_uris":{"android":"levelo://app?vid=637381b6-9a30-466b-9208-22bc7b0d414d","ios":"levelo://app?vid=637381b6-9a30-466b-9208-22bc7b0d414d"},"vehicle_type_id":"4","last_reported":1743196107,"current_range_meters":8800,"station_id":"ce4bh2h2rcd13ifvqdh0","pricing_plan_id":"cebpf4jnsgd1na2vs0mg"},{"bike_id":"b2bfdea8-1832-4b77-bf05-454dcf6a2dfe","system_id":"levelo_inurba_marseille","lat":43.29024,"lon":5.38636,"is_reserved":false,"is_disabled":false,"rental_uris":{"android":"levelo://app?vid=b2bfdea8-1832-4b77-bf05-454dcf6a2dfe","ios":"levelo://app?vid=b2bfdea8-1832-4b77-bf05-454dcf6a2dfe"},"vehicle_type_id":"4","last_reported":1743196107,"current_range_meters":8800,"station_id":"ce4bh4p2rcd13ifvqe0g","pricing_plan_id":"cebpf4jnsgd1na2vs0mg"},{"bike_id":"70cb17f5-cdf1-47fa-b901-00068bb5e719","system_id":"levelo_inurba_marseille","lat":43.29259,"lon":5.38429,"is_reserved":false,"is_disabled":false,"rental_uris":{"android":"levelo://app?vid=70cb17f5-cdf1-47fa-b901-00068bb5e719","ios":"levelo://app?vid=70cb17f5-cdf1-47fa-b901-00068bb5e719"},"vehicle_type_id":"4","last_reported":1743196107,"current_range_meters":8800,"station_id":"ce4bh692rcd13ifvqea0","pricing_plan_id":"cebpf4jnsgd1na2vs0mg"},{"bike_id":"1c14bf9c-ada4-4a36-8853-740a1a2c000a","system_id":"levelo_inurba_marseille","lat":43.23188,"lon":5.35563,"is_reserved":false,"is_disabled":false,"rental_uris":{"android":"levelo://app?vid=1c14bf9c-ada4-4a36-8853-740a1a2c000a","ios":"levelo://app?vid=1c14bf9c-ada4-4a36-8853-740a1a2c000a"},"vehicle_type_id":"4","last_reported":1743196107,"current_range_meters":8800,"station_id":"ce4bhu92rcd13ifvqi70","pricing_plan_id":"cebpf4jnsgd1na2vs0mg"},{"bike_id":"0aeb67d9-0597-4320-b75c-16757bd3ba8f","system_id":"levelo_inurba_marseille","lat":43.29037,"lon":5.35916,"is_reserved":false,"is_disabled":false,"rental_uris":{"android":"levelo://app?vid=0aeb67d9-0597-4320-b75c-16757bd3ba8f","ios":"levelo://app?vid=0aeb67d9-0597-4320-b75c-16757bd3ba8f"},"vehicle_type_id":"4","last_reported":1743196107,"current_range_meters":9200,"station_id":"ce4bha92rcd13ifvqeg0","pricing_plan_id":"cebpf4jnsgd1na2vs0mg"},{"bike_id":"77468fed-4a4f-478f-960c-c7741fa140fc","system_id":"levelo_inurba_marseille","lat":43.298729,"lon":5.39806,"is_reserved":false,"is_disabled":false,"rental_uris":{"android":"levelo://app?vid=77468fed-4a4f-478f-960c-c7741fa140fc","ios":"levelo://app?vid=77468fed-4a4f-478f-960c-c7741fa140fc"},"vehicle_type_id":"4","last_reported":1743196107,"current_range_meters":9200,"station_id":"ce4bh0h2rcd13ifvqd50","pricing_plan_id":"cebpf4jnsgd1na2vs0mg"},{"bike_id":"3a62358d-acc7-4d29-8480-8115ff151fbd","system_id":"levelo_inurba_marseille","lat":43.27609,"lon":5.36107,"is_reserved":false,"is_disabled":false,"rental_uris":{"android":"levelo://app?vid=3a62358d-acc7-4d29-8480-8115ff151fbd","ios":"levelo://app?vid=3a62358d-acc7-4d29-8480-8115ff151fbd"},"vehicle_type_id":"4","last_reported":1743196107,"current_range_meters":9200,"station_id":"ce4bgj92rcd13ifvqbe0","pricing_plan_id":"cebpf4jnsgd1na2vs0mg"},{"bike_id":"cbe177f9-7359-4495-b99f-8a1700a0286f","system_id":"levelo_inurba_marseille","lat":43.28732,"lon":5.36083,"is_reserved":false,"is_disabled":false,"rental_uris":{"android":"levelo://app?vid=cbe177f9-7359-4495-b99f-8a1700a0286f","ios":"levelo://app?vid=cbe177f9-7359-4495-b99f-8a1700a0286f"},"vehicle_type_id":"4","last_reported":1743196107,"current_range_meters":9200,"station_id":"cki0cbj6b192h4jlfktg","pricing_plan_id":"cebpf4jnsgd1na2vs0mg"},{"bike_id":"c812ddcb-34b2-469d-9843-7192ba31aa1e","system_id":"levelo_inurba_marseille","lat":43.29849,"lon":5.362824,"is_reserved":false,"is_disabled":false,"rental_uris":{"android":"levelo://app?vid=c812ddcb-34b2-469d-9843-7192ba31aa1e","ios":"levelo://app?vid=c812ddcb-34b2-469d-9843-7192ba31aa1e"},"vehicle_type_id":"4","last_reported":1743196107,"current_range_meters":9200,"station_id":"","pricing_plan_id":"cebpf4jnsgd1na2vs0mg"},{"bike_id":"971c92cb-66df-438d-9a85-e63af939e6ff","system_id":"levelo_inurba_marseille","lat":43.28617,"lon":5.35091,"is_reserved":false,"is_disabled":true,"rental_uris":{"android":"levelo://app?vid=971c92cb-66df-438d-9a85-e63af939e6ff","ios":"levelo://app?vid=971c92cb-66df-438d-9a85-e63af939e6ff"},"vehicle_type_id":"4","last_reported":1743196107,"current_range_meters":9200,"station_id":"ce4bhch2rcd13ifvqeug","pricing_plan_id":"cebpf4jnsgd1na2vs0mg"},{"bike_id":"90df0f14-f996-423e-b605-53c2c708242e","system_id":"levelo_inurba_marseille","lat":43.31693,"lon":5.40508,"is_reserved":false,"is_disabled":false,"rental_uris":{"android":"levelo://app?vid=90df0f14-f996-423e-b605-53c2c708242e","ios":"levelo://app?vid=90df0f14-f996-423e-b605-53c2c708242e"},"vehicle_type_id":"4","last_reported":1743196107,"current_range_meters":9200,"station_id":"ce4bh012rcd13ifvqd00","pricing_plan_id":"cebpf4jnsgd1na2vs0mg"},{"bike_id":"7120f45a-dd67-4197-bf90-c4b3d554bf25","system_id":"levelo_inurba_marseille","lat":43.29273,"lon":5.38427,"is_reserved":false,"is_disabled":false,"rental_uris":{"android":"levelo://app?vid=7120f45a-dd67-4197-bf90-c4b3d554bf25","ios":"levelo://app?vid=7120f45a-dd67-4197-bf90-c4b3d554bf25"},"vehicle_type_id":"4","last_reported":1743196107,"current_range_meters":9200,"station_id":"ce4bh692rcd13ifvqea0","pricing_plan_id":"cebpf4jnsgd1na2vs0mg"},{"bike_id":"e0e5cf26-b532-4f62-b545-0d1f7373dc80","system_id":"levelo_inurba_marseille","lat":43.29569,"lon":5.39982,"is_reserved":false,"is_disabled":false,"rental_uris":{"android":"levelo://app?vid=e0e5cf26-b532-4f62-b545-0d1f7373dc80","ios":"levelo://app?vid=e0e5cf26-b532-4f62-b545-0d1f7373dc80"},"vehicle_type_id":"4","last_reported":1743196107,"current_range_meters":9600,"station_id":"ce4bh312rcd13ifvqdj0","pricing_plan_id":"cebpf4jnsgd1na2vs0mg"},{"bike_id":"3fbcdfd8-5176-471d-aa84-e8e20bb4418e","system_id":"levelo_inurba_marseille","lat":43.32131,"lon":5.36789,"is_reserved":false,"is_disabled":false,"rental_uris":{"android":"levelo://app?vid=3fbcdfd8-5176-471d-aa84-e8e20bb4418e","ios":"levelo://app?vid=3fbcdfd8-5176-471d-aa84-e8e20bb4418e"},"vehicle_type_id":"4","last_reported":1743196107,"current_range_meters":9600,"station_id":"ce4bhrh2rcd13ifvqhug","pricing_plan_id":"cebpf4jnsgd1na2vs0mg"},{"bike_id":"661fa6de-24e3-4832-9e18-3d3a5339528f","system_id":"levelo_inurba_marseille","lat":43.28412,"lon":5.35,"is_reserved":false,"is_disabled":false,"rental_uris":{"android":"levelo://app?vid=661fa6de-24e3-4832-9e18-3d3a5339528f","ios":"levelo://app?vid=661fa6de-24e3-4832-9e18-3d3a5339528f"},"vehicle_type_id":"4","last_reported":1743196107,"current_range_meters":9600,"station_id":"ce4bhbh2rcd13ifvqepg","pricing_plan_id":"cebpf4jnsgd1na2vs0mg"},{"bike_id":"25199d4c-999e-4018-ac67-075e0110b53c","system_id":"levelo_inurba_marseille","lat":43.3095,"lon":5.39026,"is_reserved":false,"is_disabled":false,"rental_uris":{"android":"levelo://app?vid=25199d4c-999e-4018-ac67-075e0110b53c","ios":"levelo://app?vid=25199d4c-999e-4018-ac67-075e0110b53c"},"vehicle_type_id":"4","last_reported":1743196107,"current_range_meters":9600,"station_id":"ce4bgup2rcd13ifvqco0","pricing_plan_id":"cebpf4jnsgd1na2vs0mg"},{"bike_id":"724c61d8-a052-4372-b295-a084e8b162a4","system_id":"levelo_inurba_marseille","lat":43.29863,"lon":5.36252,"is_reserved":false,"is_disabled":false,"rental_uris":{"android":"levelo://app?vid=724c61d8-a052-4372-b295-a084e8b162a4","ios":"levelo://app?vid=724c61d8-a052-4372-b295-a084e8b162a4"},"vehicle_type_id":"4","last_reported":1743196107,"current_range_meters":9600,"station_id":"ce4bgpp2rcd13ifvqc3g","pricing_plan_id":"cebpf4jnsgd1na2vs0mg"},{"bike_id":"4d33bc5b-fded-4b79-abc4-d8ca2a4f7165","system_id":"levelo_inurba_marseille","lat":43.2572,"lon":5.41112,"is_reserved":false,"is_disabled":false,"rental_uris":{"android":"levelo://app?vid=4d33bc5b-fded-4b79-abc4-d8ca2a4f7165","ios":"levelo://app?vid=4d33bc5b-fded-4b79-abc4-d8ca2a4f7165"},"vehicle_type_id":"4","last_reported":1743196107,"current_range_meters":9200,"station_id":"ce4bhkp2rcd13ifvqgd0","pricing_plan_id":"cebpf4jnsgd1na2vs0mg"},{"bike_id":"dc050fee-4831-491a-867e-a64f70c001d2","system_id":"levelo_inurba_marseille","lat":43.29423,"lon":5.38622,"is_reserved":false,"is_disabled":false,"rental_uris":{"android":"levelo://app?vid=dc050fee-4831-491a-867e-a64f70c001d2","ios":"levelo://app?vid=dc050fee-4831-491a-867e-a64f70c001d2"},"vehicle_type_id":"4","last_reported":1743196107,"current_range_meters":9600,"station_id":"ce4bh2h2rcd13ifvqdh0","pricing_plan_id":"cebpf4jnsgd1na2vs0mg"},{"bike_id":"68e9fc26-8998-4bf7-8da8-af47209f9b7c","system_id":"levelo_inurba_marseille","lat":43.32112,"lon":5.36772,"is_reserved":false,"is_disabled":false,"rental_uris":{"android":"levelo://app?vid=68e9fc26-8998-4bf7-8da8-af47209f9b7c","ios":"levelo://app?vid=68e9fc26-8998-4bf7-8da8-af47209f9b7c"},"vehicle_type_id":"4","last_reported":1743196107,"current_range_meters":9600,"station_id":"ce4bhrh2rcd13ifvqhug","pricing_plan_id":"cebpf4jnsgd1na2vs0mg"},{"bike_id":"3baabe1e-785f-4275-b2ae-669cc3f900da","system_id":"levelo_inurba_marseille","lat":43.27831,"lon":5.40725,"is_reserved":false,"is_disabled":true,"rental_uris":{"android":"levelo://app?vid=3baabe1e-785f-4275-b2ae-669cc3f900da","ios":"levelo://app?vid=3baabe1e-785f-4275-b2ae-669cc3f900da"},"vehicle_type_id":"4","last_reported":1743196107,"current_range_meters":10000,"station_id":"ce4bhnh2rcd13ifvqgtg","pricing_plan_id":"cebpf4jnsgd1na2vs0mg"},{"bike_id":"d2be6ce3-8e79-4804-b0d3-008c875e7b9d","system_id":"levelo_inurba_marseille","lat":43.26215,"lon":5.37942,"is_reserved":false,"is_disabled":false,"rental_uris":{"android":"levelo://app?vid=d2be6ce3-8e79-4804-b0d3-008c875e7b9d","ios":"levelo://app?vid=d2be6ce3-8e79-4804-b0d3-008c875e7b9d"},"vehicle_type_id":"4","last_reported":1743196107,"current_range_meters":10000,"station_id":"ce4bhjp2rcd13ifvqg90","pricing_plan_id":"cebpf4jnsgd1na2vs0mg"},{"bike_id":"b6462b41-adb4-4ec5-8a6e-99b4357c842a","system_id":"levelo_inurba_marseille","lat":43.31353,"lon":5.38503,"is_reserved":false,"is_disabled":false,"rental_uris":{"android":"levelo://app?vid=b6462b41-adb4-4ec5-8a6e-99b4357c842a","ios":"levelo://app?vid=b6462b41-adb4-4ec5-8a6e-99b4357c842a"},"vehicle_type_id":"4","last_reported":1743196107,"current_range_meters":10000,"station_id":"ce4bgt92rcd13ifvqcf0","pricing_plan_id":"cebpf4jnsgd1na2vs0mg"},{"bike_id":"fb348b09-6abb-47a4-a266-91f2eeaee291","system_id":"levelo_inurba_marseille","lat":43.32063,"lon":5.36809,"is_reserved":false,"is_disabled":false,"rental_uris":{"android":"levelo://app?vid=fb348b09-6abb-47a4-a266-91f2eeaee291","ios":"levelo://app?vid=fb348b09-6abb-47a4-a266-91f2eeaee291"},"vehicle_type_id":"4","last_reported":1743196107,"current_range_meters":10800,"station_id":"ce4bhrh2rcd13ifvqhug","pricing_plan_id":"cebpf4jnsgd1na2vs0mg"},{"bike_id":"17d2c56a-04b7-4565-828e-4e8647a3dd59","system_id":"levelo_inurba_marseille","lat":43.23195,"lon":5.35544,"is_reserved":false,"is_disabled":false,"rental_uris":{"android":"levelo://app?vid=17d2c56a-04b7-4565-828e-4e8647a3dd59","ios":"levelo://app?vid=17d2c56a-04b7-4565-828e-4e8647a3dd59"},"vehicle_type_id":"4","last_reported":1743196107,"current_range_meters":10000,"station_id":"ce4bhu92rcd13ifvqi70","pricing_plan_id":"cebpf4jnsgd1na2vs0mg"},{"bike_id":"f47eba55-a588-4033-a3dc-992c836c995d","system_id":"levelo_inurba_marseille","lat":43.31678,"lon":5.4051,"is_reserved":false,"is_disabled":false,"rental_uris":{"android":"levelo://app?vid=f47eba55-a588-4033-a3dc-992c836c995d","ios":"levelo://app?vid=f47eba55-a588-4033-a3dc-992c836c995d"},"vehicle_type_id":"4","last_reported":1743196107,"current_range_meters":10000,"station_id":"ce4bh012rcd13ifvqd00","pricing_plan_id":"cebpf4jnsgd1na2vs0mg"},{"bike_id":"6082a6d8-29f3-4441-bd82-d0f95ead75d7","system_id":"levelo_inurba_marseille","lat":43.23177,"lon":5.35566,"is_reserved":false,"is_disabled":false,"rental_uris":{"android":"levelo://app?vid=6082a6d8-29f3-4441-bd82-d0f95ead75d7","ios":"levelo://app?vid=6082a6d8-29f3-4441-bd82-d0f95ead75d7"},"vehicle_type_id":"4","last_reported":1743196107,"current_range_meters":10000,"station_id":"ce4bhu92rcd13ifvqi70","pricing_plan_id":"cebpf4jnsgd1na2vs0mg"},{"bike_id":"4fbfc3e6-1d5a-469b-ab70-bfc87a275095","system_id":"levelo_inurba_marseille","lat":43.23191,"lon":5.3555,"is_reserved":false,"is_disabled":false,"rental_uris":{"android":"levelo://app?vid=4fbfc3e6-1d5a-469b-ab70-bfc87a275095","ios":"levelo://app?vid=4fbfc3e6-1d5a-469b-ab70-bfc87a275095"},"vehicle_type_id":"4","last_reported":1743196107,"current_range_meters":10000,"station_id":"ce4bhu92rcd13ifvqi70","pricing_plan_id":"cebpf4jnsgd1na2vs0mg"},{"bike_id":"9309954f-8fe9-4d0d-a320-0efba4bd7784","system_id":"levelo_inurba_marseille","lat":43.29882,"lon":5.36545,"is_reserved":false,"is_disabled":false,"rental_uris":{"android":"levelo://app?vid=9309954f-8fe9-4d0d-a320-0efba4bd7784","ios":"levelo://app?vid=9309954f-8fe9-4d0d-a320-0efba4bd7784"},"vehicle_type_id":"4","last_reported":1743196107,"current_range_meters":10000,"station_id":"ce4bgm92rcd13ifvqbr0","pricing_plan_id":"cebpf4jnsgd1na2vs0mg"},{"bike_id":"e2d41d73-951b-4525-9ce3-cdb0591c4440","system_id":"levelo_inurba_marseille","lat":43.29709,"lon":5.36616,"is_reserved":false,"is_disabled":false,"rental_uris":{"android":"levelo://app?vid=e2d41d73-951b-4525-9ce3-cdb0591c4440","ios":"levelo://app?vid=e2d41d73-951b-4525-9ce3-cdb0591c4440"},"vehicle_type_id":"4","last_reported":1743196107,"current_range_meters":10000,"station_id":"ce4bgn12rcd13ifvqbt0","pricing_plan_id":"cebpf4jnsgd1na2vs0mg"},{"bike_id":"30632cf1-bf33-4645-b762-f70d0efdcac4","system_id":"levelo_inurba_marseille","lat":43.29965,"lon":5.41313,"is_reserved":false,"is_disabled":false,"rental_uris":{"android":"levelo://app?vid=30632cf1-bf33-4645-b762-f70d0efdcac4","ios":"levelo://app?vid=30632cf1-bf33-4645-b762-f70d0efdcac4"},"vehicle_type_id":"4","last_reported":1743196107,"current_range_meters":9600,"station_id":"ce4bhp12rcd13ifvqh9g","pricing_plan_id":"cebpf4jnsgd1na2vs0mg"},{"bike_id":"65c86302-8ef0-46f4-ab6e-bac7149a2865","system_id":"levelo_inurba_marseille","lat":43.321064,"lon":5.367656,"is_reserved":false,"is_disabled":false,"rental_uris":{"android":"levelo://app?vid=65c86302-8ef0-46f4-ab6e-bac7149a2865","ios":"levelo://app?vid=65c86302-8ef0-46f4-ab6e-bac7149a2865"},"vehicle_type_id":"4","last_reported":1743196107,"current_range_meters":10000,"station_id":"ce4bhrh2rcd13ifvqhug","pricing_plan_id":"cebpf4jnsgd1na2vs0mg"},{"bike_id":"b4fcfee0-93be-466a-a152-1bfb7e2ea288","system_id":"levelo_inurba_marseille","lat":43.248195,"lon":5.37445,"is_reserved":false,"is_disabled":false,"rental_uris":{"android":"levelo://app?vid=b4fcfee0-93be-466a-a152-1bfb7e2ea288","ios":"levelo://app?vid=b4fcfee0-93be-466a-a152-1bfb7e2ea288"},"vehicle_type_id":"4","last_reported":1743196107,"current_range_meters":10000,"station_id":"ce4bhgh2rcd13ifvqfb0","pricing_plan_id":"cebpf4jnsgd1na2vs0mg"},{"bike_id":"dee53596-0ae8-4296-a138-f88d1609df6d","system_id":"levelo_inurba_marseille","lat":43.29506,"lon":5.39036,"is_reserved":false,"is_disabled":false,"rental_uris":{"android":"levelo://app?vid=dee53596-0ae8-4296-a138-f88d1609df6d","ios":"levelo://app?vid=dee53596-0ae8-4296-a138-f88d1609df6d"},"vehicle_type_id":"4","last_reported":1743196107,"current_range_meters":10800,"station_id":"ce4bh3p2rcd13ifvqdp0","pricing_plan_id":"cebpf4jnsgd1na2vs0mg"},{"bike_id":"78879d72-d868-43c9-a743-a6ab48dd9b11","system_id":"levelo_inurba_marseille","lat":43.28744,"lon":5.36081,"is_reserved":false,"is_disabled":false,"rental_uris":{"android":"levelo://app?vid=78879d72-d868-43c9-a743-a6ab48dd9b11","ios":"levelo://app?vid=78879d72-d868-43c9-a743-a6ab48dd9b11"},"vehicle_type_id":"4","last_reported":1743196107,"current_range_meters":10800,"station_id":"cki0cbj6b192h4jlfktg","pricing_plan_id":"cebpf4jnsgd1na2vs0mg"},{"bike_id":"8ce57e29-9e4e-4c4b-9eac-25dbada77966","system_id":"levelo_inurba_marseille","lat":43.27614,"lon":5.36113,"is_reserved":false,"is_disabled":false,"rental_uris":{"android":"levelo://app?vid=8ce57e29-9e4e-4c4b-9eac-25dbada77966","ios":"levelo://app?vid=8ce57e29-9e4e-4c4b-9eac-25dbada77966"},"vehicle_type_id":"4","last_reported":1743196107,"current_range_meters":10800,"station_id":"ce4bgj92rcd13ifvqbe0","pricing_plan_id":"cebpf4jnsgd1na2vs0mg"},{"bike_id":"7f9e733c-fa89-49ab-8010-8acb21ac5585","system_id":"levelo_inurba_marseille","lat":43.23154,"lon":5.437182,"is_reserved":false,"is_disabled":false,"rental_uris":{"android":"levelo://app?vid=7f9e733c-fa89-49ab-8010-8acb21ac5585","ios":"levelo://app?vid=7f9e733c-fa89-49ab-8010-8acb21ac5585"},"vehicle_type_id":"4","last_reported":1743196107,"current_range_meters":10800,"station_id":"","pricing_plan_id":"cebpf4jnsgd1na2vs0mg"},{"bike_id":"1c71b01c-8c90-4b90-84da-0ce75e1f9712","system_id":"levelo_inurba_marseille","lat":43.29426,"lon":5.38619,"is_reserved":false,"is_disabled":false,"rental_uris":{"android":"levelo://app?vid=1c71b01c-8c90-4b90-84da-0ce75e1f9712","ios":"levelo://app?vid=1c71b01c-8c90-4b90-84da-0ce75e1f9712"},"vehicle_type_id":"4","last_reported":1743196107,"current_range_meters":10800,"station_id":"ce4bh2h2rcd13ifvqdh0","pricing_plan_id":"cebpf4jnsgd1na2vs0mg"},{"bike_id":"eef75a29-8f94-45b0-b9d9-6991a77efccc","system_id":"levelo_inurba_marseille","lat":43.29258,"lon":5.37624,"is_reserved":false,"is_disabled":false,"rental_uris":{"android":"levelo://app?vid=eef75a29-8f94-45b0-b9d9-6991a77efccc","ios":"levelo://app?vid=eef75a29-8f94-45b0-b9d9-6991a77efccc"},"vehicle_type_id":"4","last_reported":1743196107,"current_range_meters":10800,"station_id":"ce4bgi12rcd13ifvqb80","pricing_plan_id":"cebpf4jnsgd1na2vs0mg"},{"bike_id":"b5ace6c6-32e3-486d-9744-efb1ce0dfa9d","system_id":"levelo_inurba_marseille","lat":43.28606,"lon":5.37064,"is_reserved":false,"is_disabled":false,"rental_uris":{"android":"levelo://app?vid=b5ace6c6-32e3-486d-9744-efb1ce0dfa9d","ios":"levelo://app?vid=b5ace6c6-32e3-486d-9744-efb1ce0dfa9d"},"vehicle_type_id":"4","last_reported":1743196107,"current_range_meters":10800,"station_id":"ce4bht12rcd13ifvqi60","pricing_plan_id":"cebpf4jnsgd1na2vs0mg"},{"bike_id":"c6c8fb31-86de-4758-859b-e74b70125ab7","system_id":"levelo_inurba_marseille","lat":43.3214,"lon":5.3676,"is_reserved":false,"is_disabled":false,"rental_uris":{"android":"levelo://app?vid=c6c8fb31-86de-4758-859b-e74b70125ab7","ios":"levelo://app?vid=c6c8fb31-86de-4758-859b-e74b70125ab7"},"vehicle_type_id":"4","last_reported":1743196107,"current_range_meters":10800,"station_id":"ce4bhrh2rcd13ifvqhug","pricing_plan_id":"cebpf4jnsgd1na2vs0mg"},{"bike_id":"bb238aab-ecce-4d51-ba90-677f93725c94","system_id":"levelo_inurba_marseille","lat":43.34146,"lon":5.40916,"is_reserved":false,"is_disabled":false,"rental_uris":{"android":"levelo://app?vid=bb238aab-ecce-4d51-ba90-677f93725c94","ios":"levelo://app?vid=bb238aab-ecce-4d51-ba90-677f93725c94"},"vehicle_type_id":"4","last_reported":1743196107,"current_range_meters":10800,"station_id":"ce4bhqh2rcd13ifvqhlg","pricing_plan_id":"cebpf4jnsgd1na2vs0mg"},{"bike_id":"6e5f4618-59dd-425b-aa11-f67d0d9fb1a5","system_id":"levelo_inurba_marseille","lat":43.31988,"lon":5.38147,"is_reserved":false,"is_disabled":true,"rental_uris":{"android":"levelo://app?vid=6e5f4618-59dd-425b-aa11-f67d0d9fb1a5","ios":"levelo://app?vid=6e5f4618-59dd-425b-aa11-f67d0d9fb1a5"},"vehicle_type_id":"4","last_reported":1743196107,"current_range_meters":10800,"station_id":"ce4bhr12rcd13ifvqhpg","pricing_plan_id":"cebpf4jnsgd1na2vs0mg"},{"bike_id":"9462a91b-8b4b-430a-ac7a-4612f1bebb31","system_id":"levelo_inurba_marseille","lat":43.29079,"lon":5.38149,"is_reserved":false,"is_disabled":true,"rental_uris":{"android":"levelo://app?vid=9462a91b-8b4b-430a-ac7a-4612f1bebb31","ios":"levelo://app?vid=9462a91b-8b4b-430a-ac7a-4612f1bebb31"},"vehicle_type_id":"4","last_reported":1743196107,"current_range_meters":10800,"station_id":"ce4bh512rcd13ifvqe2g","pricing_plan_id":"cebpf4jnsgd1na2vs0mg"},{"bike_id":"c527e224-a9b8-44ca-9995-b4eac024e1b6","system_id":"levelo_inurba_marseille","lat":43.2984,"lon":5.36287,"is_reserved":false,"is_disabled":false,"rental_uris":{"android":"levelo://app?vid=c527e224-a9b8-44ca-9995-b4eac024e1b6","ios":"levelo://app?vid=c527e224-a9b8-44ca-9995-b4eac024e1b6"},"vehicle_type_id":"4","last_reported":1743196107,"current_range_meters":10800,"station_id":"ce4bgpp2rcd13ifvqc3g","pricing_plan_id":"cebpf4jnsgd1na2vs0mg"},{"bike_id":"c965a1ec-db97-4c6d-beea-0663ad672bd3","system_id":"levelo_inurba_marseille","lat":43.3107,"lon":5.38345,"is_reserved":false,"is_disabled":false,"rental_uris":{"android":"levelo://app?vid=c965a1ec-db97-4c6d-beea-0663ad672bd3","ios":"levelo://app?vid=c965a1ec-db97-4c6d-beea-0663ad672bd3"},"vehicle_type_id":"4","last_reported":1743196107,"current_range_meters":10800,"station_id":"ce4bgv92rcd13ifvqcr0","pricing_plan_id":"cebpf4jnsgd1na2vs0mg"},{"bike_id":"e4614adf-59ca-49c9-9f29-fb2629aacd37","system_id":"levelo_inurba_marseille","lat":43.28597,"lon":5.35142,"is_reserved":false,"is_disabled":false,"rental_uris":{"android":"levelo://app?vid=e4614adf-59ca-49c9-9f29-fb2629aacd37","ios":"levelo://app?vid=e4614adf-59ca-49c9-9f29-fb2629aacd37"},"vehicle_type_id":"4","last_reported":1743196107,"current_range_meters":10800,"station_id":"ce4bhch2rcd13ifvqeug","pricing_plan_id":"cebpf4jnsgd1na2vs0mg"},{"bike_id":"263d52b8-cacf-4cf5-a16a-6f78666a43b5","system_id":"levelo_inurba_marseille","lat":43.29547,"lon":5.3854,"is_reserved":false,"is_disabled":false,"rental_uris":{"android":"levelo://app?vid=263d52b8-cacf-4cf5-a16a-6f78666a43b5","ios":"levelo://app?vid=263d52b8-cacf-4cf5-a16a-6f78666a43b5"},"vehicle_type_id":"4","last_reported":1743196107,"current_range_meters":10800,"station_id":"ce4bgih2rcd13ifvqba0","pricing_plan_id":"cebpf4jnsgd1na2vs0mg"},{"bike_id":"d5afe60b-5b59-4944-b99d-a2acbb946e2a","system_id":"levelo_inurba_marseille","lat":43.317582,"lon":5.390023,"is_reserved":false,"is_disabled":false,"rental_uris":{"android":"levelo://app?vid=d5afe60b-5b59-4944-b99d-a2acbb946e2a","ios":"levelo://app?vid=d5afe60b-5b59-4944-b99d-a2acbb946e2a"},"vehicle_type_id":"4","last_reported":1743196107,"current_range_meters":10800,"station_id":"ce4bhqp2rcd13ifvqhng","pricing_plan_id":"cebpf4jnsgd1na2vs0mg"},{"bike_id":"d2e09374-abe8-461b-9700-808c73f07463","system_id":"levelo_inurba_marseille","lat":43.29259,"lon":5.38412,"is_reserved":false,"is_disabled":false,"rental_uris":{"android":"levelo://app?vid=d2e09374-abe8-461b-9700-808c73f07463","ios":"levelo://app?vid=d2e09374-abe8-461b-9700-808c73f07463"},"vehicle_type_id":"4","last_reported":1743196107,"current_range_meters":11200,"station_id":"ce4bh692rcd13ifvqea0","pricing_plan_id":"cebpf4jnsgd1na2vs0mg"},{"bike_id":"38b7167f-c8da-40ff-a746-ea0a65a1dc4b","system_id":"levelo_inurba_marseille","lat":43.24167,"lon":5.39706,"is_reserved":false,"is_disabled":false,"rental_uris":{"android":"levelo://app?vid=38b7167f-c8da-40ff-a746-ea0a65a1dc4b","ios":"levelo://app?vid=38b7167f-c8da-40ff-a746-ea0a65a1dc4b"},"vehicle_type_id":"4","last_reported":1743196107,"current_range_meters":11200,"station_id":"ce4bhn12rcd13ifvqgpg","pricing_plan_id":"cebpf4jnsgd1na2vs0mg"},{"bike_id":"703c6035-7db6-48af-a14b-885bc497dbc7","system_id":"levelo_inurba_marseille","lat":43.29847,"lon":5.3626,"is_reserved":false,"is_disabled":false,"rental_uris":{"android":"levelo://app?vid=703c6035-7db6-48af-a14b-885bc497dbc7","ios":"levelo://app?vid=703c6035-7db6-48af-a14b-885bc497dbc7"},"vehicle_type_id":"4","last_reported":1743196107,"current_range_meters":11200,"station_id":"ce4bgpp2rcd13ifvqc3g","pricing_plan_id":"cebpf4jnsgd1na2vs0mg"},{"bike_id":"a6ef6628-ccbe-47ae-a7d7-c9c5c93c4b15","system_id":"levelo_inurba_marseille","lat":43.30794,"lon":5.38144,"is_reserved":false,"is_disabled":false,"rental_uris":{"android":"levelo://app?vid=a6ef6628-ccbe-47ae-a7d7-c9c5c93c4b15","ios":"levelo://app?vid=a6ef6628-ccbe-47ae-a7d7-c9c5c93c4b15"},"vehicle_type_id":"4","last_reported":1743196107,"current_range_meters":10800,"station_id":"ce4bgt12rcd13ifvqce0","pricing_plan_id":"cebpf4jnsgd1na2vs0mg"},{"bike_id":"0ada18c5-ef98-4396-a880-7dfb6f0910b1","system_id":"levelo_inurba_marseille","lat":43.29258,"lon":5.38441,"is_reserved":false,"is_disabled":false,"rental_uris":{"android":"levelo://app?vid=0ada18c5-ef98-4396-a880-7dfb6f0910b1","ios":"levelo://app?vid=0ada18c5-ef98-4396-a880-7dfb6f0910b1"},"vehicle_type_id":"4","last_reported":1743196107,"current_range_meters":11200,"station_id":"ce4bh692rcd13ifvqea0","pricing_plan_id":"cebpf4jnsgd1na2vs0mg"},{"bike_id":"17d5ad6c-1bcb-44fc-b455-486da0d48244","system_id":"levelo_inurba_marseille","lat":43.239606,"lon":5.366351,"is_reserved":false,"is_disabled":false,"rental_uris":{"android":"levelo://app?vid=17d5ad6c-1bcb-44fc-b455-486da0d48244","ios":"levelo://app?vid=17d5ad6c-1bcb-44fc-b455-486da0d48244"},"vehicle_type_id":"4","last_reported":1743196107,"current_range_meters":11200,"station_id":"ce4bhi12rcd13ifvqfp0","pricing_plan_id":"cebpf4jnsgd1na2vs0mg"},{"bike_id":"9fca3360-8e7b-45c5-b38d-719a2530d1b8","system_id":"levelo_inurba_marseille","lat":43.28422,"lon":5.34999,"is_reserved":false,"is_disabled":false,"rental_uris":{"android":"levelo://app?vid=9fca3360-8e7b-45c5-b38d-719a2530d1b8","ios":"levelo://app?vid=9fca3360-8e7b-45c5-b38d-719a2530d1b8"},"vehicle_type_id":"4","last_reported":1743196107,"current_range_meters":11200,"station_id":"ce4bhbh2rcd13ifvqepg","pricing_plan_id":"cebpf4jnsgd1na2vs0mg"},{"bike_id":"32221b6f-49aa-4b72-bc93-d141ed958ffb","system_id":"levelo_inurba_marseille","lat":43.29591,"lon":5.38097,"is_reserved":false,"is_disabled":false,"rental_uris":{"android":"levelo://app?vid=32221b6f-49aa-4b72-bc93-d141ed958ffb","ios":"levelo://app?vid=32221b6f-49aa-4b72-bc93-d141ed958ffb"},"vehicle_type_id":"4","last_reported":1743196107,"current_range_meters":11200,"station_id":"ce4bgl12rcd13ifvqbo0","pricing_plan_id":"cebpf4jnsgd1na2vs0mg"},{"bike_id":"04974724-db2c-4968-859f-11e6296e82a0","system_id":"levelo_inurba_marseille","lat":43.2943,"lon":5.38603,"is_reserved":false,"is_disabled":false,"rental_uris":{"android":"levelo://app?vid=04974724-db2c-4968-859f-11e6296e82a0","ios":"levelo://app?vid=04974724-db2c-4968-859f-11e6296e82a0"},"vehicle_type_id":"4","last_reported":1743196107,"current_range_meters":11200,"station_id":"ce4bh2h2rcd13ifvqdh0","pricing_plan_id":"cebpf4jnsgd1na2vs0mg"},{"bike_id":"08664c3d-c475-47e5-b091-2db417347431","system_id":"levelo_inurba_marseille","lat":43.29258,"lon":5.38442,"is_reserved":false,"is_disabled":false,"rental_uris":{"android":"levelo://app?vid=08664c3d-c475-47e5-b091-2db417347431","ios":"levelo://app?vid=08664c3d-c475-47e5-b091-2db417347431"},"vehicle_type_id":"4","last_reported":1743196107,"current_range_meters":11600,"station_id":"ce4bh692rcd13ifvqea0","pricing_plan_id":"cebpf4jnsgd1na2vs0mg"},{"bike_id":"9f0b2555-9685-4d9a-b9a3-07830a8f687e","system_id":"levelo_inurba_marseille","lat":43.30527,"lon":5.36714,"is_reserved":false,"is_disabled":false,"rental_uris":{"android":"levelo://app?vid=9f0b2555-9685-4d9a-b9a3-07830a8f687e","ios":"levelo://app?vid=9f0b2555-9685-4d9a-b9a3-07830a8f687e"},"vehicle_type_id":"4","last_reported":1743196107,"current_range_meters":11600,"station_id":"ce4bgrp2rcd13ifvqc9g","pricing_plan_id":"cebpf4jnsgd1na2vs0mg"},{"bike_id":"d110ea9c-afe8-47f1-b008-e66bc6e44a55","system_id":"levelo_inurba_marseille","lat":43.28413,"lon":5.3499,"is_reserved":false,"is_disabled":false,"rental_uris":{"android":"levelo://app?vid=d110ea9c-afe8-47f1-b008-e66bc6e44a55","ios":"levelo://app?vid=d110ea9c-afe8-47f1-b008-e66bc6e44a55"},"vehicle_type_id":"4","last_reported":1743196107,"current_range_meters":11600,"station_id":"ce4bhbh2rcd13ifvqepg","pricing_plan_id":"cebpf4jnsgd1na2vs0mg"},{"bike_id":"676aa410-285a-48fa-832f-41d35fee7288","system_id":"levelo_inurba_marseille","lat":43.28594,"lon":5.37077,"is_reserved":false,"is_disabled":false,"rental_uris":{"android":"levelo://app?vid=676aa410-285a-48fa-832f-41d35fee7288","ios":"levelo://app?vid=676aa410-285a-48fa-832f-41d35fee7288"},"vehicle_type_id":"4","last_reported":1743196107,"current_range_meters":11600,"station_id":"ce4bht12rcd13ifvqi60","pricing_plan_id":"cebpf4jnsgd1na2vs0mg"},{"bike_id":"d0b66682-e77e-4f1d-b1be-f3f56dfbeaf2","system_id":"levelo_inurba_marseille","lat":43.29267,"lon":5.38417,"is_reserved":false,"is_disabled":false,"rental_uris":{"android":"levelo://app?vid=d0b66682-e77e-4f1d-b1be-f3f56dfbeaf2","ios":"levelo://app?vid=d0b66682-e77e-4f1d-b1be-f3f56dfbeaf2"},"vehicle_type_id":"4","last_reported":1743196107,"current_range_meters":11600,"station_id":"ce4bh692rcd13ifvqea0","pricing_plan_id":"cebpf4jnsgd1na2vs0mg"},{"bike_id":"9a7b4e6a-fd8e-4005-b1f1-d848e9b15f63","system_id":"levelo_inurba_marseille","lat":43.29171,"lon":5.3581,"is_reserved":false,"is_disabled":false,"rental_uris":{"android":"levelo://app?vid=9a7b4e6a-fd8e-4005-b1f1-d848e9b15f63","ios":"levelo://app?vid=9a7b4e6a-fd8e-4005-b1f1-d848e9b15f63"},"vehicle_type_id":"4","last_reported":1743196107,"current_range_meters":11600,"station_id":"ce4bhb12rcd13ifvqel0","pricing_plan_id":"cebpf4jnsgd1na2vs0mg"},{"bike_id":"abaa6c75-7aec-4eb3-9559-e2774a7b559e","system_id":"levelo_inurba_marseille","lat":43.29251,"lon":5.38446,"is_reserved":false,"is_disabled":false,"rental_uris":{"android":"levelo://app?vid=abaa6c75-7aec-4eb3-9559-e2774a7b559e","ios":"levelo://app?vid=abaa6c75-7aec-4eb3-9559-e2774a7b559e"},"vehicle_type_id":"4","last_reported":1743196107,"current_range_meters":11600,"station_id":"ce4bh692rcd13ifvqea0","pricing_plan_id":"cebpf4jnsgd1na2vs0mg"},{"bike_id":"ea4d652d-0687-4fa8-9e2c-7cf26eec9129","system_id":"levelo_inurba_marseille","lat":43.2927,"lon":5.38429,"is_reserved":false,"is_disabled":true,"rental_uris":{"android":"levelo://app?vid=ea4d652d-0687-4fa8-9e2c-7cf26eec9129","ios":"levelo://app?vid=ea4d652d-0687-4fa8-9e2c-7cf26eec9129"},"vehicle_type_id":"4","last_reported":1743196107,"current_range_meters":11600,"station_id":"ce4bh692rcd13ifvqea0","pricing_plan_id":"cebpf4jnsgd1na2vs0mg"},{"bike_id":"ddbaedaa-3941-4e9d-8cd6-a1a53a4c2426","system_id":"levelo_inurba_marseille","lat":43.23207,"lon":5.39968,"is_reserved":false,"is_disabled":false,"rental_uris":{"android":"levelo://app?vid=ddbaedaa-3941-4e9d-8cd6-a1a53a4c2426","ios":"levelo://app?vid=ddbaedaa-3941-4e9d-8cd6-a1a53a4c2426"},"vehicle_type_id":"4","last_reported":1743196107,"current_range_meters":11600,"station_id":"ce4bhn12rcd13ifvqgqg","pricing_plan_id":"cebpf4jnsgd1na2vs0mg"},{"bike_id":"d14cdd1e-f0b3-48a5-be5e-77128af69a2d","system_id":"levelo_inurba_marseille","lat":43.28627,"lon":5.35078,"is_reserved":false,"is_disabled":false,"rental_uris":{"android":"levelo://app?vid=d14cdd1e-f0b3-48a5-be5e-77128af69a2d","ios":"levelo://app?vid=d14cdd1e-f0b3-48a5-be5e-77128af69a2d"},"vehicle_type_id":"4","last_reported":1743196107,"current_range_meters":11600,"station_id":"ce4bhch2rcd13ifvqeug","pricing_plan_id":"cebpf4jnsgd1na2vs0mg"},{"bike_id":"055834f0-2e6b-49d1-8fe7-e2f1eecf9ab6","system_id":"levelo_inurba_marseille","lat":43.308492,"lon":5.381001,"is_reserved":false,"is_disabled":false,"rental_uris":{"android":"levelo://app?vid=055834f0-2e6b-49d1-8fe7-e2f1eecf9ab6","ios":"levelo://app?vid=055834f0-2e6b-49d1-8fe7-e2f1eecf9ab6"},"vehicle_type_id":"4","last_reported":1743196107,"current_range_meters":11200,"station_id":"ce4bgt92rcd13ifvqcg0","pricing_plan_id":"cebpf4jnsgd1na2vs0mg"},{"bike_id":"b1ecd358-38ec-4753-8af1-9b87454b444a","system_id":"levelo_inurba_marseille","lat":43.2861,"lon":5.35105,"is_reserved":false,"is_disabled":false,"rental_uris":{"android":"levelo://app?vid=b1ecd358-38ec-4753-8af1-9b87454b444a","ios":"levelo://app?vid=b1ecd358-38ec-4753-8af1-9b87454b444a"},"vehicle_type_id":"4","last_reported":1743196107,"current_range_meters":12000,"station_id":"ce4bhch2rcd13ifvqeug","pricing_plan_id":"cebpf4jnsgd1na2vs0mg"},{"bike_id":"8b7e2333-3279-47a1-af44-5227b2c78362","system_id":"levelo_inurba_marseille","lat":43.24153,"lon":5.36419,"is_reserved":false,"is_disabled":false,"rental_uris":{"android":"levelo://app?vid=8b7e2333-3279-47a1-af44-5227b2c78362","ios":"levelo://app?vid=8b7e2333-3279-47a1-af44-5227b2c78362"},"vehicle_type_id":"4","last_reported":1743196107,"current_range_meters":12000,"station_id":"cpo36qri1sfpv3e86is0","pricing_plan_id":"cebpf4jnsgd1na2vs0mg"},{"bike_id":"983c4c9f-ee1a-4d13-8ce7-bfd36c479f46","system_id":"levelo_inurba_marseille","lat":43.24175,"lon":5.36396,"is_reserved":false,"is_disabled":false,"rental_uris":{"android":"levelo://app?vid=983c4c9f-ee1a-4d13-8ce7-bfd36c479f46","ios":"levelo://app?vid=983c4c9f-ee1a-4d13-8ce7-bfd36c479f46"},"vehicle_type_id":"4","last_reported":1743196107,"current_range_meters":12000,"station_id":"cpo36qri1sfpv3e86is0","pricing_plan_id":"cebpf4jnsgd1na2vs0mg"},{"bike_id":"ae1ed4ff-de8c-4524-a6ae-b731db5b9f5e","system_id":"levelo_inurba_marseille","lat":43.29724,"lon":5.37685,"is_reserved":false,"is_disabled":false,"rental_uris":{"android":"levelo://app?vid=ae1ed4ff-de8c-4524-a6ae-b731db5b9f5e","ios":"levelo://app?vid=ae1ed4ff-de8c-4524-a6ae-b731db5b9f5e"},"vehicle_type_id":"4","last_reported":1743196107,"current_range_meters":12000,"station_id":"ce4bgkh2rcd13ifvqbl0","pricing_plan_id":"cebpf4jnsgd1na2vs0mg"},{"bike_id":"2d6fae63-ebe4-4759-b0ac-4e6305e7f6e3","system_id":"levelo_inurba_marseille","lat":43.287077,"lon":5.373766,"is_reserved":false,"is_disabled":false,"rental_uris":{"android":"levelo://app?vid=2d6fae63-ebe4-4759-b0ac-4e6305e7f6e3","ios":"levelo://app?vid=2d6fae63-ebe4-4759-b0ac-4e6305e7f6e3"},"vehicle_type_id":"4","last_reported":1743196107,"current_range_meters":12000,"station_id":"ce4bh3p2rcd13ifvqdq0","pricing_plan_id":"cebpf4jnsgd1na2vs0mg"},{"bike_id":"c5b98171-7d4f-46ff-a16b-29d4415d0fe6","system_id":"levelo_inurba_marseille","lat":43.29258,"lon":5.38413,"is_reserved":false,"is_disabled":false,"rental_uris":{"android":"levelo://app?vid=c5b98171-7d4f-46ff-a16b-29d4415d0fe6","ios":"levelo://app?vid=c5b98171-7d4f-46ff-a16b-29d4415d0fe6"},"vehicle_type_id":"4","last_reported":1743196107,"current_range_meters":12000,"station_id":"ce4bh692rcd13ifvqea0","pricing_plan_id":"cebpf4jnsgd1na2vs0mg"},{"bike_id":"980b1b8d-c114-4f00-88f8-a0ddccb8fb71","system_id":"levelo_inurba_marseille","lat":43.28626,"lon":5.35089,"is_reserved":false,"is_disabled":false,"rental_uris":{"android":"levelo://app?vid=980b1b8d-c114-4f00-88f8-a0ddccb8fb71","ios":"levelo://app?vid=980b1b8d-c114-4f00-88f8-a0ddccb8fb71"},"vehicle_type_id":"4","last_reported":1743196107,"current_range_meters":12000,"station_id":"ce4bhch2rcd13ifvqeug","pricing_plan_id":"cebpf4jnsgd1na2vs0mg"},{"bike_id":"5fe8135d-6cb6-4c84-9e8b-3ebe0ead72c2","system_id":"levelo_inurba_marseille","lat":43.29348,"lon":5.37846,"is_reserved":false,"is_disabled":false,"rental_uris":{"android":"levelo://app?vid=5fe8135d-6cb6-4c84-9e8b-3ebe0ead72c2","ios":"levelo://app?vid=5fe8135d-6cb6-4c84-9e8b-3ebe0ead72c2"},"vehicle_type_id":"4","last_reported":1743196107,"current_range_meters":12400,"station_id":"ce4bgjh2rcd13ifvqbf0","pricing_plan_id":"cebpf4jnsgd1na2vs0mg"},{"bike_id":"1931f28e-f974-4e2e-9081-4043a4c8b35f","system_id":"levelo_inurba_marseille","lat":43.29303,"lon":5.37175,"is_reserved":false,"is_disabled":false,"rental_uris":{"android":"levelo://app?vid=1931f28e-f974-4e2e-9081-4043a4c8b35f","ios":"levelo://app?vid=1931f28e-f974-4e2e-9081-4043a4c8b35f"},"vehicle_type_id":"4","last_reported":1743196107,"current_range_meters":12400,"station_id":"ce4bgh92rcd13ifvqb40","pricing_plan_id":"cebpf4jnsgd1na2vs0mg"},{"bike_id":"420b755d-0ddf-4e14-b469-7edbab29829b","system_id":"levelo_inurba_marseille","lat":43.29441,"lon":5.38608,"is_reserved":false,"is_disabled":false,"rental_uris":{"android":"levelo://app?vid=420b755d-0ddf-4e14-b469-7edbab29829b","ios":"levelo://app?vid=420b755d-0ddf-4e14-b469-7edbab29829b"},"vehicle_type_id":"4","last_reported":1743196107,"current_range_meters":12400,"station_id":"ce4bh2h2rcd13ifvqdh0","pricing_plan_id":"cebpf4jnsgd1na2vs0mg"},{"bike_id":"9cf807fa-caf5-4d3e-8553-3e8d3b16b085","system_id":"levelo_inurba_marseille","lat":43.291279,"lon":5.384214,"is_reserved":false,"is_disabled":false,"rental_uris":{"android":"levelo://app?vid=9cf807fa-caf5-4d3e-8553-3e8d3b16b085","ios":"levelo://app?vid=9cf807fa-caf5-4d3e-8553-3e8d3b16b085"},"vehicle_type_id":"4","last_reported":1743196107,"current_range_meters":12400,"station_id":"ce4bh692rcd13ifvqe90","pricing_plan_id":"cebpf4jnsgd1na2vs0mg"},{"bike_id":"30f13956-3e0b-4b24-8ff7-a76103ffa89b","system_id":"levelo_inurba_marseille","lat":43.29164,"lon":5.37153,"is_reserved":false,"is_disabled":false,"rental_uris":{"android":"levelo://app?vid=30f13956-3e0b-4b24-8ff7-a76103ffa89b","ios":"levelo://app?vid=30f13956-3e0b-4b24-8ff7-a76103ffa89b"},"vehicle_type_id":"4","last_reported":1743196107,"current_range_meters":12400,"station_id":"ce4bha92rcd13ifvqeh0","pricing_plan_id":"cebpf4jnsgd1na2vs0mg"},{"bike_id":"1cebea5c-cfeb-4552-a2b6-bf6db1cff8b1","system_id":"levelo_inurba_marseille","lat":43.29201,"lon":5.35789,"is_reserved":false,"is_disabled":false,"rental_uris":{"android":"levelo://app?vid=1cebea5c-cfeb-4552-a2b6-bf6db1cff8b1","ios":"levelo://app?vid=1cebea5c-cfeb-4552-a2b6-bf6db1cff8b1"},"vehicle_type_id":"4","last_reported":1743196107,"current_range_meters":12400,"station_id":"ce4bhb12rcd13ifvqel0","pricing_plan_id":"cebpf4jnsgd1na2vs0mg"},{"bike_id":"a1f36ca3-7077-4235-adb8-8ead169ba95d","system_id":"levelo_inurba_marseille","lat":43.2942,"lon":5.38632,"is_reserved":false,"is_disabled":false,"rental_uris":{"android":"levelo://app?vid=a1f36ca3-7077-4235-adb8-8ead169ba95d","ios":"levelo://app?vid=a1f36ca3-7077-4235-adb8-8ead169ba95d"},"vehicle_type_id":"4","last_reported":1743196107,"current_range_meters":12400,"station_id":"ce4bh2h2rcd13ifvqdh0","pricing_plan_id":"cebpf4jnsgd1na2vs0mg"},{"bike_id":"0b93b52b-d9ac-4ca4-a4a0-8bd2b932d0df","system_id":"levelo_inurba_marseille","lat":43.29892,"lon":5.38902,"is_reserved":false,"is_disabled":false,"rental_uris":{"android":"levelo://app?vid=0b93b52b-d9ac-4ca4-a4a0-8bd2b932d0df","ios":"levelo://app?vid=0b93b52b-d9ac-4ca4-a4a0-8bd2b932d0df"},"vehicle_type_id":"4","last_reported":1743196107,"current_range_meters":12400,"station_id":"ce4bh392rcd13ifvqdl0","pricing_plan_id":"cebpf4jnsgd1na2vs0mg"},{"bike_id":"9f2583cf-461d-4d57-8c37-99ef1e89cade","system_id":"levelo_inurba_marseille","lat":43.23188,"lon":5.35549,"is_reserved":false,"is_disabled":false,"rental_uris":{"android":"levelo://app?vid=9f2583cf-461d-4d57-8c37-99ef1e89cade","ios":"levelo://app?vid=9f2583cf-461d-4d57-8c37-99ef1e89cade"},"vehicle_type_id":"4","last_reported":1743196107,"current_range_meters":12400,"station_id":"ce4bhu92rcd13ifvqi70","pricing_plan_id":"cebpf4jnsgd1na2vs0mg"},{"bike_id":"ad095ff6-2192-4acf-9d3b-75082cfc78be","system_id":"levelo_inurba_marseille","lat":43.29256,"lon":5.37724,"is_reserved":false,"is_disabled":false,"rental_uris":{"android":"levelo://app?vid=ad095ff6-2192-4acf-9d3b-75082cfc78be","ios":"levelo://app?vid=ad095ff6-2192-4acf-9d3b-75082cfc78be"},"vehicle_type_id":"4","last_reported":1743196107,"current_range_meters":12400,"station_id":"","pricing_plan_id":"cebpf4jnsgd1na2vs0mg"},{"bike_id":"434093bc-90dc-4b38-8477-d67fa10e865f","system_id":"levelo_inurba_marseille","lat":43.28932,"lon":5.38396,"is_reserved":false,"is_disabled":false,"rental_uris":{"android":"levelo://app?vid=434093bc-90dc-4b38-8477-d67fa10e865f","ios":"levelo://app?vid=434093bc-90dc-4b38-8477-d67fa10e865f"},"vehicle_type_id":"4","last_reported":1743196107,"current_range_meters":12800,"station_id":"ce4bh612rcd13ifvqe6g","pricing_plan_id":"cebpf4jnsgd1na2vs0mg"},{"bike_id":"68d21cef-b076-4993-9698-78d3622455a4","system_id":"levelo_inurba_marseille","lat":43.30778,"lon":5.37651,"is_reserved":false,"is_disabled":false,"rental_uris":{"android":"levelo://app?vid=68d21cef-b076-4993-9698-78d3622455a4","ios":"levelo://app?vid=68d21cef-b076-4993-9698-78d3622455a4"},"vehicle_type_id":"4","last_reported":1743196107,"current_range_meters":12800,"station_id":"ce4bgv92rcd13ifvqcq0","pricing_plan_id":"cebpf4jnsgd1na2vs0mg"},{"bike_id":"622f16e1-15db-4a50-8d47-ed9b01c6f6b8","system_id":"levelo_inurba_marseille","lat":43.29226,"lon":5.36066,"is_reserved":false,"is_disabled":false,"rental_uris":{"android":"levelo://app?vid=622f16e1-15db-4a50-8d47-ed9b01c6f6b8","ios":"levelo://app?vid=622f16e1-15db-4a50-8d47-ed9b01c6f6b8"},"vehicle_type_id":"4","last_reported":1743196107,"current_range_meters":12800,"station_id":"ce4bhbh2rcd13ifvqeqg","pricing_plan_id":"cebpf4jnsgd1na2vs0mg"},{"bike_id":"656d6ff6-df3c-4568-8fa1-d9353d9e6bad","system_id":"levelo_inurba_marseille","lat":43.302931,"lon":5.396912,"is_reserved":false,"is_disabled":false,"rental_uris":{"android":"levelo://app?vid=656d6ff6-df3c-4568-8fa1-d9353d9e6bad","ios":"levelo://app?vid=656d6ff6-df3c-4568-8fa1-d9353d9e6bad"},"vehicle_type_id":"4","last_reported":1743196107,"current_range_meters":7200,"station_id":"ce4bh092rcd13ifvqd20","pricing_plan_id":"cebpf4jnsgd1na2vs0mg"},{"bike_id":"b097cdf6-2d56-4689-98e8-a2fedfc637f7","system_id":"levelo_inurba_marseille","lat":43.29238,"lon":5.38426,"is_reserved":false,"is_disabled":false,"rental_uris":{"android":"levelo://app?vid=b097cdf6-2d56-4689-98e8-a2fedfc637f7","ios":"levelo://app?vid=b097cdf6-2d56-4689-98e8-a2fedfc637f7"},