{"last_updated":1730041672,"ttl":60,"version":"2.2","data":{"bikes":[{"bike_id":"46ca7a5a-b63f-4a23-af18-d368d3c3861e","system_id":"levelo_inurba_marseille","lat":43.27323,"lon":5.39092,"is_reserved":false,"is_disabled":false,"rental_uris":{"android":"levelo://app?vid=46ca7a5a-b63f-4a23-af18-d368d3c3861e","ios":"levelo://app?vid=46ca7a5a-b63f-4a23-af18-d368d3c3861e"},"vehicle_type_id":"4","last_reported":1730041673,"current_range_meters":32400,"station_id":"ce4bhgp2rcd13ifvqfe0","pricing_plan_id":"cebpf4jnsgd1na2vs0mg"},{"bike_id":"afcafc6c-ecc3-4f5c-a312-79b6f9633782","system_id":"levelo_inurba_marseille","lat":43.28421,"lon":5.34993,"is_reserved":false,"is_disabled":false,"rental_uris":{"android":"levelo://app?vid=afcafc6c-ecc3-4f5c-a312-79b6f9633782","ios":"levelo://app?vid=afcafc6c-ecc3-4f5c-a312-79b6f9633782"},"vehicle_type_id":"4","last_reported":1730041673,"current_range_meters":37600,"station_id":"ce4bhbh2rcd13ifvqepg","pricing_plan_id":"cebpf4jnsgd1na2vs0mg"},{"bike_id":"69f4165a-13a2-4bd8-b4d6-abfa25614867","system_id":"levelo_inurba_marseille","lat":43.26805,"lon":5.40265,"is_reserved":false,"is_disabled":false,"rental_uris":{"android":"levelo://app?vid=69f4165a-13a2-4bd8-b4d6-abfa25614867","ios":"levelo://app?vid=69f4165a-13a2-4bd8-b4d6-abfa25614867"},"vehicle_type_id":"4","last_reported":1730041673,"current_range_meters":40000,"station_id":"ce501612rcd8frsf0b60","pricing_plan_id":"cebpf4jnsgd1na2vs0mg"},{"bike_id":"3c58af34-521d-472e-8bbd-6f94b1b3c8ca","system_id":"levelo_inurba_marseille","lat":43.29891,"lon":5.38905,"is_reserved":false,"is_disabled":false,"rental_uris":{"android":"levelo://app?vid=3c58af34-521d-472e-8bbd-6f94b1b3c8ca","ios":"levelo://app?vid=3c58af34-521d-472e-8bbd-6f94b1b3c8ca"},"vehicle_type_id":"4","last_reported":1730041673,"current_range_meters":31200,"station_id":"ce4bh392rcd13ifvqdl0","pricing_plan_id":"cebpf4jnsgd1na2vs0mg"},{"bike_id":"e882ffb8-f684-48a7-911d-a113a843cdba","system_id":"levelo_inurba_marseille","lat":43.29568,"lon":5.37524,"is_reserved":false,"is_disabled":false,"rental_uris":{"android":"levelo://app?vid=e882ffb8-f684-48a7-911d-a113a843cdba","ios":"levelo://app?vid=e882ffb8-f684-48a7-911d-a113a843cdba"},"vehicle_type_id":"4","last_reported":1730041673,"current_range_meters":20800,"station_id":"ce4bgh92rcd13ifvqb50","pricing_plan_id":"cebpf4jnsgd1na2vs0mg"},{"bike_id":"556647e4-9c26-4576-bd8c-415461ddabd4","system_id":"levelo_inurba_marseille","lat":43.27574,"lon":5.38431,"is_reserved":false,"is_disabled":false,"rental_uris":{"android":"levelo://app?vid=556647e4-9c26-4576-bd8c-415461ddabd4","ios":"levelo://app?vid=556647e4-9c26-4576-bd8c-415461ddabd4"},"vehicle_type_id":"4","last_reported":1730041673,"current_range_meters":38800,"station_id":"ce4bhh92rcd13ifvqfi0","pricing_plan_id":"cebpf4jnsgd1na2vs0mg"},{"bike_id":"48660d12-eacc-4f93-a06c-04c2aa9e37e4","system_id":"levelo_inurba_marseille","lat":43.26802,"lon":5.40264,"is_reserved":false,"is_disabled":false,"rental_uris":{"android":"levelo://app?vid=48660d12-eacc-4f93-a06c-04c2aa9e37e4","ios":"levelo://app?vid=48660d12-eacc-4f93-a06c-04c2aa9e37e4"},"vehicle_type_id":"4","last_reported":1730041673,"current_range_meters":17600,"station_id":"ce501612rcd8frsf0b60","pricing_plan_id":"cebpf4jnsgd1na2vs0mg"},{"bike_id":"ca9c0d86-94d4-47f2-b6ab-72355598b38c","system_id":"levelo_inurba_marseille","lat":43.28418,"lon":5.34981,"is_reserved":false,"is_disabled":false,"rental_uris":{"android":"levelo://app?vid=ca9c0d86-94d4-47f2-b6ab-72355598b38c","ios":"levelo://app?vid=ca9c0d86-94d4-47f2-b6ab-72355598b38c"},"vehicle_type_id":"4","last_reported":1730041673,"current_range_meters":33600,"station_id":"ce4bhbh2rcd13ifvqepg","pricing_plan_id":"cebpf4jnsgd1na2vs0mg"},{"bike_id":"f3d5c86c-ab11-4ca3-aa72-c97ea732ed17","system_id":"levelo_inurba_marseille","lat":43.2733,"lon":5.39097,"is_reserved":false,"is_disabled":false,"rental_uris":{"android":"levelo://app?vid=f3d5c86c-ab11-4ca3-aa72-c97ea732ed17","ios":"levelo://app?vid=f3d5c86c-ab11-4ca3-aa72-c97ea732ed17"},"vehicle_type_id":"4","last_reported":1730041673,"current_range_meters":29600,"station_id":"ce4bhgp2rcd13ifvqfe0","pricing_plan_id":"cebpf4jnsgd1na2vs0mg"},{"bike_id":"cba112a0-44f4-4f47-a8fa-15542b39a456","system_id":"levelo_inurba_marseille","lat":43.23191,"lon":5.35566,"is_reserved":false,"is_disabled":false,"rental_uris":{"android":"levelo://app?vid=cba112a0-44f4-4f47-a8fa-15542b39a456","ios":"levelo://app?vid=cba112a0-44f4-4f47-a8fa-15542b39a456"},"vehicle_type_id":"4","last_reported":1730041673,"current_range_meters":24800,"station_id":"ce4bhu92rcd13ifvqi70","pricing_plan_id":"cebpf4jnsgd1na2vs0mg"},{"bike_id":"d08d1ac8-7d74-4dab-9a1c-e58b687720a6","system_id":"levelo_inurba_marseille","lat":43.248,"lon":5.37452,"is_reserved":false,"is_disabled":false,"rental_uris":{"android":"levelo://app?vid=d08d1ac8-7d74-4dab-9a1c-e58b687720a6","ios":"levelo://app?vid=d08d1ac8-7d74-4dab-9a1c-e58b687720a6"},"vehicle_type_id":"4","last_reported":1730041673,"current_range_meters":8000,"station_id":"ce4bhgh2rcd13ifvqfb0","pricing_plan_id":"cebpf4jnsgd1na2vs0mg"},{"bike_id":"96e8a04e-eaaa-4c54-b7b2-d27222ec8868","system_id":"levelo_inurba_marseille","lat":43.25006,"lon":5.38916,"is_reserved":false,"is_disabled":false,"rental_uris":{"android":"levelo://app?vid=96e8a04e-eaaa-4c54-b7b2-d27222ec8868","ios":"levelo://app?vid=96e8a04e-eaaa-4c54-b7b2-d27222ec8868"},"vehicle_type_id":"4","last_reported":1730041673,"current_range_meters":8800,"station_id":"ce4bhgp2rcd13ifvqfd0","pricing_plan_id":"cebpf4jnsgd1na2vs0mg"},{"bike_id":"d901d4c8-5277-43e4-be05-a3fbc1657e97","system_id":"levelo_inurba_marseille","lat":43.32662,"lon":5.40992,"is_reserved":false,"is_disabled":false,"rental_uris":{"android":"levelo://app?vid=d901d4c8-5277-43e4-be05-a3fbc1657e97","ios":"levelo://app?vid=d901d4c8-5277-43e4-be05-a3fbc1657e97"},"vehicle_type_id":"4","last_reported":1730041673,"current_range_meters":38800,"station_id":"ce4bhpp2rcd13ifvqhgg","pricing_plan_id":"cebpf4jnsgd1na2vs0mg"},{"bike_id":"7310f942-0d93-4b41-a667-c5fdd0d381ea","system_id":"levelo_inurba_marseille","lat":43.26566,"lon":5.39016,"is_reserved":false,"is_disabled":false,"rental_uris":{"android":"levelo://app?vid=7310f942-0d93-4b41-a667-c5fdd0d381ea","ios":"levelo://app?vid=7310f942-0d93-4b41-a667-c5fdd0d381ea"},"vehicle_type_id":"4","last_reported":1730041673,"current_range_meters":36000,"station_id":"ce4bhe12rcd13ifvqf30","pricing_plan_id":"cebpf4jnsgd1na2vs0mg"},{"bike_id":"3d60fe70-8150-4473-8d8a-936d46c6e3b6","system_id":"levelo_inurba_marseille","lat":43.29196,"lon":5.35812,"is_reserved":false,"is_disabled":false,"rental_uris":{"android":"levelo://app?vid=3d60fe70-8150-4473-8d8a-936d46c6e3b6","ios":"levelo://app?vid=3d60fe70-8150-4473-8d8a-936d46c6e3b6"},"vehicle_type_id":"4","last_reported":1730041673,"current_range_meters":23200,"station_id":"ce4bhb12rcd13ifvqel0","pricing_plan_id":"cebpf4jnsgd1na2vs0mg"},{"bike_id":"633bdd84-8a27-486c-8d5a-62bd9dd56f9f","system_id":"levelo_inurba_marseille","lat":43.26943,"lon":5.40248,"is_reserved":false,"is_disabled":false,"rental_uris":{"android":"levelo://app?vid=633bdd84-8a27-486c-8d5a-62bd9dd56f9f","ios":"levelo://app?vid=633bdd84-8a27-486c-8d5a-62bd9dd56f9f"},"vehicle_type_id":"4","last_reported":1730041673,"current_range_meters":38000,"station_id":"cjm6bp8fraef2m0cb0m0","pricing_plan_id":"cebpf4jnsgd1na2vs0mg"},{"bike_id":"92486913-3069-465a-9940-1f6062124ee2","system_id":"levelo_inurba_marseille","lat":43.29844,"lon":5.36269,"is_reserved":false,"is_disabled":false,"rental_uris":{"android":"levelo://app?vid=92486913-3069-465a-9940-1f6062124ee2","ios":"levelo://app?vid=92486913-3069-465a-9940-1f6062124ee2"},"vehicle_type_id":"4","last_reported":1730041673,"current_range_meters":38800,"station_id":"ce4bgpp2rcd13ifvqc3g","pricing_plan_id":"cebpf4jnsgd1na2vs0mg"},{"bike_id":"336aa9ef-ddda-4b9d-97f0-097a574c9eb7","system_id":"levelo_inurba_marseille","lat":43.31498,"lon":5.37304,"is_reserved":false,"is_disabled":false,"rental_uris":{"android":"levelo://app?vid=336aa9ef-ddda-4b9d-97f0-097a574c9eb7","ios":"levelo://app?vid=336aa9ef-ddda-4b9d-97f0-097a574c9eb7"},"vehicle_type_id":"4","last_reported":1730041673,"current_range_meters":38800,"station_id":"ce4bgt12rcd13ifvqcd0","pricing_plan_id":"cebpf4jnsgd1na2vs0mg"},{"bike_id":"0c5cd99c-9f06-4e90-a5fc-6ff2c5bc4703","system_id":"levelo_inurba_marseille","lat":43.26938,"lon":5.38912,"is_reserved":false,"is_disabled":false,"rental_uris":{"android":"levelo://app?vid=0c5cd99c-9f06-4e90-a5fc-6ff2c5bc4703","ios":"levelo://app?vid=0c5cd99c-9f06-4e90-a5fc-6ff2c5bc4703"},"vehicle_type_id":"4","last_reported":1730041673,"current_range_meters":37600,"station_id":"ce4bhhh2rcd13ifvqfl0","pricing_plan_id":"cebpf4jnsgd1na2vs0mg"},{"bike_id":"b7299c43-ba0b-4be9-ac8e-0db82a62d62e","system_id":"levelo_inurba_marseille","lat":43.27313,"lon":5.39083,"is_reserved":false,"is_disabled":false,"rental_uris":{"android":"levelo://app?vid=b7299c43-ba0b-4be9-ac8e-0db82a62d62e","ios":"levelo://app?vid=b7299c43-ba0b-4be9-ac8e-0db82a62d62e"},"vehicle_type_id":"4","last_reported":1730041673,"current_range_meters":17600,"station_id":"ce4bhgp2rcd13ifvqfe0","pricing_plan_id":"cebpf4jnsgd1na2vs0mg"},{"bike_id":"00a44bb9-fba8-4503-ad48-86fa55d0fc53","system_id":"levelo_inurba_marseille","lat":43.2811,"lon":5.3784,"is_reserved":false,"is_disabled":false,"rental_uris":{"android":"levelo://app?vid=00a44bb9-fba8-4503-ad48-86fa55d0fc53","ios":"levelo://app?vid=00a44bb9-fba8-4503-ad48-86fa55d0fc53"},"vehicle_type_id":"4","last_reported":1730041673,"current_range_meters":6400,"station_id":"ce4bha12rcd13ifvqee0","pricing_plan_id":"cebpf4jnsgd1na2vs0mg"},{"bike_id":"ff081f0c-ea21-431a-8d61-ad48db65fd3a","system_id":"levelo_inurba_marseille","lat":43.30353,"lon":5.41885,"is_reserved":false,"is_disabled":false,"rental_uris":{"android":"levelo://app?vid=ff081f0c-ea21-431a-8d61-ad48db65fd3a","ios":"levelo://app?vid=ff081f0c-ea21-431a-8d61-ad48db65fd3a"},"vehicle_type_id":"4","last_reported":1730041673,"current_range_meters":28800,"station_id":"ce4bhop2rcd13ifvqh7g","pricing_plan_id":"cebpf4jnsgd1na2vs0mg"},{"bike_id":"fd934aa3-c7c1-4048-b383-946307c7ef39","system_id":"levelo_inurba_marseille","lat":43.29852,"lon":5.36293,"is_reserved":false,"is_disabled":false,"rental_uris":{"android":"levelo://app?vid=fd934aa3-c7c1-4048-b383-946307c7ef39","ios":"levelo://app?vid=fd934aa3-c7c1-4048-b383-946307c7ef39"},"vehicle_type_id":"4","last_reported":1730041673,"current_range_meters":36800,"station_id":"ce4bgpp2rcd13ifvqc3g","pricing_plan_id":"cebpf4jnsgd1na2vs0mg"},{"bike_id":"8ed0e600-52f7-4841-aa09-f2be0f0fd557","system_id":"levelo_inurba_marseille","lat":43.26814,"lon":5.40268,"is_reserved":false,"is_disabled":false,"rental_uris":{"android":"levelo://app?vid=8ed0e600-52f7-4841-aa09-f2be0f0fd557","ios":"levelo://app?vid=8ed0e600-52f7-4841-aa09-f2be0f0fd557"},"vehicle_type_id":"4","last_reported":1730041673,"current_range_meters":38800,"station_id":"ce501612rcd8frsf0b60","pricing_plan_id":"cebpf4jnsgd1na2vs0mg"},{"bike_id":"e7a39374-01bb-46ae-a0b2-6cf5091f2094","system_id":"levelo_inurba_marseille","lat":43.24168,"lon":5.363972,"is_reserved":false,"is_disabled":false,"rental_uris":{"android":"levelo://app?vid=e7a39374-01bb-46ae-a0b2-6cf5091f2094","ios":"levelo://app?vid=e7a39374-01bb-46ae-a0b2-6cf5091f2094"},"vehicle_type_id":"4","last_reported":1730041673,"current_range_meters":32000,"station_id":"cpo36qri1sfpv3e86is0","pricing_plan_id":"cebpf4jnsgd1na2vs0mg"},{"bike_id":"b4cb097d-dae8-47d5-9033-49b6ce3c9db0","system_id":"levelo_inurba_marseille","lat":43.29519,"lon":5.3751,"is_reserved":false,"is_disabled":false,"rental_uris":{"android":"levelo://app?vid=b4cb097d-dae8-47d5-9033-49b6ce3c9db0","ios":"levelo://app?vid=b4cb097d-dae8-47d5-9033-49b6ce3c9db0"},"vehicle_type_id":"4","last_reported":1730041673,"current_range_meters":9200,"station_id":"ce4bgkp2rcd13ifvqbmg","pricing_plan_id":"cebpf4jnsgd1na2vs0mg"},{"bike_id":"1f4d93ba-c0f6-4f10-8ed7-ffd573942afb","system_id":"levelo_inurba_marseille","lat":43.29789,"lon":5.38116,"is_reserved":false,"is_disabled":false,"rental_uris":{"android":"levelo://app?vid=1f4d93ba-c0f6-4f10-8ed7-ffd573942afb","ios":"levelo://app?vid=1f4d93ba-c0f6-4f10-8ed7-ffd573942afb"},"vehicle_type_id":"4","last_reported":1730041673,"current_range_meters":38800,"station_id":"ce4bgip2rcd13ifvqbb0","pricing_plan_id":"cebpf4jnsgd1na2vs0mg"},{"bike_id":"5de0a329-7698-4bce-b772-88bd5818048d","system_id":"levelo_inurba_marseille","lat":43.26067,"lon":5.39391,"is_reserved":false,"is_disabled":false,"rental_uris":{"android":"levelo://app?vid=5de0a329-7698-4bce-b772-88bd5818048d","ios":"levelo://app?vid=5de0a329-7698-4bce-b772-88bd5818048d"},"vehicle_type_id":"4","last_reported":1730041673,"current_range_meters":32400,"station_id":"ce4bhh92rcd13ifvqfj0","pricing_plan_id":"cebpf4jnsgd1na2vs0mg"},{"bike_id":"27f39214-437b-402f-ba70-e8fd46f4e41b","system_id":"levelo_inurba_marseille","lat":43.28478,"lon":5.36937,"is_reserved":false,"is_disabled":false,"rental_uris":{"android":"levelo://app?vid=27f39214-437b-402f-ba70-e8fd46f4e41b","ios":"levelo://app?vid=27f39214-437b-402f-ba70-e8fd46f4e41b"},"vehicle_type_id":"4","last_reported":1730041673,"current_range_meters":19200,"station_id":"","pricing_plan_id":"cebpf4jnsgd1na2vs0mg"},{"bike_id":"5ed72901-e44e-460e-9669-5f1f8a6d2f53","system_id":"levelo_inurba_marseille","lat":43.2867,"lon":5.44467,"is_reserved":false,"is_disabled":false,"rental_uris":{"android":"levelo://app?vid=5ed72901-e44e-460e-9669-5f1f8a6d2f53","ios":"levelo://app?vid=5ed72901-e44e-460e-9669-5f1f8a6d2f53"},"vehicle_type_id":"4","last_reported":1730041673,"current_range_meters":9200,"station_id":"","pricing_plan_id":"cebpf4jnsgd1na2vs0mg"},{"bike_id":"a181fb35-9fa6-4e5e-9ded-6195f4a7c977","system_id":"levelo_inurba_marseille","lat":43.26777,"lon":5.39422,"is_reserved":false,"is_disabled":false,"rental_uris":{"android":"levelo://app?vid=a181fb35-9fa6-4e5e-9ded-6195f4a7c977","ios":"levelo://app?vid=a181fb35-9fa6-4e5e-9ded-6195f4a7c977"},"vehicle_type_id":"4","last_reported":1730041673,"current_range_meters":7200,"station_id":"ce4bhh12rcd13ifvqfg0","pricing_plan_id":"cebpf4jnsgd1na2vs0mg"},{"bike_id":"e7360508-6978-487a-a79b-5e2dad5d0ea3","system_id":"levelo_inurba_marseille","lat":43.22932,"lon":5.35374,"is_reserved":false,"is_disabled":false,"rental_uris":{"android":"levelo://app?vid=e7360508-6978-487a-a79b-5e2dad5d0ea3","ios":"levelo://app?vid=e7360508-6978-487a-a79b-5e2dad5d0ea3"},"vehicle_type_id":"4","last_reported":1730041673,"current_range_meters":24800,"station_id":"cpo3532slgdg3j2ikp40","pricing_plan_id":"cebpf4jnsgd1na2vs0mg"},{"bike_id":"72fff3d2-f3e9-45aa-ae6a-0949dc559f0e","system_id":"levelo_inurba_marseille","lat":43.27055,"lon":5.40261,"is_reserved":false,"is_disabled":false,"rental_uris":{"android":"levelo://app?vid=72fff3d2-f3e9-45aa-ae6a-0949dc559f0e","ios":"levelo://app?vid=72fff3d2-f3e9-45aa-ae6a-0949dc559f0e"},"vehicle_type_id":"4","last_reported":1730041673,"current_range_meters":32800,"station_id":"ce4bhk92rcd13ifvqgc0","pricing_plan_id":"cebpf4jnsgd1na2vs0mg"},{"bike_id":"417ff22a-2311-42cc-98d0-a41605c841f1","system_id":"levelo_inurba_marseille","lat":43.31476,"lon":5.37317,"is_reserved":false,"is_disabled":false,"rental_uris":{"android":"levelo://app?vid=417ff22a-2311-42cc-98d0-a41605c841f1","ios":"levelo://app?vid=417ff22a-2311-42cc-98d0-a41605c841f1"},"vehicle_type_id":"4","last_reported":1730041673,"current_range_meters":12000,"station_id":"ce4bgt12rcd13ifvqcd0","pricing_plan_id":"cebpf4jnsgd1na2vs0mg"},{"bike_id":"dc42427c-719a-4859-b1eb-d112d30e4eeb","system_id":"levelo_inurba_marseille","lat":43.29041,"lon":5.35917,"is_reserved":false,"is_disabled":false,"rental_uris":{"android":"levelo://app?vid=dc42427c-719a-4859-b1eb-d112d30e4eeb","ios":"levelo://app?vid=dc42427c-719a-4859-b1eb-d112d30e4eeb"},"vehicle_type_id":"4","last_reported":1730041673,"current_range_meters":17200,"station_id":"ce4bha92rcd13ifvqeg0","pricing_plan_id":"cebpf4jnsgd1na2vs0mg"},{"bike_id":"cd6b4d9b-a52f-4b62-9c69-636e54485231","system_id":"levelo_inurba_marseille","lat":43.25492,"lon":5.37651,"is_reserved":false,"is_disabled":false,"rental_uris":{"android":"levelo://app?vid=cd6b4d9b-a52f-4b62-9c69-636e54485231","ios":"levelo://app?vid=cd6b4d9b-a52f-4b62-9c69-636e54485231"},"vehicle_type_id":"4","last_reported":1730041673,"current_range_meters":8400,"station_id":"ce4bhh12rcd13ifvqff0","pricing_plan_id":"cebpf4jnsgd1na2vs0mg"},{"bike_id":"1e7b6f17-4e08-497c-ba01-c6876a6ec097","system_id":"levelo_inurba_marseille","lat":43.27833,"lon":5.39206,"is_reserved":false,"is_disabled":false,"rental_uris":{"android":"levelo://app?vid=1e7b6f17-4e08-497c-ba01-c6876a6ec097","ios":"levelo://app?vid=1e7b6f17-4e08-497c-ba01-c6876a6ec097"},"vehicle_type_id":"4","last_reported":1730041673,"current_range_meters":29600,"station_id":"ce4bhjp2rcd13ifvqga0","pricing_plan_id":"cebpf4jnsgd1na2vs0mg"},{"bike_id":"34c0b19e-e327-425b-bf09-25bec92dd9c4","system_id":"levelo_inurba_marseille","lat":43.293295,"lon":5.454689,"is_reserved":false,"is_disabled":false,"rental_uris":{"android":"levelo://app?vid=34c0b19e-e327-425b-bf09-25bec92dd9c4","ios":"levelo://app?vid=34c0b19e-e327-425b-bf09-25bec92dd9c4"},"vehicle_type_id":"4","last_reported":1730041673,"current_range_meters":4000,"station_id":"","pricing_plan_id":"cebpf4jnsgd1na2vs0mg"},{"bike_id":"34f93e00-5029-4642-b0c4-0b8938f16f5d","system_id":"levelo_inurba_marseille","lat":43.3179,"lon":5.36294,"is_reserved":false,"is_disabled":false,"rental_uris":{"android":"levelo://app?vid=34f93e00-5029-4642-b0c4-0b8938f16f5d","ios":"levelo://app?vid=34f93e00-5029-4642-b0c4-0b8938f16f5d"},"vehicle_type_id":"4","last_reported":1730041673,"current_range_meters":28800,"station_id":"ce4bgr92rcd13ifvqc6g","pricing_plan_id":"cebpf4jnsgd1na2vs0mg"},{"bike_id":"b19015df-d7f1-431e-ac48-b60ddefe24e8","system_id":"levelo_inurba_marseille","lat":43.27961,"lon":5.41054,"is_reserved":false,"is_disabled":false,"rental_uris":{"android":"levelo://app?vid=b19015df-d7f1-431e-ac48-b60ddefe24e8","ios":"levelo://app?vid=b19015df-d7f1-431e-ac48-b60ddefe24e8"},"vehicle_type_id":"4","last_reported":1730041673,"current_range_meters":6800,"station_id":"ce4bhnp2rcd13ifvqh0g","pricing_plan_id":"cebpf4jnsgd1na2vs0mg"},{"bike_id":"e16ba0fb-c8f9-4074-a1c8-ad626ad5602f","system_id":"levelo_inurba_marseille","lat":43.26945,"lon":5.40259,"is_reserved":false,"is_disabled":false,"rental_uris":{"android":"levelo://app?vid=e16ba0fb-c8f9-4074-a1c8-ad626ad5602f","ios":"levelo://app?vid=e16ba0fb-c8f9-4074-a1c8-ad626ad5602f"},"vehicle_type_id":"4","last_reported":1730041673,"current_range_meters":38400,"station_id":"cjm6bp8fraef2m0cb0m0","pricing_plan_id":"cebpf4jnsgd1na2vs0mg"},{"bike_id":"20f06491-d417-427c-95e4-3c409a4ea2a8","system_id":"levelo_inurba_marseille","lat":43.24809,"lon":5.37459,"is_reserved":false,"is_disabled":false,"rental_uris":{"android":"levelo://app?vid=20f06491-d417-427c-95e4-3c409a4ea2a8","ios":"levelo://app?vid=20f06491-d417-427c-95e4-3c409a4ea2a8"},"vehicle_type_id":"4","last_reported":1730041673,"current_range_meters":19600,"station_id":"ce4bhgh2rcd13ifvqfb0","pricing_plan_id":"cebpf4jnsgd1na2vs0mg"},{"bike_id":"516d2c7e-30e2-429a-adec-fbbadb0d1d0b","system_id":"levelo_inurba_marseille","lat":43.28618,"lon":5.351,"is_reserved":false,"is_disabled":false,"rental_uris":{"android":"levelo://app?vid=516d2c7e-30e2-429a-adec-fbbadb0d1d0b","ios":"levelo://app?vid=516d2c7e-30e2-429a-adec-fbbadb0d1d0b"},"vehicle_type_id":"4","last_reported":1730041673,"current_range_meters":32000,"station_id":"ce4bhch2rcd13ifvqeug","pricing_plan_id":"cebpf4jnsgd1na2vs0mg"},{"bike_id":"6875a1a6-32b9-4783-93f5-84a3a0c85f67","system_id":"levelo_inurba_marseille","lat":43.23069,"lon":5.35489,"is_reserved":false,"is_disabled":false,"rental_uris":{"android":"levelo://app?vid=6875a1a6-32b9-4783-93f5-84a3a0c85f67","ios":"levelo://app?vid=6875a1a6-32b9-4783-93f5-84a3a0c85f67"},"vehicle_type_id":"4","last_reported":1730041673,"current_range_meters":25200,"station_id":"cpo3342slgdg3j2ifvpg","pricing_plan_id":"cebpf4jnsgd1na2vs0mg"},{"bike_id":"d9e8db2e-ebd5-4620-8ffa-d1e84638a538","system_id":"levelo_inurba_marseille","lat":43.31081,"lon":5.42433,"is_reserved":false,"is_disabled":false,"rental_uris":{"android":"levelo://app?vid=d9e8db2e-ebd5-4620-8ffa-d1e84638a538","ios":"levelo://app?vid=d9e8db2e-ebd5-4620-8ffa-d1e84638a538"},"vehicle_type_id":"4","last_reported":1730041673,"current_range_meters":24000,"station_id":"ce4bhp92rcd13ifvqhag","pricing_plan_id":"cebpf4jnsgd1na2vs0mg"},{"bike_id":"e2fbfd4c-fb99-4766-9871-c3be3ad4bc71","system_id":"levelo_inurba_marseille","lat":43.29232,"lon":5.36064,"is_reserved":false,"is_disabled":false,"rental_uris":{"android":"levelo://app?vid=e2fbfd4c-fb99-4766-9871-c3be3ad4bc71","ios":"levelo://app?vid=e2fbfd4c-fb99-4766-9871-c3be3ad4bc71"},"vehicle_type_id":"4","last_reported":1730041673,"current_range_meters":8000,"station_id":"ce4bhbh2rcd13ifvqeqg","pricing_plan_id":"cebpf4jnsgd1na2vs0mg"},{"bike_id":"924563be-51b5-4050-8562-4eecfbfbcf34","system_id":"levelo_inurba_marseille","lat":43.26677,"lon":5.38273,"is_reserved":false,"is_disabled":false,"rental_uris":{"android":"levelo://app?vid=924563be-51b5-4050-8562-4eecfbfbcf34","ios":"levelo://app?vid=924563be-51b5-4050-8562-4eecfbfbcf34"},"vehicle_type_id":"4","last_reported":1730041673,"current_range_meters":38800,"station_id":"ce4bhg92rcd13ifvqf90","pricing_plan_id":"cebpf4jnsgd1na2vs0mg"},{"bike_id":"272108ab-c66d-4277-b942-346fbf20d819","system_id":"levelo_inurba_marseille","lat":43.30347,"lon":5.41883,"is_reserved":false,"is_disabled":false,"rental_uris":{"android":"levelo://app?vid=272108ab-c66d-4277-b942-346fbf20d819","ios":"levelo://app?vid=272108ab-c66d-4277-b942-346fbf20d819"},"vehicle_type_id":"4","last_reported":1730041673,"current_range_meters":8400,"station_id":"ce4bhop2rcd13ifvqh7g","pricing_plan_id":"cebpf4jnsgd1na2vs0mg"},{"bike_id":"ffe685b3-a8e4-4328-b0e8-72acafb1c500","system_id":"levelo_inurba_marseille","lat":43.26032,"lon":5.3755,"is_reserved":false,"is_disabled":false,"rental_uris":{"android":"levelo://app?vid=ffe685b3-a8e4-4328-b0e8-72acafb1c500","ios":"levelo://app?vid=ffe685b3-a8e4-4328-b0e8-72acafb1c500"},"vehicle_type_id":"4","last_reported":1730041673,"current_range_meters":38800,"station_id":"ce4bhgh2rcd13ifvqfa0","pricing_plan_id":"cebpf4jnsgd1na2vs0mg"},{"bike_id":"8fbb3d87-cdca-4c4a-859f-e70dea3485a5","system_id":"levelo_inurba_marseille","lat":43.27493,"lon":5.42457,"is_reserved":false,"is_disabled":false,"rental_uris":{"android":"levelo://app?vid=8fbb3d87-cdca-4c4a-859f-e70dea3485a5","ios":"levelo://app?vid=8fbb3d87-cdca-4c4a-859f-e70dea3485a5"},"vehicle_type_id":"4","last_reported":1730041673,"current_range_meters":33200,"station_id":"ce4bhn92rcd13ifvqgrg","pricing_plan_id":"cebpf4jnsgd1na2vs0mg"},{"bike_id":"8d199790-c671-45b8-9d65-7eee40531948","system_id":"levelo_inurba_marseille","lat":43.31112,"lon":5.3778,"is_reserved":false,"is_disabled":false,"rental_uris":{"android":"levelo://app?vid=8d199790-c671-45b8-9d65-7eee40531948","ios":"levelo://app?vid=8d199790-c671-45b8-9d65-7eee40531948"},"vehicle_type_id":"4","last_reported":1730041673,"current_range_meters":25200,"station_id":"ce4bgt92rcd13ifvqcg0","pricing_plan_id":"cebpf4jnsgd1na2vs0mg"},{"bike_id":"bf753f7d-144c-41f9-8ed7-88db1cf62d20","system_id":"levelo_inurba_marseille","lat":43.29169,"lon":5.37163,"is_reserved":false,"is_disabled":false,"rental_uris":{"android":"levelo://app?vid=bf753f7d-144c-41f9-8ed7-88db1cf62d20","ios":"levelo://app?vid=bf753f7d-144c-41f9-8ed7-88db1cf62d20"},"vehicle_type_id":"4","last_reported":1730041673,"current_range_meters":23200,"station_id":"ce4bha92rcd13ifvqeh0","pricing_plan_id":"cebpf4jnsgd1na2vs0mg"},{"bike_id":"03c72f06-dad5-44f0-9684-f81a03af1e58","system_id":"levelo_inurba_marseille","lat":43.30803,"lon":5.38149,"is_reserved":false,"is_disabled":false,"rental_uris":{"android":"levelo://app?vid=03c72f06-dad5-44f0-9684-f81a03af1e58","ios":"levelo://app?vid=03c72f06-dad5-44f0-9684-f81a03af1e58"},"vehicle_type_id":"4","last_reported":1730041673,"current_range_meters":29600,"station_id":"ce4bh092rcd13ifvqd20","pricing_plan_id":"cebpf4jnsgd1na2vs0mg"},{"bike_id":"faeb93b3-a7df-4150-90fe-924dd38204d1","system_id":"levelo_inurba_marseille","lat":43.27674,"lon":5.38873,"is_reserved":false,"is_disabled":false,"rental_uris":{"android":"levelo://app?vid=faeb93b3-a7df-4150-90fe-924dd38204d1","ios":"levelo://app?vid=faeb93b3-a7df-4150-90fe-924dd38204d1"},"vehicle_type_id":"4","last_reported":1730041673,"current_range_meters":4800,"station_id":"ce4bhi12rcd13ifvqfo0","pricing_plan_id":"cebpf4jnsgd1na2vs0mg"},{"bike_id":"898f9352-3e43-450c-a112-89c2892f0fe8","system_id":"levelo_inurba_marseille","lat":43.30933,"lon":5.40143,"is_reserved":false,"is_disabled":false,"rental_uris":{"android":"levelo://app?vid=898f9352-3e43-450c-a112-89c2892f0fe8","ios":"levelo://app?vid=898f9352-3e43-450c-a112-89c2892f0fe8"},"vehicle_type_id":"4","last_reported":1730041673,"current_range_meters":26000,"station_id":"ce4bgvp2rcd13ifvqct0","pricing_plan_id":"cebpf4jnsgd1na2vs0mg"},{"bike_id":"61a5e4b2-0e3f-49e0-8e00-c53fd160f7e7","system_id":"levelo_inurba_marseille","lat":43.30138,"lon":5.37418,"is_reserved":false,"is_disabled":false,"rental_uris":{"android":"levelo://app?vid=61a5e4b2-0e3f-49e0-8e00-c53fd160f7e7","ios":"levelo://app?vid=61a5e4b2-0e3f-49e0-8e00-c53fd160f7e7"},"vehicle_type_id":"4","last_reported":1730041673,"current_range_meters":30400,"station_id":"ce4bgs92rcd13ifvqcc0","pricing_plan_id":"cebpf4jnsgd1na2vs0mg"},{"bike_id":"cae5512b-eeb1-4b21-8d8f-d8841b2677f3","system_id":"levelo_inurba_marseille","lat":43.24175,"lon":5.39733,"is_reserved":false,"is_disabled":false,"rental_uris":{"android":"levelo://app?vid=cae5512b-eeb1-4b21-8d8f-d8841b2677f3","ios":"levelo://app?vid=cae5512b-eeb1-4b21-8d8f-d8841b2677f3"},"vehicle_type_id":"4","last_reported":1730041673,"current_range_meters":19600,"station_id":"ce4bhn12rcd13ifvqgpg","pricing_plan_id":"cebpf4jnsgd1na2vs0mg"},{"bike_id":"f5787bbf-9cce-4511-9bf7-253ae7831180","system_id":"levelo_inurba_marseille","lat":43.28715,"lon":5.37938,"is_reserved":false,"is_disabled":false,"rental_uris":{"android":"levelo://app?vid=f5787bbf-9cce-4511-9bf7-253ae7831180","ios":"levelo://app?vid=f5787bbf-9cce-4511-9bf7-253ae7831180"},"vehicle_type_id":"4","last_reported":1730041673,"current_range_meters":10800,"station_id":"ce4bh9p2rcd13ifvqec0","pricing_plan_id":"cebpf4jnsgd1na2vs0mg"},{"bike_id":"cd8988cf-34e0-4cd8-92c1-67d3cd8c964e","system_id":"levelo_inurba_marseille","lat":43.23959,"lon":5.3663,"is_reserved":false,"is_disabled":false,"rental_uris":{"android":"levelo://app?vid=cd8988cf-34e0-4cd8-92c1-67d3cd8c964e","ios":"levelo://app?vid=cd8988cf-34e0-4cd8-92c1-67d3cd8c964e"},"vehicle_type_id":"4","last_reported":1730041673,"current_range_meters":16000,"station_id":"ce4bhi12rcd13ifvqfp0","pricing_plan_id":"cebpf4jnsgd1na2vs0mg"},{"bike_id":"f4099b5d-497d-4e18-ad67-117cf5fd80e5","system_id":"levelo_inurba_marseille","lat":43.27914,"lon":5.39581,"is_reserved":false,"is_disabled":false,"rental_uris":{"android":"levelo://app?vid=f4099b5d-497d-4e18-ad67-117cf5fd80e5","ios":"levelo://app?vid=f4099b5d-497d-4e18-ad67-117cf5fd80e5"},"vehicle_type_id":"4","last_reported":1730041673,"current_range_meters":18800,"station_id":"ce4bhf92rcd13ifvqf40","pricing_plan_id":"cebpf4jnsgd1na2vs0mg"},{"bike_id":"f9e24c3d-8618-449d-9ffe-3d34a3b95afa","system_id":"levelo_inurba_marseille","lat":43.28618,"lon":5.35107,"is_reserved":false,"is_disabled":false,"rental_uris":{"android":"levelo://app?vid=f9e24c3d-8618-449d-9ffe-3d34a3b95afa","ios":"levelo://app?vid=f9e24c3d-8618-449d-9ffe-3d34a3b95afa"},"vehicle_type_id":"4","last_reported":1730041673,"current_range_meters":22400,"station_id":"ce4bhch2rcd13ifvqeug","pricing_plan_id":"cebpf4jnsgd1na2vs0mg"},{"bike_id":"7ecc6d51-067f-4597-9b83-15b2bec0ddbc","system_id":"levelo_inurba_marseille","lat":43.30952,"lon":5.39036,"is_reserved":false,"is_disabled":false,"rental_uris":{"android":"levelo://app?vid=7ecc6d51-067f-4597-9b83-15b2bec0ddbc","ios":"levelo://app?vid=7ecc6d51-067f-4597-9b83-15b2bec0ddbc"},"vehicle_type_id":"4","last_reported":1730041673,"current_range_meters":19200,"station_id":"ce4bgup2rcd13ifvqco0","pricing_plan_id":"cebpf4jnsgd1na2vs0mg"},{"bike_id":"5442a8aa-5c56-40b7-87af-556cb703de1b","system_id":"levelo_inurba_marseille","lat":43.2785,"lon":5.38308,"is_reserved":false,"is_disabled":false,"rental_uris":{"android":"levelo://app?vid=5442a8aa-5c56-40b7-87af-556cb703de1b","ios":"levelo://app?vid=5442a8aa-5c56-40b7-87af-556cb703de1b"},"vehicle_type_id":"4","last_reported":1730041673,"current_range_meters":27600,"station_id":"","pricing_plan_id":"cebpf4jnsgd1na2vs0mg"},{"bike_id":"9488ca84-aa5e-4311-bde9-38d634703444","system_id":"levelo_inurba_marseille","lat":43.32481,"lon":5.3657,"is_reserved":false,"is_disabled":false,"rental_uris":{"android":"levelo://app?vid=9488ca84-aa5e-4311-bde9-38d634703444","ios":"levelo://app?vid=9488ca84-aa5e-4311-bde9-38d634703444"},"vehicle_type_id":"4","last_reported":1730041673,"current_range_meters":38000,"station_id":"ce4bhs12rcd13ifvqhvg","pricing_plan_id":"cebpf4jnsgd1na2vs0mg"},{"bike_id":"5999013d-6587-4222-a30b-6a9c92078822","system_id":"levelo_inurba_marseille","lat":43.30649,"lon":5.40089,"is_reserved":false,"is_disabled":false,"rental_uris":{"android":"levelo://app?vid=5999013d-6587-4222-a30b-6a9c92078822","ios":"levelo://app?vid=5999013d-6587-4222-a30b-6a9c92078822"},"vehicle_type_id":"4","last_reported":1730041673,"current_range_meters":16800,"station_id":"ce4bh112rcd13ifvqda0","pricing_plan_id":"cebpf4jnsgd1na2vs0mg"},{"bike_id":"e145adb6-5aa2-4b11-96d2-eb3a71fb3ad1","system_id":"levelo_inurba_marseille","lat":43.29838,"lon":5.36274,"is_reserved":false,"is_disabled":false,"rental_uris":{"android":"levelo://app?vid=e145adb6-5aa2-4b11-96d2-eb3a71fb3ad1","ios":"levelo://app?vid=e145adb6-5aa2-4b11-96d2-eb3a71fb3ad1"},"vehicle_type_id":"4","last_reported":1730041673,"current_range_meters":38800,"station_id":"ce4bgpp2rcd13ifvqc3g","pricing_plan_id":"cebpf4jnsgd1na2vs0mg"},{"bike_id":"d39756c5-3e64-4211-9f44-1d5c9d245905","system_id":"levelo_inurba_marseille","lat":43.28612,"lon":5.351,"is_reserved":false,"is_disabled":false,"rental_uris":{"android":"levelo://app?vid=d39756c5-3e64-4211-9f44-1d5c9d245905","ios":"levelo://app?vid=d39756c5-3e64-4211-9f44-1d5c9d245905"},"vehicle_type_id":"4","last_reported":1730041673,"current_range_meters":38800,"station_id":"ce4bhch2rcd13ifvqeug","pricing_plan_id":"cebpf4jnsgd1na2vs0mg"},{"bike_id":"601916c5-3274-4e01-863c-d96df39ce3b1","system_id":"levelo_inurba_marseille","lat":43.26562,"lon":5.39009,"is_reserved":false,"is_disabled":false,"rental_uris":{"android":"levelo://app?vid=601916c5-3274-4e01-863c-d96df39ce3b1","ios":"levelo://app?vid=601916c5-3274-4e01-863c-d96df39ce3b1"},"vehicle_type_id":"4","last_reported":1730041673,"current_range_meters":36400,"station_id":"ce4bhe12rcd13ifvqf30","pricing_plan_id":"cebpf4jnsgd1na2vs0mg"},{"bike_id":"c3e26a17-822d-42a0-b023-b46afd3f2d9b","system_id":"levelo_inurba_marseille","lat":43.31481,"lon":5.37302,"is_reserved":false,"is_disabled":false,"rental_uris":{"android":"levelo://app?vid=c3e26a17-822d-42a0-b023-b46afd3f2d9b","ios":"levelo://app?vid=c3e26a17-822d-42a0-b023-b46afd3f2d9b"},"vehicle_type_id":"4","last_reported":1730041673,"current_range_meters":33200,"station_id":"ce4bgt12rcd13ifvqcd0","pricing_plan_id":"cebpf4jnsgd1na2vs0mg"},{"bike_id":"1fafbe93-2ba4-4077-bfcf-7b3992b30a25","system_id":"levelo_inurba_marseille","lat":43.29552,"lon":5.42283,"is_reserved":false,"is_disabled":false,"rental_uris":{"android":"levelo://app?vid=1fafbe93-2ba4-4077-bfcf-7b3992b30a25","ios":"levelo://app?vid=1fafbe93-2ba4-4077-bfcf-7b3992b30a25"},"vehicle_type_id":"4","last_reported":1730041673,"current_range_meters":39200,"station_id":"ce4bhph2rcd13ifvqhdg","pricing_plan_id":"cebpf4jnsgd1na2vs0mg"},{"bike_id":"22ec0ce8-1477-4f5a-89ed-8ecb85facd8a","system_id":"levelo_inurba_marseille","lat":43.28105,"lon":5.3785,"is_reserved":false,"is_disabled":false,"rental_uris":{"android":"levelo://app?vid=22ec0ce8-1477-4f5a-89ed-8ecb85facd8a","ios":"levelo://app?vid=22ec0ce8-1477-4f5a-89ed-8ecb85facd8a"},"vehicle_type_id":"4","last_reported":1730041673,"current_range_meters":37600,"station_id":"ce4bha12rcd13ifvqee0","pricing_plan_id":"cebpf4jnsgd1na2vs0mg"},{"bike_id":"ebb720f4-54ef-454a-8398-41f2bd5df1f9","system_id":"levelo_inurba_marseille","lat":43.29035,"lon":5.37565,"is_reserved":false,"is_disabled":false,"rental_uris":{"android":"levelo://app?vid=ebb720f4-54ef-454a-8398-41f2bd5df1f9","ios":"levelo://app?vid=ebb720f4-54ef-454a-8398-41f2bd5df1f9"},"vehicle_type_id":"4","last_reported":1730041673,"current_range_meters":11600,"station_id":"ce4bh692rcd13ifvqe90","pricing_plan_id":"cebpf4jnsgd1na2vs0mg"},{"bike_id":"04990240-91ff-43ce-b5da-8726796f6318","system_id":"levelo_inurba_marseille","lat":43.274213,"lon":5.394068,"is_reserved":false,"is_disabled":false,"rental_uris":{"android":"levelo://app?vid=04990240-91ff-43ce-b5da-8726796f6318","ios":"levelo://app?vid=04990240-91ff-43ce-b5da-8726796f6318"},"vehicle_type_id":"4","last_reported":1730041673,"current_range_meters":20000,"station_id":"ce4bhdp2rcd13ifvqf20","pricing_plan_id":"cebpf4jnsgd1na2vs0mg"},{"bike_id":"e113f747-4daa-44f7-a218-9e030daa2565","system_id":"levelo_inurba_marseille","lat":43.32105,"lon":5.36773,"is_reserved":false,"is_disabled":false,"rental_uris":{"android":"levelo://app?vid=e113f747-4daa-44f7-a218-9e030daa2565","ios":"levelo://app?vid=e113f747-4daa-44f7-a218-9e030daa2565"},"vehicle_type_id":"4","last_reported":1730041673,"current_range_meters":25600,"station_id":"ce4bhrh2rcd13ifvqhug","pricing_plan_id":"cebpf4jnsgd1na2vs0mg"},{"bike_id":"aeeb1b27-e11a-4939-b2fd-52a840692c86","system_id":"levelo_inurba_marseille","lat":43.28709,"lon":5.37938,"is_reserved":false,"is_disabled":false,"rental_uris":{"android":"levelo://app?vid=aeeb1b27-e11a-4939-b2fd-52a840692c86","ios":"levelo://app?vid=aeeb1b27-e11a-4939-b2fd-52a840692c86"},"vehicle_type_id":"4","last_reported":1730041673,"current_range_meters":3600,"station_id":"ce4bh9p2rcd13ifvqec0","pricing_plan_id":"cebpf4jnsgd1na2vs0mg"},{"bike_id":"5ec09d5b-d956-4533-93cc-842956bdf7a3","system_id":"levelo_inurba_marseille","lat":43.23968,"lon":5.36631,"is_reserved":false,"is_disabled":false,"rental_uris":{"android":"levelo://app?vid=5ec09d5b-d956-4533-93cc-842956bdf7a3","ios":"levelo://app?vid=5ec09d5b-d956-4533-93cc-842956bdf7a3"},"vehicle_type_id":"4","last_reported":1730041673,"current_range_meters":8000,"station_id":"ce4bhi12rcd13ifvqfp0","pricing_plan_id":"cebpf4jnsgd1na2vs0mg"},{"bike_id":"9fd56fad-5f3d-42b4-b491-7b57b76bc0cf","system_id":"levelo_inurba_marseille","lat":43.27816,"lon":5.40717,"is_reserved":false,"is_disabled":false,"rental_uris":{"android":"levelo://app?vid=9fd56fad-5f3d-42b4-b491-7b57b76bc0cf","ios":"levelo://app?vid=9fd56fad-5f3d-42b4-b491-7b57b76bc0cf"},"vehicle_type_id":"4","last_reported":1730041673,"current_range_meters":23200,"station_id":"ce4bhnh2rcd13ifvqgtg","pricing_plan_id":"cebpf4jnsgd1na2vs0mg"},{"bike_id":"acd1c4ad-9095-4d6e-9524-25e84602f45a","system_id":"levelo_inurba_marseille","lat":43.32485,"lon":5.36559,"is_reserved":false,"is_disabled":false,"rental_uris":{"android":"levelo://app?vid=acd1c4ad-9095-4d6e-9524-25e84602f45a","ios":"levelo://app?vid=acd1c4ad-9095-4d6e-9524-25e84602f45a"},"vehicle_type_id":"4","last_reported":1730041673,"current_range_meters":8800,"station_id":"ce4bhs12rcd13ifvqhvg","pricing_plan_id":"cebpf4jnsgd1na2vs0mg"},{"bike_id":"cefabfa0-4e49-40db-abd4-3d7f82a1bae5","system_id":"levelo_inurba_marseille","lat":43.29532,"lon":5.39026,"is_reserved":false,"is_disabled":false,"rental_uris":{"android":"levelo://app?vid=cefabfa0-4e49-40db-abd4-3d7f82a1bae5","ios":"levelo://app?vid=cefabfa0-4e49-40db-abd4-3d7f82a1bae5"},"vehicle_type_id":"4","last_reported":1730041673,"current_range_meters":8400,"station_id":"ce4bh3p2rcd13ifvqdp0","pricing_plan_id":"cebpf4jnsgd1na2vs0mg"},{"bike_id":"44eee058-96d6-4c25-a90b-d92c9a3c2d18","system_id":"levelo_inurba_marseille","lat":43.29414,"lon":5.38624,"is_reserved":false,"is_disabled":false,"rental_uris":{"android":"levelo://app?vid=44eee058-96d6-4c25-a90b-d92c9a3c2d18","ios":"levelo://app?vid=44eee058-96d6-4c25-a90b-d92c9a3c2d18"},"vehicle_type_id":"4","last_reported":1730041673,"current_range_meters":35600,"station_id":"ce4bh2h2rcd13ifvqdh0","pricing_plan_id":"cebpf4jnsgd1na2vs0mg"},{"bike_id":"a3a7bd56-a574-451f-a144-4953d7ab77c5","system_id":"levelo_inurba_marseille","lat":43.30539,"lon":5.36529,"is_reserved":false,"is_disabled":false,"rental_uris":{"android":"levelo://app?vid=a3a7bd56-a574-451f-a144-4953d7ab77c5","ios":"levelo://app?vid=a3a7bd56-a574-451f-a144-4953d7ab77c5"},"vehicle_type_id":"4","last_reported":1730041673,"current_range_meters":30000,"station_id":"ce4bgs12rcd13ifvqcag","pricing_plan_id":"cebpf4jnsgd1na2vs0mg"},{"bike_id":"85824fc7-1d52-4a4c-919f-fcbc3726a7fa","system_id":"levelo_inurba_marseille","lat":43.29713,"lon":5.37698,"is_reserved":false,"is_disabled":false,"rental_uris":{"android":"levelo://app?vid=85824fc7-1d52-4a4c-919f-fcbc3726a7fa","ios":"levelo://app?vid=85824fc7-1d52-4a4c-919f-fcbc3726a7fa"},"vehicle_type_id":"4","last_reported":1730041673,"current_range_meters":19200,"station_id":"ce4bgkh2rcd13ifvqbl0","pricing_plan_id":"cebpf4jnsgd1na2vs0mg"},{"bike_id":"0638c0d6-e592-4ce2-8b9f-449ee85c4f80","system_id":"levelo_inurba_marseille","lat":43.2558,"lon":5.38232,"is_reserved":false,"is_disabled":false,"rental_uris":{"android":"levelo://app?vid=0638c0d6-e592-4ce2-8b9f-449ee85c4f80","ios":"levelo://app?vid=0638c0d6-e592-4ce2-8b9f-449ee85c4f80"},"vehicle_type_id":"4","last_reported":1730041673,"current_range_meters":25600,"station_id":"ce4bhih2rcd13ifvqfs0","pricing_plan_id":"cebpf4jnsgd1na2vs0mg"},{"bike_id":"e6e1b4e0-4514-4344-aee9-618d48be7f52","system_id":"levelo_inurba_marseille","lat":43.30421,"lon":5.41282,"is_reserved":false,"is_disabled":false,"rental_uris":{"android":"levelo://app?vid=e6e1b4e0-4514-4344-aee9-618d48be7f52","ios":"levelo://app?vid=e6e1b4e0-4514-4344-aee9-618d48be7f52"},"vehicle_type_id":"4","last_reported":1730041673,"current_range_meters":24800,"station_id":"ce4bhop2rcd13ifvqh8g","pricing_plan_id":"cebpf4jnsgd1na2vs0mg"},{"bike_id":"69793813-92f8-46a1-bfda-97e1fea4c204","system_id":"levelo_inurba_marseille","lat":43.29075,"lon":5.3717,"is_reserved":false,"is_disabled":false,"rental_uris":{"android":"levelo://app?vid=69793813-92f8-46a1-bfda-97e1fea4c204","ios":"levelo://app?vid=69793813-92f8-46a1-bfda-97e1fea4c204"},"vehicle_type_id":"4","last_reported":1730041673,"current_range_meters":31200,"station_id":"ce4bh5p2rcd13ifvqe4g","pricing_plan_id":"cebpf4jnsgd1na2vs0mg"},{"bike_id":"d7ff7165-6d5c-4f76-865c-b2ea1a2a3c7a","system_id":"levelo_inurba_marseille","lat":43.27496,"lon":5.42449,"is_reserved":false,"is_disabled":false,"rental_uris":{"android":"levelo://app?vid=d7ff7165-6d5c-4f76-865c-b2ea1a2a3c7a","ios":"levelo://app?vid=d7ff7165-6d5c-4f76-865c-b2ea1a2a3c7a"},"vehicle_type_id":"4","last_reported":1730041673,"current_range_meters":38800,"station_id":"ce4bhn92rcd13ifvqgrg","pricing_plan_id":"cebpf4jnsgd1na2vs0mg"},{"bike_id":"02efff61-5b53-42f0-8deb-59befd730dce","system_id":"levelo_inurba_marseille","lat":43.29895,"lon":5.43671,"is_reserved":false,"is_disabled":false,"rental_uris":{"android":"levelo://app?vid=02efff61-5b53-42f0-8deb-59befd730dce","ios":"levelo://app?vid=02efff61-5b53-42f0-8deb-59befd730dce"},"vehicle_type_id":"4","last_reported":1730041673,"current_range_meters":33200,"station_id":"ce4bhpp2rcd13ifvqhfg","pricing_plan_id":"cebpf4jnsgd1na2vs0mg"},{"bike_id":"33a6c2c5-b377-495c-a8bd-771ab1db77e9","system_id":"levelo_inurba_marseille","lat":43.29851,"lon":5.36289,"is_reserved":false,"is_disabled":false,"rental_uris":{"android":"levelo://app?vid=33a6c2c5-b377-495c-a8bd-771ab1db77e9","ios":"levelo://app?vid=33a6c2c5-b377-495c-a8bd-771ab1db77e9"},"vehicle_type_id":"4","last_reported":1730041673,"current_range_meters":28800,"station_id":"ce4bgpp2rcd13ifvqc3g","pricing_plan_id":"cebpf4jnsgd1na2vs0mg"},{"bike_id":"da41005b-3fbd-4389-9128-80ea7e3c96a4","system_id":"levelo_inurba_marseille","lat":43.26947,"lon":5.38636,"is_reserved":false,"is_disabled":false,"rental_uris":{"android":"levelo://app?vid=da41005b-3fbd-4389-9128-80ea7e3c96a4","ios":"levelo://app?vid=da41005b-3fbd-4389-9128-80ea7e3c96a4"},"vehicle_type_id":"4","last_reported":1730041673,"current_range_meters":37600,"station_id":"ce4bhh92rcd13ifvqfh0","pricing_plan_id":"cebpf4jnsgd1na2vs0mg"},{"bike_id":"435a1038-e7d6-460f-9fa8-6da2adb21b02","system_id":"levelo_inurba_marseille","lat":43.29187,"lon":5.35803,"is_reserved":false,"is_disabled":false,"rental_uris":{"android":"levelo://app?vid=435a1038-e7d6-460f-9fa8-6da2adb21b02","ios":"levelo://app?vid=435a1038-e7d6-460f-9fa8-6da2adb21b02"},"vehicle_type_id":"4","last_reported":1730041673,"current_range_meters":38800,"station_id":"ce4bhb12rcd13ifvqel0","pricing_plan_id":"cebpf4jnsgd1na2vs0mg"},{"bike_id":"e92820a8-d442-4be8-b696-8733c279f7e5","system_id":"levelo_inurba_marseille","lat":43.26029,"lon":5.37551,"is_reserved":false,"is_disabled":false,"rental_uris":{"android":"levelo://app?vid=e92820a8-d442-4be8-b696-8733c279f7e5","ios":"levelo://app?vid=e92820a8-d442-4be8-b696-8733c279f7e5"},"vehicle_type_id":"4","last_reported":1730041673,"current_range_meters":16000,"station_id":"ce4bhgh2rcd13ifvqfa0","pricing_plan_id":"cebpf4jnsgd1na2vs0mg"},{"bike_id":"263f93c9-144a-4508-b60e-cbaf71ba2571","system_id":"levelo_inurba_marseille","lat":43.24175,"lon":5.39718,"is_reserved":false,"is_disabled":false,"rental_uris":{"android":"levelo://app?vid=263f93c9-144a-4508-b60e-cbaf71ba2571","ios":"levelo://app?vid=263f93c9-144a-4508-b60e-cbaf71ba2571"},"vehicle_type_id":"4","last_reported":1730041673,"current_range_meters":37600,"station_id":"ce4bhn12rcd13ifvqgpg","pricing_plan_id":"cebpf4jnsgd1na2vs0mg"},{"bike_id":"d42f9e95-68f2-4a60-b611-aa574cef9696","system_id":"levelo_inurba_marseille","lat":43.29632,"lon":5.37717,"is_reserved":false,"is_disabled":false,"rental_uris":{"android":"levelo://app?vid=d42f9e95-68f2-4a60-b611-aa574cef9696","ios":"levelo://app?vid=d42f9e95-68f2-4a60-b611-aa574cef9696"},"vehicle_type_id":"4","last_reported":1730041673,"current_range_meters":26800,"station_id":"ce4bgi92rcd13ifvqb90","pricing_plan_id":"cebpf4jnsgd1na2vs0mg"},{"bike_id":"1ea8964d-1405-4b60-be1b-a61fcaeceb90","system_id":"levelo_inurba_marseille","lat":43.28939,"lon":5.39637,"is_reserved":false,"is_disabled":false,"rental_uris":{"android":"levelo://app?vid=1ea8964d-1405-4b60-be1b-a61fcaeceb90","ios":"levelo://app?vid=1ea8964d-1405-4b60-be1b-a61fcaeceb90"},"vehicle_type_id":"4","last_reported":1730041673,"current_range_meters":24400,"station_id":"ce4bh3h2rcd13ifvqdn0","pricing_plan_id":"cebpf4jnsgd1na2vs0mg"},{"bike_id":"76055501-39fb-4f8a-85d9-54343636c378","system_id":"levelo_inurba_marseille","lat":43.28484,"lon":5.3842,"is_reserved":false,"is_disabled":false,"rental_uris":{"android":"levelo://app?vid=76055501-39fb-4f8a-85d9-54343636c378","ios":"levelo://app?vid=76055501-39fb-4f8a-85d9-54343636c378"},"vehicle_type_id":"4","last_reported":1730041673,"current_range_meters":28000,"station_id":"ce4bh512rcd13ifvqe3g","pricing_plan_id":"cebpf4jnsgd1na2vs0mg"},{"bike_id":"4d49d52d-785d-411e-b344-5872062c1849","system_id":"levelo_inurba_marseille","lat":43.23054,"lon":5.35491,"is_reserved":false,"is_disabled":false,"rental_uris":{"android":"levelo://app?vid=4d49d52d-785d-411e-b344-5872062c1849","ios":"levelo://app?vid=4d49d52d-785d-411e-b344-5872062c1849"},"vehicle_type_id":"4","last_reported":1730041673,"current_range_meters":6800,"station_id":"cpo3342slgdg3j2ifvpg","pricing_plan_id":"cebpf4jnsgd1na2vs0mg"},{"bike_id":"6c25fe1c-d7b2-489d-9681-906e1356efeb","system_id":"levelo_inurba_marseille","lat":43.28613,"lon":5.35106,"is_reserved":false,"is_disabled":false,"rental_uris":{"android":"levelo://app?vid=6c25fe1c-d7b2-489d-9681-906e1356efeb","ios":"levelo://app?vid=6c25fe1c-d7b2-489d-9681-906e1356efeb"},"vehicle_type_id":"4","last_reported":1730041673,"current_range_meters":34000,"station_id":"ce4bhch2rcd13ifvqeug","pricing_plan_id":"cebpf4jnsgd1na2vs0mg"},{"bike_id":"877858f1-59bf-454c-ab39-1db982b681d3","system_id":"levelo_inurba_marseille","lat":43.28618,"lon":5.35104,"is_reserved":false,"is_disabled":false,"rental_uris":{"android":"levelo://app?vid=877858f1-59bf-454c-ab39-1db982b681d3","ios":"levelo://app?vid=877858f1-59bf-454c-ab39-1db982b681d3"},"vehicle_type_id":"4","last_reported":1730041673,"current_range_meters":31200,"station_id":"ce4bhch2rcd13ifvqeug","pricing_plan_id":"cebpf4jnsgd1na2vs0mg"},{"bike_id":"ebe4e8e9-1711-4cda-90ff-02c36befaedf","system_id":"levelo_inurba_marseille","lat":43.26195,"lon":5.37446,"is_reserved":false,"is_disabled":false,"rental_uris":{"android":"levelo://app?vid=ebe4e8e9-1711-4cda-90ff-02c36befaedf","ios":"levelo://app?vid=ebe4e8e9-1711-4cda-90ff-02c36befaedf"},"vehicle_type_id":"4","last_reported":1730041673,"current_range_meters":28400,"station_id":"ce4bhgp2rcd13ifvqfc0","pricing_plan_id":"cebpf4jnsgd1na2vs0mg"},{"bike_id":"51fbdbba-98df-48e6-87af-e889f686cced","system_id":"levelo_inurba_marseille","lat":43.26774,"lon":5.39423,"is_reserved":false,"is_disabled":false,"rental_uris":{"android":"levelo://app?vid=51fbdbba-98df-48e6-87af-e889f686cced","ios":"levelo://app?vid=51fbdbba-98df-48e6-87af-e889f686cced"},"vehicle_type_id":"4","last_reported":1730041673,"current_range_meters":36400,"station_id":"ce4bhh12rcd13ifvqfg0","pricing_plan_id":"cebpf4jnsgd1na2vs0mg"},{"bike_id":"66573150-901d-4315-999f-1bdf296e6efc","system_id":"levelo_inurba_marseille","lat":43.28851,"lon":5.3586,"is_reserved":false,"is_disabled":false,"rental_uris":{"android":"levelo://app?vid=66573150-901d-4315-999f-1bdf296e6efc","ios":"levelo://app?vid=66573150-901d-4315-999f-1bdf296e6efc"},"vehicle_type_id":"4","last_reported":1730041673,"current_range_meters":38800,"station_id":"ce4bhb12rcd13ifvqem0","pricing_plan_id":"cebpf4jnsgd1na2vs0mg"},{"bike_id":"e054b74b-6cfa-4c56-9a30-1c18a6abb467","system_id":"levelo_inurba_marseille","lat":43.29581,"lon":5.37516,"is_reserved":false,"is_disabled":false,"rental_uris":{"android":"levelo://app?vid=e054b74b-6cfa-4c56-9a30-1c18a6abb467","ios":"levelo://app?vid=e054b74b-6cfa-4c56-9a30-1c18a6abb467"},"vehicle_type_id":"4","last_reported":1730041673,"current_range_meters":38800,"station_id":"ce4bgh92rcd13ifvqb50","pricing_plan_id":"cebpf4jnsgd1na2vs0mg"},{"bike_id":"a67a580c-521c-43da-981f-297ad02a30db","system_id":"levelo_inurba_marseille","lat":43.2843,"lon":5.34996,"is_reserved":false,"is_disabled":false,"rental_uris":{"android":"levelo://app?vid=a67a580c-521c-43da-981f-297ad02a30db","ios":"levelo://app?vid=a67a580c-521c-43da-981f-297ad02a30db"},"vehicle_type_id":"4","last_reported":1730041673,"current_range_meters":11600,"station_id":"ce4bhbh2rcd13ifvqepg","pricing_plan_id":"cebpf4jnsgd1na2vs0mg"},{"bike_id":"8e05c1c9-c561-470b-83c7-44b67333075d","system_id":"levelo_inurba_marseille","lat":43.29274,"lon":5.3845,"is_reserved":false,"is_disabled":false,"rental_uris":{"android":"levelo://app?vid=8e05c1c9-c561-470b-83c7-44b67333075d","ios":"levelo://app?vid=8e05c1c9-c561-470b-83c7-44b67333075d"},"vehicle_type_id":"4","last_reported":1730041673,"current_range_meters":36400,"station_id":"ce4bh692rcd13ifvqea0","pricing_plan_id":"cebpf4jnsgd1na2vs0mg"},{"bike_id":"863e3f57-878e-4383-97e3-2f6936cd42ee","system_id":"levelo_inurba_marseille","lat":43.2655,"lon":5.37282,"is_reserved":false,"is_disabled":false,"rental_uris":{"android":"levelo://app?vid=863e3f57-878e-4383-97e3-2f6936cd42ee","ios":"levelo://app?vid=863e3f57-878e-4383-97e3-2f6936cd42ee"},"vehicle_type_id":"4","last_reported":1730041673,"current_range_meters":26000,"station_id":"ce4bhg12rcd13ifvqf70","pricing_plan_id":"cebpf4jnsgd1na2vs0mg"},{"bike_id":"6096dffb-8038-4646-9371-be8080c20503","system_id":"levelo_inurba_marseille","lat":43.26033,"lon":5.37551,"is_reserved":false,"is_disabled":false,"rental_uris":{"android":"levelo://app?vid=6096dffb-8038-4646-9371-be8080c20503","ios":"levelo://app?vid=6096dffb-8038-4646-9371-be8080c20503"},"vehicle_type_id":"4","last_reported":1730041673,"current_range_meters":38800,"station_id":"ce4bhgh2rcd13ifvqfa0","pricing_plan_id":"cebpf4jnsgd1na2vs0mg"},{"bike_id":"5b5b180e-8d53-4e5b-bcea-4c9f3840328a","system_id":"levelo_inurba_marseille","lat":43.29622,"lon":5.37173,"is_reserved":false,"is_disabled":false,"rental_uris":{"android":"levelo://app?vid=5b5b180e-8d53-4e5b-bcea-4c9f3840328a","ios":"levelo://app?vid=5b5b180e-8d53-4e5b-bcea-4c9f3840328a"},"vehicle_type_id":"4","last_reported":1730041673,"current_range_meters":3200,"station_id":"ce4bgnh2rcd13ifvqc0g","pricing_plan_id":"cebpf4jnsgd1na2vs0mg"},{"bike_id":"c6408af5-7431-4d42-8163-501b18da2dec","system_id":"levelo_inurba_marseille","lat":43.23192,"lon":5.39986,"is_reserved":false,"is_disabled":false,"rental_uris":{"android":"levelo://app?vid=c6408af5-7431-4d42-8163-501b18da2dec","ios":"levelo://app?vid=c6408af5-7431-4d42-8163-501b18da2dec"},"vehicle_type_id":"4","last_reported":1730041673,"current_range_meters":18800,"station_id":"ce4bhn12rcd13ifvqgqg","pricing_plan_id":"cebpf4jnsgd1na2vs0mg"},{"bike_id":"033ec069-cf1f-4a7c-b22c-cb6bc941d530","system_id":"levelo_inurba_marseille","lat":43.29,"lon":5.35616,"is_reserved":false,"is_disabled":false,"rental_uris":{"android":"levelo://app?vid=033ec069-cf1f-4a7c-b22c-cb6bc941d530","ios":"levelo://app?vid=033ec069-cf1f-4a7c-b22c-cb6bc941d530"},"vehicle_type_id":"4","last_reported":1730041673,"current_range_meters":38800,"station_id":"ce4bhb92rcd13ifvqen0","pricing_plan_id":"cebpf4jnsgd1na2vs0mg"},{"bike_id":"8d1224ea-8c67-414f-8e8e-8dff85dd0343","system_id":"levelo_inurba_marseille","lat":43.25006,"lon":5.38933,"is_reserved":false,"is_disabled":false,"rental_uris":{"android":"levelo://app?vid=8d1224ea-8c67-414f-8e8e-8dff85dd0343","ios":"levelo://app?vid=8d1224ea-8c67-414f-8e8e-8dff85dd0343"},"vehicle_type_id":"4","last_reported":1730041673,"current_range_meters":36400,"station_id":"ce4bhgp2rcd13ifvqfd0","pricing_plan_id":"cebpf4jnsgd1na2vs0mg"},{"bike_id":"9befed88-9f8c-464c-b07b-093bd97066bb","system_id":"levelo_inurba_marseille","lat":43.29805,"lon":5.37136,"is_reserved":false,"is_disabled":false,"rental_uris":{"android":"levelo://app?vid=9befed88-9f8c-464c-b07b-093bd97066bb","ios":"levelo://app?vid=9befed88-9f8c-464c-b07b-093bd97066bb"},"vehicle_type_id":"4","last_reported":1730041673,"current_range_meters":19200,"station_id":"","pricing_plan_id":"cebpf4jnsgd1na2vs0mg"},{"bike_id":"f37e3b02-a49c-4c4e-b112-f9c8c24edf90","system_id":"levelo_inurba_marseille","lat":43.2319,"lon":5.35552,"is_reserved":false,"is_disabled":false,"rental_uris":{"android":"levelo://app?vid=f37e3b02-a49c-4c4e-b112-f9c8c24edf90","ios":"levelo://app?vid=f37e3b02-a49c-4c4e-b112-f9c8c24edf90"},"vehicle_type_id":"4","last_reported":1730041673,"current_range_meters":16400,"station_id":"ce4bhu92rcd13ifvqi70","pricing_plan_id":"cebpf4jnsgd1na2vs0mg"},{"bike_id":"601b34eb-bb27-49aa-bc78-4cf12d6bde95","system_id":"levelo_inurba_marseille","lat":43.28274,"lon":5.35083,"is_reserved":false,"is_disabled":false,"rental_uris":{"android":"levelo://app?vid=601b34eb-bb27-49aa-bc78-4cf12d6bde95","ios":"levelo://app?vid=601b34eb-bb27-49aa-bc78-4cf12d6bde95"},"vehicle_type_id":"4","last_reported":1730041673,"current_range_meters":25600,"station_id":"ce4bhbp2rcd13ifvqerg","pricing_plan_id":"cebpf4jnsgd1na2vs0mg"},{"bike_id":"f116e5af-1d34-458a-bff4-0fb3467d732c","system_id":"levelo_inurba_marseille","lat":43.29785,"lon":5.37097,"is_reserved":false,"is_disabled":false,"rental_uris":{"android":"levelo://app?vid=f116e5af-1d34-458a-bff4-0fb3467d732c","ios":"levelo://app?vid=f116e5af-1d34-458a-bff4-0fb3467d732c"},"vehicle_type_id":"4","last_reported":1730041673,"current_range_meters":32800,"station_id":"ce4bgh92rcd13ifvqb40","pricing_plan_id":"cebpf4jnsgd1na2vs0mg"},{"bike_id":"cd5d1e3b-8470-4811-ab76-6a98de99ac82","system_id":"levelo_inurba_marseille","lat":43.26198,"lon":5.3745,"is_reserved":false,"is_disabled":false,"rental_uris":{"android":"levelo://app?vid=cd5d1e3b-8470-4811-ab76-6a98de99ac82","ios":"levelo://app?vid=cd5d1e3b-8470-4811-ab76-6a98de99ac82"},"vehicle_type_id":"4","last_reported":1730041673,"current_range_meters":9200,"station_id":"ce4bhgp2rcd13ifvqfc0","pricing_plan_id":"cebpf4jnsgd1na2vs0mg"},{"bike_id":"5c8d47df-cace-44d5-9922-d4ea86fc841f","system_id":"levelo_inurba_marseille","lat":43.23955,"lon":5.36623,"is_reserved":false,"is_disabled":false,"rental_uris":{"android":"levelo://app?vid=5c8d47df-cace-44d5-9922-d4ea86fc841f","ios":"levelo://app?vid=5c8d47df-cace-44d5-9922-d4ea86fc841f"},"vehicle_type_id":"4","last_reported":1730041673,"current_range_meters":38000,"station_id":"ce4bhi12rcd13ifvqfp0","pricing_plan_id":"cebpf4jnsgd1na2vs0mg"},{"bike_id":"872bf1d7-f852-4002-8545-4ba28e44ca4c","system_id":"levelo_inurba_marseille","lat":43.27494,"lon":5.42454,"is_reserved":false,"is_disabled":false,"rental_uris":{"android":"levelo://app?vid=872bf1d7-f852-4002-8545-4ba28e44ca4c","ios":"levelo://app?vid=872bf1d7-f852-4002-8545-4ba28e44ca4c"},"vehicle_type_id":"4","last_reported":1730041673,"current_range_meters":24400,"station_id":"ce4bhn92rcd13ifvqgrg","pricing_plan_id":"cebpf4jnsgd1na2vs0mg"},{"bike_id":"7c415667-afd5-4e51-88b5-a0f16e35d58c","system_id":"levelo_inurba_marseille","lat":43.27489,"lon":5.42462,"is_reserved":false,"is_disabled":false,"rental_uris":{"android":"levelo://app?vid=7c415667-afd5-4e51-88b5-a0f16e35d58c","ios":"levelo://app?vid=7c415667-afd5-4e51-88b5-a0f16e35d58c"},"vehicle_type_id":"4","last_reported":1730041673,"current_range_meters":26800,"station_id":"ce4bhn92rcd13ifvqgrg","pricing_plan_id":"cebpf4jnsgd1na2vs0mg"},{"bike_id":"27542452-ea86-4640-a8e8-0c433ce6a687","system_id":"levelo_inurba_marseille","lat":43.31714,"lon":5.40467,"is_reserved":false,"is_disabled":false,"rental_uris":{"android":"levelo://app?vid=27542452-ea86-4640-a8e8-0c433ce6a687","ios":"levelo://app?vid=27542452-ea86-4640-a8e8-0c433ce6a687"},"vehicle_type_id":"4","last_reported":1730041673,"current_range_meters":30800,"station_id":"ce4bh012rcd13ifvqd00","pricing_plan_id":"cebpf4jnsgd1na2vs0mg"},{"bike_id":"02dd86e6-7dd6-453c-8e9f-fc233789c88e","system_id":"levelo_inurba_marseille","lat":43.30195,"lon":5.36631,"is_reserved":false,"is_disabled":false,"rental_uris":{"android":"levelo://app?vid=02dd86e6-7dd6-453c-8e9f-fc233789c88e","ios":"levelo://app?vid=02dd86e6-7dd6-453c-8e9f-fc233789c88e"},"vehicle_type_id":"4","last_reported":1730041673,"current_range_meters":7200,"station_id":"ce4bgrh2rcd13ifvqc8g","pricing_plan_id":"cebpf4jnsgd1na2vs0mg"},{"bike_id":"a3e0d9da-5427-4778-8249-427ccd80d981","system_id":"levelo_inurba_marseille","lat":43.29551,"lon":5.42283,"is_reserved":false,"is_disabled":false,"rental_uris":{"android":"levelo://app?vid=a3e0d9da-5427-4778-8249-427ccd80d981","ios":"levelo://app?vid=a3e0d9da-5427-4778-8249-427ccd80d981"},"vehicle_type_id":"4","last_reported":1730041673,"current_range_meters":39200,"station_id":"ce4bhph2rcd13ifvqhdg","pricing_plan_id":"cebpf4jnsgd1na2vs0mg"},{"bike_id":"e39645c5-87ac-4e87-90ca-e4c6f3ff67ce","system_id":"levelo_inurba_marseille","lat":43.29952,"lon":5.3655,"is_reserved":false,"is_disabled":false,"rental_uris":{"android":"levelo://app?vid=e39645c5-87ac-4e87-90ca-e4c6f3ff67ce","ios":"levelo://app?vid=e39645c5-87ac-4e87-90ca-e4c6f3ff67ce"},"vehicle_type_id":"4","last_reported":1730041673,"current_range_meters":35600,"station_id":"ce4bgm92rcd13ifvqbr0","pricing_plan_id":"cebpf4jnsgd1na2vs0mg"},{"bike_id":"fc7a8f21-cd61-4765-bae7-33c8d4a0a3c0","system_id":"levelo_inurba_marseille","lat":43.23966,"lon":5.36632,"is_reserved":false,"is_disabled":false,"rental_uris":{"android":"levelo://app?vid=fc7a8f21-cd61-4765-bae7-33c8d4a0a3c0","ios":"levelo://app?vid=fc7a8f21-cd61-4765-bae7-33c8d4a0a3c0"},"vehicle_type_id":"4","last_reported":1730041673,"current_range_meters":17600,"station_id":"ce4bhi12rcd13ifvqfp0","pricing_plan_id":"cebpf4jnsgd1na2vs0mg"},{"bike_id":"dc12641c-2bc4-40cf-b465-8d090509c833","system_id":"levelo_inurba_marseille","lat":43.30603,"lon":5.37231,"is_reserved":false,"is_disabled":false,"rental_uris":{"android":"levelo://app?vid=dc12641c-2bc4-40cf-b465-8d090509c833","ios":"levelo://app?vid=dc12641c-2bc4-40cf-b465-8d090509c833"},"vehicle_type_id":"4","last_reported":1730041673,"current_range_meters":18800,"station_id":"ce4bgqh2rcd13ifvqc4g","pricing_plan_id":"cebpf4jnsgd1na2vs0mg"},{"bike_id":"1c56c0c0-cb58-4745-92ec-4142027aa6cf","system_id":"levelo_inurba_marseille","lat":43.26959,"lon":5.38647,"is_reserved":false,"is_disabled":false,"rental_uris":{"android":"levelo://app?vid=1c56c0c0-cb58-4745-92ec-4142027aa6cf","ios":"levelo://app?vid=1c56c0c0-cb58-4745-92ec-4142027aa6cf"},"vehicle_type_id":"4","last_reported":1730041673,"current_range_meters":34000,"station_id":"ce4bhh92rcd13ifvqfh0","pricing_plan_id":"cebpf4jnsgd1na2vs0mg"},{"bike_id":"3d729504-3198-4bd2-a0c7-ff4fc02f56e0","system_id":"levelo_inurba_marseille","lat":43.31646,"lon":5.37443,"is_reserved":false,"is_disabled":false,"rental_uris":{"android":"levelo://app?vid=3d729504-3198-4bd2-a0c7-ff4fc02f56e0","ios":"levelo://app?vid=3d729504-3198-4bd2-a0c7-ff4fc02f56e0"},"vehicle_type_id":"4","last_reported":1730041673,"current_range_meters":16800,"station_id":"ce4bgt12rcd13ifvqcd0","pricing_plan_id":"cebpf4jnsgd1na2vs0mg"},{"bike_id":"4a7d370b-e5e6-416f-ace2-f3c5947f9ca5","system_id":"levelo_inurba_marseille","lat":43.28158,"lon":5.42641,"is_reserved":false,"is_disabled":false,"rental_uris":{"android":"levelo://app?vid=4a7d370b-e5e6-416f-ace2-f3c5947f9ca5","ios":"levelo://app?vid=4a7d370b-e5e6-416f-ace2-f3c5947f9ca5"},"vehicle_type_id":"4","last_reported":1730041673,"current_range_meters":22800,"station_id":"ce4bha12rcd13ifvqee0","pricing_plan_id":"cebpf4jnsgd1na2vs0mg"},{"bike_id":"ac9c73bc-e256-4262-8461-8889ed8fa717","system_id":"levelo_inurba_marseille","lat":43.23061,"lon":5.35491,"is_reserved":false,"is_disabled":false,"rental_uris":{"android":"levelo://app?vid=ac9c73bc-e256-4262-8461-8889ed8fa717","ios":"levelo://app?vid=ac9c73bc-e256-4262-8461-8889ed8fa717"},"vehicle_type_id":"4","last_reported":1730041673,"current_range_meters":2800,"station_id":"cpo3342slgdg3j2ifvpg","pricing_plan_id":"cebpf4jnsgd1na2vs0mg"},{"bike_id":"27f930f3-ca7c-4a0e-b174-db23700fbe27","system_id":"levelo_inurba_marseille","lat":43.29845,"lon":5.36277,"is_reserved":false,"is_disabled":false,"rental_uris":{"android":"levelo://app?vid=27f930f3-ca7c-4a0e-b174-db23700fbe27","ios":"levelo://app?vid=27f930f3-ca7c-4a0e-b174-db23700fbe27"},"vehicle_type_id":"4","last_reported":1730041673,"current_range_meters":35600,"station_id":"ce4bgpp2rcd13ifvqc3g","pricing_plan_id":"cebpf4jnsgd1na2vs0mg"},{"bike_id":"2fdd8efd-807f-43c0-a5f8-acb8d352d834","system_id":"levelo_inurba_marseille","lat":43.32369,"lon":5.38896,"is_reserved":false,"is_disabled":false,"rental_uris":{"android":"levelo://app?vid=2fdd8efd-807f-43c0-a5f8-acb8d352d834","ios":"levelo://app?vid=2fdd8efd-807f-43c0-a5f8-acb8d352d834"},"vehicle_type_id":"4","last_reported":1730041673,"current_range_meters":38800,"station_id":"ce4bhqp2rcd13ifvqhog","pricing_plan_id":"cebpf4jnsgd1na2vs0mg"},{"bike_id":"9487d6f0-fab0-46f0-983c-daf594907de4","system_id":"levelo_inurba_marseille","lat":43.30136,"lon":5.37401,"is_reserved":false,"is_disabled":false,"rental_uris":{"android":"levelo://app?vid=9487d6f0-fab0-46f0-983c-daf594907de4","ios":"levelo://app?vid=9487d6f0-fab0-46f0-983c-daf594907de4"},"vehicle_type_id":"4","last_reported":1730041673,"current_range_meters":6000,"station_id":"ce4bgs92rcd13ifvqcc0","pricing_plan_id":"cebpf4jnsgd1na2vs0mg"},{"bike_id":"43df6f01-ce4c-441f-bf0c-95fe2920d7eb","system_id":"levelo_inurba_marseille","lat":43.26561,"lon":5.3901,"is_reserved":false,"is_disabled":false,"rental_uris":{"android":"levelo://app?vid=43df6f01-ce4c-441f-bf0c-95fe2920d7eb","ios":"levelo://app?vid=43df6f01-ce4c-441f-bf0c-95fe2920d7eb"},"vehicle_type_id":"4","last_reported":1730041673,"current_range_meters":28400,"station_id":"ce4bhe12rcd13ifvqf30","pricing_plan_id":"cebpf4jnsgd1na2vs0mg"},{"bike_id":"e9418555-5c14-4625-927b-efe1faa2aa34","system_id":"levelo_inurba_marseille","lat":43.27994,"lon":5.4002,"is_reserved":false,"is_disabled":false,"rental_uris":{"android":"levelo://app?vid=e9418555-5c14-4625-927b-efe1faa2aa34","ios":"levelo://app?vid=e9418555-5c14-4625-927b-efe1faa2aa34"},"vehicle_type_id":"4","last_reported":1730041673,"current_range_meters":38400,"station_id":"ce4bho92rcd13ifvqh4g","pricing_plan_id":"cebpf4jnsgd1na2vs0mg"},{"bike_id":"71043645-d3d4-4c57-9ddd-c6afb66dbae3","system_id":"levelo_inurba_marseille","lat":43.24802,"lon":5.37455,"is_reserved":false,"is_disabled":false,"rental_uris":{"android":"levelo://app?vid=71043645-d3d4-4c57-9ddd-c6afb66dbae3","ios":"levelo://app?vid=71043645-d3d4-4c57-9ddd-c6afb66dbae3"},"vehicle_type_id":"4","last_reported":1730041673,"current_range_meters":29600,"station_id":"ce4bhgh2rcd13ifvqfb0","pricing_plan_id":"cebpf4jnsgd1na2vs0mg"},{"bike_id":"d8f505d6-798a-4749-a258-19819e87b361","system_id":"levelo_inurba_marseille","lat":43.28619,"lon":5.35108,"is_reserved":false,"is_disabled":false,"rental_uris":{"android":"levelo://app?vid=d8f505d6-798a-4749-a258-19819e87b361","ios":"levelo://app?vid=d8f505d6-798a-4749-a258-19819e87b361"},"vehicle_type_id":"4","last_reported":1730041673,"current_range_meters":36000,"station_id":"ce4bhch2rcd13ifvqeug","pricing_plan_id":"cebpf4jnsgd1na2vs0mg"},{"bike_id":"00fe9e8f-b248-472d-90c8-9f2ec8a461b3","system_id":"levelo_inurba_marseille","lat":43.29303,"lon":5.37177,"is_reserved":false,"is_disabled":false,"rental_uris":{"android":"levelo://app?vid=00fe9e8f-b248-472d-90c8-9f2ec8a461b3","ios":"levelo://app?vid=00fe9e8f-b248-472d-90c8-9f2ec8a461b3"},"vehicle_type_id":"4","last_reported":1730041673,"current_range_meters":24400,"station_id":"ce4bgh92rcd13ifvqb40","pricing_plan_id":"cebpf4jnsgd1na2vs0mg"},{"bike_id":"764364f0-86a2-4166-8605-314636f3daef","system_id":"levelo_inurba_marseille","lat":43.29839,"lon":5.36281,"is_reserved":false,"is_disabled":false,"rental_uris":{"android":"levelo://app?vid=764364f0-86a2-4166-8605-314636f3daef","ios":"levelo://app?vid=764364f0-86a2-4166-8605-314636f3daef"},"vehicle_type_id":"4","last_reported":1730041673,"current_range_meters":37600,"station_id":"ce4bgpp2rcd13ifvqc3g","pricing_plan_id":"cebpf4jnsgd1na2vs0mg"},{"bike_id":"b201b8c1-b0e9-499d-984f-3c39ebec1b9d","system_id":"levelo_inurba_marseille","lat":43.2396,"lon":5.36628,"is_reserved":false,"is_disabled":false,"rental_uris":{"android":"levelo://app?vid=b201b8c1-b0e9-499d-984f-3c39ebec1b9d","ios":"levelo://app?vid=b201b8c1-b0e9-499d-984f-3c39ebec1b9d"},"vehicle_type_id":"4","last_reported":1730041673,"current_range_meters":5600,"station_id":"ce4bhi12rcd13ifvqfp0","pricing_plan_id":"cebpf4jnsgd1na2vs0mg"},{"bike_id":"76588601-f0de-444c-8708-6d6ae74a37db","system_id":"levelo_inurba_marseille","lat":43.23969,"lon":5.36632,"is_reserved":false,"is_disabled":false,"rental_uris":{"android":"levelo://app?vid=76588601-f0de-444c-8708-6d6ae74a37db","ios":"levelo://app?vid=76588601-f0de-444c-8708-6d6ae74a37db"},"vehicle_type_id":"4","last_reported":1730041673,"current_range_meters":25600,"station_id":"ce4bhi12rcd13ifvqfp0","pricing_plan_id":"cebpf4jnsgd1na2vs0mg"},{"bike_id":"7cdd88d2-5824-40fa-8faf-90ef733261c2","system_id":"levelo_inurba_marseille","lat":43.23964,"lon":5.36633,"is_reserved":false,"is_disabled":false,"rental_uris":{"android":"levelo://app?vid=7cdd88d2-5824-40fa-8faf-90ef733261c2","ios":"levelo://app?vid=7cdd88d2-5824-40fa-8faf-90ef733261c2"},"vehicle_type_id":"4","last_reported":1730041673,"current_range_meters":16000,"station_id":"ce4bhi12rcd13ifvqfp0","pricing_plan_id":"cebpf4jnsgd1na2vs0mg"},{"bike_id":"25824153-b4b3-483b-b4a4-390dc16890cc","system_id":"levelo_inurba_marseille","lat":43.27997,"lon":5.40007,"is_reserved":false,"is_disabled":false,"rental_uris":{"android":"levelo://app?vid=25824153-b4b3-483b-b4a4-390dc16890cc","ios":"levelo://app?vid=25824153-b4b3-483b-b4a4-390dc16890cc"},"vehicle_type_id":"4","last_reported":1730041673,"current_range_meters":37600,"station_id":"ce4bho92rcd13ifvqh4g","pricing_plan_id":"cebpf4jnsgd1na2vs0mg"},{"bike_id":"d93f5d66-5801-405e-8177-d8044aa5543d","system_id":"levelo_inurba_marseille","lat":43.28158,"lon":5.42642,"is_reserved":false,"is_disabled":false,"rental_uris":{"android":"levelo://app?vid=d93f5d66-5801-405e-8177-d8044aa5543d","ios":"levelo://app?vid=d93f5d66-5801-405e-8177-d8044aa5543d"},"vehicle_type_id":"4","last_reported":1730041673,"current_range_meters":6000,"station_id":"ce4bhnh2rcd13ifvqgug","pricing_plan_id":"cebpf4jnsgd1na2vs0mg"},{"bike_id":"8a7ea3b3-7c19-4f13-a31a-07202c98e2c3","system_id":"levelo_inurba_marseille","lat":43.32485,"lon":5.36561,"is_reserved":false,"is_disabled":false,"rental_uris":{"android":"levelo://app?vid=8a7ea3b3-7c19-4f13-a31a-07202c98e2c3","ios":"levelo://app?vid=8a7ea3b3-7c19-4f13-a31a-07202c98e2c3"},"vehicle_type_id":"4","last_reported":1730041673,"current_range_meters":20800,"station_id":"ce4bhs12rcd13ifvqhvg","pricing_plan_id":"cebpf4jnsgd1na2vs0mg"},{"bike_id":"37715975-b7d7-45ae-87a1-9fd2bf4e6777","system_id":"levelo_inurba_marseille","lat":43.23966,"lon":5.36617,"is_reserved":false,"is_disabled":false,"rental_uris":{"android":"levelo://app?vid=37715975-b7d7-45ae-87a1-9fd2bf4e6777","ios":"levelo://app?vid=37715975-b7d7-45ae-87a1-9fd2bf4e6777"},"vehicle_type_id":"4","last_reported":1730041673,"current_range_meters":8000,"station_id":"ce4bhi12rcd13ifvqfp0","pricing_plan_id":"cebpf4jnsgd1na2vs0mg"},{"bike_id":"1a504bb3-387b-4e83-ae89-5c5ddfebd1d6","system_id":"levelo_inurba_marseille","lat":43.26937,"lon":5.3891,"is_reserved":false,"is_disabled":false,"rental_uris":{"android":"levelo://app?vid=1a504bb3-387b-4e83-ae89-5c5ddfebd1d6","ios":"levelo://app?vid=1a504bb3-387b-4e83-ae89-5c5ddfebd1d6"},"vehicle_type_id":"4","last_reported":1730041673,"current_range_meters":38800,"station_id":"ce4bhhh2rcd13ifvqfl0","pricing_plan_id":"cebpf4jnsgd1na2vs0mg"},{"bike_id":"917c7104-6905-4b17-a17f-1cd9187e39eb","system_id":"levelo_inurba_marseille","lat":43.26578,"lon":5.39015,"is_reserved":false,"is_disabled":false,"rental_uris":{"android":"levelo://app?vid=917c7104-6905-4b17-a17f-1cd9187e39eb","ios":"levelo://app?vid=917c7104-6905-4b17-a17f-1cd9187e39eb"},"vehicle_type_id":"4","last_reported":1730041673,"current_range_meters":4400,"station_id":"ce4bhe12rcd13ifvqf30","pricing_plan_id":"cebpf4jnsgd1na2vs0mg"},{"bike_id":"d434865b-33ba-4930-8154-7a77f6e2c440","system_id":"levelo_inurba_marseille","lat":43.28416,"lon":5.34995,"is_reserved":false,"is_disabled":false,"rental_uris":{"android":"levelo://app?vid=d434865b-33ba-4930-8154-7a77f6e2c440","ios":"levelo://app?vid=d434865b-33ba-4930-8154-7a77f6e2c440"},"vehicle_type_id":"4","last_reported":1730041673,"current_range_meters":33200,"station_id":"ce4bhbh2rcd13ifvqepg","pricing_plan_id":"cebpf4jnsgd1na2vs0mg"},{"bike_id":"26a8e024-4f62-4fca-b242-925215099b9d","system_id":"levelo_inurba_marseille","lat":43.25489,"lon":5.37655,"is_reserved":false,"is_disabled":false,"rental_uris":{"android":"levelo://app?vid=26a8e024-4f62-4fca-b242-925215099b9d","ios":"levelo://app?vid=26a8e024-4f62-4fca-b242-925215099b9d"},"vehicle_type_id":"4","last_reported":1730041673,"current_range_meters":28000,"station_id":"ce4bhh12rcd13ifvqff0","pricing_plan_id":"cebpf4jnsgd1na2vs0mg"},{"bike_id":"9882fc6c-04d2-49ee-abe5-14544b7eb125","system_id":"levelo_inurba_marseille","lat":43.29067,"lon":5.37154,"is_reserved":false,"is_disabled":false,"rental_uris":{"android":"levelo://app?vid=9882fc6c-04d2-49ee-abe5-14544b7eb125","ios":"levelo://app?vid=9882fc6c-04d2-49ee-abe5-14544b7eb125"},"vehicle_type_id":"4","last_reported":1730041673,"current_range_meters":6000,"station_id":"ce4bh5p2rcd13ifvqe4g","pricing_plan_id":"cebpf4jnsgd1na2vs0mg"},{"bike_id":"efd13dbb-7eea-4667-a8ad-5761cce9d2a1","system_id":"levelo_inurba_marseille","lat":43.29847,"lon":5.3628,"is_reserved":false,"is_disabled":false,"rental_uris":{"android":"levelo://app?vid=efd13dbb-7eea-4667-a8ad-5761cce9d2a1","ios":"levelo://app?vid=efd13dbb-7eea-4667-a8ad-5761cce9d2a1"},"vehicle_type_id":"4","last_reported":1730041673,"current_range_meters":25600,"station_id":"ce4bgpp2rcd13ifvqc3g","pricing_plan_id":"cebpf4jnsgd1na2vs0mg"},{"bike_id":"555f42d4-4c43-4cf8-a42b-013984a4579e","system_id":"levelo_inurba_marseille","lat":43.27206,"lon":5.39177,"is_reserved":false,"is_disabled":false,"rental_uris":{"android":"levelo://app?vid=555f42d4-4c43-4cf8-a42b-013984a4579e","ios":"levelo://app?vid=555f42d4-4c43-4cf8-a42b-013984a4579e"},"vehicle_type_id":"4","last_reported":1730041673,"current_range_meters":31200,"station_id":"ce4bhhp2rcd13ifvqfm0","pricing_plan_id":"cebpf4jnsgd1na2vs0mg"},{"bike_id":"6e45bd55-8d3d-47a0-ae26-852c24ebcb13","system_id":"levelo_inurba_marseille","lat":43.2781,"lon":5.40704,"is_reserved":false,"is_disabled":false,"rental_uris":{"android":"levelo://app?vid=6e45bd55-8d3d-47a0-ae26-852c24ebcb13","ios":"levelo://app?vid=6e45bd55-8d3d-47a0-ae26-852c24ebcb13"},"vehicle_type_id":"4","last_reported":1730041673,"current_range_meters":38800,"station_id":"ce4bhnh2rcd13ifvqgtg","pricing_plan_id":"cebpf4jnsgd1na2vs0mg"},{"bike_id":"e89316dc-a19a-469f-a9cd-dc00b495757e","system_id":"levelo_inurba_marseille","lat":43.27437,"lon":5.40662,"is_reserved":false,"is_disabled":false,"rental_uris":{"android":"levelo://app?vid=e89316dc-a19a-469f-a9cd-dc00b495757e","ios":"levelo://app?vid=e89316dc-a19a-469f-a9cd-dc00b495757e"},"vehicle_type_id":"4","last_reported":1730041673,"current_range_meters":9600,"station_id":"","pricing_plan_id":"cebpf4jnsgd1na2vs0mg"},{"bike_id":"b3fac71b-7bd1-4902-9f37-d118c89f5e78","system_id":"levelo_inurba_marseille","lat":43.305359,"lon":5.36714,"is_reserved":false,"is_disabled":false,"rental_uris":{"android":"levelo://app?vid=b3fac71b-7bd1-4902-9f37-d118c89f5e78","ios":"levelo://app?vid=b3fac71b-7bd1-4902-9f37-d118c89f5e78"},"vehicle_type_id":"4","last_reported":1730041673,"current_range_meters":16400,"station_id":"ce4bgrp2rcd13ifvqc9g","pricing_plan_id":"cebpf4jnsgd1na2vs0mg"},{"bike_id":"511424f7-b95d-4a54-b4ee-a3dc3e62a2de","system_id":"levelo_inurba_marseille","lat":43.29223,"lon":5.36071,"is_reserved":false,"is_disabled":false,"rental_uris":{"android":"levelo://app?vid=511424f7-b95d-4a54-b4ee-a3dc3e62a2de","ios":"levelo://app?vid=511424f7-b95d-4a54-b4ee-a3dc3e62a2de"},"vehicle_type_id":"4","last_reported":1730041673,"current_range_meters":17600,"station_id":"ce4bhbh2rcd13ifvqeqg","pricing_plan_id":"cebpf4jnsgd1na2vs0mg"},{"bike_id":"81e500be-3ff6-45b1-af40-237783c8efb0","system_id":"levelo_inurba_marseille","lat":43.27816,"lon":5.40716,"is_reserved":false,"is_disabled":false,"rental_uris":{"android":"levelo://app?vid=81e500be-3ff6-45b1-af40-237783c8efb0","ios":"levelo://app?vid=81e500be-3ff6-45b1-af40-237783c8efb0"},"vehicle_type_id":"4","last_reported":1730041673,"current_range_meters":15200,"station_id":"ce4bhnh2rcd13ifvqgtg","pricing_plan_id":"cebpf4jnsgd1na2vs0mg"},{"bike_id":"8d1ed043-211b-432c-8b40-07c00a14b668","system_id":"levelo_inurba_marseille","lat":43.30543,"lon":5.36562,"is_reserved":false,"is_disabled":false,"rental_uris":{"android":"levelo://app?vid=8d1ed043-211b-432c-8b40-07c00a14b668","ios":"levelo://app?vid=8d1ed043-211b-432c-8b40-07c00a14b668"},"vehicle_type_id":"4","last_reported":1730041673,"current_range_meters":20800,"station_id":"ce4bgs12rcd13ifvqcag","pricing_plan_id":"cebpf4jnsgd1na2vs0mg"},{"bike_id":"7b3b741d-a094-426f-91d3-b81d9fa8a93e","system_id":"levelo_inurba_marseille","lat":43.28073,"lon":5.40991,"is_reserved":false,"is_disabled":false,"rental_uris":{"android":"levelo://app?vid=7b3b741d-a094-426f-91d3-b81d9fa8a93e","ios":"levelo://app?vid=7b3b741d-a094-426f-91d3-b81d9fa8a93e"},"vehicle_type_id":"4","last_reported":1730041673,"current_range_meters":16000,"station_id":"","pricing_plan_id":"cebpf4jnsgd1na2vs0mg"},{"bike_id":"fa30867d-31fd-449d-bf86-f380d61b29ca","system_id":"levelo_inurba_marseille","lat":43.28432,"lon":5.34996,"is_reserved":false,"is_disabled":false,"rental_uris":{"android":"levelo://app?vid=fa30867d-31fd-449d-bf86-f380d61b29ca","ios":"levelo://app?vid=fa30867d-31fd-449d-bf86-f380d61b29ca"},"vehicle_type_id":"4","last_reported":1730041673,"current_range_meters":31200,"station_id":"ce4bhbh2rcd13ifvqepg","pricing_plan_id":"cebpf4jnsgd1na2vs0mg"},{"bike_id":"9bc5f843-53be-4d75-b656-9b7732207a9d","system_id":"levelo_inurba_marseille","lat":43.26935,"lon":5.40251,"is_reserved":false,"is_disabled":false,"rental_uris":{"android":"levelo://app?vid=9bc5f843-53be-4d75-b656-9b7732207a9d","ios":"levelo://app?vid=9bc5f843-53be-4d75-b656-9b7732207a9d"},"vehicle_type_id":"4","last_reported":1730041673,"current_range_meters":6400,"station_id":"cjm6bp8fraef2m0cb0m0","pricing_plan_id":"cebpf4jnsgd1na2vs0mg"},{"bike_id":"d8ee650a-d3a8-4135-a06c-ed80a904e08d","system_id":"levelo_inurba_marseille","lat":43.28621,"lon":5.35104,"is_reserved":false,"is_disabled":false,"rental_uris":{"android":"levelo://app?vid=d8ee650a-d3a8-4135-a06c-ed80a904e08d","ios":"levelo://app?vid=d8ee650a-d3a8-4135-a06c-ed80a904e08d"},"vehicle_type_id":"4","last_reported":1730041673,"current_range_meters":19200,"station_id":"ce4bhch2rcd13ifvqeug","pricing_plan_id":"cebpf4jnsgd1na2vs0mg"},{"bike_id":"7e9bd5e2-2d06-41f7-8fa4-a9cc94dd5514","system_id":"levelo_inurba_marseille","lat":43.297226,"lon":5.364677,"is_reserved":false,"is_disabled":false,"rental_uris":{"android":"levelo://app?vid=7e9bd5e2-2d06-41f7-8fa4-a9cc94dd5514","ios":"levelo://app?vid=7e9bd5e2-2d06-41f7-8fa4-a9cc94dd5514"},"vehicle_type_id":"4","last_reported":1730041673,"current_range_meters":25200,"station_id":"ce4bgn12rcd13ifvqbt0","pricing_plan_id":"cebpf4jnsgd1na2vs0mg"},{"bike_id":"0d4893e8-524d-4ce6-ab3b-0b321c471026","system_id":"levelo_inurba_marseille","lat":43.30195,"lon":5.36616,"is_reserved":false,"is_disabled":false,"rental_uris":{"android":"levelo://app?vid=0d4893e8-524d-4ce6-ab3b-0b321c471026","ios":"levelo://app?vid=0d4893e8-524d-4ce6-ab3b-0b321c471026"},"vehicle_type_id":"4","last_reported":1730041673,"current_range_meters":24800,"station_id":"ce4bgrh2rcd13ifvqc8g","pricing_plan_id":"cebpf4jnsgd1na2vs0mg"},{"bike_id":"88eda497-5bb7-4ffb-90b1-9392501f736a","system_id":"levelo_inurba_marseille","lat":43.28002,"lon":5.40009,"is_reserved":false,"is_disabled":false,"rental_uris":{"android":"levelo://app?vid=88eda497-5bb7-4ffb-90b1-9392501f736a","ios":"levelo://app?vid=88eda497-5bb7-4ffb-90b1-9392501f736a"},"vehicle_type_id":"4","last_reported":1730041673,"current_range_meters":27200,"station_id":"ce4bho92rcd13ifvqh4g","pricing_plan_id":"cebpf4jnsgd1na2vs0mg"},{"bike_id":"4f0cb714-8cb1-4bff-b7c2-9cdb0a6a534f","system_id":"levelo_inurba_marseille","lat":43.28149,"lon":5.42646,"is_reserved":false,"is_disabled":false,"rental_uris":{"android":"levelo://app?vid=4f0cb714-8cb1-4bff-b7c2-9cdb0a6a534f","ios":"levelo://app?vid=4f0cb714-8cb1-4bff-b7c2-9cdb0a6a534f"},"vehicle_type_id":"4","last_reported":1730041673,"current_range_meters":20000,"station_id":"ce4bhnh2rcd13ifvqgug","pricing_plan_id":"cebpf4jnsgd1na2vs0mg"},{"bike_id":"ee8b5cf1-2631-4394-9b3c-03f9bce0a3fe","system_id":"levelo_inurba_marseille","lat":43.26203,"lon":5.37932,"is_reserved":false,"is_disabled":false,"rental_uris":{"android":"levelo://app?vid=ee8b5cf1-2631-4394-9b3c-03f9bce0a3fe","ios":"levelo://app?vid=ee8b5cf1-2631-4394-9b3c-03f9bce0a3fe"},"vehicle_type_id":"4","last_reported":1730041673,"current_range_meters":38800,"station_id":"ce4bhjp2rcd13ifvqg90","pricing_plan_id":"cebpf4jnsgd1na2vs0mg"},{"bike_id":"4f40e012-ea5b-4575-9527-1f943967bef1","system_id":"levelo_inurba_marseille","lat":43.23965,"lon":5.36628,"is_reserved":false,"is_disabled":false,"rental_uris":{"android":"levelo://app?vid=4f40e012-ea5b-4575-9527-1f943967bef1","ios":"levelo://app?vid=4f40e012-ea5b-4575-9527-1f943967bef1"},"vehicle_type_id":"4","last_reported":1730041673,"current_range_meters":9600,"station_id":"ce4bhi12rcd13ifvqfp0","pricing_plan_id":"cebpf4jnsgd1na2vs0mg"},{"bike_id":"4d18fdf7-40fd-43b3-89ca-7d0f38bd83c5","system_id":"levelo_inurba_marseille","lat":43.32493,"lon":5.36572,"is_reserved":false,"is_disabled":false,"rental_uris":{"android":"levelo://app?vid=4d18fdf7-40fd-43b3-89ca-7d0f38bd83c5","ios":"levelo://app?vid=4d18fdf7-40fd-43b3-89ca-7d0f38bd83c5"},"vehicle_type_id":"4","last_reported":1730041673,"current_range_meters":21600,"station_id":"ce4bhs12rcd13ifvqhvg","pricing_plan_id":"cebpf4jnsgd1na2vs0mg"},{"bike_id":"ec544e73-f03c-418a-b19e-58778fa8a67d","system_id":"levelo_inurba_marseille","lat":43.23198,"lon":5.35547,"is_reserved":false,"is_disabled":false,"rental_uris":{"android":"levelo://app?vid=ec544e73-f03c-418a-b19e-58778fa8a67d","ios":"levelo://app?vid=ec544e73-f03c-418a-b19e-58778fa8a67d"},"vehicle_type_id":"4","last_reported":1730041673,"current_range_meters":39200,"station_id":"ce4bhu92rcd13ifvqi70","pricing_plan_id":"cebpf4jnsgd1na2vs0mg"},{"bike_id":"6b10aa57-a20f-4a52-8be5-7f69bd4f0e4a","system_id":"levelo_inurba_marseille","lat":43.24648,"lon":5.38887,"is_reserved":false,"is_disabled":false,"rental_uris":{"android":"levelo://app?vid=6b10aa57-a20f-4a52-8be5-7f69bd4f0e4a","ios":"levelo://app?vid=6b10aa57-a20f-4a52-8be5-7f69bd4f0e4a"},"vehicle_type_id":"4","last_reported":1730041673,"current_range_meters":36800,"station_id":"ce4bhg12rcd13ifvqf60","pricing_plan_id":"cebpf4jnsgd1na2vs0mg"},{"bike_id":"7a79bc72-f3b3-49dc-825d-de728068b766","system_id":"levelo_inurba_marseille","lat":43.287,"lon":5.37383,"is_reserved":false,"is_disabled":false,"rental_uris":{"android":"levelo://app?vid=7a79bc72-f3b3-49dc-825d-de728068b766","ios":"levelo://app?vid=7a79bc72-f3b3-49dc-825d-de728068b766"},"vehicle_type_id":"4","last_reported":1730041673,"current_range_meters":4400,"station_id":"ce4bh3p2rcd13ifvqdq0","pricing_plan_id":"cebpf4jnsgd1na2vs0mg"},{"bike_id":"04c93ee8-bcff-4283-b742-868c19c173a2","system_id":"levelo_inurba_marseille","lat":43.26944,"lon":5.40252,"is_reserved":false,"is_disabled":false,"rental_uris":{"android":"levelo://app?vid=04c93ee8-bcff-4283-b742-868c19c173a2","ios":"levelo://app?vid=04c93ee8-bcff-4283-b742-868c19c173a2"},"vehicle_type_id":"4","last_reported":1730041673,"current_range_meters":14000,"station_id":"cjm6bp8fraef2m0cb0m0","pricing_plan_id":"cebpf4jnsgd1na2vs0mg"},{"bike_id":"a64c9bae-96b6-4749-b19c-ac41d1700858","system_id":"levelo_inurba_marseille","lat":43.27482,"lon":5.42468,"is_reserved":false,"is_disabled":false,"rental_uris":{"android":"levelo://app?vid=a64c9bae-96b6-4749-b19c-ac41d1700858","ios":"levelo://app?vid=a64c9bae-96b6-4749-b19c-ac41d1700858"},"vehicle_type_id":"4","last_reported":1730041673,"current_range_meters":29600,"station_id":"ce4bhn92rcd13ifvqgrg","pricing_plan_id":"cebpf4jnsgd1na2vs0mg"},{"bike_id":"6e293505-da16-4fd8-8b7d-045d85ce1dfb","system_id":"levelo_inurba_marseille","lat":43.26945,"lon":5.38622,"is_reserved":false,"is_disabled":false,"rental_uris":{"android":"levelo://app?vid=6e293505-da16-4fd8-8b7d-045d85ce1dfb","ios":"levelo://app?vid=6e293505-da16-4fd8-8b7d-045d85ce1dfb"},"vehicle_type_id":"4","last_reported":1730041673,"current_range_meters":6400,"station_id":"ce4bhh92rcd13ifvqfh0","pricing_plan_id":"cebpf4jnsgd1na2vs0mg"},{"bike_id":"a637ddb5-b9e8-4510-912c-1884ad257272","system_id":"levelo_inurba_marseille","lat":43.26806,"lon":5.40264,"is_reserved":false,"is_disabled":false,"rental_uris":{"android":"levelo://app?vid=a637ddb5-b9e8-4510-912c-1884ad257272","ios":"levelo://app?vid=a637ddb5-b9e8-4510-912c-1884ad257272"},"vehicle_type_id":"4","last_reported":1730041673,"current_range_meters":34000,"station_id":"ce501612rcd8frsf0b60","pricing_plan_id":"cebpf4jnsgd1na2vs0mg"},{"bike_id":"7af0d532-f314-459d-aee5-f126a8ca0f1d","system_id":"levelo_inurba_marseille","lat":43.22928,"lon":5.35382,"is_reserved":false,"is_disabled":false,"rental_uris":{"android":"levelo://app?vid=7af0d532-f314-459d-aee5-f126a8ca0f1d","ios":"levelo://app?vid=7af0d532-f314-459d-aee5-f126a8ca0f1d"},"vehicle_type_id":"4","last_reported":1730041673,"current_range_meters":8000,"station_id":"cpo3532slgdg3j2ikp40","pricing_plan_id":"cebpf4jnsgd1na2vs0mg"},{"bike_id":"2d830caa-b02f-49b3-ade7-bd7ddef5abda","system_id":"levelo_inurba_marseille","lat":43.27814,"lon":5.40719,"is_reserved":false,"is_disabled":false,"rental_uris":{"android":"levelo://app?vid=2d830caa-b02f-49b3-ade7-bd7ddef5abda","ios":"levelo://app?vid=2d830caa-b02f-49b3-ade7-bd7ddef5abda"},"vehicle_type_id":"4","last_reported":1730041673,"current_range_meters":38800,"station_id":"ce4bhnh2rcd13ifvqgtg","pricing_plan_id":"cebpf4jnsgd1na2vs0mg"},{"bike_id":"726c41b7-0612-492f-8ed2-37123ff1474f","system_id":"levelo_inurba_marseille","lat":43.31069,"lon":5.40095,"is_reserved":false,"is_disabled":false,"rental_uris":{"android":"levelo://app?vid=726c41b7-0612-492f-8ed2-37123ff1474f","ios":"levelo://app?vid=726c41b7-0612-492f-8ed2-37123ff1474f"},"vehicle_type_id":"4","last_reported":1730041673,"current_range_meters":10000,"station_id":"","pricing_plan_id":"cebpf4jnsgd1na2vs0mg"},{"bike_id":"f09f150c-7d4b-4172-a278-2ab103d68e33","system_id":"levelo_inurba_marseille","lat":43.30791,"lon":5.37645,"is_reserved":false,"is_disabled":false,"rental_uris":{"android":"levelo://app?vid=f09f150c-7d4b-4172-a278-2ab103d68e33","ios":"levelo://app?vid=f09f150c-7d4b-4172-a278-2ab103d68e33"},"vehicle_type_id":"4","last_reported":1730041673,"current_range_meters":10800,"station_id":"ce4bgv92rcd13ifvqcq0","pricing_plan_id":"cebpf4jnsgd1na2vs0mg"},{"bike_id":"5f309689-e017-4833-b270-af2713a13570","system_id":"levelo_inurba_marseille","lat":43.28308,"lon":5.35061,"is_reserved":false,"is_disabled":false,"rental_uris":{"android":"levelo://app?vid=5f309689-e017-4833-b270-af2713a13570","ios":"levelo://app?vid=5f309689-e017-4833-b270-af2713a13570"},"vehicle_type_id":"4","last_reported":1730041673,"current_range_meters":36800,"station_id":"ce4bhbp2rcd13ifvqerg","pricing_plan_id":"cebpf4jnsgd1na2vs0mg"},{"bike_id":"c1a5d3f0-2622-443e-ae48-5e671e103375","system_id":"levelo_inurba_marseille","lat":43.26943,"lon":5.40244,"is_reserved":false,"is_disabled":false,"rental_uris":{"android":"levelo://app?vid=c1a5d3f0-2622-443e-ae48-5e671e103375","ios":"levelo://app?vid=c1a5d3f0-2622-443e-ae48-5e671e103375"},"vehicle_type_id":"4","last_reported":1730041673,"current_range_meters":11600,"station_id":"cjm6bp8fraef2m0cb0m0","pricing_plan_id":"cebpf4jnsgd1na2vs0mg"},{"bike_id":"e255a10d-9d36-4272-a63f-86a4ea3292d5","system_id":"levelo_inurba_marseille","lat":43.22921,"lon":5.35372,"is_reserved":false,"is_disabled":false,"rental_uris":{"android":"levelo://app?vid=e255a10d-9d36-4272-a63f-86a4ea3292d5","ios":"levelo://app?vid=e255a10d-9d36-4272-a63f-86a4ea3292d5"},"vehicle_type_id":"4","last_reported":1730041673,"current_range_meters":10800,"station_id":"cpo3532slgdg3j2ikp40","pricing_plan_id":"cebpf4jnsgd1na2vs0mg"},{"bike_id":"6f1e5a73-d348-4efc-a066-3839e028d88b","system_id":"levelo_inurba_marseille","lat":43.29889,"lon":5.38897,"is_reserved":false,"is_disabled":false,"rental_uris":{"android":"levelo://app?vid=6f1e5a73-d348-4efc-a066-3839e028d88b","ios":"levelo://app?vid=6f1e5a73-d348-4efc-a066-3839e028d88b"},"vehicle_type_id":"4","last_reported":1730041673,"current_range_meters":11600,"station_id":"ce4bh392rcd13ifvqdl0","pricing_plan_id":"cebpf4jnsgd1na2vs0mg"},{"bike_id":"894b6bca-934b-4a5d-b39c-3ba85dacfe33","system_id":"levelo_inurba_marseille","lat":43.29626,"lon":5.37716,"is_reserved":false,"is_disabled":false,"rental_uris":{"android":"levelo://app?vid=894b6bca-934b-4a5d-b39c-3ba85dacfe33","ios":"levelo://app?vid=894b6bca-934b-4a5d-b39c-3ba85dacfe33"},"vehicle_type_id":"4","last_reported":1730041673,"current_range_meters":26000,"station_id":"ce4bgi92rcd13ifvqb90","pricing_plan_id":"cebpf4jnsgd1na2vs0mg"},{"bike_id":"2f85561c-c88c-46cd-bdc8-be7daf0c3aae","system_id":"levelo_inurba_marseille","lat":43.31227,"lon":5.36863,"is_reserved":false,"is_disabled":false,"rental_uris":{"android":"levelo://app?vid=2f85561c-c88c-46cd-bdc8-be7daf0c3aae","ios":"levelo://app?vid=2f85561c-c88c-46cd-bdc8-be7daf0c3aae"},"vehicle_type_id":"4","last_reported":1730041673,"current_range_meters":37600,"station_id":"ce4bgl92rcd13ifvqbq0","pricing_plan_id":"cebpf4jnsgd1na2vs0mg"},{"bike_id":"5ae86afc-df22-4887-b264-4a50bd169bc9","system_id":"levelo_inurba_marseille","lat":43.28167,"lon":5.42648,"is_reserved":false,"is_disabled":false,"rental_uris":{"android":"levelo://app?vid=5ae86afc-df22-4887-b264-4a50bd169bc9","ios":"levelo://app?vid=5ae86afc-df22-4887-b264-4a50bd169bc9"},"vehicle_type_id":"4","last_reported":1730041673,"current_range_meters":28400,"station_id":"ce4bhnh2rcd13ifvqgug","pricing_plan_id":"cebpf4jnsgd1na2vs0mg"},{"bike_id":"ff76ee2d-da55-42b0-8708-64bb63b212c1","system_id":"levelo_inurba_marseille","lat":43.27999,"lon":5.40009,"is_reserved":false,"is_disabled":false,"rental_uris":{"android":"levelo://app?vid=ff76ee2d-da55-42b0-8708-64bb63b212c1","ios":"levelo://app?vid=ff76ee2d-da55-42b0-8708-64bb63b212c1"},"vehicle_type_id":"4","last_reported":1730041673,"current_range_meters":8000,"station_id":"ce4bho92rcd13ifvqh4g","pricing_plan_id":"cebpf4jnsgd1na2vs0mg"},{"bike_id":"13d0d843-77d7-462d-87b4-44a56e4e6f32","system_id":"levelo_inurba_marseille","lat":43.22934,"lon":5.3538,"is_reserved":false,"is_disabled":false,"rental_uris":{"android":"levelo://app?vid=13d0d843-77d7-462d-87b4-44a56e4e6f32","ios":"levelo://app?vid=13d0d843-77d7-462d-87b4-44a56e4e6f32"},"vehicle_type_id":"4","last_reported":1730041673,"current_range_meters":19200,"station_id":"cpo3532slgdg3j2ikp40","pricing_plan_id":"cebpf4jnsgd1na2vs0mg"},{"bike_id":"2ed4c7b9-575d-4593-9464-d064b5790f5d","system_id":"levelo_inurba_marseille","lat":43.24179,"lon":5.3973,"is_reserved":false,"is_disabled":false,"rental_uris":{"android":"levelo://app?vid=2ed4c7b9-575d-4593-9464-d064b5790f5d","ios":"levelo://app?vid=2ed4c7b9-575d-4593-9464-d064b5790f5d"},"vehicle_type_id":"4","last_reported":1730041673,"current_range_meters":36000,"station_id":"ce4bhn12rcd13ifvqgpg","pricing_plan_id":"cebpf4jnsgd1na2vs0mg"},{"bike_id":"150578a5-e5c7-4230-9ab3-63d214992fde","system_id":"levelo_inurba_marseille","lat":43.26063,"lon":5.39391,"is_reserved":false,"is_disabled":false,"rental_uris":{"android":"levelo://app?vid=150578a5-e5c7-4230-9ab3-63d214992fde","ios":"levelo://app?vid=150578a5-e5c7-4230-9ab3-63d214992fde"},"vehicle_type_id":"4","last_reported":1730041673,"current_range_meters":36400,"station_id":"ce4bhh92rcd13ifvqfj0","pricing_plan_id":"cebpf4jnsgd1na2vs0mg"},{"bike_id":"e49103e6-4dc1-498f-8c5c-9341215d0efa","system_id":"levelo_inurba_marseille","lat":43.26936,"lon":5.38922,"is_reserved":false,"is_disabled":false,"rental_uris":{"android":"levelo://app?vid=e49103e6-4dc1-498f-8c5c-9341215d0efa","ios":"levelo://app?vid=e49103e6-4dc1-498f-8c5c-9341215d0efa"},"vehicle_type_id":"4","last_reported":1730041673,"current_range_meters":19600,"station_id":"ce4bhhh2rcd13ifvqfl0","pricing_plan_id":"cebpf4jnsgd1na2vs0mg"},{"bike_id":"3a075b48-1393-4ebe-8676-08c35365aecb","system_id":"levelo_inurba_marseille","lat":43.2649,"lon":5.39545,"is_reserved":false,"is_disabled":false,"rental_uris":{"android":"levelo://app?vid=3a075b48-1393-4ebe-8676-08c35365aecb","ios":"levelo://app?vid=3a075b48-1393-4ebe-8676-08c35365aecb"},"vehicle_type_id":"4","last_reported":1730041673,"current_range_meters":12400,"station_id":"ce4bhi12rcd13ifvqfq0","pricing_plan_id":"cebpf4jnsgd1na2vs0mg"},{"bike_id":"abb37b82-a258-4bd7-b1c6-b16bfea5cf0f","system_id":"levelo_inurba_marseille","lat":43.257037,"lon":5.37647,"is_reserved":false,"is_disabled":false,"rental_uris":{"android":"levelo://app?vid=abb37b82-a258-4bd7-b1c6-b16bfea5cf0f","ios":"levelo://app?vid=abb37b82-a258-4bd7-b1c6-b16bfea5cf0f"},"vehicle_type_id":"4","last_reported":1730041673,"current_range_meters":24400,"station_id":"","pricing_plan_id":"cebpf4jnsgd1na2vs0mg"},{"bike_id":"8857b64b-d22c-4616-9a88-662d4d97cb82","system_id":"levelo_inurba_marseille","lat":43.27495,"lon":5.42445,"is_reserved":false,"is_disabled":false,"rental_uris":{"android":"levelo://app?vid=8857b64b-d22c-4616-9a88-662d4d97cb82","ios":"levelo://app?vid=8857b64b-d22c-4616-9a88-662d4d97cb82"},"vehicle_type_id":"4","last_reported":1730041673,"current_range_meters":11200,"station_id":"ce4bhn92rcd13ifvqgrg","pricing_plan_id":"cebpf4jnsgd1na2vs0mg"},{"bike_id":"dbe6c8f1-c6bf-4eb2-9473-5ca0a3a60a8d","system_id":"levelo_inurba_marseille","lat":43.311201,"lon":5.388521,"is_reserved":false,"is_disabled":false,"rental_uris":{"android":"levelo://app?vid=dbe6c8f1-c6bf-4eb2-9473-5ca0a3a60a8d","ios":"levelo://app?vid=dbe6c8f1-c6bf-4eb2-9473-5ca0a3a60a8d"},"vehicle_type_id":"4","last_reported":1730041673,"current_range_meters":22400,"station_id":"ce4bgv12rcd13ifvqcp0","pricing_plan_id":"cebpf4jnsgd1na2vs0mg"},{"bike_id":"4fe55583-2aeb-4aca-9a90-bd7953b26849","system_id":"levelo_inurba_marseille","lat":43.30929,"lon":5.40142,"is_reserved":false,"is_disabled":false,"rental_uris":{"android":"levelo://app?vid=4fe55583-2aeb-4aca-9a90-bd7953b26849","ios":"levelo://app?vid=4fe55583-2aeb-4aca-9a90-bd7953b26849"},"vehicle_type_id":"4","last_reported":1730041673,"current_range_meters":6000,"station_id":"ce4bgvp2rcd13ifvqct0","pricing_plan_id":"cebpf4jnsgd1na2vs0mg"},{"bike_id":"57340b07-1e76-48cb-8873-d17edef6fb07","system_id":"levelo_inurba_marseille","lat":43.28107,"lon":5.37838,"is_reserved":false,"is_disabled":false,"rental_uris":{"android":"levelo://app?vid=57340b07-1e76-48cb-8873-d17edef6fb07","ios":"levelo://app?vid=57340b07-1e76-48cb-8873-d17edef6fb07"},"vehicle_type_id":"4","last_reported":1730041673,"current_range_meters":32400,"station_id":"ce4bha12rcd13ifvqee0","pricing_plan_id":"cebpf4jnsgd1na2vs0mg"},{"bike_id":"d3268a22-122b-4ac8-987f-2fb76ef11fe8","system_id":"levelo_inurba_marseille","lat":43.292,"lon":5.35804,"is_reserved":false,"is_disabled":false,"rental_uris":{"android":"levelo://app?vid=d3268a22-122b-4ac8-987f-2fb76ef11fe8","ios":"levelo://app?vid=d3268a22-122b-4ac8-987f-2fb76ef11fe8"},"vehicle_type_id":"4","last_reported":1730041673,"current_range_meters":38400,"station_id":"ce4bhb12rcd13ifvqel0","pricing_plan_id":"cebpf4jnsgd1na2vs0mg"},{"bike_id":"1038e9a3-c91c-4116-bb97-2e59525110fc","system_id":"levelo_inurba_marseille","lat":43.24802,"lon":5.37456,"is_reserved":false,"is_disabled":false,"rental_uris":{"android":"levelo://app?vid=1038e9a3-c91c-4116-bb97-2e59525110fc","ios":"levelo://app?vid=1038e9a3-c91c-4116-bb97-2e59525110fc"},"vehicle_type_id":"4","last_reported":1730041673,"current_range_meters":39200,"station_id":"ce4bhgh2rcd13ifvqfb0","pricing_plan_id":"cebpf4jnsgd1na2vs0mg"},{"bike_id":"48a8ae28-e2b2-43bc-b740-0203248c229b","system_id":"levelo_inurba_marseille","lat":43.24179,"lon":5.39733,"is_reserved":false,"is_disabled":false,"rental_uris":{"android":"levelo://app?vid=48a8ae28-e2b2-43bc-b740-0203248c229b","ios":"levelo://app?vid=48a8ae28-e2b2-43bc-b740-0203248c229b"},"vehicle_type_id":"4","last_reported":1730041673,"current_range_meters":27600,"station_id":"ce4bhn12rcd13ifvqgpg","pricing_plan_id":"cebpf4jnsgd1na2vs0mg"},{"bike_id":"0ae6aff2-e807-4e82-8fa9-5cd29f4f3577","system_id":"levelo_inurba_marseille","lat":43.24546,"lon":5.39523,"is_reserved":false,"is_disabled":false,"rental_uris":{"android":"levelo://app?vid=0ae6aff2-e807-4e82-8fa9-5cd29f4f3577","ios":"levelo://app?vid=0ae6aff2-e807-4e82-8fa9-5cd29f4f3577"},"vehicle_type_id":"4","last_reported":1730041673,"current_range_meters":15200,"station_id":"ce4bhlp2rcd13ifvqgjg","pricing_plan_id":"cebpf4jnsgd1na2vs0mg"},{"bike_id":"0fc1ee9c-8872-4c8a-ac18-2c5b95328989","system_id":"levelo_inurba_marseille","lat":43.31363,"lon":5.38491,"is_reserved":false,"is_disabled":false,"rental_uris":{"android":"levelo://app?vid=0fc1ee9c-8872-4c8a-ac18-2c5b95328989","ios":"levelo://app?vid=0fc1ee9c-8872-4c8a-ac18-2c5b95328989"},"vehicle_type_id":"4","last_reported":1730041673,"current_range_meters":39200,"station_id":"ce4bgt92rcd13ifvqcf0","pricing_plan_id":"cebpf4jnsgd1na2vs0mg"},{"bike_id":"b1698560-4404-4431-bb15-9734f3e38adf","system_id":"levelo_inurba_marseille","lat":43.29567,"lon":5.37522,"is_reserved":false,"is_disabled":false,"rental_uris":{"android":"levelo://app?vid=b1698560-4404-4431-bb15-9734f3e38adf","ios":"levelo://app?vid=b1698560-4404-4431-bb15-9734f3e38adf"},"vehicle_type_id":"4","last_reported":1730041673,"current_range_meters":38400,"station_id":"ce4bgh92rcd13ifvqb50","pricing_plan_id":"cebpf4jnsgd1na2vs0mg"},{"bike_id":"fd68e5ab-fd63-459f-a806-dd37e792f169","system_id":"levelo_inurba_marseille","lat":43.28716,"lon":5.37938,"is_reserved":false,"is_disabled":false,"rental_uris":{"android":"levelo://app?vid=fd68e5ab-fd63-459f-a806-dd37e792f169","ios":"levelo://app?vid=fd68e5ab-fd63-459f-a806-dd37e792f169"},"vehicle_type_id":"4","last_reported":1730041673,"current_range_meters":3200,"station_id":"ce4bh9p2rcd13ifvqec0","pricing_plan_id":"cebpf4jnsgd1na2vs0mg"},{"bike_id":"6c861fac-326d-40fc-97d1-58f39ad1ae47","system_id":"levelo_inurba_marseille","lat":43.27667,"lon":5.38889,"is_reserved":false,"is_disabled":false,"rental_uris":{"android":"levelo://app?vid=6c861fac-326d-40fc-97d1-58f39ad1ae47","ios":"levelo://app?vid=6c861fac-326d-40fc-97d1-58f39ad1ae47"},"vehicle_type_id":"4","last_reported":1730041673,"current_range_meters":6400,"station_id":"ce4bhi12rcd13ifvqfo0","pricing_plan_id":"cebpf4jnsgd1na2vs0mg"},{"bike_id":"a11daa0e-09df-49d7-90c7-48cf77cfdfbf","system_id":"levelo_inurba_marseille","lat":43.26562,"lon":5.39004,"is_reserved":false,"is_disabled":false,"rental_uris":{"android":"levelo://app?vid=a11daa0e-09df-49d7-90c7-48cf77cfdfbf","ios":"levelo://app?vid=a11daa0e-09df-49d7-90c7-48cf77cfdfbf"},"vehicle_type_id":"4","last_reported":1730041673,"current_range_meters":37600,"station_id":"ce4bhe12rcd13ifvqf30","pricing_plan_id":"cebpf4jnsgd1na2vs0mg"},{"bike_id":"e9fdb513-f417-42c5-953a-a44140c0ab7a","system_id":"levelo_inurba_marseille","lat":43.27816,"lon":5.4071,"is_reserved":false,"is_disabled":false,"rental_uris":{"android":"levelo://app?vid=e9fdb513-f417-42c5-953a-a44140c0ab7a","ios":"levelo://app?vid=e9fdb513-f417-42c5-953a-a44140c0ab7a"},"vehicle_type_id":"4","last_reported":1730041673,"current_range_meters":37600,"station_id":"ce4bhnh2rcd13ifvqgtg","pricing_plan_id":"cebpf4jnsgd1na2vs0mg"},{"bike_id":"c43d7d0c-8c1b-4fa5-81d3-e526ca95bcf3","system_id":"levelo_inurba_marseille","lat":43.313341,"lon":5.367083,"is_reserved":false,"is_disabled":false,"rental_uris":{"android":"levelo://app?vid=c43d7d0c-8c1b-4fa5-81d3-e526ca95bcf3","ios":"levelo://app?vid=c43d7d0c-8c1b-4fa5-81d3-e526ca95bcf3"},"vehicle_type_id":"4","last_reported":1730041673,"current_range_meters":38800,"station_id":"ce4bgr92rcd13ifvqc6g","pricing_plan_id":"cebpf4jnsgd1na2vs0mg"},{"bike_id":"d22b15a5-02d8-4897-a426-f64247bea35c","system_id":"levelo_inurba_marseille","lat":43.24545,"lon":5.39525,"is_reserved":false,"is_disabled":false,"rental_uris":{"android":"levelo://app?vid=d22b15a5-02d8-4897-a426-f64247bea35c","ios":"levelo://app?vid=d22b15a5-02d8-4897-a426-f64247bea35c"},"vehicle_type_id":"4","last_reported":1730041673,"current_range_meters":37600,"station_id":"ce4bhlp2rcd13ifvqgjg","pricing_plan_id":"cebpf4jnsgd1na2vs0mg"},{"bike_id":"3c447e9e-f665-4c94-b4f7-b1a1adbf746d","system_id":"levelo_inurba_marseille","lat":43.24732,"lon":5.38019,"is_reserved":false,"is_disabled":false,"rental_uris":{"android":"levelo://app?vid=3c447e9e-f665-4c94-b4f7-b1a1adbf746d","ios":"levelo://app?vid=3c447e9e-f665-4c94-b4f7-b1a1adbf746d"},"vehicle_type_id":"4","last_reported":1730041673,"current_range_meters":8000,"station_id":"","pricing_plan_id":"cebpf4jnsgd1na2vs0mg"},{"bike_id":"e43482ed-8e76-4b5c-a5ac-c2fcf3df8f29","system_id":"levelo_inurba_marseille","lat":43.31483,"lon":5.37307,"is_reserved":false,"is_disabled":false,"rental_uris":{"android":"levelo://app?vid=e43482ed-8e76-4b5c-a5ac-c2fcf3df8f29","ios":"levelo://app?vid=e43482ed-8e76-4b5c-a5ac-c2fcf3df8f29"},"vehicle_type_id":"4","last_reported":1730041673,"current_range_meters":37600,"station_id":"ce4bgt12rcd13ifvqcd0","pricing_plan_id":"cebpf4jnsgd1na2vs0mg"},{"bike_id":"019b8607-678a-45b2-af2d-7c8fc179abe4","system_id":"levelo_inurba_marseille","lat":43.33731,"lon":5.39192,"is_reserved":false,"is_disabled":false,"rental_uris":{"android":"levelo://app?vid=019b8607-678a-45b2-af2d-7c8fc179abe4","ios":"levelo://app?vid=019b8607-678a-45b2-af2d-7c8fc179abe4"},"vehicle_type_id":"4","last_reported":1730041673,"current_range_meters":36800,"station_id":"ce4bhr92rcd13ifvqhsg","pricing_plan_id":"cebpf4jnsgd1na2vs0mg"},{"bike_id":"83d3814d-d657-4b62-851e-cc0dbc778210","system_id":"levelo_inurba_marseille","lat":43.29709,"lon":5.377,"is_reserved":false,"is_disabled":false,"rental_uris":{"android":"levelo://app?vid=83d3814d-d657-4b62-851e-cc0dbc778210","ios":"levelo://app?vid=83d3814d-d657-4b62-851e-cc0dbc778210"},"vehicle_type_id":"4","last_reported":1730041673,"current_range_meters":8400,"station_id":"ce4bgkh2rcd13ifvqbl0","pricing_plan_id":"cebpf4jnsgd1na2vs0mg"},{"bike_id":"fe6308eb-81cc-488b-9c28-8eaa1c10ba16","system_id":"levelo_inurba_marseille","lat":43.279,"lon":5.38016,"is_reserved":false,"is_disabled":false,"rental_uris":{"android":"levelo://app?vid=fe6308eb-81cc-488b-9c28-8eaa1c10ba16","ios":"levelo://app?vid=fe6308eb-81cc-488b-9c28-8eaa1c10ba16"},"vehicle_type_id":"4","last_reported":1730041673,"current_range_meters":4000,"station_id":"ce4bhf92rcd13ifvqf50","pricing_plan_id":"cebpf4jnsgd1na2vs0mg"},{"bike_id":"4d5826b6-9f06-436c-bfe7-72c33ff97835","system_id":"levelo_inurba_marseille","lat":43.29845,"lon":5.36273,"is_reserved":false,"is_disabled":false,"rental_uris":{"android":"levelo://app?vid=4d5826b6-9f06-436c-bfe7-72c33ff97835","ios":"levelo://app?vid=4d5826b6-9f06-436c-bfe7-72c33ff97835"},"vehicle_type_id":"4","last_reported":1730041673,"current_range_meters":38800,"station_id":"ce4bgpp2rcd13ifvqc3g","pricing_plan_id":"cebpf4jnsgd1na2vs0mg"},{"bike_id":"48936a2e-3a9b-4509-9996-c69e1b2c8e0c","system_id":"levelo_inurba_marseille","lat":43.24802,"lon":5.37452,"is_reserved":false,"is_disabled":false,"rental_uris":{"android":"levelo://app?vid=48936a2e-3a9b-4509-9996-c69e1b2c8e0c","ios":"levelo://app?vid=48936a2e-3a9b-4509-9996-c69e1b2c8e0c"},"vehicle_type_id":"4","last_reported":1730041673,"current_range_meters":39200,"station_id":"ce4bhgh2rcd13ifvqfb0","pricing_plan_id":"cebpf4jnsgd1na2vs0mg"},{"bike_id":"c505d207-5467-49bf-b1a5-4fc57d09adc4","system_id":"levelo_inurba_marseille","lat":43.23193,"lon":5.35557,"is_reserved":false,"is_disabled":false,"rental_uris":{"android":"levelo://app?vid=c505d207-5467-49bf-b1a5-4fc57d09adc4","ios":"levelo://app?vid=c505d207-5467-49bf-b1a5-4fc57d09adc4"},"vehicle_type_id":"4","last_reported":1730041673,"current_range_meters":38800,"station_id":"ce4bhu92rcd13ifvqi70","pricing_plan_id":"cebpf4jnsgd1na2vs0mg"},{"bike_id":"301c56fb-9d05-4ffb-99c9-41b99ed02621","system_id":"levelo_inurba_marseille","lat":43.29004,"lon":5.35612,"is_reserved":false,"is_disabled":false,"rental_uris":{"android":"levelo://app?vid=301c56fb-9d05-4ffb-99c9-41b99ed02621","ios":"levelo://app?vid=301c56fb-9d05-4ffb-99c9-41b99ed02621"},"vehicle_type_id":"4","last_reported":1730041673,"current_range_meters":34000,"station_id":"ce4bhb92rcd13ifvqen0","pricing_plan_id":"cebpf4jnsgd1na2vs0mg"},{"bike_id":"8fd174d4-65c7-4a4e-8833-e33b1c869618","system_id":"levelo_inurba_marseille","lat":43.23965,"lon":5.36631,"is_reserved":false,"is_disabled":false,"rental_uris":{"android":"levelo://app?vid=8fd174d4-65c7-4a4e-8833-e33b1c869618","ios":"levelo://app?vid=8fd174d4-65c7-4a4e-8833-e33b1c869618"},"vehicle_type_id":"4","last_reported":1730041673,"current_range_meters":19600,"station_id":"ce4bhi12rcd13ifvqfp0","pricing_plan_id":"cebpf4jnsgd1na2vs0mg"},