{"last_updated":1687187222,"ttl":30,"version":"2.2","data":{"bikes":[{"bike_id":"d6b38882-9e92-46b2-9f41-9812da4fda0e","system_id":"levelo_inurba_marseille","lat":43.31335,"lon":5.36732,"is_reserved":false,"is_disabled":false,"rental_uris":{"android":"levelo://app?vid=d6b38882-9e92-46b2-9f41-9812da4fda0e","ios":"levelo://app?vid=d6b38882-9e92-46b2-9f41-9812da4fda0e"},"vehicle_type_id":"4","last_reported":1687187223,"current_range_meters":7200,"station_id":"ce4bgr92rcd13ifvqc6g","pricing_plan_id":"free"},{"bike_id":"25aaedfc-d683-48fc-8547-474740c9a25b","system_id":"levelo_inurba_marseille","lat":43.313391,"lon":5.36706,"is_reserved":false,"is_disabled":false,"rental_uris":{"android":"levelo://app?vid=25aaedfc-d683-48fc-8547-474740c9a25b","ios":"levelo://app?vid=25aaedfc-d683-48fc-8547-474740c9a25b"},"vehicle_type_id":"4","last_reported":1687187223,"current_range_meters":31200,"station_id":"ce4bgr92rcd13ifvqc6g","pricing_plan_id":"free"},{"bike_id":"9d0b7bc9-ca2c-4bde-a97e-193678fe4297","system_id":"levelo_inurba_marseille","lat":43.31343,"lon":5.36729,"is_reserved":false,"is_disabled":false,"rental_uris":{"android":"levelo://app?vid=9d0b7bc9-ca2c-4bde-a97e-193678fe4297","ios":"levelo://app?vid=9d0b7bc9-ca2c-4bde-a97e-193678fe4297"},"vehicle_type_id":"4","last_reported":1687187223,"current_range_meters":23600,"station_id":"ce4bgr92rcd13ifvqc6g","pricing_plan_id":"free"},{"bike_id":"906768a7-4561-4fae-9fe3-c36f5c66066a","system_id":"levelo_inurba_marseille","lat":43.313391,"lon":5.36706,"is_reserved":false,"is_disabled":false,"rental_uris":{"android":"levelo://app?vid=906768a7-4561-4fae-9fe3-c36f5c66066a","ios":"levelo://app?vid=906768a7-4561-4fae-9fe3-c36f5c66066a"},"vehicle_type_id":"4","last_reported":1687187223,"current_range_meters":30800,"station_id":"ce4bgr92rcd13ifvqc6g","pricing_plan_id":"free"},{"bike_id":"bf4b221d-c99e-4dbe-82a4-4674c80361c0","system_id":"levelo_inurba_marseille","lat":43.31341,"lon":5.367098,"is_reserved":false,"is_disabled":false,"rental_uris":{"android":"levelo://app?vid=bf4b221d-c99e-4dbe-82a4-4674c80361c0","ios":"levelo://app?vid=bf4b221d-c99e-4dbe-82a4-4674c80361c0"},"vehicle_type_id":"4","last_reported":1687187223,"current_range_meters":30000,"station_id":"ce4bgr92rcd13ifvqc6g","pricing_plan_id":"free"},{"bike_id":"27ce559f-7ada-4728-b749-d543204aeae2","system_id":"levelo_inurba_marseille","lat":43.31349,"lon":5.36714,"is_reserved":false,"is_disabled":false,"rental_uris":{"android":"levelo://app?vid=27ce559f-7ada-4728-b749-d543204aeae2","ios":"levelo://app?vid=27ce559f-7ada-4728-b749-d543204aeae2"},"vehicle_type_id":"4","last_reported":1687187223,"current_range_meters":27200,"station_id":"ce4bgr92rcd13ifvqc6g","pricing_plan_id":"free"},{"bike_id":"383857c3-a3cf-4043-9fc4-275aad91e005","system_id":"levelo_inurba_marseille","lat":43.31351,"lon":5.36705,"is_reserved":false,"is_disabled":false,"rental_uris":{"android":"levelo://app?vid=383857c3-a3cf-4043-9fc4-275aad91e005","ios":"levelo://app?vid=383857c3-a3cf-4043-9fc4-275aad91e005"},"vehicle_type_id":"4","last_reported":1687187223,"current_range_meters":22000,"station_id":"ce4bgr92rcd13ifvqc6g","pricing_plan_id":"free"},{"bike_id":"8bc32d70-20bd-47fb-b370-4449326bfb18","system_id":"levelo_inurba_marseille","lat":43.31341,"lon":5.367098,"is_reserved":false,"is_disabled":false,"rental_uris":{"android":"levelo://app?vid=8bc32d70-20bd-47fb-b370-4449326bfb18","ios":"levelo://app?vid=8bc32d70-20bd-47fb-b370-4449326bfb18"},"vehicle_type_id":"4","last_reported":1687187223,"current_range_meters":28400,"station_id":"ce4bgr92rcd13ifvqc6g","pricing_plan_id":"free"},{"bike_id":"c579cd28-6ce2-4362-8391-740fa74ceac5","system_id":"levelo_inurba_marseille","lat":43.313391,"lon":5.36706,"is_reserved":false,"is_disabled":false,"rental_uris":{"android":"levelo://app?vid=c579cd28-6ce2-4362-8391-740fa74ceac5","ios":"levelo://app?vid=c579cd28-6ce2-4362-8391-740fa74ceac5"},"vehicle_type_id":"4","last_reported":1687187223,"current_range_meters":30800,"station_id":"ce4bgr92rcd13ifvqc6g","pricing_plan_id":"free"},{"bike_id":"1a634653-cfe8-4557-bbeb-aee4f83f638d","system_id":"levelo_inurba_marseille","lat":43.31355,"lon":5.36712,"is_reserved":false,"is_disabled":false,"rental_uris":{"android":"levelo://app?vid=1a634653-cfe8-4557-bbeb-aee4f83f638d","ios":"levelo://app?vid=1a634653-cfe8-4557-bbeb-aee4f83f638d"},"vehicle_type_id":"4","last_reported":1687187223,"current_range_meters":31200,"station_id":"ce4bgr92rcd13ifvqc6g","pricing_plan_id":"free"},{"bike_id":"1821ad37-436d-4174-a678-4d8c8f22bb9b","system_id":"levelo_inurba_marseille","lat":43.313391,"lon":5.36706,"is_reserved":false,"is_disabled":false,"rental_uris":{"android":"levelo://app?vid=1821ad37-436d-4174-a678-4d8c8f22bb9b","ios":"levelo://app?vid=1821ad37-436d-4174-a678-4d8c8f22bb9b"},"vehicle_type_id":"4","last_reported":1687187223,"current_range_meters":31200,"station_id":"ce4bgr92rcd13ifvqc6g","pricing_plan_id":"free"},{"bike_id":"2538a255-6d2a-4cc9-aa5f-a4e0dd1406d4","system_id":"levelo_inurba_marseille","lat":43.31356,"lon":5.36708,"is_reserved":false,"is_disabled":false,"rental_uris":{"android":"levelo://app?vid=2538a255-6d2a-4cc9-aa5f-a4e0dd1406d4","ios":"levelo://app?vid=2538a255-6d2a-4cc9-aa5f-a4e0dd1406d4"},"vehicle_type_id":"4","last_reported":1687187223,"current_range_meters":16800,"station_id":"","pricing_plan_id":"free"},{"bike_id":"f368da29-4559-46fd-b192-0f4912ae032e","system_id":"levelo_inurba_marseille","lat":43.31352,"lon":5.36733,"is_reserved":false,"is_disabled":false,"rental_uris":{"android":"levelo://app?vid=f368da29-4559-46fd-b192-0f4912ae032e","ios":"levelo://app?vid=f368da29-4559-46fd-b192-0f4912ae032e"},"vehicle_type_id":"4","last_reported":1687187223,"current_range_meters":6400,"station_id":"ce4bgr92rcd13ifvqc6g","pricing_plan_id":"free"},{"bike_id":"9af4b85a-cadc-43e9-84c4-82dd2d76e3a1","system_id":"levelo_inurba_marseille","lat":43.31358,"lon":5.36703,"is_reserved":false,"is_disabled":false,"rental_uris":{"android":"levelo://app?vid=9af4b85a-cadc-43e9-84c4-82dd2d76e3a1","ios":"levelo://app?vid=9af4b85a-cadc-43e9-84c4-82dd2d76e3a1"},"vehicle_type_id":"4","last_reported":1687187223,"current_range_meters":22000,"station_id":"ce4bgr92rcd13ifvqc6g","pricing_plan_id":"free"},{"bike_id":"8730d889-fcb0-4eef-96e4-2e9a1343f51b","system_id":"levelo_inurba_marseille","lat":43.31358,"lon":5.36707,"is_reserved":false,"is_disabled":false,"rental_uris":{"android":"levelo://app?vid=8730d889-fcb0-4eef-96e4-2e9a1343f51b","ios":"levelo://app?vid=8730d889-fcb0-4eef-96e4-2e9a1343f51b"},"vehicle_type_id":"4","last_reported":1687187223,"current_range_meters":20000,"station_id":"ce4bgr92rcd13ifvqc6g","pricing_plan_id":"free"},{"bike_id":"96a5b35b-8617-40fa-b613-1ba840b1e5c6","system_id":"levelo_inurba_marseille","lat":43.31234,"lon":5.36846,"is_reserved":false,"is_disabled":false,"rental_uris":{"android":"levelo://app?vid=96a5b35b-8617-40fa-b613-1ba840b1e5c6","ios":"levelo://app?vid=96a5b35b-8617-40fa-b613-1ba840b1e5c6"},"vehicle_type_id":"4","last_reported":1687187223,"current_range_meters":8000,"station_id":"ce4bgl92rcd13ifvqbq0","pricing_plan_id":"free"},{"bike_id":"1958f4b9-d30c-43de-870f-1d6c044be5a6","system_id":"levelo_inurba_marseille","lat":43.31232,"lon":5.3685,"is_reserved":false,"is_disabled":false,"rental_uris":{"android":"levelo://app?vid=1958f4b9-d30c-43de-870f-1d6c044be5a6","ios":"levelo://app?vid=1958f4b9-d30c-43de-870f-1d6c044be5a6"},"vehicle_type_id":"4","last_reported":1687187223,"current_range_meters":30800,"station_id":"ce4bgl92rcd13ifvqbq0","pricing_plan_id":"free"},{"bike_id":"d598c42d-f402-4618-907c-a29048f71e49","system_id":"levelo_inurba_marseille","lat":43.31225,"lon":5.36847,"is_reserved":false,"is_disabled":false,"rental_uris":{"android":"levelo://app?vid=d598c42d-f402-4618-907c-a29048f71e49","ios":"levelo://app?vid=d598c42d-f402-4618-907c-a29048f71e49"},"vehicle_type_id":"4","last_reported":1687187223,"current_range_meters":31200,"station_id":"ce4bgl92rcd13ifvqbq0","pricing_plan_id":"free"},{"bike_id":"bf0563a3-4fe1-4965-b3ab-0915d40cd7e6","system_id":"levelo_inurba_marseille","lat":43.31227,"lon":5.3685,"is_reserved":false,"is_disabled":false,"rental_uris":{"android":"levelo://app?vid=bf0563a3-4fe1-4965-b3ab-0915d40cd7e6","ios":"levelo://app?vid=bf0563a3-4fe1-4965-b3ab-0915d40cd7e6"},"vehicle_type_id":"4","last_reported":1687187223,"current_range_meters":28800,"station_id":"ce4bgl92rcd13ifvqbq0","pricing_plan_id":"free"},{"bike_id":"93655e3f-672d-4139-a102-7e37309fc818","system_id":"levelo_inurba_marseille","lat":43.312239,"lon":5.368562,"is_reserved":false,"is_disabled":false,"rental_uris":{"android":"levelo://app?vid=93655e3f-672d-4139-a102-7e37309fc818","ios":"levelo://app?vid=93655e3f-672d-4139-a102-7e37309fc818"},"vehicle_type_id":"4","last_reported":1687187223,"current_range_meters":31200,"station_id":"ce4bgl92rcd13ifvqbq0","pricing_plan_id":"free"},{"bike_id":"f03543a2-e457-4b94-8c87-1e943210a39b","system_id":"levelo_inurba_marseille","lat":43.312239,"lon":5.368562,"is_reserved":false,"is_disabled":false,"rental_uris":{"android":"levelo://app?vid=f03543a2-e457-4b94-8c87-1e943210a39b","ios":"levelo://app?vid=f03543a2-e457-4b94-8c87-1e943210a39b"},"vehicle_type_id":"4","last_reported":1687187223,"current_range_meters":28000,"station_id":"ce4bgl92rcd13ifvqbq0","pricing_plan_id":"free"},{"bike_id":"490726e3-c54a-412f-b165-c20bceff7625","system_id":"levelo_inurba_marseille","lat":43.312239,"lon":5.368562,"is_reserved":false,"is_disabled":false,"rental_uris":{"android":"levelo://app?vid=490726e3-c54a-412f-b165-c20bceff7625","ios":"levelo://app?vid=490726e3-c54a-412f-b165-c20bceff7625"},"vehicle_type_id":"4","last_reported":1687187223,"current_range_meters":18000,"station_id":"ce4bgl92rcd13ifvqbq0","pricing_plan_id":"free"},{"bike_id":"8c39fab9-2855-428d-861b-b30e929bc046","system_id":"levelo_inurba_marseille","lat":43.30912,"lon":5.36829,"is_reserved":false,"is_disabled":false,"rental_uris":{"android":"levelo://app?vid=8c39fab9-2855-428d-861b-b30e929bc046","ios":"levelo://app?vid=8c39fab9-2855-428d-861b-b30e929bc046"},"vehicle_type_id":"4","last_reported":1687187223,"current_range_meters":13600,"station_id":"ce4bgn92rcd13ifvqbvg","pricing_plan_id":"free"},{"bike_id":"939fb802-151d-40ca-92be-c41d9d73ffcf","system_id":"levelo_inurba_marseille","lat":43.30915,"lon":5.36853,"is_reserved":false,"is_disabled":false,"rental_uris":{"android":"levelo://app?vid=939fb802-151d-40ca-92be-c41d9d73ffcf","ios":"levelo://app?vid=939fb802-151d-40ca-92be-c41d9d73ffcf"},"vehicle_type_id":"4","last_reported":1687187223,"current_range_meters":27600,"station_id":"ce4bgn92rcd13ifvqbvg","pricing_plan_id":"free"},{"bike_id":"59577779-121c-42f1-a9bb-9e4c8e7e8b19","system_id":"levelo_inurba_marseille","lat":43.30912,"lon":5.36849,"is_reserved":false,"is_disabled":false,"rental_uris":{"android":"levelo://app?vid=59577779-121c-42f1-a9bb-9e4c8e7e8b19","ios":"levelo://app?vid=59577779-121c-42f1-a9bb-9e4c8e7e8b19"},"vehicle_type_id":"4","last_reported":1687187223,"current_range_meters":24000,"station_id":"ce4bgn92rcd13ifvqbvg","pricing_plan_id":"free"},{"bike_id":"a8a52fd3-1803-4bb4-94b9-cc3f203c4d93","system_id":"levelo_inurba_marseille","lat":43.309076,"lon":5.368465,"is_reserved":false,"is_disabled":false,"rental_uris":{"android":"levelo://app?vid=a8a52fd3-1803-4bb4-94b9-cc3f203c4d93","ios":"levelo://app?vid=a8a52fd3-1803-4bb4-94b9-cc3f203c4d93"},"vehicle_type_id":"4","last_reported":1687187223,"current_range_meters":23200,"station_id":"ce4bgn92rcd13ifvqbvg","pricing_plan_id":"free"},{"bike_id":"4cfed2f9-bd4b-4ac7-bfd3-22510e81b360","system_id":"levelo_inurba_marseille","lat":43.309076,"lon":5.368465,"is_reserved":false,"is_disabled":false,"rental_uris":{"android":"levelo://app?vid=4cfed2f9-bd4b-4ac7-bfd3-22510e81b360","ios":"levelo://app?vid=4cfed2f9-bd4b-4ac7-bfd3-22510e81b360"},"vehicle_type_id":"4","last_reported":1687187223,"current_range_meters":0,"station_id":"ce4bgn92rcd13ifvqbvg","pricing_plan_id":"free"},{"bike_id":"dad41c2c-ebb3-495a-9433-94e3f95ae7d1","system_id":"levelo_inurba_marseille","lat":43.308606,"lon":5.372099,"is_reserved":false,"is_disabled":false,"rental_uris":{"android":"levelo://app?vid=dad41c2c-ebb3-495a-9433-94e3f95ae7d1","ios":"levelo://app?vid=dad41c2c-ebb3-495a-9433-94e3f95ae7d1"},"vehicle_type_id":"4","last_reported":1687187223,"current_range_meters":3200,"station_id":"ce4bguh2rcd13ifvqckg","pricing_plan_id":"free"},{"bike_id":"7038067a-93ee-4414-b6fb-2413eb1b5022","system_id":"levelo_inurba_marseille","lat":43.308606,"lon":5.372099,"is_reserved":false,"is_disabled":false,"rental_uris":{"android":"levelo://app?vid=7038067a-93ee-4414-b6fb-2413eb1b5022","ios":"levelo://app?vid=7038067a-93ee-4414-b6fb-2413eb1b5022"},"vehicle_type_id":"4","last_reported":1687187223,"current_range_meters":13600,"station_id":"ce4bguh2rcd13ifvqckg","pricing_plan_id":"free"},{"bike_id":"7b0dbaad-5347-4ce5-a863-4cf01ea71edf","system_id":"levelo_inurba_marseille","lat":43.3056,"lon":5.36559,"is_reserved":false,"is_disabled":false,"rental_uris":{"android":"levelo://app?vid=7b0dbaad-5347-4ce5-a863-4cf01ea71edf","ios":"levelo://app?vid=7b0dbaad-5347-4ce5-a863-4cf01ea71edf"},"vehicle_type_id":"4","last_reported":1687187223,"current_range_meters":2800,"station_id":"ce4bgs12rcd13ifvqcag","pricing_plan_id":"free"},{"bike_id":"8e46afa7-8697-4dcd-b550-0391b923e330","system_id":"levelo_inurba_marseille","lat":43.305989,"lon":5.37225,"is_reserved":false,"is_disabled":false,"rental_uris":{"android":"levelo://app?vid=8e46afa7-8697-4dcd-b550-0391b923e330","ios":"levelo://app?vid=8e46afa7-8697-4dcd-b550-0391b923e330"},"vehicle_type_id":"4","last_reported":1687187223,"current_range_meters":24000,"station_id":"ce4bgqh2rcd13ifvqc4g","pricing_plan_id":"free"},{"bike_id":"d866987f-5075-4cd2-96d1-0d47d269b365","system_id":"levelo_inurba_marseille","lat":43.305989,"lon":5.37225,"is_reserved":false,"is_disabled":false,"rental_uris":{"android":"levelo://app?vid=d866987f-5075-4cd2-96d1-0d47d269b365","ios":"levelo://app?vid=d866987f-5075-4cd2-96d1-0d47d269b365"},"vehicle_type_id":"4","last_reported":1687187223,"current_range_meters":30000,"station_id":"ce4bgqh2rcd13ifvqc4g","pricing_plan_id":"free"},{"bike_id":"fcbc6b8a-363b-4fe0-9021-91c6f166e92f","system_id":"levelo_inurba_marseille","lat":43.305989,"lon":5.37225,"is_reserved":false,"is_disabled":false,"rental_uris":{"android":"levelo://app?vid=fcbc6b8a-363b-4fe0-9021-91c6f166e92f","ios":"levelo://app?vid=fcbc6b8a-363b-4fe0-9021-91c6f166e92f"},"vehicle_type_id":"4","last_reported":1687187223,"current_range_meters":17600,"station_id":"ce4bgqh2rcd13ifvqc4g","pricing_plan_id":"free"},{"bike_id":"65c47a0c-b838-4c7a-94d9-809c2e322fec","system_id":"levelo_inurba_marseille","lat":43.311131,"lon":5.377651,"is_reserved":false,"is_disabled":false,"rental_uris":{"android":"levelo://app?vid=65c47a0c-b838-4c7a-94d9-809c2e322fec","ios":"levelo://app?vid=65c47a0c-b838-4c7a-94d9-809c2e322fec"},"vehicle_type_id":"4","last_reported":1687187223,"current_range_meters":14800,"station_id":"ce4bgt92rcd13ifvqcg0","pricing_plan_id":"free"},{"bike_id":"5a7dcb7e-3036-4ac9-bc79-25d7f22897c3","system_id":"levelo_inurba_marseille","lat":43.311131,"lon":5.377651,"is_reserved":false,"is_disabled":false,"rental_uris":{"android":"levelo://app?vid=5a7dcb7e-3036-4ac9-bc79-25d7f22897c3","ios":"levelo://app?vid=5a7dcb7e-3036-4ac9-bc79-25d7f22897c3"},"vehicle_type_id":"4","last_reported":1687187223,"current_range_meters":24400,"station_id":"ce4bgt92rcd13ifvqcg0","pricing_plan_id":"free"},{"bike_id":"93e3230a-24ac-4930-91d0-880b95c95333","system_id":"levelo_inurba_marseille","lat":43.311131,"lon":5.377651,"is_reserved":false,"is_disabled":false,"rental_uris":{"android":"levelo://app?vid=93e3230a-24ac-4930-91d0-880b95c95333","ios":"levelo://app?vid=93e3230a-24ac-4930-91d0-880b95c95333"},"vehicle_type_id":"4","last_reported":1687187223,"current_range_meters":29600,"station_id":"ce4bgt92rcd13ifvqcg0","pricing_plan_id":"free"},{"bike_id":"57df4334-c32f-4b33-86d8-d883536861aa","system_id":"levelo_inurba_marseille","lat":43.317075,"lon":5.377367,"is_reserved":false,"is_disabled":false,"rental_uris":{"android":"levelo://app?vid=57df4334-c32f-4b33-86d8-d883536861aa","ios":"levelo://app?vid=57df4334-c32f-4b33-86d8-d883536861aa"},"vehicle_type_id":"4","last_reported":1687187223,"current_range_meters":28000,"station_id":"ce4bgth2rcd13ifvqch0","pricing_plan_id":"free"},{"bike_id":"5d891914-0902-40bd-8a00-06a575519ad9","system_id":"levelo_inurba_marseille","lat":43.30332,"lon":5.36462,"is_reserved":false,"is_disabled":false,"rental_uris":{"android":"levelo://app?vid=5d891914-0902-40bd-8a00-06a575519ad9","ios":"levelo://app?vid=5d891914-0902-40bd-8a00-06a575519ad9"},"vehicle_type_id":"4","last_reported":1687187223,"current_range_meters":26800,"station_id":"","pricing_plan_id":"free"},{"bike_id":"e1a3e8b0-87d5-4e40-8cec-361af068184e","system_id":"levelo_inurba_marseille","lat":43.303046,"lon":5.368981,"is_reserved":false,"is_disabled":false,"rental_uris":{"android":"levelo://app?vid=e1a3e8b0-87d5-4e40-8cec-361af068184e","ios":"levelo://app?vid=e1a3e8b0-87d5-4e40-8cec-361af068184e"},"vehicle_type_id":"4","last_reported":1687187223,"current_range_meters":22400,"station_id":"ce4bgqh2rcd13ifvqc5g","pricing_plan_id":"free"},{"bike_id":"21ed421b-d0b2-470e-82b0-075cef23c919","system_id":"levelo_inurba_marseille","lat":43.303046,"lon":5.368981,"is_reserved":false,"is_disabled":false,"rental_uris":{"android":"levelo://app?vid=21ed421b-d0b2-470e-82b0-075cef23c919","ios":"levelo://app?vid=21ed421b-d0b2-470e-82b0-075cef23c919"},"vehicle_type_id":"4","last_reported":1687187223,"current_range_meters":19600,"station_id":"ce4bgqh2rcd13ifvqc5g","pricing_plan_id":"free"},{"bike_id":"1438b2e6-fbe9-4610-8513-dc65e6ddfcc6","system_id":"levelo_inurba_marseille","lat":43.303046,"lon":5.368981,"is_reserved":false,"is_disabled":false,"rental_uris":{"android":"levelo://app?vid=1438b2e6-fbe9-4610-8513-dc65e6ddfcc6","ios":"levelo://app?vid=1438b2e6-fbe9-4610-8513-dc65e6ddfcc6"},"vehicle_type_id":"4","last_reported":1687187223,"current_range_meters":14800,"station_id":"ce4bgqh2rcd13ifvqc5g","pricing_plan_id":"free"},{"bike_id":"e394e8a3-8395-4593-825c-5dec0d725b94","system_id":"levelo_inurba_marseille","lat":43.30966,"lon":5.3797,"is_reserved":false,"is_disabled":false,"rental_uris":{"android":"levelo://app?vid=e394e8a3-8395-4593-825c-5dec0d725b94","ios":"levelo://app?vid=e394e8a3-8395-4593-825c-5dec0d725b94"},"vehicle_type_id":"4","last_reported":1687187223,"current_range_meters":18800,"station_id":"","pricing_plan_id":"free"},{"bike_id":"e0b17276-9d39-4492-9ed6-897601ac0946","system_id":"levelo_inurba_marseille","lat":43.315289,"lon":5.380349,"is_reserved":false,"is_disabled":false,"rental_uris":{"android":"levelo://app?vid=e0b17276-9d39-4492-9ed6-897601ac0946","ios":"levelo://app?vid=e0b17276-9d39-4492-9ed6-897601ac0946"},"vehicle_type_id":"4","last_reported":1687187223,"current_range_meters":14000,"station_id":"ce4bhsp2rcd13ifvqi50","pricing_plan_id":"free"},{"bike_id":"067c6c9c-daab-423e-a970-b70ae14131df","system_id":"levelo_inurba_marseille","lat":43.315289,"lon":5.380349,"is_reserved":false,"is_disabled":false,"rental_uris":{"android":"levelo://app?vid=067c6c9c-daab-423e-a970-b70ae14131df","ios":"levelo://app?vid=067c6c9c-daab-423e-a970-b70ae14131df"},"vehicle_type_id":"4","last_reported":1687187223,"current_range_meters":15200,"station_id":"ce4bhsp2rcd13ifvqi50","pricing_plan_id":"free"},{"bike_id":"a2ad3713-8831-4b3c-81fe-b0bfc6b95546","system_id":"levelo_inurba_marseille","lat":43.301939,"lon":5.366286,"is_reserved":false,"is_disabled":false,"rental_uris":{"android":"levelo://app?vid=a2ad3713-8831-4b3c-81fe-b0bfc6b95546","ios":"levelo://app?vid=a2ad3713-8831-4b3c-81fe-b0bfc6b95546"},"vehicle_type_id":"4","last_reported":1687187223,"current_range_meters":28000,"station_id":"ce4bgrh2rcd13ifvqc8g","pricing_plan_id":"free"},{"bike_id":"4c61a723-033c-490f-bb50-537d09cf5011","system_id":"levelo_inurba_marseille","lat":43.301939,"lon":5.366286,"is_reserved":false,"is_disabled":false,"rental_uris":{"android":"levelo://app?vid=4c61a723-033c-490f-bb50-537d09cf5011","ios":"levelo://app?vid=4c61a723-033c-490f-bb50-537d09cf5011"},"vehicle_type_id":"4","last_reported":1687187223,"current_range_meters":26000,"station_id":"ce4bgrh2rcd13ifvqc8g","pricing_plan_id":"free"},{"bike_id":"ae33307b-fcd5-479b-9ae1-9002ed226c6e","system_id":"levelo_inurba_marseille","lat":43.308012,"lon":5.381511,"is_reserved":false,"is_disabled":false,"rental_uris":{"android":"levelo://app?vid=ae33307b-fcd5-479b-9ae1-9002ed226c6e","ios":"levelo://app?vid=ae33307b-fcd5-479b-9ae1-9002ed226c6e"},"vehicle_type_id":"4","last_reported":1687187223,"current_range_meters":24800,"station_id":"ce4bgt12rcd13ifvqce0","pricing_plan_id":"free"},{"bike_id":"00938b4f-adea-400b-8bf5-026e62714d75","system_id":"levelo_inurba_marseille","lat":43.308012,"lon":5.381511,"is_reserved":false,"is_disabled":false,"rental_uris":{"android":"levelo://app?vid=00938b4f-adea-400b-8bf5-026e62714d75","ios":"levelo://app?vid=00938b4f-adea-400b-8bf5-026e62714d75"},"vehicle_type_id":"4","last_reported":1687187223,"current_range_meters":0,"station_id":"ce4bgt12rcd13ifvqce0","pricing_plan_id":"free"},{"bike_id":"b13dcba9-e393-43ea-a356-45d498e08476","system_id":"levelo_inurba_marseille","lat":43.301939,"lon":5.366286,"is_reserved":false,"is_disabled":false,"rental_uris":{"android":"levelo://app?vid=b13dcba9-e393-43ea-a356-45d498e08476","ios":"levelo://app?vid=b13dcba9-e393-43ea-a356-45d498e08476"},"vehicle_type_id":"4","last_reported":1687187223,"current_range_meters":1600,"station_id":"ce4bgrh2rcd13ifvqc8g","pricing_plan_id":"free"},{"bike_id":"5c0416d0-66bb-4ff5-9329-542caf933a49","system_id":"levelo_inurba_marseille","lat":43.304606,"lon":5.379026,"is_reserved":false,"is_disabled":false,"rental_uris":{"android":"levelo://app?vid=5c0416d0-66bb-4ff5-9329-542caf933a49","ios":"levelo://app?vid=5c0416d0-66bb-4ff5-9329-542caf933a49"},"vehicle_type_id":"4","last_reported":1687187223,"current_range_meters":27200,"station_id":"ce4bgup2rcd13ifvqcn0","pricing_plan_id":"free"},{"bike_id":"43fc693e-f2a9-4aec-8fd9-d094bb02cb70","system_id":"levelo_inurba_marseille","lat":43.304606,"lon":5.379026,"is_reserved":false,"is_disabled":false,"rental_uris":{"android":"levelo://app?vid=43fc693e-f2a9-4aec-8fd9-d094bb02cb70","ios":"levelo://app?vid=43fc693e-f2a9-4aec-8fd9-d094bb02cb70"},"vehicle_type_id":"4","last_reported":1687187223,"current_range_meters":13200,"station_id":"ce4bgup2rcd13ifvqcn0","pricing_plan_id":"free"},{"bike_id":"05c06e73-d690-48a0-ae0c-6af6bb148eb6","system_id":"levelo_inurba_marseille","lat":43.304606,"lon":5.379026,"is_reserved":false,"is_disabled":false,"rental_uris":{"android":"levelo://app?vid=05c06e73-d690-48a0-ae0c-6af6bb148eb6","ios":"levelo://app?vid=05c06e73-d690-48a0-ae0c-6af6bb148eb6"},"vehicle_type_id":"4","last_reported":1687187223,"current_range_meters":0,"station_id":"ce4bgup2rcd13ifvqcn0","pricing_plan_id":"free"},{"bike_id":"232e2ce9-cd58-43cc-9c3f-fc5f7e20df2d","system_id":"levelo_inurba_marseille","lat":43.302784,"lon":5.377158,"is_reserved":false,"is_disabled":false,"rental_uris":{"android":"levelo://app?vid=232e2ce9-cd58-43cc-9c3f-fc5f7e20df2d","ios":"levelo://app?vid=232e2ce9-cd58-43cc-9c3f-fc5f7e20df2d"},"vehicle_type_id":"4","last_reported":1687187223,"current_range_meters":29600,"station_id":"ce4bguh2rcd13ifvqcj0","pricing_plan_id":"free"},{"bike_id":"f7b35730-7ccd-4238-beff-04089008f234","system_id":"levelo_inurba_marseille","lat":43.31999,"lon":5.38167,"is_reserved":false,"is_disabled":false,"rental_uris":{"android":"levelo://app?vid=f7b35730-7ccd-4238-beff-04089008f234","ios":"levelo://app?vid=f7b35730-7ccd-4238-beff-04089008f234"},"vehicle_type_id":"4","last_reported":1687187223,"current_range_meters":9600,"station_id":"ce4bhr12rcd13ifvqhpg","pricing_plan_id":"free"},{"bike_id":"d996b5c8-8c1e-4f1d-8cd4-e790ec3d3306","system_id":"levelo_inurba_marseille","lat":43.313571,"lon":5.384829,"is_reserved":false,"is_disabled":false,"rental_uris":{"android":"levelo://app?vid=d996b5c8-8c1e-4f1d-8cd4-e790ec3d3306","ios":"levelo://app?vid=d996b5c8-8c1e-4f1d-8cd4-e790ec3d3306"},"vehicle_type_id":"4","last_reported":1687187223,"current_range_meters":28400,"station_id":"ce4bgt92rcd13ifvqcf0","pricing_plan_id":"free"},{"bike_id":"c5db6a82-5e82-4b8a-bbcd-339ecabba1b7","system_id":"levelo_inurba_marseille","lat":43.313571,"lon":5.384829,"is_reserved":false,"is_disabled":false,"rental_uris":{"android":"levelo://app?vid=c5db6a82-5e82-4b8a-bbcd-339ecabba1b7","ios":"levelo://app?vid=c5db6a82-5e82-4b8a-bbcd-339ecabba1b7"},"vehicle_type_id":"4","last_reported":1687187223,"current_range_meters":21600,"station_id":"ce4bgt92rcd13ifvqcf0","pricing_plan_id":"free"},{"bike_id":"b6fee4a0-0be1-45b1-9707-737548901edf","system_id":"levelo_inurba_marseille","lat":43.313571,"lon":5.384829,"is_reserved":false,"is_disabled":false,"rental_uris":{"android":"levelo://app?vid=b6fee4a0-0be1-45b1-9707-737548901edf","ios":"levelo://app?vid=b6fee4a0-0be1-45b1-9707-737548901edf"},"vehicle_type_id":"4","last_reported":1687187223,"current_range_meters":29200,"station_id":"ce4bgt92rcd13ifvqcf0","pricing_plan_id":"free"},{"bike_id":"1a0109a3-62ce-43b6-80fc-6d2e4a130058","system_id":"levelo_inurba_marseille","lat":43.298433,"lon":5.362774,"is_reserved":false,"is_disabled":false,"rental_uris":{"android":"levelo://app?vid=1a0109a3-62ce-43b6-80fc-6d2e4a130058","ios":"levelo://app?vid=1a0109a3-62ce-43b6-80fc-6d2e4a130058"},"vehicle_type_id":"4","last_reported":1687187223,"current_range_meters":6400,"station_id":"ce4bgpp2rcd13ifvqc3g","pricing_plan_id":"free"},{"bike_id":"19b8b4c7-5120-453c-89f1-96a47e6be5d2","system_id":"levelo_inurba_marseille","lat":43.299243,"lon":5.37481,"is_reserved":false,"is_disabled":false,"rental_uris":{"android":"levelo://app?vid=19b8b4c7-5120-453c-89f1-96a47e6be5d2","ios":"levelo://app?vid=19b8b4c7-5120-453c-89f1-96a47e6be5d2"},"vehicle_type_id":"4","last_reported":1687187223,"current_range_meters":15600,"station_id":"ce4bgjh2rcd13ifvqbg0","pricing_plan_id":"free"},{"bike_id":"81865e7d-04e5-418f-8399-a331e2a9f942","system_id":"levelo_inurba_marseille","lat":43.299243,"lon":5.37481,"is_reserved":false,"is_disabled":false,"rental_uris":{"android":"levelo://app?vid=81865e7d-04e5-418f-8399-a331e2a9f942","ios":"levelo://app?vid=81865e7d-04e5-418f-8399-a331e2a9f942"},"vehicle_type_id":"4","last_reported":1687187223,"current_range_meters":16400,"station_id":"ce4bgjh2rcd13ifvqbg0","pricing_plan_id":"free"},{"bike_id":"7c96974f-58bf-495d-a412-b9c5c16c3fcb","system_id":"levelo_inurba_marseille","lat":43.311722,"lon":5.387247,"is_reserved":false,"is_disabled":false,"rental_uris":{"android":"levelo://app?vid=7c96974f-58bf-495d-a412-b9c5c16c3fcb","ios":"levelo://app?vid=7c96974f-58bf-495d-a412-b9c5c16c3fcb"},"vehicle_type_id":"4","last_reported":1687187223,"current_range_meters":14800,"station_id":"ce4bgv12rcd13ifvqcp0","pricing_plan_id":"free"},{"bike_id":"900bd989-4e22-4818-a5ea-9a27f45766e5","system_id":"levelo_inurba_marseille","lat":43.297794,"lon":5.370888,"is_reserved":false,"is_disabled":false,"rental_uris":{"android":"levelo://app?vid=900bd989-4e22-4818-a5ea-9a27f45766e5","ios":"levelo://app?vid=900bd989-4e22-4818-a5ea-9a27f45766e5"},"vehicle_type_id":"4","last_reported":1687187223,"current_range_meters":20000,"station_id":"ce4bgop2rcd13ifvqc1g","pricing_plan_id":"free"},{"bike_id":"efdd719b-2cb3-4f39-a918-33f71c80cbdd","system_id":"levelo_inurba_marseille","lat":43.297794,"lon":5.370888,"is_reserved":false,"is_disabled":false,"rental_uris":{"android":"levelo://app?vid=efdd719b-2cb3-4f39-a918-33f71c80cbdd","ios":"levelo://app?vid=efdd719b-2cb3-4f39-a918-33f71c80cbdd"},"vehicle_type_id":"4","last_reported":1687187223,"current_range_meters":17200,"station_id":"ce4bgop2rcd13ifvqc1g","pricing_plan_id":"free"},{"bike_id":"f553bacc-6580-4439-8962-37a87788d7df","system_id":"levelo_inurba_marseille","lat":43.297794,"lon":5.370888,"is_reserved":false,"is_disabled":false,"rental_uris":{"android":"levelo://app?vid=f553bacc-6580-4439-8962-37a87788d7df","ios":"levelo://app?vid=f553bacc-6580-4439-8962-37a87788d7df"},"vehicle_type_id":"4","last_reported":1687187223,"current_range_meters":13200,"station_id":"ce4bgop2rcd13ifvqc1g","pricing_plan_id":"free"},{"bike_id":"4fda44cc-a3fd-4ab8-b1e0-e6ee67a42f38","system_id":"levelo_inurba_marseille","lat":43.297794,"lon":5.370888,"is_reserved":false,"is_disabled":false,"rental_uris":{"android":"levelo://app?vid=4fda44cc-a3fd-4ab8-b1e0-e6ee67a42f38","ios":"levelo://app?vid=4fda44cc-a3fd-4ab8-b1e0-e6ee67a42f38"},"vehicle_type_id":"4","last_reported":1687187223,"current_range_meters":4400,"station_id":"ce4bgop2rcd13ifvqc1g","pricing_plan_id":"free"},{"bike_id":"b772ab59-d312-4783-a345-da669a52b4ae","system_id":"levelo_inurba_marseille","lat":43.297774,"lon":5.370875,"is_reserved":false,"is_disabled":false,"rental_uris":{"android":"levelo://app?vid=b772ab59-d312-4783-a345-da669a52b4ae","ios":"levelo://app?vid=b772ab59-d312-4783-a345-da669a52b4ae"},"vehicle_type_id":"4","last_reported":1687187223,"current_range_meters":26800,"station_id":"ce4bgop2rcd13ifvqc1g","pricing_plan_id":"free"},{"bike_id":"90cd50e9-fef8-46c8-88fd-163a4e75dc8b","system_id":"levelo_inurba_marseille","lat":43.297794,"lon":5.370888,"is_reserved":false,"is_disabled":false,"rental_uris":{"android":"levelo://app?vid=90cd50e9-fef8-46c8-88fd-163a4e75dc8b","ios":"levelo://app?vid=90cd50e9-fef8-46c8-88fd-163a4e75dc8b"},"vehicle_type_id":"4","last_reported":1687187223,"current_range_meters":14000,"station_id":"ce4bgop2rcd13ifvqc1g","pricing_plan_id":"free"},{"bike_id":"c30c3df3-a841-4648-9933-bdbfe3bcfa4d","system_id":"levelo_inurba_marseille","lat":43.297794,"lon":5.370888,"is_reserved":false,"is_disabled":false,"rental_uris":{"android":"levelo://app?vid=c30c3df3-a841-4648-9933-bdbfe3bcfa4d","ios":"levelo://app?vid=c30c3df3-a841-4648-9933-bdbfe3bcfa4d"},"vehicle_type_id":"4","last_reported":1687187223,"current_range_meters":4800,"station_id":"ce4bgop2rcd13ifvqc1g","pricing_plan_id":"free"},{"bike_id":"b19ea50b-df9a-467e-a441-76c6c6955f29","system_id":"levelo_inurba_marseille","lat":43.297774,"lon":5.370875,"is_reserved":false,"is_disabled":false,"rental_uris":{"android":"levelo://app?vid=b19ea50b-df9a-467e-a441-76c6c6955f29","ios":"levelo://app?vid=b19ea50b-df9a-467e-a441-76c6c6955f29"},"vehicle_type_id":"4","last_reported":1687187223,"current_range_meters":20800,"station_id":"ce4bgop2rcd13ifvqc1g","pricing_plan_id":"free"},{"bike_id":"2af94319-ab6e-4eba-9d32-56a95d96a2dd","system_id":"levelo_inurba_marseille","lat":43.297774,"lon":5.370875,"is_reserved":false,"is_disabled":false,"rental_uris":{"android":"levelo://app?vid=2af94319-ab6e-4eba-9d32-56a95d96a2dd","ios":"levelo://app?vid=2af94319-ab6e-4eba-9d32-56a95d96a2dd"},"vehicle_type_id":"4","last_reported":1687187223,"current_range_meters":23200,"station_id":"ce4bgop2rcd13ifvqc1g","pricing_plan_id":"free"},{"bike_id":"208819ee-4941-406c-8824-cfd62db04c30","system_id":"levelo_inurba_marseille","lat":43.328371,"lon":5.366909,"is_reserved":false,"is_disabled":false,"rental_uris":{"android":"levelo://app?vid=208819ee-4941-406c-8824-cfd62db04c30","ios":"levelo://app?vid=208819ee-4941-406c-8824-cfd62db04c30"},"vehicle_type_id":"4","last_reported":1687187223,"current_range_meters":24000,"station_id":"ce4bhs92rcd13ifvqi0g","pricing_plan_id":"free"},{"bike_id":"8eaea6a4-f041-48cd-95e3-a319d8adf05e","system_id":"levelo_inurba_marseille","lat":43.32827,"lon":5.36679,"is_reserved":false,"is_disabled":false,"rental_uris":{"android":"levelo://app?vid=8eaea6a4-f041-48cd-95e3-a319d8adf05e","ios":"levelo://app?vid=8eaea6a4-f041-48cd-95e3-a319d8adf05e"},"vehicle_type_id":"4","last_reported":1687187223,"current_range_meters":18400,"station_id":"ce4bhs92rcd13ifvqi0g","pricing_plan_id":"free"},{"bike_id":"92b95bfd-116c-47e2-abd2-41b441a7f37b","system_id":"levelo_inurba_marseille","lat":43.3283,"lon":5.36693,"is_reserved":false,"is_disabled":false,"rental_uris":{"android":"levelo://app?vid=92b95bfd-116c-47e2-abd2-41b441a7f37b","ios":"levelo://app?vid=92b95bfd-116c-47e2-abd2-41b441a7f37b"},"vehicle_type_id":"4","last_reported":1687187223,"current_range_meters":14400,"station_id":"ce4bhs92rcd13ifvqi0g","pricing_plan_id":"free"},{"bike_id":"27e857a0-6074-435d-85c0-7fc3761f1cbb","system_id":"levelo_inurba_marseille","lat":43.3283,"lon":5.36684,"is_reserved":false,"is_disabled":false,"rental_uris":{"android":"levelo://app?vid=27e857a0-6074-435d-85c0-7fc3761f1cbb","ios":"levelo://app?vid=27e857a0-6074-435d-85c0-7fc3761f1cbb"},"vehicle_type_id":"4","last_reported":1687187223,"current_range_meters":24800,"station_id":"ce4bhs92rcd13ifvqi0g","pricing_plan_id":"free"},{"bike_id":"c99dd292-b5fe-4d74-b034-5b1bb58a288a","system_id":"levelo_inurba_marseille","lat":43.29717,"lon":5.36613,"is_reserved":false,"is_disabled":false,"rental_uris":{"android":"levelo://app?vid=c99dd292-b5fe-4d74-b034-5b1bb58a288a","ios":"levelo://app?vid=c99dd292-b5fe-4d74-b034-5b1bb58a288a"},"vehicle_type_id":"4","last_reported":1687187223,"current_range_meters":17600,"station_id":"ce4bgn12rcd13ifvqbt0","pricing_plan_id":"free"},{"bike_id":"e62c44a7-c4e2-4d7f-965b-3e35e4edd39a","system_id":"levelo_inurba_marseille","lat":43.328371,"lon":5.366912,"is_reserved":false,"is_disabled":false,"rental_uris":{"android":"levelo://app?vid=e62c44a7-c4e2-4d7f-965b-3e35e4edd39a","ios":"levelo://app?vid=e62c44a7-c4e2-4d7f-965b-3e35e4edd39a"},"vehicle_type_id":"4","last_reported":1687187223,"current_range_meters":31200,"station_id":"ce4bhs92rcd13ifvqi0g","pricing_plan_id":"free"},{"bike_id":"c40b8cb2-e6a3-4771-bd56-823109feab39","system_id":"levelo_inurba_marseille","lat":43.29712,"lon":5.3661,"is_reserved":false,"is_disabled":false,"rental_uris":{"android":"levelo://app?vid=c40b8cb2-e6a3-4771-bd56-823109feab39","ios":"levelo://app?vid=c40b8cb2-e6a3-4771-bd56-823109feab39"},"vehicle_type_id":"4","last_reported":1687187223,"current_range_meters":13200,"station_id":"ce4bgn12rcd13ifvqbt0","pricing_plan_id":"free"},{"bike_id":"176f4894-d7fc-460e-aa5d-7c8c1e206dc3","system_id":"levelo_inurba_marseille","lat":43.29698,"lon":5.36613,"is_reserved":false,"is_disabled":false,"rental_uris":{"android":"levelo://app?vid=176f4894-d7fc-460e-aa5d-7c8c1e206dc3","ios":"levelo://app?vid=176f4894-d7fc-460e-aa5d-7c8c1e206dc3"},"vehicle_type_id":"4","last_reported":1687187223,"current_range_meters":29200,"station_id":"ce4bgn12rcd13ifvqbt0","pricing_plan_id":"free"},{"bike_id":"88d0330c-5bb0-4a19-9b65-d4683b42e015","system_id":"levelo_inurba_marseille","lat":43.29683,"lon":5.36046,"is_reserved":false,"is_disabled":false,"rental_uris":{"android":"levelo://app?vid=88d0330c-5bb0-4a19-9b65-d4683b42e015","ios":"levelo://app?vid=88d0330c-5bb0-4a19-9b65-d4683b42e015"},"vehicle_type_id":"4","last_reported":1687187223,"current_range_meters":0,"station_id":"","pricing_plan_id":"free"},{"bike_id":"def3aefa-0e7a-4cb5-9328-7bed0d01ba17","system_id":"levelo_inurba_marseille","lat":43.296129,"lon":5.370777,"is_reserved":false,"is_disabled":false,"rental_uris":{"android":"levelo://app?vid=def3aefa-0e7a-4cb5-9328-7bed0d01ba17","ios":"levelo://app?vid=def3aefa-0e7a-4cb5-9328-7bed0d01ba17"},"vehicle_type_id":"4","last_reported":1687187223,"current_range_meters":10000,"station_id":"ce4bgnh2rcd13ifvqc0g","pricing_plan_id":"free"},{"bike_id":"702a9da0-1ac3-4753-93c0-30dd564db13e","system_id":"levelo_inurba_marseille","lat":43.303672,"lon":5.386227,"is_reserved":false,"is_disabled":false,"rental_uris":{"android":"levelo://app?vid=702a9da0-1ac3-4753-93c0-30dd564db13e","ios":"levelo://app?vid=702a9da0-1ac3-4753-93c0-30dd564db13e"},"vehicle_type_id":"4","last_reported":1687187223,"current_range_meters":27600,"station_id":"","pricing_plan_id":"free"},{"bike_id":"aac848bc-93c2-42bc-ad9c-8616a34532d4","system_id":"levelo_inurba_marseille","lat":43.296131,"lon":5.370791,"is_reserved":false,"is_disabled":false,"rental_uris":{"android":"levelo://app?vid=aac848bc-93c2-42bc-ad9c-8616a34532d4","ios":"levelo://app?vid=aac848bc-93c2-42bc-ad9c-8616a34532d4"},"vehicle_type_id":"4","last_reported":1687187223,"current_range_meters":31600,"station_id":"ce4bgnh2rcd13ifvqc0g","pricing_plan_id":"free"},{"bike_id":"a9d508f5-de2c-483b-b022-95e153ab10cd","system_id":"levelo_inurba_marseille","lat":43.29626,"lon":5.37171,"is_reserved":false,"is_disabled":false,"rental_uris":{"android":"levelo://app?vid=a9d508f5-de2c-483b-b022-95e153ab10cd","ios":"levelo://app?vid=a9d508f5-de2c-483b-b022-95e153ab10cd"},"vehicle_type_id":"4","last_reported":1687187223,"current_range_meters":18000,"station_id":"","pricing_plan_id":"free"},{"bike_id":"e67c49fb-19a3-4059-8f8b-977642a0d428","system_id":"levelo_inurba_marseille","lat":43.296131,"lon":5.370791,"is_reserved":false,"is_disabled":false,"rental_uris":{"android":"levelo://app?vid=e67c49fb-19a3-4059-8f8b-977642a0d428","ios":"levelo://app?vid=e67c49fb-19a3-4059-8f8b-977642a0d428"},"vehicle_type_id":"4","last_reported":1687187223,"current_range_meters":27600,"station_id":"ce4bgnh2rcd13ifvqc0g","pricing_plan_id":"free"},{"bike_id":"5e2c9e3e-5eb0-46a5-8157-9f09b2aaeaac","system_id":"levelo_inurba_marseille","lat":43.29588,"lon":5.36741,"is_reserved":false,"is_disabled":false,"rental_uris":{"android":"levelo://app?vid=5e2c9e3e-5eb0-46a5-8157-9f09b2aaeaac","ios":"levelo://app?vid=5e2c9e3e-5eb0-46a5-8157-9f09b2aaeaac"},"vehicle_type_id":"4","last_reported":1687187223,"current_range_meters":5600,"station_id":"ce4bgph2rcd13ifvqc2g","pricing_plan_id":"free"},{"bike_id":"f8f20535-cbbb-4bd3-8696-c2380f9a6eea","system_id":"levelo_inurba_marseille","lat":43.296129,"lon":5.370777,"is_reserved":false,"is_disabled":false,"rental_uris":{"android":"levelo://app?vid=f8f20535-cbbb-4bd3-8696-c2380f9a6eea","ios":"levelo://app?vid=f8f20535-cbbb-4bd3-8696-c2380f9a6eea"},"vehicle_type_id":"4","last_reported":1687187223,"current_range_meters":31600,"station_id":"ce4bgnh2rcd13ifvqc0g","pricing_plan_id":"free"},{"bike_id":"24f41ca5-b432-4feb-a0c8-a15026b97306","system_id":"levelo_inurba_marseille","lat":43.296131,"lon":5.370773,"is_reserved":false,"is_disabled":false,"rental_uris":{"android":"levelo://app?vid=24f41ca5-b432-4feb-a0c8-a15026b97306","ios":"levelo://app?vid=24f41ca5-b432-4feb-a0c8-a15026b97306"},"vehicle_type_id":"4","last_reported":1687187223,"current_range_meters":8000,"station_id":"ce4bgnh2rcd13ifvqc0g","pricing_plan_id":"free"},{"bike_id":"ff5723ef-2dc5-4237-b380-ed763e6c483e","system_id":"levelo_inurba_marseille","lat":43.31758,"lon":5.39014,"is_reserved":false,"is_disabled":false,"rental_uris":{"android":"levelo://app?vid=ff5723ef-2dc5-4237-b380-ed763e6c483e","ios":"levelo://app?vid=ff5723ef-2dc5-4237-b380-ed763e6c483e"},"vehicle_type_id":"4","last_reported":1687187223,"current_range_meters":23600,"station_id":"ce4bhqp2rcd13ifvqhng","pricing_plan_id":"free"},{"bike_id":"24f9675a-8d21-415b-aa49-c502ddb17978","system_id":"levelo_inurba_marseille","lat":43.317557,"lon":5.390173,"is_reserved":false,"is_disabled":false,"rental_uris":{"android":"levelo://app?vid=24f9675a-8d21-415b-aa49-c502ddb17978","ios":"levelo://app?vid=24f9675a-8d21-415b-aa49-c502ddb17978"},"vehicle_type_id":"4","last_reported":1687187223,"current_range_meters":21200,"station_id":"ce4bhqp2rcd13ifvqhng","pricing_plan_id":"free"},{"bike_id":"afb14255-2329-4147-83b5-02806e9cbaf2","system_id":"levelo_inurba_marseille","lat":43.317557,"lon":5.390173,"is_reserved":false,"is_disabled":false,"rental_uris":{"android":"levelo://app?vid=afb14255-2329-4147-83b5-02806e9cbaf2","ios":"levelo://app?vid=afb14255-2329-4147-83b5-02806e9cbaf2"},"vehicle_type_id":"4","last_reported":1687187223,"current_range_meters":28000,"station_id":"ce4bhqp2rcd13ifvqhng","pricing_plan_id":"free"},{"bike_id":"72d97b6f-4012-4954-86d7-430bbb201d19","system_id":"levelo_inurba_marseille","lat":43.295748,"lon":5.37522,"is_reserved":false,"is_disabled":false,"rental_uris":{"android":"levelo://app?vid=72d97b6f-4012-4954-86d7-430bbb201d19","ios":"levelo://app?vid=72d97b6f-4012-4954-86d7-430bbb201d19"},"vehicle_type_id":"4","last_reported":1687187223,"current_range_meters":17600,"station_id":"ce4bgh92rcd13ifvqb50","pricing_plan_id":"free"},{"bike_id":"6081c3d6-ef7b-4860-ab97-620d85c8f00c","system_id":"levelo_inurba_marseille","lat":43.295761,"lon":5.375029,"is_reserved":false,"is_disabled":false,"rental_uris":{"android":"levelo://app?vid=6081c3d6-ef7b-4860-ab97-620d85c8f00c","ios":"levelo://app?vid=6081c3d6-ef7b-4860-ab97-620d85c8f00c"},"vehicle_type_id":"4","last_reported":1687187223,"current_range_meters":12800,"station_id":"","pricing_plan_id":"free"},{"bike_id":"4f9f7c70-16e4-49f0-8936-5bcd6eadbd6a","system_id":"levelo_inurba_marseille","lat":43.295748,"lon":5.37522,"is_reserved":false,"is_disabled":false,"rental_uris":{"android":"levelo://app?vid=4f9f7c70-16e4-49f0-8936-5bcd6eadbd6a","ios":"levelo://app?vid=4f9f7c70-16e4-49f0-8936-5bcd6eadbd6a"},"vehicle_type_id":"4","last_reported":1687187223,"current_range_meters":21600,"station_id":"ce4bgh92rcd13ifvqb50","pricing_plan_id":"free"},{"bike_id":"250c8a96-8498-4211-b8f3-1b00a8d1fbaf","system_id":"levelo_inurba_marseille","lat":43.296477,"lon":5.37768,"is_reserved":false,"is_disabled":false,"rental_uris":{"android":"levelo://app?vid=250c8a96-8498-4211-b8f3-1b00a8d1fbaf","ios":"levelo://app?vid=250c8a96-8498-4211-b8f3-1b00a8d1fbaf"},"vehicle_type_id":"4","last_reported":1687187223,"current_range_meters":8400,"station_id":"","pricing_plan_id":"free"},{"bike_id":"d7865411-360c-421e-bf4b-a44045874c7a","system_id":"levelo_inurba_marseille","lat":43.304274,"lon":5.388873,"is_reserved":false,"is_disabled":false,"rental_uris":{"android":"levelo://app?vid=d7865411-360c-421e-bf4b-a44045874c7a","ios":"levelo://app?vid=d7865411-360c-421e-bf4b-a44045874c7a"},"vehicle_type_id":"4","last_reported":1687187223,"current_range_meters":28800,"station_id":"ce4bgk12rcd13ifvqbi0","pricing_plan_id":"free"},{"bike_id":"1fc85057-6d74-4914-883f-59e4bc253864","system_id":"levelo_inurba_marseille","lat":43.304278,"lon":5.388868,"is_reserved":false,"is_disabled":false,"rental_uris":{"android":"levelo://app?vid=1fc85057-6d74-4914-883f-59e4bc253864","ios":"levelo://app?vid=1fc85057-6d74-4914-883f-59e4bc253864"},"vehicle_type_id":"4","last_reported":1687187223,"current_range_meters":28000,"station_id":"ce4bgk12rcd13ifvqbi0","pricing_plan_id":"free"},{"bike_id":"0d12a744-f45e-4406-a3a9-86b4f419df8c","system_id":"levelo_inurba_marseille","lat":43.304274,"lon":5.388873,"is_reserved":false,"is_disabled":false,"rental_uris":{"android":"levelo://app?vid=0d12a744-f45e-4406-a3a9-86b4f419df8c","ios":"levelo://app?vid=0d12a744-f45e-4406-a3a9-86b4f419df8c"},"vehicle_type_id":"4","last_reported":1687187223,"current_range_meters":16000,"station_id":"ce4bgk12rcd13ifvqbi0","pricing_plan_id":"free"},{"bike_id":"33f1ad1e-4c72-4a38-ac09-877cc60b36da","system_id":"levelo_inurba_marseille","lat":43.304274,"lon":5.388873,"is_reserved":false,"is_disabled":false,"rental_uris":{"android":"levelo://app?vid=33f1ad1e-4c72-4a38-ac09-877cc60b36da","ios":"levelo://app?vid=33f1ad1e-4c72-4a38-ac09-877cc60b36da"},"vehicle_type_id":"4","last_reported":1687187223,"current_range_meters":24000,"station_id":"ce4bgk12rcd13ifvqbi0","pricing_plan_id":"free"},{"bike_id":"c01bdbe1-e181-4934-b884-5fb60e50863a","system_id":"levelo_inurba_marseille","lat":43.304278,"lon":5.388868,"is_reserved":false,"is_disabled":false,"rental_uris":{"android":"levelo://app?vid=c01bdbe1-e181-4934-b884-5fb60e50863a","ios":"levelo://app?vid=c01bdbe1-e181-4934-b884-5fb60e50863a"},"vehicle_type_id":"4","last_reported":1687187223,"current_range_meters":25600,"station_id":"ce4bgk12rcd13ifvqbi0","pricing_plan_id":"free"},{"bike_id":"050bfb57-713c-4984-abdc-f403bf558eca","system_id":"levelo_inurba_marseille","lat":43.29559,"lon":5.37499,"is_reserved":false,"is_disabled":false,"rental_uris":{"android":"levelo://app?vid=050bfb57-713c-4984-abdc-f403bf558eca","ios":"levelo://app?vid=050bfb57-713c-4984-abdc-f403bf558eca"},"vehicle_type_id":"4","last_reported":1687187223,"current_range_meters":31200,"station_id":"ce4bgh92rcd13ifvqb50","pricing_plan_id":"free"},{"bike_id":"55eee840-b307-46a0-84e4-1833400163cf","system_id":"levelo_inurba_marseille","lat":43.296263,"lon":5.377094,"is_reserved":false,"is_disabled":false,"rental_uris":{"android":"levelo://app?vid=55eee840-b307-46a0-84e4-1833400163cf","ios":"levelo://app?vid=55eee840-b307-46a0-84e4-1833400163cf"},"vehicle_type_id":"4","last_reported":1687187223,"current_range_meters":11200,"station_id":"ce4bgi92rcd13ifvqb90","pricing_plan_id":"free"},{"bike_id":"eb56f040-d7e3-440c-9d05-82afe187dd21","system_id":"levelo_inurba_marseille","lat":43.299724,"lon":5.384848,"is_reserved":false,"is_disabled":false,"rental_uris":{"android":"levelo://app?vid=eb56f040-d7e3-440c-9d05-82afe187dd21","ios":"levelo://app?vid=eb56f040-d7e3-440c-9d05-82afe187dd21"},"vehicle_type_id":"4","last_reported":1687187223,"current_range_meters":30400,"station_id":"ce4bgj92rcd13ifvqbd0","pricing_plan_id":"free"},{"bike_id":"c25bbca6-334a-48c9-b2aa-c69eb97c9d81","system_id":"levelo_inurba_marseille","lat":43.32367,"lon":5.388836,"is_reserved":false,"is_disabled":false,"rental_uris":{"android":"levelo://app?vid=c25bbca6-334a-48c9-b2aa-c69eb97c9d81","ios":"levelo://app?vid=c25bbca6-334a-48c9-b2aa-c69eb97c9d81"},"vehicle_type_id":"4","last_reported":1687187223,"current_range_meters":25600,"station_id":"ce4bhqp2rcd13ifvqhog","pricing_plan_id":"free"},{"bike_id":"ba3f44ed-ec92-4d7e-aecd-217b6f1da7fd","system_id":"levelo_inurba_marseille","lat":43.293249,"lon":5.371578,"is_reserved":false,"is_disabled":false,"rental_uris":{"android":"levelo://app?vid=ba3f44ed-ec92-4d7e-aecd-217b6f1da7fd","ios":"levelo://app?vid=ba3f44ed-ec92-4d7e-aecd-217b6f1da7fd"},"vehicle_type_id":"4","last_reported":1687187223,"current_range_meters":8000,"station_id":"ce4bgh92rcd13ifvqb40","pricing_plan_id":"free"},{"bike_id":"3f16f133-837f-4a5a-88f8-779efe40a942","system_id":"levelo_inurba_marseille","lat":43.293249,"lon":5.371578,"is_reserved":false,"is_disabled":false,"rental_uris":{"android":"levelo://app?vid=3f16f133-837f-4a5a-88f8-779efe40a942","ios":"levelo://app?vid=3f16f133-837f-4a5a-88f8-779efe40a942"},"vehicle_type_id":"4","last_reported":1687187223,"current_range_meters":1200,"station_id":"ce4bgh92rcd13ifvqb40","pricing_plan_id":"free"},{"bike_id":"3863f241-caf5-47cd-8b7f-5161ace41de3","system_id":"levelo_inurba_marseille","lat":43.292749,"lon":5.368398,"is_reserved":false,"is_disabled":false,"rental_uris":{"android":"levelo://app?vid=3863f241-caf5-47cd-8b7f-5161ace41de3","ios":"levelo://app?vid=3863f241-caf5-47cd-8b7f-5161ace41de3"},"vehicle_type_id":"4","last_reported":1687187223,"current_range_meters":19200,"station_id":"ce4bhbp2rcd13ifvqesg","pricing_plan_id":"free"},{"bike_id":"6caa4b56-474d-4894-9905-837e83aca8be","system_id":"levelo_inurba_marseille","lat":43.305825,"lon":5.393137,"is_reserved":false,"is_disabled":false,"rental_uris":{"android":"levelo://app?vid=6caa4b56-474d-4894-9905-837e83aca8be","ios":"levelo://app?vid=6caa4b56-474d-4894-9905-837e83aca8be"},"vehicle_type_id":"4","last_reported":1687187223,"current_range_meters":24000,"station_id":"ce4bh0p2rcd13ifvqd80","pricing_plan_id":"free"},{"bike_id":"ee4b70e1-255a-4be4-845b-979d1958e284","system_id":"levelo_inurba_marseille","lat":43.293009,"lon":5.374584,"is_reserved":false,"is_disabled":false,"rental_uris":{"android":"levelo://app?vid=ee4b70e1-255a-4be4-845b-979d1958e284","ios":"levelo://app?vid=ee4b70e1-255a-4be4-845b-979d1958e284"},"vehicle_type_id":"4","last_reported":1687187223,"current_range_meters":30000,"station_id":"ce4bgi12rcd13ifvqb70","pricing_plan_id":"free"},{"bike_id":"a229f675-ce52-42d9-a869-0b91e069235e","system_id":"levelo_inurba_marseille","lat":43.305994,"lon":5.393687,"is_reserved":false,"is_disabled":false,"rental_uris":{"android":"levelo://app?vid=a229f675-ce52-42d9-a869-0b91e069235e","ios":"levelo://app?vid=a229f675-ce52-42d9-a869-0b91e069235e"},"vehicle_type_id":"4","last_reported":1687187223,"current_range_meters":16000,"station_id":"ce4bh0p2rcd13ifvqd80","pricing_plan_id":"free"},{"bike_id":"f96bc5ef-773a-4c29-b818-b40707fecfaa","system_id":"levelo_inurba_marseille","lat":43.305994,"lon":5.393687,"is_reserved":false,"is_disabled":false,"rental_uris":{"android":"levelo://app?vid=f96bc5ef-773a-4c29-b818-b40707fecfaa","ios":"levelo://app?vid=f96bc5ef-773a-4c29-b818-b40707fecfaa"},"vehicle_type_id":"4","last_reported":1687187223,"current_range_meters":31600,"station_id":"ce4bh0p2rcd13ifvqd80","pricing_plan_id":"free"},{"bike_id":"c163ee3b-68c8-48fa-9ef4-6edfc50387a1","system_id":"levelo_inurba_marseille","lat":43.305994,"lon":5.393687,"is_reserved":false,"is_disabled":false,"rental_uris":{"android":"levelo://app?vid=c163ee3b-68c8-48fa-9ef4-6edfc50387a1","ios":"levelo://app?vid=c163ee3b-68c8-48fa-9ef4-6edfc50387a1"},"vehicle_type_id":"4","last_reported":1687187223,"current_range_meters":30400,"station_id":"ce4bh0p2rcd13ifvqd80","pricing_plan_id":"free"},{"bike_id":"659b5d8b-1631-48ee-8cff-de6411143e1c","system_id":"levelo_inurba_marseille","lat":43.30294,"lon":5.3919,"is_reserved":false,"is_disabled":false,"rental_uris":{"android":"levelo://app?vid=659b5d8b-1631-48ee-8cff-de6411143e1c","ios":"levelo://app?vid=659b5d8b-1631-48ee-8cff-de6411143e1c"},"vehicle_type_id":"4","last_reported":1687187223,"current_range_meters":0,"station_id":"ce4bgkh2rcd13ifvqbk0","pricing_plan_id":"free"},{"bike_id":"7ee8e857-e58f-4d0f-9ec8-cf55d6494b29","system_id":"levelo_inurba_marseille","lat":43.29276,"lon":5.35965,"is_reserved":false,"is_disabled":false,"rental_uris":{"android":"levelo://app?vid=7ee8e857-e58f-4d0f-9ec8-cf55d6494b29","ios":"levelo://app?vid=7ee8e857-e58f-4d0f-9ec8-cf55d6494b29"},"vehicle_type_id":"4","last_reported":1687187223,"current_range_meters":6400,"station_id":"","pricing_plan_id":"free"},{"bike_id":"ccde9848-a9cb-45a1-b327-8bee9795fc5d","system_id":"levelo_inurba_marseille","lat":43.2934,"lon":5.37699,"is_reserved":false,"is_disabled":false,"rental_uris":{"android":"levelo://app?vid=ccde9848-a9cb-45a1-b327-8bee9795fc5d","ios":"levelo://app?vid=ccde9848-a9cb-45a1-b327-8bee9795fc5d"},"vehicle_type_id":"4","last_reported":1687187223,"current_range_meters":18000,"station_id":"","pricing_plan_id":"free"},{"bike_id":"8349c469-dd59-4209-a2da-cbb54d63824f","system_id":"levelo_inurba_marseille","lat":43.302992,"lon":5.392136,"is_reserved":false,"is_disabled":false,"rental_uris":{"android":"levelo://app?vid=8349c469-dd59-4209-a2da-cbb54d63824f","ios":"levelo://app?vid=8349c469-dd59-4209-a2da-cbb54d63824f"},"vehicle_type_id":"4","last_reported":1687187223,"current_range_meters":14800,"station_id":"ce4bgkh2rcd13ifvqbk0","pricing_plan_id":"free"},{"bike_id":"a76625a4-5b04-4161-be0b-3ac7f07cfae7","system_id":"levelo_inurba_marseille","lat":43.300852,"lon":5.390859,"is_reserved":false,"is_disabled":false,"rental_uris":{"android":"levelo://app?vid=a76625a4-5b04-4161-be0b-3ac7f07cfae7","ios":"levelo://app?vid=a76625a4-5b04-4161-be0b-3ac7f07cfae7"},"vehicle_type_id":"4","last_reported":1687187223,"current_range_meters":18400,"station_id":"ce4bh192rcd13ifvqdb0","pricing_plan_id":"free"},{"bike_id":"7fece99f-4ebe-40a4-ad98-ecf6a8faec4b","system_id":"levelo_inurba_marseille","lat":43.298764,"lon":5.388973,"is_reserved":false,"is_disabled":false,"rental_uris":{"android":"levelo://app?vid=7fece99f-4ebe-40a4-ad98-ecf6a8faec4b","ios":"levelo://app?vid=7fece99f-4ebe-40a4-ad98-ecf6a8faec4b"},"vehicle_type_id":"4","last_reported":1687187223,"current_range_meters":12000,"station_id":"ce4bh392rcd13ifvqdl0","pricing_plan_id":"free"},{"bike_id":"286e4b5c-1cbd-4cfc-b074-a386e9a7764f","system_id":"levelo_inurba_marseille","lat":43.291671,"lon":5.371575,"is_reserved":false,"is_disabled":false,"rental_uris":{"android":"levelo://app?vid=286e4b5c-1cbd-4cfc-b074-a386e9a7764f","ios":"levelo://app?vid=286e4b5c-1cbd-4cfc-b074-a386e9a7764f"},"vehicle_type_id":"4","last_reported":1687187223,"current_range_meters":14400,"station_id":"ce4bha92rcd13ifvqeh0","pricing_plan_id":"free"},{"bike_id":"494fdc80-a7ee-4732-8cb9-9e151a007a77","system_id":"levelo_inurba_marseille","lat":43.291671,"lon":5.371575,"is_reserved":false,"is_disabled":false,"rental_uris":{"android":"levelo://app?vid=494fdc80-a7ee-4732-8cb9-9e151a007a77","ios":"levelo://app?vid=494fdc80-a7ee-4732-8cb9-9e151a007a77"},"vehicle_type_id":"4","last_reported":1687187223,"current_range_meters":7600,"station_id":"ce4bha92rcd13ifvqeh0","pricing_plan_id":"free"},{"bike_id":"2a584367-0972-4c6a-ac30-2bdd63b91d32","system_id":"levelo_inurba_marseille","lat":43.291675,"lon":5.371583,"is_reserved":false,"is_disabled":false,"rental_uris":{"android":"levelo://app?vid=2a584367-0972-4c6a-ac30-2bdd63b91d32","ios":"levelo://app?vid=2a584367-0972-4c6a-ac30-2bdd63b91d32"},"vehicle_type_id":"4","last_reported":1687187223,"current_range_meters":29600,"station_id":"ce4bha92rcd13ifvqeh0","pricing_plan_id":"free"},{"bike_id":"f8747f5b-8f97-41f6-971f-45695247303a","system_id":"levelo_inurba_marseille","lat":43.29156,"lon":5.37166,"is_reserved":false,"is_disabled":false,"rental_uris":{"android":"levelo://app?vid=f8747f5b-8f97-41f6-971f-45695247303a","ios":"levelo://app?vid=f8747f5b-8f97-41f6-971f-45695247303a"},"vehicle_type_id":"4","last_reported":1687187223,"current_range_meters":12000,"station_id":"ce4bha92rcd13ifvqeh0","pricing_plan_id":"free"},{"bike_id":"7d712a4b-190b-4b30-8ee8-fdca30d6a6b0","system_id":"levelo_inurba_marseille","lat":43.286591,"lon":5.363346,"is_reserved":false,"is_disabled":false,"rental_uris":{"android":"levelo://app?vid=7d712a4b-190b-4b30-8ee8-fdca30d6a6b0","ios":"levelo://app?vid=7d712a4b-190b-4b30-8ee8-fdca30d6a6b0"},"vehicle_type_id":"4","last_reported":1687187223,"current_range_meters":1600,"station_id":"ce4bhah2rcd13ifvqej0","pricing_plan_id":"free"},{"bike_id":"ba6a8336-0a69-458c-9c9f-b137e3b04246","system_id":"levelo_inurba_marseille","lat":43.309038,"lon":5.396546,"is_reserved":false,"is_disabled":false,"rental_uris":{"android":"levelo://app?vid=ba6a8336-0a69-458c-9c9f-b137e3b04246","ios":"levelo://app?vid=ba6a8336-0a69-458c-9c9f-b137e3b04246"},"vehicle_type_id":"4","last_reported":1687187223,"current_range_meters":12000,"station_id":"ce4bh012rcd13ifvqcv0","pricing_plan_id":"free"},{"bike_id":"04aef7bf-4938-4770-967b-c8f27010a96a","system_id":"levelo_inurba_marseille","lat":43.309038,"lon":5.396546,"is_reserved":false,"is_disabled":false,"rental_uris":{"android":"levelo://app?vid=04aef7bf-4938-4770-967b-c8f27010a96a","ios":"levelo://app?vid=04aef7bf-4938-4770-967b-c8f27010a96a"},"vehicle_type_id":"4","last_reported":1687187223,"current_range_meters":15600,"station_id":"ce4bh012rcd13ifvqcv0","pricing_plan_id":"free"},{"bike_id":"ccbc8fa4-0b03-4c79-85fb-b56c42e504b1","system_id":"levelo_inurba_marseille","lat":43.291994,"lon":5.357886,"is_reserved":false,"is_disabled":false,"rental_uris":{"android":"levelo://app?vid=ccbc8fa4-0b03-4c79-85fb-b56c42e504b1","ios":"levelo://app?vid=ccbc8fa4-0b03-4c79-85fb-b56c42e504b1"},"vehicle_type_id":"4","last_reported":1687187223,"current_range_meters":20800,"station_id":"ce4bhb12rcd13ifvqel0","pricing_plan_id":"free"},{"bike_id":"2551f2d8-be8d-46c8-ba00-1717cde3e8fe","system_id":"levelo_inurba_marseille","lat":43.291994,"lon":5.357886,"is_reserved":false,"is_disabled":false,"rental_uris":{"android":"levelo://app?vid=2551f2d8-be8d-46c8-ba00-1717cde3e8fe","ios":"levelo://app?vid=2551f2d8-be8d-46c8-ba00-1717cde3e8fe"},"vehicle_type_id":"4","last_reported":1687187223,"current_range_meters":6400,"station_id":"ce4bhb12rcd13ifvqel0","pricing_plan_id":"free"},{"bike_id":"d38c5de4-1b75-44fb-88b5-eb30bcdcd7d0","system_id":"levelo_inurba_marseille","lat":43.31325,"lon":5.396882,"is_reserved":false,"is_disabled":false,"rental_uris":{"android":"levelo://app?vid=d38c5de4-1b75-44fb-88b5-eb30bcdcd7d0","ios":"levelo://app?vid=d38c5de4-1b75-44fb-88b5-eb30bcdcd7d0"},"vehicle_type_id":"4","last_reported":1687187223,"current_range_meters":26000,"station_id":"","pricing_plan_id":"free"},{"bike_id":"e6a474a7-feb7-4b84-8566-9cf0823cd584","system_id":"levelo_inurba_marseille","lat":43.31327,"lon":5.3969,"is_reserved":false,"is_disabled":false,"rental_uris":{"android":"levelo://app?vid=e6a474a7-feb7-4b84-8566-9cf0823cd584","ios":"levelo://app?vid=e6a474a7-feb7-4b84-8566-9cf0823cd584"},"vehicle_type_id":"4","last_reported":1687187223,"current_range_meters":10000,"station_id":"ce4bgvp2rcd13ifvqcu0","pricing_plan_id":"free"},{"bike_id":"cc128447-49e3-42e4-ac67-2095af543a3d","system_id":"levelo_inurba_marseille","lat":43.309038,"lon":5.396546,"is_reserved":false,"is_disabled":false,"rental_uris":{"android":"levelo://app?vid=cc128447-49e3-42e4-ac67-2095af543a3d","ios":"levelo://app?vid=cc128447-49e3-42e4-ac67-2095af543a3d"},"vehicle_type_id":"4","last_reported":1687187223,"current_range_meters":30400,"station_id":"ce4bh012rcd13ifvqcv0","pricing_plan_id":"free"},{"bike_id":"75b5ae49-28a9-4f2d-aed7-f2c1de4b783f","system_id":"levelo_inurba_marseille","lat":43.313291,"lon":5.396838,"is_reserved":false,"is_disabled":false,"rental_uris":{"android":"levelo://app?vid=75b5ae49-28a9-4f2d-aed7-f2c1de4b783f","ios":"levelo://app?vid=75b5ae49-28a9-4f2d-aed7-f2c1de4b783f"},"vehicle_type_id":"4","last_reported":1687187223,"current_range_meters":24000,"station_id":"ce4bgvp2rcd13ifvqcu0","pricing_plan_id":"free"},{"bike_id":"2084ba59-3ab0-4dd5-a68e-2c48eb9c6900","system_id":"levelo_inurba_marseille","lat":43.309038,"lon":5.396546,"is_reserved":false,"is_disabled":false,"rental_uris":{"android":"levelo://app?vid=2084ba59-3ab0-4dd5-a68e-2c48eb9c6900","ios":"levelo://app?vid=2084ba59-3ab0-4dd5-a68e-2c48eb9c6900"},"vehicle_type_id":"4","last_reported":1687187223,"current_range_meters":28400,"station_id":"ce4bh012rcd13ifvqcv0","pricing_plan_id":"free"},{"bike_id":"351269f6-e107-434b-867f-a778524fd366","system_id":"levelo_inurba_marseille","lat":43.29529,"lon":5.385581,"is_reserved":false,"is_disabled":false,"rental_uris":{"android":"levelo://app?vid=351269f6-e107-434b-867f-a778524fd366","ios":"levelo://app?vid=351269f6-e107-434b-867f-a778524fd366"},"vehicle_type_id":"4","last_reported":1687187223,"current_range_meters":25600,"station_id":"ce4bgih2rcd13ifvqba0","pricing_plan_id":"free"},{"bike_id":"fda5d3ac-e949-4bce-a4bd-7b2d70d63870","system_id":"levelo_inurba_marseille","lat":43.29529,"lon":5.385581,"is_reserved":false,"is_disabled":false,"rental_uris":{"android":"levelo://app?vid=fda5d3ac-e949-4bce-a4bd-7b2d70d63870","ios":"levelo://app?vid=fda5d3ac-e949-4bce-a4bd-7b2d70d63870"},"vehicle_type_id":"4","last_reported":1687187223,"current_range_meters":31600,"station_id":"ce4bgih2rcd13ifvqba0","pricing_plan_id":"free"},{"bike_id":"de023c99-81e8-4f7a-97a1-a0998cb2e2e2","system_id":"levelo_inurba_marseille","lat":43.290779,"lon":5.371482,"is_reserved":false,"is_disabled":false,"rental_uris":{"android":"levelo://app?vid=de023c99-81e8-4f7a-97a1-a0998cb2e2e2","ios":"levelo://app?vid=de023c99-81e8-4f7a-97a1-a0998cb2e2e2"},"vehicle_type_id":"4","last_reported":1687187223,"current_range_meters":27200,"station_id":"ce4bh5p2rcd13ifvqe4g","pricing_plan_id":"free"},{"bike_id":"0ab31d27-4b2e-4ba0-a897-cff4eda477b4","system_id":"levelo_inurba_marseille","lat":43.290327,"lon":5.375711,"is_reserved":false,"is_disabled":false,"rental_uris":{"android":"levelo://app?vid=0ab31d27-4b2e-4ba0-a897-cff4eda477b4","ios":"levelo://app?vid=0ab31d27-4b2e-4ba0-a897-cff4eda477b4"},"vehicle_type_id":"4","last_reported":1687187223,"current_range_meters":9600,"station_id":"ce4bh692rcd13ifvqe90","pricing_plan_id":"free"},{"bike_id":"8ea39ed8-0125-4683-83b3-9654906e7eea","system_id":"levelo_inurba_marseille","lat":43.294153,"lon":5.386305,"is_reserved":false,"is_disabled":false,"rental_uris":{"android":"levelo://app?vid=8ea39ed8-0125-4683-83b3-9654906e7eea","ios":"levelo://app?vid=8ea39ed8-0125-4683-83b3-9654906e7eea"},"vehicle_type_id":"4","last_reported":1687187223,"current_range_meters":31600,"station_id":"ce4bh2h2rcd13ifvqdh0","pricing_plan_id":"free"},{"bike_id":"be09e98f-f3f9-4f24-88f4-989dee60ff6c","system_id":"levelo_inurba_marseille","lat":43.294153,"lon":5.386305,"is_reserved":false,"is_disabled":false,"rental_uris":{"android":"levelo://app?vid=be09e98f-f3f9-4f24-88f4-989dee60ff6c","ios":"levelo://app?vid=be09e98f-f3f9-4f24-88f4-989dee60ff6c"},"vehicle_type_id":"4","last_reported":1687187223,"current_range_meters":30400,"station_id":"ce4bh2h2rcd13ifvqdh0","pricing_plan_id":"free"},{"bike_id":"cdd67ed0-6807-4d18-9b4f-38d51e3e7de7","system_id":"levelo_inurba_marseille","lat":43.294162,"lon":5.386292,"is_reserved":false,"is_disabled":false,"rental_uris":{"android":"levelo://app?vid=cdd67ed0-6807-4d18-9b4f-38d51e3e7de7","ios":"levelo://app?vid=cdd67ed0-6807-4d18-9b4f-38d51e3e7de7"},"vehicle_type_id":"4","last_reported":1687187223,"current_range_meters":2800,"station_id":"ce4bh2h2rcd13ifvqdh0","pricing_plan_id":"free"},{"bike_id":"0609f09b-61e5-40d1-a057-3a5b9409ddd1","system_id":"levelo_inurba_marseille","lat":43.294153,"lon":5.386305,"is_reserved":false,"is_disabled":false,"rental_uris":{"android":"levelo://app?vid=0609f09b-61e5-40d1-a057-3a5b9409ddd1","ios":"levelo://app?vid=0609f09b-61e5-40d1-a057-3a5b9409ddd1"},"vehicle_type_id":"4","last_reported":1687187223,"current_range_meters":28400,"station_id":"ce4bh2h2rcd13ifvqdh0","pricing_plan_id":"free"},{"bike_id":"c6e45e65-c276-4a19-8dad-dfb0e4efd6c3","system_id":"levelo_inurba_marseille","lat":43.29418,"lon":5.38624,"is_reserved":false,"is_disabled":false,"rental_uris":{"android":"levelo://app?vid=c6e45e65-c276-4a19-8dad-dfb0e4efd6c3","ios":"levelo://app?vid=c6e45e65-c276-4a19-8dad-dfb0e4efd6c3"},"vehicle_type_id":"4","last_reported":1687187223,"current_range_meters":30800,"station_id":"","pricing_plan_id":"free"},{"bike_id":"77095a1b-5991-4642-970c-aaf7d77b85d5","system_id":"levelo_inurba_marseille","lat":43.294153,"lon":5.386305,"is_reserved":false,"is_disabled":false,"rental_uris":{"android":"levelo://app?vid=77095a1b-5991-4642-970c-aaf7d77b85d5","ios":"levelo://app?vid=77095a1b-5991-4642-970c-aaf7d77b85d5"},"vehicle_type_id":"4","last_reported":1687187223,"current_range_meters":18000,"station_id":"ce4bh2h2rcd13ifvqdh0","pricing_plan_id":"free"},{"bike_id":"01d12497-d499-4895-9ace-fbc07e8c89be","system_id":"levelo_inurba_marseille","lat":43.28928,"lon":5.3639,"is_reserved":false,"is_disabled":false,"rental_uris":{"android":"levelo://app?vid=01d12497-d499-4895-9ace-fbc07e8c89be","ios":"levelo://app?vid=01d12497-d499-4895-9ace-fbc07e8c89be"},"vehicle_type_id":"4","last_reported":1687187223,"current_range_meters":30000,"station_id":"ce4bhc92rcd13ifvqetg","pricing_plan_id":"free"},{"bike_id":"da8eabb1-eab6-4f75-a086-9888991c7cff","system_id":"levelo_inurba_marseille","lat":43.289468,"lon":5.363719,"is_reserved":false,"is_disabled":false,"rental_uris":{"android":"levelo://app?vid=da8eabb1-eab6-4f75-a086-9888991c7cff","ios":"levelo://app?vid=da8eabb1-eab6-4f75-a086-9888991c7cff"},"vehicle_type_id":"4","last_reported":1687187223,"current_range_meters":30800,"station_id":"ce4bhc92rcd13ifvqetg","pricing_plan_id":"free"},{"bike_id":"9ece1c9c-e991-4a01-9f02-fa6f8e291ab8","system_id":"levelo_inurba_marseille","lat":43.29341,"lon":5.38564,"is_reserved":false,"is_disabled":false,"rental_uris":{"android":"levelo://app?vid=9ece1c9c-e991-4a01-9f02-fa6f8e291ab8","ios":"levelo://app?vid=9ece1c9c-e991-4a01-9f02-fa6f8e291ab8"},"vehicle_type_id":"4","last_reported":1687187223,"current_range_meters":31200,"station_id":"","pricing_plan_id":"free"},{"bike_id":"bac27a8b-ae95-4376-b197-2db5e81cad13","system_id":"levelo_inurba_marseille","lat":43.292644,"lon":5.384257,"is_reserved":false,"is_disabled":false,"rental_uris":{"android":"levelo://app?vid=bac27a8b-ae95-4376-b197-2db5e81cad13","ios":"levelo://app?vid=bac27a8b-ae95-4376-b197-2db5e81cad13"},"vehicle_type_id":"4","last_reported":1687187223,"current_range_meters":25200,"station_id":"ce4bh692rcd13ifvqea0","pricing_plan_id":"free"},{"bike_id":"3b960e90-331d-42da-9107-be0ab8fbf9ae","system_id":"levelo_inurba_marseille","lat":43.292642,"lon":5.384254,"is_reserved":false,"is_disabled":false,"rental_uris":{"android":"levelo://app?vid=3b960e90-331d-42da-9107-be0ab8fbf9ae","ios":"levelo://app?vid=3b960e90-331d-42da-9107-be0ab8fbf9ae"},"vehicle_type_id":"4","last_reported":1687187223,"current_range_meters":2800,"station_id":"ce4bh692rcd13ifvqea0","pricing_plan_id":"free"},{"bike_id":"6a606ec0-8631-4538-ab6e-ffb4dbf2470c","system_id":"levelo_inurba_marseille","lat":43.292644,"lon":5.384257,"is_reserved":false,"is_disabled":false,"rental_uris":{"android":"levelo://app?vid=6a606ec0-8631-4538-ab6e-ffb4dbf2470c","ios":"levelo://app?vid=6a606ec0-8631-4538-ab6e-ffb4dbf2470c"},"vehicle_type_id":"4","last_reported":1687187223,"current_range_meters":27200,"station_id":"ce4bh692rcd13ifvqea0","pricing_plan_id":"free"},{"bike_id":"e75f7107-a9dc-444b-af8e-5ffd0cd951a5","system_id":"levelo_inurba_marseille","lat":43.292642,"lon":5.384254,"is_reserved":false,"is_disabled":false,"rental_uris":{"android":"levelo://app?vid=e75f7107-a9dc-444b-af8e-5ffd0cd951a5","ios":"levelo://app?vid=e75f7107-a9dc-444b-af8e-5ffd0cd951a5"},"vehicle_type_id":"4","last_reported":1687187223,"current_range_meters":20800,"station_id":"ce4bh692rcd13ifvqea0","pricing_plan_id":"free"},{"bike_id":"38eb09af-7166-42b9-865e-84246929498f","system_id":"levelo_inurba_marseille","lat":43.292644,"lon":5.384257,"is_reserved":false,"is_disabled":false,"rental_uris":{"android":"levelo://app?vid=38eb09af-7166-42b9-865e-84246929498f","ios":"levelo://app?vid=38eb09af-7166-42b9-865e-84246929498f"},"vehicle_type_id":"4","last_reported":1687187223,"current_range_meters":31600,"station_id":"ce4bh692rcd13ifvqea0","pricing_plan_id":"free"},{"bike_id":"9f99b50f-7f09-4513-a2a8-801b2f253037","system_id":"levelo_inurba_marseille","lat":43.292642,"lon":5.384254,"is_reserved":false,"is_disabled":false,"rental_uris":{"android":"levelo://app?vid=9f99b50f-7f09-4513-a2a8-801b2f253037","ios":"levelo://app?vid=9f99b50f-7f09-4513-a2a8-801b2f253037"},"vehicle_type_id":"4","last_reported":1687187223,"current_range_meters":31200,"station_id":"ce4bh692rcd13ifvqea0","pricing_plan_id":"free"},{"bike_id":"856302c7-b552-4b12-bc58-6bad65609b5c","system_id":"levelo_inurba_marseille","lat":43.292642,"lon":5.384254,"is_reserved":false,"is_disabled":false,"rental_uris":{"android":"levelo://app?vid=856302c7-b552-4b12-bc58-6bad65609b5c","ios":"levelo://app?vid=856302c7-b552-4b12-bc58-6bad65609b5c"},"vehicle_type_id":"4","last_reported":1687187223,"current_range_meters":26400,"station_id":"ce4bh692rcd13ifvqea0","pricing_plan_id":"free"},{"bike_id":"b1df00eb-45fe-49d0-bb74-c5f427476ef1","system_id":"levelo_inurba_marseille","lat":43.292642,"lon":5.384254,"is_reserved":false,"is_disabled":false,"rental_uris":{"android":"levelo://app?vid=b1df00eb-45fe-49d0-bb74-c5f427476ef1","ios":"levelo://app?vid=b1df00eb-45fe-49d0-bb74-c5f427476ef1"},"vehicle_type_id":"4","last_reported":1687187223,"current_range_meters":31600,"station_id":"ce4bh692rcd13ifvqea0","pricing_plan_id":"free"},{"bike_id":"fb879f92-0412-43db-ad19-f9e7c6de3009","system_id":"levelo_inurba_marseille","lat":43.290995,"lon":5.381361,"is_reserved":false,"is_disabled":false,"rental_uris":{"android":"levelo://app?vid=fb879f92-0412-43db-ad19-f9e7c6de3009","ios":"levelo://app?vid=fb879f92-0412-43db-ad19-f9e7c6de3009"},"vehicle_type_id":"4","last_reported":1687187223,"current_range_meters":23600,"station_id":"ce4bh512rcd13ifvqe2g","pricing_plan_id":"free"},{"bike_id":"bb16ffbf-4408-4d14-8407-80df72b898aa","system_id":"levelo_inurba_marseille","lat":43.290995,"lon":5.381361,"is_reserved":false,"is_disabled":false,"rental_uris":{"android":"levelo://app?vid=bb16ffbf-4408-4d14-8407-80df72b898aa","ios":"levelo://app?vid=bb16ffbf-4408-4d14-8407-80df72b898aa"},"vehicle_type_id":"4","last_reported":1687187223,"current_range_meters":14400,"station_id":"ce4bh512rcd13ifvqe2g","pricing_plan_id":"free"},{"bike_id":"7b02abb8-ff4c-4a70-9c37-0fb35f367da5","system_id":"levelo_inurba_marseille","lat":43.295169,"lon":5.390426,"is_reserved":false,"is_disabled":false,"rental_uris":{"android":"levelo://app?vid=7b02abb8-ff4c-4a70-9c37-0fb35f367da5","ios":"levelo://app?vid=7b02abb8-ff4c-4a70-9c37-0fb35f367da5"},"vehicle_type_id":"4","last_reported":1687187223,"current_range_meters":25200,"station_id":"ce4bh3p2rcd13ifvqdp0","pricing_plan_id":"free"},{"bike_id":"9ac8677d-16e7-46aa-b410-9fa8d152e965","system_id":"levelo_inurba_marseille","lat":43.297815,"lon":5.393548,"is_reserved":false,"is_disabled":false,"rental_uris":{"android":"levelo://app?vid=9ac8677d-16e7-46aa-b410-9fa8d152e965","ios":"levelo://app?vid=9ac8677d-16e7-46aa-b410-9fa8d152e965"},"vehicle_type_id":"4","last_reported":1687187223,"current_range_meters":25600,"station_id":"chh1huq6cuj3fo74tm60","pricing_plan_id":"free"},{"bike_id":"393e19f0-ff3d-4529-9b0c-4ae5f86ed9de","system_id":"levelo_inurba_marseille","lat":43.295169,"lon":5.390426,"is_reserved":false,"is_disabled":false,"rental_uris":{"android":"levelo://app?vid=393e19f0-ff3d-4529-9b0c-4ae5f86ed9de","ios":"levelo://app?vid=393e19f0-ff3d-4529-9b0c-4ae5f86ed9de"},"vehicle_type_id":"4","last_reported":1687187223,"current_range_meters":5200,"station_id":"ce4bh3p2rcd13ifvqdp0","pricing_plan_id":"free"},{"bike_id":"b9b44b37-7edf-4ab6-8685-17eb58a26dbc","system_id":"levelo_inurba_marseille","lat":43.295169,"lon":5.390426,"is_reserved":false,"is_disabled":false,"rental_uris":{"android":"levelo://app?vid=b9b44b37-7edf-4ab6-8685-17eb58a26dbc","ios":"levelo://app?vid=b9b44b37-7edf-4ab6-8685-17eb58a26dbc"},"vehicle_type_id":"4","last_reported":1687187223,"current_range_meters":31200,"station_id":"ce4bh3p2rcd13ifvqdp0","pricing_plan_id":"free"},{"bike_id":"fd6ae118-2bfa-47fe-9e3a-7043c821477c","system_id":"levelo_inurba_marseille","lat":43.30656,"lon":5.40077,"is_reserved":false,"is_disabled":false,"rental_uris":{"android":"levelo://app?vid=fd6ae118-2bfa-47fe-9e3a-7043c821477c","ios":"levelo://app?vid=fd6ae118-2bfa-47fe-9e3a-7043c821477c"},"vehicle_type_id":"4","last_reported":1687187223,"current_range_meters":28400,"station_id":"ce4bh112rcd13ifvqda0","pricing_plan_id":"free"},{"bike_id":"995d8c7e-6f97-4dca-81a0-d653b451e26f","system_id":"levelo_inurba_marseille","lat":43.30642,"lon":5.401031,"is_reserved":false,"is_disabled":false,"rental_uris":{"android":"levelo://app?vid=995d8c7e-6f97-4dca-81a0-d653b451e26f","ios":"levelo://app?vid=995d8c7e-6f97-4dca-81a0-d653b451e26f"},"vehicle_type_id":"4","last_reported":1687187223,"current_range_meters":26400,"station_id":"ce4bh112rcd13ifvqda0","pricing_plan_id":"free"},{"bike_id":"84235437-fc3e-48f8-8248-b3e75018958b","system_id":"levelo_inurba_marseille","lat":43.30642,"lon":5.401031,"is_reserved":false,"is_disabled":false,"rental_uris":{"android":"levelo://app?vid=84235437-fc3e-48f8-8248-b3e75018958b","ios":"levelo://app?vid=84235437-fc3e-48f8-8248-b3e75018958b"},"vehicle_type_id":"4","last_reported":1687187223,"current_range_meters":31200,"station_id":"ce4bh112rcd13ifvqda0","pricing_plan_id":"free"},{"bike_id":"41a8749b-6d93-4d1b-8e52-c5f60f65ae7c","system_id":"levelo_inurba_marseille","lat":43.33756,"lon":5.3745,"is_reserved":false,"is_disabled":false,"rental_uris":{"android":"levelo://app?vid=41a8749b-6d93-4d1b-8e52-c5f60f65ae7c","ios":"levelo://app?vid=41a8749b-6d93-4d1b-8e52-c5f60f65ae7c"},"vehicle_type_id":"4","last_reported":1687187223,"current_range_meters":31200,"station_id":"","pricing_plan_id":"free"},{"bike_id":"b90710d7-25f4-4c53-959d-f760d2921690","system_id":"levelo_inurba_marseille","lat":43.30642,"lon":5.401031,"is_reserved":false,"is_disabled":false,"rental_uris":{"android":"levelo://app?vid=b90710d7-25f4-4c53-959d-f760d2921690","ios":"levelo://app?vid=b90710d7-25f4-4c53-959d-f760d2921690"},"vehicle_type_id":"4","last_reported":1687187223,"current_range_meters":31200,"station_id":"ce4bh112rcd13ifvqda0","pricing_plan_id":"free"},{"bike_id":"cf806de2-5be4-45c9-9db3-7d97caeb7752","system_id":"levelo_inurba_marseille","lat":43.30642,"lon":5.401031,"is_reserved":false,"is_disabled":false,"rental_uris":{"android":"levelo://app?vid=cf806de2-5be4-45c9-9db3-7d97caeb7752","ios":"levelo://app?vid=cf806de2-5be4-45c9-9db3-7d97caeb7752"},"vehicle_type_id":"4","last_reported":1687187223,"current_range_meters":31200,"station_id":"ce4bh112rcd13ifvqda0","pricing_plan_id":"free"},{"bike_id":"83bce30a-5455-4c9e-922b-21c21465e074","system_id":"levelo_inurba_marseille","lat":43.30642,"lon":5.401031,"is_reserved":false,"is_disabled":false,"rental_uris":{"android":"levelo://app?vid=83bce30a-5455-4c9e-922b-21c21465e074","ios":"levelo://app?vid=83bce30a-5455-4c9e-922b-21c21465e074"},"vehicle_type_id":"4","last_reported":1687187223,"current_range_meters":19200,"station_id":"ce4bh112rcd13ifvqda0","pricing_plan_id":"free"},{"bike_id":"c0ead755-dc4b-4c6e-8991-947e654426d6","system_id":"levelo_inurba_marseille","lat":43.30642,"lon":5.40086,"is_reserved":false,"is_disabled":false,"rental_uris":{"android":"levelo://app?vid=c0ead755-dc4b-4c6e-8991-947e654426d6","ios":"levelo://app?vid=c0ead755-dc4b-4c6e-8991-947e654426d6"},"vehicle_type_id":"4","last_reported":1687187223,"current_range_meters":26400,"station_id":"","pricing_plan_id":"free"},{"bike_id":"b34b0b72-8cc8-4086-a968-440a07c19996","system_id":"levelo_inurba_marseille","lat":43.30628,"lon":5.40087,"is_reserved":false,"is_disabled":false,"rental_uris":{"android":"levelo://app?vid=b34b0b72-8cc8-4086-a968-440a07c19996","ios":"levelo://app?vid=b34b0b72-8cc8-4086-a968-440a07c19996"},"vehicle_type_id":"4","last_reported":1687187223,"current_range_meters":16400,"station_id":"","pricing_plan_id":"free"},{"bike_id":"e982dfab-12d4-471d-ab25-f6d80e030b50","system_id":"levelo_inurba_marseille","lat":43.286591,"lon":5.363346,"is_reserved":false,"is_disabled":false,"rental_uris":{"android":"levelo://app?vid=e982dfab-12d4-471d-ab25-f6d80e030b50","ios":"levelo://app?vid=e982dfab-12d4-471d-ab25-f6d80e030b50"},"vehicle_type_id":"4","last_reported":1687187223,"current_range_meters":28400,"station_id":"ce4bhah2rcd13ifvqej0","pricing_plan_id":"free"},{"bike_id":"9fefcb73-9c7a-4822-9f91-8d1185ab2eaa","system_id":"levelo_inurba_marseille","lat":43.286591,"lon":5.363346,"is_reserved":false,"is_disabled":false,"rental_uris":{"android":"levelo://app?vid=9fefcb73-9c7a-4822-9f91-8d1185ab2eaa","ios":"levelo://app?vid=9fefcb73-9c7a-4822-9f91-8d1185ab2eaa"},"vehicle_type_id":"4","last_reported":1687187223,"current_range_meters":10800,"station_id":"ce4bhah2rcd13ifvqej0","pricing_plan_id":"free"},{"bike_id":"0f8c3346-94ef-4d58-b4dc-c22223a16fe4","system_id":"levelo_inurba_marseille","lat":43.286591,"lon":5.363346,"is_reserved":false,"is_disabled":false,"rental_uris":{"android":"levelo://app?vid=0f8c3346-94ef-4d58-b4dc-c22223a16fe4","ios":"levelo://app?vid=0f8c3346-94ef-4d58-b4dc-c22223a16fe4"},"vehicle_type_id":"4","last_reported":1687187223,"current_range_meters":21600,"station_id":"ce4bhah2rcd13ifvqej0","pricing_plan_id":"free"},{"bike_id":"44ee5011-d0a7-44c6-91c5-492c57b878fc","system_id":"levelo_inurba_marseille","lat":43.286591,"lon":5.363346,"is_reserved":false,"is_disabled":false,"rental_uris":{"android":"levelo://app?vid=44ee5011-d0a7-44c6-91c5-492c57b878fc","ios":"levelo://app?vid=44ee5011-d0a7-44c6-91c5-492c57b878fc"},"vehicle_type_id":"4","last_reported":1687187223,"current_range_meters":24000,"station_id":"ce4bhah2rcd13ifvqej0","pricing_plan_id":"free"},{"bike_id":"44ebf620-1db2-4fb9-ab6a-c73cfc4bf145","system_id":"levelo_inurba_marseille","lat":43.286593,"lon":5.363346,"is_reserved":false,"is_disabled":false,"rental_uris":{"android":"levelo://app?vid=44ebf620-1db2-4fb9-ab6a-c73cfc4bf145","ios":"levelo://app?vid=44ebf620-1db2-4fb9-ab6a-c73cfc4bf145"},"vehicle_type_id":"4","last_reported":1687187223,"current_range_meters":12000,"station_id":"ce4bhah2rcd13ifvqej0","pricing_plan_id":"free"},{"bike_id":"c078b152-7fae-482e-b6b4-d3d74575e628","system_id":"levelo_inurba_marseille","lat":43.295194,"lon":5.39397,"is_reserved":false,"is_disabled":false,"rental_uris":{"android":"levelo://app?vid=c078b152-7fae-482e-b6b4-d3d74575e628","ios":"levelo://app?vid=c078b152-7fae-482e-b6b4-d3d74575e628"},"vehicle_type_id":"4","last_reported":1687187223,"current_range_meters":8000,"station_id":"ce4bh292rcd13ifvqdf0","pricing_plan_id":"free"},{"bike_id":"737ce61f-4dc6-4257-9c8f-4dcfd621cddb","system_id":"levelo_inurba_marseille","lat":43.295194,"lon":5.39397,"is_reserved":false,"is_disabled":false,"rental_uris":{"android":"levelo://app?vid=737ce61f-4dc6-4257-9c8f-4dcfd621cddb","ios":"levelo://app?vid=737ce61f-4dc6-4257-9c8f-4dcfd621cddb"},"vehicle_type_id":"4","last_reported":1687187223,"current_range_meters":25200,"station_id":"ce4bh292rcd13ifvqdf0","pricing_plan_id":"free"},{"bike_id":"35879ee5-e562-4bd0-84c3-3a54f97bb0b3","system_id":"levelo_inurba_marseille","lat":43.290345,"lon":5.38646,"is_reserved":false,"is_disabled":false,"rental_uris":{"android":"levelo://app?vid=35879ee5-e562-4bd0-84c3-3a54f97bb0b3","ios":"levelo://app?vid=35879ee5-e562-4bd0-84c3-3a54f97bb0b3"},"vehicle_type_id":"4","last_reported":1687187223,"current_range_meters":30000,"station_id":"ce4bh4p2rcd13ifvqe0g","pricing_plan_id":"free"},{"bike_id":"bb574eac-dde2-4834-9c15-1f59a3618fcf","system_id":"levelo_inurba_marseille","lat":43.290345,"lon":5.38646,"is_reserved":false,"is_disabled":false,"rental_uris":{"android":"levelo://app?vid=bb574eac-dde2-4834-9c15-1f59a3618fcf","ios":"levelo://app?vid=bb574eac-dde2-4834-9c15-1f59a3618fcf"},"vehicle_type_id":"4","last_reported":1687187223,"current_range_meters":2000,"station_id":"ce4bh4p2rcd13ifvqe0g","pricing_plan_id":"free"},{"bike_id":"3fe0df86-a6f2-411b-93cf-87287362b70f","system_id":"levelo_inurba_marseille","lat":43.302759,"lon":5.400793,"is_reserved":false,"is_disabled":false,"rental_uris":{"android":"levelo://app?vid=3fe0df86-a6f2-411b-93cf-87287362b70f","ios":"levelo://app?vid=3fe0df86-a6f2-411b-93cf-87287362b70f"},"vehicle_type_id":"4","last_reported":1687187223,"current_range_meters":19600,"station_id":"ce4bgvh2rcd13ifvqcs0","pricing_plan_id":"free"},{"bike_id":"6e4b8c9a-1ec6-459f-96e9-ae2332e61231","system_id":"levelo_inurba_marseille","lat":43.290345,"lon":5.38646,"is_reserved":false,"is_disabled":false,"rental_uris":{"android":"levelo://app?vid=6e4b8c9a-1ec6-459f-96e9-ae2332e61231","ios":"levelo://app?vid=6e4b8c9a-1ec6-459f-96e9-ae2332e61231"},"vehicle_type_id":"4","last_reported":1687187223,"current_range_meters":30800,"station_id":"ce4bh4p2rcd13ifvqe0g","pricing_plan_id":"free"},{"bike_id":"3930c86d-fef4-42ce-90c2-5b7a2920a8d3","system_id":"levelo_inurba_marseille","lat":43.290336,"lon":5.386425,"is_reserved":false,"is_disabled":false,"rental_uris":{"android":"levelo://app?vid=3930c86d-fef4-42ce-90c2-5b7a2920a8d3","ios":"levelo://app?vid=3930c86d-fef4-42ce-90c2-5b7a2920a8d3"},"vehicle_type_id":"4","last_reported":1687187223,"current_range_meters":30400,"station_id":"ce4bh4p2rcd13ifvqe0g","pricing_plan_id":"free"},{"bike_id":"226721e2-5fdf-410a-8814-d8d42da95ebb","system_id":"levelo_inurba_marseille","lat":43.31648,"lon":5.4043,"is_reserved":false,"is_disabled":false,"rental_uris":{"android":"levelo://app?vid=226721e2-5fdf-410a-8814-d8d42da95ebb","ios":"levelo://app?vid=226721e2-5fdf-410a-8814-d8d42da95ebb"},"vehicle_type_id":"4","last_reported":1687187223,"current_range_meters":24000,"station_id":"ce4bh012rcd13ifvqd00","pricing_plan_id":"free"},{"bike_id":"a136a00f-3b9f-45fd-96bb-5825e7ba4b0c","system_id":"levelo_inurba_marseille","lat":43.316517,"lon":5.404375,"is_reserved":false,"is_disabled":false,"rental_uris":{"android":"levelo://app?vid=a136a00f-3b9f-45fd-96bb-5825e7ba4b0c","ios":"levelo://app?vid=a136a00f-3b9f-45fd-96bb-5825e7ba4b0c"},"vehicle_type_id":"4","last_reported":1687187223,"current_range_meters":27600,"station_id":"ce4bh012rcd13ifvqd00","pricing_plan_id":"free"},{"bike_id":"58367e93-1570-4f94-b9d4-75cf413e6174","system_id":"levelo_inurba_marseille","lat":43.316517,"lon":5.404375,"is_reserved":false,"is_disabled":false,"rental_uris":{"android":"levelo://app?vid=58367e93-1570-4f94-b9d4-75cf413e6174","ios":"levelo://app?vid=58367e93-1570-4f94-b9d4-75cf413e6174"},"vehicle_type_id":"4","last_reported":1687187223,"current_range_meters":17600,"station_id":"ce4bh012rcd13ifvqd00","pricing_plan_id":"free"},{"bike_id":"409b9bd5-8174-48de-9056-422a98bf9141","system_id":"levelo_inurba_marseille","lat":43.316517,"lon":5.404375,"is_reserved":false,"is_disabled":false,"rental_uris":{"android":"levelo://app?vid=409b9bd5-8174-48de-9056-422a98bf9141","ios":"levelo://app?vid=409b9bd5-8174-48de-9056-422a98bf9141"},"vehicle_type_id":"4","last_reported":1687187223,"current_range_meters":6800,"station_id":"ce4bh012rcd13ifvqd00","pricing_plan_id":"free"},{"bike_id":"836862bd-cd83-44cb-9a0e-b548d4faa65f","system_id":"levelo_inurba_marseille","lat":43.31641,"lon":5.40442,"is_reserved":false,"is_disabled":false,"rental_uris":{"android":"levelo://app?vid=836862bd-cd83-44cb-9a0e-b548d4faa65f","ios":"levelo://app?vid=836862bd-cd83-44cb-9a0e-b548d4faa65f"},"vehicle_type_id":"4","last_reported":1687187223,"current_range_meters":18400,"station_id":"ce4bh012rcd13ifvqd00","pricing_plan_id":"free"},{"bike_id":"0505026c-d4bd-48a5-b07a-d1970a8b0509","system_id":"levelo_inurba_marseille","lat":43.291994,"lon":5.392907,"is_reserved":false,"is_disabled":false,"rental_uris":{"android":"levelo://app?vid=0505026c-d4bd-48a5-b07a-d1970a8b0509","ios":"levelo://app?vid=0505026c-d4bd-48a5-b07a-d1970a8b0509"},"vehicle_type_id":"4","last_reported":1687187223,"current_range_meters":16000,"station_id":"ce4bh192rcd13ifvqdd0","pricing_plan_id":"free"},{"bike_id":"5c28a2ac-9978-4896-8fc9-05b980eb737a","system_id":"levelo_inurba_marseille","lat":43.291994,"lon":5.392907,"is_reserved":false,"is_disabled":false,"rental_uris":{"android":"levelo://app?vid=5c28a2ac-9978-4896-8fc9-05b980eb737a","ios":"levelo://app?vid=5c28a2ac-9978-4896-8fc9-05b980eb737a"},"vehicle_type_id":"4","last_reported":1687187223,"current_range_meters":3200,"station_id":"ce4bh192rcd13ifvqdd0","pricing_plan_id":"free"},{"bike_id":"3c27ea67-17dd-4e36-af7f-379b7388d755","system_id":"levelo_inurba_marseille","lat":43.291994,"lon":5.392907,"is_reserved":false,"is_disabled":false,"rental_uris":{"android":"levelo://app?vid=3c27ea67-17dd-4e36-af7f-379b7388d755","ios":"levelo://app?vid=3c27ea67-17dd-4e36-af7f-379b7388d755"},"vehicle_type_id":"4","last_reported":1687187223,"current_range_meters":30800,"station_id":"ce4bh192rcd13ifvqdd0","pricing_plan_id":"free"},{"bike_id":"a7fc1897-79df-49f5-b5a0-3a86b7ed938b","system_id":"levelo_inurba_marseille","lat":43.33353,"lon":5.39375,"is_reserved":false,"is_disabled":false,"rental_uris":{"android":"levelo://app?vid=a7fc1897-79df-49f5-b5a0-3a86b7ed938b","ios":"levelo://app?vid=a7fc1897-79df-49f5-b5a0-3a86b7ed938b"},"vehicle_type_id":"4","last_reported":1687187223,"current_range_meters":5200,"station_id":"","pricing_plan_id":"free"},{"bike_id":"7d13404c-2fc5-4d1f-b04b-2fe37b20a19a","system_id":"levelo_inurba_marseille","lat":43.28467,"lon":5.35892,"is_reserved":false,"is_disabled":false,"rental_uris":{"android":"levelo://app?vid=7d13404c-2fc5-4d1f-b04b-2fe37b20a19a","ios":"levelo://app?vid=7d13404c-2fc5-4d1f-b04b-2fe37b20a19a"},"vehicle_type_id":"4","last_reported":1687187223,"current_range_meters":14400,"station_id":"ce4bhah2rcd13ifvqei0","pricing_plan_id":"free"},{"bike_id":"c66ce1e7-f270-443d-81c3-c611c6f9740a","system_id":"levelo_inurba_marseille","lat":43.284534,"lon":5.358662,"is_reserved":false,"is_disabled":false,"rental_uris":{"android":"levelo://app?vid=c66ce1e7-f270-443d-81c3-c611c6f9740a","ios":"levelo://app?vid=c66ce1e7-f270-443d-81c3-c611c6f9740a"},"vehicle_type_id":"4","last_reported":1687187223,"current_range_meters":15600,"station_id":"ce4bhah2rcd13ifvqei0","pricing_plan_id":"free"},{"bike_id":"a1ee3c1a-b11c-4325-a470-4c91f81ab745","system_id":"levelo_inurba_marseille","lat":43.284534,"lon":5.358662,"is_reserved":false,"is_disabled":false,"rental_uris":{"android":"levelo://app?vid=a1ee3c1a-b11c-4325-a470-4c91f81ab745","ios":"levelo://app?vid=a1ee3c1a-b11c-4325-a470-4c91f81ab745"},"vehicle_type_id":"4","last_reported":1687187223,"current_range_meters":14000,"station_id":"ce4bhah2rcd13ifvqei0","pricing_plan_id":"free"},{"bike_id":"7f684ca4-bf5b-4229-993b-ffee8bd6d310","system_id":"levelo_inurba_marseille","lat":43.294314,"lon":5.397498,"is_reserved":false,"is_disabled":false,"rental_uris":{"android":"levelo://app?vid=7f684ca4-bf5b-4229-993b-ffee8bd6d310","ios":"levelo://app?vid=7f684ca4-bf5b-4229-993b-ffee8bd6d310"},"vehicle_type_id":"4","last_reported":1687187223,"current_range_meters":20800,"station_id":"ce4bh3h2rcd13ifvqdo0","pricing_plan_id":"free"},{"bike_id":"a7e4ff6b-2639-4225-a8e4-dab3f8410ffb","system_id":"levelo_inurba_marseille","lat":43.285856,"lon":5.350771,"is_reserved":false,"is_disabled":false,"rental_uris":{"android":"levelo://app?vid=a7e4ff6b-2639-4225-a8e4-dab3f8410ffb","ios":"levelo://app?vid=a7e4ff6b-2639-4225-a8e4-dab3f8410ffb"},"vehicle_type_id":"4","last_reported":1687187223,"current_range_meters":800,"station_id":"ce4bhch2rcd13ifvqeug","pricing_plan_id":"free"},{"bike_id":"c8c12ea6-2122-4281-a93a-f5ac1db81b95","system_id":"levelo_inurba_marseille","lat":43.28619,"lon":5.35101,"is_reserved":false,"is_disabled":false,"rental_uris":{"android":"levelo://app?vid=c8c12ea6-2122-4281-a93a-f5ac1db81b95","ios":"levelo://app?vid=c8c12ea6-2122-4281-a93a-f5ac1db81b95"},"vehicle_type_id":"4","last_reported":1687187223,"current_range_meters":19600,"station_id":"ce4bhch2rcd13ifvqeug","pricing_plan_id":"free"},{"bike_id":"327d3645-e08f-494d-974a-95eee4bc70d1","system_id":"levelo_inurba_marseille","lat":43.285856,"lon":5.350771,"is_reserved":false,"is_disabled":false,"rental_uris":{"android":"levelo://app?vid=327d3645-e08f-494d-974a-95eee4bc70d1","ios":"levelo://app?vid=327d3645-e08f-494d-974a-95eee4bc70d1"},"vehicle_type_id":"4","last_reported":1687187223,"current_range_meters":16400,"station_id":"ce4bhch2rcd13ifvqeug","pricing_plan_id":"free"},{"bike_id":"44173690-cf4a-4c4f-8b2f-36e8e3503e49","system_id":"levelo_inurba_marseille","lat":43.285856,"lon":5.350771,"is_reserved":false,"is_disabled":false,"rental_uris":{"android":"levelo://app?vid=44173690-cf4a-4c4f-8b2f-36e8e3503e49","ios":"levelo://app?vid=44173690-cf4a-4c4f-8b2f-36e8e3503e49"},"vehicle_type_id":"4","last_reported":1687187223,"current_range_meters":16400,"station_id":"ce4bhch2rcd13ifvqeug","pricing_plan_id":"free"},{"bike_id":"101fb788-652b-4faf-a1ef-33558f5bd9c1","system_id":"levelo_inurba_marseille","lat":43.283998,"lon":5.375062,"is_reserved":false,"is_disabled":false,"rental_uris":{"android":"levelo://app?vid=101fb788-652b-4faf-a1ef-33558f5bd9c1","ios":"levelo://app?vid=101fb788-652b-4faf-a1ef-33558f5bd9c1"},"vehicle_type_id":"4","last_reported":1687187223,"current_range_meters":3600,"station_id":"ce4bh412rcd13ifvqds0","pricing_plan_id":"free"},{"bike_id":"f4505f3b-49fc-45e9-97c9-48f8b5fd992c","system_id":"levelo_inurba_marseille","lat":43.283998,"lon":5.375062,"is_reserved":false,"is_disabled":false,"rental_uris":{"android":"levelo://app?vid=f4505f3b-49fc-45e9-97c9-48f8b5fd992c","ios":"levelo://app?vid=f4505f3b-49fc-45e9-97c9-48f8b5fd992c"},"vehicle_type_id":"4","last_reported":1687187223,"current_range_meters":14000,"station_id":"ce4bh412rcd13ifvqds0","pricing_plan_id":"free"},{"bike_id":"43275ef6-770c-4f0e-926c-1c3aecd7abec","system_id":"levelo_inurba_marseille","lat":43.287909,"lon":5.390554,"is_reserved":false,"is_disabled":false,"rental_uris":{"android":"levelo://app?vid=43275ef6-770c-4f0e-926c-1c3aecd7abec","ios":"levelo://app?vid=43275ef6-770c-4f0e-926c-1c3aecd7abec"},"vehicle_type_id":"4","last_reported":1687187223,"current_range_meters":8400,"station_id":"","pricing_plan_id":"free"},{"bike_id":"f6fda2f2-04f1-4377-bae3-2fc212d95c47","system_id":"levelo_inurba_marseille","lat":43.34265,"lon":5.35951,"is_reserved":false,"is_disabled":false,"rental_uris":{"android":"levelo://app?vid=f6fda2f2-04f1-4377-bae3-2fc212d95c47","ios":"levelo://app?vid=f6fda2f2-04f1-4377-bae3-2fc212d95c47"},"vehicle_type_id":"4","last_reported":1687187223,"current_range_meters":17600,"station_id":"","pricing_plan_id":"free"},{"bike_id":"68dfeda8-7b1c-4471-8576-aba693a3c5f8","system_id":"levelo_inurba_marseille","lat":43.323464,"lon":5.406297,"is_reserved":false,"is_disabled":false,"rental_uris":{"android":"levelo://app?vid=68dfeda8-7b1c-4471-8576-aba693a3c5f8","ios":"levelo://app?vid=68dfeda8-7b1c-4471-8576-aba693a3c5f8"},"vehicle_type_id":"4","last_reported":1687187223,"current_range_meters":28400,"station_id":"ce4bhq92rcd13ifvqhjg","pricing_plan_id":"free"},{"bike_id":"6b33b823-a9ad-4472-a50b-496ff723b581","system_id":"levelo_inurba_marseille","lat":43.32335,"lon":5.40624,"is_reserved":false,"is_disabled":false,"rental_uris":{"android":"levelo://app?vid=6b33b823-a9ad-4472-a50b-496ff723b581","ios":"levelo://app?vid=6b33b823-a9ad-4472-a50b-496ff723b581"},"vehicle_type_id":"4","last_reported":1687187223,"current_range_meters":22400,"station_id":"ce4bhq92rcd13ifvqhjg","pricing_plan_id":"free"},{"bike_id":"00b4d942-d645-4a17-a320-9c02b5ecca68","system_id":"levelo_inurba_marseille","lat":43.288501,"lon":5.393087,"is_reserved":false,"is_disabled":false,"rental_uris":{"android":"levelo://app?vid=00b4d942-d645-4a17-a320-9c02b5ecca68","ios":"levelo://app?vid=00b4d942-d645-4a17-a320-9c02b5ecca68"},"vehicle_type_id":"4","last_reported":1687187223,"current_range_meters":17600,"station_id":"ce4bh2p2rcd13ifvqdi0","pricing_plan_id":"free"},{"bike_id":"059e177b-7f81-4257-8f09-674009d4f829","system_id":"levelo_inurba_marseille","lat":43.284787,"lon":5.384116,"is_reserved":false,"is_disabled":false,"rental_uris":{"android":"levelo://app?vid=059e177b-7f81-4257-8f09-674009d4f829","ios":"levelo://app?vid=059e177b-7f81-4257-8f09-674009d4f829"},"vehicle_type_id":"4","last_reported":1687187223,"current_range_meters":12400,"station_id":"ce4bh512rcd13ifvqe3g","pricing_plan_id":"free"},{"bike_id":"cf8a67f9-e26f-4a99-961b-634fda590eba","system_id":"levelo_inurba_marseille","lat":43.288501,"lon":5.393087,"is_reserved":false,"is_disabled":false,"rental_uris":{"android":"levelo://app?vid=cf8a67f9-e26f-4a99-961b-634fda590eba","ios":"levelo://app?vid=cf8a67f9-e26f-4a99-961b-634fda590eba"},"vehicle_type_id":"4","last_reported":1687187223,"current_range_meters":28800,"station_id":"ce4bh2p2rcd13ifvqdi0","pricing_plan_id":"free"},{"bike_id":"15e90c19-3eef-45cc-88bd-1122dc5cca9b","system_id":"levelo_inurba_marseille","lat":43.288501,"lon":5.393087,"is_reserved":false,"is_disabled":false,"rental_uris":{"android":"levelo://app?vid=15e90c19-3eef-45cc-88bd-1122dc5cca9b","ios":"levelo://app?vid=15e90c19-3eef-45cc-88bd-1122dc5cca9b"},"vehicle_type_id":"4","last_reported":1687187223,"current_range_meters":13200,"station_id":"ce4bh2p2rcd13ifvqdi0","pricing_plan_id":"free"},{"bike_id":"bca55e3a-093c-4192-98d1-46d82c557788","system_id":"levelo_inurba_marseille","lat":43.288497,"lon":5.393089,"is_reserved":false,"is_disabled":false,"rental_uris":{"android":"levelo://app?vid=bca55e3a-093c-4192-98d1-46d82c557788","ios":"levelo://app?vid=bca55e3a-093c-4192-98d1-46d82c557788"},"vehicle_type_id":"4","last_reported":1687187223,"current_range_meters":29200,"station_id":"ce4bh2p2rcd13ifvqdi0","pricing_plan_id":"free"},{"bike_id":"0104eb66-e4ba-4ee3-ba8d-2d5c7e8a9fb8","system_id":"levelo_inurba_marseille","lat":43.284217,"lon":5.349697,"is_reserved":false,"is_disabled":false,"rental_uris":{"android":"levelo://app?vid=0104eb66-e4ba-4ee3-ba8d-2d5c7e8a9fb8","ios":"levelo://app?vid=0104eb66-e4ba-4ee3-ba8d-2d5c7e8a9fb8"},"vehicle_type_id":"4","last_reported":1687187223,"current_range_meters":0,"station_id":"ce4bhbh2rcd13ifvqepg","pricing_plan_id":"free"},{"bike_id":"16e5fedd-6e86-436a-a0a2-72c7cd60a6ea","system_id":"levelo_inurba_marseille","lat":43.32181,"lon":5.40791,"is_reserved":false,"is_disabled":false,"rental_uris":{"android":"levelo://app?vid=16e5fedd-6e86-436a-a0a2-72c7cd60a6ea","ios":"levelo://app?vid=16e5fedd-6e86-436a-a0a2-72c7cd60a6ea"},"vehicle_type_id":"4","last_reported":1687187223,"current_range_meters":28000,"station_id":"","pricing_plan_id":"free"},{"bike_id":"936e34e9-0e0e-4fae-8bf6-f5f12eae190d","system_id":"levelo_inurba_marseille","lat":43.292724,"lon":5.401131,"is_reserved":false,"is_disabled":false,"rental_uris":{"android":"levelo://app?vid=936e34e9-0e0e-4fae-8bf6-f5f12eae190d","ios":"levelo://app?vid=936e34e9-0e0e-4fae-8bf6-f5f12eae190d"},"vehicle_type_id":"4","last_reported":1687187223,"current_range_meters":17200,"station_id":"ce4bh312rcd13ifvqdk0","pricing_plan_id":"free"},{"bike_id":"2c00e75a-eb14-47a2-a6ee-02ba2f155954","system_id":"levelo_inurba_marseille","lat":43.292724,"lon":5.401131,"is_reserved":false,"is_disabled":false,"rental_uris":{"android":"levelo://app?vid=2c00e75a-eb14-47a2-a6ee-02ba2f155954","ios":"levelo://app?vid=2c00e75a-eb14-47a2-a6ee-02ba2f155954"},"vehicle_type_id":"4","last_reported":1687187223,"current_range_meters":20400,"station_id":"ce4bh312rcd13ifvqdk0","pricing_plan_id":"free"},{"bike_id":"0431b95c-244b-43cf-97c0-7114e8fc397b","system_id":"levelo_inurba_marseille","lat":43.292724,"lon":5.401131,"is_reserved":false,"is_disabled":false,"rental_uris":{"android":"levelo://app?vid=0431b95c-244b-43cf-97c0-7114e8fc397b","ios":"levelo://app?vid=0431b95c-244b-43cf-97c0-7114e8fc397b"},"vehicle_type_id":"4","last_reported":1687187223,"current_range_meters":29600,"station_id":"ce4bh312rcd13ifvqdk0","pricing_plan_id":"free"},{"bike_id":"ddf3db2d-89e8-446c-a514-e8440562ca77","system_id":"levelo_inurba_marseille","lat":43.282754,"lon":5.350519,"is_reserved":false,"is_disabled":false,"rental_uris":{"android":"levelo://app?vid=ddf3db2d-89e8-446c-a514-e8440562ca77","ios":"levelo://app?vid=ddf3db2d-89e8-446c-a514-e8440562ca77"},"vehicle_type_id":"4","last_reported":1687187223,"current_range_meters":6000,"station_id":"ce4bhbp2rcd13ifvqerg","pricing_plan_id":"free"},{"bike_id":"7ce19e91-4c71-47db-9920-cfb2caa1d66c","system_id":"levelo_inurba_marseille","lat":43.283502,"lon":5.386471,"is_reserved":false,"is_disabled":false,"rental_uris":{"android":"levelo://app?vid=7ce19e91-4c71-47db-9920-cfb2caa1d66c","ios":"levelo://app?vid=7ce19e91-4c71-47db-9920-cfb2caa1d66c"},"vehicle_type_id":"4","last_reported":1687187223,"current_range_meters":7600,"station_id":"ce4bh492rcd13ifvqdvg","pricing_plan_id":"free"},{"bike_id":"43b1ab57-13f8-454d-92cd-79403f9c49c1","system_id":"levelo_inurba_marseille","lat":43.28039,"lon":5.369297,"is_reserved":false,"is_disabled":false,"rental_uris":{"android":"levelo://app?vid=43b1ab57-13f8-454d-92cd-79403f9c49c1","ios":"levelo://app?vid=43b1ab57-13f8-454d-92cd-79403f9c49c1"},"vehicle_type_id":"4","last_reported":1687187223,"current_range_meters":27600,"station_id":"ce4bha12rcd13ifvqef0","pricing_plan_id":"free"},{"bike_id":"ddb86d8c-6ec5-40ce-858f-b6e7296da0d3","system_id":"levelo_inurba_marseille","lat":43.282754,"lon":5.350519,"is_reserved":false,"is_disabled":false,"rental_uris":{"android":"levelo://app?vid=ddb86d8c-6ec5-40ce-858f-b6e7296da0d3","ios":"levelo://app?vid=ddb86d8c-6ec5-40ce-858f-b6e7296da0d3"},"vehicle_type_id":"4","last_reported":1687187223,"current_range_meters":16000,"station_id":"ce4bhbp2rcd13ifvqerg","pricing_plan_id":"free"},{"bike_id":"3f407e81-7788-419a-992b-73dd4ea2f7a3","system_id":"levelo_inurba_marseille","lat":43.282754,"lon":5.350519,"is_reserved":false,"is_disabled":false,"rental_uris":{"android":"levelo://app?vid=3f407e81-7788-419a-992b-73dd4ea2f7a3","ios":"levelo://app?vid=3f407e81-7788-419a-992b-73dd4ea2f7a3"},"vehicle_type_id":"4","last_reported":1687187223,"current_range_meters":26800,"station_id":"ce4bhbp2rcd13ifvqerg","pricing_plan_id":"free"},{"bike_id":"b42dd19c-3a73-4275-9b21-53f61ca8bf27","system_id":"levelo_inurba_marseille","lat":43.28039,"lon":5.369297,"is_reserved":false,"is_disabled":false,"rental_uris":{"android":"levelo://app?vid=b42dd19c-3a73-4275-9b21-53f61ca8bf27","ios":"levelo://app?vid=b42dd19c-3a73-4275-9b21-53f61ca8bf27"},"vehicle_type_id":"4","last_reported":1687187223,"current_range_meters":26000,"station_id":"ce4bha12rcd13ifvqef0","pricing_plan_id":"free"},{"bike_id":"a38f4b00-bf04-426d-8624-9240368969c4","system_id":"levelo_inurba_marseille","lat":43.28039,"lon":5.369297,"is_reserved":false,"is_disabled":false,"rental_uris":{"android":"levelo://app?vid=a38f4b00-bf04-426d-8624-9240368969c4","ios":"levelo://app?vid=a38f4b00-bf04-426d-8624-9240368969c4"},"vehicle_type_id":"4","last_reported":1687187223,"current_range_meters":28800,"station_id":"ce4bha12rcd13ifvqef0","pricing_plan_id":"free"},{"bike_id":"f39ce8e2-fa86-408f-af63-04e3215f2058","system_id":"levelo_inurba_marseille","lat":43.28039,"lon":5.369297,"is_reserved":false,"is_disabled":false,"rental_uris":{"android":"levelo://app?vid=f39ce8e2-fa86-408f-af63-04e3215f2058","ios":"levelo://app?vid=f39ce8e2-fa86-408f-af63-04e3215f2058"},"vehicle_type_id":"4","last_reported":1687187223,"current_range_meters":27200,"station_id":"ce4bha12rcd13ifvqef0","pricing_plan_id":"free"},{"bike_id":"b4e36854-260d-4f9e-b84e-43d9b05315fb","system_id":"levelo_inurba_marseille","lat":43.28039,"lon":5.369297,"is_reserved":false,"is_disabled":false,"rental_uris":{"android":"levelo://app?vid=b4e36854-260d-4f9e-b84e-43d9b05315fb","ios":"levelo://app?vid=b4e36854-260d-4f9e-b84e-43d9b05315fb"},"vehicle_type_id":"4","last_reported":1687187223,"current_range_meters":31200,"station_id":"ce4bha12rcd13ifvqef0","pricing_plan_id":"free"},{"bike_id":"93aa72b6-91b7-4ce2-ac9d-62bd52aec23d","system_id":"levelo_inurba_marseille","lat":43.28039,"lon":5.369297,"is_reserved":false,"is_disabled":false,"rental_uris":{"android":"levelo://app?vid=93aa72b6-91b7-4ce2-ac9d-62bd52aec23d","ios":"levelo://app?vid=93aa72b6-91b7-4ce2-ac9d-62bd52aec23d"},"vehicle_type_id":"4","last_reported":1687187223,"current_range_meters":7600,"station_id":"ce4bha12rcd13ifvqef0","pricing_plan_id":"free"},{"bike_id":"7a7662db-23d7-415b-8278-542fe2a26a8b","system_id":"levelo_inurba_marseille","lat":43.28039,"lon":5.369297,"is_reserved":false,"is_disabled":false,"rental_uris":{"android":"levelo://app?vid=7a7662db-23d7-415b-8278-542fe2a26a8b","ios":"levelo://app?vid=7a7662db-23d7-415b-8278-542fe2a26a8b"},"vehicle_type_id":"4","last_reported":1687187223,"current_range_meters":29200,"station_id":"ce4bha12rcd13ifvqef0","pricing_plan_id":"free"},{"bike_id":"3435ec7a-e7ef-4326-9007-969b0de1a6fc","system_id":"levelo_inurba_marseille","lat":43.28039,"lon":5.369297,"is_reserved":false,"is_disabled":false,"rental_uris":{"android":"levelo://app?vid=3435ec7a-e7ef-4326-9007-969b0de1a6fc","ios":"levelo://app?vid=3435ec7a-e7ef-4326-9007-969b0de1a6fc"},"vehicle_type_id":"4","last_reported":1687187223,"current_range_meters":31600,"station_id":"ce4bha12rcd13ifvqef0","pricing_plan_id":"free"},{"bike_id":"9a89ccab-4f3c-47aa-be4f-39913ffa3cc1","system_id":"levelo_inurba_marseille","lat":43.281044,"lon":5.378308,"is_reserved":false,"is_disabled":false,"rental_uris":{"android":"levelo://app?vid=9a89ccab-4f3c-47aa-be4f-39913ffa3cc1","ios":"levelo://app?vid=9a89ccab-4f3c-47aa-be4f-39913ffa3cc1"},"vehicle_type_id":"4","last_reported":1687187223,"current_range_meters":31200,"station_id":"ce4bha12rcd13ifvqee0","pricing_plan_id":"free"},{"bike_id":"f6c6f709-f1d8-4a46-a2b3-5d204809485a","system_id":"levelo_inurba_marseille","lat":43.284481,"lon":5.392023,"is_reserved":false,"is_disabled":false,"rental_uris":{"android":"levelo://app?vid=f6c6f709-f1d8-4a46-a2b3-5d204809485a","ios":"levelo://app?vid=f6c6f709-f1d8-4a46-a2b3-5d204809485a"},"vehicle_type_id":"4","last_reported":1687187223,"current_range_meters":30000,"station_id":"ce4bhoh2rcd13ifvqh5g","pricing_plan_id":"free"},{"bike_id":"c546f380-f881-44b3-9c01-e557497e4b56","system_id":"levelo_inurba_marseille","lat":43.285742,"lon":5.395004,"is_reserved":false,"is_disabled":false,"rental_uris":{"android":"levelo://app?vid=c546f380-f881-44b3-9c01-e557497e4b56","ios":"levelo://app?vid=c546f380-f881-44b3-9c01-e557497e4b56"},