{"last_updated":1715458067,"ttl":30,"version":"2.2","data":{"bikes":[{"bike_id":"b6d5adf7-e3cf-42dc-bd46-9e38f2887abe","system_id":"levelo_inurba_marseille","lat":43.312426,"lon":5.368539,"is_reserved":false,"is_disabled":false,"rental_uris":{"android":"levelo://app?vid=b6d5adf7-e3cf-42dc-bd46-9e38f2887abe","ios":"levelo://app?vid=b6d5adf7-e3cf-42dc-bd46-9e38f2887abe"},"vehicle_type_id":"4","last_reported":1715458067,"current_range_meters":5200,"station_id":"ce4bgl92rcd13ifvqbq0","pricing_plan_id":"cebpf4jnsgd1na2vs0mg"},{"bike_id":"c1757565-19a4-4d49-8732-c98edd14d531","system_id":"levelo_inurba_marseille","lat":43.312239,"lon":5.368562,"is_reserved":false,"is_disabled":false,"rental_uris":{"android":"levelo://app?vid=c1757565-19a4-4d49-8732-c98edd14d531","ios":"levelo://app?vid=c1757565-19a4-4d49-8732-c98edd14d531"},"vehicle_type_id":"4","last_reported":1715458067,"current_range_meters":8800,"station_id":"ce4bgl92rcd13ifvqbq0","pricing_plan_id":"cebpf4jnsgd1na2vs0mg"},{"bike_id":"312160d1-8fa2-468a-8ebf-fd60da90dc8a","system_id":"levelo_inurba_marseille","lat":43.3122,"lon":5.36877,"is_reserved":false,"is_disabled":false,"rental_uris":{"android":"levelo://app?vid=312160d1-8fa2-468a-8ebf-fd60da90dc8a","ios":"levelo://app?vid=312160d1-8fa2-468a-8ebf-fd60da90dc8a"},"vehicle_type_id":"4","last_reported":1715458067,"current_range_meters":26400,"station_id":"ce4bgl92rcd13ifvqbq0","pricing_plan_id":"cebpf4jnsgd1na2vs0mg"},{"bike_id":"ce346588-0ddf-40c4-af52-a1b9e984907a","system_id":"levelo_inurba_marseille","lat":43.309076,"lon":5.368465,"is_reserved":false,"is_disabled":false,"rental_uris":{"android":"levelo://app?vid=ce346588-0ddf-40c4-af52-a1b9e984907a","ios":"levelo://app?vid=ce346588-0ddf-40c4-af52-a1b9e984907a"},"vehicle_type_id":"4","last_reported":1715458067,"current_range_meters":30000,"station_id":"ce4bgn92rcd13ifvqbvg","pricing_plan_id":"cebpf4jnsgd1na2vs0mg"},{"bike_id":"c39ab2ad-be7a-46a2-95f1-7426485e7f32","system_id":"levelo_inurba_marseille","lat":43.31482,"lon":5.373,"is_reserved":false,"is_disabled":false,"rental_uris":{"android":"levelo://app?vid=c39ab2ad-be7a-46a2-95f1-7426485e7f32","ios":"levelo://app?vid=c39ab2ad-be7a-46a2-95f1-7426485e7f32"},"vehicle_type_id":"4","last_reported":1715458067,"current_range_meters":0,"station_id":"ce4bgt12rcd13ifvqcd0","pricing_plan_id":"cebpf4jnsgd1na2vs0mg"},{"bike_id":"ddb7e328-d932-4d23-a593-f8d93f6ee6c9","system_id":"levelo_inurba_marseille","lat":43.314811,"lon":5.373103,"is_reserved":false,"is_disabled":false,"rental_uris":{"android":"levelo://app?vid=ddb7e328-d932-4d23-a593-f8d93f6ee6c9","ios":"levelo://app?vid=ddb7e328-d932-4d23-a593-f8d93f6ee6c9"},"vehicle_type_id":"4","last_reported":1715458067,"current_range_meters":0,"station_id":"ce4bgt12rcd13ifvqcd0","pricing_plan_id":"cebpf4jnsgd1na2vs0mg"},{"bike_id":"0c7d571b-9053-4072-bbd8-385a03e3718f","system_id":"levelo_inurba_marseille","lat":43.314811,"lon":5.373103,"is_reserved":false,"is_disabled":false,"rental_uris":{"android":"levelo://app?vid=0c7d571b-9053-4072-bbd8-385a03e3718f","ios":"levelo://app?vid=0c7d571b-9053-4072-bbd8-385a03e3718f"},"vehicle_type_id":"4","last_reported":1715458067,"current_range_meters":2000,"station_id":"ce4bgt12rcd13ifvqcd0","pricing_plan_id":"cebpf4jnsgd1na2vs0mg"},{"bike_id":"f810f5a0-f783-44fc-b524-774d35ca36aa","system_id":"levelo_inurba_marseille","lat":43.31482,"lon":5.3731,"is_reserved":false,"is_disabled":false,"rental_uris":{"android":"levelo://app?vid=f810f5a0-f783-44fc-b524-774d35ca36aa","ios":"levelo://app?vid=f810f5a0-f783-44fc-b524-774d35ca36aa"},"vehicle_type_id":"4","last_reported":1715458067,"current_range_meters":0,"station_id":"ce4bgt12rcd13ifvqcd0","pricing_plan_id":"cebpf4jnsgd1na2vs0mg"},{"bike_id":"af8d4eb1-8ee8-4683-822e-c65107a0e0a8","system_id":"levelo_inurba_marseille","lat":43.314811,"lon":5.373104,"is_reserved":false,"is_disabled":false,"rental_uris":{"android":"levelo://app?vid=af8d4eb1-8ee8-4683-822e-c65107a0e0a8","ios":"levelo://app?vid=af8d4eb1-8ee8-4683-822e-c65107a0e0a8"},"vehicle_type_id":"4","last_reported":1715458067,"current_range_meters":16800,"station_id":"ce4bgt12rcd13ifvqcd0","pricing_plan_id":"cebpf4jnsgd1na2vs0mg"},{"bike_id":"9ab6e462-098a-4f26-b4e7-28079572b087","system_id":"levelo_inurba_marseille","lat":43.314811,"lon":5.373104,"is_reserved":false,"is_disabled":false,"rental_uris":{"android":"levelo://app?vid=9ab6e462-098a-4f26-b4e7-28079572b087","ios":"levelo://app?vid=9ab6e462-098a-4f26-b4e7-28079572b087"},"vehicle_type_id":"4","last_reported":1715458067,"current_range_meters":1200,"station_id":"ce4bgt12rcd13ifvqcd0","pricing_plan_id":"cebpf4jnsgd1na2vs0mg"},{"bike_id":"3376c42b-fb30-4fa9-8de3-5e8986ec24b8","system_id":"levelo_inurba_marseille","lat":43.314811,"lon":5.373104,"is_reserved":false,"is_disabled":false,"rental_uris":{"android":"levelo://app?vid=3376c42b-fb30-4fa9-8de3-5e8986ec24b8","ios":"levelo://app?vid=3376c42b-fb30-4fa9-8de3-5e8986ec24b8"},"vehicle_type_id":"4","last_reported":1715458067,"current_range_meters":13600,"station_id":"ce4bgt12rcd13ifvqcd0","pricing_plan_id":"cebpf4jnsgd1na2vs0mg"},{"bike_id":"ec48009b-5266-44c6-b5cd-845c566aa381","system_id":"levelo_inurba_marseille","lat":43.314811,"lon":5.373104,"is_reserved":false,"is_disabled":false,"rental_uris":{"android":"levelo://app?vid=ec48009b-5266-44c6-b5cd-845c566aa381","ios":"levelo://app?vid=ec48009b-5266-44c6-b5cd-845c566aa381"},"vehicle_type_id":"4","last_reported":1715458067,"current_range_meters":19600,"station_id":"ce4bgt12rcd13ifvqcd0","pricing_plan_id":"cebpf4jnsgd1na2vs0mg"},{"bike_id":"442a9883-2e59-4295-a1ec-7487b67b429f","system_id":"levelo_inurba_marseille","lat":43.314811,"lon":5.373104,"is_reserved":false,"is_disabled":false,"rental_uris":{"android":"levelo://app?vid=442a9883-2e59-4295-a1ec-7487b67b429f","ios":"levelo://app?vid=442a9883-2e59-4295-a1ec-7487b67b429f"},"vehicle_type_id":"4","last_reported":1715458067,"current_range_meters":8400,"station_id":"ce4bgt12rcd13ifvqcd0","pricing_plan_id":"cebpf4jnsgd1na2vs0mg"},{"bike_id":"b20350b3-67c8-469a-8951-d65cf0f69a1e","system_id":"levelo_inurba_marseille","lat":43.309039,"lon":5.371797,"is_reserved":false,"is_disabled":false,"rental_uris":{"android":"levelo://app?vid=b20350b3-67c8-469a-8951-d65cf0f69a1e","ios":"levelo://app?vid=b20350b3-67c8-469a-8951-d65cf0f69a1e"},"vehicle_type_id":"4","last_reported":1715458067,"current_range_meters":4800,"station_id":"ce4bguh2rcd13ifvqckg","pricing_plan_id":"cebpf4jnsgd1na2vs0mg"},{"bike_id":"390a7818-8484-408e-85ba-a40301a9bdc9","system_id":"levelo_inurba_marseille","lat":43.309039,"lon":5.371797,"is_reserved":false,"is_disabled":false,"rental_uris":{"android":"levelo://app?vid=390a7818-8484-408e-85ba-a40301a9bdc9","ios":"levelo://app?vid=390a7818-8484-408e-85ba-a40301a9bdc9"},"vehicle_type_id":"4","last_reported":1715458067,"current_range_meters":21600,"station_id":"ce4bguh2rcd13ifvqckg","pricing_plan_id":"cebpf4jnsgd1na2vs0mg"},{"bike_id":"28e42c4a-ff7e-4021-bca9-497ff575198b","system_id":"levelo_inurba_marseille","lat":43.309039,"lon":5.371797,"is_reserved":false,"is_disabled":false,"rental_uris":{"android":"levelo://app?vid=28e42c4a-ff7e-4021-bca9-497ff575198b","ios":"levelo://app?vid=28e42c4a-ff7e-4021-bca9-497ff575198b"},"vehicle_type_id":"4","last_reported":1715458067,"current_range_meters":25600,"station_id":"ce4bguh2rcd13ifvqckg","pricing_plan_id":"cebpf4jnsgd1na2vs0mg"},{"bike_id":"4e60221d-4537-49d8-8452-ba1cd4616cb6","system_id":"levelo_inurba_marseille","lat":43.309039,"lon":5.371797,"is_reserved":false,"is_disabled":false,"rental_uris":{"android":"levelo://app?vid=4e60221d-4537-49d8-8452-ba1cd4616cb6","ios":"levelo://app?vid=4e60221d-4537-49d8-8452-ba1cd4616cb6"},"vehicle_type_id":"4","last_reported":1715458067,"current_range_meters":3600,"station_id":"ce4bguh2rcd13ifvqckg","pricing_plan_id":"cebpf4jnsgd1na2vs0mg"},{"bike_id":"0957e933-1b51-46a7-8089-090eb8de71ba","system_id":"levelo_inurba_marseille","lat":43.308865,"lon":5.371933,"is_reserved":false,"is_disabled":false,"rental_uris":{"android":"levelo://app?vid=0957e933-1b51-46a7-8089-090eb8de71ba","ios":"levelo://app?vid=0957e933-1b51-46a7-8089-090eb8de71ba"},"vehicle_type_id":"4","last_reported":1715458067,"current_range_meters":0,"station_id":"ce4bguh2rcd13ifvqckg","pricing_plan_id":"cebpf4jnsgd1na2vs0mg"},{"bike_id":"9699611b-740f-4438-bd0b-05f6a20ca2d1","system_id":"levelo_inurba_marseille","lat":43.305368,"lon":5.367343,"is_reserved":false,"is_disabled":false,"rental_uris":{"android":"levelo://app?vid=9699611b-740f-4438-bd0b-05f6a20ca2d1","ios":"levelo://app?vid=9699611b-740f-4438-bd0b-05f6a20ca2d1"},"vehicle_type_id":"4","last_reported":1715458067,"current_range_meters":4400,"station_id":"ce4bgrp2rcd13ifvqc9g","pricing_plan_id":"cebpf4jnsgd1na2vs0mg"},{"bike_id":"89f3f973-23a8-49f5-ac43-62c613ea9cdf","system_id":"levelo_inurba_marseille","lat":43.30542,"lon":5.36548,"is_reserved":false,"is_disabled":false,"rental_uris":{"android":"levelo://app?vid=89f3f973-23a8-49f5-ac43-62c613ea9cdf","ios":"levelo://app?vid=89f3f973-23a8-49f5-ac43-62c613ea9cdf"},"vehicle_type_id":"4","last_reported":1715458067,"current_range_meters":7600,"station_id":"ce4bgs12rcd13ifvqcag","pricing_plan_id":"cebpf4jnsgd1na2vs0mg"},{"bike_id":"7026afbf-31e4-4c4d-a898-dadb91ec8277","system_id":"levelo_inurba_marseille","lat":43.305989,"lon":5.37225,"is_reserved":false,"is_disabled":false,"rental_uris":{"android":"levelo://app?vid=7026afbf-31e4-4c4d-a898-dadb91ec8277","ios":"levelo://app?vid=7026afbf-31e4-4c4d-a898-dadb91ec8277"},"vehicle_type_id":"4","last_reported":1715458067,"current_range_meters":6000,"station_id":"ce4bgqh2rcd13ifvqc4g","pricing_plan_id":"cebpf4jnsgd1na2vs0mg"},{"bike_id":"c317af9c-df59-4a3f-9ef8-114edae49360","system_id":"levelo_inurba_marseille","lat":43.311131,"lon":5.377651,"is_reserved":false,"is_disabled":false,"rental_uris":{"android":"levelo://app?vid=c317af9c-df59-4a3f-9ef8-114edae49360","ios":"levelo://app?vid=c317af9c-df59-4a3f-9ef8-114edae49360"},"vehicle_type_id":"4","last_reported":1715458067,"current_range_meters":0,"station_id":"ce4bgt92rcd13ifvqcg0","pricing_plan_id":"cebpf4jnsgd1na2vs0mg"},{"bike_id":"80002b85-cbaf-465c-8213-9fc1436771d1","system_id":"levelo_inurba_marseille","lat":43.30591,"lon":5.37259,"is_reserved":false,"is_disabled":false,"rental_uris":{"android":"levelo://app?vid=80002b85-cbaf-465c-8213-9fc1436771d1","ios":"levelo://app?vid=80002b85-cbaf-465c-8213-9fc1436771d1"},"vehicle_type_id":"4","last_reported":1715458067,"current_range_meters":0,"station_id":"ce4bgqh2rcd13ifvqc4g","pricing_plan_id":"cebpf4jnsgd1na2vs0mg"},{"bike_id":"4bf92838-c09e-4f8e-aa7d-448a6884f219","system_id":"levelo_inurba_marseille","lat":43.307945,"lon":5.376487,"is_reserved":false,"is_disabled":false,"rental_uris":{"android":"levelo://app?vid=4bf92838-c09e-4f8e-aa7d-448a6884f219","ios":"levelo://app?vid=4bf92838-c09e-4f8e-aa7d-448a6884f219"},"vehicle_type_id":"4","last_reported":1715458067,"current_range_meters":26000,"station_id":"ce4bgv92rcd13ifvqcq0","pricing_plan_id":"cebpf4jnsgd1na2vs0mg"},{"bike_id":"5a7b2386-7fee-4c94-914b-cee4237803e9","system_id":"levelo_inurba_marseille","lat":43.307945,"lon":5.376487,"is_reserved":false,"is_disabled":false,"rental_uris":{"android":"levelo://app?vid=5a7b2386-7fee-4c94-914b-cee4237803e9","ios":"levelo://app?vid=5a7b2386-7fee-4c94-914b-cee4237803e9"},"vehicle_type_id":"4","last_reported":1715458067,"current_range_meters":23600,"station_id":"ce4bgv92rcd13ifvqcq0","pricing_plan_id":"cebpf4jnsgd1na2vs0mg"},{"bike_id":"2fe992ed-9b84-47ee-9785-964c9ade2a8c","system_id":"levelo_inurba_marseille","lat":43.307945,"lon":5.376487,"is_reserved":false,"is_disabled":false,"rental_uris":{"android":"levelo://app?vid=2fe992ed-9b84-47ee-9785-964c9ade2a8c","ios":"levelo://app?vid=2fe992ed-9b84-47ee-9785-964c9ade2a8c"},"vehicle_type_id":"4","last_reported":1715458067,"current_range_meters":18800,"station_id":"ce4bgv92rcd13ifvqcq0","pricing_plan_id":"cebpf4jnsgd1na2vs0mg"},{"bike_id":"5d078170-dd48-42c5-bf81-ee0521c93f3e","system_id":"levelo_inurba_marseille","lat":43.307945,"lon":5.376487,"is_reserved":false,"is_disabled":false,"rental_uris":{"android":"levelo://app?vid=5d078170-dd48-42c5-bf81-ee0521c93f3e","ios":"levelo://app?vid=5d078170-dd48-42c5-bf81-ee0521c93f3e"},"vehicle_type_id":"4","last_reported":1715458067,"current_range_meters":26800,"station_id":"ce4bgv92rcd13ifvqcq0","pricing_plan_id":"cebpf4jnsgd1na2vs0mg"},{"bike_id":"e88d998f-0cce-45ad-99f5-d874d8dbe12e","system_id":"levelo_inurba_marseille","lat":43.307945,"lon":5.376487,"is_reserved":false,"is_disabled":false,"rental_uris":{"android":"levelo://app?vid=e88d998f-0cce-45ad-99f5-d874d8dbe12e","ios":"levelo://app?vid=e88d998f-0cce-45ad-99f5-d874d8dbe12e"},"vehicle_type_id":"4","last_reported":1715458067,"current_range_meters":26400,"station_id":"ce4bgv92rcd13ifvqcq0","pricing_plan_id":"cebpf4jnsgd1na2vs0mg"},{"bike_id":"a8420d12-5ea1-4553-ba77-74153419b9a1","system_id":"levelo_inurba_marseille","lat":43.307945,"lon":5.376487,"is_reserved":false,"is_disabled":false,"rental_uris":{"android":"levelo://app?vid=a8420d12-5ea1-4553-ba77-74153419b9a1","ios":"levelo://app?vid=a8420d12-5ea1-4553-ba77-74153419b9a1"},"vehicle_type_id":"4","last_reported":1715458067,"current_range_meters":31600,"station_id":"ce4bgv92rcd13ifvqcq0","pricing_plan_id":"cebpf4jnsgd1na2vs0mg"},{"bike_id":"7028835a-ae64-4d33-a20b-5465db284918","system_id":"levelo_inurba_marseille","lat":43.307945,"lon":5.376487,"is_reserved":false,"is_disabled":false,"rental_uris":{"android":"levelo://app?vid=7028835a-ae64-4d33-a20b-5465db284918","ios":"levelo://app?vid=7028835a-ae64-4d33-a20b-5465db284918"},"vehicle_type_id":"4","last_reported":1715458067,"current_range_meters":25600,"station_id":"ce4bgv92rcd13ifvqcq0","pricing_plan_id":"cebpf4jnsgd1na2vs0mg"},{"bike_id":"38227d49-b2f9-4e1e-adcd-b8939f7ea0a4","system_id":"levelo_inurba_marseille","lat":43.307945,"lon":5.376487,"is_reserved":false,"is_disabled":false,"rental_uris":{"android":"levelo://app?vid=38227d49-b2f9-4e1e-adcd-b8939f7ea0a4","ios":"levelo://app?vid=38227d49-b2f9-4e1e-adcd-b8939f7ea0a4"},"vehicle_type_id":"4","last_reported":1715458067,"current_range_meters":23600,"station_id":"ce4bgv92rcd13ifvqcq0","pricing_plan_id":"cebpf4jnsgd1na2vs0mg"},{"bike_id":"57e96d4e-aa35-4a7e-8ac8-a7cd46ff08fa","system_id":"levelo_inurba_marseille","lat":43.307945,"lon":5.376487,"is_reserved":false,"is_disabled":false,"rental_uris":{"android":"levelo://app?vid=57e96d4e-aa35-4a7e-8ac8-a7cd46ff08fa","ios":"levelo://app?vid=57e96d4e-aa35-4a7e-8ac8-a7cd46ff08fa"},"vehicle_type_id":"4","last_reported":1715458067,"current_range_meters":2800,"station_id":"ce4bgv92rcd13ifvqcq0","pricing_plan_id":"cebpf4jnsgd1na2vs0mg"},{"bike_id":"08537509-36ad-48a3-ad52-812d01c4153a","system_id":"levelo_inurba_marseille","lat":43.317075,"lon":5.377367,"is_reserved":false,"is_disabled":false,"rental_uris":{"android":"levelo://app?vid=08537509-36ad-48a3-ad52-812d01c4153a","ios":"levelo://app?vid=08537509-36ad-48a3-ad52-812d01c4153a"},"vehicle_type_id":"4","last_reported":1715458067,"current_range_meters":10800,"station_id":"ce4bgth2rcd13ifvqch0","pricing_plan_id":"cebpf4jnsgd1na2vs0mg"},{"bike_id":"1d65da71-cdca-4074-9cde-0a926504a250","system_id":"levelo_inurba_marseille","lat":43.303046,"lon":5.368981,"is_reserved":false,"is_disabled":false,"rental_uris":{"android":"levelo://app?vid=1d65da71-cdca-4074-9cde-0a926504a250","ios":"levelo://app?vid=1d65da71-cdca-4074-9cde-0a926504a250"},"vehicle_type_id":"4","last_reported":1715458067,"current_range_meters":11200,"station_id":"ce4bgqh2rcd13ifvqc5g","pricing_plan_id":"cebpf4jnsgd1na2vs0mg"},{"bike_id":"1ef0d59d-c162-46ac-a9a1-8d10502b0f6e","system_id":"levelo_inurba_marseille","lat":43.303046,"lon":5.368981,"is_reserved":false,"is_disabled":false,"rental_uris":{"android":"levelo://app?vid=1ef0d59d-c162-46ac-a9a1-8d10502b0f6e","ios":"levelo://app?vid=1ef0d59d-c162-46ac-a9a1-8d10502b0f6e"},"vehicle_type_id":"4","last_reported":1715458067,"current_range_meters":10000,"station_id":"ce4bgqh2rcd13ifvqc5g","pricing_plan_id":"cebpf4jnsgd1na2vs0mg"},{"bike_id":"cd6c8f07-be7a-465d-bcea-b634007fe8f5","system_id":"levelo_inurba_marseille","lat":43.303046,"lon":5.368981,"is_reserved":false,"is_disabled":false,"rental_uris":{"android":"levelo://app?vid=cd6c8f07-be7a-465d-bcea-b634007fe8f5","ios":"levelo://app?vid=cd6c8f07-be7a-465d-bcea-b634007fe8f5"},"vehicle_type_id":"4","last_reported":1715458067,"current_range_meters":16400,"station_id":"ce4bgqh2rcd13ifvqc5g","pricing_plan_id":"cebpf4jnsgd1na2vs0mg"},{"bike_id":"a2e11b20-0b9f-4967-b42e-74fc9474ab82","system_id":"levelo_inurba_marseille","lat":43.315293,"lon":5.380349,"is_reserved":false,"is_disabled":false,"rental_uris":{"android":"levelo://app?vid=a2e11b20-0b9f-4967-b42e-74fc9474ab82","ios":"levelo://app?vid=a2e11b20-0b9f-4967-b42e-74fc9474ab82"},"vehicle_type_id":"4","last_reported":1715458067,"current_range_meters":10000,"station_id":"ce4bhsp2rcd13ifvqi50","pricing_plan_id":"cebpf4jnsgd1na2vs0mg"},{"bike_id":"33e1ecca-1f53-4cb2-873a-c143e9947225","system_id":"levelo_inurba_marseille","lat":43.31406,"lon":5.38087,"is_reserved":false,"is_disabled":false,"rental_uris":{"android":"levelo://app?vid=33e1ecca-1f53-4cb2-873a-c143e9947225","ios":"levelo://app?vid=33e1ecca-1f53-4cb2-873a-c143e9947225"},"vehicle_type_id":"4","last_reported":1715458067,"current_range_meters":0,"station_id":"","pricing_plan_id":"cebpf4jnsgd1na2vs0mg"},{"bike_id":"b44d87c6-0a59-4fcf-bc94-f3f4d46ddd3d","system_id":"levelo_inurba_marseille","lat":43.301939,"lon":5.366286,"is_reserved":false,"is_disabled":false,"rental_uris":{"android":"levelo://app?vid=b44d87c6-0a59-4fcf-bc94-f3f4d46ddd3d","ios":"levelo://app?vid=b44d87c6-0a59-4fcf-bc94-f3f4d46ddd3d"},"vehicle_type_id":"4","last_reported":1715458067,"current_range_meters":9200,"station_id":"ce4bgrh2rcd13ifvqc8g","pricing_plan_id":"cebpf4jnsgd1na2vs0mg"},{"bike_id":"6ba8f3f9-2364-4651-85a0-13a7d82683b7","system_id":"levelo_inurba_marseille","lat":43.301939,"lon":5.366286,"is_reserved":false,"is_disabled":false,"rental_uris":{"android":"levelo://app?vid=6ba8f3f9-2364-4651-85a0-13a7d82683b7","ios":"levelo://app?vid=6ba8f3f9-2364-4651-85a0-13a7d82683b7"},"vehicle_type_id":"4","last_reported":1715458067,"current_range_meters":2400,"station_id":"ce4bgrh2rcd13ifvqc8g","pricing_plan_id":"cebpf4jnsgd1na2vs0mg"},{"bike_id":"dfc7ec82-cde0-4457-a8fa-45b6c6a6be39","system_id":"levelo_inurba_marseille","lat":43.30179,"lon":5.36617,"is_reserved":false,"is_disabled":false,"rental_uris":{"android":"levelo://app?vid=dfc7ec82-cde0-4457-a8fa-45b6c6a6be39","ios":"levelo://app?vid=dfc7ec82-cde0-4457-a8fa-45b6c6a6be39"},"vehicle_type_id":"4","last_reported":1715458067,"current_range_meters":0,"station_id":"ce4bgrh2rcd13ifvqc8g","pricing_plan_id":"cebpf4jnsgd1na2vs0mg"},{"bike_id":"1689c542-d146-4f38-b089-7482d2a386e0","system_id":"levelo_inurba_marseille","lat":43.308012,"lon":5.381511,"is_reserved":false,"is_disabled":false,"rental_uris":{"android":"levelo://app?vid=1689c542-d146-4f38-b089-7482d2a386e0","ios":"levelo://app?vid=1689c542-d146-4f38-b089-7482d2a386e0"},"vehicle_type_id":"4","last_reported":1715458067,"current_range_meters":16000,"station_id":"ce4bgt12rcd13ifvqce0","pricing_plan_id":"cebpf4jnsgd1na2vs0mg"},{"bike_id":"41f4b7d0-4540-4aaf-8ed5-31c45c6e9a90","system_id":"levelo_inurba_marseille","lat":43.308012,"lon":5.381511,"is_reserved":false,"is_disabled":false,"rental_uris":{"android":"levelo://app?vid=41f4b7d0-4540-4aaf-8ed5-31c45c6e9a90","ios":"levelo://app?vid=41f4b7d0-4540-4aaf-8ed5-31c45c6e9a90"},"vehicle_type_id":"4","last_reported":1715458067,"current_range_meters":24400,"station_id":"ce4bgt12rcd13ifvqce0","pricing_plan_id":"cebpf4jnsgd1na2vs0mg"},{"bike_id":"4dd34305-8adc-485d-9315-94694966a7fc","system_id":"levelo_inurba_marseille","lat":43.304606,"lon":5.379026,"is_reserved":false,"is_disabled":false,"rental_uris":{"android":"levelo://app?vid=4dd34305-8adc-485d-9315-94694966a7fc","ios":"levelo://app?vid=4dd34305-8adc-485d-9315-94694966a7fc"},"vehicle_type_id":"4","last_reported":1715458067,"current_range_meters":0,"station_id":"ce4bgup2rcd13ifvqcn0","pricing_plan_id":"cebpf4jnsgd1na2vs0mg"},{"bike_id":"136def37-fb83-4e87-abf7-72d59f2baedb","system_id":"levelo_inurba_marseille","lat":43.304606,"lon":5.379026,"is_reserved":false,"is_disabled":false,"rental_uris":{"android":"levelo://app?vid=136def37-fb83-4e87-abf7-72d59f2baedb","ios":"levelo://app?vid=136def37-fb83-4e87-abf7-72d59f2baedb"},"vehicle_type_id":"4","last_reported":1715458067,"current_range_meters":17200,"station_id":"ce4bgup2rcd13ifvqcn0","pricing_plan_id":"cebpf4jnsgd1na2vs0mg"},{"bike_id":"b690c3ea-3a6e-4a37-a726-eb6394fd8ddb","system_id":"levelo_inurba_marseille","lat":43.304606,"lon":5.379026,"is_reserved":false,"is_disabled":false,"rental_uris":{"android":"levelo://app?vid=b690c3ea-3a6e-4a37-a726-eb6394fd8ddb","ios":"levelo://app?vid=b690c3ea-3a6e-4a37-a726-eb6394fd8ddb"},"vehicle_type_id":"4","last_reported":1715458067,"current_range_meters":2000,"station_id":"ce4bgup2rcd13ifvqcn0","pricing_plan_id":"cebpf4jnsgd1na2vs0mg"},{"bike_id":"3269a82e-20fd-46cb-9087-cc49c8cec2db","system_id":"levelo_inurba_marseille","lat":43.324739,"lon":5.365592,"is_reserved":false,"is_disabled":false,"rental_uris":{"android":"levelo://app?vid=3269a82e-20fd-46cb-9087-cc49c8cec2db","ios":"levelo://app?vid=3269a82e-20fd-46cb-9087-cc49c8cec2db"},"vehicle_type_id":"4","last_reported":1715458067,"current_range_meters":6400,"station_id":"ce4bhs12rcd13ifvqhvg","pricing_plan_id":"cebpf4jnsgd1na2vs0mg"},{"bike_id":"b477d686-c217-4fd8-853d-78a541c0c23e","system_id":"levelo_inurba_marseille","lat":43.324771,"lon":5.36557,"is_reserved":false,"is_disabled":false,"rental_uris":{"android":"levelo://app?vid=b477d686-c217-4fd8-853d-78a541c0c23e","ios":"levelo://app?vid=b477d686-c217-4fd8-853d-78a541c0c23e"},"vehicle_type_id":"4","last_reported":1715458067,"current_range_meters":2000,"station_id":"ce4bhs12rcd13ifvqhvg","pricing_plan_id":"cebpf4jnsgd1na2vs0mg"},{"bike_id":"a76ac9e1-e5fc-45aa-83a4-d1570f8cca81","system_id":"levelo_inurba_marseille","lat":43.3248,"lon":5.36556,"is_reserved":false,"is_disabled":false,"rental_uris":{"android":"levelo://app?vid=a76ac9e1-e5fc-45aa-83a4-d1570f8cca81","ios":"levelo://app?vid=a76ac9e1-e5fc-45aa-83a4-d1570f8cca81"},"vehicle_type_id":"4","last_reported":1715458067,"current_range_meters":8800,"station_id":"","pricing_plan_id":"cebpf4jnsgd1na2vs0mg"},{"bike_id":"de363a9b-b8dd-4f25-97c4-05ca23eea0b0","system_id":"levelo_inurba_marseille","lat":43.324771,"lon":5.36557,"is_reserved":false,"is_disabled":false,"rental_uris":{"android":"levelo://app?vid=de363a9b-b8dd-4f25-97c4-05ca23eea0b0","ios":"levelo://app?vid=de363a9b-b8dd-4f25-97c4-05ca23eea0b0"},"vehicle_type_id":"4","last_reported":1715458067,"current_range_meters":0,"station_id":"ce4bhs12rcd13ifvqhvg","pricing_plan_id":"cebpf4jnsgd1na2vs0mg"},{"bike_id":"27864151-07c6-46e0-bb7f-76413df57206","system_id":"levelo_inurba_marseille","lat":43.324771,"lon":5.36557,"is_reserved":false,"is_disabled":false,"rental_uris":{"android":"levelo://app?vid=27864151-07c6-46e0-bb7f-76413df57206","ios":"levelo://app?vid=27864151-07c6-46e0-bb7f-76413df57206"},"vehicle_type_id":"4","last_reported":1715458067,"current_range_meters":19200,"station_id":"ce4bhs12rcd13ifvqhvg","pricing_plan_id":"cebpf4jnsgd1na2vs0mg"},{"bike_id":"3d8b7acc-05a7-41da-9ae5-0bf56340cdc2","system_id":"levelo_inurba_marseille","lat":43.304606,"lon":5.379026,"is_reserved":false,"is_disabled":false,"rental_uris":{"android":"levelo://app?vid=3d8b7acc-05a7-41da-9ae5-0bf56340cdc2","ios":"levelo://app?vid=3d8b7acc-05a7-41da-9ae5-0bf56340cdc2"},"vehicle_type_id":"4","last_reported":1715458067,"current_range_meters":13200,"station_id":"ce4bgup2rcd13ifvqcn0","pricing_plan_id":"cebpf4jnsgd1na2vs0mg"},{"bike_id":"7d725402-757b-4cd9-84ff-6dd57d0cc79e","system_id":"levelo_inurba_marseille","lat":43.32487,"lon":5.36565,"is_reserved":false,"is_disabled":false,"rental_uris":{"android":"levelo://app?vid=7d725402-757b-4cd9-84ff-6dd57d0cc79e","ios":"levelo://app?vid=7d725402-757b-4cd9-84ff-6dd57d0cc79e"},"vehicle_type_id":"4","last_reported":1715458067,"current_range_meters":27600,"station_id":"ce4bhs12rcd13ifvqhvg","pricing_plan_id":"cebpf4jnsgd1na2vs0mg"},{"bike_id":"1c7cafee-e030-43eb-a330-eeb527a21816","system_id":"levelo_inurba_marseille","lat":43.32304,"lon":5.377,"is_reserved":false,"is_disabled":false,"rental_uris":{"android":"levelo://app?vid=1c7cafee-e030-43eb-a330-eeb527a21816","ios":"levelo://app?vid=1c7cafee-e030-43eb-a330-eeb527a21816"},"vehicle_type_id":"4","last_reported":1715458067,"current_range_meters":8400,"station_id":"","pricing_plan_id":"cebpf4jnsgd1na2vs0mg"},{"bike_id":"aa6930b9-25e4-46c2-b8bd-b181aa475bc0","system_id":"levelo_inurba_marseille","lat":43.302784,"lon":5.377158,"is_reserved":false,"is_disabled":false,"rental_uris":{"android":"levelo://app?vid=aa6930b9-25e4-46c2-b8bd-b181aa475bc0","ios":"levelo://app?vid=aa6930b9-25e4-46c2-b8bd-b181aa475bc0"},"vehicle_type_id":"4","last_reported":1715458067,"current_range_meters":2000,"station_id":"ce4bguh2rcd13ifvqcj0","pricing_plan_id":"cebpf4jnsgd1na2vs0mg"},{"bike_id":"2b0ff087-e655-4f6c-b9f1-e447ab87f072","system_id":"levelo_inurba_marseille","lat":43.302784,"lon":5.377158,"is_reserved":false,"is_disabled":false,"rental_uris":{"android":"levelo://app?vid=2b0ff087-e655-4f6c-b9f1-e447ab87f072","ios":"levelo://app?vid=2b0ff087-e655-4f6c-b9f1-e447ab87f072"},"vehicle_type_id":"4","last_reported":1715458067,"current_range_meters":9200,"station_id":"ce4bguh2rcd13ifvqcj0","pricing_plan_id":"cebpf4jnsgd1na2vs0mg"},{"bike_id":"cc258dc5-2747-4c4f-9e8a-0d841802ebaf","system_id":"levelo_inurba_marseille","lat":43.313571,"lon":5.384829,"is_reserved":false,"is_disabled":false,"rental_uris":{"android":"levelo://app?vid=cc258dc5-2747-4c4f-9e8a-0d841802ebaf","ios":"levelo://app?vid=cc258dc5-2747-4c4f-9e8a-0d841802ebaf"},"vehicle_type_id":"4","last_reported":1715458067,"current_range_meters":1600,"station_id":"ce4bgt92rcd13ifvqcf0","pricing_plan_id":"cebpf4jnsgd1na2vs0mg"},{"bike_id":"e8ef476a-b1e3-4e8c-82c7-a87911daffc5","system_id":"levelo_inurba_marseille","lat":43.31364,"lon":5.38498,"is_reserved":false,"is_disabled":false,"rental_uris":{"android":"levelo://app?vid=e8ef476a-b1e3-4e8c-82c7-a87911daffc5","ios":"levelo://app?vid=e8ef476a-b1e3-4e8c-82c7-a87911daffc5"},"vehicle_type_id":"4","last_reported":1715458067,"current_range_meters":0,"station_id":"ce4bgt92rcd13ifvqcf0","pricing_plan_id":"cebpf4jnsgd1na2vs0mg"},{"bike_id":"bcc739ae-5e43-4f31-bb87-9f6fe09e2442","system_id":"levelo_inurba_marseille","lat":43.313571,"lon":5.384829,"is_reserved":false,"is_disabled":false,"rental_uris":{"android":"levelo://app?vid=bcc739ae-5e43-4f31-bb87-9f6fe09e2442","ios":"levelo://app?vid=bcc739ae-5e43-4f31-bb87-9f6fe09e2442"},"vehicle_type_id":"4","last_reported":1715458067,"current_range_meters":13200,"station_id":"ce4bgt92rcd13ifvqcf0","pricing_plan_id":"cebpf4jnsgd1na2vs0mg"},{"bike_id":"c7bea60e-910f-4220-9a58-7743cbc63306","system_id":"levelo_inurba_marseille","lat":43.313571,"lon":5.384829,"is_reserved":false,"is_disabled":false,"rental_uris":{"android":"levelo://app?vid=c7bea60e-910f-4220-9a58-7743cbc63306","ios":"levelo://app?vid=c7bea60e-910f-4220-9a58-7743cbc63306"},"vehicle_type_id":"4","last_reported":1715458067,"current_range_meters":24400,"station_id":"ce4bgt92rcd13ifvqcf0","pricing_plan_id":"cebpf4jnsgd1na2vs0mg"},{"bike_id":"f73cc5ee-b040-4636-abf1-4c3cdda72b41","system_id":"levelo_inurba_marseille","lat":43.29973,"lon":5.3715,"is_reserved":false,"is_disabled":false,"rental_uris":{"android":"levelo://app?vid=f73cc5ee-b040-4636-abf1-4c3cdda72b41","ios":"levelo://app?vid=f73cc5ee-b040-4636-abf1-4c3cdda72b41"},"vehicle_type_id":"4","last_reported":1715458067,"current_range_meters":4000,"station_id":"ce4bgr92rcd13ifvqc7g","pricing_plan_id":"cebpf4jnsgd1na2vs0mg"},{"bike_id":"1a733070-8b82-4862-b661-b642e5736edb","system_id":"levelo_inurba_marseille","lat":43.301939,"lon":5.366286,"is_reserved":false,"is_disabled":false,"rental_uris":{"android":"levelo://app?vid=1a733070-8b82-4862-b661-b642e5736edb","ios":"levelo://app?vid=1a733070-8b82-4862-b661-b642e5736edb"},"vehicle_type_id":"4","last_reported":1715458067,"current_range_meters":800,"station_id":"ce4bgrh2rcd13ifvqc8g","pricing_plan_id":"cebpf4jnsgd1na2vs0mg"},{"bike_id":"182320ba-6a20-41bd-a484-e1c6ce350528","system_id":"levelo_inurba_marseille","lat":43.29969,"lon":5.37174,"is_reserved":false,"is_disabled":false,"rental_uris":{"android":"levelo://app?vid=182320ba-6a20-41bd-a484-e1c6ce350528","ios":"levelo://app?vid=182320ba-6a20-41bd-a484-e1c6ce350528"},"vehicle_type_id":"4","last_reported":1715458067,"current_range_meters":19600,"station_id":"ce4bgr92rcd13ifvqc7g","pricing_plan_id":"cebpf4jnsgd1na2vs0mg"},{"bike_id":"46bba4e0-a2dc-459e-9f19-e75e3edbca38","system_id":"levelo_inurba_marseille","lat":43.305364,"lon":5.384119,"is_reserved":false,"is_disabled":false,"rental_uris":{"android":"levelo://app?vid=46bba4e0-a2dc-459e-9f19-e75e3edbca38","ios":"levelo://app?vid=46bba4e0-a2dc-459e-9f19-e75e3edbca38"},"vehicle_type_id":"4","last_reported":1715458067,"current_range_meters":7200,"station_id":"ce4bgg92rcd13ifvqb30","pricing_plan_id":"cebpf4jnsgd1na2vs0mg"},{"bike_id":"80cc81cb-eef2-460c-94c2-3aeb36322cdc","system_id":"levelo_inurba_marseille","lat":43.29852,"lon":5.3628,"is_reserved":false,"is_disabled":false,"rental_uris":{"android":"levelo://app?vid=80cc81cb-eef2-460c-94c2-3aeb36322cdc","ios":"levelo://app?vid=80cc81cb-eef2-460c-94c2-3aeb36322cdc"},"vehicle_type_id":"4","last_reported":1715458067,"current_range_meters":5600,"station_id":"ce4bgpp2rcd13ifvqc3g","pricing_plan_id":"cebpf4jnsgd1na2vs0mg"},{"bike_id":"54a1d89e-df4b-4799-b4c3-21437836e2bc","system_id":"levelo_inurba_marseille","lat":43.29846,"lon":5.36284,"is_reserved":false,"is_disabled":false,"rental_uris":{"android":"levelo://app?vid=54a1d89e-df4b-4799-b4c3-21437836e2bc","ios":"levelo://app?vid=54a1d89e-df4b-4799-b4c3-21437836e2bc"},"vehicle_type_id":"4","last_reported":1715458067,"current_range_meters":25200,"station_id":"ce4bgpp2rcd13ifvqc3g","pricing_plan_id":"cebpf4jnsgd1na2vs0mg"},{"bike_id":"edf1f5ed-cd3c-4490-a130-f2462ddf0e9a","system_id":"levelo_inurba_marseille","lat":43.29845,"lon":5.36283,"is_reserved":false,"is_disabled":false,"rental_uris":{"android":"levelo://app?vid=edf1f5ed-cd3c-4490-a130-f2462ddf0e9a","ios":"levelo://app?vid=edf1f5ed-cd3c-4490-a130-f2462ddf0e9a"},"vehicle_type_id":"4","last_reported":1715458067,"current_range_meters":4000,"station_id":"ce4bgpp2rcd13ifvqc3g","pricing_plan_id":"cebpf4jnsgd1na2vs0mg"},{"bike_id":"4da5a962-79c3-4a63-af3d-e2b1df778596","system_id":"levelo_inurba_marseille","lat":43.29844,"lon":5.36287,"is_reserved":false,"is_disabled":false,"rental_uris":{"android":"levelo://app?vid=4da5a962-79c3-4a63-af3d-e2b1df778596","ios":"levelo://app?vid=4da5a962-79c3-4a63-af3d-e2b1df778596"},"vehicle_type_id":"4","last_reported":1715458067,"current_range_meters":7200,"station_id":"ce4bgpp2rcd13ifvqc3g","pricing_plan_id":"cebpf4jnsgd1na2vs0mg"},{"bike_id":"ada5a224-7034-4cff-beea-888c5515e781","system_id":"levelo_inurba_marseille","lat":43.298433,"lon":5.362774,"is_reserved":false,"is_disabled":false,"rental_uris":{"android":"levelo://app?vid=ada5a224-7034-4cff-beea-888c5515e781","ios":"levelo://app?vid=ada5a224-7034-4cff-beea-888c5515e781"},"vehicle_type_id":"4","last_reported":1715458067,"current_range_meters":3200,"station_id":"ce4bgpp2rcd13ifvqc3g","pricing_plan_id":"cebpf4jnsgd1na2vs0mg"},{"bike_id":"d9445bd1-c764-4144-953a-ab6bb1f496d9","system_id":"levelo_inurba_marseille","lat":43.298433,"lon":5.362774,"is_reserved":false,"is_disabled":false,"rental_uris":{"android":"levelo://app?vid=d9445bd1-c764-4144-953a-ab6bb1f496d9","ios":"levelo://app?vid=d9445bd1-c764-4144-953a-ab6bb1f496d9"},"vehicle_type_id":"4","last_reported":1715458067,"current_range_meters":17200,"station_id":"ce4bgpp2rcd13ifvqc3g","pricing_plan_id":"cebpf4jnsgd1na2vs0mg"},{"bike_id":"852e6fcf-b043-4b2c-b63f-b624ff49549c","system_id":"levelo_inurba_marseille","lat":43.298433,"lon":5.362774,"is_reserved":false,"is_disabled":false,"rental_uris":{"android":"levelo://app?vid=852e6fcf-b043-4b2c-b63f-b624ff49549c","ios":"levelo://app?vid=852e6fcf-b043-4b2c-b63f-b624ff49549c"},"vehicle_type_id":"4","last_reported":1715458067,"current_range_meters":8800,"station_id":"ce4bgpp2rcd13ifvqc3g","pricing_plan_id":"cebpf4jnsgd1na2vs0mg"},{"bike_id":"79141f9b-592c-4231-a00f-1138cf5fdf1b","system_id":"levelo_inurba_marseille","lat":43.29841,"lon":5.36268,"is_reserved":false,"is_disabled":false,"rental_uris":{"android":"levelo://app?vid=79141f9b-592c-4231-a00f-1138cf5fdf1b","ios":"levelo://app?vid=79141f9b-592c-4231-a00f-1138cf5fdf1b"},"vehicle_type_id":"4","last_reported":1715458067,"current_range_meters":0,"station_id":"ce4bgpp2rcd13ifvqc3g","pricing_plan_id":"cebpf4jnsgd1na2vs0mg"},{"bike_id":"f6fe436a-3de4-4bbe-ae32-842474560470","system_id":"levelo_inurba_marseille","lat":43.2984,"lon":5.36273,"is_reserved":false,"is_disabled":false,"rental_uris":{"android":"levelo://app?vid=f6fe436a-3de4-4bbe-ae32-842474560470","ios":"levelo://app?vid=f6fe436a-3de4-4bbe-ae32-842474560470"},"vehicle_type_id":"4","last_reported":1715458067,"current_range_meters":26000,"station_id":"ce4bgpp2rcd13ifvqc3g","pricing_plan_id":"cebpf4jnsgd1na2vs0mg"},{"bike_id":"c1342037-406b-42c4-8fbb-1275f3bf8903","system_id":"levelo_inurba_marseille","lat":43.299243,"lon":5.37481,"is_reserved":false,"is_disabled":false,"rental_uris":{"android":"levelo://app?vid=c1342037-406b-42c4-8fbb-1275f3bf8903","ios":"levelo://app?vid=c1342037-406b-42c4-8fbb-1275f3bf8903"},"vehicle_type_id":"4","last_reported":1715458067,"current_range_meters":13600,"station_id":"ce4bgjh2rcd13ifvqbg0","pricing_plan_id":"cebpf4jnsgd1na2vs0mg"},{"bike_id":"5d3d217e-c5e2-44ba-9704-4fda0f7b1d35","system_id":"levelo_inurba_marseille","lat":43.31175,"lon":5.38711,"is_reserved":false,"is_disabled":false,"rental_uris":{"android":"levelo://app?vid=5d3d217e-c5e2-44ba-9704-4fda0f7b1d35","ios":"levelo://app?vid=5d3d217e-c5e2-44ba-9704-4fda0f7b1d35"},"vehicle_type_id":"4","last_reported":1715458067,"current_range_meters":0,"station_id":"ce4bgv12rcd13ifvqcp0","pricing_plan_id":"cebpf4jnsgd1na2vs0mg"},{"bike_id":"28208c5e-a420-44e7-b0a7-fbc156da9b7d","system_id":"levelo_inurba_marseille","lat":43.311722,"lon":5.387247,"is_reserved":false,"is_disabled":false,"rental_uris":{"android":"levelo://app?vid=28208c5e-a420-44e7-b0a7-fbc156da9b7d","ios":"levelo://app?vid=28208c5e-a420-44e7-b0a7-fbc156da9b7d"},"vehicle_type_id":"4","last_reported":1715458067,"current_range_meters":4000,"station_id":"ce4bgv12rcd13ifvqcp0","pricing_plan_id":"cebpf4jnsgd1na2vs0mg"},{"bike_id":"e927a95c-94ec-448d-a33b-2db2c79eee0f","system_id":"levelo_inurba_marseille","lat":43.322872,"lon":5.382756,"is_reserved":false,"is_disabled":false,"rental_uris":{"android":"levelo://app?vid=e927a95c-94ec-448d-a33b-2db2c79eee0f","ios":"levelo://app?vid=e927a95c-94ec-448d-a33b-2db2c79eee0f"},"vehicle_type_id":"4","last_reported":1715458067,"current_range_meters":20000,"station_id":"ce4bhr12rcd13ifvqhqg","pricing_plan_id":"cebpf4jnsgd1na2vs0mg"},{"bike_id":"94e05cd4-a989-484c-ab75-a905bcec1f48","system_id":"levelo_inurba_marseille","lat":43.322872,"lon":5.382756,"is_reserved":false,"is_disabled":false,"rental_uris":{"android":"levelo://app?vid=94e05cd4-a989-484c-ab75-a905bcec1f48","ios":"levelo://app?vid=94e05cd4-a989-484c-ab75-a905bcec1f48"},"vehicle_type_id":"4","last_reported":1715458067,"current_range_meters":9200,"station_id":"ce4bhr12rcd13ifvqhqg","pricing_plan_id":"cebpf4jnsgd1na2vs0mg"},{"bike_id":"8b8b727e-8cc4-407b-b396-22de4655dafa","system_id":"levelo_inurba_marseille","lat":43.322909,"lon":5.382699,"is_reserved":false,"is_disabled":false,"rental_uris":{"android":"levelo://app?vid=8b8b727e-8cc4-407b-b396-22de4655dafa","ios":"levelo://app?vid=8b8b727e-8cc4-407b-b396-22de4655dafa"},"vehicle_type_id":"4","last_reported":1715458067,"current_range_meters":8800,"station_id":"ce4bhr12rcd13ifvqhqg","pricing_plan_id":"cebpf4jnsgd1na2vs0mg"},{"bike_id":"ece778aa-25f5-4fd3-98a8-0c6f16d6e323","system_id":"levelo_inurba_marseille","lat":43.297133,"lon":5.36612,"is_reserved":false,"is_disabled":false,"rental_uris":{"android":"levelo://app?vid=ece778aa-25f5-4fd3-98a8-0c6f16d6e323","ios":"levelo://app?vid=ece778aa-25f5-4fd3-98a8-0c6f16d6e323"},"vehicle_type_id":"4","last_reported":1715458067,"current_range_meters":20400,"station_id":"ce4bgn12rcd13ifvqbt0","pricing_plan_id":"cebpf4jnsgd1na2vs0mg"},{"bike_id":"0af5cabe-86e6-4e94-8aab-11f1e2f53884","system_id":"levelo_inurba_marseille","lat":43.297163,"lon":5.365866,"is_reserved":false,"is_disabled":false,"rental_uris":{"android":"levelo://app?vid=0af5cabe-86e6-4e94-8aab-11f1e2f53884","ios":"levelo://app?vid=0af5cabe-86e6-4e94-8aab-11f1e2f53884"},"vehicle_type_id":"4","last_reported":1715458067,"current_range_meters":29200,"station_id":"ce4bgn12rcd13ifvqbt0","pricing_plan_id":"cebpf4jnsgd1na2vs0mg"},{"bike_id":"e39b8ba7-d819-451b-acdb-6b302b1e8bd0","system_id":"levelo_inurba_marseille","lat":43.297163,"lon":5.365866,"is_reserved":false,"is_disabled":false,"rental_uris":{"android":"levelo://app?vid=e39b8ba7-d819-451b-acdb-6b302b1e8bd0","ios":"levelo://app?vid=e39b8ba7-d819-451b-acdb-6b302b1e8bd0"},"vehicle_type_id":"4","last_reported":1715458067,"current_range_meters":22400,"station_id":"ce4bgn12rcd13ifvqbt0","pricing_plan_id":"cebpf4jnsgd1na2vs0mg"},{"bike_id":"6879af83-7975-461a-a10c-1d28c7bf6a65","system_id":"levelo_inurba_marseille","lat":43.29573,"lon":5.367355,"is_reserved":false,"is_disabled":false,"rental_uris":{"android":"levelo://app?vid=6879af83-7975-461a-a10c-1d28c7bf6a65","ios":"levelo://app?vid=6879af83-7975-461a-a10c-1d28c7bf6a65"},"vehicle_type_id":"4","last_reported":1715458067,"current_range_meters":6800,"station_id":"ce4bgph2rcd13ifvqc2g","pricing_plan_id":"cebpf4jnsgd1na2vs0mg"},{"bike_id":"ffc8dfd4-d011-4b1d-a8d6-96552430f8ba","system_id":"levelo_inurba_marseille","lat":43.296131,"lon":5.370773,"is_reserved":false,"is_disabled":false,"rental_uris":{"android":"levelo://app?vid=ffc8dfd4-d011-4b1d-a8d6-96552430f8ba","ios":"levelo://app?vid=ffc8dfd4-d011-4b1d-a8d6-96552430f8ba"},"vehicle_type_id":"4","last_reported":1715458067,"current_range_meters":29200,"station_id":"ce4bgnh2rcd13ifvqc0g","pricing_plan_id":"cebpf4jnsgd1na2vs0mg"},{"bike_id":"93e80e3f-8b35-45ff-a77f-c776aafe13b7","system_id":"levelo_inurba_marseille","lat":43.296129,"lon":5.370777,"is_reserved":false,"is_disabled":false,"rental_uris":{"android":"levelo://app?vid=93e80e3f-8b35-45ff-a77f-c776aafe13b7","ios":"levelo://app?vid=93e80e3f-8b35-45ff-a77f-c776aafe13b7"},"vehicle_type_id":"4","last_reported":1715458067,"current_range_meters":4000,"station_id":"ce4bgnh2rcd13ifvqc0g","pricing_plan_id":"cebpf4jnsgd1na2vs0mg"},{"bike_id":"fd87e436-a256-4f6e-be42-2a2c77d4fe3c","system_id":"levelo_inurba_marseille","lat":43.296129,"lon":5.370777,"is_reserved":false,"is_disabled":false,"rental_uris":{"android":"levelo://app?vid=fd87e436-a256-4f6e-be42-2a2c77d4fe3c","ios":"levelo://app?vid=fd87e436-a256-4f6e-be42-2a2c77d4fe3c"},"vehicle_type_id":"4","last_reported":1715458067,"current_range_meters":6400,"station_id":"ce4bgnh2rcd13ifvqc0g","pricing_plan_id":"cebpf4jnsgd1na2vs0mg"},{"bike_id":"17724cbd-bb50-4a97-aeab-c9c7dd881926","system_id":"levelo_inurba_marseille","lat":43.29586,"lon":5.36737,"is_reserved":false,"is_disabled":false,"rental_uris":{"android":"levelo://app?vid=17724cbd-bb50-4a97-aeab-c9c7dd881926","ios":"levelo://app?vid=17724cbd-bb50-4a97-aeab-c9c7dd881926"},"vehicle_type_id":"4","last_reported":1715458067,"current_range_meters":1600,"station_id":"ce4bgph2rcd13ifvqc2g","pricing_plan_id":"cebpf4jnsgd1na2vs0mg"},{"bike_id":"453a43f7-c054-4439-8812-2afd9c65a642","system_id":"levelo_inurba_marseille","lat":43.29583,"lon":5.36737,"is_reserved":false,"is_disabled":false,"rental_uris":{"android":"levelo://app?vid=453a43f7-c054-4439-8812-2afd9c65a642","ios":"levelo://app?vid=453a43f7-c054-4439-8812-2afd9c65a642"},"vehicle_type_id":"4","last_reported":1715458067,"current_range_meters":3200,"station_id":"ce4bgph2rcd13ifvqc2g","pricing_plan_id":"cebpf4jnsgd1na2vs0mg"},{"bike_id":"1f428780-77ff-4bc6-ad93-88923086a95b","system_id":"levelo_inurba_marseille","lat":43.29618,"lon":5.3717,"is_reserved":false,"is_disabled":false,"rental_uris":{"android":"levelo://app?vid=1f428780-77ff-4bc6-ad93-88923086a95b","ios":"levelo://app?vid=1f428780-77ff-4bc6-ad93-88923086a95b"},"vehicle_type_id":"4","last_reported":1715458067,"current_range_meters":4000,"station_id":"ce4bgnh2rcd13ifvqc0g","pricing_plan_id":"cebpf4jnsgd1na2vs0mg"},{"bike_id":"2251ffbd-a35a-44b8-9782-2254956ee125","system_id":"levelo_inurba_marseille","lat":43.299028,"lon":5.381509,"is_reserved":false,"is_disabled":false,"rental_uris":{"android":"levelo://app?vid=2251ffbd-a35a-44b8-9782-2254956ee125","ios":"levelo://app?vid=2251ffbd-a35a-44b8-9782-2254956ee125"},"vehicle_type_id":"4","last_reported":1715458067,"current_range_meters":8000,"station_id":"ce4bgj12rcd13ifvqbc0","pricing_plan_id":"cebpf4jnsgd1na2vs0mg"},{"bike_id":"613a1404-62c4-49f8-aede-0543fbfb327d","system_id":"levelo_inurba_marseille","lat":43.299028,"lon":5.381509,"is_reserved":false,"is_disabled":false,"rental_uris":{"android":"levelo://app?vid=613a1404-62c4-49f8-aede-0543fbfb327d","ios":"levelo://app?vid=613a1404-62c4-49f8-aede-0543fbfb327d"},"vehicle_type_id":"4","last_reported":1715458067,"current_range_meters":2000,"station_id":"ce4bgj12rcd13ifvqbc0","pricing_plan_id":"cebpf4jnsgd1na2vs0mg"},{"bike_id":"9f252a48-dd03-4d91-82b5-e316db9e638f","system_id":"levelo_inurba_marseille","lat":43.30952,"lon":5.39027,"is_reserved":false,"is_disabled":false,"rental_uris":{"android":"levelo://app?vid=9f252a48-dd03-4d91-82b5-e316db9e638f","ios":"levelo://app?vid=9f252a48-dd03-4d91-82b5-e316db9e638f"},"vehicle_type_id":"4","last_reported":1715458067,"current_range_meters":0,"station_id":"ce4bgup2rcd13ifvqco0","pricing_plan_id":"cebpf4jnsgd1na2vs0mg"},{"bike_id":"eda5ffe2-f531-4c41-ae94-96a91449cecb","system_id":"levelo_inurba_marseille","lat":43.309563,"lon":5.390317,"is_reserved":false,"is_disabled":false,"rental_uris":{"android":"levelo://app?vid=eda5ffe2-f531-4c41-ae94-96a91449cecb","ios":"levelo://app?vid=eda5ffe2-f531-4c41-ae94-96a91449cecb"},"vehicle_type_id":"4","last_reported":1715458067,"current_range_meters":16000,"station_id":"ce4bgup2rcd13ifvqco0","pricing_plan_id":"cebpf4jnsgd1na2vs0mg"},{"bike_id":"f63e8496-f41f-41c6-828f-7785ef185743","system_id":"levelo_inurba_marseille","lat":43.30953,"lon":5.390319,"is_reserved":false,"is_disabled":false,"rental_uris":{"android":"levelo://app?vid=f63e8496-f41f-41c6-828f-7785ef185743","ios":"levelo://app?vid=f63e8496-f41f-41c6-828f-7785ef185743"},"vehicle_type_id":"4","last_reported":1715458067,"current_range_meters":11200,"station_id":"ce4bgup2rcd13ifvqco0","pricing_plan_id":"cebpf4jnsgd1na2vs0mg"},{"bike_id":"d37557c1-5b92-45c1-bd8c-e849cb150620","system_id":"levelo_inurba_marseille","lat":43.309574,"lon":5.390368,"is_reserved":false,"is_disabled":false,"rental_uris":{"android":"levelo://app?vid=d37557c1-5b92-45c1-bd8c-e849cb150620","ios":"levelo://app?vid=d37557c1-5b92-45c1-bd8c-e849cb150620"},"vehicle_type_id":"4","last_reported":1715458067,"current_range_meters":4000,"station_id":"ce4bgup2rcd13ifvqco0","pricing_plan_id":"cebpf4jnsgd1na2vs0mg"},{"bike_id":"305badf6-9b2c-498b-ad7a-f470f5e82ce6","system_id":"levelo_inurba_marseille","lat":43.30946,"lon":5.39043,"is_reserved":false,"is_disabled":false,"rental_uris":{"android":"levelo://app?vid=305badf6-9b2c-498b-ad7a-f470f5e82ce6","ios":"levelo://app?vid=305badf6-9b2c-498b-ad7a-f470f5e82ce6"},"vehicle_type_id":"4","last_reported":1715458067,"current_range_meters":0,"station_id":"ce4bgup2rcd13ifvqco0","pricing_plan_id":"cebpf4jnsgd1na2vs0mg"},{"bike_id":"8ab92123-1565-4ddc-8ffb-a41b5684b739","system_id":"levelo_inurba_marseille","lat":43.317557,"lon":5.390173,"is_reserved":false,"is_disabled":false,"rental_uris":{"android":"levelo://app?vid=8ab92123-1565-4ddc-8ffb-a41b5684b739","ios":"levelo://app?vid=8ab92123-1565-4ddc-8ffb-a41b5684b739"},"vehicle_type_id":"4","last_reported":1715458067,"current_range_meters":11200,"station_id":"ce4bhqp2rcd13ifvqhng","pricing_plan_id":"cebpf4jnsgd1na2vs0mg"},{"bike_id":"5ac93315-54c4-458e-afef-cc7b23a07317","system_id":"levelo_inurba_marseille","lat":43.317557,"lon":5.390173,"is_reserved":false,"is_disabled":false,"rental_uris":{"android":"levelo://app?vid=5ac93315-54c4-458e-afef-cc7b23a07317","ios":"levelo://app?vid=5ac93315-54c4-458e-afef-cc7b23a07317"},"vehicle_type_id":"4","last_reported":1715458067,"current_range_meters":6000,"station_id":"ce4bhqp2rcd13ifvqhng","pricing_plan_id":"cebpf4jnsgd1na2vs0mg"},{"bike_id":"c9b5c66e-11d8-4605-844e-79d67267063e","system_id":"levelo_inurba_marseille","lat":43.317557,"lon":5.390173,"is_reserved":false,"is_disabled":false,"rental_uris":{"android":"levelo://app?vid=c9b5c66e-11d8-4605-844e-79d67267063e","ios":"levelo://app?vid=c9b5c66e-11d8-4605-844e-79d67267063e"},"vehicle_type_id":"4","last_reported":1715458067,"current_range_meters":14400,"station_id":"ce4bhqp2rcd13ifvqhng","pricing_plan_id":"cebpf4jnsgd1na2vs0mg"},{"bike_id":"117ea6a9-01af-49f7-ba3b-ee891c9546f5","system_id":"levelo_inurba_marseille","lat":43.31759,"lon":5.39016,"is_reserved":false,"is_disabled":false,"rental_uris":{"android":"levelo://app?vid=117ea6a9-01af-49f7-ba3b-ee891c9546f5","ios":"levelo://app?vid=117ea6a9-01af-49f7-ba3b-ee891c9546f5"},"vehicle_type_id":"4","last_reported":1715458067,"current_range_meters":2800,"station_id":"ce4bhqp2rcd13ifvqhng","pricing_plan_id":"cebpf4jnsgd1na2vs0mg"},{"bike_id":"e3604d0e-f552-4bef-ab20-0b6ff1bd1e80","system_id":"levelo_inurba_marseille","lat":43.317557,"lon":5.390173,"is_reserved":false,"is_disabled":false,"rental_uris":{"android":"levelo://app?vid=e3604d0e-f552-4bef-ab20-0b6ff1bd1e80","ios":"levelo://app?vid=e3604d0e-f552-4bef-ab20-0b6ff1bd1e80"},"vehicle_type_id":"4","last_reported":1715458067,"current_range_meters":21600,"station_id":"ce4bhqp2rcd13ifvqhng","pricing_plan_id":"cebpf4jnsgd1na2vs0mg"},{"bike_id":"88031d4c-0039-492a-b461-541581b52a53","system_id":"levelo_inurba_marseille","lat":43.317557,"lon":5.390173,"is_reserved":false,"is_disabled":false,"rental_uris":{"android":"levelo://app?vid=88031d4c-0039-492a-b461-541581b52a53","ios":"levelo://app?vid=88031d4c-0039-492a-b461-541581b52a53"},"vehicle_type_id":"4","last_reported":1715458067,"current_range_meters":28800,"station_id":"ce4bhqp2rcd13ifvqhng","pricing_plan_id":"cebpf4jnsgd1na2vs0mg"},{"bike_id":"c559703e-1287-4477-846c-0bde0605ad1d","system_id":"levelo_inurba_marseille","lat":43.29798,"lon":5.38083,"is_reserved":false,"is_disabled":false,"rental_uris":{"android":"levelo://app?vid=c559703e-1287-4477-846c-0bde0605ad1d","ios":"levelo://app?vid=c559703e-1287-4477-846c-0bde0605ad1d"},"vehicle_type_id":"4","last_reported":1715458067,"current_range_meters":1600,"station_id":"ce4bgip2rcd13ifvqbb0","pricing_plan_id":"cebpf4jnsgd1na2vs0mg"},{"bike_id":"397c1678-3554-4a8d-a63d-4ee1b335f308","system_id":"levelo_inurba_marseille","lat":43.29573,"lon":5.367355,"is_reserved":false,"is_disabled":false,"rental_uris":{"android":"levelo://app?vid=397c1678-3554-4a8d-a63d-4ee1b335f308","ios":"levelo://app?vid=397c1678-3554-4a8d-a63d-4ee1b335f308"},"vehicle_type_id":"4","last_reported":1715458067,"current_range_meters":400,"station_id":"ce4bgph2rcd13ifvqc2g","pricing_plan_id":"cebpf4jnsgd1na2vs0mg"},{"bike_id":"0f026692-a326-42a7-a841-70be2dd608fd","system_id":"levelo_inurba_marseille","lat":43.29789,"lon":5.38087,"is_reserved":false,"is_disabled":false,"rental_uris":{"android":"levelo://app?vid=0f026692-a326-42a7-a841-70be2dd608fd","ios":"levelo://app?vid=0f026692-a326-42a7-a841-70be2dd608fd"},"vehicle_type_id":"4","last_reported":1715458067,"current_range_meters":0,"station_id":"ce4bgip2rcd13ifvqbb0","pricing_plan_id":"cebpf4jnsgd1na2vs0mg"},{"bike_id":"771040c3-d986-48d7-a046-f665dbfc6b27","system_id":"levelo_inurba_marseille","lat":43.295772,"lon":5.375173,"is_reserved":false,"is_disabled":false,"rental_uris":{"android":"levelo://app?vid=771040c3-d986-48d7-a046-f665dbfc6b27","ios":"levelo://app?vid=771040c3-d986-48d7-a046-f665dbfc6b27"},"vehicle_type_id":"4","last_reported":1715458067,"current_range_meters":0,"station_id":"ce4bgh92rcd13ifvqb50","pricing_plan_id":"cebpf4jnsgd1na2vs0mg"},{"bike_id":"6f2cb598-787d-49a9-979f-ea14cb09b02a","system_id":"levelo_inurba_marseille","lat":43.298037,"lon":5.381066,"is_reserved":false,"is_disabled":false,"rental_uris":{"android":"levelo://app?vid=6f2cb598-787d-49a9-979f-ea14cb09b02a","ios":"levelo://app?vid=6f2cb598-787d-49a9-979f-ea14cb09b02a"},"vehicle_type_id":"4","last_reported":1715458067,"current_range_meters":0,"station_id":"ce4bgip2rcd13ifvqbb0","pricing_plan_id":"cebpf4jnsgd1na2vs0mg"},{"bike_id":"b02664ad-7c34-489a-a175-48007fd762f4","system_id":"levelo_inurba_marseille","lat":43.29789,"lon":5.380923,"is_reserved":false,"is_disabled":false,"rental_uris":{"android":"levelo://app?vid=b02664ad-7c34-489a-a175-48007fd762f4","ios":"levelo://app?vid=b02664ad-7c34-489a-a175-48007fd762f4"},"vehicle_type_id":"4","last_reported":1715458067,"current_range_meters":0,"station_id":"ce4bgip2rcd13ifvqbb0","pricing_plan_id":"cebpf4jnsgd1na2vs0mg"},{"bike_id":"7d0a5df9-d58a-4b38-8077-aede3423ad77","system_id":"levelo_inurba_marseille","lat":43.29572,"lon":5.37502,"is_reserved":false,"is_disabled":false,"rental_uris":{"android":"levelo://app?vid=7d0a5df9-d58a-4b38-8077-aede3423ad77","ios":"levelo://app?vid=7d0a5df9-d58a-4b38-8077-aede3423ad77"},"vehicle_type_id":"4","last_reported":1715458067,"current_range_meters":4800,"station_id":"ce4bgh92rcd13ifvqb50","pricing_plan_id":"cebpf4jnsgd1na2vs0mg"},{"bike_id":"0eaf7995-c257-4b19-ac7b-90c5112e437d","system_id":"levelo_inurba_marseille","lat":43.295748,"lon":5.37522,"is_reserved":false,"is_disabled":false,"rental_uris":{"android":"levelo://app?vid=0eaf7995-c257-4b19-ac7b-90c5112e437d","ios":"levelo://app?vid=0eaf7995-c257-4b19-ac7b-90c5112e437d"},"vehicle_type_id":"4","last_reported":1715458067,"current_range_meters":0,"station_id":"ce4bgh92rcd13ifvqb50","pricing_plan_id":"cebpf4jnsgd1na2vs0mg"},{"bike_id":"a712a299-e107-4791-99a3-dc2acb03ee56","system_id":"levelo_inurba_marseille","lat":43.298037,"lon":5.381066,"is_reserved":false,"is_disabled":false,"rental_uris":{"android":"levelo://app?vid=a712a299-e107-4791-99a3-dc2acb03ee56","ios":"levelo://app?vid=a712a299-e107-4791-99a3-dc2acb03ee56"},"vehicle_type_id":"4","last_reported":1715458067,"current_range_meters":0,"station_id":"ce4bgip2rcd13ifvqbb0","pricing_plan_id":"cebpf4jnsgd1na2vs0mg"},{"bike_id":"613f9118-3b78-48b8-a5cb-9f0a04406d2d","system_id":"levelo_inurba_marseille","lat":43.295748,"lon":5.37522,"is_reserved":false,"is_disabled":false,"rental_uris":{"android":"levelo://app?vid=613f9118-3b78-48b8-a5cb-9f0a04406d2d","ios":"levelo://app?vid=613f9118-3b78-48b8-a5cb-9f0a04406d2d"},"vehicle_type_id":"4","last_reported":1715458067,"current_range_meters":18400,"station_id":"ce4bgh92rcd13ifvqb50","pricing_plan_id":"cebpf4jnsgd1na2vs0mg"},{"bike_id":"500173de-b84f-444a-90cc-9bb5f04b6729","system_id":"levelo_inurba_marseille","lat":43.296263,"lon":5.377094,"is_reserved":false,"is_disabled":false,"rental_uris":{"android":"levelo://app?vid=500173de-b84f-444a-90cc-9bb5f04b6729","ios":"levelo://app?vid=500173de-b84f-444a-90cc-9bb5f04b6729"},"vehicle_type_id":"4","last_reported":1715458067,"current_range_meters":6800,"station_id":"ce4bgi92rcd13ifvqb90","pricing_plan_id":"cebpf4jnsgd1na2vs0mg"},{"bike_id":"a3c0fd6a-5c4c-43bb-ae31-b7a893e25b9f","system_id":"levelo_inurba_marseille","lat":43.298037,"lon":5.381066,"is_reserved":false,"is_disabled":false,"rental_uris":{"android":"levelo://app?vid=a3c0fd6a-5c4c-43bb-ae31-b7a893e25b9f","ios":"levelo://app?vid=a3c0fd6a-5c4c-43bb-ae31-b7a893e25b9f"},"vehicle_type_id":"4","last_reported":1715458067,"current_range_meters":15600,"station_id":"ce4bgip2rcd13ifvqbb0","pricing_plan_id":"cebpf4jnsgd1na2vs0mg"},{"bike_id":"ee230d03-f517-46ca-b04b-80343a39a2cd","system_id":"levelo_inurba_marseille","lat":43.295748,"lon":5.37522,"is_reserved":false,"is_disabled":false,"rental_uris":{"android":"levelo://app?vid=ee230d03-f517-46ca-b04b-80343a39a2cd","ios":"levelo://app?vid=ee230d03-f517-46ca-b04b-80343a39a2cd"},"vehicle_type_id":"4","last_reported":1715458067,"current_range_meters":12400,"station_id":"ce4bgh92rcd13ifvqb50","pricing_plan_id":"cebpf4jnsgd1na2vs0mg"},{"bike_id":"419d3dee-4201-4f54-bda3-96dca33c1d22","system_id":"levelo_inurba_marseille","lat":43.30428,"lon":5.38882,"is_reserved":false,"is_disabled":false,"rental_uris":{"android":"levelo://app?vid=419d3dee-4201-4f54-bda3-96dca33c1d22","ios":"levelo://app?vid=419d3dee-4201-4f54-bda3-96dca33c1d22"},"vehicle_type_id":"4","last_reported":1715458067,"current_range_meters":0,"station_id":"ce4bgk12rcd13ifvqbi0","pricing_plan_id":"cebpf4jnsgd1na2vs0mg"},{"bike_id":"94470501-e6ed-4546-996b-846c69d5c341","system_id":"levelo_inurba_marseille","lat":43.304274,"lon":5.388873,"is_reserved":false,"is_disabled":false,"rental_uris":{"android":"levelo://app?vid=94470501-e6ed-4546-996b-846c69d5c341","ios":"levelo://app?vid=94470501-e6ed-4546-996b-846c69d5c341"},"vehicle_type_id":"4","last_reported":1715458067,"current_range_meters":15600,"station_id":"ce4bgk12rcd13ifvqbi0","pricing_plan_id":"cebpf4jnsgd1na2vs0mg"},{"bike_id":"be223a97-935e-46f9-b52d-084b5572b3f9","system_id":"levelo_inurba_marseille","lat":43.298037,"lon":5.381066,"is_reserved":false,"is_disabled":false,"rental_uris":{"android":"levelo://app?vid=be223a97-935e-46f9-b52d-084b5572b3f9","ios":"levelo://app?vid=be223a97-935e-46f9-b52d-084b5572b3f9"},"vehicle_type_id":"4","last_reported":1715458067,"current_range_meters":22400,"station_id":"ce4bgip2rcd13ifvqbb0","pricing_plan_id":"cebpf4jnsgd1na2vs0mg"},{"bike_id":"50d34344-c854-4fea-977a-465ff2db923e","system_id":"levelo_inurba_marseille","lat":43.296277,"lon":5.377108,"is_reserved":false,"is_disabled":false,"rental_uris":{"android":"levelo://app?vid=50d34344-c854-4fea-977a-465ff2db923e","ios":"levelo://app?vid=50d34344-c854-4fea-977a-465ff2db923e"},"vehicle_type_id":"4","last_reported":1715458067,"current_range_meters":5200,"station_id":"ce4bgi92rcd13ifvqb90","pricing_plan_id":"cebpf4jnsgd1na2vs0mg"},{"bike_id":"52105503-3333-476a-b162-16619bfe7cad","system_id":"levelo_inurba_marseille","lat":43.304278,"lon":5.388868,"is_reserved":false,"is_disabled":false,"rental_uris":{"android":"levelo://app?vid=52105503-3333-476a-b162-16619bfe7cad","ios":"levelo://app?vid=52105503-3333-476a-b162-16619bfe7cad"},"vehicle_type_id":"4","last_reported":1715458067,"current_range_meters":24800,"station_id":"ce4bgk12rcd13ifvqbi0","pricing_plan_id":"cebpf4jnsgd1na2vs0mg"},{"bike_id":"caf353c5-6933-40ec-8189-a6f2b03322ff","system_id":"levelo_inurba_marseille","lat":43.295748,"lon":5.37522,"is_reserved":false,"is_disabled":false,"rental_uris":{"android":"levelo://app?vid=caf353c5-6933-40ec-8189-a6f2b03322ff","ios":"levelo://app?vid=caf353c5-6933-40ec-8189-a6f2b03322ff"},"vehicle_type_id":"4","last_reported":1715458067,"current_range_meters":400,"station_id":"ce4bgh92rcd13ifvqb50","pricing_plan_id":"cebpf4jnsgd1na2vs0mg"},{"bike_id":"5bc35382-5339-4dfc-a4a3-04be1f91f65a","system_id":"levelo_inurba_marseille","lat":43.29624,"lon":5.37718,"is_reserved":false,"is_disabled":false,"rental_uris":{"android":"levelo://app?vid=5bc35382-5339-4dfc-a4a3-04be1f91f65a","ios":"levelo://app?vid=5bc35382-5339-4dfc-a4a3-04be1f91f65a"},"vehicle_type_id":"4","last_reported":1715458067,"current_range_meters":0,"station_id":"ce4bgi92rcd13ifvqb90","pricing_plan_id":"cebpf4jnsgd1na2vs0mg"},{"bike_id":"301f08e1-8da8-448e-9445-cb769feb4021","system_id":"levelo_inurba_marseille","lat":43.304278,"lon":5.388868,"is_reserved":false,"is_disabled":false,"rental_uris":{"android":"levelo://app?vid=301f08e1-8da8-448e-9445-cb769feb4021","ios":"levelo://app?vid=301f08e1-8da8-448e-9445-cb769feb4021"},"vehicle_type_id":"4","last_reported":1715458067,"current_range_meters":23600,"station_id":"ce4bgk12rcd13ifvqbi0","pricing_plan_id":"cebpf4jnsgd1na2vs0mg"},{"bike_id":"1b38d48e-59d7-46f0-9ec9-6786ab5fecac","system_id":"levelo_inurba_marseille","lat":43.295748,"lon":5.37522,"is_reserved":false,"is_disabled":false,"rental_uris":{"android":"levelo://app?vid=1b38d48e-59d7-46f0-9ec9-6786ab5fecac","ios":"levelo://app?vid=1b38d48e-59d7-46f0-9ec9-6786ab5fecac"},"vehicle_type_id":"4","last_reported":1715458067,"current_range_meters":0,"station_id":"ce4bgh92rcd13ifvqb50","pricing_plan_id":"cebpf4jnsgd1na2vs0mg"},{"bike_id":"bc312e84-8f22-4a2c-bf99-b1e1272342ec","system_id":"levelo_inurba_marseille","lat":43.304278,"lon":5.388868,"is_reserved":false,"is_disabled":false,"rental_uris":{"android":"levelo://app?vid=bc312e84-8f22-4a2c-bf99-b1e1272342ec","ios":"levelo://app?vid=bc312e84-8f22-4a2c-bf99-b1e1272342ec"},"vehicle_type_id":"4","last_reported":1715458067,"current_range_meters":22400,"station_id":"ce4bgk12rcd13ifvqbi0","pricing_plan_id":"cebpf4jnsgd1na2vs0mg"},{"bike_id":"2e439d10-a04c-4b2b-bf3a-86b0fcf4d3b2","system_id":"levelo_inurba_marseille","lat":43.295748,"lon":5.37522,"is_reserved":false,"is_disabled":false,"rental_uris":{"android":"levelo://app?vid=2e439d10-a04c-4b2b-bf3a-86b0fcf4d3b2","ios":"levelo://app?vid=2e439d10-a04c-4b2b-bf3a-86b0fcf4d3b2"},"vehicle_type_id":"4","last_reported":1715458067,"current_range_meters":28000,"station_id":"ce4bgh92rcd13ifvqb50","pricing_plan_id":"cebpf4jnsgd1na2vs0mg"},{"bike_id":"ec9136a7-aea8-4586-824e-633d97f64ed9","system_id":"levelo_inurba_marseille","lat":43.296201,"lon":5.377236,"is_reserved":false,"is_disabled":false,"rental_uris":{"android":"levelo://app?vid=ec9136a7-aea8-4586-824e-633d97f64ed9","ios":"levelo://app?vid=ec9136a7-aea8-4586-824e-633d97f64ed9"},"vehicle_type_id":"4","last_reported":1715458067,"current_range_meters":0,"station_id":"ce4bgi92rcd13ifvqb90","pricing_plan_id":"cebpf4jnsgd1na2vs0mg"},{"bike_id":"007e3d47-31b6-49af-93fd-3e746e9b22a3","system_id":"levelo_inurba_marseille","lat":43.29555,"lon":5.37507,"is_reserved":false,"is_disabled":false,"rental_uris":{"android":"levelo://app?vid=007e3d47-31b6-49af-93fd-3e746e9b22a3","ios":"levelo://app?vid=007e3d47-31b6-49af-93fd-3e746e9b22a3"},"vehicle_type_id":"4","last_reported":1715458067,"current_range_meters":0,"station_id":"ce4bgh92rcd13ifvqb50","pricing_plan_id":"cebpf4jnsgd1na2vs0mg"},{"bike_id":"847ffd41-b33d-438c-8926-628255fb64f9","system_id":"levelo_inurba_marseille","lat":43.304278,"lon":5.388868,"is_reserved":false,"is_disabled":false,"rental_uris":{"android":"levelo://app?vid=847ffd41-b33d-438c-8926-628255fb64f9","ios":"levelo://app?vid=847ffd41-b33d-438c-8926-628255fb64f9"},"vehicle_type_id":"4","last_reported":1715458067,"current_range_meters":23600,"station_id":"ce4bgk12rcd13ifvqbi0","pricing_plan_id":"cebpf4jnsgd1na2vs0mg"},{"bike_id":"d6266799-6336-4ee0-90dc-33a2620eed62","system_id":"levelo_inurba_marseille","lat":43.29617,"lon":5.37729,"is_reserved":false,"is_disabled":false,"rental_uris":{"android":"levelo://app?vid=d6266799-6336-4ee0-90dc-33a2620eed62","ios":"levelo://app?vid=d6266799-6336-4ee0-90dc-33a2620eed62"},"vehicle_type_id":"4","last_reported":1715458067,"current_range_meters":0,"station_id":"ce4bgi92rcd13ifvqb90","pricing_plan_id":"cebpf4jnsgd1na2vs0mg"},{"bike_id":"ea39bb4e-4222-4573-a20a-535e93cc7f8c","system_id":"levelo_inurba_marseille","lat":43.296277,"lon":5.377108,"is_reserved":false,"is_disabled":false,"rental_uris":{"android":"levelo://app?vid=ea39bb4e-4222-4573-a20a-535e93cc7f8c","ios":"levelo://app?vid=ea39bb4e-4222-4573-a20a-535e93cc7f8c"},"vehicle_type_id":"4","last_reported":1715458067,"current_range_meters":2400,"station_id":"ce4bgi92rcd13ifvqb90","pricing_plan_id":"cebpf4jnsgd1na2vs0mg"},{"bike_id":"d3e36a19-74af-481a-b67d-7f0b6b7a68e2","system_id":"levelo_inurba_marseille","lat":43.2954,"lon":5.37512,"is_reserved":false,"is_disabled":false,"rental_uris":{"android":"levelo://app?vid=d3e36a19-74af-481a-b67d-7f0b6b7a68e2","ios":"levelo://app?vid=d3e36a19-74af-481a-b67d-7f0b6b7a68e2"},"vehicle_type_id":"4","last_reported":1715458067,"current_range_meters":2400,"station_id":"ce4bgkp2rcd13ifvqbmg","pricing_plan_id":"cebpf4jnsgd1na2vs0mg"},{"bike_id":"96ab395d-4566-40de-ba7c-322745a1a648","system_id":"levelo_inurba_marseille","lat":43.299818,"lon":5.384858,"is_reserved":false,"is_disabled":false,"rental_uris":{"android":"levelo://app?vid=96ab395d-4566-40de-ba7c-322745a1a648","ios":"levelo://app?vid=96ab395d-4566-40de-ba7c-322745a1a648"},"vehicle_type_id":"4","last_reported":1715458067,"current_range_meters":0,"station_id":"ce4bgj92rcd13ifvqbd0","pricing_plan_id":"cebpf4jnsgd1na2vs0mg"},{"bike_id":"dab08b94-9012-4ca9-9019-da2dc829987d","system_id":"levelo_inurba_marseille","lat":43.2953,"lon":5.37505,"is_reserved":false,"is_disabled":false,"rental_uris":{"android":"levelo://app?vid=dab08b94-9012-4ca9-9019-da2dc829987d","ios":"levelo://app?vid=dab08b94-9012-4ca9-9019-da2dc829987d"},"vehicle_type_id":"4","last_reported":1715458067,"current_range_meters":21600,"station_id":"ce4bgkp2rcd13ifvqbmg","pricing_plan_id":"cebpf4jnsgd1na2vs0mg"},{"bike_id":"78f567cd-0d31-4338-ba0a-c2d5f394a2a5","system_id":"levelo_inurba_marseille","lat":43.299707,"lon":5.384859,"is_reserved":false,"is_disabled":false,"rental_uris":{"android":"levelo://app?vid=78f567cd-0d31-4338-ba0a-c2d5f394a2a5","ios":"levelo://app?vid=78f567cd-0d31-4338-ba0a-c2d5f394a2a5"},"vehicle_type_id":"4","last_reported":1715458067,"current_range_meters":6800,"station_id":"ce4bgj92rcd13ifvqbd0","pricing_plan_id":"cebpf4jnsgd1na2vs0mg"},{"bike_id":"08538bbd-9c9b-4c7e-93a7-d869d968dd41","system_id":"levelo_inurba_marseille","lat":43.29528,"lon":5.37501,"is_reserved":false,"is_disabled":false,"rental_uris":{"android":"levelo://app?vid=08538bbd-9c9b-4c7e-93a7-d869d968dd41","ios":"levelo://app?vid=08538bbd-9c9b-4c7e-93a7-d869d968dd41"},"vehicle_type_id":"4","last_reported":1715458067,"current_range_meters":10000,"station_id":"ce4bgkp2rcd13ifvqbmg","pricing_plan_id":"cebpf4jnsgd1na2vs0mg"},{"bike_id":"f6e81c3e-a976-42f2-b70e-137a547528e2","system_id":"levelo_inurba_marseille","lat":43.29974,"lon":5.384965,"is_reserved":false,"is_disabled":false,"rental_uris":{"android":"levelo://app?vid=f6e81c3e-a976-42f2-b70e-137a547528e2","ios":"levelo://app?vid=f6e81c3e-a976-42f2-b70e-137a547528e2"},"vehicle_type_id":"4","last_reported":1715458067,"current_range_meters":4400,"station_id":"ce4bgj92rcd13ifvqbd0","pricing_plan_id":"cebpf4jnsgd1na2vs0mg"},{"bike_id":"6bac8875-3741-499c-b3fd-5bb45ab507da","system_id":"levelo_inurba_marseille","lat":43.299717,"lon":5.384845,"is_reserved":false,"is_disabled":false,"rental_uris":{"android":"levelo://app?vid=6bac8875-3741-499c-b3fd-5bb45ab507da","ios":"levelo://app?vid=6bac8875-3741-499c-b3fd-5bb45ab507da"},"vehicle_type_id":"4","last_reported":1715458067,"current_range_meters":6000,"station_id":"ce4bgj92rcd13ifvqbd0","pricing_plan_id":"cebpf4jnsgd1na2vs0mg"},{"bike_id":"fb9b2d32-a511-4ab6-944b-fc849684fcab","system_id":"levelo_inurba_marseille","lat":43.299673,"lon":5.384979,"is_reserved":false,"is_disabled":false,"rental_uris":{"android":"levelo://app?vid=fb9b2d32-a511-4ab6-944b-fc849684fcab","ios":"levelo://app?vid=fb9b2d32-a511-4ab6-944b-fc849684fcab"},"vehicle_type_id":"4","last_reported":1715458067,"current_range_meters":0,"station_id":"ce4bgj92rcd13ifvqbd0","pricing_plan_id":"cebpf4jnsgd1na2vs0mg"},{"bike_id":"dca9e356-dca8-4a18-9f58-ccacf55fb2cf","system_id":"levelo_inurba_marseille","lat":43.299724,"lon":5.384848,"is_reserved":false,"is_disabled":false,"rental_uris":{"android":"levelo://app?vid=dca9e356-dca8-4a18-9f58-ccacf55fb2cf","ios":"levelo://app?vid=dca9e356-dca8-4a18-9f58-ccacf55fb2cf"},"vehicle_type_id":"4","last_reported":1715458067,"current_range_meters":20000,"station_id":"ce4bgj92rcd13ifvqbd0","pricing_plan_id":"cebpf4jnsgd1na2vs0mg"},{"bike_id":"a8558821-420f-47f4-9d8a-8e547825cb01","system_id":"levelo_inurba_marseille","lat":43.29958,"lon":5.38501,"is_reserved":false,"is_disabled":false,"rental_uris":{"android":"levelo://app?vid=a8558821-420f-47f4-9d8a-8e547825cb01","ios":"levelo://app?vid=a8558821-420f-47f4-9d8a-8e547825cb01"},"vehicle_type_id":"4","last_reported":1715458067,"current_range_meters":22800,"station_id":"ce4bgj92rcd13ifvqbd0","pricing_plan_id":"cebpf4jnsgd1na2vs0mg"},{"bike_id":"6eade27a-763d-4f00-b865-03f835783ec3","system_id":"levelo_inurba_marseille","lat":43.29958,"lon":5.38504,"is_reserved":false,"is_disabled":false,"rental_uris":{"android":"levelo://app?vid=6eade27a-763d-4f00-b865-03f835783ec3","ios":"levelo://app?vid=6eade27a-763d-4f00-b865-03f835783ec3"},"vehicle_type_id":"4","last_reported":1715458067,"current_range_meters":0,"station_id":"ce4bgj92rcd13ifvqbd0","pricing_plan_id":"cebpf4jnsgd1na2vs0mg"},{"bike_id":"daea4f0b-c564-46fd-8cac-acc3bab5e006","system_id":"levelo_inurba_marseille","lat":43.299032,"lon":5.384822,"is_reserved":false,"is_disabled":false,"rental_uris":{"android":"levelo://app?vid=daea4f0b-c564-46fd-8cac-acc3bab5e006","ios":"levelo://app?vid=daea4f0b-c564-46fd-8cac-acc3bab5e006"},"vehicle_type_id":"4","last_reported":1715458067,"current_range_meters":0,"station_id":"","pricing_plan_id":"cebpf4jnsgd1na2vs0mg"},{"bike_id":"b7a8912c-8a7d-4e12-9580-854fcaddddcb","system_id":"levelo_inurba_marseille","lat":43.32362,"lon":5.38881,"is_reserved":false,"is_disabled":false,"rental_uris":{"android":"levelo://app?vid=b7a8912c-8a7d-4e12-9580-854fcaddddcb","ios":"levelo://app?vid=b7a8912c-8a7d-4e12-9580-854fcaddddcb"},"vehicle_type_id":"4","last_reported":1715458067,"current_range_meters":7200,"station_id":"ce4bhqp2rcd13ifvqhog","pricing_plan_id":"cebpf4jnsgd1na2vs0mg"},{"bike_id":"59f7ed56-efa1-4a89-b479-251d4588ad8a","system_id":"levelo_inurba_marseille","lat":43.32365,"lon":5.38883,"is_reserved":false,"is_disabled":false,"rental_uris":{"android":"levelo://app?vid=59f7ed56-efa1-4a89-b479-251d4588ad8a","ios":"levelo://app?vid=59f7ed56-efa1-4a89-b479-251d4588ad8a"},"vehicle_type_id":"4","last_reported":1715458067,"current_range_meters":14400,"station_id":"ce4bhqp2rcd13ifvqhog","pricing_plan_id":"cebpf4jnsgd1na2vs0mg"},{"bike_id":"3512b53f-9906-4c3e-8801-a85814bc0d02","system_id":"levelo_inurba_marseille","lat":43.32367,"lon":5.388836,"is_reserved":false,"is_disabled":false,"rental_uris":{"android":"levelo://app?vid=3512b53f-9906-4c3e-8801-a85814bc0d02","ios":"levelo://app?vid=3512b53f-9906-4c3e-8801-a85814bc0d02"},"vehicle_type_id":"4","last_reported":1715458067,"current_range_meters":3200,"station_id":"ce4bhqp2rcd13ifvqhog","pricing_plan_id":"cebpf4jnsgd1na2vs0mg"},{"bike_id":"53f4033f-b9cb-412c-b6b0-275f1c656d8f","system_id":"levelo_inurba_marseille","lat":43.32367,"lon":5.38886,"is_reserved":false,"is_disabled":false,"rental_uris":{"android":"levelo://app?vid=53f4033f-b9cb-412c-b6b0-275f1c656d8f","ios":"levelo://app?vid=53f4033f-b9cb-412c-b6b0-275f1c656d8f"},"vehicle_type_id":"4","last_reported":1715458067,"current_range_meters":0,"station_id":"ce4bhqp2rcd13ifvqhog","pricing_plan_id":"cebpf4jnsgd1na2vs0mg"},{"bike_id":"81efba0e-12fe-4fa0-a4ae-da8c5b033846","system_id":"levelo_inurba_marseille","lat":43.32365,"lon":5.38889,"is_reserved":false,"is_disabled":false,"rental_uris":{"android":"levelo://app?vid=81efba0e-12fe-4fa0-a4ae-da8c5b033846","ios":"levelo://app?vid=81efba0e-12fe-4fa0-a4ae-da8c5b033846"},"vehicle_type_id":"4","last_reported":1715458067,"current_range_meters":9600,"station_id":"ce4bhqp2rcd13ifvqhog","pricing_plan_id":"cebpf4jnsgd1na2vs0mg"},{"bike_id":"f41f22e2-3cf7-4c3a-976e-6cf06597430c","system_id":"levelo_inurba_marseille","lat":43.29602,"lon":5.381084,"is_reserved":false,"is_disabled":false,"rental_uris":{"android":"levelo://app?vid=f41f22e2-3cf7-4c3a-976e-6cf06597430c","ios":"levelo://app?vid=f41f22e2-3cf7-4c3a-976e-6cf06597430c"},"vehicle_type_id":"4","last_reported":1715458067,"current_range_meters":9600,"station_id":"ce4bgl12rcd13ifvqbo0","pricing_plan_id":"cebpf4jnsgd1na2vs0mg"},{"bike_id":"277e19b3-e4c2-44cc-8aec-3de10ffb878e","system_id":"levelo_inurba_marseille","lat":43.29601,"lon":5.381084,"is_reserved":false,"is_disabled":false,"rental_uris":{"android":"levelo://app?vid=277e19b3-e4c2-44cc-8aec-3de10ffb878e","ios":"levelo://app?vid=277e19b3-e4c2-44cc-8aec-3de10ffb878e"},"vehicle_type_id":"4","last_reported":1715458067,"current_range_meters":800,"station_id":"ce4bgl12rcd13ifvqbo0","pricing_plan_id":"cebpf4jnsgd1na2vs0mg"},{"bike_id":"22af7fd7-441d-48df-8490-9248c0fed5fa","system_id":"levelo_inurba_marseille","lat":43.296,"lon":5.38091,"is_reserved":false,"is_disabled":false,"rental_uris":{"android":"levelo://app?vid=22af7fd7-441d-48df-8490-9248c0fed5fa","ios":"levelo://app?vid=22af7fd7-441d-48df-8490-9248c0fed5fa"},"vehicle_type_id":"4","last_reported":1715458067,"current_range_meters":0,"station_id":"ce4bgl12rcd13ifvqbo0","pricing_plan_id":"cebpf4jnsgd1na2vs0mg"},{"bike_id":"4e8417cc-72d8-49ce-a35d-02dc2861c8ed","system_id":"levelo_inurba_marseille","lat":43.29602,"lon":5.381084,"is_reserved":false,"is_disabled":false,"rental_uris":{"android":"levelo://app?vid=4e8417cc-72d8-49ce-a35d-02dc2861c8ed","ios":"levelo://app?vid=4e8417cc-72d8-49ce-a35d-02dc2861c8ed"},"vehicle_type_id":"4","last_reported":1715458067,"current_range_meters":800,"station_id":"ce4bgl12rcd13ifvqbo0","pricing_plan_id":"cebpf4jnsgd1na2vs0mg"},{"bike_id":"273500e5-350f-4288-a3ea-3ea15d6311be","system_id":"levelo_inurba_marseille","lat":43.29602,"lon":5.381084,"is_reserved":false,"is_disabled":false,"rental_uris":{"android":"levelo://app?vid=273500e5-350f-4288-a3ea-3ea15d6311be","ios":"levelo://app?vid=273500e5-350f-4288-a3ea-3ea15d6311be"},"vehicle_type_id":"4","last_reported":1715458067,"current_range_meters":3200,"station_id":"ce4bgl12rcd13ifvqbo0","pricing_plan_id":"cebpf4jnsgd1na2vs0mg"},{"bike_id":"84b35357-ef20-478d-9c0e-185ec9dc6d25","system_id":"levelo_inurba_marseille","lat":43.29602,"lon":5.381084,"is_reserved":false,"is_disabled":false,"rental_uris":{"android":"levelo://app?vid=84b35357-ef20-478d-9c0e-185ec9dc6d25","ios":"levelo://app?vid=84b35357-ef20-478d-9c0e-185ec9dc6d25"},"vehicle_type_id":"4","last_reported":1715458067,"current_range_meters":5200,"station_id":"ce4bgl12rcd13ifvqbo0","pricing_plan_id":"cebpf4jnsgd1na2vs0mg"},{"bike_id":"730bb873-a3bc-4693-9665-5ffcca74c19b","system_id":"levelo_inurba_marseille","lat":43.29602,"lon":5.381084,"is_reserved":false,"is_disabled":false,"rental_uris":{"android":"levelo://app?vid=730bb873-a3bc-4693-9665-5ffcca74c19b","ios":"levelo://app?vid=730bb873-a3bc-4693-9665-5ffcca74c19b"},"vehicle_type_id":"4","last_reported":1715458067,"current_range_meters":0,"station_id":"ce4bgl12rcd13ifvqbo0","pricing_plan_id":"cebpf4jnsgd1na2vs0mg"},{"bike_id":"c07f50b7-a8fd-4e33-ab4a-a39a3f6e30ee","system_id":"levelo_inurba_marseille","lat":43.29602,"lon":5.381084,"is_reserved":false,"is_disabled":false,"rental_uris":{"android":"levelo://app?vid=c07f50b7-a8fd-4e33-ab4a-a39a3f6e30ee","ios":"levelo://app?vid=c07f50b7-a8fd-4e33-ab4a-a39a3f6e30ee"},"vehicle_type_id":"4","last_reported":1715458067,"current_range_meters":12400,"station_id":"ce4bgl12rcd13ifvqbo0","pricing_plan_id":"cebpf4jnsgd1na2vs0mg"},{"bike_id":"22266511-3943-496b-a814-763d4ad194c7","system_id":"levelo_inurba_marseille","lat":43.29602,"lon":5.381084,"is_reserved":false,"is_disabled":false,"rental_uris":{"android":"levelo://app?vid=22266511-3943-496b-a814-763d4ad194c7","ios":"levelo://app?vid=22266511-3943-496b-a814-763d4ad194c7"},"vehicle_type_id":"4","last_reported":1715458067,"current_range_meters":13600,"station_id":"ce4bgl12rcd13ifvqbo0","pricing_plan_id":"cebpf4jnsgd1na2vs0mg"},{"bike_id":"ea968e24-a986-4303-b874-39189d54b612","system_id":"levelo_inurba_marseille","lat":43.29602,"lon":5.381084,"is_reserved":false,"is_disabled":false,"rental_uris":{"android":"levelo://app?vid=ea968e24-a986-4303-b874-39189d54b612","ios":"levelo://app?vid=ea968e24-a986-4303-b874-39189d54b612"},"vehicle_type_id":"4","last_reported":1715458067,"current_range_meters":6400,"station_id":"ce4bgl12rcd13ifvqbo0","pricing_plan_id":"cebpf4jnsgd1na2vs0mg"},{"bike_id":"3601a511-c9fc-45c8-8141-fc970367fcb6","system_id":"levelo_inurba_marseille","lat":43.295875,"lon":5.381093,"is_reserved":false,"is_disabled":false,"rental_uris":{"android":"levelo://app?vid=3601a511-c9fc-45c8-8141-fc970367fcb6","ios":"levelo://app?vid=3601a511-c9fc-45c8-8141-fc970367fcb6"},"vehicle_type_id":"4","last_reported":1715458067,"current_range_meters":800,"station_id":"ce4bgl12rcd13ifvqbo0","pricing_plan_id":"cebpf4jnsgd1na2vs0mg"},{"bike_id":"316f5a2f-2036-448d-8cee-7fd65ff744e2","system_id":"levelo_inurba_marseille","lat":43.292749,"lon":5.368398,"is_reserved":false,"is_disabled":false,"rental_uris":{"android":"levelo://app?vid=316f5a2f-2036-448d-8cee-7fd65ff744e2","ios":"levelo://app?vid=316f5a2f-2036-448d-8cee-7fd65ff744e2"},"vehicle_type_id":"4","last_reported":1715458067,"current_range_meters":24800,"station_id":"ce4bhbp2rcd13ifvqesg","pricing_plan_id":"cebpf4jnsgd1na2vs0mg"},{"bike_id":"2936190c-6922-4ce9-b103-9b3215084f35","system_id":"levelo_inurba_marseille","lat":43.29301,"lon":5.37166,"is_reserved":false,"is_disabled":false,"rental_uris":{"android":"levelo://app?vid=2936190c-6922-4ce9-b103-9b3215084f35","ios":"levelo://app?vid=2936190c-6922-4ce9-b103-9b3215084f35"},"vehicle_type_id":"4","last_reported":1715458067,"current_range_meters":0,"station_id":"ce4bgh92rcd13ifvqb40","pricing_plan_id":"cebpf4jnsgd1na2vs0mg"},{"bike_id":"a14be7a8-34ad-4651-8f36-7028ff1e7a17","system_id":"levelo_inurba_marseille","lat":43.305994,"lon":5.393687,"is_reserved":false,"is_disabled":false,"rental_uris":{"android":"levelo://app?vid=a14be7a8-34ad-4651-8f36-7028ff1e7a17","ios":"levelo://app?vid=a14be7a8-34ad-4651-8f36-7028ff1e7a17"},"vehicle_type_id":"4","last_reported":1715458067,"current_range_meters":12000,"station_id":"ce4bh0p2rcd13ifvqd80","pricing_plan_id":"cebpf4jnsgd1na2vs0mg"},{"bike_id":"c5f90e9b-0db0-4ca6-b379-a8a1acc90a00","system_id":"levelo_inurba_marseille","lat":43.29298,"lon":5.37164,"is_reserved":false,"is_disabled":false,"rental_uris":{"android":"levelo://app?vid=c5f90e9b-0db0-4ca6-b379-a8a1acc90a00","ios":"levelo://app?vid=c5f90e9b-0db0-4ca6-b379-a8a1acc90a00"},"vehicle_type_id":"4","last_reported":1715458067,"current_range_meters":0,"station_id":"ce4bgh92rcd13ifvqb40","pricing_plan_id":"cebpf4jnsgd1na2vs0mg"},{"bike_id":"03323a9c-08fd-4827-95ca-98e6eab164c9","system_id":"levelo_inurba_marseille","lat":43.292749,"lon":5.368398,"is_reserved":false,"is_disabled":false,"rental_uris":{"android":"levelo://app?vid=03323a9c-08fd-4827-95ca-98e6eab164c9","ios":"levelo://app?vid=03323a9c-08fd-4827-95ca-98e6eab164c9"},"vehicle_type_id":"4","last_reported":1715458067,"current_range_meters":5600,"station_id":"ce4bhbp2rcd13ifvqesg","pricing_plan_id":"cebpf4jnsgd1na2vs0mg"},{"bike_id":"ace5f1ba-d409-47f8-8f94-137520b885a6","system_id":"levelo_inurba_marseille","lat":43.29271,"lon":5.36845,"is_reserved":false,"is_disabled":false,"rental_uris":{"android":"levelo://app?vid=ace5f1ba-d409-47f8-8f94-137520b885a6","ios":"levelo://app?vid=ace5f1ba-d409-47f8-8f94-137520b885a6"},"vehicle_type_id":"4","last_reported":1715458067,"current_range_meters":0,"station_id":"ce4bhbp2rcd13ifvqesg","pricing_plan_id":"cebpf4jnsgd1na2vs0mg"},{"bike_id":"0cbde38f-56ac-43d8-b12e-3645248501e5","system_id":"levelo_inurba_marseille","lat":43.305994,"lon":5.393687,"is_reserved":false,"is_disabled":false,"rental_uris":{"android":"levelo://app?vid=0cbde38f-56ac-43d8-b12e-3645248501e5","ios":"levelo://app?vid=0cbde38f-56ac-43d8-b12e-3645248501e5"},"vehicle_type_id":"4","last_reported":1715458067,"current_range_meters":400,"station_id":"ce4bh0p2rcd13ifvqd80","pricing_plan_id":"cebpf4jnsgd1na2vs0mg"},{"bike_id":"a3577dba-d22f-493c-8a8f-dc6adbc5f3ce","system_id":"levelo_inurba_marseille","lat":43.305994,"lon":5.393687,"is_reserved":false,"is_disabled":false,"rental_uris":{"android":"levelo://app?vid=a3577dba-d22f-493c-8a8f-dc6adbc5f3ce","ios":"levelo://app?vid=a3577dba-d22f-493c-8a8f-dc6adbc5f3ce"},"vehicle_type_id":"4","last_reported":1715458067,"current_range_meters":17600,"station_id":"ce4bh0p2rcd13ifvqd80","pricing_plan_id":"cebpf4jnsgd1na2vs0mg"},{"bike_id":"dfa2873c-6aaf-44e7-9d9c-822a32140abe","system_id":"levelo_inurba_marseille","lat":43.305994,"lon":5.393687,"is_reserved":false,"is_disabled":false,"rental_uris":{"android":"levelo://app?vid=dfa2873c-6aaf-44e7-9d9c-822a32140abe","ios":"levelo://app?vid=dfa2873c-6aaf-44e7-9d9c-822a32140abe"},"vehicle_type_id":"4","last_reported":1715458067,"current_range_meters":0,"station_id":"ce4bh0p2rcd13ifvqd80","pricing_plan_id":"cebpf4jnsgd1na2vs0mg"},{"bike_id":"73ebf270-06f9-41cf-9c7f-4ff5377be43a","system_id":"levelo_inurba_marseille","lat":43.305994,"lon":5.393687,"is_reserved":false,"is_disabled":false,"rental_uris":{"android":"levelo://app?vid=73ebf270-06f9-41cf-9c7f-4ff5377be43a","ios":"levelo://app?vid=73ebf270-06f9-41cf-9c7f-4ff5377be43a"},"vehicle_type_id":"4","last_reported":1715458067,"current_range_meters":17600,"station_id":"ce4bh0p2rcd13ifvqd80","pricing_plan_id":"cebpf4jnsgd1na2vs0mg"},{"bike_id":"eaebcb1b-4b99-4130-a413-0b7c0e25c24b","system_id":"levelo_inurba_marseille","lat":43.305994,"lon":5.393687,"is_reserved":false,"is_disabled":false,"rental_uris":{"android":"levelo://app?vid=eaebcb1b-4b99-4130-a413-0b7c0e25c24b","ios":"levelo://app?vid=eaebcb1b-4b99-4130-a413-0b7c0e25c24b"},"vehicle_type_id":"4","last_reported":1715458067,"current_range_meters":11600,"station_id":"ce4bh0p2rcd13ifvqd80","pricing_plan_id":"cebpf4jnsgd1na2vs0mg"},{"bike_id":"a7b2c2d2-f307-49ec-b794-928b4a0e41bb","system_id":"levelo_inurba_marseille","lat":43.302998,"lon":5.391872,"is_reserved":false,"is_disabled":false,"rental_uris":{"android":"levelo://app?vid=a7b2c2d2-f307-49ec-b794-928b4a0e41bb","ios":"levelo://app?vid=a7b2c2d2-f307-49ec-b794-928b4a0e41bb"},"vehicle_type_id":"4","last_reported":1715458067,"current_range_meters":17600,"station_id":"ce4bgkh2rcd13ifvqbk0","pricing_plan_id":"cebpf4jnsgd1na2vs0mg"},{"bike_id":"c9bfe887-8769-415c-9246-e26353e0529a","system_id":"levelo_inurba_marseille","lat":43.305994,"lon":5.393687,"is_reserved":false,"is_disabled":false,"rental_uris":{"android":"levelo://app?vid=c9bfe887-8769-415c-9246-e26353e0529a","ios":"levelo://app?vid=c9bfe887-8769-415c-9246-e26353e0529a"},"vehicle_type_id":"4","last_reported":1715458067,"current_range_meters":0,"station_id":"ce4bh0p2rcd13ifvqd80","pricing_plan_id":"cebpf4jnsgd1na2vs0mg"},{"bike_id":"2af4424c-fd65-4ff0-9cf6-31460101abf4","system_id":"levelo_inurba_marseille","lat":43.305984,"lon":5.393724,"is_reserved":false,"is_disabled":false,"rental_uris":{"android":"levelo://app?vid=2af4424c-fd65-4ff0-9cf6-31460101abf4","ios":"levelo://app?vid=2af4424c-fd65-4ff0-9cf6-31460101abf4"},"vehicle_type_id":"4","last_reported":1715458067,"current_range_meters":8800,"station_id":"ce4bh0p2rcd13ifvqd80","pricing_plan_id":"cebpf4jnsgd1na2vs0mg"},{"bike_id":"f3f7b03b-40bb-4f83-9a47-cde57329742b","system_id":"levelo_inurba_marseille","lat":43.302956,"lon":5.39198,"is_reserved":false,"is_disabled":false,"rental_uris":{"android":"levelo://app?vid=f3f7b03b-40bb-4f83-9a47-cde57329742b","ios":"levelo://app?vid=f3f7b03b-40bb-4f83-9a47-cde57329742b"},"vehicle_type_id":"4","last_reported":1715458067,"current_range_meters":0,"station_id":"ce4bgkh2rcd13ifvqbk0","pricing_plan_id":"cebpf4jnsgd1na2vs0mg"},{"bike_id":"8afdf20c-5040-4bd1-8b06-3e7cbe27cd19","system_id":"levelo_inurba_marseille","lat":43.303002,"lon":5.392142,"is_reserved":false,"is_disabled":false,"rental_uris":{"android":"levelo://app?vid=8afdf20c-5040-4bd1-8b06-3e7cbe27cd19","ios":"levelo://app?vid=8afdf20c-5040-4bd1-8b06-3e7cbe27cd19"},"vehicle_type_id":"4","last_reported":1715458067,"current_range_meters":24800,"station_id":"ce4bgkh2rcd13ifvqbk0","pricing_plan_id":"cebpf4jnsgd1na2vs0mg"},{"bike_id":"79bc5275-ca72-44d8-bec3-2a8b4249a14b","system_id":"levelo_inurba_marseille","lat":43.302992,"lon":5.392136,"is_reserved":false,"is_disabled":false,"rental_uris":{"android":"levelo://app?vid=79bc5275-ca72-44d8-bec3-2a8b4249a14b","ios":"levelo://app?vid=79bc5275-ca72-44d8-bec3-2a8b4249a14b"},"vehicle_type_id":"4","last_reported":1715458067,"current_range_meters":26400,"station_id":"ce4bgkh2rcd13ifvqbk0","pricing_plan_id":"cebpf4jnsgd1na2vs0mg"},{"bike_id":"b0add846-a61c-47ae-9275-add62fa74566","system_id":"levelo_inurba_marseille","lat":43.302992,"lon":5.392136,"is_reserved":false,"is_disabled":false,"rental_uris":{"android":"levelo://app?vid=b0add846-a61c-47ae-9275-add62fa74566","ios":"levelo://app?vid=b0add846-a61c-47ae-9275-add62fa74566"},"vehicle_type_id":"4","last_reported":1715458067,"current_range_meters":8400,"station_id":"ce4bgkh2rcd13ifvqbk0","pricing_plan_id":"cebpf4jnsgd1na2vs0mg"},{"bike_id":"55e71824-3fe3-4a83-93c9-e20f1887bf0b","system_id":"levelo_inurba_marseille","lat":43.30297,"lon":5.39211,"is_reserved":false,"is_disabled":false,"rental_uris":{"android":"levelo://app?vid=55e71824-3fe3-4a83-93c9-e20f1887bf0b","ios":"levelo://app?vid=55e71824-3fe3-4a83-93c9-e20f1887bf0b"},"vehicle_type_id":"4","last_reported":1715458067,"current_range_meters":6400,"station_id":"ce4bgkh2rcd13ifvqbk0","pricing_plan_id":"cebpf4jnsgd1na2vs0mg"},{"bike_id":"fe174315-dcdb-4f0d-b2df-c7cb963cc117","system_id":"levelo_inurba_marseille","lat":43.29376,"lon":5.378606,"is_reserved":false,"is_disabled":false,"rental_uris":{"android":"levelo://app?vid=fe174315-dcdb-4f0d-b2df-c7cb963cc117","ios":"levelo://app?vid=fe174315-dcdb-4f0d-b2df-c7cb963cc117"},"vehicle_type_id":"4","last_reported":1715458067,"current_range_meters":6000,"station_id":"ce4bgjh2rcd13ifvqbf0","pricing_plan_id":"cebpf4jnsgd1na2vs0mg"},{"bike_id":"5bba59c8-72ad-4517-b1eb-3399fdc3aee8","system_id":"levelo_inurba_marseille","lat":43.293733,"lon":5.378567,"is_reserved":false,"is_disabled":false,"rental_uris":{"android":"levelo://app?vid=5bba59c8-72ad-4517-b1eb-3399fdc3aee8","ios":"levelo://app?vid=5bba59c8-72ad-4517-b1eb-3399fdc3aee8"},"vehicle_type_id":"4","last_reported":1715458067,"current_range_meters":0,"station_id":"ce4bgjh2rcd13ifvqbf0","pricing_plan_id":"cebpf4jnsgd1na2vs0mg"},{"bike_id":"525c54c1-d3c9-42a9-97a3-cf94370c60fa","system_id":"levelo_inurba_marseille","lat":43.2936,"lon":5.37835,"is_reserved":false,"is_disabled":false,"rental_uris":{"android":"levelo://app?vid=525c54c1-d3c9-42a9-97a3-cf94370c60fa","ios":"levelo://app?vid=525c54c1-d3c9-42a9-97a3-cf94370c60fa"},"vehicle_type_id":"4","last_reported":1715458067,"current_range_meters":25600,"station_id":"ce4bgjh2rcd13ifvqbf0","pricing_plan_id":"cebpf4jnsgd1na2vs0mg"},{"bike_id":"cc29d952-ca50-47ed-981e-08f5ee230096","system_id":"levelo_inurba_marseille","lat":43.29371,"lon":5.37854,"is_reserved":false,"is_disabled":false,"rental_uris":{"android":"levelo://app?vid=cc29d952-ca50-47ed-981e-08f5ee230096","ios":"levelo://app?vid=cc29d952-ca50-47ed-981e-08f5ee230096"},"vehicle_type_id":"4","last_reported":1715458067,"current_range_meters":2000,"station_id":"ce4bgjh2rcd13ifvqbf0","pricing_plan_id":"cebpf4jnsgd1na2vs0mg"},{"bike_id":"ec821044-58a2-4082-942a-518b1ab60297","system_id":"levelo_inurba_marseille","lat":43.293647,"lon":5.378379,"is_reserved":false,"is_disabled":false,"rental_uris":{"android":"levelo://app?vid=ec821044-58a2-4082-942a-518b1ab60297","ios":"levelo://app?vid=ec821044-58a2-4082-942a-518b1ab60297"},"vehicle_type_id":"4","last_reported":1715458067,"current_range_meters":0,"station_id":"ce4bgjh2rcd13ifvqbf0","pricing_plan_id":"cebpf4jnsgd1na2vs0mg"},{"bike_id":"8049c9b2-881c-4691-a337-2b3d18384275","system_id":"levelo_inurba_marseille","lat":43.29368,"lon":5.37853,"is_reserved":false,"is_disabled":false,"rental_uris":{"android":"levelo://app?vid=8049c9b2-881c-4691-a337-2b3d18384275","ios":"levelo://app?vid=8049c9b2-881c-4691-a337-2b3d18384275"},"vehicle_type_id":"4","last_reported":1715458067,"current_range_meters":12000,"station_id":"ce4bgjh2rcd13ifvqbf0","pricing_plan_id":"cebpf4jnsgd1na2vs0mg"},{"bike_id":"322075f2-5c4d-4e98-9abe-e01ee50f555a","system_id":"levelo_inurba_marseille","lat":43.2936,"lon":5.37835,"is_reserved":false,"is_disabled":false,"rental_uris":{"android":"levelo://app?vid=322075f2-5c4d-4e98-9abe-e01ee50f555a","ios":"levelo://app?vid=322075f2-5c4d-4e98-9abe-e01ee50f555a"},"vehicle_type_id":"4","last_reported":1715458067,"current_range_meters":28400,"station_id":"ce4bgjh2rcd13ifvqbf0","pricing_plan_id":"cebpf4jnsgd1na2vs0mg"},{"bike_id":"de861319-4f90-4ebd-b5fa-eacfbc7afa3a","system_id":"levelo_inurba_marseille","lat":43.293628,"lon":5.378474,"is_reserved":false,"is_disabled":false,"rental_uris":{"android":"levelo://app?vid=de861319-4f90-4ebd-b5fa-eacfbc7afa3a","ios":"levelo://app?vid=de861319-4f90-4ebd-b5fa-eacfbc7afa3a"},"vehicle_type_id":"4","last_reported":1715458067,"current_range_meters":2400,"station_id":"ce4bgjh2rcd13ifvqbf0","pricing_plan_id":"cebpf4jnsgd1na2vs0mg"},{"bike_id":"69b61c9c-6c02-465b-a819-12e09e98ada6","system_id":"levelo_inurba_marseille","lat":43.292311,"lon":5.360731,"is_reserved":false,"is_disabled":false,"rental_uris":{"android":"levelo://app?vid=69b61c9c-6c02-465b-a819-12e09e98ada6","ios":"levelo://app?vid=69b61c9c-6c02-465b-a819-12e09e98ada6"},"vehicle_type_id":"4","last_reported":1715458067,"current_range_meters":0,"station_id":"ce4bhbh2rcd13ifvqeqg","pricing_plan_id":"cebpf4jnsgd1na2vs0mg"},{"bike_id":"b6d35f67-aeed-4d28-802b-22abb01dadc0","system_id":"levelo_inurba_marseille","lat":43.30085,"lon":5.390856,"is_reserved":false,"is_disabled":false,"rental_uris":{"android":"levelo://app?vid=b6d35f67-aeed-4d28-802b-22abb01dadc0","ios":"levelo://app?vid=b6d35f67-aeed-4d28-802b-22abb01dadc0"},"vehicle_type_id":"4","last_reported":1715458067,"current_range_meters":22400,"station_id":"ce4bh192rcd13ifvqdb0","pricing_plan_id":"cebpf4jnsgd1na2vs0mg"},{"bike_id":"c4114e2b-3558-4180-8fa6-642ef6e613c8","system_id":"levelo_inurba_marseille","lat":43.298764,"lon":5.388973,"is_reserved":false,"is_disabled":false,"rental_uris":{"android":"levelo://app?vid=c4114e2b-3558-4180-8fa6-642ef6e613c8","ios":"levelo://app?vid=c4114e2b-3558-4180-8fa6-642ef6e613c8"},"vehicle_type_id":"4","last_reported":1715458067,"current_range_meters":0,"station_id":"ce4bh392rcd13ifvqdl0","pricing_plan_id":"cebpf4jnsgd1na2vs0mg"},{"bike_id":"c4b2cdc5-38fc-44dc-8623-5e3a2c741241","system_id":"levelo_inurba_marseille","lat":43.298764,"lon":5.388973,"is_reserved":false,"is_disabled":false,"rental_uris":{"android":"levelo://app?vid=c4b2cdc5-38fc-44dc-8623-5e3a2c741241","ios":"levelo://app?vid=c4b2cdc5-38fc-44dc-8623-5e3a2c741241"},"vehicle_type_id":"4","last_reported":1715458067,"current_range_meters":14000,"station_id":"ce4bh392rcd13ifvqdl0","pricing_plan_id":"cebpf4jnsgd1na2vs0mg"},{"bike_id":"5afbec35-3136-48a3-a7d2-efce90fa9c91","system_id":"levelo_inurba_marseille","lat":43.29259,"lon":5.37627,"is_reserved":false,"is_disabled":false,"rental_uris":{"android":"levelo://app?vid=5afbec35-3136-48a3-a7d2-efce90fa9c91","ios":"levelo://app?vid=5afbec35-3136-48a3-a7d2-efce90fa9c91"},"vehicle_type_id":"4","last_reported":1715458067,"current_range_meters":14800,"station_id":"ce4bgi12rcd13ifvqb70","pricing_plan_id":"cebpf4jnsgd1na2vs0mg"},{"bike_id":"cacc1196-73ec-4adf-87dc-489af8c0a616","system_id":"levelo_inurba_marseille","lat":43.298764,"lon":5.388973,"is_reserved":false,"is_disabled":false,"rental_uris":{"android":"levelo://app?vid=cacc1196-73ec-4adf-87dc-489af8c0a616","ios":"levelo://app?vid=cacc1196-73ec-4adf-87dc-489af8c0a616"},"vehicle_type_id":"4","last_reported":1715458067,"current_range_meters":6400,"station_id":"ce4bh392rcd13ifvqdl0","pricing_plan_id":"cebpf4jnsgd1na2vs0mg"},{"bike_id":"a1005953-1e96-4385-84c7-3a2395f5e69d","system_id":"levelo_inurba_marseille","lat":43.29879,"lon":5.389085,"is_reserved":false,"is_disabled":false,"rental_uris":{"android":"levelo://app?vid=a1005953-1e96-4385-84c7-3a2395f5e69d","ios":"levelo://app?vid=a1005953-1e96-4385-84c7-3a2395f5e69d"},"vehicle_type_id":"4","last_reported":1715458067,"current_range_meters":0,"station_id":"ce4bh392rcd13ifvqdl0","pricing_plan_id":"cebpf4jnsgd1na2vs0mg"},{"bike_id":"5af808e6-71d2-44eb-af9a-fa157d5aa502","system_id":"levelo_inurba_marseille","lat":43.291671,"lon":5.371575,"is_reserved":false,"is_disabled":false,"rental_uris":{"android":"levelo://app?vid=5af808e6-71d2-44eb-af9a-fa157d5aa502","ios":"levelo://app?vid=5af808e6-71d2-44eb-af9a-fa157d5aa502"},"vehicle_type_id":"4","last_reported":1715458067,"current_range_meters":12400,"station_id":"ce4bha92rcd13ifvqeh0","pricing_plan_id":"cebpf4jnsgd1na2vs0mg"},{"bike_id":"5fe4dd20-f40d-46b4-8da4-fb12b95334bb","system_id":"levelo_inurba_marseille","lat":43.291671,"lon":5.371575,"is_reserved":false,"is_disabled":false,"rental_uris":{"android":"levelo://app?vid=5fe4dd20-f40d-46b4-8da4-fb12b95334bb","ios":"levelo://app?vid=5fe4dd20-f40d-46b4-8da4-fb12b95334bb"},"vehicle_type_id":"4","last_reported":1715458067,"current_range_meters":19600,"station_id":"ce4bha92rcd13ifvqeh0","pricing_plan_id":"cebpf4jnsgd1na2vs0mg"},{"bike_id":"f3ebc673-6700-4797-8b9e-8a2056f853b0","system_id":"levelo_inurba_marseille","lat":43.298764,"lon":5.388973,"is_reserved":false,"is_disabled":false,"rental_uris":{"android":"levelo://app?vid=f3ebc673-6700-4797-8b9e-8a2056f853b0","ios":"levelo://app?vid=f3ebc673-6700-4797-8b9e-8a2056f853b0"},"vehicle_type_id":"4","last_reported":1715458067,"current_range_meters":9600,"station_id":"ce4bh392rcd13ifvqdl0","pricing_plan_id":"cebpf4jnsgd1na2vs0mg"},{"bike_id":"f8d62453-8be9-45d8-aea9-cb6530add2fe","system_id":"levelo_inurba_marseille","lat":43.291675,"lon":5.371583,"is_reserved":false,"is_disabled":false,"rental_uris":{"android":"levelo://app?vid=f8d62453-8be9-45d8-aea9-cb6530add2fe","ios":"levelo://app?vid=f8d62453-8be9-45d8-aea9-cb6530add2fe"},"vehicle_type_id":"4","last_reported":1715458067,"current_range_meters":11600,"station_id":"ce4bha92rcd13ifvqeh0","pricing_plan_id":"cebpf4jnsgd1na2vs0mg"},{"bike_id":"b252cd04-1c12-4888-9658-35fdc857750f","system_id":"levelo_inurba_marseille","lat":43.313291,"lon":5.396838,"is_reserved":false,"is_disabled":false,"rental_uris":{"android":"levelo://app?vid=b252cd04-1c12-4888-9658-35fdc857750f","ios":"levelo://app?vid=b252cd04-1c12-4888-9658-35fdc857750f"},"vehicle_type_id":"4","last_reported":1715458067,"current_range_meters":14000,"station_id":"ce4bgvp2rcd13ifvqcu0","pricing_plan_id":"cebpf4jnsgd1na2vs0mg"},{"bike_id":"0fa359dd-19d4-4a3a-96f1-711fb4982f5d","system_id":"levelo_inurba_marseille","lat":43.309038,"lon":5.396546,"is_reserved":false,"is_disabled":false,"rental_uris":{"android":"levelo://app?vid=0fa359dd-19d4-4a3a-96f1-711fb4982f5d","ios":"levelo://app?vid=0fa359dd-19d4-4a3a-96f1-711fb4982f5d"},"vehicle_type_id":"4","last_reported":1715458067,"current_range_meters":800,"station_id":"ce4bh012rcd13ifvqcv0","pricing_plan_id":"cebpf4jnsgd1na2vs0mg"},{"bike_id":"3d659689-6cb1-43b1-adc1-680cafa47597","system_id":"levelo_inurba_marseille","lat":43.313291,"lon":5.396838,"is_reserved":false,"is_disabled":false,"rental_uris":{"android":"levelo://app?vid=3d659689-6cb1-43b1-adc1-680cafa47597","ios":"levelo://app?vid=3d659689-6cb1-43b1-adc1-680cafa47597"},"vehicle_type_id":"4","last_reported":1715458067,"current_range_meters":2800,"station_id":"ce4bgvp2rcd13ifvqcu0","pricing_plan_id":"cebpf4jnsgd1na2vs0mg"},{"bike_id":"bbd27537-97fa-4255-97ba-e8739a0a5241","system_id":"levelo_inurba_marseille","lat":43.313291,"lon":5.396838,"is_reserved":false,"is_disabled":false,"rental_uris":{"android":"levelo://app?vid=bbd27537-97fa-4255-97ba-e8739a0a5241","ios":"levelo://app?vid=bbd27537-97fa-4255-97ba-e8739a0a5241"},"vehicle_type_id":"4","last_reported":1715458067,"current_range_meters":18000,"station_id":"ce4bgvp2rcd13ifvqcu0","pricing_plan_id":"cebpf4jnsgd1na2vs0mg"},{"bike_id":"27e28b17-ec8a-4f37-bd7d-4238d759838c","system_id":"levelo_inurba_marseille","lat":43.291994,"lon":5.357886,"is_reserved":false,"is_disabled":false,"rental_uris":{"android":"levelo://app?vid=27e28b17-ec8a-4f37-bd7d-4238d759838c","ios":"levelo://app?vid=27e28b17-ec8a-4f37-bd7d-4238d759838c"},"vehicle_type_id":"4","last_reported":1715458067,"current_range_meters":800,"station_id":"ce4bhb12rcd13ifvqel0","pricing_plan_id":"cebpf4jnsgd1na2vs0mg"},{"bike_id":"ab3a5e1e-901b-4936-be00-f0598beefbf5","system_id":"levelo_inurba_marseille","lat":43.29529,"lon":5.38522,"is_reserved":false,"is_disabled":false,"rental_uris":{"android":"levelo://app?vid=ab3a5e1e-901b-4936-be00-f0598beefbf5","ios":"levelo://app?vid=ab3a5e1e-901b-4936-be00-f0598beefbf5"},"vehicle_type_id":"4","last_reported":1715458067,"current_range_meters":3600,"station_id":"ce4bgih2rcd13ifvqba0","pricing_plan_id":"cebpf4jnsgd1na2vs0mg"},{"bike_id":"75b39b11-15ea-4c83-97fe-b94065e20c3e","system_id":"levelo_inurba_marseille","lat":43.29537,"lon":5.38537,"is_reserved":false,"is_disabled":false,"rental_uris":{"android":"levelo://app?vid=75b39b11-15ea-4c83-97fe-b94065e20c3e","ios":"levelo://app?vid=75b39b11-15ea-4c83-97fe-b94065e20c3e"},"vehicle_type_id":"4","last_reported":1715458067,"current_range_meters":9600,"station_id":"ce4bgih2rcd13ifvqba0","pricing_plan_id":"cebpf4jnsgd1na2vs0mg"},{"bike_id":"70c54b0e-b89d-4c56-8f08-ee86e141198c","system_id":"levelo_inurba_marseille","lat":43.29531,"lon":5.38531,"is_reserved":false,"is_disabled":false,"rental_uris":{"android":"levelo://app?vid=70c54b0e-b89d-4c56-8f08-ee86e141198c","ios":"levelo://app?vid=70c54b0e-b89d-4c56-8f08-ee86e141198c"},"vehicle_type_id":"4","last_reported":1715458067,"current_range_meters":6400,"station_id":"ce4bgih2rcd13ifvqba0","pricing_plan_id":"cebpf4jnsgd1na2vs0mg"},{"bike_id":"283dc88d-0fd9-49c7-8aa4-e2faf75489b6","system_id":"levelo_inurba_marseille","lat":43.29533,"lon":5.38539,"is_reserved":false,"is_disabled":false,"rental_uris":{"android":"levelo://app?vid=283dc88d-0fd9-49c7-8aa4-e2faf75489b6","ios":"levelo://app?vid=283dc88d-0fd9-49c7-8aa4-e2faf75489b6"},"vehicle_type_id":"4","last_reported":1715458067,"current_range_meters":27200,"station_id":"ce4bgih2rcd13ifvqba0","pricing_plan_id":"cebpf4jnsgd1na2vs0mg"},{"bike_id":"d6c40533-4d37-4b6b-a657-74df893a827a","system_id":"levelo_inurba_marseille","lat":43.29529,"lon":5.385581,"is_reserved":false,"is_disabled":false,"rental_uris":{"android":"levelo://app?vid=d6c40533-4d37-4b6b-a657-74df893a827a","ios":"levelo://app?vid=d6c40533-4d37-4b6b-a657-74df893a827a"},"vehicle_type_id":"4","last_reported":1715458067,"current_range_meters":28800,"station_id":"ce4bgih2rcd13ifvqba0","pricing_plan_id":"cebpf4jnsgd1na2vs0mg"},{"bike_id":"88ec1553-e849-439d-a725-be19ec02abb4","system_id":"levelo_inurba_marseille","lat":43.2953,"lon":5.38537,"is_reserved":false,"is_disabled":false,"rental_uris":{"android":"levelo://app?vid=88ec1553-e849-439d-a725-be19ec02abb4","ios":"levelo://app?vid=88ec1553-e849-439d-a725-be19ec02abb4"},"vehicle_type_id":"4","last_reported":1715458067,"current_range_meters":21600,"station_id":"ce4bgih2rcd13ifvqba0","pricing_plan_id":"cebpf4jnsgd1na2vs0mg"},{"bike_id":"470b500e-8d26-4805-ae53-2cef0dfe21c1","system_id":"levelo_inurba_marseille","lat":43.29535,"lon":5.38546,"is_reserved":false,"is_disabled":false,"rental_uris":{"android":"levelo://app?vid=470b500e-8d26-4805-ae53-2cef0dfe21c1","ios":"levelo://app?vid=470b500e-8d26-4805-ae53-2cef0dfe21c1"},"vehicle_type_id":"4","last_reported":1715458067,"current_range_meters":0,"station_id":"ce4bgih2rcd13ifvqba0","pricing_plan_id":"cebpf4jnsgd1na2vs0mg"},{"bike_id":"9d790f2f-f165-4544-8dcc-1ebf344b3f56","system_id":"levelo_inurba_marseille","lat":43.29529,"lon":5.385581,"is_reserved":false,"is_disabled":false,"rental_uris":{"android":"levelo://app?vid=9d790f2f-f165-4544-8dcc-1ebf344b3f56","ios":"levelo://app?vid=9d790f2f-f165-4544-8dcc-1ebf344b3f56"},"vehicle_type_id":"4","last_reported":1715458067,"current_range_meters":5600,"station_id":"ce4bgih2rcd13ifvqba0","pricing_plan_id":"cebpf4jnsgd1na2vs0mg"},{"bike_id":"22e6a90f-23a7-4711-8485-126e4c746072","system_id":"levelo_inurba_marseille","lat":43.29532,"lon":5.38541,"is_reserved":false,"is_disabled":false,"rental_uris":{"android":"levelo://app?vid=22e6a90f-23a7-4711-8485-126e4c746072","ios":"levelo://app?vid=22e6a90f-23a7-4711-8485-126e4c746072"},"vehicle_type_id":"4","last_reported":1715458067,"current_range_meters":22400,"station_id":"ce4bgih2rcd13ifvqba0","pricing_plan_id":"cebpf4jnsgd1na2vs0mg"},{"bike_id":"2bc6d0dc-ac9c-468f-8290-90f457d6d628","system_id":"levelo_inurba_marseille","lat":43.295336,"lon":5.385456,"is_reserved":false,"is_disabled":false,"rental_uris":{"android":"levelo://app?vid=2bc6d0dc-ac9c-468f-8290-90f457d6d628","ios":"levelo://app?vid=2bc6d0dc-ac9c-468f-8290-90f457d6d628"},"vehicle_type_id":"4","last_reported":1715458067,"current_range_meters":30400,"station_id":"ce4bgih2rcd13ifvqba0","pricing_plan_id":"cebpf4jnsgd1na2vs0mg"},{"bike_id":"ae96d84a-2b45-4811-a228-b1cb16334d8f","system_id":"levelo_inurba_marseille","lat":43.29529,"lon":5.385581,"is_reserved":false,"is_disabled":false,"rental_uris":{"android":"levelo://app?vid=ae96d84a-2b45-4811-a228-b1cb16334d8f","ios":"levelo://app?vid=ae96d84a-2b45-4811-a228-b1cb16334d8f"},"vehicle_type_id":"4","last_reported":1715458067,"current_range_meters":27600,"station_id":"ce4bgih2rcd13ifvqba0","pricing_plan_id":"cebpf4jnsgd1na2vs0mg"},{"bike_id":"2fe54c42-5ee2-475d-bb66-4629881a661a","system_id":"levelo_inurba_marseille","lat":43.29529,"lon":5.385581,"is_reserved":false,"is_disabled":false,"rental_uris":{"android":"levelo://app?vid=2fe54c42-5ee2-475d-bb66-4629881a661a","ios":"levelo://app?vid=2fe54c42-5ee2-475d-bb66-4629881a661a"},"vehicle_type_id":"4","last_reported":1715458067,"current_range_meters":0,"station_id":"ce4bgih2rcd13ifvqba0","pricing_plan_id":"cebpf4jnsgd1na2vs0mg"},{"bike_id":"b25c0923-fc46-4756-9480-869b0f37c8b2","system_id":"levelo_inurba_marseille","lat":43.29528,"lon":5.38539,"is_reserved":false,"is_disabled":false,"rental_uris":{"android":"levelo://app?vid=b25c0923-fc46-4756-9480-869b0f37c8b2","ios":"levelo://app?vid=b25c0923-fc46-4756-9480-869b0f37c8b2"},"vehicle_type_id":"4","last_reported":1715458067,"current_range_meters":26400,"station_id":"ce4bgih2rcd13ifvqba0","pricing_plan_id":"cebpf4jnsgd1na2vs0mg"},{"bike_id":"ed5b2e3b-dfa3-4eb3-b9b3-5493ab93c378","system_id":"levelo_inurba_marseille","lat":43.29533,"lon":5.38548,"is_reserved":false,"is_disabled":false,"rental_uris":{"android":"levelo://app?vid=ed5b2e3b-dfa3-4eb3-b9b3-5493ab93c378","ios":"levelo://app?vid=ed5b2e3b-dfa3-4eb3-b9b3-5493ab93c378"},"vehicle_type_id":"4","last_reported":1715458067,"current_range_meters":23600,"station_id":"ce4bgih2rcd13ifvqba0","pricing_plan_id":"cebpf4jnsgd1na2vs0mg"},{"bike_id":"7f178e18-4e51-4877-836a-510c8a4f623f","system_id":"levelo_inurba_marseille","lat":43.292824,"lon":5.379876,"is_reserved":false,"is_disabled":false,"rental_uris":{"android":"levelo://app?vid=7f178e18-4e51-4877-836a-510c8a4f623f","ios":"levelo://app?vid=7f178e18-4e51-4877-836a-510c8a4f623f"},"vehicle_type_id":"4","last_reported":1715458067,"current_range_meters":0,"station_id":"","pricing_plan_id":"cebpf4jnsgd1na2vs0mg"},{"bike_id":"cb4ff5c6-fa50-45cd-948f-3dc4dccb5b2a","system_id":"levelo_inurba_marseille","lat":43.29529,"lon":5.385581,"is_reserved":false,"is_disabled":false,"rental_uris":{"android":"levelo://app?vid=cb4ff5c6-fa50-45cd-948f-3dc4dccb5b2a","ios":"levelo://app?vid=cb4ff5c6-fa50-45cd-948f-3dc4dccb5b2a"},"vehicle_type_id":"4","last_reported":1715458067,"current_range_meters":6800,"station_id":"ce4bgih2rcd13ifvqba0","pricing_plan_id":"cebpf4jnsgd1na2vs0mg"},{"bike_id":"39750d35-e67c-4cb9-a3c9-e0e73f712544","system_id":"levelo_inurba_marseille","lat":43.29529,"lon":5.385581,"is_reserved":false,"is_disabled":false,"rental_uris":{"android":"levelo://app?vid=39750d35-e67c-4cb9-a3c9-e0e73f712544","ios":"levelo://app?vid=39750d35-e67c-4cb9-a3c9-e0e73f712544"},