{"last_updated":1713208004,"ttl":30,"version":"2.2","data":{"bikes":[{"bike_id":"dd0049b0-2c59-448e-a7d4-d57c6996943c","system_id":"levelo_inurba_marseille","lat":43.312239,"lon":5.368562,"is_reserved":false,"is_disabled":false,"rental_uris":{"android":"levelo://app?vid=dd0049b0-2c59-448e-a7d4-d57c6996943c","ios":"levelo://app?vid=dd0049b0-2c59-448e-a7d4-d57c6996943c"},"vehicle_type_id":"4","last_reported":1713208004,"current_range_meters":15600,"station_id":"ce4bgl92rcd13ifvqbq0","pricing_plan_id":"cebpf4jnsgd1na2vs0mg"},{"bike_id":"271ecfaa-3690-4d5d-a2e7-8d48134a39e5","system_id":"levelo_inurba_marseille","lat":43.31231,"lon":5.36885,"is_reserved":false,"is_disabled":false,"rental_uris":{"android":"levelo://app?vid=271ecfaa-3690-4d5d-a2e7-8d48134a39e5","ios":"levelo://app?vid=271ecfaa-3690-4d5d-a2e7-8d48134a39e5"},"vehicle_type_id":"4","last_reported":1713208004,"current_range_meters":0,"station_id":"ce4bgl92rcd13ifvqbq0","pricing_plan_id":"cebpf4jnsgd1na2vs0mg"},{"bike_id":"76875ad9-5315-4c75-a841-2eb262d51731","system_id":"levelo_inurba_marseille","lat":43.309076,"lon":5.368465,"is_reserved":false,"is_disabled":false,"rental_uris":{"android":"levelo://app?vid=76875ad9-5315-4c75-a841-2eb262d51731","ios":"levelo://app?vid=76875ad9-5315-4c75-a841-2eb262d51731"},"vehicle_type_id":"4","last_reported":1713208004,"current_range_meters":4800,"station_id":"ce4bgn92rcd13ifvqbvg","pricing_plan_id":"cebpf4jnsgd1na2vs0mg"},{"bike_id":"f9b82c95-4a82-4c98-bccf-2fdf1f28aa9a","system_id":"levelo_inurba_marseille","lat":43.309076,"lon":5.368465,"is_reserved":false,"is_disabled":false,"rental_uris":{"android":"levelo://app?vid=f9b82c95-4a82-4c98-bccf-2fdf1f28aa9a","ios":"levelo://app?vid=f9b82c95-4a82-4c98-bccf-2fdf1f28aa9a"},"vehicle_type_id":"4","last_reported":1713208004,"current_range_meters":27200,"station_id":"ce4bgn92rcd13ifvqbvg","pricing_plan_id":"cebpf4jnsgd1na2vs0mg"},{"bike_id":"d6ffa512-2a3f-4491-a58a-a4196b6531d5","system_id":"levelo_inurba_marseille","lat":43.31486,"lon":5.37304,"is_reserved":false,"is_disabled":false,"rental_uris":{"android":"levelo://app?vid=d6ffa512-2a3f-4491-a58a-a4196b6531d5","ios":"levelo://app?vid=d6ffa512-2a3f-4491-a58a-a4196b6531d5"},"vehicle_type_id":"4","last_reported":1713208004,"current_range_meters":23200,"station_id":"ce4bgt12rcd13ifvqcd0","pricing_plan_id":"cebpf4jnsgd1na2vs0mg"},{"bike_id":"8f094c71-aed3-4fc2-87d9-1151d2a350ff","system_id":"levelo_inurba_marseille","lat":43.3149,"lon":5.37303,"is_reserved":false,"is_disabled":false,"rental_uris":{"android":"levelo://app?vid=8f094c71-aed3-4fc2-87d9-1151d2a350ff","ios":"levelo://app?vid=8f094c71-aed3-4fc2-87d9-1151d2a350ff"},"vehicle_type_id":"4","last_reported":1713208004,"current_range_meters":4800,"station_id":"ce4bgt12rcd13ifvqcd0","pricing_plan_id":"cebpf4jnsgd1na2vs0mg"},{"bike_id":"f81d9168-0550-4043-b8e4-b5953ca5f9ef","system_id":"levelo_inurba_marseille","lat":43.314811,"lon":5.373103,"is_reserved":false,"is_disabled":false,"rental_uris":{"android":"levelo://app?vid=f81d9168-0550-4043-b8e4-b5953ca5f9ef","ios":"levelo://app?vid=f81d9168-0550-4043-b8e4-b5953ca5f9ef"},"vehicle_type_id":"4","last_reported":1713208004,"current_range_meters":14400,"station_id":"ce4bgt12rcd13ifvqcd0","pricing_plan_id":"cebpf4jnsgd1na2vs0mg"},{"bike_id":"65bcf862-3511-4a11-99ba-f39c49d8eda5","system_id":"levelo_inurba_marseille","lat":43.290319,"lon":5.375732,"is_reserved":false,"is_disabled":false,"rental_uris":{"android":"levelo://app?vid=65bcf862-3511-4a11-99ba-f39c49d8eda5","ios":"levelo://app?vid=65bcf862-3511-4a11-99ba-f39c49d8eda5"},"vehicle_type_id":"4","last_reported":1713208004,"current_range_meters":24000,"station_id":"ce4bh692rcd13ifvqe90","pricing_plan_id":"cebpf4jnsgd1na2vs0mg"},{"bike_id":"a58ba86f-c6a3-43de-a5cd-da865398f084","system_id":"levelo_inurba_marseille","lat":43.291994,"lon":5.392907,"is_reserved":false,"is_disabled":false,"rental_uris":{"android":"levelo://app?vid=a58ba86f-c6a3-43de-a5cd-da865398f084","ios":"levelo://app?vid=a58ba86f-c6a3-43de-a5cd-da865398f084"},"vehicle_type_id":"4","last_reported":1713208004,"current_range_meters":800,"station_id":"ce4bh192rcd13ifvqdd0","pricing_plan_id":"cebpf4jnsgd1na2vs0mg"},{"bike_id":"73bfafed-c15e-4d29-a250-8f89862ebacd","system_id":"levelo_inurba_marseille","lat":43.309039,"lon":5.371797,"is_reserved":false,"is_disabled":false,"rental_uris":{"android":"levelo://app?vid=73bfafed-c15e-4d29-a250-8f89862ebacd","ios":"levelo://app?vid=73bfafed-c15e-4d29-a250-8f89862ebacd"},"vehicle_type_id":"4","last_reported":1713208004,"current_range_meters":0,"station_id":"ce4bguh2rcd13ifvqckg","pricing_plan_id":"cebpf4jnsgd1na2vs0mg"},{"bike_id":"67d5f558-cfe4-4e65-b29c-970eeb61c005","system_id":"levelo_inurba_marseille","lat":43.30886,"lon":5.37202,"is_reserved":false,"is_disabled":false,"rental_uris":{"android":"levelo://app?vid=67d5f558-cfe4-4e65-b29c-970eeb61c005","ios":"levelo://app?vid=67d5f558-cfe4-4e65-b29c-970eeb61c005"},"vehicle_type_id":"4","last_reported":1713208004,"current_range_meters":0,"station_id":"ce4bguh2rcd13ifvqckg","pricing_plan_id":"cebpf4jnsgd1na2vs0mg"},{"bike_id":"e3087001-11d0-4e8e-aae8-2cb97e52b9a7","system_id":"levelo_inurba_marseille","lat":43.305368,"lon":5.367343,"is_reserved":false,"is_disabled":false,"rental_uris":{"android":"levelo://app?vid=e3087001-11d0-4e8e-aae8-2cb97e52b9a7","ios":"levelo://app?vid=e3087001-11d0-4e8e-aae8-2cb97e52b9a7"},"vehicle_type_id":"4","last_reported":1713208004,"current_range_meters":400,"station_id":"ce4bgrp2rcd13ifvqc9g","pricing_plan_id":"cebpf4jnsgd1na2vs0mg"},{"bike_id":"772e81c0-7d82-450f-9ac9-15dbc0b69f9f","system_id":"levelo_inurba_marseille","lat":43.30532,"lon":5.36717,"is_reserved":false,"is_disabled":false,"rental_uris":{"android":"levelo://app?vid=772e81c0-7d82-450f-9ac9-15dbc0b69f9f","ios":"levelo://app?vid=772e81c0-7d82-450f-9ac9-15dbc0b69f9f"},"vehicle_type_id":"4","last_reported":1713208004,"current_range_meters":0,"station_id":"ce4bgrp2rcd13ifvqc9g","pricing_plan_id":"cebpf4jnsgd1na2vs0mg"},{"bike_id":"69fdbb61-a453-4047-9aad-85811db0522e","system_id":"levelo_inurba_marseille","lat":43.305989,"lon":5.37225,"is_reserved":false,"is_disabled":false,"rental_uris":{"android":"levelo://app?vid=69fdbb61-a453-4047-9aad-85811db0522e","ios":"levelo://app?vid=69fdbb61-a453-4047-9aad-85811db0522e"},"vehicle_type_id":"4","last_reported":1713208004,"current_range_meters":0,"station_id":"ce4bgqh2rcd13ifvqc4g","pricing_plan_id":"cebpf4jnsgd1na2vs0mg"},{"bike_id":"2d2293bc-2e3f-44cb-b69f-2cd0e98aefe3","system_id":"levelo_inurba_marseille","lat":43.311217,"lon":5.377613,"is_reserved":false,"is_disabled":false,"rental_uris":{"android":"levelo://app?vid=2d2293bc-2e3f-44cb-b69f-2cd0e98aefe3","ios":"levelo://app?vid=2d2293bc-2e3f-44cb-b69f-2cd0e98aefe3"},"vehicle_type_id":"4","last_reported":1713208004,"current_range_meters":7600,"station_id":"ce4bgt92rcd13ifvqcg0","pricing_plan_id":"cebpf4jnsgd1na2vs0mg"},{"bike_id":"85ca2ff9-ba95-456a-b88f-890f4edbefc6","system_id":"levelo_inurba_marseille","lat":43.311131,"lon":5.377651,"is_reserved":false,"is_disabled":false,"rental_uris":{"android":"levelo://app?vid=85ca2ff9-ba95-456a-b88f-890f4edbefc6","ios":"levelo://app?vid=85ca2ff9-ba95-456a-b88f-890f4edbefc6"},"vehicle_type_id":"4","last_reported":1713208004,"current_range_meters":6800,"station_id":"ce4bgt92rcd13ifvqcg0","pricing_plan_id":"cebpf4jnsgd1na2vs0mg"},{"bike_id":"df27d1ed-da76-4e52-951c-bd37b1a4772a","system_id":"levelo_inurba_marseille","lat":43.31121,"lon":5.3777,"is_reserved":false,"is_disabled":false,"rental_uris":{"android":"levelo://app?vid=df27d1ed-da76-4e52-951c-bd37b1a4772a","ios":"levelo://app?vid=df27d1ed-da76-4e52-951c-bd37b1a4772a"},"vehicle_type_id":"4","last_reported":1713208004,"current_range_meters":12800,"station_id":"ce4bgt92rcd13ifvqcg0","pricing_plan_id":"cebpf4jnsgd1na2vs0mg"},{"bike_id":"bbcc02b8-aa4d-4545-8d44-5e9cd1ebc7ff","system_id":"levelo_inurba_marseille","lat":43.31119,"lon":5.3777,"is_reserved":false,"is_disabled":false,"rental_uris":{"android":"levelo://app?vid=bbcc02b8-aa4d-4545-8d44-5e9cd1ebc7ff","ios":"levelo://app?vid=bbcc02b8-aa4d-4545-8d44-5e9cd1ebc7ff"},"vehicle_type_id":"4","last_reported":1713208004,"current_range_meters":7200,"station_id":"ce4bgt92rcd13ifvqcg0","pricing_plan_id":"cebpf4jnsgd1na2vs0mg"},{"bike_id":"6feb641c-b937-439c-aed8-86cbeeb55453","system_id":"levelo_inurba_marseille","lat":43.311131,"lon":5.377651,"is_reserved":false,"is_disabled":false,"rental_uris":{"android":"levelo://app?vid=6feb641c-b937-439c-aed8-86cbeeb55453","ios":"levelo://app?vid=6feb641c-b937-439c-aed8-86cbeeb55453"},"vehicle_type_id":"4","last_reported":1713208004,"current_range_meters":25600,"station_id":"ce4bgt92rcd13ifvqcg0","pricing_plan_id":"cebpf4jnsgd1na2vs0mg"},{"bike_id":"07eb1cb7-c103-4584-bdc5-15edff69219e","system_id":"levelo_inurba_marseille","lat":43.298681,"lon":5.397225,"is_reserved":false,"is_disabled":false,"rental_uris":{"android":"levelo://app?vid=07eb1cb7-c103-4584-bdc5-15edff69219e","ios":"levelo://app?vid=07eb1cb7-c103-4584-bdc5-15edff69219e"},"vehicle_type_id":"4","last_reported":1713208004,"current_range_meters":4400,"station_id":"ce4bh0h2rcd13ifvqd50","pricing_plan_id":"cebpf4jnsgd1na2vs0mg"},{"bike_id":"9a0fa041-bf43-44b5-a9b1-0800a43e1f8a","system_id":"levelo_inurba_marseille","lat":43.307945,"lon":5.376487,"is_reserved":false,"is_disabled":false,"rental_uris":{"android":"levelo://app?vid=9a0fa041-bf43-44b5-a9b1-0800a43e1f8a","ios":"levelo://app?vid=9a0fa041-bf43-44b5-a9b1-0800a43e1f8a"},"vehicle_type_id":"4","last_reported":1713208004,"current_range_meters":4000,"station_id":"ce4bgv92rcd13ifvqcq0","pricing_plan_id":"cebpf4jnsgd1na2vs0mg"},{"bike_id":"ef430d45-28bc-40cf-a43f-a2d54aeffab7","system_id":"levelo_inurba_marseille","lat":43.317075,"lon":5.377367,"is_reserved":false,"is_disabled":false,"rental_uris":{"android":"levelo://app?vid=ef430d45-28bc-40cf-a43f-a2d54aeffab7","ios":"levelo://app?vid=ef430d45-28bc-40cf-a43f-a2d54aeffab7"},"vehicle_type_id":"4","last_reported":1713208004,"current_range_meters":0,"station_id":"ce4bgth2rcd13ifvqch0","pricing_plan_id":"cebpf4jnsgd1na2vs0mg"},{"bike_id":"b5bb3a04-66ff-4d18-999b-1d948cf03ef4","system_id":"levelo_inurba_marseille","lat":43.317075,"lon":5.377367,"is_reserved":false,"is_disabled":false,"rental_uris":{"android":"levelo://app?vid=b5bb3a04-66ff-4d18-999b-1d948cf03ef4","ios":"levelo://app?vid=b5bb3a04-66ff-4d18-999b-1d948cf03ef4"},"vehicle_type_id":"4","last_reported":1713208004,"current_range_meters":3600,"station_id":"ce4bgth2rcd13ifvqch0","pricing_plan_id":"cebpf4jnsgd1na2vs0mg"},{"bike_id":"00520040-e8df-4527-9d67-16354de401ba","system_id":"levelo_inurba_marseille","lat":43.317075,"lon":5.377367,"is_reserved":false,"is_disabled":false,"rental_uris":{"android":"levelo://app?vid=00520040-e8df-4527-9d67-16354de401ba","ios":"levelo://app?vid=00520040-e8df-4527-9d67-16354de401ba"},"vehicle_type_id":"4","last_reported":1713208004,"current_range_meters":16800,"station_id":"ce4bgth2rcd13ifvqch0","pricing_plan_id":"cebpf4jnsgd1na2vs0mg"},{"bike_id":"01d8d732-b95a-4022-aa02-9beba29077b0","system_id":"levelo_inurba_marseille","lat":43.317075,"lon":5.377367,"is_reserved":false,"is_disabled":false,"rental_uris":{"android":"levelo://app?vid=01d8d732-b95a-4022-aa02-9beba29077b0","ios":"levelo://app?vid=01d8d732-b95a-4022-aa02-9beba29077b0"},"vehicle_type_id":"4","last_reported":1713208004,"current_range_meters":6400,"station_id":"ce4bgth2rcd13ifvqch0","pricing_plan_id":"cebpf4jnsgd1na2vs0mg"},{"bike_id":"afa99bac-11b7-4ddb-8ee0-f99e11cef169","system_id":"levelo_inurba_marseille","lat":43.317075,"lon":5.377367,"is_reserved":false,"is_disabled":false,"rental_uris":{"android":"levelo://app?vid=afa99bac-11b7-4ddb-8ee0-f99e11cef169","ios":"levelo://app?vid=afa99bac-11b7-4ddb-8ee0-f99e11cef169"},"vehicle_type_id":"4","last_reported":1713208004,"current_range_meters":20400,"station_id":"ce4bgth2rcd13ifvqch0","pricing_plan_id":"cebpf4jnsgd1na2vs0mg"},{"bike_id":"75cf029a-176e-43f5-8afe-a04a417e6483","system_id":"levelo_inurba_marseille","lat":43.31531,"lon":5.38028,"is_reserved":false,"is_disabled":false,"rental_uris":{"android":"levelo://app?vid=75cf029a-176e-43f5-8afe-a04a417e6483","ios":"levelo://app?vid=75cf029a-176e-43f5-8afe-a04a417e6483"},"vehicle_type_id":"4","last_reported":1713208004,"current_range_meters":0,"station_id":"ce4bhsp2rcd13ifvqi50","pricing_plan_id":"cebpf4jnsgd1na2vs0mg"},{"bike_id":"c9a230fa-2ccb-472d-aa25-3b34e96a915a","system_id":"levelo_inurba_marseille","lat":43.315293,"lon":5.380349,"is_reserved":false,"is_disabled":false,"rental_uris":{"android":"levelo://app?vid=c9a230fa-2ccb-472d-aa25-3b34e96a915a","ios":"levelo://app?vid=c9a230fa-2ccb-472d-aa25-3b34e96a915a"},"vehicle_type_id":"4","last_reported":1713208004,"current_range_meters":15600,"station_id":"ce4bhsp2rcd13ifvqi50","pricing_plan_id":"cebpf4jnsgd1na2vs0mg"},{"bike_id":"a9847875-b922-4a12-b617-1af80050254b","system_id":"levelo_inurba_marseille","lat":43.303,"lon":5.37407,"is_reserved":false,"is_disabled":false,"rental_uris":{"android":"levelo://app?vid=a9847875-b922-4a12-b617-1af80050254b","ios":"levelo://app?vid=a9847875-b922-4a12-b617-1af80050254b"},"vehicle_type_id":"4","last_reported":1713208004,"current_range_meters":4400,"station_id":"","pricing_plan_id":"cebpf4jnsgd1na2vs0mg"},{"bike_id":"2e533276-7b48-4706-b9f5-9ab089d1c602","system_id":"levelo_inurba_marseille","lat":43.308012,"lon":5.381511,"is_reserved":false,"is_disabled":false,"rental_uris":{"android":"levelo://app?vid=2e533276-7b48-4706-b9f5-9ab089d1c602","ios":"levelo://app?vid=2e533276-7b48-4706-b9f5-9ab089d1c602"},"vehicle_type_id":"4","last_reported":1713208004,"current_range_meters":11600,"station_id":"ce4bgt12rcd13ifvqce0","pricing_plan_id":"cebpf4jnsgd1na2vs0mg"},{"bike_id":"e4f13dea-fa28-4e51-b862-dbc0adb2b7a0","system_id":"levelo_inurba_marseille","lat":43.308012,"lon":5.381511,"is_reserved":false,"is_disabled":false,"rental_uris":{"android":"levelo://app?vid=e4f13dea-fa28-4e51-b862-dbc0adb2b7a0","ios":"levelo://app?vid=e4f13dea-fa28-4e51-b862-dbc0adb2b7a0"},"vehicle_type_id":"4","last_reported":1713208004,"current_range_meters":0,"station_id":"ce4bgt12rcd13ifvqce0","pricing_plan_id":"cebpf4jnsgd1na2vs0mg"},{"bike_id":"96124cb2-356a-45fd-9cda-f6155e8ca01f","system_id":"levelo_inurba_marseille","lat":43.307923,"lon":5.38152,"is_reserved":false,"is_disabled":false,"rental_uris":{"android":"levelo://app?vid=96124cb2-356a-45fd-9cda-f6155e8ca01f","ios":"levelo://app?vid=96124cb2-356a-45fd-9cda-f6155e8ca01f"},"vehicle_type_id":"4","last_reported":1713208004,"current_range_meters":0,"station_id":"ce4bgt12rcd13ifvqce0","pricing_plan_id":"cebpf4jnsgd1na2vs0mg"},{"bike_id":"1f8f2a67-0622-4576-b26f-9a6b10f47e4a","system_id":"levelo_inurba_marseille","lat":43.308012,"lon":5.381511,"is_reserved":false,"is_disabled":false,"rental_uris":{"android":"levelo://app?vid=1f8f2a67-0622-4576-b26f-9a6b10f47e4a","ios":"levelo://app?vid=1f8f2a67-0622-4576-b26f-9a6b10f47e4a"},"vehicle_type_id":"4","last_reported":1713208004,"current_range_meters":22400,"station_id":"ce4bgt12rcd13ifvqce0","pricing_plan_id":"cebpf4jnsgd1na2vs0mg"},{"bike_id":"f0a79d0b-2118-4921-9cbe-1895c3cf4bd4","system_id":"levelo_inurba_marseille","lat":43.308012,"lon":5.381511,"is_reserved":false,"is_disabled":false,"rental_uris":{"android":"levelo://app?vid=f0a79d0b-2118-4921-9cbe-1895c3cf4bd4","ios":"levelo://app?vid=f0a79d0b-2118-4921-9cbe-1895c3cf4bd4"},"vehicle_type_id":"4","last_reported":1713208004,"current_range_meters":4800,"station_id":"ce4bgt12rcd13ifvqce0","pricing_plan_id":"cebpf4jnsgd1na2vs0mg"},{"bike_id":"4fdf2c36-ffc9-49a0-a225-18fe1a9f248a","system_id":"levelo_inurba_marseille","lat":43.308012,"lon":5.381511,"is_reserved":false,"is_disabled":false,"rental_uris":{"android":"levelo://app?vid=4fdf2c36-ffc9-49a0-a225-18fe1a9f248a","ios":"levelo://app?vid=4fdf2c36-ffc9-49a0-a225-18fe1a9f248a"},"vehicle_type_id":"4","last_reported":1713208004,"current_range_meters":4400,"station_id":"ce4bgt12rcd13ifvqce0","pricing_plan_id":"cebpf4jnsgd1na2vs0mg"},{"bike_id":"8ffaafb1-7c82-470f-baf5-5ff01dc196c3","system_id":"levelo_inurba_marseille","lat":43.308012,"lon":5.381511,"is_reserved":false,"is_disabled":false,"rental_uris":{"android":"levelo://app?vid=8ffaafb1-7c82-470f-baf5-5ff01dc196c3","ios":"levelo://app?vid=8ffaafb1-7c82-470f-baf5-5ff01dc196c3"},"vehicle_type_id":"4","last_reported":1713208004,"current_range_meters":400,"station_id":"ce4bgt12rcd13ifvqce0","pricing_plan_id":"cebpf4jnsgd1na2vs0mg"},{"bike_id":"d0d8f742-f7b0-4758-92ba-96170e17ba4c","system_id":"levelo_inurba_marseille","lat":43.30465,"lon":5.37908,"is_reserved":false,"is_disabled":false,"rental_uris":{"android":"levelo://app?vid=d0d8f742-f7b0-4758-92ba-96170e17ba4c","ios":"levelo://app?vid=d0d8f742-f7b0-4758-92ba-96170e17ba4c"},"vehicle_type_id":"4","last_reported":1713208004,"current_range_meters":0,"station_id":"ce4bgup2rcd13ifvqcn0","pricing_plan_id":"cebpf4jnsgd1na2vs0mg"},{"bike_id":"78133ad1-980b-4a37-a4a2-2bf2743b37d9","system_id":"levelo_inurba_marseille","lat":43.304634,"lon":5.37907,"is_reserved":false,"is_disabled":false,"rental_uris":{"android":"levelo://app?vid=78133ad1-980b-4a37-a4a2-2bf2743b37d9","ios":"levelo://app?vid=78133ad1-980b-4a37-a4a2-2bf2743b37d9"},"vehicle_type_id":"4","last_reported":1713208004,"current_range_meters":12000,"station_id":"ce4bgip2rcd13ifvqbb0","pricing_plan_id":"cebpf4jnsgd1na2vs0mg"},{"bike_id":"a10c039d-fdde-4b17-94b3-0f6b9bcd722d","system_id":"levelo_inurba_marseille","lat":43.324771,"lon":5.36557,"is_reserved":false,"is_disabled":false,"rental_uris":{"android":"levelo://app?vid=a10c039d-fdde-4b17-94b3-0f6b9bcd722d","ios":"levelo://app?vid=a10c039d-fdde-4b17-94b3-0f6b9bcd722d"},"vehicle_type_id":"4","last_reported":1713208004,"current_range_meters":24800,"station_id":"ce4bhs12rcd13ifvqhvg","pricing_plan_id":"cebpf4jnsgd1na2vs0mg"},{"bike_id":"257c15dd-9404-473a-9d91-3446cead491a","system_id":"levelo_inurba_marseille","lat":43.324771,"lon":5.36557,"is_reserved":false,"is_disabled":false,"rental_uris":{"android":"levelo://app?vid=257c15dd-9404-473a-9d91-3446cead491a","ios":"levelo://app?vid=257c15dd-9404-473a-9d91-3446cead491a"},"vehicle_type_id":"4","last_reported":1713208004,"current_range_meters":31200,"station_id":"ce4bhs12rcd13ifvqhvg","pricing_plan_id":"cebpf4jnsgd1na2vs0mg"},{"bike_id":"50dc5783-03bc-4351-873a-4db9f8b5417b","system_id":"levelo_inurba_marseille","lat":43.324771,"lon":5.36557,"is_reserved":false,"is_disabled":false,"rental_uris":{"android":"levelo://app?vid=50dc5783-03bc-4351-873a-4db9f8b5417b","ios":"levelo://app?vid=50dc5783-03bc-4351-873a-4db9f8b5417b"},"vehicle_type_id":"4","last_reported":1713208004,"current_range_meters":31200,"station_id":"ce4bhs12rcd13ifvqhvg","pricing_plan_id":"cebpf4jnsgd1na2vs0mg"},{"bike_id":"599b82f7-4adf-48f9-9824-83f9757feaa5","system_id":"levelo_inurba_marseille","lat":43.324771,"lon":5.36557,"is_reserved":false,"is_disabled":false,"rental_uris":{"android":"levelo://app?vid=599b82f7-4adf-48f9-9824-83f9757feaa5","ios":"levelo://app?vid=599b82f7-4adf-48f9-9824-83f9757feaa5"},"vehicle_type_id":"4","last_reported":1713208004,"current_range_meters":26800,"station_id":"ce4bhs12rcd13ifvqhvg","pricing_plan_id":"cebpf4jnsgd1na2vs0mg"},{"bike_id":"48f8b3c5-bf49-41e3-b92d-4582450a6e1f","system_id":"levelo_inurba_marseille","lat":43.324771,"lon":5.36557,"is_reserved":false,"is_disabled":false,"rental_uris":{"android":"levelo://app?vid=48f8b3c5-bf49-41e3-b92d-4582450a6e1f","ios":"levelo://app?vid=48f8b3c5-bf49-41e3-b92d-4582450a6e1f"},"vehicle_type_id":"4","last_reported":1713208004,"current_range_meters":23200,"station_id":"ce4bhs12rcd13ifvqhvg","pricing_plan_id":"cebpf4jnsgd1na2vs0mg"},{"bike_id":"3e228c33-7630-425a-b202-65cd29627291","system_id":"levelo_inurba_marseille","lat":43.324771,"lon":5.36557,"is_reserved":false,"is_disabled":false,"rental_uris":{"android":"levelo://app?vid=3e228c33-7630-425a-b202-65cd29627291","ios":"levelo://app?vid=3e228c33-7630-425a-b202-65cd29627291"},"vehicle_type_id":"4","last_reported":1713208004,"current_range_meters":20800,"station_id":"ce4bhs12rcd13ifvqhvg","pricing_plan_id":"cebpf4jnsgd1na2vs0mg"},{"bike_id":"4b60f9ef-ea5d-46cd-9895-c76ddde103e7","system_id":"levelo_inurba_marseille","lat":43.31082,"lon":5.38366,"is_reserved":false,"is_disabled":false,"rental_uris":{"android":"levelo://app?vid=4b60f9ef-ea5d-46cd-9895-c76ddde103e7","ios":"levelo://app?vid=4b60f9ef-ea5d-46cd-9895-c76ddde103e7"},"vehicle_type_id":"4","last_reported":1713208004,"current_range_meters":0,"station_id":"ce4bgv92rcd13ifvqcr0","pricing_plan_id":"cebpf4jnsgd1na2vs0mg"},{"bike_id":"6a1d1697-0ba0-47de-8f6e-e857cfdf3fbf","system_id":"levelo_inurba_marseille","lat":43.30141,"lon":5.37423,"is_reserved":false,"is_disabled":false,"rental_uris":{"android":"levelo://app?vid=6a1d1697-0ba0-47de-8f6e-e857cfdf3fbf","ios":"levelo://app?vid=6a1d1697-0ba0-47de-8f6e-e857cfdf3fbf"},"vehicle_type_id":"4","last_reported":1713208004,"current_range_meters":0,"station_id":"ce4bgs92rcd13ifvqcc0","pricing_plan_id":"cebpf4jnsgd1na2vs0mg"},{"bike_id":"9ec4616c-37b8-40fb-bd58-07d1211193f0","system_id":"levelo_inurba_marseille","lat":43.314582,"lon":5.384216,"is_reserved":false,"is_disabled":false,"rental_uris":{"android":"levelo://app?vid=9ec4616c-37b8-40fb-bd58-07d1211193f0","ios":"levelo://app?vid=9ec4616c-37b8-40fb-bd58-07d1211193f0"},"vehicle_type_id":"4","last_reported":1713208004,"current_range_meters":0,"station_id":"","pricing_plan_id":"cebpf4jnsgd1na2vs0mg"},{"bike_id":"daa0325e-f213-47ea-b397-49e30d2b9c1d","system_id":"levelo_inurba_marseille","lat":43.31996,"lon":5.38146,"is_reserved":false,"is_disabled":false,"rental_uris":{"android":"levelo://app?vid=daa0325e-f213-47ea-b397-49e30d2b9c1d","ios":"levelo://app?vid=daa0325e-f213-47ea-b397-49e30d2b9c1d"},"vehicle_type_id":"4","last_reported":1713208004,"current_range_meters":0,"station_id":"ce4bhr12rcd13ifvqhpg","pricing_plan_id":"cebpf4jnsgd1na2vs0mg"},{"bike_id":"b0b0397d-d18e-4ca1-b8cb-90aa92f7aa5c","system_id":"levelo_inurba_marseille","lat":43.319935,"lon":5.381699,"is_reserved":false,"is_disabled":false,"rental_uris":{"android":"levelo://app?vid=b0b0397d-d18e-4ca1-b8cb-90aa92f7aa5c","ios":"levelo://app?vid=b0b0397d-d18e-4ca1-b8cb-90aa92f7aa5c"},"vehicle_type_id":"4","last_reported":1713208004,"current_range_meters":26400,"station_id":"ce4bhr12rcd13ifvqhpg","pricing_plan_id":"cebpf4jnsgd1na2vs0mg"},{"bike_id":"11064e4b-571f-4364-bbad-dde15d2089ac","system_id":"levelo_inurba_marseille","lat":43.319935,"lon":5.381699,"is_reserved":false,"is_disabled":false,"rental_uris":{"android":"levelo://app?vid=11064e4b-571f-4364-bbad-dde15d2089ac","ios":"levelo://app?vid=11064e4b-571f-4364-bbad-dde15d2089ac"},"vehicle_type_id":"4","last_reported":1713208004,"current_range_meters":11600,"station_id":"ce4bhr12rcd13ifvqhpg","pricing_plan_id":"cebpf4jnsgd1na2vs0mg"},{"bike_id":"0af21998-bc5d-4458-b709-f3a9d86687ca","system_id":"levelo_inurba_marseille","lat":43.313571,"lon":5.384829,"is_reserved":false,"is_disabled":false,"rental_uris":{"android":"levelo://app?vid=0af21998-bc5d-4458-b709-f3a9d86687ca","ios":"levelo://app?vid=0af21998-bc5d-4458-b709-f3a9d86687ca"},"vehicle_type_id":"4","last_reported":1713208004,"current_range_meters":19600,"station_id":"ce4bgt92rcd13ifvqcf0","pricing_plan_id":"cebpf4jnsgd1na2vs0mg"},{"bike_id":"c6150925-82e6-496b-8c69-f28cc7beee4d","system_id":"levelo_inurba_marseille","lat":43.3137,"lon":5.38497,"is_reserved":false,"is_disabled":false,"rental_uris":{"android":"levelo://app?vid=c6150925-82e6-496b-8c69-f28cc7beee4d","ios":"levelo://app?vid=c6150925-82e6-496b-8c69-f28cc7beee4d"},"vehicle_type_id":"4","last_reported":1713208004,"current_range_meters":0,"station_id":"ce4bgt92rcd13ifvqcf0","pricing_plan_id":"cebpf4jnsgd1na2vs0mg"},{"bike_id":"e5837103-4d5b-4fcd-8014-70ea6e1aa46f","system_id":"levelo_inurba_marseille","lat":43.299222,"lon":5.365554,"is_reserved":false,"is_disabled":false,"rental_uris":{"android":"levelo://app?vid=e5837103-4d5b-4fcd-8014-70ea6e1aa46f","ios":"levelo://app?vid=e5837103-4d5b-4fcd-8014-70ea6e1aa46f"},"vehicle_type_id":"4","last_reported":1713208004,"current_range_meters":0,"station_id":"ce4bgm92rcd13ifvqbr0","pricing_plan_id":"cebpf4jnsgd1na2vs0mg"},{"bike_id":"5eb068d4-ae84-41d0-8d01-949ae69affd7","system_id":"levelo_inurba_marseille","lat":43.2936,"lon":5.37835,"is_reserved":false,"is_disabled":false,"rental_uris":{"android":"levelo://app?vid=5eb068d4-ae84-41d0-8d01-949ae69affd7","ios":"levelo://app?vid=5eb068d4-ae84-41d0-8d01-949ae69affd7"},"vehicle_type_id":"4","last_reported":1713208004,"current_range_meters":24400,"station_id":"ce4bgjh2rcd13ifvqbf0","pricing_plan_id":"cebpf4jnsgd1na2vs0mg"},{"bike_id":"3fe80d0f-5e99-4a61-ae57-6243ada054ea","system_id":"levelo_inurba_marseille","lat":43.298433,"lon":5.362774,"is_reserved":false,"is_disabled":false,"rental_uris":{"android":"levelo://app?vid=3fe80d0f-5e99-4a61-ae57-6243ada054ea","ios":"levelo://app?vid=3fe80d0f-5e99-4a61-ae57-6243ada054ea"},"vehicle_type_id":"4","last_reported":1713208004,"current_range_meters":9200,"station_id":"ce4bgpp2rcd13ifvqc3g","pricing_plan_id":"cebpf4jnsgd1na2vs0mg"},{"bike_id":"dc6cf81b-3f3e-4173-88f5-fcba7eaf654c","system_id":"levelo_inurba_marseille","lat":43.298433,"lon":5.362774,"is_reserved":false,"is_disabled":false,"rental_uris":{"android":"levelo://app?vid=dc6cf81b-3f3e-4173-88f5-fcba7eaf654c","ios":"levelo://app?vid=dc6cf81b-3f3e-4173-88f5-fcba7eaf654c"},"vehicle_type_id":"4","last_reported":1713208004,"current_range_meters":400,"station_id":"ce4bgpp2rcd13ifvqc3g","pricing_plan_id":"cebpf4jnsgd1na2vs0mg"},{"bike_id":"5757dbdf-7bdc-4417-b805-620b4eaef86c","system_id":"levelo_inurba_marseille","lat":43.298433,"lon":5.362774,"is_reserved":false,"is_disabled":false,"rental_uris":{"android":"levelo://app?vid=5757dbdf-7bdc-4417-b805-620b4eaef86c","ios":"levelo://app?vid=5757dbdf-7bdc-4417-b805-620b4eaef86c"},"vehicle_type_id":"4","last_reported":1713208004,"current_range_meters":0,"station_id":"ce4bgpp2rcd13ifvqc3g","pricing_plan_id":"cebpf4jnsgd1na2vs0mg"},{"bike_id":"15da3a84-77bf-4ea6-b644-38fc2f7486cb","system_id":"levelo_inurba_marseille","lat":43.298433,"lon":5.362774,"is_reserved":false,"is_disabled":false,"rental_uris":{"android":"levelo://app?vid=15da3a84-77bf-4ea6-b644-38fc2f7486cb","ios":"levelo://app?vid=15da3a84-77bf-4ea6-b644-38fc2f7486cb"},"vehicle_type_id":"4","last_reported":1713208004,"current_range_meters":3200,"station_id":"ce4bgpp2rcd13ifvqc3g","pricing_plan_id":"cebpf4jnsgd1na2vs0mg"},{"bike_id":"4a3bb5e6-2ddb-41c1-8e16-54d944916f6e","system_id":"levelo_inurba_marseille","lat":43.298433,"lon":5.362774,"is_reserved":false,"is_disabled":false,"rental_uris":{"android":"levelo://app?vid=4a3bb5e6-2ddb-41c1-8e16-54d944916f6e","ios":"levelo://app?vid=4a3bb5e6-2ddb-41c1-8e16-54d944916f6e"},"vehicle_type_id":"4","last_reported":1713208004,"current_range_meters":6800,"station_id":"ce4bgpp2rcd13ifvqc3g","pricing_plan_id":"cebpf4jnsgd1na2vs0mg"},{"bike_id":"0ab7ec3d-7815-474f-8469-88e63002c926","system_id":"levelo_inurba_marseille","lat":43.29846,"lon":5.36276,"is_reserved":false,"is_disabled":false,"rental_uris":{"android":"levelo://app?vid=0ab7ec3d-7815-474f-8469-88e63002c926","ios":"levelo://app?vid=0ab7ec3d-7815-474f-8469-88e63002c926"},"vehicle_type_id":"4","last_reported":1713208004,"current_range_meters":0,"station_id":"ce4bgpp2rcd13ifvqc3g","pricing_plan_id":"cebpf4jnsgd1na2vs0mg"},{"bike_id":"59672a50-83a2-40de-956c-8f0bc2956966","system_id":"levelo_inurba_marseille","lat":43.29846,"lon":5.36272,"is_reserved":false,"is_disabled":false,"rental_uris":{"android":"levelo://app?vid=59672a50-83a2-40de-956c-8f0bc2956966","ios":"levelo://app?vid=59672a50-83a2-40de-956c-8f0bc2956966"},"vehicle_type_id":"4","last_reported":1713208004,"current_range_meters":6400,"station_id":"ce4bgpp2rcd13ifvqc3g","pricing_plan_id":"cebpf4jnsgd1na2vs0mg"},{"bike_id":"cdc47a15-7bd7-4754-a3f4-c2b93c7398b8","system_id":"levelo_inurba_marseille","lat":43.29925,"lon":5.37466,"is_reserved":false,"is_disabled":false,"rental_uris":{"android":"levelo://app?vid=cdc47a15-7bd7-4754-a3f4-c2b93c7398b8","ios":"levelo://app?vid=cdc47a15-7bd7-4754-a3f4-c2b93c7398b8"},"vehicle_type_id":"4","last_reported":1713208004,"current_range_meters":0,"station_id":"ce4bgjh2rcd13ifvqbg0","pricing_plan_id":"cebpf4jnsgd1na2vs0mg"},{"bike_id":"53f369c5-aa68-45c5-ae29-063a2c424909","system_id":"levelo_inurba_marseille","lat":43.298433,"lon":5.362774,"is_reserved":false,"is_disabled":false,"rental_uris":{"android":"levelo://app?vid=53f369c5-aa68-45c5-ae29-063a2c424909","ios":"levelo://app?vid=53f369c5-aa68-45c5-ae29-063a2c424909"},"vehicle_type_id":"4","last_reported":1713208004,"current_range_meters":11200,"station_id":"ce4bgpp2rcd13ifvqc3g","pricing_plan_id":"cebpf4jnsgd1na2vs0mg"},{"bike_id":"6146315e-d063-420c-9f5f-c59d1aa87179","system_id":"levelo_inurba_marseille","lat":43.29926,"lon":5.37495,"is_reserved":false,"is_disabled":false,"rental_uris":{"android":"levelo://app?vid=6146315e-d063-420c-9f5f-c59d1aa87179","ios":"levelo://app?vid=6146315e-d063-420c-9f5f-c59d1aa87179"},"vehicle_type_id":"4","last_reported":1713208004,"current_range_meters":18000,"station_id":"ce4bgjh2rcd13ifvqbg0","pricing_plan_id":"cebpf4jnsgd1na2vs0mg"},{"bike_id":"27e0eb79-c3bc-4fbb-a20c-1ab0b1b4319b","system_id":"levelo_inurba_marseille","lat":43.29921,"lon":5.37492,"is_reserved":false,"is_disabled":false,"rental_uris":{"android":"levelo://app?vid=27e0eb79-c3bc-4fbb-a20c-1ab0b1b4319b","ios":"levelo://app?vid=27e0eb79-c3bc-4fbb-a20c-1ab0b1b4319b"},"vehicle_type_id":"4","last_reported":1713208004,"current_range_meters":10800,"station_id":"ce4bgjh2rcd13ifvqbg0","pricing_plan_id":"cebpf4jnsgd1na2vs0mg"},{"bike_id":"04a4435d-7cef-494d-aeb3-f2a24562a7f7","system_id":"levelo_inurba_marseille","lat":43.299243,"lon":5.374807,"is_reserved":false,"is_disabled":false,"rental_uris":{"android":"levelo://app?vid=04a4435d-7cef-494d-aeb3-f2a24562a7f7","ios":"levelo://app?vid=04a4435d-7cef-494d-aeb3-f2a24562a7f7"},"vehicle_type_id":"4","last_reported":1713208004,"current_range_meters":16400,"station_id":"ce4bgjh2rcd13ifvqbg0","pricing_plan_id":"cebpf4jnsgd1na2vs0mg"},{"bike_id":"c50d04d6-ecb7-4093-a0f5-5fd4ce2ea639","system_id":"levelo_inurba_marseille","lat":43.299243,"lon":5.374807,"is_reserved":false,"is_disabled":false,"rental_uris":{"android":"levelo://app?vid=c50d04d6-ecb7-4093-a0f5-5fd4ce2ea639","ios":"levelo://app?vid=c50d04d6-ecb7-4093-a0f5-5fd4ce2ea639"},"vehicle_type_id":"4","last_reported":1713208004,"current_range_meters":29200,"station_id":"ce4bgjh2rcd13ifvqbg0","pricing_plan_id":"cebpf4jnsgd1na2vs0mg"},{"bike_id":"f5f0da91-9d15-4f43-9d95-ac0c8c16021e","system_id":"levelo_inurba_marseille","lat":43.311722,"lon":5.387247,"is_reserved":false,"is_disabled":false,"rental_uris":{"android":"levelo://app?vid=f5f0da91-9d15-4f43-9d95-ac0c8c16021e","ios":"levelo://app?vid=f5f0da91-9d15-4f43-9d95-ac0c8c16021e"},"vehicle_type_id":"4","last_reported":1713208004,"current_range_meters":15200,"station_id":"ce4bgv12rcd13ifvqcp0","pricing_plan_id":"cebpf4jnsgd1na2vs0mg"},{"bike_id":"57dd8e8e-39d5-46e9-96d8-7974a73cf40a","system_id":"levelo_inurba_marseille","lat":43.299243,"lon":5.37481,"is_reserved":false,"is_disabled":false,"rental_uris":{"android":"levelo://app?vid=57dd8e8e-39d5-46e9-96d8-7974a73cf40a","ios":"levelo://app?vid=57dd8e8e-39d5-46e9-96d8-7974a73cf40a"},"vehicle_type_id":"4","last_reported":1713208004,"current_range_meters":31200,"station_id":"ce4bgjh2rcd13ifvqbg0","pricing_plan_id":"cebpf4jnsgd1na2vs0mg"},{"bike_id":"ea3f796e-2943-46f9-b09d-0ccd4ec80ef9","system_id":"levelo_inurba_marseille","lat":43.337168,"lon":5.391825,"is_reserved":false,"is_disabled":false,"rental_uris":{"android":"levelo://app?vid=ea3f796e-2943-46f9-b09d-0ccd4ec80ef9","ios":"levelo://app?vid=ea3f796e-2943-46f9-b09d-0ccd4ec80ef9"},"vehicle_type_id":"4","last_reported":1713208004,"current_range_meters":4000,"station_id":"ce4bhr92rcd13ifvqhsg","pricing_plan_id":"cebpf4jnsgd1na2vs0mg"},{"bike_id":"5585a415-e576-4810-add8-8c6ee7a78587","system_id":"levelo_inurba_marseille","lat":43.297774,"lon":5.370875,"is_reserved":false,"is_disabled":false,"rental_uris":{"android":"levelo://app?vid=5585a415-e576-4810-add8-8c6ee7a78587","ios":"levelo://app?vid=5585a415-e576-4810-add8-8c6ee7a78587"},"vehicle_type_id":"4","last_reported":1713208004,"current_range_meters":2400,"station_id":"ce4bgop2rcd13ifvqc1g","pricing_plan_id":"cebpf4jnsgd1na2vs0mg"},{"bike_id":"3734d19d-23f3-4d01-ba69-2656eea9b636","system_id":"levelo_inurba_marseille","lat":43.297774,"lon":5.370875,"is_reserved":false,"is_disabled":false,"rental_uris":{"android":"levelo://app?vid=3734d19d-23f3-4d01-ba69-2656eea9b636","ios":"levelo://app?vid=3734d19d-23f3-4d01-ba69-2656eea9b636"},"vehicle_type_id":"4","last_reported":1713208004,"current_range_meters":5600,"station_id":"ce4bgop2rcd13ifvqc1g","pricing_plan_id":"cebpf4jnsgd1na2vs0mg"},{"bike_id":"91eff995-78c1-4456-9128-1799d2d705a4","system_id":"levelo_inurba_marseille","lat":43.297774,"lon":5.370875,"is_reserved":false,"is_disabled":false,"rental_uris":{"android":"levelo://app?vid=91eff995-78c1-4456-9128-1799d2d705a4","ios":"levelo://app?vid=91eff995-78c1-4456-9128-1799d2d705a4"},"vehicle_type_id":"4","last_reported":1713208004,"current_range_meters":4800,"station_id":"ce4bgop2rcd13ifvqc1g","pricing_plan_id":"cebpf4jnsgd1na2vs0mg"},{"bike_id":"de060c0f-9a3a-4402-8a5e-9e4dfeee0c18","system_id":"levelo_inurba_marseille","lat":43.322872,"lon":5.382756,"is_reserved":false,"is_disabled":false,"rental_uris":{"android":"levelo://app?vid=de060c0f-9a3a-4402-8a5e-9e4dfeee0c18","ios":"levelo://app?vid=de060c0f-9a3a-4402-8a5e-9e4dfeee0c18"},"vehicle_type_id":"4","last_reported":1713208004,"current_range_meters":30400,"station_id":"ce4bhr12rcd13ifvqhqg","pricing_plan_id":"cebpf4jnsgd1na2vs0mg"},{"bike_id":"70f8e219-bc67-4c10-ab51-350d51c89e33","system_id":"levelo_inurba_marseille","lat":43.322872,"lon":5.382756,"is_reserved":false,"is_disabled":false,"rental_uris":{"android":"levelo://app?vid=70f8e219-bc67-4c10-ab51-350d51c89e33","ios":"levelo://app?vid=70f8e219-bc67-4c10-ab51-350d51c89e33"},"vehicle_type_id":"4","last_reported":1713208004,"current_range_meters":24400,"station_id":"ce4bhr12rcd13ifvqhqg","pricing_plan_id":"cebpf4jnsgd1na2vs0mg"},{"bike_id":"4a662abd-1cff-4c94-882d-aded3b304e17","system_id":"levelo_inurba_marseille","lat":43.322872,"lon":5.382756,"is_reserved":false,"is_disabled":false,"rental_uris":{"android":"levelo://app?vid=4a662abd-1cff-4c94-882d-aded3b304e17","ios":"levelo://app?vid=4a662abd-1cff-4c94-882d-aded3b304e17"},"vehicle_type_id":"4","last_reported":1713208004,"current_range_meters":12000,"station_id":"ce4bhr12rcd13ifvqhqg","pricing_plan_id":"cebpf4jnsgd1na2vs0mg"},{"bike_id":"9cee0150-6e35-492c-b343-fa45b1299c95","system_id":"levelo_inurba_marseille","lat":43.297163,"lon":5.365866,"is_reserved":false,"is_disabled":false,"rental_uris":{"android":"levelo://app?vid=9cee0150-6e35-492c-b343-fa45b1299c95","ios":"levelo://app?vid=9cee0150-6e35-492c-b343-fa45b1299c95"},"vehicle_type_id":"4","last_reported":1713208004,"current_range_meters":23200,"station_id":"ce4bgn12rcd13ifvqbt0","pricing_plan_id":"cebpf4jnsgd1na2vs0mg"},{"bike_id":"4e96b48e-1f6d-416b-8f27-92ac293eed0e","system_id":"levelo_inurba_marseille","lat":43.297163,"lon":5.365866,"is_reserved":false,"is_disabled":false,"rental_uris":{"android":"levelo://app?vid=4e96b48e-1f6d-416b-8f27-92ac293eed0e","ios":"levelo://app?vid=4e96b48e-1f6d-416b-8f27-92ac293eed0e"},"vehicle_type_id":"4","last_reported":1713208004,"current_range_meters":14000,"station_id":"ce4bgn12rcd13ifvqbt0","pricing_plan_id":"cebpf4jnsgd1na2vs0mg"},{"bike_id":"a5930f5c-4e31-4392-bd97-2620d83d2c21","system_id":"levelo_inurba_marseille","lat":43.297163,"lon":5.365866,"is_reserved":false,"is_disabled":false,"rental_uris":{"android":"levelo://app?vid=a5930f5c-4e31-4392-bd97-2620d83d2c21","ios":"levelo://app?vid=a5930f5c-4e31-4392-bd97-2620d83d2c21"},"vehicle_type_id":"4","last_reported":1713208004,"current_range_meters":400,"station_id":"ce4bgn12rcd13ifvqbt0","pricing_plan_id":"cebpf4jnsgd1na2vs0mg"},{"bike_id":"a04d044e-1763-4567-aee3-4c4f477ddb88","system_id":"levelo_inurba_marseille","lat":43.297163,"lon":5.365866,"is_reserved":false,"is_disabled":false,"rental_uris":{"android":"levelo://app?vid=a04d044e-1763-4567-aee3-4c4f477ddb88","ios":"levelo://app?vid=a04d044e-1763-4567-aee3-4c4f477ddb88"},"vehicle_type_id":"4","last_reported":1713208004,"current_range_meters":0,"station_id":"ce4bgn12rcd13ifvqbt0","pricing_plan_id":"cebpf4jnsgd1na2vs0mg"},{"bike_id":"42db2559-be21-42c9-b6d3-d284c8a6fa7e","system_id":"levelo_inurba_marseille","lat":43.29629,"lon":5.3715,"is_reserved":false,"is_disabled":false,"rental_uris":{"android":"levelo://app?vid=42db2559-be21-42c9-b6d3-d284c8a6fa7e","ios":"levelo://app?vid=42db2559-be21-42c9-b6d3-d284c8a6fa7e"},"vehicle_type_id":"4","last_reported":1713208004,"current_range_meters":0,"station_id":"ce4bgnh2rcd13ifvqc0g","pricing_plan_id":"cebpf4jnsgd1na2vs0mg"},{"bike_id":"f0efd1dc-2119-49da-993c-61a6ed38ab7b","system_id":"levelo_inurba_marseille","lat":43.296131,"lon":5.370791,"is_reserved":false,"is_disabled":false,"rental_uris":{"android":"levelo://app?vid=f0efd1dc-2119-49da-993c-61a6ed38ab7b","ios":"levelo://app?vid=f0efd1dc-2119-49da-993c-61a6ed38ab7b"},"vehicle_type_id":"4","last_reported":1713208004,"current_range_meters":8800,"station_id":"ce4bgnh2rcd13ifvqc0g","pricing_plan_id":"cebpf4jnsgd1na2vs0mg"},{"bike_id":"c4120af6-2c28-4fe4-be6b-0475a0b918fd","system_id":"levelo_inurba_marseille","lat":43.29573,"lon":5.367355,"is_reserved":false,"is_disabled":false,"rental_uris":{"android":"levelo://app?vid=c4120af6-2c28-4fe4-be6b-0475a0b918fd","ios":"levelo://app?vid=c4120af6-2c28-4fe4-be6b-0475a0b918fd"},"vehicle_type_id":"4","last_reported":1713208004,"current_range_meters":28800,"station_id":"ce4bgph2rcd13ifvqc2g","pricing_plan_id":"cebpf4jnsgd1na2vs0mg"},{"bike_id":"70d07fc9-d675-4721-8344-7bf0cdb59908","system_id":"levelo_inurba_marseille","lat":43.279742,"lon":5.38744,"is_reserved":false,"is_disabled":false,"rental_uris":{"android":"levelo://app?vid=70d07fc9-d675-4721-8344-7bf0cdb59908","ios":"levelo://app?vid=70d07fc9-d675-4721-8344-7bf0cdb59908"},"vehicle_type_id":"4","last_reported":1713208004,"current_range_meters":25600,"station_id":"ce4bhg12rcd13ifvqf80","pricing_plan_id":"cebpf4jnsgd1na2vs0mg"},{"bike_id":"c5c2b80c-c38a-49ac-bcbf-874037506d13","system_id":"levelo_inurba_marseille","lat":43.299028,"lon":5.381509,"is_reserved":false,"is_disabled":false,"rental_uris":{"android":"levelo://app?vid=c5c2b80c-c38a-49ac-bcbf-874037506d13","ios":"levelo://app?vid=c5c2b80c-c38a-49ac-bcbf-874037506d13"},"vehicle_type_id":"4","last_reported":1713208004,"current_range_meters":8800,"station_id":"ce4bgj12rcd13ifvqbc0","pricing_plan_id":"cebpf4jnsgd1na2vs0mg"},{"bike_id":"48be6094-4eb3-4555-8dac-288dffe75769","system_id":"levelo_inurba_marseille","lat":43.309589,"lon":5.390258,"is_reserved":false,"is_disabled":false,"rental_uris":{"android":"levelo://app?vid=48be6094-4eb3-4555-8dac-288dffe75769","ios":"levelo://app?vid=48be6094-4eb3-4555-8dac-288dffe75769"},"vehicle_type_id":"4","last_reported":1713208004,"current_range_meters":0,"station_id":"ce4bgup2rcd13ifvqco0","pricing_plan_id":"cebpf4jnsgd1na2vs0mg"},{"bike_id":"38118902-c27f-4cd5-a2ef-d77a2a31bc5d","system_id":"levelo_inurba_marseille","lat":43.317557,"lon":5.390173,"is_reserved":false,"is_disabled":false,"rental_uris":{"android":"levelo://app?vid=38118902-c27f-4cd5-a2ef-d77a2a31bc5d","ios":"levelo://app?vid=38118902-c27f-4cd5-a2ef-d77a2a31bc5d"},"vehicle_type_id":"4","last_reported":1713208004,"current_range_meters":0,"station_id":"ce4bhqp2rcd13ifvqhng","pricing_plan_id":"cebpf4jnsgd1na2vs0mg"},{"bike_id":"c871a46b-ada6-42e5-a9b9-d9a44c8d48f9","system_id":"levelo_inurba_marseille","lat":43.317557,"lon":5.390173,"is_reserved":false,"is_disabled":false,"rental_uris":{"android":"levelo://app?vid=c871a46b-ada6-42e5-a9b9-d9a44c8d48f9","ios":"levelo://app?vid=c871a46b-ada6-42e5-a9b9-d9a44c8d48f9"},"vehicle_type_id":"4","last_reported":1713208004,"current_range_meters":0,"station_id":"ce4bhqp2rcd13ifvqhng","pricing_plan_id":"cebpf4jnsgd1na2vs0mg"},{"bike_id":"39c9d536-daf8-44f9-b755-ed804dd028ed","system_id":"levelo_inurba_marseille","lat":43.317557,"lon":5.390173,"is_reserved":false,"is_disabled":false,"rental_uris":{"android":"levelo://app?vid=39c9d536-daf8-44f9-b755-ed804dd028ed","ios":"levelo://app?vid=39c9d536-daf8-44f9-b755-ed804dd028ed"},"vehicle_type_id":"4","last_reported":1713208004,"current_range_meters":28800,"station_id":"ce4bhqp2rcd13ifvqhng","pricing_plan_id":"cebpf4jnsgd1na2vs0mg"},{"bike_id":"5ee6e09d-c1fd-4050-b022-e9352f822dc4","system_id":"levelo_inurba_marseille","lat":43.317557,"lon":5.390173,"is_reserved":false,"is_disabled":false,"rental_uris":{"android":"levelo://app?vid=5ee6e09d-c1fd-4050-b022-e9352f822dc4","ios":"levelo://app?vid=5ee6e09d-c1fd-4050-b022-e9352f822dc4"},"vehicle_type_id":"4","last_reported":1713208004,"current_range_meters":21200,"station_id":"ce4bhqp2rcd13ifvqhng","pricing_plan_id":"cebpf4jnsgd1na2vs0mg"},{"bike_id":"fcbad32e-4616-4486-8701-2c6901a08777","system_id":"levelo_inurba_marseille","lat":43.317557,"lon":5.390173,"is_reserved":false,"is_disabled":false,"rental_uris":{"android":"levelo://app?vid=fcbad32e-4616-4486-8701-2c6901a08777","ios":"levelo://app?vid=fcbad32e-4616-4486-8701-2c6901a08777"},"vehicle_type_id":"4","last_reported":1713208004,"current_range_meters":15200,"station_id":"ce4bhqp2rcd13ifvqhng","pricing_plan_id":"cebpf4jnsgd1na2vs0mg"},{"bike_id":"f4c21c3e-2b58-4083-a05e-a4ad2c735b0d","system_id":"levelo_inurba_marseille","lat":43.317557,"lon":5.390173,"is_reserved":false,"is_disabled":false,"rental_uris":{"android":"levelo://app?vid=f4c21c3e-2b58-4083-a05e-a4ad2c735b0d","ios":"levelo://app?vid=f4c21c3e-2b58-4083-a05e-a4ad2c735b0d"},"vehicle_type_id":"4","last_reported":1713208004,"current_range_meters":14800,"station_id":"ce4bhqp2rcd13ifvqhng","pricing_plan_id":"cebpf4jnsgd1na2vs0mg"},{"bike_id":"1671ada3-7cc2-4879-87fa-4388658c414b","system_id":"levelo_inurba_marseille","lat":43.317557,"lon":5.390173,"is_reserved":false,"is_disabled":false,"rental_uris":{"android":"levelo://app?vid=1671ada3-7cc2-4879-87fa-4388658c414b","ios":"levelo://app?vid=1671ada3-7cc2-4879-87fa-4388658c414b"},"vehicle_type_id":"4","last_reported":1713208004,"current_range_meters":27200,"station_id":"ce4bhqp2rcd13ifvqhng","pricing_plan_id":"cebpf4jnsgd1na2vs0mg"},{"bike_id":"0e64c245-7d32-412c-965a-fb613d3bde22","system_id":"levelo_inurba_marseille","lat":43.317557,"lon":5.390173,"is_reserved":false,"is_disabled":false,"rental_uris":{"android":"levelo://app?vid=0e64c245-7d32-412c-965a-fb613d3bde22","ios":"levelo://app?vid=0e64c245-7d32-412c-965a-fb613d3bde22"},"vehicle_type_id":"4","last_reported":1713208004,"current_range_meters":13200,"station_id":"ce4bhqp2rcd13ifvqhng","pricing_plan_id":"cebpf4jnsgd1na2vs0mg"},{"bike_id":"b6b4c947-1bda-4de4-9df1-137f712ed154","system_id":"levelo_inurba_marseille","lat":43.317557,"lon":5.390173,"is_reserved":false,"is_disabled":false,"rental_uris":{"android":"levelo://app?vid=b6b4c947-1bda-4de4-9df1-137f712ed154","ios":"levelo://app?vid=b6b4c947-1bda-4de4-9df1-137f712ed154"},"vehicle_type_id":"4","last_reported":1713208004,"current_range_meters":21600,"station_id":"ce4bhqp2rcd13ifvqhng","pricing_plan_id":"cebpf4jnsgd1na2vs0mg"},{"bike_id":"8a98c414-8b87-4131-997b-c54838dc3303","system_id":"levelo_inurba_marseille","lat":43.317557,"lon":5.390173,"is_reserved":false,"is_disabled":false,"rental_uris":{"android":"levelo://app?vid=8a98c414-8b87-4131-997b-c54838dc3303","ios":"levelo://app?vid=8a98c414-8b87-4131-997b-c54838dc3303"},"vehicle_type_id":"4","last_reported":1713208004,"current_range_meters":16000,"station_id":"ce4bhqp2rcd13ifvqhng","pricing_plan_id":"cebpf4jnsgd1na2vs0mg"},{"bike_id":"53b993fd-46c3-437a-9dac-ca924af6b015","system_id":"levelo_inurba_marseille","lat":43.317557,"lon":5.390173,"is_reserved":false,"is_disabled":false,"rental_uris":{"android":"levelo://app?vid=53b993fd-46c3-437a-9dac-ca924af6b015","ios":"levelo://app?vid=53b993fd-46c3-437a-9dac-ca924af6b015"},"vehicle_type_id":"4","last_reported":1713208004,"current_range_meters":28800,"station_id":"ce4bhqp2rcd13ifvqhng","pricing_plan_id":"cebpf4jnsgd1na2vs0mg"},{"bike_id":"53120eb7-3d29-4986-8d76-38c17011d4ab","system_id":"levelo_inurba_marseille","lat":43.295748,"lon":5.37522,"is_reserved":false,"is_disabled":false,"rental_uris":{"android":"levelo://app?vid=53120eb7-3d29-4986-8d76-38c17011d4ab","ios":"levelo://app?vid=53120eb7-3d29-4986-8d76-38c17011d4ab"},"vehicle_type_id":"4","last_reported":1713208004,"current_range_meters":0,"station_id":"ce4bgh92rcd13ifvqb50","pricing_plan_id":"cebpf4jnsgd1na2vs0mg"},{"bike_id":"307f8355-f14b-401a-ad77-91a2bf3e017d","system_id":"levelo_inurba_marseille","lat":43.295748,"lon":5.37522,"is_reserved":false,"is_disabled":false,"rental_uris":{"android":"levelo://app?vid=307f8355-f14b-401a-ad77-91a2bf3e017d","ios":"levelo://app?vid=307f8355-f14b-401a-ad77-91a2bf3e017d"},"vehicle_type_id":"4","last_reported":1713208004,"current_range_meters":0,"station_id":"ce4bgh92rcd13ifvqb50","pricing_plan_id":"cebpf4jnsgd1na2vs0mg"},{"bike_id":"f2d04337-cc7d-4a75-8a54-102d1ce78392","system_id":"levelo_inurba_marseille","lat":43.29801,"lon":5.38123,"is_reserved":false,"is_disabled":false,"rental_uris":{"android":"levelo://app?vid=f2d04337-cc7d-4a75-8a54-102d1ce78392","ios":"levelo://app?vid=f2d04337-cc7d-4a75-8a54-102d1ce78392"},"vehicle_type_id":"4","last_reported":1713208004,"current_range_meters":0,"station_id":"ce4bgip2rcd13ifvqbb0","pricing_plan_id":"cebpf4jnsgd1na2vs0mg"},{"bike_id":"8cd28dee-8017-4a21-87c5-599c775c0a54","system_id":"levelo_inurba_marseille","lat":43.29796,"lon":5.38117,"is_reserved":false,"is_disabled":false,"rental_uris":{"android":"levelo://app?vid=8cd28dee-8017-4a21-87c5-599c775c0a54","ios":"levelo://app?vid=8cd28dee-8017-4a21-87c5-599c775c0a54"},"vehicle_type_id":"4","last_reported":1713208004,"current_range_meters":0,"station_id":"ce4bgip2rcd13ifvqbb0","pricing_plan_id":"cebpf4jnsgd1na2vs0mg"},{"bike_id":"48ffa327-13c9-470d-9ab1-d79acef1af4f","system_id":"levelo_inurba_marseille","lat":43.295748,"lon":5.37522,"is_reserved":false,"is_disabled":false,"rental_uris":{"android":"levelo://app?vid=48ffa327-13c9-470d-9ab1-d79acef1af4f","ios":"levelo://app?vid=48ffa327-13c9-470d-9ab1-d79acef1af4f"},"vehicle_type_id":"4","last_reported":1713208004,"current_range_meters":0,"station_id":"ce4bgh92rcd13ifvqb50","pricing_plan_id":"cebpf4jnsgd1na2vs0mg"},{"bike_id":"f91b7d12-118a-43a9-b9ff-4ef8d5da05b0","system_id":"levelo_inurba_marseille","lat":43.29789,"lon":5.38119,"is_reserved":false,"is_disabled":false,"rental_uris":{"android":"levelo://app?vid=f91b7d12-118a-43a9-b9ff-4ef8d5da05b0","ios":"levelo://app?vid=f91b7d12-118a-43a9-b9ff-4ef8d5da05b0"},"vehicle_type_id":"4","last_reported":1713208004,"current_range_meters":0,"station_id":"ce4bgip2rcd13ifvqbb0","pricing_plan_id":"cebpf4jnsgd1na2vs0mg"},{"bike_id":"caecbf9b-245d-4e3d-af8f-ab1054e6f21e","system_id":"levelo_inurba_marseille","lat":43.299707,"lon":5.384859,"is_reserved":false,"is_disabled":false,"rental_uris":{"android":"levelo://app?vid=caecbf9b-245d-4e3d-af8f-ab1054e6f21e","ios":"levelo://app?vid=caecbf9b-245d-4e3d-af8f-ab1054e6f21e"},"vehicle_type_id":"4","last_reported":1713208004,"current_range_meters":30400,"station_id":"ce4bgj92rcd13ifvqbd0","pricing_plan_id":"cebpf4jnsgd1na2vs0mg"},{"bike_id":"d8d7a1f3-4ffd-4576-879e-2ebe3b15ab44","system_id":"levelo_inurba_marseille","lat":43.298653,"lon":5.383207,"is_reserved":false,"is_disabled":false,"rental_uris":{"android":"levelo://app?vid=d8d7a1f3-4ffd-4576-879e-2ebe3b15ab44","ios":"levelo://app?vid=d8d7a1f3-4ffd-4576-879e-2ebe3b15ab44"},"vehicle_type_id":"4","last_reported":1713208004,"current_range_meters":400,"station_id":"","pricing_plan_id":"cebpf4jnsgd1na2vs0mg"},{"bike_id":"08215d2f-86a7-447d-8eec-f6ab99925682","system_id":"levelo_inurba_marseille","lat":43.295279,"lon":5.375048,"is_reserved":false,"is_disabled":false,"rental_uris":{"android":"levelo://app?vid=08215d2f-86a7-447d-8eec-f6ab99925682","ios":"levelo://app?vid=08215d2f-86a7-447d-8eec-f6ab99925682"},"vehicle_type_id":"4","last_reported":1713208004,"current_range_meters":0,"station_id":"ce4bgkp2rcd13ifvqbmg","pricing_plan_id":"cebpf4jnsgd1na2vs0mg"},{"bike_id":"5f9d4bf1-f31d-414f-ac64-3f3a28d090ee","system_id":"levelo_inurba_marseille","lat":43.295279,"lon":5.375048,"is_reserved":false,"is_disabled":false,"rental_uris":{"android":"levelo://app?vid=5f9d4bf1-f31d-414f-ac64-3f3a28d090ee","ios":"levelo://app?vid=5f9d4bf1-f31d-414f-ac64-3f3a28d090ee"},"vehicle_type_id":"4","last_reported":1713208004,"current_range_meters":12000,"station_id":"ce4bgkp2rcd13ifvqbmg","pricing_plan_id":"cebpf4jnsgd1na2vs0mg"},{"bike_id":"47d2fbba-51aa-4a44-a893-0268a10678bb","system_id":"levelo_inurba_marseille","lat":43.29977,"lon":5.38506,"is_reserved":false,"is_disabled":false,"rental_uris":{"android":"levelo://app?vid=47d2fbba-51aa-4a44-a893-0268a10678bb","ios":"levelo://app?vid=47d2fbba-51aa-4a44-a893-0268a10678bb"},"vehicle_type_id":"4","last_reported":1713208004,"current_range_meters":0,"station_id":"ce4bgj92rcd13ifvqbd0","pricing_plan_id":"cebpf4jnsgd1na2vs0mg"},{"bike_id":"ca1e3d72-e825-4eac-803c-6464157094bf","system_id":"levelo_inurba_marseille","lat":43.295279,"lon":5.375048,"is_reserved":false,"is_disabled":false,"rental_uris":{"android":"levelo://app?vid=ca1e3d72-e825-4eac-803c-6464157094bf","ios":"levelo://app?vid=ca1e3d72-e825-4eac-803c-6464157094bf"},"vehicle_type_id":"4","last_reported":1713208004,"current_range_meters":0,"station_id":"ce4bgkp2rcd13ifvqbmg","pricing_plan_id":"cebpf4jnsgd1na2vs0mg"},{"bike_id":"87ee6ef4-97e2-4b7c-be9d-54dee7115ec3","system_id":"levelo_inurba_marseille","lat":43.295279,"lon":5.375048,"is_reserved":false,"is_disabled":false,"rental_uris":{"android":"levelo://app?vid=87ee6ef4-97e2-4b7c-be9d-54dee7115ec3","ios":"levelo://app?vid=87ee6ef4-97e2-4b7c-be9d-54dee7115ec3"},"vehicle_type_id":"4","last_reported":1713208004,"current_range_meters":18400,"station_id":"ce4bgkp2rcd13ifvqbmg","pricing_plan_id":"cebpf4jnsgd1na2vs0mg"},{"bike_id":"a4be28fc-22d9-4605-9bda-abd0cb8d4e9d","system_id":"levelo_inurba_marseille","lat":43.30642,"lon":5.401031,"is_reserved":false,"is_disabled":false,"rental_uris":{"android":"levelo://app?vid=a4be28fc-22d9-4605-9bda-abd0cb8d4e9d","ios":"levelo://app?vid=a4be28fc-22d9-4605-9bda-abd0cb8d4e9d"},"vehicle_type_id":"4","last_reported":1713208004,"current_range_meters":8000,"station_id":"ce4bh112rcd13ifvqda0","pricing_plan_id":"cebpf4jnsgd1na2vs0mg"},{"bike_id":"81108249-ac56-4ce5-9220-b2c59b91ab28","system_id":"levelo_inurba_marseille","lat":43.29606,"lon":5.38108,"is_reserved":false,"is_disabled":false,"rental_uris":{"android":"levelo://app?vid=81108249-ac56-4ce5-9220-b2c59b91ab28","ios":"levelo://app?vid=81108249-ac56-4ce5-9220-b2c59b91ab28"},"vehicle_type_id":"4","last_reported":1713208004,"current_range_meters":0,"station_id":"ce4bgl12rcd13ifvqbo0","pricing_plan_id":"cebpf4jnsgd1na2vs0mg"},{"bike_id":"1f246b19-da0f-472d-af88-d1510810efd6","system_id":"levelo_inurba_marseille","lat":43.293249,"lon":5.371578,"is_reserved":false,"is_disabled":false,"rental_uris":{"android":"levelo://app?vid=1f246b19-da0f-472d-af88-d1510810efd6","ios":"levelo://app?vid=1f246b19-da0f-472d-af88-d1510810efd6"},"vehicle_type_id":"4","last_reported":1713208004,"current_range_meters":4400,"station_id":"ce4bgh92rcd13ifvqb40","pricing_plan_id":"cebpf4jnsgd1na2vs0mg"},{"bike_id":"fd1062dd-31ac-4a3d-b00d-b1c3ab2c192a","system_id":"levelo_inurba_marseille","lat":43.29599,"lon":5.38099,"is_reserved":false,"is_disabled":false,"rental_uris":{"android":"levelo://app?vid=fd1062dd-31ac-4a3d-b00d-b1c3ab2c192a","ios":"levelo://app?vid=fd1062dd-31ac-4a3d-b00d-b1c3ab2c192a"},"vehicle_type_id":"4","last_reported":1713208004,"current_range_meters":22000,"station_id":"ce4bgl12rcd13ifvqbo0","pricing_plan_id":"cebpf4jnsgd1na2vs0mg"},{"bike_id":"a7dd18d8-32a6-4d0c-bc46-b8f7d859c4f4","system_id":"levelo_inurba_marseille","lat":43.29598,"lon":5.38105,"is_reserved":false,"is_disabled":false,"rental_uris":{"android":"levelo://app?vid=a7dd18d8-32a6-4d0c-bc46-b8f7d859c4f4","ios":"levelo://app?vid=a7dd18d8-32a6-4d0c-bc46-b8f7d859c4f4"},"vehicle_type_id":"4","last_reported":1713208004,"current_range_meters":0,"station_id":"ce4bgl12rcd13ifvqbo0","pricing_plan_id":"cebpf4jnsgd1na2vs0mg"},{"bike_id":"46d7a2c7-4676-4fc8-99c2-08d95abeb3d8","system_id":"levelo_inurba_marseille","lat":43.293249,"lon":5.371578,"is_reserved":false,"is_disabled":false,"rental_uris":{"android":"levelo://app?vid=46d7a2c7-4676-4fc8-99c2-08d95abeb3d8","ios":"levelo://app?vid=46d7a2c7-4676-4fc8-99c2-08d95abeb3d8"},"vehicle_type_id":"4","last_reported":1713208004,"current_range_meters":8800,"station_id":"ce4bgh92rcd13ifvqb40","pricing_plan_id":"cebpf4jnsgd1na2vs0mg"},{"bike_id":"24f1ec73-c88d-453b-a18f-4af363b915e7","system_id":"levelo_inurba_marseille","lat":43.293249,"lon":5.371578,"is_reserved":false,"is_disabled":false,"rental_uris":{"android":"levelo://app?vid=24f1ec73-c88d-453b-a18f-4af363b915e7","ios":"levelo://app?vid=24f1ec73-c88d-453b-a18f-4af363b915e7"},"vehicle_type_id":"4","last_reported":1713208004,"current_range_meters":2000,"station_id":"ce4bgh92rcd13ifvqb40","pricing_plan_id":"cebpf4jnsgd1na2vs0mg"},{"bike_id":"4e6974d1-c56f-4465-a3b2-e817e3864cfd","system_id":"levelo_inurba_marseille","lat":43.293009,"lon":5.374584,"is_reserved":false,"is_disabled":false,"rental_uris":{"android":"levelo://app?vid=4e6974d1-c56f-4465-a3b2-e817e3864cfd","ios":"levelo://app?vid=4e6974d1-c56f-4465-a3b2-e817e3864cfd"},"vehicle_type_id":"4","last_reported":1713208004,"current_range_meters":12800,"station_id":"ce4bgi12rcd13ifvqb70","pricing_plan_id":"cebpf4jnsgd1na2vs0mg"},{"bike_id":"44db7f03-dfc8-4e77-a15c-7f9969bbad00","system_id":"levelo_inurba_marseille","lat":43.293009,"lon":5.374584,"is_reserved":false,"is_disabled":false,"rental_uris":{"android":"levelo://app?vid=44db7f03-dfc8-4e77-a15c-7f9969bbad00","ios":"levelo://app?vid=44db7f03-dfc8-4e77-a15c-7f9969bbad00"},"vehicle_type_id":"4","last_reported":1713208004,"current_range_meters":31200,"station_id":"ce4bgi12rcd13ifvqb70","pricing_plan_id":"cebpf4jnsgd1na2vs0mg"},{"bike_id":"34bb65db-2e1c-4bab-a5f4-0e4c5f30e0ce","system_id":"levelo_inurba_marseille","lat":43.293009,"lon":5.374584,"is_reserved":false,"is_disabled":false,"rental_uris":{"android":"levelo://app?vid=34bb65db-2e1c-4bab-a5f4-0e4c5f30e0ce","ios":"levelo://app?vid=34bb65db-2e1c-4bab-a5f4-0e4c5f30e0ce"},"vehicle_type_id":"4","last_reported":1713208004,"current_range_meters":13200,"station_id":"ce4bgi12rcd13ifvqb70","pricing_plan_id":"cebpf4jnsgd1na2vs0mg"},{"bike_id":"74a676cb-be98-450e-97cd-ce3337e2132e","system_id":"levelo_inurba_marseille","lat":43.305994,"lon":5.393687,"is_reserved":false,"is_disabled":false,"rental_uris":{"android":"levelo://app?vid=74a676cb-be98-450e-97cd-ce3337e2132e","ios":"levelo://app?vid=74a676cb-be98-450e-97cd-ce3337e2132e"},"vehicle_type_id":"4","last_reported":1713208004,"current_range_meters":800,"station_id":"ce4bh0p2rcd13ifvqd80","pricing_plan_id":"cebpf4jnsgd1na2vs0mg"},{"bike_id":"59d17662-be55-4dda-a24e-ef9789631aad","system_id":"levelo_inurba_marseille","lat":43.301807,"lon":5.39084,"is_reserved":false,"is_disabled":false,"rental_uris":{"android":"levelo://app?vid=59d17662-be55-4dda-a24e-ef9789631aad","ios":"levelo://app?vid=59d17662-be55-4dda-a24e-ef9789631aad"},"vehicle_type_id":"4","last_reported":1713208004,"current_range_meters":0,"station_id":"","pricing_plan_id":"cebpf4jnsgd1na2vs0mg"},{"bike_id":"f315cfb6-66b6-45a1-ae5a-e20092aa6c7e","system_id":"levelo_inurba_marseille","lat":43.293009,"lon":5.374584,"is_reserved":false,"is_disabled":false,"rental_uris":{"android":"levelo://app?vid=f315cfb6-66b6-45a1-ae5a-e20092aa6c7e","ios":"levelo://app?vid=f315cfb6-66b6-45a1-ae5a-e20092aa6c7e"},"vehicle_type_id":"4","last_reported":1713208004,"current_range_meters":30000,"station_id":"ce4bgi12rcd13ifvqb70","pricing_plan_id":"cebpf4jnsgd1na2vs0mg"},{"bike_id":"d699d5b6-8285-4621-a891-4a8ff176a12b","system_id":"levelo_inurba_marseille","lat":43.293009,"lon":5.374584,"is_reserved":false,"is_disabled":false,"rental_uris":{"android":"levelo://app?vid=d699d5b6-8285-4621-a891-4a8ff176a12b","ios":"levelo://app?vid=d699d5b6-8285-4621-a891-4a8ff176a12b"},"vehicle_type_id":"4","last_reported":1713208004,"current_range_meters":24800,"station_id":"ce4bgi12rcd13ifvqb70","pricing_plan_id":"cebpf4jnsgd1na2vs0mg"},{"bike_id":"e176f473-2f5a-424f-8496-189fff93f410","system_id":"levelo_inurba_marseille","lat":43.293009,"lon":5.374584,"is_reserved":false,"is_disabled":false,"rental_uris":{"android":"levelo://app?vid=e176f473-2f5a-424f-8496-189fff93f410","ios":"levelo://app?vid=e176f473-2f5a-424f-8496-189fff93f410"},"vehicle_type_id":"4","last_reported":1713208004,"current_range_meters":31200,"station_id":"ce4bgi12rcd13ifvqb70","pricing_plan_id":"cebpf4jnsgd1na2vs0mg"},{"bike_id":"1899c720-d8e6-4bb4-aafd-7d346416bb1c","system_id":"levelo_inurba_marseille","lat":43.30302,"lon":5.39206,"is_reserved":false,"is_disabled":false,"rental_uris":{"android":"levelo://app?vid=1899c720-d8e6-4bb4-aafd-7d346416bb1c","ios":"levelo://app?vid=1899c720-d8e6-4bb4-aafd-7d346416bb1c"},"vehicle_type_id":"4","last_reported":1713208004,"current_range_meters":0,"station_id":"ce4bgkh2rcd13ifvqbk0","pricing_plan_id":"cebpf4jnsgd1na2vs0mg"},{"bike_id":"2bc9f08e-dd74-43d2-9d0c-7d15346bfea3","system_id":"levelo_inurba_marseille","lat":43.2936,"lon":5.37835,"is_reserved":false,"is_disabled":false,"rental_uris":{"android":"levelo://app?vid=2bc9f08e-dd74-43d2-9d0c-7d15346bfea3","ios":"levelo://app?vid=2bc9f08e-dd74-43d2-9d0c-7d15346bfea3"},"vehicle_type_id":"4","last_reported":1713208004,"current_range_meters":4000,"station_id":"ce4bgjh2rcd13ifvqbf0","pricing_plan_id":"cebpf4jnsgd1na2vs0mg"},{"bike_id":"66e8fbd2-2faf-45f1-a0ab-c98a12cac32d","system_id":"levelo_inurba_marseille","lat":43.300852,"lon":5.390859,"is_reserved":false,"is_disabled":false,"rental_uris":{"android":"levelo://app?vid=66e8fbd2-2faf-45f1-a0ab-c98a12cac32d","ios":"levelo://app?vid=66e8fbd2-2faf-45f1-a0ab-c98a12cac32d"},"vehicle_type_id":"4","last_reported":1713208004,"current_range_meters":4800,"station_id":"ce4bh192rcd13ifvqdb0","pricing_plan_id":"cebpf4jnsgd1na2vs0mg"},{"bike_id":"8e4b751e-6856-41b7-8f97-4bb4fc923eee","system_id":"levelo_inurba_marseille","lat":43.2936,"lon":5.37835,"is_reserved":false,"is_disabled":false,"rental_uris":{"android":"levelo://app?vid=8e4b751e-6856-41b7-8f97-4bb4fc923eee","ios":"levelo://app?vid=8e4b751e-6856-41b7-8f97-4bb4fc923eee"},"vehicle_type_id":"4","last_reported":1713208004,"current_range_meters":1200,"station_id":"ce4bgjh2rcd13ifvqbf0","pricing_plan_id":"cebpf4jnsgd1na2vs0mg"},{"bike_id":"648615f9-63e2-4214-84a0-404e9227906e","system_id":"levelo_inurba_marseille","lat":43.300852,"lon":5.390859,"is_reserved":false,"is_disabled":false,"rental_uris":{"android":"levelo://app?vid=648615f9-63e2-4214-84a0-404e9227906e","ios":"levelo://app?vid=648615f9-63e2-4214-84a0-404e9227906e"},"vehicle_type_id":"4","last_reported":1713208004,"current_range_meters":5200,"station_id":"ce4bh192rcd13ifvqdb0","pricing_plan_id":"cebpf4jnsgd1na2vs0mg"},{"bike_id":"204406f5-7550-4082-b099-a37fd314a313","system_id":"levelo_inurba_marseille","lat":43.300852,"lon":5.390859,"is_reserved":false,"is_disabled":false,"rental_uris":{"android":"levelo://app?vid=204406f5-7550-4082-b099-a37fd314a313","ios":"levelo://app?vid=204406f5-7550-4082-b099-a37fd314a313"},"vehicle_type_id":"4","last_reported":1713208004,"current_range_meters":2400,"station_id":"ce4bh192rcd13ifvqdb0","pricing_plan_id":"cebpf4jnsgd1na2vs0mg"},{"bike_id":"4b9c2a9c-33c0-43fc-b9b3-3ac503cbef86","system_id":"levelo_inurba_marseille","lat":43.2936,"lon":5.37835,"is_reserved":false,"is_disabled":false,"rental_uris":{"android":"levelo://app?vid=4b9c2a9c-33c0-43fc-b9b3-3ac503cbef86","ios":"levelo://app?vid=4b9c2a9c-33c0-43fc-b9b3-3ac503cbef86"},"vehicle_type_id":"4","last_reported":1713208004,"current_range_meters":4800,"station_id":"ce4bgjh2rcd13ifvqbf0","pricing_plan_id":"cebpf4jnsgd1na2vs0mg"},{"bike_id":"77225a22-a46d-450f-a8f2-a353411a781f","system_id":"levelo_inurba_marseille","lat":43.292311,"lon":5.360731,"is_reserved":false,"is_disabled":false,"rental_uris":{"android":"levelo://app?vid=77225a22-a46d-450f-a8f2-a353411a781f","ios":"levelo://app?vid=77225a22-a46d-450f-a8f2-a353411a781f"},"vehicle_type_id":"4","last_reported":1713208004,"current_range_meters":4400,"station_id":"ce4bhbh2rcd13ifvqeqg","pricing_plan_id":"cebpf4jnsgd1na2vs0mg"},{"bike_id":"5150c4c7-e66f-4f8b-9e22-27a1689efb7a","system_id":"levelo_inurba_marseille","lat":43.291675,"lon":5.371583,"is_reserved":false,"is_disabled":false,"rental_uris":{"android":"levelo://app?vid=5150c4c7-e66f-4f8b-9e22-27a1689efb7a","ios":"levelo://app?vid=5150c4c7-e66f-4f8b-9e22-27a1689efb7a"},"vehicle_type_id":"4","last_reported":1713208004,"current_range_meters":31200,"station_id":"ce4bha92rcd13ifvqeh0","pricing_plan_id":"cebpf4jnsgd1na2vs0mg"},{"bike_id":"752b5398-00bc-4a26-97dc-c75252d85418","system_id":"levelo_inurba_marseille","lat":43.29875,"lon":5.3891,"is_reserved":false,"is_disabled":false,"rental_uris":{"android":"levelo://app?vid=752b5398-00bc-4a26-97dc-c75252d85418","ios":"levelo://app?vid=752b5398-00bc-4a26-97dc-c75252d85418"},"vehicle_type_id":"4","last_reported":1713208004,"current_range_meters":5200,"station_id":"ce4bh392rcd13ifvqdl0","pricing_plan_id":"cebpf4jnsgd1na2vs0mg"},{"bike_id":"248f9e78-cc8d-4da9-acef-21a2b15beaec","system_id":"levelo_inurba_marseille","lat":43.291671,"lon":5.371575,"is_reserved":false,"is_disabled":false,"rental_uris":{"android":"levelo://app?vid=248f9e78-cc8d-4da9-acef-21a2b15beaec","ios":"levelo://app?vid=248f9e78-cc8d-4da9-acef-21a2b15beaec"},"vehicle_type_id":"4","last_reported":1713208004,"current_range_meters":3600,"station_id":"ce4bha92rcd13ifvqeh0","pricing_plan_id":"cebpf4jnsgd1na2vs0mg"},{"bike_id":"b557fdd2-bff1-4814-bdd9-29a12ada3dbb","system_id":"levelo_inurba_marseille","lat":43.292749,"lon":5.368402,"is_reserved":false,"is_disabled":false,"rental_uris":{"android":"levelo://app?vid=b557fdd2-bff1-4814-bdd9-29a12ada3dbb","ios":"levelo://app?vid=b557fdd2-bff1-4814-bdd9-29a12ada3dbb"},"vehicle_type_id":"4","last_reported":1713208004,"current_range_meters":15600,"station_id":"ce4bhbp2rcd13ifvqesg","pricing_plan_id":"cebpf4jnsgd1na2vs0mg"},{"bike_id":"ec6585d9-b42b-450f-973c-754fb7a32d04","system_id":"levelo_inurba_marseille","lat":43.29529,"lon":5.385581,"is_reserved":false,"is_disabled":false,"rental_uris":{"android":"levelo://app?vid=ec6585d9-b42b-450f-973c-754fb7a32d04","ios":"levelo://app?vid=ec6585d9-b42b-450f-973c-754fb7a32d04"},"vehicle_type_id":"4","last_reported":1713208004,"current_range_meters":5200,"station_id":"ce4bgih2rcd13ifvqba0","pricing_plan_id":"cebpf4jnsgd1na2vs0mg"},{"bike_id":"bafe6cf1-399d-4f3c-be41-396d7b2af269","system_id":"levelo_inurba_marseille","lat":43.313291,"lon":5.396838,"is_reserved":false,"is_disabled":false,"rental_uris":{"android":"levelo://app?vid=bafe6cf1-399d-4f3c-be41-396d7b2af269","ios":"levelo://app?vid=bafe6cf1-399d-4f3c-be41-396d7b2af269"},"vehicle_type_id":"4","last_reported":1713208004,"current_range_meters":0,"station_id":"ce4bgvp2rcd13ifvqcu0","pricing_plan_id":"cebpf4jnsgd1na2vs0mg"},{"bike_id":"7fd18965-a1fa-4191-bdf9-3f456deeabf1","system_id":"levelo_inurba_marseille","lat":43.313291,"lon":5.396838,"is_reserved":false,"is_disabled":false,"rental_uris":{"android":"levelo://app?vid=7fd18965-a1fa-4191-bdf9-3f456deeabf1","ios":"levelo://app?vid=7fd18965-a1fa-4191-bdf9-3f456deeabf1"},"vehicle_type_id":"4","last_reported":1713208004,"current_range_meters":23600,"station_id":"ce4bgvp2rcd13ifvqcu0","pricing_plan_id":"cebpf4jnsgd1na2vs0mg"},{"bike_id":"81b455bf-cd5d-489d-9b55-63817957a9df","system_id":"levelo_inurba_marseille","lat":43.309047,"lon":5.396551,"is_reserved":false,"is_disabled":false,"rental_uris":{"android":"levelo://app?vid=81b455bf-cd5d-489d-9b55-63817957a9df","ios":"levelo://app?vid=81b455bf-cd5d-489d-9b55-63817957a9df"},"vehicle_type_id":"4","last_reported":1713208004,"current_range_meters":7200,"station_id":"ce4bh012rcd13ifvqcv0","pricing_plan_id":"cebpf4jnsgd1na2vs0mg"},{"bike_id":"1edfc843-b1a1-40b4-8d84-e60e3ac085b4","system_id":"levelo_inurba_marseille","lat":43.31324,"lon":5.39699,"is_reserved":false,"is_disabled":false,"rental_uris":{"android":"levelo://app?vid=1edfc843-b1a1-40b4-8d84-e60e3ac085b4","ios":"levelo://app?vid=1edfc843-b1a1-40b4-8d84-e60e3ac085b4"},"vehicle_type_id":"4","last_reported":1713208004,"current_range_meters":0,"station_id":"ce4bgvp2rcd13ifvqcu0","pricing_plan_id":"cebpf4jnsgd1na2vs0mg"},{"bike_id":"82fa7294-c68a-4bfa-a4ad-54e86782801c","system_id":"levelo_inurba_marseille","lat":43.29529,"lon":5.385581,"is_reserved":false,"is_disabled":false,"rental_uris":{"android":"levelo://app?vid=82fa7294-c68a-4bfa-a4ad-54e86782801c","ios":"levelo://app?vid=82fa7294-c68a-4bfa-a4ad-54e86782801c"},"vehicle_type_id":"4","last_reported":1713208004,"current_range_meters":4800,"station_id":"ce4bgih2rcd13ifvqba0","pricing_plan_id":"cebpf4jnsgd1na2vs0mg"},{"bike_id":"5f71d421-cff0-4943-8b6d-99dff32d5b4a","system_id":"levelo_inurba_marseille","lat":43.309038,"lon":5.396546,"is_reserved":false,"is_disabled":false,"rental_uris":{"android":"levelo://app?vid=5f71d421-cff0-4943-8b6d-99dff32d5b4a","ios":"levelo://app?vid=5f71d421-cff0-4943-8b6d-99dff32d5b4a"},"vehicle_type_id":"4","last_reported":1713208004,"current_range_meters":8400,"station_id":"ce4bh012rcd13ifvqcv0","pricing_plan_id":"cebpf4jnsgd1na2vs0mg"},{"bike_id":"df9c7c5d-3ea1-472a-819f-291dbb7d3c84","system_id":"levelo_inurba_marseille","lat":43.29529,"lon":5.385581,"is_reserved":false,"is_disabled":false,"rental_uris":{"android":"levelo://app?vid=df9c7c5d-3ea1-472a-819f-291dbb7d3c84","ios":"levelo://app?vid=df9c7c5d-3ea1-472a-819f-291dbb7d3c84"},"vehicle_type_id":"4","last_reported":1713208004,"current_range_meters":0,"station_id":"ce4bgih2rcd13ifvqba0","pricing_plan_id":"cebpf4jnsgd1na2vs0mg"},{"bike_id":"4adf3c8b-8c5d-4151-ac6d-7c20611e9b88","system_id":"levelo_inurba_marseille","lat":43.29529,"lon":5.385581,"is_reserved":false,"is_disabled":false,"rental_uris":{"android":"levelo://app?vid=4adf3c8b-8c5d-4151-ac6d-7c20611e9b88","ios":"levelo://app?vid=4adf3c8b-8c5d-4151-ac6d-7c20611e9b88"},"vehicle_type_id":"4","last_reported":1713208004,"current_range_meters":26400,"station_id":"ce4bgih2rcd13ifvqba0","pricing_plan_id":"cebpf4jnsgd1na2vs0mg"},{"bike_id":"e791e686-a2f4-4c11-9c21-040e6dd99b9c","system_id":"levelo_inurba_marseille","lat":43.29529,"lon":5.385581,"is_reserved":false,"is_disabled":false,"rental_uris":{"android":"levelo://app?vid=e791e686-a2f4-4c11-9c21-040e6dd99b9c","ios":"levelo://app?vid=e791e686-a2f4-4c11-9c21-040e6dd99b9c"},"vehicle_type_id":"4","last_reported":1713208004,"current_range_meters":14400,"station_id":"ce4bgih2rcd13ifvqba0","pricing_plan_id":"cebpf4jnsgd1na2vs0mg"},{"bike_id":"6b7e2dc2-422b-4edf-8d3f-3c7d479f08ec","system_id":"levelo_inurba_marseille","lat":43.29528,"lon":5.38543,"is_reserved":false,"is_disabled":false,"rental_uris":{"android":"levelo://app?vid=6b7e2dc2-422b-4edf-8d3f-3c7d479f08ec","ios":"levelo://app?vid=6b7e2dc2-422b-4edf-8d3f-3c7d479f08ec"},"vehicle_type_id":"4","last_reported":1713208004,"current_range_meters":16000,"station_id":"ce4bgih2rcd13ifvqba0","pricing_plan_id":"cebpf4jnsgd1na2vs0mg"},{"bike_id":"f81a6948-4e9f-4d6b-be7f-a5501b8b7128","system_id":"levelo_inurba_marseille","lat":43.29529,"lon":5.385581,"is_reserved":false,"is_disabled":false,"rental_uris":{"android":"levelo://app?vid=f81a6948-4e9f-4d6b-be7f-a5501b8b7128","ios":"levelo://app?vid=f81a6948-4e9f-4d6b-be7f-a5501b8b7128"},"vehicle_type_id":"4","last_reported":1713208004,"current_range_meters":26000,"station_id":"ce4bgih2rcd13ifvqba0","pricing_plan_id":"cebpf4jnsgd1na2vs0mg"},{"bike_id":"6a0bfd4f-79d9-4d73-ad0d-86606c040c6b","system_id":"levelo_inurba_marseille","lat":43.29076,"lon":5.37162,"is_reserved":false,"is_disabled":false,"rental_uris":{"android":"levelo://app?vid=6a0bfd4f-79d9-4d73-ad0d-86606c040c6b","ios":"levelo://app?vid=6a0bfd4f-79d9-4d73-ad0d-86606c040c6b"},"vehicle_type_id":"4","last_reported":1713208004,"current_range_meters":22800,"station_id":"ce4bh5p2rcd13ifvqe4g","pricing_plan_id":"cebpf4jnsgd1na2vs0mg"},{"bike_id":"8581b237-a99f-455a-9336-bffbda2aebec","system_id":"levelo_inurba_marseille","lat":43.29075,"lon":5.3717,"is_reserved":false,"is_disabled":false,"rental_uris":{"android":"levelo://app?vid=8581b237-a99f-455a-9336-bffbda2aebec","ios":"levelo://app?vid=8581b237-a99f-455a-9336-bffbda2aebec"},"vehicle_type_id":"4","last_reported":1713208004,"current_range_meters":0,"station_id":"ce4bh5p2rcd13ifvqe4g","pricing_plan_id":"cebpf4jnsgd1na2vs0mg"},{"bike_id":"04a7f1a2-8c0d-42d8-9e8b-72744390a57e","system_id":"levelo_inurba_marseille","lat":43.290779,"lon":5.371482,"is_reserved":false,"is_disabled":false,"rental_uris":{"android":"levelo://app?vid=04a7f1a2-8c0d-42d8-9e8b-72744390a57e","ios":"levelo://app?vid=04a7f1a2-8c0d-42d8-9e8b-72744390a57e"},"vehicle_type_id":"4","last_reported":1713208004,"current_range_meters":14400,"station_id":"ce4bh5p2rcd13ifvqe4g","pricing_plan_id":"cebpf4jnsgd1na2vs0mg"},{"bike_id":"80e410ed-ebd3-45fe-922f-5fef5afcc9ac","system_id":"levelo_inurba_marseille","lat":43.290779,"lon":5.371482,"is_reserved":false,"is_disabled":false,"rental_uris":{"android":"levelo://app?vid=80e410ed-ebd3-45fe-922f-5fef5afcc9ac","ios":"levelo://app?vid=80e410ed-ebd3-45fe-922f-5fef5afcc9ac"},"vehicle_type_id":"4","last_reported":1713208004,"current_range_meters":2400,"station_id":"ce4bh5p2rcd13ifvqe4g","pricing_plan_id":"cebpf4jnsgd1na2vs0mg"},{"bike_id":"bb926147-3b8f-49a0-ae62-721fc533eca7","system_id":"levelo_inurba_marseille","lat":43.29066,"lon":5.371605,"is_reserved":false,"is_disabled":false,"rental_uris":{"android":"levelo://app?vid=bb926147-3b8f-49a0-ae62-721fc533eca7","ios":"levelo://app?vid=bb926147-3b8f-49a0-ae62-721fc533eca7"},"vehicle_type_id":"4","last_reported":1713208004,"current_range_meters":2400,"station_id":"ce4bh5p2rcd13ifvqe4g","pricing_plan_id":"cebpf4jnsgd1na2vs0mg"},{"bike_id":"5ef02755-0d7a-4a7f-97a5-aa7f34037ed1","system_id":"levelo_inurba_marseille","lat":43.290779,"lon":5.371482,"is_reserved":false,"is_disabled":false,"rental_uris":{"android":"levelo://app?vid=5ef02755-0d7a-4a7f-97a5-aa7f34037ed1","ios":"levelo://app?vid=5ef02755-0d7a-4a7f-97a5-aa7f34037ed1"},"vehicle_type_id":"4","last_reported":1713208004,"current_range_meters":20400,"station_id":"ce4bh5p2rcd13ifvqe4g","pricing_plan_id":"cebpf4jnsgd1na2vs0mg"},{"bike_id":"a9cfa7ce-3ea7-4170-ab76-dd80c1229543","system_id":"levelo_inurba_marseille","lat":43.302008,"lon":5.394694,"is_reserved":false,"is_disabled":false,"rental_uris":{"android":"levelo://app?vid=a9cfa7ce-3ea7-4170-ab76-dd80c1229543","ios":"levelo://app?vid=a9cfa7ce-3ea7-4170-ab76-dd80c1229543"},"vehicle_type_id":"4","last_reported":1713208004,"current_range_meters":26800,"station_id":"ce4bh0p2rcd13ifvqd70","pricing_plan_id":"cebpf4jnsgd1na2vs0mg"},{"bike_id":"d8498b8f-80d9-43cd-aae8-b447763ffc17","system_id":"levelo_inurba_marseille","lat":43.290624,"lon":5.359245,"is_reserved":false,"is_disabled":false,"rental_uris":{"android":"levelo://app?vid=d8498b8f-80d9-43cd-aae8-b447763ffc17","ios":"levelo://app?vid=d8498b8f-80d9-43cd-aae8-b447763ffc17"},"vehicle_type_id":"4","last_reported":1713208004,"current_range_meters":28400,"station_id":"ce4bha92rcd13ifvqeg0","pricing_plan_id":"cebpf4jnsgd1na2vs0mg"},{"bike_id":"7c8bb043-ec35-4933-a051-2110c8042b80","system_id":"levelo_inurba_marseille","lat":43.290779,"lon":5.371482,"is_reserved":false,"is_disabled":false,"rental_uris":{"android":"levelo://app?vid=7c8bb043-ec35-4933-a051-2110c8042b80","ios":"levelo://app?vid=7c8bb043-ec35-4933-a051-2110c8042b80"},"vehicle_type_id":"4","last_reported":1713208004,"current_range_meters":19600,"station_id":"ce4bh5p2rcd13ifvqe4g","pricing_plan_id":"cebpf4jnsgd1na2vs0mg"},{"bike_id":"7be3955c-213c-425b-b027-2207a407f31f","system_id":"levelo_inurba_marseille","lat":43.294153,"lon":5.386305,"is_reserved":false,"is_disabled":false,"rental_uris":{"android":"levelo://app?vid=7be3955c-213c-425b-b027-2207a407f31f","ios":"levelo://app?vid=7be3955c-213c-425b-b027-2207a407f31f"},"vehicle_type_id":"4","last_reported":1713208004,"current_range_meters":0,"station_id":"ce4bh2h2rcd13ifvqdh0","pricing_plan_id":"cebpf4jnsgd1na2vs0mg"},{"bike_id":"b53b9774-b2a2-49a6-a952-2369809a2e67","system_id":"levelo_inurba_marseille","lat":43.294162,"lon":5.386292,"is_reserved":false,"is_disabled":false,"rental_uris":{"android":"levelo://app?vid=b53b9774-b2a2-49a6-a952-2369809a2e67","ios":"levelo://app?vid=b53b9774-b2a2-49a6-a952-2369809a2e67"},"vehicle_type_id":"4","last_reported":1713208004,"current_range_meters":0,"station_id":"ce4bh2h2rcd13ifvqdh0","pricing_plan_id":"cebpf4jnsgd1na2vs0mg"},{"bike_id":"1a679af0-32e6-4eff-a774-3f9d1d4c5936","system_id":"levelo_inurba_marseille","lat":43.294162,"lon":5.386292,"is_reserved":false,"is_disabled":false,"rental_uris":{"android":"levelo://app?vid=1a679af0-32e6-4eff-a774-3f9d1d4c5936","ios":"levelo://app?vid=1a679af0-32e6-4eff-a774-3f9d1d4c5936"},"vehicle_type_id":"4","last_reported":1713208004,"current_range_meters":22800,"station_id":"ce4bh2h2rcd13ifvqdh0","pricing_plan_id":"cebpf4jnsgd1na2vs0mg"},{"bike_id":"f3a888d2-e1f7-4b4c-952f-8126c5cc5b53","system_id":"levelo_inurba_marseille","lat":43.289184,"lon":5.366408,"is_reserved":false,"is_disabled":false,"rental_uris":{"android":"levelo://app?vid=f3a888d2-e1f7-4b4c-952f-8126c5cc5b53","ios":"levelo://app?vid=f3a888d2-e1f7-4b4c-952f-8126c5cc5b53"},"vehicle_type_id":"4","last_reported":1713208004,"current_range_meters":6800,"station_id":"ce4bhap2rcd13ifvqek0","pricing_plan_id":"cebpf4jnsgd1na2vs0mg"},{"bike_id":"871c18a4-cb71-4c55-b177-280cf96147a8","system_id":"levelo_inurba_marseille","lat":43.294162,"lon":5.386292,"is_reserved":false,"is_disabled":false,"rental_uris":{"android":"levelo://app?vid=871c18a4-cb71-4c55-b177-280cf96147a8","ios":"levelo://app?vid=871c18a4-cb71-4c55-b177-280cf96147a8"},"vehicle_type_id":"4","last_reported":1713208004,"current_range_meters":23600,"station_id":"ce4bh2h2rcd13ifvqdh0","pricing_plan_id":"cebpf4jnsgd1na2vs0mg"},{"bike_id":"0218478c-8ebc-479a-9e1f-f13ccdec4315","system_id":"levelo_inurba_marseille","lat":43.2894,"lon":5.36635,"is_reserved":false,"is_disabled":false,"rental_uris":{"android":"levelo://app?vid=0218478c-8ebc-479a-9e1f-f13ccdec4315","ios":"levelo://app?vid=0218478c-8ebc-479a-9e1f-f13ccdec4315"},"vehicle_type_id":"4","last_reported":1713208004,"current_range_meters":22400,"station_id":"ce4bhap2rcd13ifvqek0","pricing_plan_id":"cebpf4jnsgd1na2vs0mg"},{"bike_id":"ca965845-45ef-4d38-b82b-0a8f2a138988","system_id":"levelo_inurba_marseille","lat":43.294153,"lon":5.386305,"is_reserved":false,"is_disabled":false,"rental_uris":{"android":"levelo://app?vid=ca965845-45ef-4d38-b82b-0a8f2a138988","ios":"levelo://app?vid=ca965845-45ef-4d38-b82b-0a8f2a138988"},"vehicle_type_id":"4","last_reported":1713208004,"current_range_meters":0,"station_id":"ce4bh2h2rcd13ifvqdh0","pricing_plan_id":"cebpf4jnsgd1na2vs0mg"},{"bike_id":"38864061-0639-48b7-a0ca-dab672c11270","system_id":"levelo_inurba_marseille","lat":43.290327,"lon":5.375711,"is_reserved":false,"is_disabled":false,"rental_uris":{"android":"levelo://app?vid=38864061-0639-48b7-a0ca-dab672c11270","ios":"levelo://app?vid=38864061-0639-48b7-a0ca-dab672c11270"},"vehicle_type_id":"4","last_reported":1713208004,"current_range_meters":400,"station_id":"ce4bh692rcd13ifvqe90","pricing_plan_id":"cebpf4jnsgd1na2vs0mg"},{"bike_id":"2e20d4f6-3fe2-4822-a500-0449dc0eba92","system_id":"levelo_inurba_marseille","lat":43.289184,"lon":5.366408,"is_reserved":false,"is_disabled":false,"rental_uris":{"android":"levelo://app?vid=2e20d4f6-3fe2-4822-a500-0449dc0eba92","ios":"levelo://app?vid=2e20d4f6-3fe2-4822-a500-0449dc0eba92"},"vehicle_type_id":"4","last_reported":1713208004,"current_range_meters":4000,"station_id":"ce4bhap2rcd13ifvqek0","pricing_plan_id":"cebpf4jnsgd1na2vs0mg"},{"bike_id":"aeb08aaa-c4c9-4548-aa8b-c5c249411ebd","system_id":"levelo_inurba_marseille","lat":43.289184,"lon":5.366408,"is_reserved":false,"is_disabled":false,"rental_uris":{"android":"levelo://app?vid=aeb08aaa-c4c9-4548-aa8b-c5c249411ebd","ios":"levelo://app?vid=aeb08aaa-c4c9-4548-aa8b-c5c249411ebd"},"vehicle_type_id":"4","last_reported":1713208004,"current_range_meters":0,"station_id":"ce4bhap2rcd13ifvqek0","pricing_plan_id":"cebpf4jnsgd1na2vs0mg"},{"bike_id":"a812e7a0-115d-41db-818b-9b9e9a6396a5","system_id":"levelo_inurba_marseille","lat":43.289468,"lon":5.363719,"is_reserved":false,"is_disabled":false,"rental_uris":{"android":"levelo://app?vid=a812e7a0-115d-41db-818b-9b9e9a6396a5","ios":"levelo://app?vid=a812e7a0-115d-41db-818b-9b9e9a6396a5"},"vehicle_type_id":"4","last_reported":1713208004,"current_range_meters":20000,"station_id":"ce4bhc92rcd13ifvqetg","pricing_plan_id":"cebpf4jnsgd1na2vs0mg"},{"bike_id":"429ba5b6-af52-4c76-9d12-8931327fd0b1","system_id":"levelo_inurba_marseille","lat":43.289184,"lon":5.366408,"is_reserved":false,"is_disabled":false,"rental_uris":{"android":"levelo://app?vid=429ba5b6-af52-4c76-9d12-8931327fd0b1","ios":"levelo://app?vid=429ba5b6-af52-4c76-9d12-8931327fd0b1"},"vehicle_type_id":"4","last_reported":1713208004,"current_range_meters":11200,"station_id":"ce4bhap2rcd13ifvqek0","pricing_plan_id":"cebpf4jnsgd1na2vs0mg"},{"bike_id":"9ce38f7a-0e36-4518-9d35-ce13b20727ce","system_id":"levelo_inurba_marseille","lat":43.292644,"lon":5.384257,"is_reserved":false,"is_disabled":false,"rental_uris":{"android":"levelo://app?vid=9ce38f7a-0e36-4518-9d35-ce13b20727ce","ios":"levelo://app?vid=9ce38f7a-0e36-4518-9d35-ce13b20727ce"},"vehicle_type_id":"4","last_reported":1713208004,"current_range_meters":5600,"station_id":"ce4bh692rcd13ifvqea0","pricing_plan_id":"cebpf4jnsgd1na2vs0mg"},{"bike_id":"9619be94-3cd3-4251-bbbe-d08cf36237d9","system_id":"levelo_inurba_marseille","lat":43.292644,"lon":5.384257,"is_reserved":false,"is_disabled":false,"rental_uris":{"android":"levelo://app?vid=9619be94-3cd3-4251-bbbe-d08cf36237d9","ios":"levelo://app?vid=9619be94-3cd3-4251-bbbe-d08cf36237d9"},"vehicle_type_id":"4","last_reported":1713208004,"current_range_meters":14400,"station_id":"ce4bh692rcd13ifvqea0","pricing_plan_id":"cebpf4jnsgd1na2vs0mg"},{"bike_id":"c07f1b8b-9daf-4bc4-803f-a651cc7ff991","system_id":"levelo_inurba_marseille","lat":43.292642,"lon":5.384254,"is_reserved":false,"is_disabled":false,"rental_uris":{"android":"levelo://app?vid=c07f1b8b-9daf-4bc4-803f-a651cc7ff991","ios":"levelo://app?vid=c07f1b8b-9daf-4bc4-803f-a651cc7ff991"},"vehicle_type_id":"4","last_reported":1713208004,"current_range_meters":31200,"station_id":"ce4bh692rcd13ifvqea0","pricing_plan_id":"cebpf4jnsgd1na2vs0mg"},{"bike_id":"562d8d6e-cc1f-40eb-ab5e-19845ec1d206","system_id":"levelo_inurba_marseille","lat":43.292644,"lon":5.384257,"is_reserved":false,"is_disabled":false,"rental_uris":{"android":"levelo://app?vid=562d8d6e-cc1f-40eb-ab5e-19845ec1d206","ios":"levelo://app?vid=562d8d6e-cc1f-40eb-ab5e-19845ec1d206"},"vehicle_type_id":"4","last_reported":1713208004,"current_range_meters":13600,"station_id":"ce4bh692rcd13ifvqea0","pricing_plan_id":"cebpf4jnsgd1na2vs0mg"},{"bike_id":"6651cbed-03dd-48be-9b04-a2fab70197df","system_id":"levelo_inurba_marseille","lat":43.292644,"lon":5.384257,"is_reserved":false,"is_disabled":false,"rental_uris":{"android":"levelo://app?vid=6651cbed-03dd-48be-9b04-a2fab70197df","ios":"levelo://app?vid=6651cbed-03dd-48be-9b04-a2fab70197df"},"vehicle_type_id":"4","last_reported":1713208004,"current_range_meters":18400,"station_id":"ce4bh692rcd13ifvqea0","pricing_plan_id":"cebpf4jnsgd1na2vs0mg"},{"bike_id":"82570550-94fc-4549-a7a9-10696b4dadc8","system_id":"levelo_inurba_marseille","lat":43.29273,"lon":5.38452,"is_reserved":false,"is_disabled":false,"rental_uris":{"android":"levelo://app?vid=82570550-94fc-4549-a7a9-10696b4dadc8","ios":"levelo://app?vid=82570550-94fc-4549-a7a9-10696b4dadc8"},"vehicle_type_id":"4","last_reported":1713208004,"current_range_meters":0,"station_id":"ce4bh692rcd13ifvqea0","pricing_plan_id":"cebpf4jnsgd1na2vs0mg"},{"bike_id":"1637f6bf-099e-4260-a8e9-b397b0fee2d5","system_id":"levelo_inurba_marseille","lat":43.29272,"lon":5.3846,"is_reserved":false,"is_disabled":false,"rental_uris":{"android":"levelo://app?vid=1637f6bf-099e-4260-a8e9-b397b0fee2d5","ios":"levelo://app?vid=1637f6bf-099e-4260-a8e9-b397b0fee2d5"},"vehicle_type_id":"4","last_reported":1713208004,"current_range_meters":0,"station_id":"ce4bh692rcd13ifvqea0","pricing_plan_id":"cebpf4jnsgd1na2vs0mg"},{"bike_id":"8d9e83dd-e03c-4ddb-9f8f-c9f4ced11d03","system_id":"levelo_inurba_marseille","lat":43.292642,"lon":5.384254,"is_reserved":false,"is_disabled":false,"rental_uris":{"android":"levelo://app?vid=8d9e83dd-e03c-4ddb-9f8f-c9f4ced11d03","ios":"levelo://app?vid=8d9e83dd-e03c-4ddb-9f8f-c9f4ced11d03"},"vehicle_type_id":"4","last_reported":1713208004,"current_range_meters":2000,"station_id":"ce4bh692rcd13ifvqea0","pricing_plan_id":"cebpf4jnsgd1na2vs0mg"},{"bike_id":"39a57e91-6e7d-4516-8fee-d4eca101e520","system_id":"levelo_inurba_marseille","lat":43.30419,"lon":5.39747,"is_reserved":false,"is_disabled":false,"rental_uris":{"android":"levelo://app?vid=39a57e91-6e7d-4516-8fee-d4eca101e520","ios":"levelo://app?vid=39a57e91-6e7d-4516-8fee-d4eca101e520"},"vehicle_type_id":"4","last_reported":1713208004,"current_range_meters":12000,"station_id":"ce4bh092rcd13ifvqd20","pricing_plan_id":"cebpf4jnsgd1na2vs0mg"},{"bike_id":"07629a91-fb2a-4419-9c4a-cd7ac7bd5c27","system_id":"levelo_inurba_marseille","lat":43.292644,"lon":5.384257,"is_reserved":false,"is_disabled":false,"rental_uris":{"android":"levelo://app?vid=07629a91-fb2a-4419-9c4a-cd7ac7bd5c27","ios":"levelo://app?vid=07629a91-fb2a-4419-9c4a-cd7ac7bd5c27"},"vehicle_type_id":"4","last_reported":1713208004,"current_range_meters":29600,"station_id":"ce4bh692rcd13ifvqea0","pricing_plan_id":"cebpf4jnsgd1na2vs0mg"},{"bike_id":"8adb170c-2b09-45ff-99af-b821bd92ee2d","system_id":"levelo_inurba_marseille","lat":43.292619,"lon":5.384457,"is_reserved":false,"is_disabled":false,"rental_uris":{"android":"levelo://app?vid=8adb170c-2b09-45ff-99af-b821bd92ee2d","ios":"levelo://app?vid=8adb170c-2b09-45ff-99af-b821bd92ee2d"},"vehicle_type_id":"4","last_reported":1713208004,"current_range_meters":0,"station_id":"ce4bh692rcd13ifvqea0","pricing_plan_id":"cebpf4jnsgd1na2vs0mg"},{"bike_id":"d5bbaca1-095b-469f-97fa-aeb5cba8f7ee","system_id":"levelo_inurba_marseille","lat":43.292642,"lon":5.384254,"is_reserved":false,"is_disabled":false,"rental_uris":{"android":"levelo://app?vid=d5bbaca1-095b-469f-97fa-aeb5cba8f7ee","ios":"levelo://app?vid=d5bbaca1-095b-469f-97fa-aeb5cba8f7ee"},"vehicle_type_id":"4","last_reported":1713208004,"current_range_meters":10400,"station_id":"ce4bh692rcd13ifvqea0","pricing_plan_id":"cebpf4jnsgd1na2vs0mg"},{"bike_id":"306dda69-acea-4203-8ec9-e5424548831a","system_id":"levelo_inurba_marseille","lat":43.290103,"lon":5.356114,"is_reserved":false,"is_disabled":false,"rental_uris":{"android":"levelo://app?vid=306dda69-acea-4203-8ec9-e5424548831a","ios":"levelo://app?vid=306dda69-acea-4203-8ec9-e5424548831a"},"vehicle_type_id":"4","last_reported":1713208004,"current_range_meters":15200,"station_id":"ce4bhb92rcd13ifvqen0","pricing_plan_id":"cebpf4jnsgd1na2vs0mg"},{"bike_id":"cd69ef09-051e-497b-b166-1d2ea7342281","system_id":"levelo_inurba_marseille","lat":43.290995,"lon":5.381361,"is_reserved":false,"is_disabled":false,"rental_uris":{"android":"levelo://app?vid=cd69ef09-051e-497b-b166-1d2ea7342281","ios":"levelo://app?vid=cd69ef09-051e-497b-b166-1d2ea7342281"},"vehicle_type_id":"4","last_reported":1713208004,"current_range_meters":14000,"station_id":"ce4bh512rcd13ifvqe2g","pricing_plan_id":"cebpf4jnsgd1na2vs0mg"},{"bike_id":"e9536e85-59b0-42d5-b8ea-3531dc98ca17","system_id":"levelo_inurba_marseille","lat":43.29097,"lon":5.38143,"is_reserved":false,"is_disabled":false,"rental_uris":{"android":"levelo://app?vid=e9536e85-59b0-42d5-b8ea-3531dc98ca17","ios":"levelo://app?vid=e9536e85-59b0-42d5-b8ea-3531dc98ca17"},"vehicle_type_id":"4","last_reported":1713208004,"current_range_meters":0,"station_id":"ce4bh512rcd13ifvqe2g","pricing_plan_id":"cebpf4jnsgd1na2vs0mg"},{"bike_id":"c4685c79-be0c-47ae-83d5-0bc64fd63179","system_id":"levelo_inurba_marseille","lat":43.295169,"lon":5.390426,"is_reserved":false,"is_disabled":false,"rental_uris":{"android":"levelo://app?vid=c4685c79-be0c-47ae-83d5-0bc64fd63179","ios":"levelo://app?vid=c4685c79-be0c-47ae-83d5-0bc64fd63179"},"vehicle_type_id":"4","last_reported":1713208004,"current_range_meters":17600,"station_id":"ce4bh3p2rcd13ifvqdp0","pricing_plan_id":"cebpf4jnsgd1na2vs0mg"},{"bike_id":"8e35ce69-5437-402a-b208-dac0a7311958","system_id":"levelo_inurba_marseille","lat":43.29798,"lon":5.39341,"is_reserved":false,"is_disabled":false,"rental_uris":{"android":"levelo://app?vid=8e35ce69-5437-402a-b208-dac0a7311958","ios":"levelo://app?vid=8e35ce69-5437-402a-b208-dac0a7311958"},"vehicle_type_id":"4","last_reported":1713208004,"current_range_meters":2000,"station_id":"chh1huq6cuj3fo74tm60","pricing_plan_id":"cebpf4jnsgd1na2vs0mg"},{"bike_id":"d9611923-0b3a-4990-8f32-e503fb6c6c70","system_id":"levelo_inurba_marseille","lat":43.297815,"lon":5.393548,"is_reserved":false,"is_disabled":false,"rental_uris":{"android":"levelo://app?vid=d9611923-0b3a-4990-8f32-e503fb6c6c70","ios":"levelo://app?vid=d9611923-0b3a-4990-8f32-e503fb6c6c70"},"vehicle_type_id":"4","last_reported":1713208004,"current_range_meters":4800,"station_id":"chh1huq6cuj3fo74tm60","pricing_plan_id":"cebpf4jnsgd1na2vs0mg"},{"bike_id":"4070b5e3-bbc3-4b01-9f39-a081c70c197c","system_id":"levelo_inurba_marseille","lat":43.295169,"lon":5.390426,"is_reserved":false,"is_disabled":false,"rental_uris":{"android":"levelo://app?vid=4070b5e3-bbc3-4b01-9f39-a081c70c197c","ios":"levelo://app?vid=4070b5e3-bbc3-4b01-9f39-a081c70c197c"},"vehicle_type_id":"4","last_reported":1713208004,"current_range_meters":8000,"station_id":"ce4bh3p2rcd13ifvqdp0","pricing_plan_id":"cebpf4jnsgd1na2vs0mg"},{"bike_id":"a8bd8076-b381-4659-b88a-2cc820a178ef","system_id":"levelo_inurba_marseille","lat":43.297815,"lon":5.393548,"is_reserved":false,"is_disabled":false,"rental_uris":{"android":"levelo://app?vid=a8bd8076-b381-4659-b88a-2cc820a178ef","ios":"levelo://app?vid=a8bd8076-b381-4659-b88a-2cc820a178ef"},"vehicle_type_id":"4","last_reported":1713208004,"current_range_meters":20800,"station_id":"chh1huq6cuj3fo74tm60","pricing_plan_id":"cebpf4jnsgd1na2vs0mg"},{"bike_id":"bedb0d14-ff3a-4f57-8c0c-820e739a943f","system_id":"levelo_inurba_marseille","lat":43.295169,"lon":5.390426,"is_reserved":false,"is_disabled":false,"rental_uris":{"android":"levelo://app?vid=bedb0d14-ff3a-4f57-8c0c-820e739a943f","ios":"levelo://app?vid=bedb0d14-ff3a-4f57-8c0c-820e739a943f"},"vehicle_type_id":"4","last_reported":1713208004,"current_range_meters":1600,"station_id":"ce4bh3p2rcd13ifvqdp0","pricing_plan_id":"cebpf4jnsgd1na2vs0mg"},{"bike_id":"b4d4d2ab-43c2-498c-bde6-4fe8c9194a29","system_id":"levelo_inurba_marseille","lat":43.297815,"lon":5.393548,"is_reserved":false,"is_disabled":false,"rental_uris":{"android":"levelo://app?vid=b4d4d2ab-43c2-498c-bde6-4fe8c9194a29","ios":"levelo://app?vid=b4d4d2ab-43c2-498c-bde6-4fe8c9194a29"},"vehicle_type_id":"4","last_reported":1713208004,"current_range_meters":800,"station_id":"chh1huq6cuj3fo74tm60","pricing_plan_id":"cebpf4jnsgd1na2vs0mg"},{"bike_id":"1e4aa303-0ceb-4d1f-9da0-bed60a5aba6f","system_id":"levelo_inurba_marseille","lat":43.295169,"lon":5.390426,"is_reserved":false,"is_disabled":false,"rental_uris":{"android":"levelo://app?vid=1e4aa303-0ceb-4d1f-9da0-bed60a5aba6f","ios":"levelo://app?vid=1e4aa303-0ceb-4d1f-9da0-bed60a5aba6f"},"vehicle_type_id":"4","last_reported":1713208004,"current_range_meters":6000,"station_id":"ce4bh3p2rcd13ifvqdp0","pricing_plan_id":"cebpf4jnsgd1na2vs0mg"},{"bike_id":"7b49ccc3-9a94-4c05-8ea2-ff47c959e9d1","system_id":"levelo_inurba_marseille","lat":43.295169,"lon":5.390426,"is_reserved":false,"is_disabled":false,"rental_uris":{"android":"levelo://app?vid=7b49ccc3-9a94-4c05-8ea2-ff47c959e9d1","ios":"levelo://app?vid=7b49ccc3-9a94-4c05-8ea2-ff47c959e9d1"},"vehicle_type_id":"4","last_reported":1713208004,"current_range_meters":11600,"station_id":"ce4bh3p2rcd13ifvqdp0","pricing_plan_id":"cebpf4jnsgd1na2vs0mg"},{"bike_id":"e7870f04-9946-47af-b326-e15da4a91b34","system_id":"levelo_inurba_marseille","lat":43.330442,"lon":5.389148,"is_reserved":false,"is_disabled":false,"rental_uris":{"android":"levelo://app?vid=e7870f04-9946-47af-b326-e15da4a91b34","ios":"levelo://app?vid=e7870f04-9946-47af-b326-e15da4a91b34"},"vehicle_type_id":"4","last_reported":1713208004,"current_range_meters":12400,"station_id":"ce4bhr92rcd13ifvqhrg","pricing_plan_id":"cebpf4jnsgd1na2vs0mg"},{"bike_id":"8c02baf2-f159-4962-8d90-17e077a3466b","system_id":"levelo_inurba_marseille","lat":43.295169,"lon":5.390426,"is_reserved":false,"is_disabled":false,"rental_uris":{"android":"levelo://app?vid=8c02baf2-f159-4962-8d90-17e077a3466b","ios":"levelo://app?vid=8c02baf2-f159-4962-8d90-17e077a3466b"},"vehicle_type_id":"4","last_reported":1713208004,"current_range_meters":1200,"station_id":"ce4bh3p2rcd13ifvqdp0","pricing_plan_id":"cebpf4jnsgd1na2vs0mg"},{"bike_id":"5c3035fb-e444-43b5-b5e5-746aa24a6eb9","system_id":"levelo_inurba_marseille","lat":43.33025,"lon":5.39042,"is_reserved":false,"is_disabled":false,"rental_uris":{"android":"levelo://app?vid=5c3035fb-e444-43b5-b5e5-746aa24a6eb9","ios":"levelo://app?vid=5c3035fb-e444-43b5-b5e5-746aa24a6eb9"},"vehicle_type_id":"4","last_reported":1713208004,"current_range_meters":0,"station_id":"ce4bhr92rcd13ifvqhrg","pricing_plan_id":"cebpf4jnsgd1na2vs0mg"},{"bike_id":"9c1c16cd-6359-46bd-aaf9-b0fc26dfc518","system_id":"levelo_inurba_marseille","lat":43.330442,"lon":5.389148,"is_reserved":false,"is_disabled":false,"rental_uris":{"android":"levelo://app?vid=9c1c16cd-6359-46bd-aaf9-b0fc26dfc518","ios":"levelo://app?vid=9c1c16cd-6359-46bd-aaf9-b0fc26dfc518"},"vehicle_type_id":"4","last_reported":1713208004,"current_range_meters":14400,"station_id":"ce4bhr92rcd13ifvqhrg","pricing_plan_id":"cebpf4jnsgd1na2vs0mg"},{"bike_id":"b5a248dc-9382-4b84-92cd-0ab3a8395d6a","system_id":"levelo_inurba_marseille","lat":43.33025,"lon":5.39043,"is_reserved":false,"is_disabled":false,"rental_uris":{"android":"levelo://app?vid=b5a248dc-9382-4b84-92cd-0ab3a8395d6a","ios":"levelo://app?vid=b5a248dc-9382-4b84-92cd-0ab3a8395d6a"},"vehicle_type_id":"4","last_reported":1713208004,"current_range_meters":29200,"station_id":"ce4bhr92rcd13ifvqhrg","pricing_plan_id":"cebpf4jnsgd1na2vs0mg"},{"bike_id":"cb8b9c01-a0f5-4a5b-b2f9-4fb643bf52fe","system_id":"levelo_inurba_marseille","lat":43.33027,"lon":5.39043,"is_reserved":false,"is_disabled":false,"rental_uris":{"android":"levelo://app?vid=cb8b9c01-a0f5-4a5b-b2f9-4fb643bf52fe","ios":"levelo://app?vid=cb8b9c01-a0f5-4a5b-b2f9-4fb643bf52fe"},"vehicle_type_id":"4","last_reported":1713208004,"current_range_meters":17600,"station_id":"ce4bhr92rcd13ifvqhrg","pricing_plan_id":"cebpf4jnsgd1na2vs0mg"},{"bike_id":"c27de58c-4d51-4d8b-804e-15754e64d2d9","system_id":"levelo_inurba_marseille","lat":43.33029,"lon":5.39043,"is_reserved":false,"is_disabled":false,"rental_uris":{"android":"levelo://app?vid=c27de58c-4d51-4d8b-804e-15754e64d2d9","ios":"levelo://app?vid=c27de58c-4d51-4d8b-804e-15754e64d2d9"},"vehicle_type_id":"4","last_reported":1713208004,"current_range_meters":0,"station_id":"ce4bhr92rcd13ifvqhrg","pricing_plan_id":"cebpf4jnsgd1na2vs0mg"},{"bike_id":"a79cc384-9040-42f4-9f27-a2550a10909e","system_id":"levelo_inurba_marseille","lat":43.28856,"lon":5.358371,"is_reserved":false,"is_disabled":false,"rental_uris":{"android":"levelo://app?vid=a79cc384-9040-42f4-9f27-a2550a10909e","ios":"levelo://app?vid=a79cc384-9040-42f4-9f27-a2550a10909e"},"vehicle_type_id":"4","last_reported":1713208004,"current_range_meters":10000,"station_id":"ce4bhb12rcd13ifvqem0","pricing_plan_id":"cebpf4jnsgd1na2vs0mg"},{"bike_id":"05c18f42-e654-46bf-b35c-b73f81236ed2","system_id":"levelo_inurba_marseille","lat":43.309371,"lon":5.401449,"is_reserved":false,"is_disabled":false,"rental_uris":{"android":"levelo://app?vid=05c18f42-e654-46bf-b35c-b73f81236ed2","ios":"levelo://app?vid=05c18f42-e654-46bf-b35c-b73f81236ed2"},"vehicle_type_id":"4","last_reported":1713208004,"current_range_meters":0,"station_id":"ce4bgvp2rcd13ifvqct0","pricing_plan_id":"cebpf4jnsgd1na2vs0mg"},{"bike_id":"82f7f031-95d4-4d79-8438-98ba77dbfa96","system_id":"levelo_inurba_marseille","lat":43.309371,"lon":5.401449,"is_reserved":false,"is_disabled":false,"rental_uris":{"android":"levelo://app?vid=82f7f031-95d4-4d79-8438-98ba77dbfa96","ios":"levelo://app?vid=82f7f031-95d4-4d79-8438-98ba77dbfa96"},"vehicle_type_id":"4","last_reported":1713208004,"current_range_meters":0,"station_id":"ce4bgvp2rcd13ifvqct0","pricing_plan_id":"cebpf4jnsgd1na2vs0mg"},{"bike_id":"9ad07c57-32dc-4f50-8b3d-ef8ae9915c39","system_id":"levelo_inurba_marseille","lat":43.306412,"lon":5.401035,"is_reserved":false,"is_disabled":false,"rental_uris":{"android":"levelo://app?vid=9ad07c57-32dc-4f50-8b3d-ef8ae9915c39","ios":"levelo://app?vid=9ad07c57-32dc-4f50-8b3d-ef8ae9915c39"},"vehicle_type_id":"4","last_reported":1713208004,"current_range_meters":7600,"station_id":"ce4bh112rcd13ifvqda0","pricing_plan_id":"cebpf4jnsgd1na2vs0mg"},{"bike_id":"f841f2d9-1bb7-4e5e-aab7-6a3663ccf7eb","system_id":"levelo_inurba_marseille","lat":43.309371,"lon":5.401449,"is_reserved":false,"is_disabled":false,"rental_uris":{"android":"levelo://app?vid=f841f2d9-1bb7-4e5e-aab7-6a3663ccf7eb","ios":"levelo://app?vid=f841f2d9-1bb7-4e5e-aab7-6a3663ccf7eb"},"vehicle_type_id":"4","last_reported":1713208004,"current_range_meters":14800,"station_id":"ce4bgvp2rcd13ifvqct0","pricing_plan_id":"cebpf4jnsgd1na2vs0mg"},{"bike_id":"22059a43-b635-413d-bdce-8634a306a0d8","system_id":"levelo_inurba_marseille","lat":43.306412,"lon":5.401035,"is_reserved":false,"is_disabled":false,"rental_uris":{"android":"levelo://app?vid=22059a43-b635-413d-bdce-8634a306a0d8","ios":"levelo://app?vid=22059a43-b635-413d-bdce-8634a306a0d8"},"vehicle_type_id":"4","last_reported":1713208004,"current_range_meters":24000,"station_id":"ce4bh112rcd13ifvqda0","pricing_plan_id":"cebpf4jnsgd1na2vs0mg"},{"bike_id":"519e5bcf-3eee-46f7-8a4d-ea78bc0be31c","system_id":"levelo_inurba_marseille","lat":43.306412,"lon":5.401035,"is_reserved":false,"is_disabled":false,"rental_uris":{"android":"levelo://app?vid=519e5bcf-3eee-46f7-8a4d-ea78bc0be31c","ios":"levelo://app?vid=519e5bcf-3eee-46f7-8a4d-ea78bc0be31c"},"vehicle_type_id":"4","last_reported":1713208004,"current_range_meters":15600,"station_id":"ce4bh112rcd13ifvqda0","pricing_plan_id":"cebpf4jnsgd1na2vs0mg"},{"bike_id":"be5053d3-4d49-4888-93ce-fd4a62c7a251","system_id":"levelo_inurba_marseille","lat":43.30642,"lon":5.401031,"is_reserved":false,"is_disabled":false,"rental_uris":{"android":"levelo://app?vid=be5053d3-4d49-4888-93ce-fd4a62c7a251","ios":"levelo://app?vid=be5053d3-4d49-4888-93ce-fd4a62c7a251"},"vehicle_type_id":"4","last_reported":1713208004,"current_range_meters":0,"station_id":"ce4bh112rcd13ifvqda0","pricing_plan_id":"cebpf4jnsgd1na2vs0mg"},{"bike_id":"a39f5224-c737-4241-b67d-2191231c077a","system_id":"levelo_inurba_marseille","lat":43.33768,"lon":5.37472,"is_reserved":false,"is_disabled":false,"rental_uris":{"android":"levelo://app?vid=a39f5224-c737-4241-b67d-2191231c077a","ios":"levelo://app?vid=a39f5224-c737-4241-b67d-2191231c077a"},"vehicle_type_id":"4","last_reported":1713208004,"current_range_meters":11200,"station_id":"","pricing_plan_id":"cebpf4jnsgd1na2vs0mg"},{"bike_id":"1303fbcc-c07e-4099-82f2-2c51a3205733","system_id":"levelo_inurba_marseille","lat":43.301117,"lon":5.398795,"is_reserved":false,"is_disabled":false,"rental_uris":{"android":"levelo://app?vid=1303fbcc-c07e-4099-82f2-2c51a3205733","ios":"levelo://app?vid=1303fbcc-c07e-4099-82f2-2c51a3205733"},"vehicle_type_id":"4","last_reported":1713208004,"current_range_meters":21600,"station_id":"ce4bh0h2rcd13ifvqd40","pricing_plan_id":"cebpf4jnsgd1na2vs0mg"},{"bike_id":"63b85d5a-4966-4fe4-853a-91b221cbc2ee","system_id":"levelo_inurba_marseille","lat":43.301117,"lon":5.398795,"is_reserved":false,"is_disabled":false,"rental_uris":{"android":"levelo://app?vid=63b85d5a-4966-4fe4-853a-91b221cbc2ee","ios":"levelo://app?vid=63b85d5a-4966-4fe4-853a-91b221cbc2ee"},"vehicle_type_id":"4","last_reported":1713208004,"current_range_meters":4400,"station_id":"ce4bh0h2rcd13ifvqd40","pricing_plan_id":"cebpf4jnsgd1na2vs0mg"},{"bike_id":"02752b4f-669e-4331-8033-37ca559c7d34","system_id":"levelo_inurba_marseille","lat":43.30126,"lon":5.39856,"is_reserved":false,"is_disabled":false,"rental_uris":{"android":"levelo://app?vid=02752b4f-669e-4331-8033-37ca559c7d34","ios":"levelo://app?vid=02752b4f-669e-4331-8033-37ca559c7d34"},"vehicle_type_id":"4","last_reported":1713208004,"current_range_meters":12400,"station_id":"ce4bh0h2rcd13ifvqd40","pricing_plan_id":"cebpf4jnsgd1na2vs0mg"},{"bike_id":"48c5770a-9058-49dc-bb6b-14625a72d206","system_id":"levelo_inurba_marseille","lat":43.301436,"lon":5.398686,"is_reserved":false,"is_disabled":false,"rental_uris":{"android":"levelo://app?vid=48c5770a-9058-49dc-bb6b-14625a72d206","ios":"levelo://app?vid=48c5770a-9058-49dc-bb6b-14625a72d206"},"vehicle_type_id":"4","last_reported":1713208004,"current_range_meters":3200,"station_id":"ce4bh0h2rcd13ifvqd40","pricing_plan_id":"cebpf4jnsgd1na2vs0mg"},{"bike_id":"cf4edc1c-4f8a-4bf7-810c-fa154ab93eee","system_id":"levelo_inurba_marseille","lat":43.30125,"lon":5.39862,"is_reserved":false,"is_disabled":false,"rental_uris":{"android":"levelo://app?vid=cf4edc1c-4f8a-4bf7-810c-fa154ab93eee","ios":"levelo://app?vid=cf4edc1c-4f8a-4bf7-810c-fa154ab93eee"},"vehicle_type_id":"4","last_reported":1713208004,"current_range_meters":22400,"station_id":"ce4bh0h2rcd13ifvqd40","pricing_plan_id":"cebpf4jnsgd1na2vs0mg"},{"bike_id":"7f1af4c4-a453-4991-b391-8a7278140cf5","system_id":"levelo_inurba_marseille","lat":43.301117,"lon":5.398795,"is_reserved":false,"is_disabled":false,"rental_uris":{"android":"levelo://app?vid=7f1af4c4-a453-4991-b391-8a7278140cf5","ios":"levelo://app?vid=7f1af4c4-a453-4991-b391-8a7278140cf5"},"vehicle_type_id":"4","last_reported":1713208004,"current_range_meters":15200,"station_id":"ce4bh0h2rcd13ifvqd40","pricing_plan_id":"cebpf4jnsgd1na2vs0mg"},{"bike_id":"8081dde0-28a8-49ae-b3e9-f00ffa4477d9","system_id":"levelo_inurba_marseille","lat":43.30135,"lon":5.39874,"is_reserved":false,"is_disabled":false,"rental_uris":{"android":"levelo://app?vid=8081dde0-28a8-49ae-b3e9-f00ffa4477d9","ios":"levelo://app?vid=8081dde0-28a8-49ae-b3e9-f00ffa4477d9"},"vehicle_type_id":"4","last_reported":1713208004,"current_range_meters":0,"station_id":"ce4bh0h2rcd13ifvqd40","pricing_plan_id":"cebpf4jnsgd1na2vs0mg"},{"bike_id":"1ac636b1-b890-43af-aab3-5664e1e7b80a","system_id":"levelo_inurba_marseille","lat":43.301117,"lon":5.398795,"is_reserved":false,"is_disabled":false,"rental_uris":{"android":"levelo://app?vid=1ac636b1-b890-43af-aab3-5664e1e7b80a","ios":"levelo://app?vid=1ac636b1-b890-43af-aab3-5664e1e7b80a"},"vehicle_type_id":"4","last_reported":1713208004,"current_range_meters":14800,"station_id":"ce4bh0h2rcd13ifvqd40","pricing_plan_id":"cebpf4jnsgd1na2vs0mg"},{"bike_id":"21648fc1-0065-413f-9b74-d17a17c8da9c","system_id":"levelo_inurba_marseille","lat":43.30133,"lon":5.39878,"is_reserved":false,"is_disabled":false,"rental_uris":{"android":"levelo://app?vid=21648fc1-0065-413f-9b74-d17a17c8da9c","ios":"levelo://app?vid=21648fc1-0065-413f-9b74-d17a17c8da9c"},