{"last_updated":1741720043,"ttl":60,"version":"2.2","data":{"bikes":[{"bike_id":"e3565dcf-4d34-49d7-919b-1234920ea466","system_id":"levelo_inurba_marseille","lat":43.33746,"lon":5.3745,"is_reserved":false,"is_disabled":false,"rental_uris":{"android":"levelo://app?vid=e3565dcf-4d34-49d7-919b-1234920ea466","ios":"levelo://app?vid=e3565dcf-4d34-49d7-919b-1234920ea466"},"vehicle_type_id":"4","last_reported":1741720043,"current_range_meters":21600,"station_id":"","pricing_plan_id":"cebpf4jnsgd1na2vs0mg"},{"bike_id":"62b3a7b8-8202-4684-8ab1-a7c1ed31d3f6","system_id":"levelo_inurba_marseille","lat":43.31087,"lon":5.37492,"is_reserved":false,"is_disabled":true,"rental_uris":{"android":"levelo://app?vid=62b3a7b8-8202-4684-8ab1-a7c1ed31d3f6","ios":"levelo://app?vid=62b3a7b8-8202-4684-8ab1-a7c1ed31d3f6"},"vehicle_type_id":"4","last_reported":1741720043,"current_range_meters":0,"station_id":"","pricing_plan_id":"cebpf4jnsgd1na2vs0mg"},{"bike_id":"ee1d2ad1-36ca-49dd-a328-f2a9a9994ecb","system_id":"levelo_inurba_marseille","lat":43.310869,"lon":5.38131,"is_reserved":false,"is_disabled":true,"rental_uris":{"android":"levelo://app?vid=ee1d2ad1-36ca-49dd-a328-f2a9a9994ecb","ios":"levelo://app?vid=ee1d2ad1-36ca-49dd-a328-f2a9a9994ecb"},"vehicle_type_id":"4","last_reported":1741720043,"current_range_meters":0,"station_id":"","pricing_plan_id":"cebpf4jnsgd1na2vs0mg"},{"bike_id":"6a00c328-746a-424c-873d-9d91f3d92b69","system_id":"levelo_inurba_marseille","lat":43.31332,"lon":5.37605,"is_reserved":false,"is_disabled":true,"rental_uris":{"android":"levelo://app?vid=6a00c328-746a-424c-873d-9d91f3d92b69","ios":"levelo://app?vid=6a00c328-746a-424c-873d-9d91f3d92b69"},"vehicle_type_id":"4","last_reported":1741720043,"current_range_meters":0,"station_id":"","pricing_plan_id":"cebpf4jnsgd1na2vs0mg"},{"bike_id":"b6247955-207a-4cf3-b149-28426a59f536","system_id":"levelo_inurba_marseille","lat":43.31316,"lon":5.39693,"is_reserved":false,"is_disabled":true,"rental_uris":{"android":"levelo://app?vid=b6247955-207a-4cf3-b149-28426a59f536","ios":"levelo://app?vid=b6247955-207a-4cf3-b149-28426a59f536"},"vehicle_type_id":"4","last_reported":1741720043,"current_range_meters":0,"station_id":"ce4bgvp2rcd13ifvqcu0","pricing_plan_id":"cebpf4jnsgd1na2vs0mg"},{"bike_id":"32a56be2-9b64-4191-b81f-444bf9583d07","system_id":"levelo_inurba_marseille","lat":43.31263,"lon":5.4018,"is_reserved":false,"is_disabled":true,"rental_uris":{"android":"levelo://app?vid=32a56be2-9b64-4191-b81f-444bf9583d07","ios":"levelo://app?vid=32a56be2-9b64-4191-b81f-444bf9583d07"},"vehicle_type_id":"4","last_reported":1741720043,"current_range_meters":0,"station_id":"ce4bh092rcd13ifvqd30","pricing_plan_id":"cebpf4jnsgd1na2vs0mg"},{"bike_id":"a1cd1ead-ad01-47fc-89dd-b8abff0ef455","system_id":"levelo_inurba_marseille","lat":43.30638,"lon":5.40084,"is_reserved":false,"is_disabled":true,"rental_uris":{"android":"levelo://app?vid=a1cd1ead-ad01-47fc-89dd-b8abff0ef455","ios":"levelo://app?vid=a1cd1ead-ad01-47fc-89dd-b8abff0ef455"},"vehicle_type_id":"4","last_reported":1741720043,"current_range_meters":0,"station_id":"ce4bh112rcd13ifvqda0","pricing_plan_id":"cebpf4jnsgd1na2vs0mg"},{"bike_id":"ef3eed59-5c06-43bf-8999-516841f58175","system_id":"levelo_inurba_marseille","lat":43.28451,"lon":5.35891,"is_reserved":false,"is_disabled":true,"rental_uris":{"android":"levelo://app?vid=ef3eed59-5c06-43bf-8999-516841f58175","ios":"levelo://app?vid=ef3eed59-5c06-43bf-8999-516841f58175"},"vehicle_type_id":"4","last_reported":1741720043,"current_range_meters":0,"station_id":"ce4bhah2rcd13ifvqei0","pricing_plan_id":"cebpf4jnsgd1na2vs0mg"},{"bike_id":"20146636-60ad-41b7-a48d-3366bc806f40","system_id":"levelo_inurba_marseille","lat":43.28949,"lon":5.36398,"is_reserved":false,"is_disabled":true,"rental_uris":{"android":"levelo://app?vid=20146636-60ad-41b7-a48d-3366bc806f40","ios":"levelo://app?vid=20146636-60ad-41b7-a48d-3366bc806f40"},"vehicle_type_id":"4","last_reported":1741720043,"current_range_meters":0,"station_id":"ce4bhc92rcd13ifvqetg","pricing_plan_id":"cebpf4jnsgd1na2vs0mg"},{"bike_id":"ddee9294-15e3-4883-b3ec-2735d817ee21","system_id":"levelo_inurba_marseille","lat":43.23179,"lon":5.39993,"is_reserved":false,"is_disabled":true,"rental_uris":{"android":"levelo://app?vid=ddee9294-15e3-4883-b3ec-2735d817ee21","ios":"levelo://app?vid=ddee9294-15e3-4883-b3ec-2735d817ee21"},"vehicle_type_id":"4","last_reported":1741720043,"current_range_meters":0,"station_id":"ce4bhn12rcd13ifvqgqg","pricing_plan_id":"cebpf4jnsgd1na2vs0mg"},{"bike_id":"b5836203-839f-4833-98e2-0a68bd8847b4","system_id":"levelo_inurba_marseille","lat":43.28453,"lon":5.39194,"is_reserved":false,"is_disabled":true,"rental_uris":{"android":"levelo://app?vid=b5836203-839f-4833-98e2-0a68bd8847b4","ios":"levelo://app?vid=b5836203-839f-4833-98e2-0a68bd8847b4"},"vehicle_type_id":"4","last_reported":1741720043,"current_range_meters":0,"station_id":"ce4bhoh2rcd13ifvqh5g","pricing_plan_id":"cebpf4jnsgd1na2vs0mg"},{"bike_id":"c913ad42-b176-4a96-bbdf-7cd01b35e625","system_id":"levelo_inurba_marseille","lat":43.29566,"lon":5.42276,"is_reserved":false,"is_disabled":true,"rental_uris":{"android":"levelo://app?vid=c913ad42-b176-4a96-bbdf-7cd01b35e625","ios":"levelo://app?vid=c913ad42-b176-4a96-bbdf-7cd01b35e625"},"vehicle_type_id":"4","last_reported":1741720043,"current_range_meters":0,"station_id":"ce4bhph2rcd13ifvqhdg","pricing_plan_id":"cebpf4jnsgd1na2vs0mg"},{"bike_id":"d0954b10-d484-407a-90f1-d487e8fe2718","system_id":"levelo_inurba_marseille","lat":43.30878,"lon":5.39625,"is_reserved":false,"is_disabled":true,"rental_uris":{"android":"levelo://app?vid=d0954b10-d484-407a-90f1-d487e8fe2718","ios":"levelo://app?vid=d0954b10-d484-407a-90f1-d487e8fe2718"},"vehicle_type_id":"4","last_reported":1741720043,"current_range_meters":400,"station_id":"ce4bh012rcd13ifvqcv0","pricing_plan_id":"cebpf4jnsgd1na2vs0mg"},{"bike_id":"4395e631-0f0a-4b35-a14d-bd633a004152","system_id":"levelo_inurba_marseille","lat":43.30139,"lon":5.39872,"is_reserved":false,"is_disabled":true,"rental_uris":{"android":"levelo://app?vid=4395e631-0f0a-4b35-a14d-bd633a004152","ios":"levelo://app?vid=4395e631-0f0a-4b35-a14d-bd633a004152"},"vehicle_type_id":"4","last_reported":1741720043,"current_range_meters":400,"station_id":"ce4bh0h2rcd13ifvqd40","pricing_plan_id":"cebpf4jnsgd1na2vs0mg"},{"bike_id":"57d4a7da-5866-4c9d-afe9-8155633eba38","system_id":"levelo_inurba_marseille","lat":43.27906,"lon":5.3802,"is_reserved":false,"is_disabled":true,"rental_uris":{"android":"levelo://app?vid=57d4a7da-5866-4c9d-afe9-8155633eba38","ios":"levelo://app?vid=57d4a7da-5866-4c9d-afe9-8155633eba38"},"vehicle_type_id":"4","last_reported":1741720043,"current_range_meters":400,"station_id":"ce4bhf92rcd13ifvqf50","pricing_plan_id":"cebpf4jnsgd1na2vs0mg"},{"bike_id":"1b463fc6-3612-4735-9511-8d32136ad700","system_id":"levelo_inurba_marseille","lat":43.29608,"lon":5.38099,"is_reserved":false,"is_disabled":true,"rental_uris":{"android":"levelo://app?vid=1b463fc6-3612-4735-9511-8d32136ad700","ios":"levelo://app?vid=1b463fc6-3612-4735-9511-8d32136ad700"},"vehicle_type_id":"4","last_reported":1741720043,"current_range_meters":800,"station_id":"ce4bgl12rcd13ifvqbo0","pricing_plan_id":"cebpf4jnsgd1na2vs0mg"},{"bike_id":"4da9f069-3681-4672-bfc3-48cadde78c47","system_id":"levelo_inurba_marseille","lat":43.29422,"lon":5.38636,"is_reserved":false,"is_disabled":true,"rental_uris":{"android":"levelo://app?vid=4da9f069-3681-4672-bfc3-48cadde78c47","ios":"levelo://app?vid=4da9f069-3681-4672-bfc3-48cadde78c47"},"vehicle_type_id":"4","last_reported":1741720043,"current_range_meters":800,"station_id":"ce4bh2h2rcd13ifvqdh0","pricing_plan_id":"cebpf4jnsgd1na2vs0mg"},{"bike_id":"43c19bfb-f82f-4289-906d-a6c76edee45c","system_id":"levelo_inurba_marseille","lat":43.28716,"lon":5.37941,"is_reserved":false,"is_disabled":true,"rental_uris":{"android":"levelo://app?vid=43c19bfb-f82f-4289-906d-a6c76edee45c","ios":"levelo://app?vid=43c19bfb-f82f-4289-906d-a6c76edee45c"},"vehicle_type_id":"4","last_reported":1741720043,"current_range_meters":1600,"station_id":"ce4bh9p2rcd13ifvqec0","pricing_plan_id":"cebpf4jnsgd1na2vs0mg"},{"bike_id":"c562e8a6-c9f1-4582-b6c7-c342c4109322","system_id":"levelo_inurba_marseille","lat":43.29565,"lon":5.37517,"is_reserved":false,"is_disabled":true,"rental_uris":{"android":"levelo://app?vid=c562e8a6-c9f1-4582-b6c7-c342c4109322","ios":"levelo://app?vid=c562e8a6-c9f1-4582-b6c7-c342c4109322"},"vehicle_type_id":"4","last_reported":1741720043,"current_range_meters":2000,"station_id":"ce4bgh92rcd13ifvqb50","pricing_plan_id":"cebpf4jnsgd1na2vs0mg"},{"bike_id":"013f0448-9bb7-40e8-ac6e-32526f08d02c","system_id":"levelo_inurba_marseille","lat":43.29967,"lon":5.38506,"is_reserved":false,"is_disabled":true,"rental_uris":{"android":"levelo://app?vid=013f0448-9bb7-40e8-ac6e-32526f08d02c","ios":"levelo://app?vid=013f0448-9bb7-40e8-ac6e-32526f08d02c"},"vehicle_type_id":"4","last_reported":1741720043,"current_range_meters":2000,"station_id":"ce4bgj92rcd13ifvqbd0","pricing_plan_id":"cebpf4jnsgd1na2vs0mg"},{"bike_id":"8ce3e5a9-46ee-4902-9611-0e42085247ef","system_id":"levelo_inurba_marseille","lat":43.29896,"lon":5.39762,"is_reserved":false,"is_disabled":true,"rental_uris":{"android":"levelo://app?vid=8ce3e5a9-46ee-4902-9611-0e42085247ef","ios":"levelo://app?vid=8ce3e5a9-46ee-4902-9611-0e42085247ef"},"vehicle_type_id":"4","last_reported":1741720043,"current_range_meters":2000,"station_id":"ce4bh0h2rcd13ifvqd50","pricing_plan_id":"cebpf4jnsgd1na2vs0mg"},{"bike_id":"5de3609d-8bad-4cb4-9d18-8744aa0d425e","system_id":"levelo_inurba_marseille","lat":43.32977,"lon":5.39061,"is_reserved":false,"is_disabled":false,"rental_uris":{"android":"levelo://app?vid=5de3609d-8bad-4cb4-9d18-8744aa0d425e","ios":"levelo://app?vid=5de3609d-8bad-4cb4-9d18-8744aa0d425e"},"vehicle_type_id":"4","last_reported":1741720043,"current_range_meters":2800,"station_id":"","pricing_plan_id":"cebpf4jnsgd1na2vs0mg"},{"bike_id":"b104001a-10f7-4c93-b613-2b76cb885027","system_id":"levelo_inurba_marseille","lat":43.31155,"lon":5.37113,"is_reserved":false,"is_disabled":false,"rental_uris":{"android":"levelo://app?vid=b104001a-10f7-4c93-b613-2b76cb885027","ios":"levelo://app?vid=b104001a-10f7-4c93-b613-2b76cb885027"},"vehicle_type_id":"4","last_reported":1741720043,"current_range_meters":2800,"station_id":"","pricing_plan_id":"cebpf4jnsgd1na2vs0mg"},{"bike_id":"cda77f91-f1b2-4c16-9b6a-f97132f76802","system_id":"levelo_inurba_marseille","lat":43.29992,"lon":5.37174,"is_reserved":false,"is_disabled":false,"rental_uris":{"android":"levelo://app?vid=cda77f91-f1b2-4c16-9b6a-f97132f76802","ios":"levelo://app?vid=cda77f91-f1b2-4c16-9b6a-f97132f76802"},"vehicle_type_id":"4","last_reported":1741720043,"current_range_meters":2800,"station_id":"ce4bgr92rcd13ifvqc7g","pricing_plan_id":"cebpf4jnsgd1na2vs0mg"},{"bike_id":"4fd1f489-9fa4-429b-af75-c770cbc5b24a","system_id":"levelo_inurba_marseille","lat":43.31068,"lon":5.38358,"is_reserved":false,"is_disabled":false,"rental_uris":{"android":"levelo://app?vid=4fd1f489-9fa4-429b-af75-c770cbc5b24a","ios":"levelo://app?vid=4fd1f489-9fa4-429b-af75-c770cbc5b24a"},"vehicle_type_id":"4","last_reported":1741720043,"current_range_meters":2800,"station_id":"ce4bgv92rcd13ifvqcr0","pricing_plan_id":"cebpf4jnsgd1na2vs0mg"},{"bike_id":"2fbb2f0e-b64e-445e-a2b3-ee5227dc63e4","system_id":"levelo_inurba_marseille","lat":43.26948,"lon":5.36659,"is_reserved":false,"is_disabled":false,"rental_uris":{"android":"levelo://app?vid=2fbb2f0e-b64e-445e-a2b3-ee5227dc63e4","ios":"levelo://app?vid=2fbb2f0e-b64e-445e-a2b3-ee5227dc63e4"},"vehicle_type_id":"4","last_reported":1741720043,"current_range_meters":3200,"station_id":"","pricing_plan_id":"cebpf4jnsgd1na2vs0mg"},{"bike_id":"90ebc237-02aa-4632-8efe-759857c9becf","system_id":"levelo_inurba_marseille","lat":43.31195,"lon":5.38702,"is_reserved":false,"is_disabled":false,"rental_uris":{"android":"levelo://app?vid=90ebc237-02aa-4632-8efe-759857c9becf","ios":"levelo://app?vid=90ebc237-02aa-4632-8efe-759857c9becf"},"vehicle_type_id":"4","last_reported":1741720043,"current_range_meters":3200,"station_id":"ce4bgv12rcd13ifvqcp0","pricing_plan_id":"cebpf4jnsgd1na2vs0mg"},{"bike_id":"18eb4ee0-dfd1-47c5-af16-5b996cb15973","system_id":"levelo_inurba_marseille","lat":43.24071,"lon":5.37764,"is_reserved":false,"is_disabled":false,"rental_uris":{"android":"levelo://app?vid=18eb4ee0-dfd1-47c5-af16-5b996cb15973","ios":"levelo://app?vid=18eb4ee0-dfd1-47c5-af16-5b996cb15973"},"vehicle_type_id":"4","last_reported":1741720043,"current_range_meters":3200,"station_id":"ce4bhnp2rcd13ifvqgvg","pricing_plan_id":"cebpf4jnsgd1na2vs0mg"},{"bike_id":"7e182fd7-2f42-4ce9-9844-2eaea1ce4737","system_id":"levelo_inurba_marseille","lat":43.30126,"lon":5.38793,"is_reserved":false,"is_disabled":false,"rental_uris":{"android":"levelo://app?vid=7e182fd7-2f42-4ce9-9844-2eaea1ce4737","ios":"levelo://app?vid=7e182fd7-2f42-4ce9-9844-2eaea1ce4737"},"vehicle_type_id":"4","last_reported":1741720043,"current_range_meters":3600,"station_id":"ce4bghh2rcd13ifvqb60","pricing_plan_id":"cebpf4jnsgd1na2vs0mg"},{"bike_id":"7db2bed0-948d-42ad-b603-a86e7c469dcf","system_id":"levelo_inurba_marseille","lat":43.29712,"lon":5.37682,"is_reserved":false,"is_disabled":false,"rental_uris":{"android":"levelo://app?vid=7db2bed0-948d-42ad-b603-a86e7c469dcf","ios":"levelo://app?vid=7db2bed0-948d-42ad-b603-a86e7c469dcf"},"vehicle_type_id":"4","last_reported":1741720043,"current_range_meters":3600,"station_id":"ce4bgkh2rcd13ifvqbl0","pricing_plan_id":"cebpf4jnsgd1na2vs0mg"},{"bike_id":"fd069c59-d6a5-4c11-b85a-fbb070033193","system_id":"levelo_inurba_marseille","lat":43.29879,"lon":5.38906,"is_reserved":false,"is_disabled":false,"rental_uris":{"android":"levelo://app?vid=fd069c59-d6a5-4c11-b85a-fbb070033193","ios":"levelo://app?vid=fd069c59-d6a5-4c11-b85a-fbb070033193"},"vehicle_type_id":"4","last_reported":1741720043,"current_range_meters":3600,"station_id":"ce4bh392rcd13ifvqdl0","pricing_plan_id":"cebpf4jnsgd1na2vs0mg"},{"bike_id":"fb680515-31cd-428b-8d3e-b44c3660920e","system_id":"levelo_inurba_marseille","lat":43.31065,"lon":5.38353,"is_reserved":false,"is_disabled":false,"rental_uris":{"android":"levelo://app?vid=fb680515-31cd-428b-8d3e-b44c3660920e","ios":"levelo://app?vid=fb680515-31cd-428b-8d3e-b44c3660920e"},"vehicle_type_id":"4","last_reported":1741720043,"current_range_meters":4000,"station_id":"ce4bgv92rcd13ifvqcr0","pricing_plan_id":"cebpf4jnsgd1na2vs0mg"},{"bike_id":"348c4296-f477-4946-9769-76ad7b810830","system_id":"levelo_inurba_marseille","lat":43.28726,"lon":5.37933,"is_reserved":false,"is_disabled":false,"rental_uris":{"android":"levelo://app?vid=348c4296-f477-4946-9769-76ad7b810830","ios":"levelo://app?vid=348c4296-f477-4946-9769-76ad7b810830"},"vehicle_type_id":"4","last_reported":1741720043,"current_range_meters":4000,"station_id":"ce4bh9p2rcd13ifvqec0","pricing_plan_id":"cebpf4jnsgd1na2vs0mg"},{"bike_id":"4db736b9-68d3-4f2a-9431-002ce7a44183","system_id":"levelo_inurba_marseille","lat":43.2315,"lon":5.43713,"is_reserved":false,"is_disabled":false,"rental_uris":{"android":"levelo://app?vid=4db736b9-68d3-4f2a-9431-002ce7a44183","ios":"levelo://app?vid=4db736b9-68d3-4f2a-9431-002ce7a44183"},"vehicle_type_id":"4","last_reported":1741720043,"current_range_meters":4000,"station_id":"ce4bhmp2rcd13ifvqgog","pricing_plan_id":"cebpf4jnsgd1na2vs0mg"},{"bike_id":"e0fca961-43ba-4cab-9be9-426992c3ad53","system_id":"levelo_inurba_marseille","lat":43.32351,"lon":5.38891,"is_reserved":false,"is_disabled":false,"rental_uris":{"android":"levelo://app?vid=e0fca961-43ba-4cab-9be9-426992c3ad53","ios":"levelo://app?vid=e0fca961-43ba-4cab-9be9-426992c3ad53"},"vehicle_type_id":"4","last_reported":1741720043,"current_range_meters":4000,"station_id":"ce4bhqp2rcd13ifvqhog","pricing_plan_id":"cebpf4jnsgd1na2vs0mg"},{"bike_id":"49c43485-3d64-49c8-8a0b-99f4944864b8","system_id":"levelo_inurba_marseille","lat":43.29525,"lon":5.39411,"is_reserved":false,"is_disabled":false,"rental_uris":{"android":"levelo://app?vid=49c43485-3d64-49c8-8a0b-99f4944864b8","ios":"levelo://app?vid=49c43485-3d64-49c8-8a0b-99f4944864b8"},"vehicle_type_id":"4","last_reported":1741720043,"current_range_meters":4400,"station_id":"ce4bh292rcd13ifvqdf0","pricing_plan_id":"cebpf4jnsgd1na2vs0mg"},{"bike_id":"40a8a794-7179-40aa-a03a-3de9ad246f27","system_id":"levelo_inurba_marseille","lat":43.29443,"lon":5.397487,"is_reserved":false,"is_disabled":false,"rental_uris":{"android":"levelo://app?vid=40a8a794-7179-40aa-a03a-3de9ad246f27","ios":"levelo://app?vid=40a8a794-7179-40aa-a03a-3de9ad246f27"},"vehicle_type_id":"4","last_reported":1741720043,"current_range_meters":4400,"station_id":"ce4bh3h2rcd13ifvqdo0","pricing_plan_id":"cebpf4jnsgd1na2vs0mg"},{"bike_id":"b19a6eac-de25-4461-a6f4-4f11ed7ab88a","system_id":"levelo_inurba_marseille","lat":43.30603,"lon":5.393697,"is_reserved":false,"is_disabled":false,"rental_uris":{"android":"levelo://app?vid=b19a6eac-de25-4461-a6f4-4f11ed7ab88a","ios":"levelo://app?vid=b19a6eac-de25-4461-a6f4-4f11ed7ab88a"},"vehicle_type_id":"4","last_reported":1741720043,"current_range_meters":4800,"station_id":"ce4bh2h2rcd13ifvqdh0","pricing_plan_id":"cebpf4jnsgd1na2vs0mg"},{"bike_id":"d4e8d81a-de64-4c8f-a009-2986368b5d7a","system_id":"levelo_inurba_marseille","lat":43.28701,"lon":5.37375,"is_reserved":false,"is_disabled":false,"rental_uris":{"android":"levelo://app?vid=d4e8d81a-de64-4c8f-a009-2986368b5d7a","ios":"levelo://app?vid=d4e8d81a-de64-4c8f-a009-2986368b5d7a"},"vehicle_type_id":"4","last_reported":1741720043,"current_range_meters":4800,"station_id":"ce4bh3p2rcd13ifvqdq0","pricing_plan_id":"cebpf4jnsgd1na2vs0mg"},{"bike_id":"a99b6d43-c91e-4a0b-9b4e-069f899bc6b8","system_id":"levelo_inurba_marseille","lat":43.32534,"lon":5.41452,"is_reserved":false,"is_disabled":false,"rental_uris":{"android":"levelo://app?vid=a99b6d43-c91e-4a0b-9b4e-069f899bc6b8","ios":"levelo://app?vid=a99b6d43-c91e-4a0b-9b4e-069f899bc6b8"},"vehicle_type_id":"4","last_reported":1741720043,"current_range_meters":4800,"station_id":"ce4bhq12rcd13ifvqhhg","pricing_plan_id":"cebpf4jnsgd1na2vs0mg"},{"bike_id":"c0042d76-6eb9-4507-8004-d614a3b13b33","system_id":"levelo_inurba_marseille","lat":43.3107,"lon":5.38361,"is_reserved":false,"is_disabled":false,"rental_uris":{"android":"levelo://app?vid=c0042d76-6eb9-4507-8004-d614a3b13b33","ios":"levelo://app?vid=c0042d76-6eb9-4507-8004-d614a3b13b33"},"vehicle_type_id":"4","last_reported":1741720043,"current_range_meters":5600,"station_id":"ce4bgv92rcd13ifvqcr0","pricing_plan_id":"cebpf4jnsgd1na2vs0mg"},{"bike_id":"0569c8e7-14b4-467d-88f2-ed541fef4c83","system_id":"levelo_inurba_marseille","lat":43.29032,"lon":5.38647,"is_reserved":false,"is_disabled":false,"rental_uris":{"android":"levelo://app?vid=0569c8e7-14b4-467d-88f2-ed541fef4c83","ios":"levelo://app?vid=0569c8e7-14b4-467d-88f2-ed541fef4c83"},"vehicle_type_id":"4","last_reported":1741720043,"current_range_meters":5600,"station_id":"ce4bh4p2rcd13ifvqe0g","pricing_plan_id":"cebpf4jnsgd1na2vs0mg"},{"bike_id":"43991684-6091-4e7b-b61b-226ca0c5b6a8","system_id":"levelo_inurba_marseille","lat":43.29905,"lon":5.43664,"is_reserved":false,"is_disabled":false,"rental_uris":{"android":"levelo://app?vid=43991684-6091-4e7b-b61b-226ca0c5b6a8","ios":"levelo://app?vid=43991684-6091-4e7b-b61b-226ca0c5b6a8"},"vehicle_type_id":"4","last_reported":1741720043,"current_range_meters":5600,"station_id":"ce4bhpp2rcd13ifvqhfg","pricing_plan_id":"cebpf4jnsgd1na2vs0mg"},{"bike_id":"1bdd5e31-43c1-40d4-ba72-25f3bc5fbbbf","system_id":"levelo_inurba_marseille","lat":43.29035,"lon":5.38116,"is_reserved":false,"is_disabled":false,"rental_uris":{"android":"levelo://app?vid=1bdd5e31-43c1-40d4-ba72-25f3bc5fbbbf","ios":"levelo://app?vid=1bdd5e31-43c1-40d4-ba72-25f3bc5fbbbf"},"vehicle_type_id":"4","last_reported":1741720043,"current_range_meters":6000,"station_id":"ce4bh4p2rcd13ifvqe1g","pricing_plan_id":"cebpf4jnsgd1na2vs0mg"},{"bike_id":"dc42e161-3661-4fd6-b581-259d0f327bf6","system_id":"levelo_inurba_marseille","lat":43.23184,"lon":5.39988,"is_reserved":false,"is_disabled":false,"rental_uris":{"android":"levelo://app?vid=dc42e161-3661-4fd6-b581-259d0f327bf6","ios":"levelo://app?vid=dc42e161-3661-4fd6-b581-259d0f327bf6"},"vehicle_type_id":"4","last_reported":1741720043,"current_range_meters":6400,"station_id":"ce4bhn12rcd13ifvqgqg","pricing_plan_id":"cebpf4jnsgd1na2vs0mg"},{"bike_id":"42b8606a-5a39-4c18-ab8e-ae2998dcaace","system_id":"levelo_inurba_marseille","lat":43.29899,"lon":5.43669,"is_reserved":false,"is_disabled":false,"rental_uris":{"android":"levelo://app?vid=42b8606a-5a39-4c18-ab8e-ae2998dcaace","ios":"levelo://app?vid=42b8606a-5a39-4c18-ab8e-ae2998dcaace"},"vehicle_type_id":"4","last_reported":1741720043,"current_range_meters":6400,"station_id":"ce4bhpp2rcd13ifvqhfg","pricing_plan_id":"cebpf4jnsgd1na2vs0mg"},{"bike_id":"76b5f6f9-ccce-4c9e-922f-9510e511ff97","system_id":"levelo_inurba_marseille","lat":43.31757,"lon":5.39001,"is_reserved":false,"is_disabled":false,"rental_uris":{"android":"levelo://app?vid=76b5f6f9-ccce-4c9e-922f-9510e511ff97","ios":"levelo://app?vid=76b5f6f9-ccce-4c9e-922f-9510e511ff97"},"vehicle_type_id":"4","last_reported":1741720043,"current_range_meters":6400,"station_id":"ce4bhqp2rcd13ifvqhng","pricing_plan_id":"cebpf4jnsgd1na2vs0mg"},{"bike_id":"cf50e632-8316-417b-8bc0-55e11c63163a","system_id":"levelo_inurba_marseille","lat":43.28897,"lon":5.37868,"is_reserved":false,"is_disabled":false,"rental_uris":{"android":"levelo://app?vid=cf50e632-8316-417b-8bc0-55e11c63163a","ios":"levelo://app?vid=cf50e632-8316-417b-8bc0-55e11c63163a"},"vehicle_type_id":"4","last_reported":1741720043,"current_range_meters":6800,"station_id":"","pricing_plan_id":"cebpf4jnsgd1na2vs0mg"},{"bike_id":"03690356-08e9-4ea7-b9a3-8e88bf471e93","system_id":"levelo_inurba_marseille","lat":43.337444,"lon":5.374475,"is_reserved":false,"is_disabled":false,"rental_uris":{"android":"levelo://app?vid=03690356-08e9-4ea7-b9a3-8e88bf471e93","ios":"levelo://app?vid=03690356-08e9-4ea7-b9a3-8e88bf471e93"},"vehicle_type_id":"4","last_reported":1741720043,"current_range_meters":6800,"station_id":"","pricing_plan_id":"cebpf4jnsgd1na2vs0mg"},{"bike_id":"6b42988a-de91-4a30-b407-bb1347588844","system_id":"levelo_inurba_marseille","lat":43.278081,"lon":5.407184,"is_reserved":false,"is_disabled":false,"rental_uris":{"android":"levelo://app?vid=6b42988a-de91-4a30-b407-bb1347588844","ios":"levelo://app?vid=6b42988a-de91-4a30-b407-bb1347588844"},"vehicle_type_id":"4","last_reported":1741720043,"current_range_meters":6800,"station_id":"ce4bhnh2rcd13ifvqgtg","pricing_plan_id":"cebpf4jnsgd1na2vs0mg"},{"bike_id":"c86d68f5-55ee-4a68-ba82-758fa1373f1d","system_id":"levelo_inurba_marseille","lat":43.31699,"lon":5.43705,"is_reserved":false,"is_disabled":false,"rental_uris":{"android":"levelo://app?vid=c86d68f5-55ee-4a68-ba82-758fa1373f1d","ios":"levelo://app?vid=c86d68f5-55ee-4a68-ba82-758fa1373f1d"},"vehicle_type_id":"4","last_reported":1741720043,"current_range_meters":6800,"station_id":"ce4bhp92rcd13ifvqhcg","pricing_plan_id":"cebpf4jnsgd1na2vs0mg"},{"bike_id":"972ce55a-fb84-4044-9d96-d7830f674a04","system_id":"levelo_inurba_marseille","lat":43.28722,"lon":5.36103,"is_reserved":false,"is_disabled":false,"rental_uris":{"android":"levelo://app?vid=972ce55a-fb84-4044-9d96-d7830f674a04","ios":"levelo://app?vid=972ce55a-fb84-4044-9d96-d7830f674a04"},"vehicle_type_id":"4","last_reported":1741720043,"current_range_meters":6800,"station_id":"cki0cbj6b192h4jlfktg","pricing_plan_id":"cebpf4jnsgd1na2vs0mg"},{"bike_id":"f43bbec1-29f3-4b93-bf64-e23b9f27b56e","system_id":"levelo_inurba_marseille","lat":43.24803,"lon":5.37448,"is_reserved":false,"is_disabled":false,"rental_uris":{"android":"levelo://app?vid=f43bbec1-29f3-4b93-bf64-e23b9f27b56e","ios":"levelo://app?vid=f43bbec1-29f3-4b93-bf64-e23b9f27b56e"},"vehicle_type_id":"4","last_reported":1741720043,"current_range_meters":7200,"station_id":"ce4bhgh2rcd13ifvqfb0","pricing_plan_id":"cebpf4jnsgd1na2vs0mg"},{"bike_id":"530a533a-e2f4-4a77-accb-cf20c71b4586","system_id":"levelo_inurba_marseille","lat":43.23187,"lon":5.39987,"is_reserved":false,"is_disabled":false,"rental_uris":{"android":"levelo://app?vid=530a533a-e2f4-4a77-accb-cf20c71b4586","ios":"levelo://app?vid=530a533a-e2f4-4a77-accb-cf20c71b4586"},"vehicle_type_id":"4","last_reported":1741720043,"current_range_meters":7200,"station_id":"ce4bhn12rcd13ifvqgqg","pricing_plan_id":"cebpf4jnsgd1na2vs0mg"},{"bike_id":"eedda6f3-e03e-496f-9bd0-de31bfd30ce3","system_id":"levelo_inurba_marseille","lat":43.27812,"lon":5.40717,"is_reserved":false,"is_disabled":false,"rental_uris":{"android":"levelo://app?vid=eedda6f3-e03e-496f-9bd0-de31bfd30ce3","ios":"levelo://app?vid=eedda6f3-e03e-496f-9bd0-de31bfd30ce3"},"vehicle_type_id":"4","last_reported":1741720043,"current_range_meters":7200,"station_id":"ce4bhnh2rcd13ifvqgtg","pricing_plan_id":"cebpf4jnsgd1na2vs0mg"},{"bike_id":"cbd6f8ee-d91a-4c06-a50f-8aefa40d8ceb","system_id":"levelo_inurba_marseille","lat":43.29897,"lon":5.43659,"is_reserved":false,"is_disabled":false,"rental_uris":{"android":"levelo://app?vid=cbd6f8ee-d91a-4c06-a50f-8aefa40d8ceb","ios":"levelo://app?vid=cbd6f8ee-d91a-4c06-a50f-8aefa40d8ceb"},"vehicle_type_id":"4","last_reported":1741720043,"current_range_meters":7200,"station_id":"ce4bhpp2rcd13ifvqhfg","pricing_plan_id":"cebpf4jnsgd1na2vs0mg"},{"bike_id":"c022a5f7-0d50-4eb6-b1d5-ae65a032df54","system_id":"levelo_inurba_marseille","lat":43.292816,"lon":5.368839,"is_reserved":false,"is_disabled":false,"rental_uris":{"android":"levelo://app?vid=c022a5f7-0d50-4eb6-b1d5-ae65a032df54","ios":"levelo://app?vid=c022a5f7-0d50-4eb6-b1d5-ae65a032df54"},"vehicle_type_id":"4","last_reported":1741720043,"current_range_meters":7200,"station_id":"ce4bhsp2rcd13ifvqi50","pricing_plan_id":"cebpf4jnsgd1na2vs0mg"},{"bike_id":"0b6a8ca9-e9ca-4293-a06b-55f5dcadb99b","system_id":"levelo_inurba_marseille","lat":43.28131,"lon":5.44621,"is_reserved":false,"is_disabled":false,"rental_uris":{"android":"levelo://app?vid=0b6a8ca9-e9ca-4293-a06b-55f5dcadb99b","ios":"levelo://app?vid=0b6a8ca9-e9ca-4293-a06b-55f5dcadb99b"},"vehicle_type_id":"4","last_reported":1741720043,"current_range_meters":8000,"station_id":"","pricing_plan_id":"cebpf4jnsgd1na2vs0mg"},{"bike_id":"7ff20641-cc3f-4027-be6a-71b585b28ee2","system_id":"levelo_inurba_marseille","lat":43.2538,"lon":5.41839,"is_reserved":false,"is_disabled":false,"rental_uris":{"android":"levelo://app?vid=7ff20641-cc3f-4027-be6a-71b585b28ee2","ios":"levelo://app?vid=7ff20641-cc3f-4027-be6a-71b585b28ee2"},"vehicle_type_id":"4","last_reported":1741720043,"current_range_meters":8000,"station_id":"","pricing_plan_id":"cebpf4jnsgd1na2vs0mg"},{"bike_id":"7baa4e5e-3a2c-4fcf-a1cb-c16f3da79b3b","system_id":"levelo_inurba_marseille","lat":43.28939,"lon":5.36391,"is_reserved":false,"is_disabled":false,"rental_uris":{"android":"levelo://app?vid=7baa4e5e-3a2c-4fcf-a1cb-c16f3da79b3b","ios":"levelo://app?vid=7baa4e5e-3a2c-4fcf-a1cb-c16f3da79b3b"},"vehicle_type_id":"4","last_reported":1741720043,"current_range_meters":8000,"station_id":"ce4bhc92rcd13ifvqetg","pricing_plan_id":"cebpf4jnsgd1na2vs0mg"},{"bike_id":"633d3569-1e9f-4739-857a-9788bce82674","system_id":"levelo_inurba_marseille","lat":43.25719,"lon":5.4111,"is_reserved":false,"is_disabled":false,"rental_uris":{"android":"levelo://app?vid=633d3569-1e9f-4739-857a-9788bce82674","ios":"levelo://app?vid=633d3569-1e9f-4739-857a-9788bce82674"},"vehicle_type_id":"4","last_reported":1741720043,"current_range_meters":8000,"station_id":"ce4bhkp2rcd13ifvqgd0","pricing_plan_id":"cebpf4jnsgd1na2vs0mg"},{"bike_id":"a750f97e-9923-49f6-85ba-96e222be5f41","system_id":"levelo_inurba_marseille","lat":43.278251,"lon":5.407151,"is_reserved":false,"is_disabled":false,"rental_uris":{"android":"levelo://app?vid=a750f97e-9923-49f6-85ba-96e222be5f41","ios":"levelo://app?vid=a750f97e-9923-49f6-85ba-96e222be5f41"},"vehicle_type_id":"4","last_reported":1741720043,"current_range_meters":8000,"station_id":"ce4bhnh2rcd13ifvqgtg","pricing_plan_id":"cebpf4jnsgd1na2vs0mg"},{"bike_id":"2129e361-5aff-4286-bb3b-f380feda8bad","system_id":"levelo_inurba_marseille","lat":43.32337,"lon":5.40624,"is_reserved":false,"is_disabled":false,"rental_uris":{"android":"levelo://app?vid=2129e361-5aff-4286-bb3b-f380feda8bad","ios":"levelo://app?vid=2129e361-5aff-4286-bb3b-f380feda8bad"},"vehicle_type_id":"4","last_reported":1741720043,"current_range_meters":8000,"station_id":"ce4bhq92rcd13ifvqhjg","pricing_plan_id":"cebpf4jnsgd1na2vs0mg"},{"bike_id":"09bbb690-af86-458c-bbad-70d10e2033ee","system_id":"levelo_inurba_marseille","lat":43.23053,"lon":5.35492,"is_reserved":false,"is_disabled":false,"rental_uris":{"android":"levelo://app?vid=09bbb690-af86-458c-bbad-70d10e2033ee","ios":"levelo://app?vid=09bbb690-af86-458c-bbad-70d10e2033ee"},"vehicle_type_id":"4","last_reported":1741720043,"current_range_meters":8000,"station_id":"cpo3342slgdg3j2ifvpg","pricing_plan_id":"cebpf4jnsgd1na2vs0mg"},{"bike_id":"bf2feb02-4272-4476-92f9-9420844c4078","system_id":"levelo_inurba_marseille","lat":43.3117,"lon":5.37588,"is_reserved":false,"is_disabled":false,"rental_uris":{"android":"levelo://app?vid=bf2feb02-4272-4476-92f9-9420844c4078","ios":"levelo://app?vid=bf2feb02-4272-4476-92f9-9420844c4078"},"vehicle_type_id":"4","last_reported":1741720043,"current_range_meters":8400,"station_id":"","pricing_plan_id":"cebpf4jnsgd1na2vs0mg"},{"bike_id":"c2888446-da1c-40b7-b9f6-8ca9536b3a55","system_id":"levelo_inurba_marseille","lat":43.30436,"lon":5.3891,"is_reserved":false,"is_disabled":false,"rental_uris":{"android":"levelo://app?vid=c2888446-da1c-40b7-b9f6-8ca9536b3a55","ios":"levelo://app?vid=c2888446-da1c-40b7-b9f6-8ca9536b3a55"},"vehicle_type_id":"4","last_reported":1741720043,"current_range_meters":8400,"station_id":"ce4bgk12rcd13ifvqbi0","pricing_plan_id":"cebpf4jnsgd1na2vs0mg"},{"bike_id":"76ccce98-afb2-4b3d-8011-197bb3238735","system_id":"levelo_inurba_marseille","lat":43.30898,"lon":5.371833,"is_reserved":false,"is_disabled":false,"rental_uris":{"android":"levelo://app?vid=76ccce98-afb2-4b3d-8011-197bb3238735","ios":"levelo://app?vid=76ccce98-afb2-4b3d-8011-197bb3238735"},"vehicle_type_id":"4","last_reported":1741720043,"current_range_meters":8400,"station_id":"ce4bguh2rcd13ifvqckg","pricing_plan_id":"cebpf4jnsgd1na2vs0mg"},{"bike_id":"212cf961-5130-44e9-b4ac-56d3a2b672bf","system_id":"levelo_inurba_marseille","lat":43.24545,"lon":5.39521,"is_reserved":false,"is_disabled":false,"rental_uris":{"android":"levelo://app?vid=212cf961-5130-44e9-b4ac-56d3a2b672bf","ios":"levelo://app?vid=212cf961-5130-44e9-b4ac-56d3a2b672bf"},"vehicle_type_id":"4","last_reported":1741720043,"current_range_meters":8400,"station_id":"ce4bhlp2rcd13ifvqgjg","pricing_plan_id":"cebpf4jnsgd1na2vs0mg"},{"bike_id":"9919f138-0ca1-45a0-bca5-0755917d4808","system_id":"levelo_inurba_marseille","lat":43.2621,"lon":5.40422,"is_reserved":false,"is_disabled":false,"rental_uris":{"android":"levelo://app?vid=9919f138-0ca1-45a0-bca5-0755917d4808","ios":"levelo://app?vid=9919f138-0ca1-45a0-bca5-0755917d4808"},"vehicle_type_id":"4","last_reported":1741720043,"current_range_meters":8400,"station_id":"ce4bhmh2rcd13ifvqgmg","pricing_plan_id":"cebpf4jnsgd1na2vs0mg"},{"bike_id":"80771939-f406-42f7-81c5-33180fd8a338","system_id":"levelo_inurba_marseille","lat":43.231954,"lon":5.355547,"is_reserved":false,"is_disabled":false,"rental_uris":{"android":"levelo://app?vid=80771939-f406-42f7-81c5-33180fd8a338","ios":"levelo://app?vid=80771939-f406-42f7-81c5-33180fd8a338"},"vehicle_type_id":"4","last_reported":1741720043,"current_range_meters":8400,"station_id":"ce4bhu92rcd13ifvqi70","pricing_plan_id":"cebpf4jnsgd1na2vs0mg"},{"bike_id":"376979bc-c6bb-427e-a521-4d90c0780f55","system_id":"levelo_inurba_marseille","lat":43.30906,"lon":5.36863,"is_reserved":false,"is_disabled":false,"rental_uris":{"android":"levelo://app?vid=376979bc-c6bb-427e-a521-4d90c0780f55","ios":"levelo://app?vid=376979bc-c6bb-427e-a521-4d90c0780f55"},"vehicle_type_id":"4","last_reported":1741720043,"current_range_meters":8800,"station_id":"ce4bgn92rcd13ifvqbvg","pricing_plan_id":"cebpf4jnsgd1na2vs0mg"},{"bike_id":"0d9431e1-f868-427a-acb7-8ddd048ba317","system_id":"levelo_inurba_marseille","lat":43.29863,"lon":5.36268,"is_reserved":false,"is_disabled":false,"rental_uris":{"android":"levelo://app?vid=0d9431e1-f868-427a-acb7-8ddd048ba317","ios":"levelo://app?vid=0d9431e1-f868-427a-acb7-8ddd048ba317"},"vehicle_type_id":"4","last_reported":1741720043,"current_range_meters":8800,"station_id":"ce4bgpp2rcd13ifvqc3g","pricing_plan_id":"cebpf4jnsgd1na2vs0mg"},{"bike_id":"9b75f73b-4e4f-4d50-8655-4ca7749a5646","system_id":"levelo_inurba_marseille","lat":43.27818,"lon":5.40695,"is_reserved":false,"is_disabled":false,"rental_uris":{"android":"levelo://app?vid=9b75f73b-4e4f-4d50-8655-4ca7749a5646","ios":"levelo://app?vid=9b75f73b-4e4f-4d50-8655-4ca7749a5646"},"vehicle_type_id":"4","last_reported":1741720043,"current_range_meters":8800,"station_id":"ce4bhnh2rcd13ifvqgtg","pricing_plan_id":"cebpf4jnsgd1na2vs0mg"},{"bike_id":"4fa0f919-be85-4288-b759-4cdc782dbd3e","system_id":"levelo_inurba_marseille","lat":43.30937,"lon":5.40144,"is_reserved":false,"is_disabled":false,"rental_uris":{"android":"levelo://app?vid=4fa0f919-be85-4288-b759-4cdc782dbd3e","ios":"levelo://app?vid=4fa0f919-be85-4288-b759-4cdc782dbd3e"},"vehicle_type_id":"4","last_reported":1741720043,"current_range_meters":9200,"station_id":"ce4bgvp2rcd13ifvqct0","pricing_plan_id":"cebpf4jnsgd1na2vs0mg"},{"bike_id":"055b7207-0e10-4996-91a9-e30275045502","system_id":"levelo_inurba_marseille","lat":43.29416,"lon":5.39748,"is_reserved":false,"is_disabled":false,"rental_uris":{"android":"levelo://app?vid=055b7207-0e10-4996-91a9-e30275045502","ios":"levelo://app?vid=055b7207-0e10-4996-91a9-e30275045502"},"vehicle_type_id":"4","last_reported":1741720043,"current_range_meters":9200,"station_id":"ce4bh3h2rcd13ifvqdo0","pricing_plan_id":"cebpf4jnsgd1na2vs0mg"},{"bike_id":"a4651500-0781-416a-b6f3-1ff032ec9869","system_id":"levelo_inurba_marseille","lat":43.2872,"lon":5.37392,"is_reserved":false,"is_disabled":false,"rental_uris":{"android":"levelo://app?vid=a4651500-0781-416a-b6f3-1ff032ec9869","ios":"levelo://app?vid=a4651500-0781-416a-b6f3-1ff032ec9869"},"vehicle_type_id":"4","last_reported":1741720043,"current_range_meters":9200,"station_id":"ce4bh3p2rcd13ifvqdq0","pricing_plan_id":"cebpf4jnsgd1na2vs0mg"},{"bike_id":"c835eee2-01bf-4ff1-a164-4c90e0a065d9","system_id":"levelo_inurba_marseille","lat":43.25001,"lon":5.38925,"is_reserved":false,"is_disabled":false,"rental_uris":{"android":"levelo://app?vid=c835eee2-01bf-4ff1-a164-4c90e0a065d9","ios":"levelo://app?vid=c835eee2-01bf-4ff1-a164-4c90e0a065d9"},"vehicle_type_id":"4","last_reported":1741720043,"current_range_meters":9200,"station_id":"ce4bhgp2rcd13ifvqfd0","pricing_plan_id":"cebpf4jnsgd1na2vs0mg"},{"bike_id":"bfe76b26-4cce-4a8d-8e2e-190cbae21f24","system_id":"levelo_inurba_marseille","lat":43.27173,"lon":5.4099,"is_reserved":false,"is_disabled":false,"rental_uris":{"android":"levelo://app?vid=bfe76b26-4cce-4a8d-8e2e-190cbae21f24","ios":"levelo://app?vid=bfe76b26-4cce-4a8d-8e2e-190cbae21f24"},"vehicle_type_id":"4","last_reported":1741720043,"current_range_meters":9200,"station_id":"ce4bhl12rcd13ifvqgf0","pricing_plan_id":"cebpf4jnsgd1na2vs0mg"},{"bike_id":"05388ace-665a-4114-a828-939b708a2589","system_id":"levelo_inurba_marseille","lat":43.2319,"lon":5.39994,"is_reserved":false,"is_disabled":false,"rental_uris":{"android":"levelo://app?vid=05388ace-665a-4114-a828-939b708a2589","ios":"levelo://app?vid=05388ace-665a-4114-a828-939b708a2589"},"vehicle_type_id":"4","last_reported":1741720043,"current_range_meters":9200,"station_id":"ce4bhn12rcd13ifvqgqg","pricing_plan_id":"cebpf4jnsgd1na2vs0mg"},{"bike_id":"f640465e-8c9e-425a-8e36-08d8d5201bf6","system_id":"levelo_inurba_marseille","lat":43.2319,"lon":5.35549,"is_reserved":false,"is_disabled":false,"rental_uris":{"android":"levelo://app?vid=f640465e-8c9e-425a-8e36-08d8d5201bf6","ios":"levelo://app?vid=f640465e-8c9e-425a-8e36-08d8d5201bf6"},"vehicle_type_id":"4","last_reported":1741720043,"current_range_meters":9200,"station_id":"ce4bhu92rcd13ifvqi70","pricing_plan_id":"cebpf4jnsgd1na2vs0mg"},{"bike_id":"58d1b5b3-d322-4418-97d0-3066ec3d9afc","system_id":"levelo_inurba_marseille","lat":43.23189,"lon":5.3554,"is_reserved":false,"is_disabled":false,"rental_uris":{"android":"levelo://app?vid=58d1b5b3-d322-4418-97d0-3066ec3d9afc","ios":"levelo://app?vid=58d1b5b3-d322-4418-97d0-3066ec3d9afc"},"vehicle_type_id":"4","last_reported":1741720043,"current_range_meters":9200,"station_id":"ce4bhu92rcd13ifvqi70","pricing_plan_id":"cebpf4jnsgd1na2vs0mg"},{"bike_id":"5c2e61b7-1991-4d2e-a0fd-817798627942","system_id":"levelo_inurba_marseille","lat":43.29795,"lon":5.39342,"is_reserved":false,"is_disabled":false,"rental_uris":{"android":"levelo://app?vid=5c2e61b7-1991-4d2e-a0fd-817798627942","ios":"levelo://app?vid=5c2e61b7-1991-4d2e-a0fd-817798627942"},"vehicle_type_id":"4","last_reported":1741720043,"current_range_meters":9200,"station_id":"chh1huq6cuj3fo74tm60","pricing_plan_id":"cebpf4jnsgd1na2vs0mg"},{"bike_id":"6c98676d-fe5e-4a6f-a113-7ba6677df2bc","system_id":"levelo_inurba_marseille","lat":43.2998,"lon":5.38493,"is_reserved":false,"is_disabled":false,"rental_uris":{"android":"levelo://app?vid=6c98676d-fe5e-4a6f-a113-7ba6677df2bc","ios":"levelo://app?vid=6c98676d-fe5e-4a6f-a113-7ba6677df2bc"},"vehicle_type_id":"4","last_reported":1741720043,"current_range_meters":9600,"station_id":"ce4bgj92rcd13ifvqbd0","pricing_plan_id":"cebpf4jnsgd1na2vs0mg"},{"bike_id":"c6825682-54ea-4db3-9437-5e9594505c22","system_id":"levelo_inurba_marseille","lat":43.29839,"lon":5.39779,"is_reserved":false,"is_disabled":false,"rental_uris":{"android":"levelo://app?vid=c6825682-54ea-4db3-9437-5e9594505c22","ios":"levelo://app?vid=c6825682-54ea-4db3-9437-5e9594505c22"},"vehicle_type_id":"4","last_reported":1741720043,"current_range_meters":9600,"station_id":"ce4bh0h2rcd13ifvqd50","pricing_plan_id":"cebpf4jnsgd1na2vs0mg"},{"bike_id":"6f4a4004-a4c1-42b4-bc4c-2814d026067d","system_id":"levelo_inurba_marseille","lat":43.28509,"lon":5.38463,"is_reserved":false,"is_disabled":false,"rental_uris":{"android":"levelo://app?vid=6f4a4004-a4c1-42b4-bc4c-2814d026067d","ios":"levelo://app?vid=6f4a4004-a4c1-42b4-bc4c-2814d026067d"},"vehicle_type_id":"4","last_reported":1741720043,"current_range_meters":9600,"station_id":"ce4bh512rcd13ifvqe3g","pricing_plan_id":"cebpf4jnsgd1na2vs0mg"},{"bike_id":"3a495b84-2430-46b2-a05e-963372efed8d","system_id":"levelo_inurba_marseille","lat":43.27066,"lon":5.40264,"is_reserved":false,"is_disabled":false,"rental_uris":{"android":"levelo://app?vid=3a495b84-2430-46b2-a05e-963372efed8d","ios":"levelo://app?vid=3a495b84-2430-46b2-a05e-963372efed8d"},"vehicle_type_id":"4","last_reported":1741720043,"current_range_meters":9600,"station_id":"ce4bhk92rcd13ifvqgc0","pricing_plan_id":"cebpf4jnsgd1na2vs0mg"},{"bike_id":"2b2b213a-823d-4eb7-868e-97146b595f37","system_id":"levelo_inurba_marseille","lat":43.24545,"lon":5.39538,"is_reserved":false,"is_disabled":false,"rental_uris":{"android":"levelo://app?vid=2b2b213a-823d-4eb7-868e-97146b595f37","ios":"levelo://app?vid=2b2b213a-823d-4eb7-868e-97146b595f37"},"vehicle_type_id":"4","last_reported":1741720043,"current_range_meters":9600,"station_id":"ce4bhlp2rcd13ifvqgjg","pricing_plan_id":"cebpf4jnsgd1na2vs0mg"},{"bike_id":"33f5cd0a-1ec6-4a05-9077-d26f28a16b7b","system_id":"levelo_inurba_marseille","lat":43.27835,"lon":5.40715,"is_reserved":false,"is_disabled":false,"rental_uris":{"android":"levelo://app?vid=33f5cd0a-1ec6-4a05-9077-d26f28a16b7b","ios":"levelo://app?vid=33f5cd0a-1ec6-4a05-9077-d26f28a16b7b"},"vehicle_type_id":"4","last_reported":1741720043,"current_range_meters":9600,"station_id":"ce4bhnh2rcd13ifvqgtg","pricing_plan_id":"cebpf4jnsgd1na2vs0mg"},{"bike_id":"9acab34d-76c9-4fd5-bed6-0265a89df8bb","system_id":"levelo_inurba_marseille","lat":43.25768,"lon":5.41099,"is_reserved":false,"is_disabled":false,"rental_uris":{"android":"levelo://app?vid=9acab34d-76c9-4fd5-bed6-0265a89df8bb","ios":"levelo://app?vid=9acab34d-76c9-4fd5-bed6-0265a89df8bb"},"vehicle_type_id":"4","last_reported":1741720043,"current_range_meters":10000,"station_id":"","pricing_plan_id":"cebpf4jnsgd1na2vs0mg"},{"bike_id":"28970cae-917c-4e7f-9009-0998c9001c6f","system_id":"levelo_inurba_marseille","lat":43.28711,"lon":5.37403,"is_reserved":false,"is_disabled":false,"rental_uris":{"android":"levelo://app?vid=28970cae-917c-4e7f-9009-0998c9001c6f","ios":"levelo://app?vid=28970cae-917c-4e7f-9009-0998c9001c6f"},"vehicle_type_id":"4","last_reported":1741720043,"current_range_meters":10000,"station_id":"ce4bh3p2rcd13ifvqdq0","pricing_plan_id":"cebpf4jnsgd1na2vs0mg"},{"bike_id":"b3f874aa-63dc-4e8e-975b-3f9672352b6e","system_id":"levelo_inurba_marseille","lat":43.2849,"lon":5.38414,"is_reserved":false,"is_disabled":false,"rental_uris":{"android":"levelo://app?vid=b3f874aa-63dc-4e8e-975b-3f9672352b6e","ios":"levelo://app?vid=b3f874aa-63dc-4e8e-975b-3f9672352b6e"},"vehicle_type_id":"4","last_reported":1741720043,"current_range_meters":10000,"station_id":"ce4bh512rcd13ifvqe3g","pricing_plan_id":"cebpf4jnsgd1na2vs0mg"},{"bike_id":"cc5bf6b5-a7b1-49e7-be38-b0feae43fbce","system_id":"levelo_inurba_marseille","lat":43.28449,"lon":5.35887,"is_reserved":false,"is_disabled":false,"rental_uris":{"android":"levelo://app?vid=cc5bf6b5-a7b1-49e7-be38-b0feae43fbce","ios":"levelo://app?vid=cc5bf6b5-a7b1-49e7-be38-b0feae43fbce"},"vehicle_type_id":"4","last_reported":1741720043,"current_range_meters":10000,"station_id":"ce4bhah2rcd13ifvqei0","pricing_plan_id":"cebpf4jnsgd1na2vs0mg"},{"bike_id":"ec36d558-42a0-4944-8560-b0346afb7c9c","system_id":"levelo_inurba_marseille","lat":43.29248,"lon":5.36859,"is_reserved":false,"is_disabled":false,"rental_uris":{"android":"levelo://app?vid=ec36d558-42a0-4944-8560-b0346afb7c9c","ios":"levelo://app?vid=ec36d558-42a0-4944-8560-b0346afb7c9c"},"vehicle_type_id":"4","last_reported":1741720043,"current_range_meters":10000,"station_id":"ce4bhbp2rcd13ifvqesg","pricing_plan_id":"cebpf4jnsgd1na2vs0mg"},{"bike_id":"8f36d88f-9188-4659-bc5d-ae5c7216d1ae","system_id":"levelo_inurba_marseille","lat":43.23183,"lon":5.39991,"is_reserved":false,"is_disabled":false,"rental_uris":{"android":"levelo://app?vid=8f36d88f-9188-4659-bc5d-ae5c7216d1ae","ios":"levelo://app?vid=8f36d88f-9188-4659-bc5d-ae5c7216d1ae"},"vehicle_type_id":"4","last_reported":1741720043,"current_range_meters":10000,"station_id":"ce4bhn12rcd13ifvqgqg","pricing_plan_id":"cebpf4jnsgd1na2vs0mg"},{"bike_id":"415e7a31-245d-4ead-9f33-dad092a04302","system_id":"levelo_inurba_marseille","lat":43.23059,"lon":5.3549,"is_reserved":false,"is_disabled":false,"rental_uris":{"android":"levelo://app?vid=415e7a31-245d-4ead-9f33-dad092a04302","ios":"levelo://app?vid=415e7a31-245d-4ead-9f33-dad092a04302"},"vehicle_type_id":"4","last_reported":1741720043,"current_range_meters":10000,"station_id":"cpo3342slgdg3j2ifvpg","pricing_plan_id":"cebpf4jnsgd1na2vs0mg"},{"bike_id":"fb629ba8-b376-4f9a-a280-fa2aa29efcd1","system_id":"levelo_inurba_marseille","lat":43.29867,"lon":5.36284,"is_reserved":false,"is_disabled":false,"rental_uris":{"android":"levelo://app?vid=fb629ba8-b376-4f9a-a280-fa2aa29efcd1","ios":"levelo://app?vid=fb629ba8-b376-4f9a-a280-fa2aa29efcd1"},"vehicle_type_id":"4","last_reported":1741720043,"current_range_meters":10800,"station_id":"ce4bgpp2rcd13ifvqc3g","pricing_plan_id":"cebpf4jnsgd1na2vs0mg"},{"bike_id":"60ee13cf-44a1-4e0e-9eb6-02f69d58169e","system_id":"levelo_inurba_marseille","lat":43.31379,"lon":5.38502,"is_reserved":false,"is_disabled":false,"rental_uris":{"android":"levelo://app?vid=60ee13cf-44a1-4e0e-9eb6-02f69d58169e","ios":"levelo://app?vid=60ee13cf-44a1-4e0e-9eb6-02f69d58169e"},"vehicle_type_id":"4","last_reported":1741720043,"current_range_meters":10800,"station_id":"ce4bgt92rcd13ifvqcf0","pricing_plan_id":"cebpf4jnsgd1na2vs0mg"},{"bike_id":"99fa219c-3172-446a-acd5-9dcd98933d08","system_id":"levelo_inurba_marseille","lat":43.28457,"lon":5.38395,"is_reserved":false,"is_disabled":false,"rental_uris":{"android":"levelo://app?vid=99fa219c-3172-446a-acd5-9dcd98933d08","ios":"levelo://app?vid=99fa219c-3172-446a-acd5-9dcd98933d08"},"vehicle_type_id":"4","last_reported":1741720043,"current_range_meters":10800,"station_id":"ce4bh512rcd13ifvqe3g","pricing_plan_id":"cebpf4jnsgd1na2vs0mg"},{"bike_id":"1e383331-4cf9-4f27-840c-e013f13c25d8","system_id":"levelo_inurba_marseille","lat":43.23185,"lon":5.39986,"is_reserved":false,"is_disabled":false,"rental_uris":{"android":"levelo://app?vid=1e383331-4cf9-4f27-840c-e013f13c25d8","ios":"levelo://app?vid=1e383331-4cf9-4f27-840c-e013f13c25d8"},"vehicle_type_id":"4","last_reported":1741720043,"current_range_meters":10800,"station_id":"ce4bhn12rcd13ifvqgqg","pricing_plan_id":"cebpf4jnsgd1na2vs0mg"},{"bike_id":"191eb5a3-d10f-4928-a383-911714d2c850","system_id":"levelo_inurba_marseille","lat":43.28697,"lon":5.37402,"is_reserved":false,"is_disabled":false,"rental_uris":{"android":"levelo://app?vid=191eb5a3-d10f-4928-a383-911714d2c850","ios":"levelo://app?vid=191eb5a3-d10f-4928-a383-911714d2c850"},"vehicle_type_id":"4","last_reported":1741720043,"current_range_meters":11200,"station_id":"ce4bh3p2rcd13ifvqdq0","pricing_plan_id":"cebpf4jnsgd1na2vs0mg"},{"bike_id":"8ffdceb6-e598-45b3-8754-b8f7e3d7a3dd","system_id":"levelo_inurba_marseille","lat":43.29034,"lon":5.38633,"is_reserved":false,"is_disabled":false,"rental_uris":{"android":"levelo://app?vid=8ffdceb6-e598-45b3-8754-b8f7e3d7a3dd","ios":"levelo://app?vid=8ffdceb6-e598-45b3-8754-b8f7e3d7a3dd"},"vehicle_type_id":"4","last_reported":1741720043,"current_range_meters":11200,"station_id":"ce4bh4p2rcd13ifvqe0g","pricing_plan_id":"cebpf4jnsgd1na2vs0mg"},{"bike_id":"d05f76f0-b258-46f3-9be5-ba2518660a0c","system_id":"levelo_inurba_marseille","lat":43.28484,"lon":5.38449,"is_reserved":false,"is_disabled":false,"rental_uris":{"android":"levelo://app?vid=d05f76f0-b258-46f3-9be5-ba2518660a0c","ios":"levelo://app?vid=d05f76f0-b258-46f3-9be5-ba2518660a0c"},"vehicle_type_id":"4","last_reported":1741720043,"current_range_meters":11200,"station_id":"ce4bh512rcd13ifvqe3g","pricing_plan_id":"cebpf4jnsgd1na2vs0mg"},{"bike_id":"20c1e358-1c7f-4912-9588-5a74dcb84090","system_id":"levelo_inurba_marseille","lat":43.25003,"lon":5.38924,"is_reserved":false,"is_disabled":false,"rental_uris":{"android":"levelo://app?vid=20c1e358-1c7f-4912-9588-5a74dcb84090","ios":"levelo://app?vid=20c1e358-1c7f-4912-9588-5a74dcb84090"},"vehicle_type_id":"4","last_reported":1741720043,"current_range_meters":11200,"station_id":"ce4bhgp2rcd13ifvqfd0","pricing_plan_id":"cebpf4jnsgd1na2vs0mg"},{"bike_id":"a1f1b0af-0aa0-4147-a601-d9fc08c6320c","system_id":"levelo_inurba_marseille","lat":43.26944,"lon":5.42122,"is_reserved":false,"is_disabled":false,"rental_uris":{"android":"levelo://app?vid=a1f1b0af-0aa0-4147-a601-d9fc08c6320c","ios":"levelo://app?vid=a1f1b0af-0aa0-4147-a601-d9fc08c6320c"},"vehicle_type_id":"4","last_reported":1741720043,"current_range_meters":11200,"station_id":"ce4bhk92rcd13ifvqgb0","pricing_plan_id":"cebpf4jnsgd1na2vs0mg"},{"bike_id":"28c4d59e-e5ea-4620-a059-b9d5882a5e9f","system_id":"levelo_inurba_marseille","lat":43.24167,"lon":5.36388,"is_reserved":false,"is_disabled":false,"rental_uris":{"android":"levelo://app?vid=28c4d59e-e5ea-4620-a059-b9d5882a5e9f","ios":"levelo://app?vid=28c4d59e-e5ea-4620-a059-b9d5882a5e9f"},"vehicle_type_id":"4","last_reported":1741720043,"current_range_meters":11200,"station_id":"cpo36qri1sfpv3e86is0","pricing_plan_id":"cebpf4jnsgd1na2vs0mg"},{"bike_id":"2c2a9d41-fd0b-494e-884f-99ff438d2f49","system_id":"levelo_inurba_marseille","lat":43.30113,"lon":5.39101,"is_reserved":false,"is_disabled":false,"rental_uris":{"android":"levelo://app?vid=2c2a9d41-fd0b-494e-884f-99ff438d2f49","ios":"levelo://app?vid=2c2a9d41-fd0b-494e-884f-99ff438d2f49"},"vehicle_type_id":"4","last_reported":1741720043,"current_range_meters":11600,"station_id":"ce4bh192rcd13ifvqdb0","pricing_plan_id":"cebpf4jnsgd1na2vs0mg"},{"bike_id":"1aa80322-1125-407a-9dac-46403f2bc99c","system_id":"levelo_inurba_marseille","lat":43.28457,"lon":5.38471,"is_reserved":false,"is_disabled":false,"rental_uris":{"android":"levelo://app?vid=1aa80322-1125-407a-9dac-46403f2bc99c","ios":"levelo://app?vid=1aa80322-1125-407a-9dac-46403f2bc99c"},"vehicle_type_id":"4","last_reported":1741720043,"current_range_meters":11600,"station_id":"ce4bh512rcd13ifvqe3g","pricing_plan_id":"cebpf4jnsgd1na2vs0mg"},{"bike_id":"29a2eadf-a51e-4030-aaa6-2edfad4c2148","system_id":"levelo_inurba_marseille","lat":43.28437,"lon":5.35904,"is_reserved":false,"is_disabled":false,"rental_uris":{"android":"levelo://app?vid=29a2eadf-a51e-4030-aaa6-2edfad4c2148","ios":"levelo://app?vid=29a2eadf-a51e-4030-aaa6-2edfad4c2148"},"vehicle_type_id":"4","last_reported":1741720043,"current_range_meters":11600,"station_id":"ce4bhah2rcd13ifvqei0","pricing_plan_id":"cebpf4jnsgd1na2vs0mg"},{"bike_id":"4cce856f-8450-4187-bdbb-5105bd596b02","system_id":"levelo_inurba_marseille","lat":43.28618,"lon":5.35101,"is_reserved":false,"is_disabled":false,"rental_uris":{"android":"levelo://app?vid=4cce856f-8450-4187-bdbb-5105bd596b02","ios":"levelo://app?vid=4cce856f-8450-4187-bdbb-5105bd596b02"},"vehicle_type_id":"4","last_reported":1741720043,"current_range_meters":11600,"station_id":"ce4bhch2rcd13ifvqeug","pricing_plan_id":"cebpf4jnsgd1na2vs0mg"},{"bike_id":"47fa1a31-5bb3-4522-abd9-b87b4a821178","system_id":"levelo_inurba_marseille","lat":43.2783,"lon":5.40707,"is_reserved":false,"is_disabled":false,"rental_uris":{"android":"levelo://app?vid=47fa1a31-5bb3-4522-abd9-b87b4a821178","ios":"levelo://app?vid=47fa1a31-5bb3-4522-abd9-b87b4a821178"},"vehicle_type_id":"4","last_reported":1741720043,"current_range_meters":11600,"station_id":"ce4bhnh2rcd13ifvqgtg","pricing_plan_id":"cebpf4jnsgd1na2vs0mg"},{"bike_id":"bcb3873e-377f-41ac-a954-a3dbb326e52e","system_id":"levelo_inurba_marseille","lat":43.27819,"lon":5.40723,"is_reserved":false,"is_disabled":false,"rental_uris":{"android":"levelo://app?vid=bcb3873e-377f-41ac-a954-a3dbb326e52e","ios":"levelo://app?vid=bcb3873e-377f-41ac-a954-a3dbb326e52e"},"vehicle_type_id":"4","last_reported":1741720043,"current_range_meters":11600,"station_id":"ce4bhnh2rcd13ifvqgtg","pricing_plan_id":"cebpf4jnsgd1na2vs0mg"},{"bike_id":"2931d81f-abb3-45b8-9224-dc3fce2fae31","system_id":"levelo_inurba_marseille","lat":43.32372,"lon":5.36692,"is_reserved":false,"is_disabled":false,"rental_uris":{"android":"levelo://app?vid=2931d81f-abb3-45b8-9224-dc3fce2fae31","ios":"levelo://app?vid=2931d81f-abb3-45b8-9224-dc3fce2fae31"},"vehicle_type_id":"4","last_reported":1741720043,"current_range_meters":11600,"station_id":"ce4bhsh2rcd13ifvqi2g","pricing_plan_id":"cebpf4jnsgd1na2vs0mg"},{"bike_id":"2e96da2a-d99b-455d-8c24-f9de2a9c80f1","system_id":"levelo_inurba_marseille","lat":43.29969,"lon":5.38497,"is_reserved":false,"is_disabled":false,"rental_uris":{"android":"levelo://app?vid=2e96da2a-d99b-455d-8c24-f9de2a9c80f1","ios":"levelo://app?vid=2e96da2a-d99b-455d-8c24-f9de2a9c80f1"},"vehicle_type_id":"4","last_reported":1741720043,"current_range_meters":12000,"station_id":"ce4bgj92rcd13ifvqbd0","pricing_plan_id":"cebpf4jnsgd1na2vs0mg"},{"bike_id":"ff9bb893-c65e-4520-b0fc-7663b20e53c9","system_id":"levelo_inurba_marseille","lat":43.31331,"lon":5.39689,"is_reserved":false,"is_disabled":false,"rental_uris":{"android":"levelo://app?vid=ff9bb893-c65e-4520-b0fc-7663b20e53c9","ios":"levelo://app?vid=ff9bb893-c65e-4520-b0fc-7663b20e53c9"},"vehicle_type_id":"4","last_reported":1741720043,"current_range_meters":12000,"station_id":"ce4bgvp2rcd13ifvqcu0","pricing_plan_id":"cebpf4jnsgd1na2vs0mg"},{"bike_id":"55fb65f1-d848-44a3-9e02-c5e857bdb040","system_id":"levelo_inurba_marseille","lat":43.28452,"lon":5.35887,"is_reserved":false,"is_disabled":false,"rental_uris":{"android":"levelo://app?vid=55fb65f1-d848-44a3-9e02-c5e857bdb040","ios":"levelo://app?vid=55fb65f1-d848-44a3-9e02-c5e857bdb040"},"vehicle_type_id":"4","last_reported":1741720043,"current_range_meters":12000,"station_id":"ce4bhah2rcd13ifvqei0","pricing_plan_id":"cebpf4jnsgd1na2vs0mg"},{"bike_id":"0117055b-abaa-4782-a83e-c23d24cb8a2e","system_id":"levelo_inurba_marseille","lat":43.24654,"lon":5.38896,"is_reserved":false,"is_disabled":false,"rental_uris":{"android":"levelo://app?vid=0117055b-abaa-4782-a83e-c23d24cb8a2e","ios":"levelo://app?vid=0117055b-abaa-4782-a83e-c23d24cb8a2e"},"vehicle_type_id":"4","last_reported":1741720043,"current_range_meters":12000,"station_id":"ce4bhg12rcd13ifvqf60","pricing_plan_id":"cebpf4jnsgd1na2vs0mg"},{"bike_id":"9776d519-3376-4f51-aaa3-2da63911d7cc","system_id":"levelo_inurba_marseille","lat":43.25094,"lon":5.39513,"is_reserved":false,"is_disabled":false,"rental_uris":{"android":"levelo://app?vid=9776d519-3376-4f51-aaa3-2da63911d7cc","ios":"levelo://app?vid=9776d519-3376-4f51-aaa3-2da63911d7cc"},"vehicle_type_id":"4","last_reported":1741720043,"current_range_meters":12000,"station_id":"ce4bhm12rcd13ifvqgkg","pricing_plan_id":"cebpf4jnsgd1na2vs0mg"},{"bike_id":"09cd5180-6a15-493a-ae78-3e16027f3436","system_id":"levelo_inurba_marseille","lat":43.24181,"lon":5.39732,"is_reserved":false,"is_disabled":false,"rental_uris":{"android":"levelo://app?vid=09cd5180-6a15-493a-ae78-3e16027f3436","ios":"levelo://app?vid=09cd5180-6a15-493a-ae78-3e16027f3436"},"vehicle_type_id":"4","last_reported":1741720043,"current_range_meters":12000,"station_id":"ce4bhn12rcd13ifvqgpg","pricing_plan_id":"cebpf4jnsgd1na2vs0mg"},{"bike_id":"7072f22a-54c8-4b35-a348-8a132d347031","system_id":"levelo_inurba_marseille","lat":43.32975,"lon":5.389133,"is_reserved":false,"is_disabled":false,"rental_uris":{"android":"levelo://app?vid=7072f22a-54c8-4b35-a348-8a132d347031","ios":"levelo://app?vid=7072f22a-54c8-4b35-a348-8a132d347031"},"vehicle_type_id":"4","last_reported":1741720043,"current_range_meters":12000,"station_id":"ce4bhr92rcd13ifvqhrg","pricing_plan_id":"cebpf4jnsgd1na2vs0mg"},{"bike_id":"a5490b0d-6778-4c0c-960c-3aa0b15c8435","system_id":"levelo_inurba_marseille","lat":43.31088,"lon":5.37845,"is_reserved":false,"is_disabled":false,"rental_uris":{"android":"levelo://app?vid=a5490b0d-6778-4c0c-960c-3aa0b15c8435","ios":"levelo://app?vid=a5490b0d-6778-4c0c-960c-3aa0b15c8435"},"vehicle_type_id":"4","last_reported":1741720043,"current_range_meters":12400,"station_id":"","pricing_plan_id":"cebpf4jnsgd1na2vs0mg"},{"bike_id":"9294a26b-c088-4208-917f-c73e3c4f5f46","system_id":"levelo_inurba_marseille","lat":43.30387,"lon":5.4076,"is_reserved":false,"is_disabled":false,"rental_uris":{"android":"levelo://app?vid=9294a26b-c088-4208-917f-c73e3c4f5f46","ios":"levelo://app?vid=9294a26b-c088-4208-917f-c73e3c4f5f46"},"vehicle_type_id":"4","last_reported":1741720043,"current_range_meters":12400,"station_id":"","pricing_plan_id":"cebpf4jnsgd1na2vs0mg"},{"bike_id":"f28e1f6d-afb9-4246-ab30-0dcef5670a6c","system_id":"levelo_inurba_marseille","lat":43.29678,"lon":5.36587,"is_reserved":false,"is_disabled":false,"rental_uris":{"android":"levelo://app?vid=f28e1f6d-afb9-4246-ab30-0dcef5670a6c","ios":"levelo://app?vid=f28e1f6d-afb9-4246-ab30-0dcef5670a6c"},"vehicle_type_id":"4","last_reported":1741720043,"current_range_meters":12400,"station_id":"ce4bgn12rcd13ifvqbt0","pricing_plan_id":"cebpf4jnsgd1na2vs0mg"},{"bike_id":"a3e991cd-2936-493d-9fcb-48f77e04aeb1","system_id":"levelo_inurba_marseille","lat":43.30529,"lon":5.36561,"is_reserved":false,"is_disabled":false,"rental_uris":{"android":"levelo://app?vid=a3e991cd-2936-493d-9fcb-48f77e04aeb1","ios":"levelo://app?vid=a3e991cd-2936-493d-9fcb-48f77e04aeb1"},"vehicle_type_id":"4","last_reported":1741720043,"current_range_meters":12400,"station_id":"ce4bgs12rcd13ifvqcag","pricing_plan_id":"cebpf4jnsgd1na2vs0mg"},{"bike_id":"479db636-0cda-4abc-ad8c-4ce5d696aad1","system_id":"levelo_inurba_marseille","lat":43.29229,"lon":5.36075,"is_reserved":false,"is_disabled":false,"rental_uris":{"android":"levelo://app?vid=479db636-0cda-4abc-ad8c-4ce5d696aad1","ios":"levelo://app?vid=479db636-0cda-4abc-ad8c-4ce5d696aad1"},"vehicle_type_id":"4","last_reported":1741720043,"current_range_meters":12400,"station_id":"ce4bhbh2rcd13ifvqeqg","pricing_plan_id":"cebpf4jnsgd1na2vs0mg"},{"bike_id":"d8b6d194-2dc5-43d4-8ef3-718b0762e08a","system_id":"levelo_inurba_marseille","lat":43.29263,"lon":5.36851,"is_reserved":false,"is_disabled":false,"rental_uris":{"android":"levelo://app?vid=d8b6d194-2dc5-43d4-8ef3-718b0762e08a","ios":"levelo://app?vid=d8b6d194-2dc5-43d4-8ef3-718b0762e08a"},"vehicle_type_id":"4","last_reported":1741720043,"current_range_meters":12400,"station_id":"ce4bhbp2rcd13ifvqesg","pricing_plan_id":"cebpf4jnsgd1na2vs0mg"},{"bike_id":"511a478b-16c6-4549-a89d-177a4b1ec633","system_id":"levelo_inurba_marseille","lat":43.2658,"lon":5.37257,"is_reserved":false,"is_disabled":false,"rental_uris":{"android":"levelo://app?vid=511a478b-16c6-4549-a89d-177a4b1ec633","ios":"levelo://app?vid=511a478b-16c6-4549-a89d-177a4b1ec633"},"vehicle_type_id":"4","last_reported":1741720043,"current_range_meters":12400,"station_id":"ce4bhg12rcd13ifvqf70","pricing_plan_id":"cebpf4jnsgd1na2vs0mg"},{"bike_id":"1db51981-97cb-4524-901f-28266a6ea665","system_id":"levelo_inurba_marseille","lat":43.25091,"lon":5.3953,"is_reserved":false,"is_disabled":false,"rental_uris":{"android":"levelo://app?vid=1db51981-97cb-4524-901f-28266a6ea665","ios":"levelo://app?vid=1db51981-97cb-4524-901f-28266a6ea665"},"vehicle_type_id":"4","last_reported":1741720043,"current_range_meters":12400,"station_id":"ce4bhm12rcd13ifvqgkg","pricing_plan_id":"cebpf4jnsgd1na2vs0mg"},{"bike_id":"c1fdf776-5ff6-4f38-96ad-d3bee4a7cebb","system_id":"levelo_inurba_marseille","lat":43.23157,"lon":5.43694,"is_reserved":false,"is_disabled":false,"rental_uris":{"android":"levelo://app?vid=c1fdf776-5ff6-4f38-96ad-d3bee4a7cebb","ios":"levelo://app?vid=c1fdf776-5ff6-4f38-96ad-d3bee4a7cebb"},"vehicle_type_id":"4","last_reported":1741720043,"current_range_meters":12400,"station_id":"ce4bhmp2rcd13ifvqgog","pricing_plan_id":"cebpf4jnsgd1na2vs0mg"},{"bike_id":"3cc29f51-4a1b-478c-bf67-ac55bad2b995","system_id":"levelo_inurba_marseille","lat":43.29784,"lon":5.3933,"is_reserved":false,"is_disabled":false,"rental_uris":{"android":"levelo://app?vid=3cc29f51-4a1b-478c-bf67-ac55bad2b995","ios":"levelo://app?vid=3cc29f51-4a1b-478c-bf67-ac55bad2b995"},"vehicle_type_id":"4","last_reported":1741720043,"current_range_meters":12400,"station_id":"chh1huq6cuj3fo74tm60","pricing_plan_id":"cebpf4jnsgd1na2vs0mg"},{"bike_id":"8dee66dd-a753-4e90-9df0-a75f60b0d66f","system_id":"levelo_inurba_marseille","lat":43.28575,"lon":5.42481,"is_reserved":false,"is_disabled":false,"rental_uris":{"android":"levelo://app?vid=8dee66dd-a753-4e90-9df0-a75f60b0d66f","ios":"levelo://app?vid=8dee66dd-a753-4e90-9df0-a75f60b0d66f"},"vehicle_type_id":"4","last_reported":1741720043,"current_range_meters":13600,"station_id":"","pricing_plan_id":"cebpf4jnsgd1na2vs0mg"},{"bike_id":"11d35687-146e-4b25-911d-ef3d413831d5","system_id":"levelo_inurba_marseille","lat":43.30137,"lon":5.38787,"is_reserved":false,"is_disabled":false,"rental_uris":{"android":"levelo://app?vid=11d35687-146e-4b25-911d-ef3d413831d5","ios":"levelo://app?vid=11d35687-146e-4b25-911d-ef3d413831d5"},"vehicle_type_id":"4","last_reported":1741720043,"current_range_meters":13600,"station_id":"ce4bghh2rcd13ifvqb60","pricing_plan_id":"cebpf4jnsgd1na2vs0mg"},{"bike_id":"ef6559d5-52d8-401d-b312-79d3253d28bf","system_id":"levelo_inurba_marseille","lat":43.25575,"lon":5.38239,"is_reserved":false,"is_disabled":false,"rental_uris":{"android":"levelo://app?vid=ef6559d5-52d8-401d-b312-79d3253d28bf","ios":"levelo://app?vid=ef6559d5-52d8-401d-b312-79d3253d28bf"},"vehicle_type_id":"4","last_reported":1741720043,"current_range_meters":13600,"station_id":"ce4bhih2rcd13ifvqfs0","pricing_plan_id":"cebpf4jnsgd1na2vs0mg"},{"bike_id":"d34c486a-1f4c-4633-aedb-8d2096ade05a","system_id":"levelo_inurba_marseille","lat":43.30813,"lon":5.43524,"is_reserved":false,"is_disabled":false,"rental_uris":{"android":"levelo://app?vid=d34c486a-1f4c-4633-aedb-8d2096ade05a","ios":"levelo://app?vid=d34c486a-1f4c-4633-aedb-8d2096ade05a"},"vehicle_type_id":"4","last_reported":1741720043,"current_range_meters":13600,"station_id":"ce4bhph2rcd13ifvqheg","pricing_plan_id":"cebpf4jnsgd1na2vs0mg"},{"bike_id":"f829a819-671e-4b71-9c22-56c5f8047725","system_id":"levelo_inurba_marseille","lat":43.32363,"lon":5.36725,"is_reserved":false,"is_disabled":false,"rental_uris":{"android":"levelo://app?vid=f829a819-671e-4b71-9c22-56c5f8047725","ios":"levelo://app?vid=f829a819-671e-4b71-9c22-56c5f8047725"},"vehicle_type_id":"4","last_reported":1741720043,"current_range_meters":13600,"station_id":"ce4bhsh2rcd13ifvqi2g","pricing_plan_id":"cebpf4jnsgd1na2vs0mg"},{"bike_id":"92586ac2-129e-40b8-b7e3-9fee85101f76","system_id":"levelo_inurba_marseille","lat":43.30141,"lon":5.39856,"is_reserved":false,"is_disabled":false,"rental_uris":{"android":"levelo://app?vid=92586ac2-129e-40b8-b7e3-9fee85101f76","ios":"levelo://app?vid=92586ac2-129e-40b8-b7e3-9fee85101f76"},"vehicle_type_id":"4","last_reported":1741720043,"current_range_meters":14000,"station_id":"ce4bh0h2rcd13ifvqd40","pricing_plan_id":"cebpf4jnsgd1na2vs0mg"},{"bike_id":"d4031ff3-7df8-4153-b5c5-c6dcddcb0625","system_id":"levelo_inurba_marseille","lat":43.24557,"lon":5.39536,"is_reserved":false,"is_disabled":false,"rental_uris":{"android":"levelo://app?vid=d4031ff3-7df8-4153-b5c5-c6dcddcb0625","ios":"levelo://app?vid=d4031ff3-7df8-4153-b5c5-c6dcddcb0625"},"vehicle_type_id":"4","last_reported":1741720043,"current_range_meters":14000,"station_id":"ce4bhlp2rcd13ifvqgjg","pricing_plan_id":"cebpf4jnsgd1na2vs0mg"},{"bike_id":"03fcef79-f017-4d15-a10d-891c5cd96db2","system_id":"levelo_inurba_marseille","lat":43.23055,"lon":5.35483,"is_reserved":false,"is_disabled":false,"rental_uris":{"android":"levelo://app?vid=03fcef79-f017-4d15-a10d-891c5cd96db2","ios":"levelo://app?vid=03fcef79-f017-4d15-a10d-891c5cd96db2"},"vehicle_type_id":"4","last_reported":1741720043,"current_range_meters":14000,"station_id":"cpo3342slgdg3j2ifvpg","pricing_plan_id":"cebpf4jnsgd1na2vs0mg"},{"bike_id":"28ddcdf4-024a-4f42-80ff-fb3bac3f5f61","system_id":"levelo_inurba_marseille","lat":43.24163,"lon":5.36405,"is_reserved":false,"is_disabled":false,"rental_uris":{"android":"levelo://app?vid=28ddcdf4-024a-4f42-80ff-fb3bac3f5f61","ios":"levelo://app?vid=28ddcdf4-024a-4f42-80ff-fb3bac3f5f61"},"vehicle_type_id":"4","last_reported":1741720043,"current_range_meters":14000,"station_id":"cpo36qri1sfpv3e86is0","pricing_plan_id":"cebpf4jnsgd1na2vs0mg"},{"bike_id":"92574190-5672-42af-956f-546c757a93c5","system_id":"levelo_inurba_marseille","lat":43.29195,"lon":5.39336,"is_reserved":false,"is_disabled":false,"rental_uris":{"android":"levelo://app?vid=92574190-5672-42af-956f-546c757a93c5","ios":"levelo://app?vid=92574190-5672-42af-956f-546c757a93c5"},"vehicle_type_id":"4","last_reported":1741720043,"current_range_meters":14400,"station_id":"ce4bh192rcd13ifvqdd0","pricing_plan_id":"cebpf4jnsgd1na2vs0mg"},{"bike_id":"f482ad8b-e584-4437-8577-f32e9b5b054a","system_id":"levelo_inurba_marseille","lat":43.2943,"lon":5.39748,"is_reserved":false,"is_disabled":false,"rental_uris":{"android":"levelo://app?vid=f482ad8b-e584-4437-8577-f32e9b5b054a","ios":"levelo://app?vid=f482ad8b-e584-4437-8577-f32e9b5b054a"},"vehicle_type_id":"4","last_reported":1741720043,"current_range_meters":14400,"station_id":"ce4bh3h2rcd13ifvqdo0","pricing_plan_id":"cebpf4jnsgd1na2vs0mg"},{"bike_id":"5317488a-5edb-4d42-8bda-9a2f0e18d100","system_id":"levelo_inurba_marseille","lat":43.26204,"lon":5.40316,"is_reserved":false,"is_disabled":false,"rental_uris":{"android":"levelo://app?vid=5317488a-5edb-4d42-8bda-9a2f0e18d100","ios":"levelo://app?vid=5317488a-5edb-4d42-8bda-9a2f0e18d100"},"vehicle_type_id":"4","last_reported":1741720043,"current_range_meters":14400,"station_id":"ce4bhmh2rcd13ifvqgmg","pricing_plan_id":"cebpf4jnsgd1na2vs0mg"},{"bike_id":"8bca6b52-28c0-4932-8ec1-82b13d2e0c6d","system_id":"levelo_inurba_marseille","lat":43.29262,"lon":5.37621,"is_reserved":false,"is_disabled":false,"rental_uris":{"android":"levelo://app?vid=8bca6b52-28c0-4932-8ec1-82b13d2e0c6d","ios":"levelo://app?vid=8bca6b52-28c0-4932-8ec1-82b13d2e0c6d"},"vehicle_type_id":"4","last_reported":1741720043,"current_range_meters":14800,"station_id":"ce4bgi12rcd13ifvqb80","pricing_plan_id":"cebpf4jnsgd1na2vs0mg"},{"bike_id":"8679fefc-1bde-44f4-9f91-6230b417411b","system_id":"levelo_inurba_marseille","lat":43.31114,"lon":5.37771,"is_reserved":false,"is_disabled":false,"rental_uris":{"android":"levelo://app?vid=8679fefc-1bde-44f4-9f91-6230b417411b","ios":"levelo://app?vid=8679fefc-1bde-44f4-9f91-6230b417411b"},"vehicle_type_id":"4","last_reported":1741720043,"current_range_meters":14800,"station_id":"ce4bgt92rcd13ifvqcg0","pricing_plan_id":"cebpf4jnsgd1na2vs0mg"},{"bike_id":"e43965ac-e7ae-4bd5-83eb-e739780c4a0c","system_id":"levelo_inurba_marseille","lat":43.2989,"lon":5.39769,"is_reserved":false,"is_disabled":false,"rental_uris":{"android":"levelo://app?vid=e43965ac-e7ae-4bd5-83eb-e739780c4a0c","ios":"levelo://app?vid=e43965ac-e7ae-4bd5-83eb-e739780c4a0c"},"vehicle_type_id":"4","last_reported":1741720043,"current_range_meters":14800,"station_id":"ce4bh0h2rcd13ifvqd50","pricing_plan_id":"cebpf4jnsgd1na2vs0mg"},{"bike_id":"0eecd69f-4814-4099-9308-41706ca678d7","system_id":"levelo_inurba_marseille","lat":43.29934,"lon":5.36542,"is_reserved":false,"is_disabled":false,"rental_uris":{"android":"levelo://app?vid=0eecd69f-4814-4099-9308-41706ca678d7","ios":"levelo://app?vid=0eecd69f-4814-4099-9308-41706ca678d7"},"vehicle_type_id":"4","last_reported":1741720043,"current_range_meters":15200,"station_id":"ce4bgm92rcd13ifvqbr0","pricing_plan_id":"cebpf4jnsgd1na2vs0mg"},{"bike_id":"d606a2c6-2e20-4aaf-9b4d-eb9df41334e1","system_id":"levelo_inurba_marseille","lat":43.31127,"lon":5.3777,"is_reserved":false,"is_disabled":false,"rental_uris":{"android":"levelo://app?vid=d606a2c6-2e20-4aaf-9b4d-eb9df41334e1","ios":"levelo://app?vid=d606a2c6-2e20-4aaf-9b4d-eb9df41334e1"},"vehicle_type_id":"4","last_reported":1741720043,"current_range_meters":15200,"station_id":"ce4bgt92rcd13ifvqcg0","pricing_plan_id":"cebpf4jnsgd1na2vs0mg"},{"bike_id":"185dd92f-5ca3-4784-9453-5f8185d1714c","system_id":"levelo_inurba_marseille","lat":43.31323,"lon":5.39699,"is_reserved":false,"is_disabled":false,"rental_uris":{"android":"levelo://app?vid=185dd92f-5ca3-4784-9453-5f8185d1714c","ios":"levelo://app?vid=185dd92f-5ca3-4784-9453-5f8185d1714c"},"vehicle_type_id":"4","last_reported":1741720043,"current_range_meters":15200,"station_id":"ce4bgvp2rcd13ifvqcu0","pricing_plan_id":"cebpf4jnsgd1na2vs0mg"},{"bike_id":"25937fb7-9dcc-40e4-8919-d293a5121ca0","system_id":"levelo_inurba_marseille","lat":43.28717,"lon":5.3795,"is_reserved":false,"is_disabled":false,"rental_uris":{"android":"levelo://app?vid=25937fb7-9dcc-40e4-8919-d293a5121ca0","ios":"levelo://app?vid=25937fb7-9dcc-40e4-8919-d293a5121ca0"},"vehicle_type_id":"4","last_reported":1741720043,"current_range_meters":15200,"station_id":"ce4bh9p2rcd13ifvqec0","pricing_plan_id":"cebpf4jnsgd1na2vs0mg"},{"bike_id":"1ed1a68a-1459-44c6-8baf-85fcda1e78ae","system_id":"levelo_inurba_marseille","lat":43.24386,"lon":5.3706,"is_reserved":false,"is_disabled":false,"rental_uris":{"android":"levelo://app?vid=1ed1a68a-1459-44c6-8baf-85fcda1e78ae","ios":"levelo://app?vid=1ed1a68a-1459-44c6-8baf-85fcda1e78ae"},"vehicle_type_id":"4","last_reported":1741720043,"current_range_meters":15200,"station_id":"ce4bhhh2rcd13ifvqfk0","pricing_plan_id":"cebpf4jnsgd1na2vs0mg"},{"bike_id":"82191989-6f8e-45d1-8602-73ffd300a966","system_id":"levelo_inurba_marseille","lat":43.258278,"lon":5.394343,"is_reserved":false,"is_disabled":false,"rental_uris":{"android":"levelo://app?vid=82191989-6f8e-45d1-8602-73ffd300a966","ios":"levelo://app?vid=82191989-6f8e-45d1-8602-73ffd300a966"},"vehicle_type_id":"4","last_reported":1741720043,"current_range_meters":15200,"station_id":"ce4bhip2rcd13ifvqft0","pricing_plan_id":"cebpf4jnsgd1na2vs0mg"},{"bike_id":"24b4b104-5c89-4fc6-8924-6d1684e13415","system_id":"levelo_inurba_marseille","lat":43.23125,"lon":5.43735,"is_reserved":false,"is_disabled":false,"rental_uris":{"android":"levelo://app?vid=24b4b104-5c89-4fc6-8924-6d1684e13415","ios":"levelo://app?vid=24b4b104-5c89-4fc6-8924-6d1684e13415"},"vehicle_type_id":"4","last_reported":1741720043,"current_range_meters":15200,"station_id":"ce4bhmp2rcd13ifvqgog","pricing_plan_id":"cebpf4jnsgd1na2vs0mg"},{"bike_id":"48a7d7f7-358a-4c38-8174-a160e865a61d","system_id":"levelo_inurba_marseille","lat":43.27825,"lon":5.40713,"is_reserved":false,"is_disabled":false,"rental_uris":{"android":"levelo://app?vid=48a7d7f7-358a-4c38-8174-a160e865a61d","ios":"levelo://app?vid=48a7d7f7-358a-4c38-8174-a160e865a61d"},"vehicle_type_id":"4","last_reported":1741720043,"current_range_meters":15200,"station_id":"ce4bhnh2rcd13ifvqgtg","pricing_plan_id":"cebpf4jnsgd1na2vs0mg"},{"bike_id":"45345445-a78a-493f-a730-c619602e3241","system_id":"levelo_inurba_marseille","lat":43.25607,"lon":5.38542,"is_reserved":false,"is_disabled":false,"rental_uris":{"android":"levelo://app?vid=45345445-a78a-493f-a730-c619602e3241","ios":"levelo://app?vid=45345445-a78a-493f-a730-c619602e3241"},"vehicle_type_id":"4","last_reported":1741720043,"current_range_meters":16000,"station_id":"","pricing_plan_id":"cebpf4jnsgd1na2vs0mg"},{"bike_id":"650759ca-b2b7-4d25-ac4d-176e3a1808d7","system_id":"levelo_inurba_marseille","lat":43.30882,"lon":5.39653,"is_reserved":false,"is_disabled":false,"rental_uris":{"android":"levelo://app?vid=650759ca-b2b7-4d25-ac4d-176e3a1808d7","ios":"levelo://app?vid=650759ca-b2b7-4d25-ac4d-176e3a1808d7"},"vehicle_type_id":"4","last_reported":1741720043,"current_range_meters":16000,"station_id":"ce4bh012rcd13ifvqcv0","pricing_plan_id":"cebpf4jnsgd1na2vs0mg"},{"bike_id":"0a6985ed-b84c-4033-8e3e-05aa091718f5","system_id":"levelo_inurba_marseille","lat":43.29888,"lon":5.3977,"is_reserved":false,"is_disabled":false,"rental_uris":{"android":"levelo://app?vid=0a6985ed-b84c-4033-8e3e-05aa091718f5","ios":"levelo://app?vid=0a6985ed-b84c-4033-8e3e-05aa091718f5"},"vehicle_type_id":"4","last_reported":1741720043,"current_range_meters":16000,"station_id":"ce4bh0h2rcd13ifvqd50","pricing_plan_id":"cebpf4jnsgd1na2vs0mg"},{"bike_id":"0a995a9a-6122-4f4b-b298-a8b06cbca7e2","system_id":"levelo_inurba_marseille","lat":43.25037,"lon":5.38916,"is_reserved":false,"is_disabled":false,"rental_uris":{"android":"levelo://app?vid=0a995a9a-6122-4f4b-b298-a8b06cbca7e2","ios":"levelo://app?vid=0a995a9a-6122-4f4b-b298-a8b06cbca7e2"},"vehicle_type_id":"4","last_reported":1741720043,"current_range_meters":16000,"station_id":"ce4bhgp2rcd13ifvqfd0","pricing_plan_id":"cebpf4jnsgd1na2vs0mg"},{"bike_id":"b44022d5-a3c8-45f9-9984-eaba76929c7b","system_id":"levelo_inurba_marseille","lat":43.27815,"lon":5.40718,"is_reserved":false,"is_disabled":false,"rental_uris":{"android":"levelo://app?vid=b44022d5-a3c8-45f9-9984-eaba76929c7b","ios":"levelo://app?vid=b44022d5-a3c8-45f9-9984-eaba76929c7b"},"vehicle_type_id":"4","last_reported":1741720043,"current_range_meters":16000,"station_id":"ce4bhnh2rcd13ifvqgtg","pricing_plan_id":"cebpf4jnsgd1na2vs0mg"},{"bike_id":"2f8ecfaf-2a87-4f10-80ec-10a7eb94a1da","system_id":"levelo_inurba_marseille","lat":43.31531,"lon":5.3803,"is_reserved":false,"is_disabled":false,"rental_uris":{"android":"levelo://app?vid=2f8ecfaf-2a87-4f10-80ec-10a7eb94a1da","ios":"levelo://app?vid=2f8ecfaf-2a87-4f10-80ec-10a7eb94a1da"},"vehicle_type_id":"4","last_reported":1741720043,"current_range_meters":16000,"station_id":"ce4bhsp2rcd13ifvqi50","pricing_plan_id":"cebpf4jnsgd1na2vs0mg"},{"bike_id":"bd4f393d-c78e-4515-afb5-df2dec73c5d0","system_id":"levelo_inurba_marseille","lat":43.305347,"lon":5.36547,"is_reserved":false,"is_disabled":false,"rental_uris":{"android":"levelo://app?vid=bd4f393d-c78e-4515-afb5-df2dec73c5d0","ios":"levelo://app?vid=bd4f393d-c78e-4515-afb5-df2dec73c5d0"},"vehicle_type_id":"4","last_reported":1741720043,"current_range_meters":16400,"station_id":"ce4bgs12rcd13ifvqcag","pricing_plan_id":"cebpf4jnsgd1na2vs0mg"},{"bike_id":"1ed5f5e3-28fb-4c0d-978d-31b5f4336385","system_id":"levelo_inurba_marseille","lat":43.30935,"lon":5.40144,"is_reserved":false,"is_disabled":false,"rental_uris":{"android":"levelo://app?vid=1ed5f5e3-28fb-4c0d-978d-31b5f4336385","ios":"levelo://app?vid=1ed5f5e3-28fb-4c0d-978d-31b5f4336385"},"vehicle_type_id":"4","last_reported":1741720043,"current_range_meters":16400,"station_id":"ce4bgvp2rcd13ifvqct0","pricing_plan_id":"cebpf4jnsgd1na2vs0mg"},{"bike_id":"26094f51-add7-49b6-a571-d06192a82129","system_id":"levelo_inurba_marseille","lat":43.28418,"lon":5.34985,"is_reserved":false,"is_disabled":false,"rental_uris":{"android":"levelo://app?vid=26094f51-add7-49b6-a571-d06192a82129","ios":"levelo://app?vid=26094f51-add7-49b6-a571-d06192a82129"},"vehicle_type_id":"4","last_reported":1741720043,"current_range_meters":16400,"station_id":"ce4bhbh2rcd13ifvqepg","pricing_plan_id":"cebpf4jnsgd1na2vs0mg"},{"bike_id":"f361b9ee-3f62-474f-856b-34e1cd99ae7d","system_id":"levelo_inurba_marseille","lat":43.28444,"lon":5.39183,"is_reserved":false,"is_disabled":false,"rental_uris":{"android":"levelo://app?vid=f361b9ee-3f62-474f-856b-34e1cd99ae7d","ios":"levelo://app?vid=f361b9ee-3f62-474f-856b-34e1cd99ae7d"},"vehicle_type_id":"4","last_reported":1741720043,"current_range_meters":16400,"station_id":"ce4bhoh2rcd13ifvqh5g","pricing_plan_id":"cebpf4jnsgd1na2vs0mg"},{"bike_id":"a6f7e3dc-9556-4727-b64b-3c12bdac2851","system_id":"levelo_inurba_marseille","lat":43.32659,"lon":5.41,"is_reserved":false,"is_disabled":false,"rental_uris":{"android":"levelo://app?vid=a6f7e3dc-9556-4727-b64b-3c12bdac2851","ios":"levelo://app?vid=a6f7e3dc-9556-4727-b64b-3c12bdac2851"},"vehicle_type_id":"4","last_reported":1741720043,"current_range_meters":16400,"station_id":"ce4bhpp2rcd13ifvqhgg","pricing_plan_id":"cebpf4jnsgd1na2vs0mg"},{"bike_id":"fb55f9d1-18dc-4569-919c-3c5a2e705317","system_id":"levelo_inurba_marseille","lat":43.32478,"lon":5.36596,"is_reserved":false,"is_disabled":false,"rental_uris":{"android":"levelo://app?vid=fb55f9d1-18dc-4569-919c-3c5a2e705317","ios":"levelo://app?vid=fb55f9d1-18dc-4569-919c-3c5a2e705317"},"vehicle_type_id":"4","last_reported":1741720043,"current_range_meters":16400,"station_id":"ce4bhs12rcd13ifvqhvg","pricing_plan_id":"cebpf4jnsgd1na2vs0mg"},{"bike_id":"200c1668-b403-444f-a98b-38324d934d8b","system_id":"levelo_inurba_marseille","lat":43.31528,"lon":5.38034,"is_reserved":false,"is_disabled":false,"rental_uris":{"android":"levelo://app?vid=200c1668-b403-444f-a98b-38324d934d8b","ios":"levelo://app?vid=200c1668-b403-444f-a98b-38324d934d8b"},"vehicle_type_id":"4","last_reported":1741720043,"current_range_meters":16400,"station_id":"ce4bhsp2rcd13ifvqi50","pricing_plan_id":"cebpf4jnsgd1na2vs0mg"},{"bike_id":"872e509f-fa09-4a51-8cac-e911e7fb674e","system_id":"levelo_inurba_marseille","lat":43.29972,"lon":5.38904,"is_reserved":false,"is_disabled":false,"rental_uris":{"android":"levelo://app?vid=872e509f-fa09-4a51-8cac-e911e7fb674e","ios":"levelo://app?vid=872e509f-fa09-4a51-8cac-e911e7fb674e"},"vehicle_type_id":"4","last_reported":1741720043,"current_range_meters":16400,"station_id":"chh1huq6cuj3fo74tm60","pricing_plan_id":"cebpf4jnsgd1na2vs0mg"},{"bike_id":"070482fa-08e5-4c92-86a2-963e7a8b42c4","system_id":"levelo_inurba_marseille","lat":43.31079,"lon":5.38355,"is_reserved":false,"is_disabled":false,"rental_uris":{"android":"levelo://app?vid=070482fa-08e5-4c92-86a2-963e7a8b42c4","ios":"levelo://app?vid=070482fa-08e5-4c92-86a2-963e7a8b42c4"},"vehicle_type_id":"4","last_reported":1741720043,"current_range_meters":16800,"station_id":"ce4bgv92rcd13ifvqcr0","pricing_plan_id":"cebpf4jnsgd1na2vs0mg"},{"bike_id":"0426f4a6-9736-4ab6-86c5-5814e26fe4f5","system_id":"levelo_inurba_marseille","lat":43.2318,"lon":5.39987,"is_reserved":false,"is_disabled":false,"rental_uris":{"android":"levelo://app?vid=0426f4a6-9736-4ab6-86c5-5814e26fe4f5","ios":"levelo://app?vid=0426f4a6-9736-4ab6-86c5-5814e26fe4f5"},"vehicle_type_id":"4","last_reported":1741720043,"current_range_meters":16800,"station_id":"ce4bhn12rcd13ifvqgqg","pricing_plan_id":"cebpf4jnsgd1na2vs0mg"},{"bike_id":"47000039-4034-4ec5-a69e-eabf345d8859","system_id":"levelo_inurba_marseille","lat":43.2794,"lon":5.41043,"is_reserved":false,"is_disabled":false,"rental_uris":{"android":"levelo://app?vid=47000039-4034-4ec5-a69e-eabf345d8859","ios":"levelo://app?vid=47000039-4034-4ec5-a69e-eabf345d8859"},"vehicle_type_id":"4","last_reported":1741720043,"current_range_meters":16800,"station_id":"ce4bhnp2rcd13ifvqh0g","pricing_plan_id":"cebpf4jnsgd1na2vs0mg"},{"bike_id":"2292d452-080d-44d7-bf0a-d0e9cf6f1d25","system_id":"levelo_inurba_marseille","lat":43.27997,"lon":5.40015,"is_reserved":false,"is_disabled":false,"rental_uris":{"android":"levelo://app?vid=2292d452-080d-44d7-bf0a-d0e9cf6f1d25","ios":"levelo://app?vid=2292d452-080d-44d7-bf0a-d0e9cf6f1d25"},"vehicle_type_id":"4","last_reported":1741720043,"current_range_meters":16800,"station_id":"ce4bho92rcd13ifvqh4g","pricing_plan_id":"cebpf4jnsgd1na2vs0mg"},{"bike_id":"8cb98100-8339-480d-872a-e2c4b7cea00c","system_id":"levelo_inurba_marseille","lat":43.28105,"lon":5.39832,"is_reserved":false,"is_disabled":false,"rental_uris":{"android":"levelo://app?vid=8cb98100-8339-480d-872a-e2c4b7cea00c","ios":"levelo://app?vid=8cb98100-8339-480d-872a-e2c4b7cea00c"},"vehicle_type_id":"4","last_reported":1741720043,"current_range_meters":17200,"station_id":"","pricing_plan_id":"cebpf4jnsgd1na2vs0mg"},{"bike_id":"ba079713-a917-48dd-97ec-19465d42d808","system_id":"levelo_inurba_marseille","lat":43.30434,"lon":5.38883,"is_reserved":false,"is_disabled":false,"rental_uris":{"android":"levelo://app?vid=ba079713-a917-48dd-97ec-19465d42d808","ios":"levelo://app?vid=ba079713-a917-48dd-97ec-19465d42d808"},"vehicle_type_id":"4","last_reported":1741720043,"current_range_meters":17200,"station_id":"ce4bgk12rcd13ifvqbi0","pricing_plan_id":"cebpf4jnsgd1na2vs0mg"},{"bike_id":"7a989acb-a5b4-45ca-a84a-95366516cfbd","system_id":"levelo_inurba_marseille","lat":43.29512,"lon":5.39043,"is_reserved":false,"is_disabled":false,"rental_uris":{"android":"levelo://app?vid=7a989acb-a5b4-45ca-a84a-95366516cfbd","ios":"levelo://app?vid=7a989acb-a5b4-45ca-a84a-95366516cfbd"},"vehicle_type_id":"4","last_reported":1741720043,"current_range_meters":17200,"station_id":"ce4bh3p2rcd13ifvqdp0","pricing_plan_id":"cebpf4jnsgd1na2vs0mg"},{"bike_id":"e0718395-0e2e-4a7a-a474-5a05d3f79c13","system_id":"levelo_inurba_marseille","lat":43.2842,"lon":5.37537,"is_reserved":false,"is_disabled":false,"rental_uris":{"android":"levelo://app?vid=e0718395-0e2e-4a7a-a474-5a05d3f79c13","ios":"levelo://app?vid=e0718395-0e2e-4a7a-a474-5a05d3f79c13"},"vehicle_type_id":"4","last_reported":1741720043,"current_range_meters":17200,"station_id":"ce4bh412rcd13ifvqds0","pricing_plan_id":"cebpf4jnsgd1na2vs0mg"},{"bike_id":"a56086f9-025c-47b3-b9a4-c1d305863820","system_id":"levelo_inurba_marseille","lat":43.28473,"lon":5.38434,"is_reserved":false,"is_disabled":false,"rental_uris":{"android":"levelo://app?vid=a56086f9-025c-47b3-b9a4-c1d305863820","ios":"levelo://app?vid=a56086f9-025c-47b3-b9a4-c1d305863820"},"vehicle_type_id":"4","last_reported":1741720043,"current_range_meters":17200,"station_id":"ce4bh512rcd13ifvqe3g","pricing_plan_id":"cebpf4jnsgd1na2vs0mg"},{"bike_id":"75491172-ce32-4687-b51d-86c400ad53c1","system_id":"levelo_inurba_marseille","lat":43.28621,"lon":5.35107,"is_reserved":false,"is_disabled":false,"rental_uris":{"android":"levelo://app?vid=75491172-ce32-4687-b51d-86c400ad53c1","ios":"levelo://app?vid=75491172-ce32-4687-b51d-86c400ad53c1"},"vehicle_type_id":"4","last_reported":1741720043,"current_range_meters":17200,"station_id":"ce4bhch2rcd13ifvqeug","pricing_plan_id":"cebpf4jnsgd1na2vs0mg"},{"bike_id":"bc37931e-6cb1-4309-b727-49bc8606128d","system_id":"levelo_inurba_marseille","lat":43.25569,"lon":5.38213,"is_reserved":false,"is_disabled":false,"rental_uris":{"android":"levelo://app?vid=bc37931e-6cb1-4309-b727-49bc8606128d","ios":"levelo://app?vid=bc37931e-6cb1-4309-b727-49bc8606128d"},"vehicle_type_id":"4","last_reported":1741720043,"current_range_meters":17200,"station_id":"ce4bhih2rcd13ifvqfs0","pricing_plan_id":"cebpf4jnsgd1na2vs0mg"},{"bike_id":"4c607265-c996-4d9b-81fd-daa80dd99e32","system_id":"levelo_inurba_marseille","lat":43.28759,"lon":5.38431,"is_reserved":false,"is_disabled":false,"rental_uris":{"android":"levelo://app?vid=4c607265-c996-4d9b-81fd-daa80dd99e32","ios":"levelo://app?vid=4c607265-c996-4d9b-81fd-daa80dd99e32"},"vehicle_type_id":"4","last_reported":1741720043,"current_range_meters":17600,"station_id":"","pricing_plan_id":"cebpf4jnsgd1na2vs0mg"},{"bike_id":"e7e88df6-f1ca-46bb-bd71-ae3d4a6f7eeb","system_id":"levelo_inurba_marseille","lat":43.29913,"lon":5.37467,"is_reserved":false,"is_disabled":false,"rental_uris":{"android":"levelo://app?vid=e7e88df6-f1ca-46bb-bd71-ae3d4a6f7eeb","ios":"levelo://app?vid=e7e88df6-f1ca-46bb-bd71-ae3d4a6f7eeb"},"vehicle_type_id":"4","last_reported":1741720043,"current_range_meters":17600,"station_id":"ce4bgjh2rcd13ifvqbg0","pricing_plan_id":"cebpf4jnsgd1na2vs0mg"},{"bike_id":"a29f826f-0d87-4faa-a107-06b71a341cb7","system_id":"levelo_inurba_marseille","lat":43.299317,"lon":5.365387,"is_reserved":false,"is_disabled":false,"rental_uris":{"android":"levelo://app?vid=a29f826f-0d87-4faa-a107-06b71a341cb7","ios":"levelo://app?vid=a29f826f-0d87-4faa-a107-06b71a341cb7"},"vehicle_type_id":"4","last_reported":1741720043,"current_range_meters":17600,"station_id":"ce4bgm92rcd13ifvqbr0","pricing_plan_id":"cebpf4jnsgd1na2vs0mg"},{"bike_id":"febafa61-9fca-4f05-8642-7cd522524da9","system_id":"levelo_inurba_marseille","lat":43.31514,"lon":5.37285,"is_reserved":false,"is_disabled":false,"rental_uris":{"android":"levelo://app?vid=febafa61-9fca-4f05-8642-7cd522524da9","ios":"levelo://app?vid=febafa61-9fca-4f05-8642-7cd522524da9"},"vehicle_type_id":"4","last_reported":1741720043,"current_range_meters":17600,"station_id":"ce4bgt12rcd13ifvqcd0","pricing_plan_id":"cebpf4jnsgd1na2vs0mg"},{"bike_id":"034d624a-df43-4eb0-8207-b3309271b8f1","system_id":"levelo_inurba_marseille","lat":43.31324,"lon":5.39695,"is_reserved":false,"is_disabled":false,"rental_uris":{"android":"levelo://app?vid=034d624a-df43-4eb0-8207-b3309271b8f1","ios":"levelo://app?vid=034d624a-df43-4eb0-8207-b3309271b8f1"},"vehicle_type_id":"4","last_reported":1741720043,"current_range_meters":17600,"station_id":"ce4bgvp2rcd13ifvqcu0","pricing_plan_id":"cebpf4jnsgd1na2vs0mg"},{"bike_id":"8f9b40e6-3022-4d5a-81fb-521deed6b1c4","system_id":"levelo_inurba_marseille","lat":43.31324,"lon":5.39706,"is_reserved":false,"is_disabled":false,"rental_uris":{"android":"levelo://app?vid=8f9b40e6-3022-4d5a-81fb-521deed6b1c4","ios":"levelo://app?vid=8f9b40e6-3022-4d5a-81fb-521deed6b1c4"},"vehicle_type_id":"4","last_reported":1741720043,"current_range_meters":17600,"station_id":"ce4bgvp2rcd13ifvqcu0","pricing_plan_id":"cebpf4jnsgd1na2vs0mg"},{"bike_id":"f21ed247-8aac-4e46-b1ff-04c532241b5e","system_id":"levelo_inurba_marseille","lat":43.28848,"lon":5.35851,"is_reserved":false,"is_disabled":false,"rental_uris":{"android":"levelo://app?vid=f21ed247-8aac-4e46-b1ff-04c532241b5e","ios":"levelo://app?vid=f21ed247-8aac-4e46-b1ff-04c532241b5e"},"vehicle_type_id":"4","last_reported":1741720043,"current_range_meters":17600,"station_id":"ce4bhb12rcd13ifvqem0","pricing_plan_id":"cebpf4jnsgd1na2vs0mg"},{"bike_id":"d1a4bc6a-254f-475e-a802-bb168c37ebc9","system_id":"levelo_inurba_marseille","lat":43.28849,"lon":5.35878,"is_reserved":false,"is_disabled":false,"rental_uris":{"android":"levelo://app?vid=d1a4bc6a-254f-475e-a802-bb168c37ebc9","ios":"levelo://app?vid=d1a4bc6a-254f-475e-a802-bb168c37ebc9"},"vehicle_type_id":"4","last_reported":1741720043,"current_range_meters":17600,"station_id":"ce4bhb12rcd13ifvqem0","pricing_plan_id":"cebpf4jnsgd1na2vs0mg"},{"bike_id":"ad152b09-5333-4d7a-a147-18c4ba9d0fad","system_id":"levelo_inurba_marseille","lat":43.26565,"lon":5.39026,"is_reserved":false,"is_disabled":false,"rental_uris":{"android":"levelo://app?vid=ad152b09-5333-4d7a-a147-18c4ba9d0fad","ios":"levelo://app?vid=ad152b09-5333-4d7a-a147-18c4ba9d0fad"},"vehicle_type_id":"4","last_reported":1741720043,"current_range_meters":17600,"station_id":"ce4bhe12rcd13ifvqf30","pricing_plan_id":"cebpf4jnsgd1na2vs0mg"},{"bike_id":"6788ac72-97ba-4670-850c-82f03a027689","system_id":"levelo_inurba_marseille","lat":43.25112,"lon":5.39518,"is_reserved":false,"is_disabled":false,"rental_uris":{"android":"levelo://app?vid=6788ac72-97ba-4670-850c-82f03a027689","ios":"levelo://app?vid=6788ac72-97ba-4670-850c-82f03a027689"},"vehicle_type_id":"4","last_reported":1741720043,"current_range_meters":17600,"station_id":"ce4bhm12rcd13ifvqgkg","pricing_plan_id":"cebpf4jnsgd1na2vs0mg"},{"bike_id":"5098b74d-30cd-48d2-995b-36cd20bb0411","system_id":"levelo_inurba_marseille","lat":43.27827,"lon":5.40679,"is_reserved":false,"is_disabled":false,"rental_uris":{"android":"levelo://app?vid=5098b74d-30cd-48d2-995b-36cd20bb0411","ios":"levelo://app?vid=5098b74d-30cd-48d2-995b-36cd20bb0411"},"vehicle_type_id":"4","last_reported":1741720043,"current_range_meters":17600,"station_id":"ce4bhnh2rcd13ifvqgtg","pricing_plan_id":"cebpf4jnsgd1na2vs0mg"},{"bike_id":"3f68a372-cf2e-46ed-acb9-c395b0b783e3","system_id":"levelo_inurba_marseille","lat":43.32308,"lon":5.38333,"is_reserved":false,"is_disabled":false,"rental_uris":{"android":"levelo://app?vid=3f68a372-cf2e-46ed-acb9-c395b0b783e3","ios":"levelo://app?vid=3f68a372-cf2e-46ed-acb9-c395b0b783e3"},"vehicle_type_id":"4","last_reported":1741720043,"current_range_meters":17600,"station_id":"ce4bhr12rcd13ifvqhqg","pricing_plan_id":"cebpf4jnsgd1na2vs0mg"},{"bike_id":"a8320c03-0f38-4985-bc60-3c9a46f1f97e","system_id":"levelo_inurba_marseille","lat":43.30813,"lon":5.38182,"is_reserved":false,"is_disabled":false,"rental_uris":{"android":"levelo://app?vid=a8320c03-0f38-4985-bc60-3c9a46f1f97e","ios":"levelo://app?vid=a8320c03-0f38-4985-bc60-3c9a46f1f97e"},"vehicle_type_id":"4","last_reported":1741720043,"current_range_meters":18000,"station_id":"ce4bgt12rcd13ifvqce0","pricing_plan_id":"cebpf4jnsgd1na2vs0mg"},{"bike_id":"23e744db-3cad-49e2-83f2-4f75f95fa901","system_id":"levelo_inurba_marseille","lat":43.30891,"lon":5.39636,"is_reserved":false,"is_disabled":false,"rental_uris":{"android":"levelo://app?vid=23e744db-3cad-49e2-83f2-4f75f95fa901","ios":"levelo://app?vid=23e744db-3cad-49e2-83f2-4f75f95fa901"},"vehicle_type_id":"4","last_reported":1741720043,"current_range_meters":18000,"station_id":"ce4bh012rcd13ifvqcv0","pricing_plan_id":"cebpf4jnsgd1na2vs0mg"},{"bike_id":"86394c4c-de42-4a92-abd3-69db83f47f6e","system_id":"levelo_inurba_marseille","lat":43.28699,"lon":5.37393,"is_reserved":false,"is_disabled":false,"rental_uris":{"android":"levelo://app?vid=86394c4c-de42-4a92-abd3-69db83f47f6e","ios":"levelo://app?vid=86394c4c-de42-4a92-abd3-69db83f47f6e"},"vehicle_type_id":"4","last_reported":1741720043,"current_range_meters":18000,"station_id":"ce4bh3p2rcd13ifvqdq0","pricing_plan_id":"cebpf4jnsgd1na2vs0mg"},{"bike_id":"aee667bc-8028-4120-80ed-62b33dcc2801","system_id":"levelo_inurba_marseille","lat":43.28477,"lon":5.38426,"is_reserved":false,"is_disabled":false,"rental_uris":{"android":"levelo://app?vid=aee667bc-8028-4120-80ed-62b33dcc2801","ios":"levelo://app?vid=aee667bc-8028-4120-80ed-62b33dcc2801"},"vehicle_type_id":"4","last_reported":1741720043,"current_range_meters":18000,"station_id":"ce4bh512rcd13ifvqe3g","pricing_plan_id":"cebpf4jnsgd1na2vs0mg"},{"bike_id":"8ac4ed9b-4d92-48d0-985f-3caa64f4c809","system_id":"levelo_inurba_marseille","lat":43.28483,"lon":5.3841,"is_reserved":false,"is_disabled":false,"rental_uris":{"android":"levelo://app?vid=8ac4ed9b-4d92-48d0-985f-3caa64f4c809","ios":"levelo://app?vid=8ac4ed9b-4d92-48d0-985f-3caa64f4c809"},"vehicle_type_id":"4","last_reported":1741720043,"current_range_meters":18000,"station_id":"ce4bh512rcd13ifvqe3g","pricing_plan_id":"cebpf4jnsgd1na2vs0mg"},{"bike_id":"c7ba3a1f-e796-485e-b043-dfa30283a58d","system_id":"levelo_inurba_marseille","lat":43.28477,"lon":5.35928,"is_reserved":false,"is_disabled":false,"rental_uris":{"android":"levelo://app?vid=c7ba3a1f-e796-485e-b043-dfa30283a58d","ios":"levelo://app?vid=c7ba3a1f-e796-485e-b043-dfa30283a58d"},"vehicle_type_id":"4","last_reported":1741720043,"current_range_meters":18000,"station_id":"ce4bhah2rcd13ifvqei0","pricing_plan_id":"cebpf4jnsgd1na2vs0mg"},{"bike_id":"5e36b6b8-6e77-45ed-9597-025342e46c0b","system_id":"levelo_inurba_marseille","lat":43.25496,"lon":5.3765,"is_reserved":false,"is_disabled":false,"rental_uris":{"android":"levelo://app?vid=5e36b6b8-6e77-45ed-9597-025342e46c0b","ios":"levelo://app?vid=5e36b6b8-6e77-45ed-9597-025342e46c0b"},"vehicle_type_id":"4","last_reported":1741720043,"current_range_meters":18000,"station_id":"ce4bhh12rcd13ifvqff0","pricing_plan_id":"cebpf4jnsgd1na2vs0mg"},{"bike_id":"fc07fe95-cdf4-4256-acf6-e51ae3098755","system_id":"levelo_inurba_marseille","lat":43.27564,"lon":5.38406,"is_reserved":false,"is_disabled":false,"rental_uris":{"android":"levelo://app?vid=fc07fe95-cdf4-4256-acf6-e51ae3098755","ios":"levelo://app?vid=fc07fe95-cdf4-4256-acf6-e51ae3098755"},"vehicle_type_id":"4","last_reported":1741720043,"current_range_meters":18000,"station_id":"ce4bhh92rcd13ifvqfi0","pricing_plan_id":"cebpf4jnsgd1na2vs0mg"},{"bike_id":"6f4c9526-e882-40d0-bbc5-c3775986ec76","system_id":"levelo_inurba_marseille","lat":43.24075,"lon":5.37763,"is_reserved":false,"is_disabled":false,"rental_uris":{"android":"levelo://app?vid=6f4c9526-e882-40d0-bbc5-c3775986ec76","ios":"levelo://app?vid=6f4c9526-e882-40d0-bbc5-c3775986ec76"},"vehicle_type_id":"4","last_reported":1741720043,"current_range_meters":18000,"station_id":"ce4bhnp2rcd13ifvqgvg","pricing_plan_id":"cebpf4jnsgd1na2vs0mg"},{"bike_id":"5e010522-ee63-447e-9bd0-e4572fe6d490","system_id":"levelo_inurba_marseille","lat":43.29591,"lon":5.36947,"is_reserved":false,"is_disabled":false,"rental_uris":{"android":"levelo://app?vid=5e010522-ee63-447e-9bd0-e4572fe6d490","ios":"levelo://app?vid=5e010522-ee63-447e-9bd0-e4572fe6d490"},"vehicle_type_id":"4","last_reported":1741720043,"current_range_meters":18800,"station_id":"","pricing_plan_id":"cebpf4jnsgd1na2vs0mg"},{"bike_id":"d3ac1ba6-6349-4d47-99e4-9f85d3ef1aa5","system_id":"levelo_inurba_marseille","lat":43.2851,"lon":5.36875,"is_reserved":false,"is_disabled":false,"rental_uris":{"android":"levelo://app?vid=d3ac1ba6-6349-4d47-99e4-9f85d3ef1aa5","ios":"levelo://app?vid=d3ac1ba6-6349-4d47-99e4-9f85d3ef1aa5"},"vehicle_type_id":"4","last_reported":1741720043,"current_range_meters":18800,"station_id":"","pricing_plan_id":"cebpf4jnsgd1na2vs0mg"},{"bike_id":"75b57c73-f61d-43f4-b4e7-af7a50dc2f3d","system_id":"levelo_inurba_marseille","lat":43.2988,"lon":5.38904,"is_reserved":false,"is_disabled":false,"rental_uris":{"android":"levelo://app?vid=75b57c73-f61d-43f4-b4e7-af7a50dc2f3d","ios":"levelo://app?vid=75b57c73-f61d-43f4-b4e7-af7a50dc2f3d"},"vehicle_type_id":"4","last_reported":1741720043,"current_range_meters":18800,"station_id":"ce4bh392rcd13ifvqdl0","pricing_plan_id":"cebpf4jnsgd1na2vs0mg"},{"bike_id":"581f4a20-d90b-427d-b098-f02486ba6276","system_id":"levelo_inurba_marseille","lat":43.27209,"lon":5.39166,"is_reserved":false,"is_disabled":false,"rental_uris":{"android":"levelo://app?vid=581f4a20-d90b-427d-b098-f02486ba6276","ios":"levelo://app?vid=581f4a20-d90b-427d-b098-f02486ba6276"},"vehicle_type_id":"4","last_reported":1741720043,"current_range_meters":18800,"station_id":"ce4bhhp2rcd13ifvqfm0","pricing_plan_id":"cebpf4jnsgd1na2vs0mg"},{"bike_id":"4f01afe6-a3ad-48ff-acf2-b47a05bcc407","system_id":"levelo_inurba_marseille","lat":43.32352,"lon":5.40613,"is_reserved":false,"is_disabled":false,"rental_uris":{"android":"levelo://app?vid=4f01afe6-a3ad-48ff-acf2-b47a05bcc407","ios":"levelo://app?vid=4f01afe6-a3ad-48ff-acf2-b47a05bcc407"},"vehicle_type_id":"4","last_reported":1741720043,"current_range_meters":18800,"station_id":"ce4bhq92rcd13ifvqhjg","pricing_plan_id":"cebpf4jnsgd1na2vs0mg"},{"bike_id":"de2a5748-17d6-4c95-8bde-66c2531495aa","system_id":"levelo_inurba_marseille","lat":43.2998,"lon":5.38493,"is_reserved":false,"is_disabled":false,"rental_uris":{"android":"levelo://app?vid=de2a5748-17d6-4c95-8bde-66c2531495aa","ios":"levelo://app?vid=de2a5748-17d6-4c95-8bde-66c2531495aa"},"vehicle_type_id":"4","last_reported":1741720043,"current_range_meters":19200,"station_id":"ce4bgj92rcd13ifvqbd0","pricing_plan_id":"cebpf4jnsgd1na2vs0mg"},{"bike_id":"40f01558-976f-40a5-a87f-d967d7fcf512","system_id":"levelo_inurba_marseille","lat":43.29195,"lon":5.39319,"is_reserved":false,"is_disabled":false,"rental_uris":{"android":"levelo://app?vid=40f01558-976f-40a5-a87f-d967d7fcf512","ios":"levelo://app?vid=40f01558-976f-40a5-a87f-d967d7fcf512"},"vehicle_type_id":"4","last_reported":1741720043,"current_range_meters":19200,"station_id":"ce4bh192rcd13ifvqdd0","pricing_plan_id":"cebpf4jnsgd1na2vs0mg"},{"bike_id":"d3ef9d06-73ef-4746-b30b-3943ae5fbab8","system_id":"levelo_inurba_marseille","lat":43.29513,"lon":5.39405,"is_reserved":false,"is_disabled":false,"rental_uris":{"android":"levelo://app?vid=d3ef9d06-73ef-4746-b30b-3943ae5fbab8","ios":"levelo://app?vid=d3ef9d06-73ef-4746-b30b-3943ae5fbab8"},"vehicle_type_id":"4","last_reported":1741720043,"current_range_meters":19200,"station_id":"ce4bh292rcd13ifvqdf0","pricing_plan_id":"cebpf4jnsgd1na2vs0mg"},{"bike_id":"84f2611c-4599-44a9-a346-25043d995907","system_id":"levelo_inurba_marseille","lat":43.29443,"lon":5.397507,"is_reserved":false,"is_disabled":false,"rental_uris":{"android":"levelo://app?vid=84f2611c-4599-44a9-a346-25043d995907","ios":"levelo://app?vid=84f2611c-4599-44a9-a346-25043d995907"},"vehicle_type_id":"4","last_reported":1741720043,"current_range_meters":19200,"station_id":"ce4bh3h2rcd13ifvqdo0","pricing_plan_id":"cebpf4jnsgd1na2vs0mg"},{"bike_id":"eb1ba1b6-2e87-45ed-8cf3-925b9709627f","system_id":"levelo_inurba_marseille","lat":43.29353,"lon":5.39281,"is_reserved":false,"is_disabled":false,"rental_uris":{"android":"levelo://app?vid=eb1ba1b6-2e87-45ed-8cf3-925b9709627f","ios":"levelo://app?vid=eb1ba1b6-2e87-45ed-8cf3-925b9709627f"},"vehicle_type_id":"4","last_reported":1741720043,"current_range_meters":19200,"station_id":"ce4bh3p2rcd13ifvqdp0","pricing_plan_id":"cebpf4jnsgd1na2vs0mg"},{"bike_id":"464c3b6a-e461-43d9-ad9e-97627f2ca540","system_id":"levelo_inurba_marseille","lat":43.28935,"lon":5.38393,"is_reserved":false,"is_disabled":false,"rental_uris":{"android":"levelo://app?vid=464c3b6a-e461-43d9-ad9e-97627f2ca540","ios":"levelo://app?vid=464c3b6a-e461-43d9-ad9e-97627f2ca540"},"vehicle_type_id":"4","last_reported":1741720043,"current_range_meters":19200,"station_id":"ce4bh612rcd13ifvqe6g","pricing_plan_id":"cebpf4jnsgd1na2vs0mg"},{"bike_id":"22216196-8d47-46b8-93e8-8b63b4d8d893","system_id":"levelo_inurba_marseille","lat":43.28454,"lon":5.35885,"is_reserved":false,"is_disabled":false,"rental_uris":{"android":"levelo://app?vid=22216196-8d47-46b8-93e8-8b63b4d8d893","ios":"levelo://app?vid=22216196-8d47-46b8-93e8-8b63b4d8d893"},"vehicle_type_id":"4","last_reported":1741720043,"current_range_meters":19200,"station_id":"ce4bhah2rcd13ifvqei0","pricing_plan_id":"cebpf4jnsgd1na2vs0mg"},{"bike_id":"437b834f-953b-4efa-9031-a2a17b794e01","system_id":"levelo_inurba_marseille","lat":43.28938,"lon":5.36638,"is_reserved":false,"is_disabled":false,"rental_uris":{"android":"levelo://app?vid=437b834f-953b-4efa-9031-a2a17b794e01","ios":"levelo://app?vid=437b834f-953b-4efa-9031-a2a17b794e01"},"vehicle_type_id":"4","last_reported":1741720043,"current_range_meters":19200,"station_id":"ce4bhap2rcd13ifvqek0","pricing_plan_id":"cebpf4jnsgd1na2vs0mg"},{"bike_id":"631d7f26-4fa6-4d01-922d-26e82a6f2d02","system_id":"levelo_inurba_marseille","lat":43.27578,"lon":5.38428,"is_reserved":false,"is_disabled":false,"rental_uris":{"android":"levelo://app?vid=631d7f26-4fa6-4d01-922d-26e82a6f2d02","ios":"levelo://app?vid=631d7f26-4fa6-4d01-922d-26e82a6f2d02"},"vehicle_type_id":"4","last_reported":1741720043,"current_range_meters":19200,"station_id":"ce4bhh92rcd13ifvqfi0","pricing_plan_id":"cebpf4jnsgd1na2vs0mg"},{"bike_id":"9ee3b534-911c-448d-bb36-2434c5536575","system_id":"levelo_inurba_marseille","lat":43.245485,"lon":5.395435,"is_reserved":false,"is_disabled":false,"rental_uris":{"android":"levelo://app?vid=9ee3b534-911c-448d-bb36-2434c5536575","ios":"levelo://app?vid=9ee3b534-911c-448d-bb36-2434c5536575"},"vehicle_type_id":"4","last_reported":1741720043,"current_range_meters":19200,"station_id":"ce4bhlp2rcd13ifvqgjg","pricing_plan_id":"cebpf4jnsgd1na2vs0mg"},{"bike_id":"0118782e-a9be-4c57-a3c6-f989e8d3b9bf","system_id":"levelo_inurba_marseille","lat":43.24188,"lon":5.39723,"is_reserved":false,"is_disabled":false,"rental_uris":{"android":"levelo://app?vid=0118782e-a9be-4c57-a3c6-f989e8d3b9bf","ios":"levelo://app?vid=0118782e-a9be-4c57-a3c6-f989e8d3b9bf"},"vehicle_type_id":"4","last_reported":1741720043,"current_range_meters":19200,"station_id":"ce4bhn12rcd13ifvqgpg","pricing_plan_id":"cebpf4jnsgd1na2vs0mg"},{"bike_id":"b479f388-c785-4947-8169-e12f78c8d169","system_id":"levelo_inurba_marseille","lat":43.2319,"lon":5.39984,"is_reserved":false,"is_disabled":false,"rental_uris":{"android":"levelo://app?vid=b479f388-c785-4947-8169-e12f78c8d169","ios":"levelo://app?vid=b479f388-c785-4947-8169-e12f78c8d169"},"vehicle_type_id":"4","last_reported":1741720043,"current_range_meters":19200,"station_id":"ce4bhn12rcd13ifvqgqg","pricing_plan_id":"cebpf4jnsgd1na2vs0mg"},{"bike_id":"6c29bc8e-d4b1-48c2-8cf6-1b91c83cb2de","system_id":"levelo_inurba_marseille","lat":43.31763,"lon":5.39015,"is_reserved":false,"is_disabled":false,"rental_uris":{"android":"levelo://app?vid=6c29bc8e-d4b1-48c2-8cf6-1b91c83cb2de","ios":"levelo://app?vid=6c29bc8e-d4b1-48c2-8cf6-1b91c83cb2de"},"vehicle_type_id":"4","last_reported":1741720043,"current_range_meters":19200,"station_id":"ce4bhqp2rcd13ifvqhng","pricing_plan_id":"cebpf4jnsgd1na2vs0mg"},{"bike_id":"ca762409-3e9b-49eb-b311-18b138aaa95f","system_id":"levelo_inurba_marseille","lat":43.33729,"lon":5.39196,"is_reserved":false,"is_disabled":false,"rental_uris":{"android":"levelo://app?vid=ca762409-3e9b-49eb-b311-18b138aaa95f","ios":"levelo://app?vid=ca762409-3e9b-49eb-b311-18b138aaa95f"},"vehicle_type_id":"4","last_reported":1741720043,"current_range_meters":19200,"station_id":"ce4bhr92rcd13ifvqhsg","pricing_plan_id":"cebpf4jnsgd1na2vs0mg"},{"bike_id":"d1235ce3-1007-4d2d-9e28-ea39398a63a8","system_id":"levelo_inurba_marseille","lat":43.23194,"lon":5.35546,"is_reserved":false,"is_disabled":false,"rental_uris":{"android":"levelo://app?vid=d1235ce3-1007-4d2d-9e28-ea39398a63a8","ios":"levelo://app?vid=d1235ce3-1007-4d2d-9e28-ea39398a63a8"},"vehicle_type_id":"4","last_reported":1741720043,"current_range_meters":19200,"station_id":"ce4bhu92rcd13ifvqi70","pricing_plan_id":"cebpf4jnsgd1na2vs0mg"},{"bike_id":"bdf4b3e7-bdf2-445a-8a03-46e4164568b5","system_id":"levelo_inurba_marseille","lat":43.23057,"lon":5.35502,"is_reserved":false,"is_disabled":false,"rental_uris":{"android":"levelo://app?vid=bdf4b3e7-bdf2-445a-8a03-46e4164568b5","ios":"levelo://app?vid=bdf4b3e7-bdf2-445a-8a03-46e4164568b5"},"vehicle_type_id":"4","last_reported":1741720043,"current_range_meters":19200,"station_id":"cpo3342slgdg3j2ifvpg","pricing_plan_id":"cebpf4jnsgd1na2vs0mg"},{"bike_id":"9114de4c-4ce4-4c48-b336-ef465c16dad9","system_id":"levelo_inurba_marseille","lat":43.29535,"lon":5.38535,"is_reserved":false,"is_disabled":false,"rental_uris":{"android":"levelo://app?vid=9114de4c-4ce4-4c48-b336-ef465c16dad9","ios":"levelo://app?vid=9114de4c-4ce4-4c48-b336-ef465c16dad9"},