{"last_updated":1712509604,"ttl":30,"version":"2.2","data":{"bikes":[{"bike_id":"1d9a7bd9-8f3f-4377-b5c0-3a1139d9f1c3","system_id":"levelo_inurba_marseille","lat":43.312239,"lon":5.368562,"is_reserved":false,"is_disabled":false,"rental_uris":{"android":"levelo://app?vid=1d9a7bd9-8f3f-4377-b5c0-3a1139d9f1c3","ios":"levelo://app?vid=1d9a7bd9-8f3f-4377-b5c0-3a1139d9f1c3"},"vehicle_type_id":"4","last_reported":1712509604,"current_range_meters":0,"station_id":"ce4bgl92rcd13ifvqbq0","pricing_plan_id":"cebpf4jnsgd1na2vs0mg"},{"bike_id":"a34f7b04-b63f-4330-bbd3-5285cdba9cad","system_id":"levelo_inurba_marseille","lat":43.312239,"lon":5.368562,"is_reserved":false,"is_disabled":false,"rental_uris":{"android":"levelo://app?vid=a34f7b04-b63f-4330-bbd3-5285cdba9cad","ios":"levelo://app?vid=a34f7b04-b63f-4330-bbd3-5285cdba9cad"},"vehicle_type_id":"4","last_reported":1712509604,"current_range_meters":4000,"station_id":"ce4bgl92rcd13ifvqbq0","pricing_plan_id":"cebpf4jnsgd1na2vs0mg"},{"bike_id":"f580f0ce-a63b-4a13-96a9-ebc5afc4653a","system_id":"levelo_inurba_marseille","lat":43.312239,"lon":5.368562,"is_reserved":false,"is_disabled":false,"rental_uris":{"android":"levelo://app?vid=f580f0ce-a63b-4a13-96a9-ebc5afc4653a","ios":"levelo://app?vid=f580f0ce-a63b-4a13-96a9-ebc5afc4653a"},"vehicle_type_id":"4","last_reported":1712509604,"current_range_meters":0,"station_id":"ce4bgl92rcd13ifvqbq0","pricing_plan_id":"cebpf4jnsgd1na2vs0mg"},{"bike_id":"5ecef6ad-2b16-4534-8aea-197b8b262257","system_id":"levelo_inurba_marseille","lat":43.312345,"lon":5.36858,"is_reserved":false,"is_disabled":false,"rental_uris":{"android":"levelo://app?vid=5ecef6ad-2b16-4534-8aea-197b8b262257","ios":"levelo://app?vid=5ecef6ad-2b16-4534-8aea-197b8b262257"},"vehicle_type_id":"4","last_reported":1712509604,"current_range_meters":19600,"station_id":"ce4bgl92rcd13ifvqbq0","pricing_plan_id":"cebpf4jnsgd1na2vs0mg"},{"bike_id":"0888dd63-bf1e-4cca-b46b-a68f8158a196","system_id":"levelo_inurba_marseille","lat":43.314811,"lon":5.373103,"is_reserved":false,"is_disabled":false,"rental_uris":{"android":"levelo://app?vid=0888dd63-bf1e-4cca-b46b-a68f8158a196","ios":"levelo://app?vid=0888dd63-bf1e-4cca-b46b-a68f8158a196"},"vehicle_type_id":"4","last_reported":1712509604,"current_range_meters":0,"station_id":"ce4bgt12rcd13ifvqcd0","pricing_plan_id":"cebpf4jnsgd1na2vs0mg"},{"bike_id":"73706916-b3f3-4ff0-b068-cec67895e8b1","system_id":"levelo_inurba_marseille","lat":43.308818,"lon":5.367484,"is_reserved":false,"is_disabled":false,"rental_uris":{"android":"levelo://app?vid=73706916-b3f3-4ff0-b068-cec67895e8b1","ios":"levelo://app?vid=73706916-b3f3-4ff0-b068-cec67895e8b1"},"vehicle_type_id":"4","last_reported":1712509604,"current_range_meters":8000,"station_id":"","pricing_plan_id":"cebpf4jnsgd1na2vs0mg"},{"bike_id":"82f33871-fcfd-4788-bc71-8f38c07ed021","system_id":"levelo_inurba_marseille","lat":43.309039,"lon":5.371797,"is_reserved":false,"is_disabled":false,"rental_uris":{"android":"levelo://app?vid=82f33871-fcfd-4788-bc71-8f38c07ed021","ios":"levelo://app?vid=82f33871-fcfd-4788-bc71-8f38c07ed021"},"vehicle_type_id":"4","last_reported":1712509604,"current_range_meters":0,"station_id":"ce4bguh2rcd13ifvqckg","pricing_plan_id":"cebpf4jnsgd1na2vs0mg"},{"bike_id":"a160c0a6-dc1b-43d1-8bd7-15fa5c78bf8e","system_id":"levelo_inurba_marseille","lat":43.30576,"lon":5.36522,"is_reserved":false,"is_disabled":false,"rental_uris":{"android":"levelo://app?vid=a160c0a6-dc1b-43d1-8bd7-15fa5c78bf8e","ios":"levelo://app?vid=a160c0a6-dc1b-43d1-8bd7-15fa5c78bf8e"},"vehicle_type_id":"4","last_reported":1712509604,"current_range_meters":0,"station_id":"ce4bgs12rcd13ifvqcag","pricing_plan_id":"cebpf4jnsgd1na2vs0mg"},{"bike_id":"064f1c9d-63b2-4700-a1b1-056788674634","system_id":"levelo_inurba_marseille","lat":43.3054,"lon":5.36547,"is_reserved":false,"is_disabled":false,"rental_uris":{"android":"levelo://app?vid=064f1c9d-63b2-4700-a1b1-056788674634","ios":"levelo://app?vid=064f1c9d-63b2-4700-a1b1-056788674634"},"vehicle_type_id":"4","last_reported":1712509604,"current_range_meters":0,"station_id":"ce4bgs12rcd13ifvqcag","pricing_plan_id":"cebpf4jnsgd1na2vs0mg"},{"bike_id":"74bc6a29-7280-452c-a4e7-92b6b256e876","system_id":"levelo_inurba_marseille","lat":43.305714,"lon":5.365633,"is_reserved":false,"is_disabled":false,"rental_uris":{"android":"levelo://app?vid=74bc6a29-7280-452c-a4e7-92b6b256e876","ios":"levelo://app?vid=74bc6a29-7280-452c-a4e7-92b6b256e876"},"vehicle_type_id":"4","last_reported":1712509604,"current_range_meters":400,"station_id":"ce4bgs12rcd13ifvqcag","pricing_plan_id":"cebpf4jnsgd1na2vs0mg"},{"bike_id":"5c70c08b-8ee6-4c0b-8f3d-fec9540fcc6e","system_id":"levelo_inurba_marseille","lat":43.294162,"lon":5.386292,"is_reserved":false,"is_disabled":false,"rental_uris":{"android":"levelo://app?vid=5c70c08b-8ee6-4c0b-8f3d-fec9540fcc6e","ios":"levelo://app?vid=5c70c08b-8ee6-4c0b-8f3d-fec9540fcc6e"},"vehicle_type_id":"4","last_reported":1712509604,"current_range_meters":400,"station_id":"ce4bh2h2rcd13ifvqdh0","pricing_plan_id":"cebpf4jnsgd1na2vs0mg"},{"bike_id":"2feb26a1-2756-4b41-8fd5-bda1120a66ef","system_id":"levelo_inurba_marseille","lat":43.311125,"lon":5.377624,"is_reserved":false,"is_disabled":false,"rental_uris":{"android":"levelo://app?vid=2feb26a1-2756-4b41-8fd5-bda1120a66ef","ios":"levelo://app?vid=2feb26a1-2756-4b41-8fd5-bda1120a66ef"},"vehicle_type_id":"4","last_reported":1712509604,"current_range_meters":4800,"station_id":"ce4bgt92rcd13ifvqcg0","pricing_plan_id":"cebpf4jnsgd1na2vs0mg"},{"bike_id":"4c0d6230-2c92-4451-b777-d26a1c36b471","system_id":"levelo_inurba_marseille","lat":43.31125,"lon":5.37766,"is_reserved":false,"is_disabled":false,"rental_uris":{"android":"levelo://app?vid=4c0d6230-2c92-4451-b777-d26a1c36b471","ios":"levelo://app?vid=4c0d6230-2c92-4451-b777-d26a1c36b471"},"vehicle_type_id":"4","last_reported":1712509604,"current_range_meters":0,"station_id":"ce4bgt92rcd13ifvqcg0","pricing_plan_id":"cebpf4jnsgd1na2vs0mg"},{"bike_id":"e5d964bd-10cc-4422-af98-b7ebf2bcd778","system_id":"levelo_inurba_marseille","lat":43.31117,"lon":5.37773,"is_reserved":false,"is_disabled":false,"rental_uris":{"android":"levelo://app?vid=e5d964bd-10cc-4422-af98-b7ebf2bcd778","ios":"levelo://app?vid=e5d964bd-10cc-4422-af98-b7ebf2bcd778"},"vehicle_type_id":"4","last_reported":1712509604,"current_range_meters":0,"station_id":"ce4bgt92rcd13ifvqcg0","pricing_plan_id":"cebpf4jnsgd1na2vs0mg"},{"bike_id":"2e5b2448-65ec-4909-8cb6-0deffed87679","system_id":"levelo_inurba_marseille","lat":43.307945,"lon":5.376487,"is_reserved":false,"is_disabled":false,"rental_uris":{"android":"levelo://app?vid=2e5b2448-65ec-4909-8cb6-0deffed87679","ios":"levelo://app?vid=2e5b2448-65ec-4909-8cb6-0deffed87679"},"vehicle_type_id":"4","last_reported":1712509604,"current_range_meters":800,"station_id":"ce4bgv92rcd13ifvqcq0","pricing_plan_id":"cebpf4jnsgd1na2vs0mg"},{"bike_id":"7ed839a1-1767-4f6d-968c-f4ad56b7a847","system_id":"levelo_inurba_marseille","lat":43.317075,"lon":5.377367,"is_reserved":false,"is_disabled":false,"rental_uris":{"android":"levelo://app?vid=7ed839a1-1767-4f6d-968c-f4ad56b7a847","ios":"levelo://app?vid=7ed839a1-1767-4f6d-968c-f4ad56b7a847"},"vehicle_type_id":"4","last_reported":1712509604,"current_range_meters":12400,"station_id":"ce4bgth2rcd13ifvqch0","pricing_plan_id":"cebpf4jnsgd1na2vs0mg"},{"bike_id":"f6128393-fe93-40c4-8b54-73c3f42ee973","system_id":"levelo_inurba_marseille","lat":43.304158,"lon":5.36853,"is_reserved":false,"is_disabled":false,"rental_uris":{"android":"levelo://app?vid=f6128393-fe93-40c4-8b54-73c3f42ee973","ios":"levelo://app?vid=f6128393-fe93-40c4-8b54-73c3f42ee973"},"vehicle_type_id":"4","last_reported":1712509604,"current_range_meters":0,"station_id":"","pricing_plan_id":"cebpf4jnsgd1na2vs0mg"},{"bike_id":"2b8d4665-e081-4e21-8af9-fb00c02707c9","system_id":"levelo_inurba_marseille","lat":43.317075,"lon":5.377367,"is_reserved":false,"is_disabled":false,"rental_uris":{"android":"levelo://app?vid=2b8d4665-e081-4e21-8af9-fb00c02707c9","ios":"levelo://app?vid=2b8d4665-e081-4e21-8af9-fb00c02707c9"},"vehicle_type_id":"4","last_reported":1712509604,"current_range_meters":3200,"station_id":"ce4bgth2rcd13ifvqch0","pricing_plan_id":"cebpf4jnsgd1na2vs0mg"},{"bike_id":"bbcc4411-d9f6-4721-ba85-134cc65899dc","system_id":"levelo_inurba_marseille","lat":43.31714,"lon":5.37735,"is_reserved":false,"is_disabled":false,"rental_uris":{"android":"levelo://app?vid=bbcc4411-d9f6-4721-ba85-134cc65899dc","ios":"levelo://app?vid=bbcc4411-d9f6-4721-ba85-134cc65899dc"},"vehicle_type_id":"4","last_reported":1712509604,"current_range_meters":0,"station_id":"ce4bgth2rcd13ifvqch0","pricing_plan_id":"cebpf4jnsgd1na2vs0mg"},{"bike_id":"1894fd2b-2246-4967-be3d-ff9d3155a3a8","system_id":"levelo_inurba_marseille","lat":43.303117,"lon":5.36902,"is_reserved":false,"is_disabled":false,"rental_uris":{"android":"levelo://app?vid=1894fd2b-2246-4967-be3d-ff9d3155a3a8","ios":"levelo://app?vid=1894fd2b-2246-4967-be3d-ff9d3155a3a8"},"vehicle_type_id":"4","last_reported":1712509604,"current_range_meters":0,"station_id":"ce4bgqh2rcd13ifvqc5g","pricing_plan_id":"cebpf4jnsgd1na2vs0mg"},{"bike_id":"449a0696-801d-493a-9264-b3c75d54c57d","system_id":"levelo_inurba_marseille","lat":43.301939,"lon":5.366286,"is_reserved":false,"is_disabled":false,"rental_uris":{"android":"levelo://app?vid=449a0696-801d-493a-9264-b3c75d54c57d","ios":"levelo://app?vid=449a0696-801d-493a-9264-b3c75d54c57d"},"vehicle_type_id":"4","last_reported":1712509604,"current_range_meters":12800,"station_id":"ce4bgrh2rcd13ifvqc8g","pricing_plan_id":"cebpf4jnsgd1na2vs0mg"},{"bike_id":"665a9561-06bd-4fa6-b661-58f91351a430","system_id":"levelo_inurba_marseille","lat":43.308012,"lon":5.381511,"is_reserved":false,"is_disabled":false,"rental_uris":{"android":"levelo://app?vid=665a9561-06bd-4fa6-b661-58f91351a430","ios":"levelo://app?vid=665a9561-06bd-4fa6-b661-58f91351a430"},"vehicle_type_id":"4","last_reported":1712509604,"current_range_meters":0,"station_id":"ce4bgt12rcd13ifvqce0","pricing_plan_id":"cebpf4jnsgd1na2vs0mg"},{"bike_id":"6defec3d-17c5-4d1f-9c8a-e727dc0a22a3","system_id":"levelo_inurba_marseille","lat":43.308012,"lon":5.381511,"is_reserved":false,"is_disabled":false,"rental_uris":{"android":"levelo://app?vid=6defec3d-17c5-4d1f-9c8a-e727dc0a22a3","ios":"levelo://app?vid=6defec3d-17c5-4d1f-9c8a-e727dc0a22a3"},"vehicle_type_id":"4","last_reported":1712509604,"current_range_meters":2400,"station_id":"ce4bgt12rcd13ifvqce0","pricing_plan_id":"cebpf4jnsgd1na2vs0mg"},{"bike_id":"bfbf2eec-2571-4bb5-ae46-776b32419774","system_id":"levelo_inurba_marseille","lat":43.30474,"lon":5.378937,"is_reserved":false,"is_disabled":false,"rental_uris":{"android":"levelo://app?vid=bfbf2eec-2571-4bb5-ae46-776b32419774","ios":"levelo://app?vid=bfbf2eec-2571-4bb5-ae46-776b32419774"},"vehicle_type_id":"4","last_reported":1712509604,"current_range_meters":0,"station_id":"ce4bgup2rcd13ifvqcn0","pricing_plan_id":"cebpf4jnsgd1na2vs0mg"},{"bike_id":"cc2d517d-a851-48ca-82f6-b566ab813a07","system_id":"levelo_inurba_marseille","lat":43.30206,"lon":5.37405,"is_reserved":false,"is_disabled":false,"rental_uris":{"android":"levelo://app?vid=cc2d517d-a851-48ca-82f6-b566ab813a07","ios":"levelo://app?vid=cc2d517d-a851-48ca-82f6-b566ab813a07"},"vehicle_type_id":"4","last_reported":1712509604,"current_range_meters":14400,"station_id":"","pricing_plan_id":"cebpf4jnsgd1na2vs0mg"},{"bike_id":"60c10bf1-ac0f-4dd5-a8e3-f6ac2835c879","system_id":"levelo_inurba_marseille","lat":43.324771,"lon":5.36557,"is_reserved":false,"is_disabled":false,"rental_uris":{"android":"levelo://app?vid=60c10bf1-ac0f-4dd5-a8e3-f6ac2835c879","ios":"levelo://app?vid=60c10bf1-ac0f-4dd5-a8e3-f6ac2835c879"},"vehicle_type_id":"4","last_reported":1712509604,"current_range_meters":16000,"station_id":"ce4bhs12rcd13ifvqhvg","pricing_plan_id":"cebpf4jnsgd1na2vs0mg"},{"bike_id":"e6035d71-8503-434d-bb90-f3a421a327d6","system_id":"levelo_inurba_marseille","lat":43.32481,"lon":5.36572,"is_reserved":false,"is_disabled":false,"rental_uris":{"android":"levelo://app?vid=e6035d71-8503-434d-bb90-f3a421a327d6","ios":"levelo://app?vid=e6035d71-8503-434d-bb90-f3a421a327d6"},"vehicle_type_id":"4","last_reported":1712509604,"current_range_meters":0,"station_id":"ce4bhs12rcd13ifvqhvg","pricing_plan_id":"cebpf4jnsgd1na2vs0mg"},{"bike_id":"a11b2f00-3d6f-436e-90f7-3ee3fc6b61dd","system_id":"levelo_inurba_marseille","lat":43.324771,"lon":5.36557,"is_reserved":false,"is_disabled":false,"rental_uris":{"android":"levelo://app?vid=a11b2f00-3d6f-436e-90f7-3ee3fc6b61dd","ios":"levelo://app?vid=a11b2f00-3d6f-436e-90f7-3ee3fc6b61dd"},"vehicle_type_id":"4","last_reported":1712509604,"current_range_meters":1200,"station_id":"ce4bhs12rcd13ifvqhvg","pricing_plan_id":"cebpf4jnsgd1na2vs0mg"},{"bike_id":"fa623477-b29c-411d-b820-8ca431856501","system_id":"levelo_inurba_marseille","lat":43.30292,"lon":5.37686,"is_reserved":false,"is_disabled":false,"rental_uris":{"android":"levelo://app?vid=fa623477-b29c-411d-b820-8ca431856501","ios":"levelo://app?vid=fa623477-b29c-411d-b820-8ca431856501"},"vehicle_type_id":"4","last_reported":1712509604,"current_range_meters":10000,"station_id":"ce4bguh2rcd13ifvqcj0","pricing_plan_id":"cebpf4jnsgd1na2vs0mg"},{"bike_id":"351ef304-819a-4c89-9df9-808dcd680133","system_id":"levelo_inurba_marseille","lat":43.310804,"lon":5.38359,"is_reserved":false,"is_disabled":false,"rental_uris":{"android":"levelo://app?vid=351ef304-819a-4c89-9df9-808dcd680133","ios":"levelo://app?vid=351ef304-819a-4c89-9df9-808dcd680133"},"vehicle_type_id":"4","last_reported":1712509604,"current_range_meters":20800,"station_id":"ce4bgv92rcd13ifvqcr0","pricing_plan_id":"cebpf4jnsgd1na2vs0mg"},{"bike_id":"6724a062-823a-4278-8e14-1714aada2097","system_id":"levelo_inurba_marseille","lat":43.310804,"lon":5.38359,"is_reserved":false,"is_disabled":false,"rental_uris":{"android":"levelo://app?vid=6724a062-823a-4278-8e14-1714aada2097","ios":"levelo://app?vid=6724a062-823a-4278-8e14-1714aada2097"},"vehicle_type_id":"4","last_reported":1712509604,"current_range_meters":0,"station_id":"ce4bgv92rcd13ifvqcr0","pricing_plan_id":"cebpf4jnsgd1na2vs0mg"},{"bike_id":"ee67c782-ada8-4f1b-9e43-959ad4e0103a","system_id":"levelo_inurba_marseille","lat":43.30151,"lon":5.37409,"is_reserved":false,"is_disabled":false,"rental_uris":{"android":"levelo://app?vid=ee67c782-ada8-4f1b-9e43-959ad4e0103a","ios":"levelo://app?vid=ee67c782-ada8-4f1b-9e43-959ad4e0103a"},"vehicle_type_id":"4","last_reported":1712509604,"current_range_meters":0,"station_id":"ce4bgs92rcd13ifvqcc0","pricing_plan_id":"cebpf4jnsgd1na2vs0mg"},{"bike_id":"72adab14-0448-4dcc-8cd2-aa9fa66d722f","system_id":"levelo_inurba_marseille","lat":43.30275,"lon":5.37709,"is_reserved":false,"is_disabled":false,"rental_uris":{"android":"levelo://app?vid=72adab14-0448-4dcc-8cd2-aa9fa66d722f","ios":"levelo://app?vid=72adab14-0448-4dcc-8cd2-aa9fa66d722f"},"vehicle_type_id":"4","last_reported":1712509604,"current_range_meters":0,"station_id":"ce4bguh2rcd13ifvqcj0","pricing_plan_id":"cebpf4jnsgd1na2vs0mg"},{"bike_id":"95553a32-3df6-4220-877f-ffebcba121c9","system_id":"levelo_inurba_marseille","lat":43.31996,"lon":5.38163,"is_reserved":false,"is_disabled":false,"rental_uris":{"android":"levelo://app?vid=95553a32-3df6-4220-877f-ffebcba121c9","ios":"levelo://app?vid=95553a32-3df6-4220-877f-ffebcba121c9"},"vehicle_type_id":"4","last_reported":1712509604,"current_range_meters":12400,"station_id":"ce4bhr12rcd13ifvqhpg","pricing_plan_id":"cebpf4jnsgd1na2vs0mg"},{"bike_id":"6cf8c27a-5d0e-4026-8cef-99cad1e474c8","system_id":"levelo_inurba_marseille","lat":43.320085,"lon":5.381675,"is_reserved":false,"is_disabled":false,"rental_uris":{"android":"levelo://app?vid=6cf8c27a-5d0e-4026-8cef-99cad1e474c8","ios":"levelo://app?vid=6cf8c27a-5d0e-4026-8cef-99cad1e474c8"},"vehicle_type_id":"4","last_reported":1712509604,"current_range_meters":13200,"station_id":"ce4bhr12rcd13ifvqhpg","pricing_plan_id":"cebpf4jnsgd1na2vs0mg"},{"bike_id":"fb63f5cb-be6a-45e5-a788-fa1dfecc14f7","system_id":"levelo_inurba_marseille","lat":43.313571,"lon":5.384829,"is_reserved":false,"is_disabled":false,"rental_uris":{"android":"levelo://app?vid=fb63f5cb-be6a-45e5-a788-fa1dfecc14f7","ios":"levelo://app?vid=fb63f5cb-be6a-45e5-a788-fa1dfecc14f7"},"vehicle_type_id":"4","last_reported":1712509604,"current_range_meters":19200,"station_id":"ce4bgt92rcd13ifvqcf0","pricing_plan_id":"cebpf4jnsgd1na2vs0mg"},{"bike_id":"9566745a-a76b-4c62-9217-20e6dcde3502","system_id":"levelo_inurba_marseille","lat":43.313571,"lon":5.384829,"is_reserved":false,"is_disabled":false,"rental_uris":{"android":"levelo://app?vid=9566745a-a76b-4c62-9217-20e6dcde3502","ios":"levelo://app?vid=9566745a-a76b-4c62-9217-20e6dcde3502"},"vehicle_type_id":"4","last_reported":1712509604,"current_range_meters":3200,"station_id":"ce4bgt92rcd13ifvqcf0","pricing_plan_id":"cebpf4jnsgd1na2vs0mg"},{"bike_id":"c8ae1186-61fb-4c31-a127-8a7f3be3f837","system_id":"levelo_inurba_marseille","lat":43.313571,"lon":5.384829,"is_reserved":false,"is_disabled":false,"rental_uris":{"android":"levelo://app?vid=c8ae1186-61fb-4c31-a127-8a7f3be3f837","ios":"levelo://app?vid=c8ae1186-61fb-4c31-a127-8a7f3be3f837"},"vehicle_type_id":"4","last_reported":1712509604,"current_range_meters":7200,"station_id":"ce4bgt92rcd13ifvqcf0","pricing_plan_id":"cebpf4jnsgd1na2vs0mg"},{"bike_id":"59646d6d-05b8-480f-863e-7f8e0b4899a3","system_id":"levelo_inurba_marseille","lat":43.313571,"lon":5.384829,"is_reserved":false,"is_disabled":false,"rental_uris":{"android":"levelo://app?vid=59646d6d-05b8-480f-863e-7f8e0b4899a3","ios":"levelo://app?vid=59646d6d-05b8-480f-863e-7f8e0b4899a3"},"vehicle_type_id":"4","last_reported":1712509604,"current_range_meters":15200,"station_id":"ce4bgt92rcd13ifvqcf0","pricing_plan_id":"cebpf4jnsgd1na2vs0mg"},{"bike_id":"aed8fd42-3f58-4b39-885b-4fa01318b6ac","system_id":"levelo_inurba_marseille","lat":43.299724,"lon":5.371829,"is_reserved":false,"is_disabled":false,"rental_uris":{"android":"levelo://app?vid=aed8fd42-3f58-4b39-885b-4fa01318b6ac","ios":"levelo://app?vid=aed8fd42-3f58-4b39-885b-4fa01318b6ac"},"vehicle_type_id":"4","last_reported":1712509604,"current_range_meters":0,"station_id":"ce4bgr92rcd13ifvqc7g","pricing_plan_id":"cebpf4jnsgd1na2vs0mg"},{"bike_id":"b6de8d01-27d6-496c-ba88-6dedd4613851","system_id":"levelo_inurba_marseille","lat":43.305994,"lon":5.393687,"is_reserved":false,"is_disabled":false,"rental_uris":{"android":"levelo://app?vid=b6de8d01-27d6-496c-ba88-6dedd4613851","ios":"levelo://app?vid=b6de8d01-27d6-496c-ba88-6dedd4613851"},"vehicle_type_id":"4","last_reported":1712509604,"current_range_meters":1200,"station_id":"ce4bh0p2rcd13ifvqd80","pricing_plan_id":"cebpf4jnsgd1na2vs0mg"},{"bike_id":"5ab31bec-d5c0-4e58-b15f-615995541f41","system_id":"levelo_inurba_marseille","lat":43.299222,"lon":5.365554,"is_reserved":false,"is_disabled":false,"rental_uris":{"android":"levelo://app?vid=5ab31bec-d5c0-4e58-b15f-615995541f41","ios":"levelo://app?vid=5ab31bec-d5c0-4e58-b15f-615995541f41"},"vehicle_type_id":"4","last_reported":1712509604,"current_range_meters":6000,"station_id":"ce4bgm92rcd13ifvqbr0","pricing_plan_id":"cebpf4jnsgd1na2vs0mg"},{"bike_id":"0c7a3a7e-f64b-4820-8855-908432b84604","system_id":"levelo_inurba_marseille","lat":43.298433,"lon":5.362774,"is_reserved":false,"is_disabled":false,"rental_uris":{"android":"levelo://app?vid=0c7a3a7e-f64b-4820-8855-908432b84604","ios":"levelo://app?vid=0c7a3a7e-f64b-4820-8855-908432b84604"},"vehicle_type_id":"4","last_reported":1712509604,"current_range_meters":6400,"station_id":"ce4bgpp2rcd13ifvqc3g","pricing_plan_id":"cebpf4jnsgd1na2vs0mg"},{"bike_id":"66f167e6-6914-4fa9-bb6f-742e9e24bf55","system_id":"levelo_inurba_marseille","lat":43.29847,"lon":5.36285,"is_reserved":false,"is_disabled":false,"rental_uris":{"android":"levelo://app?vid=66f167e6-6914-4fa9-bb6f-742e9e24bf55","ios":"levelo://app?vid=66f167e6-6914-4fa9-bb6f-742e9e24bf55"},"vehicle_type_id":"4","last_reported":1712509604,"current_range_meters":8400,"station_id":"ce4bgpp2rcd13ifvqc3g","pricing_plan_id":"cebpf4jnsgd1na2vs0mg"},{"bike_id":"41e111b6-5bcd-4dce-8a1c-c413b08a105e","system_id":"levelo_inurba_marseille","lat":43.298433,"lon":5.362774,"is_reserved":false,"is_disabled":false,"rental_uris":{"android":"levelo://app?vid=41e111b6-5bcd-4dce-8a1c-c413b08a105e","ios":"levelo://app?vid=41e111b6-5bcd-4dce-8a1c-c413b08a105e"},"vehicle_type_id":"4","last_reported":1712509604,"current_range_meters":2400,"station_id":"ce4bgpp2rcd13ifvqc3g","pricing_plan_id":"cebpf4jnsgd1na2vs0mg"},{"bike_id":"0868a7e9-e817-4f82-91c9-6cfba66f6aff","system_id":"levelo_inurba_marseille","lat":43.298433,"lon":5.362774,"is_reserved":false,"is_disabled":false,"rental_uris":{"android":"levelo://app?vid=0868a7e9-e817-4f82-91c9-6cfba66f6aff","ios":"levelo://app?vid=0868a7e9-e817-4f82-91c9-6cfba66f6aff"},"vehicle_type_id":"4","last_reported":1712509604,"current_range_meters":19200,"station_id":"ce4bgpp2rcd13ifvqc3g","pricing_plan_id":"cebpf4jnsgd1na2vs0mg"},{"bike_id":"6a205652-82c7-4a78-99a7-32af881aa7e4","system_id":"levelo_inurba_marseille","lat":43.311722,"lon":5.387247,"is_reserved":false,"is_disabled":false,"rental_uris":{"android":"levelo://app?vid=6a205652-82c7-4a78-99a7-32af881aa7e4","ios":"levelo://app?vid=6a205652-82c7-4a78-99a7-32af881aa7e4"},"vehicle_type_id":"4","last_reported":1712509604,"current_range_meters":18000,"station_id":"ce4bgv12rcd13ifvqcp0","pricing_plan_id":"cebpf4jnsgd1na2vs0mg"},{"bike_id":"9886dbb5-17f2-486e-8b0d-f0be671bbcdf","system_id":"levelo_inurba_marseille","lat":43.311722,"lon":5.387247,"is_reserved":false,"is_disabled":false,"rental_uris":{"android":"levelo://app?vid=9886dbb5-17f2-486e-8b0d-f0be671bbcdf","ios":"levelo://app?vid=9886dbb5-17f2-486e-8b0d-f0be671bbcdf"},"vehicle_type_id":"4","last_reported":1712509604,"current_range_meters":11600,"station_id":"ce4bgv12rcd13ifvqcp0","pricing_plan_id":"cebpf4jnsgd1na2vs0mg"},{"bike_id":"2114b5cc-fe7a-467f-80c0-10e5cfdca3cc","system_id":"levelo_inurba_marseille","lat":43.297794,"lon":5.370888,"is_reserved":false,"is_disabled":false,"rental_uris":{"android":"levelo://app?vid=2114b5cc-fe7a-467f-80c0-10e5cfdca3cc","ios":"levelo://app?vid=2114b5cc-fe7a-467f-80c0-10e5cfdca3cc"},"vehicle_type_id":"4","last_reported":1712509604,"current_range_meters":25600,"station_id":"ce4bgop2rcd13ifvqc1g","pricing_plan_id":"cebpf4jnsgd1na2vs0mg"},{"bike_id":"79a09dc1-a136-4553-b035-ca9b20a658e5","system_id":"levelo_inurba_marseille","lat":43.30181,"lon":5.3818,"is_reserved":false,"is_disabled":false,"rental_uris":{"android":"levelo://app?vid=79a09dc1-a136-4553-b035-ca9b20a658e5","ios":"levelo://app?vid=79a09dc1-a136-4553-b035-ca9b20a658e5"},"vehicle_type_id":"4","last_reported":1712509604,"current_range_meters":4800,"station_id":"","pricing_plan_id":"cebpf4jnsgd1na2vs0mg"},{"bike_id":"72f404e6-43d4-42a0-bbbd-431e04a86845","system_id":"levelo_inurba_marseille","lat":43.322872,"lon":5.382756,"is_reserved":false,"is_disabled":false,"rental_uris":{"android":"levelo://app?vid=72f404e6-43d4-42a0-bbbd-431e04a86845","ios":"levelo://app?vid=72f404e6-43d4-42a0-bbbd-431e04a86845"},"vehicle_type_id":"4","last_reported":1712509604,"current_range_meters":21600,"station_id":"ce4bhr12rcd13ifvqhqg","pricing_plan_id":"cebpf4jnsgd1na2vs0mg"},{"bike_id":"99b4d3fa-8b1c-4707-bb1c-c93643a94b11","system_id":"levelo_inurba_marseille","lat":43.322872,"lon":5.382756,"is_reserved":false,"is_disabled":false,"rental_uris":{"android":"levelo://app?vid=99b4d3fa-8b1c-4707-bb1c-c93643a94b11","ios":"levelo://app?vid=99b4d3fa-8b1c-4707-bb1c-c93643a94b11"},"vehicle_type_id":"4","last_reported":1712509604,"current_range_meters":14800,"station_id":"ce4bhr12rcd13ifvqhqg","pricing_plan_id":"cebpf4jnsgd1na2vs0mg"},{"bike_id":"2d938d25-1306-45f9-ae26-0c2437731209","system_id":"levelo_inurba_marseille","lat":43.297163,"lon":5.365866,"is_reserved":false,"is_disabled":false,"rental_uris":{"android":"levelo://app?vid=2d938d25-1306-45f9-ae26-0c2437731209","ios":"levelo://app?vid=2d938d25-1306-45f9-ae26-0c2437731209"},"vehicle_type_id":"4","last_reported":1712509604,"current_range_meters":0,"station_id":"ce4bgn12rcd13ifvqbt0","pricing_plan_id":"cebpf4jnsgd1na2vs0mg"},{"bike_id":"986f9be3-3fc2-49cf-b9bd-7313a84122bb","system_id":"levelo_inurba_marseille","lat":43.297163,"lon":5.365866,"is_reserved":false,"is_disabled":false,"rental_uris":{"android":"levelo://app?vid=986f9be3-3fc2-49cf-b9bd-7313a84122bb","ios":"levelo://app?vid=986f9be3-3fc2-49cf-b9bd-7313a84122bb"},"vehicle_type_id":"4","last_reported":1712509604,"current_range_meters":2800,"station_id":"ce4bgn12rcd13ifvqbt0","pricing_plan_id":"cebpf4jnsgd1na2vs0mg"},{"bike_id":"f4dca71d-87f0-45be-ad15-1ef103e398c2","system_id":"levelo_inurba_marseille","lat":43.3126,"lon":5.38932,"is_reserved":false,"is_disabled":false,"rental_uris":{"android":"levelo://app?vid=f4dca71d-87f0-45be-ad15-1ef103e398c2","ios":"levelo://app?vid=f4dca71d-87f0-45be-ad15-1ef103e398c2"},"vehicle_type_id":"4","last_reported":1712509604,"current_range_meters":22400,"station_id":"","pricing_plan_id":"cebpf4jnsgd1na2vs0mg"},{"bike_id":"376dbd41-28d7-448b-972c-554ff2935b00","system_id":"levelo_inurba_marseille","lat":43.29654,"lon":5.37018,"is_reserved":false,"is_disabled":false,"rental_uris":{"android":"levelo://app?vid=376dbd41-28d7-448b-972c-554ff2935b00","ios":"levelo://app?vid=376dbd41-28d7-448b-972c-554ff2935b00"},"vehicle_type_id":"4","last_reported":1712509604,"current_range_meters":0,"station_id":"","pricing_plan_id":"cebpf4jnsgd1na2vs0mg"},{"bike_id":"0dc17a37-f1f2-449f-8acb-e875c917e044","system_id":"levelo_inurba_marseille","lat":43.31268,"lon":5.38946,"is_reserved":false,"is_disabled":false,"rental_uris":{"android":"levelo://app?vid=0dc17a37-f1f2-449f-8acb-e875c917e044","ios":"levelo://app?vid=0dc17a37-f1f2-449f-8acb-e875c917e044"},"vehicle_type_id":"4","last_reported":1712509604,"current_range_meters":15600,"station_id":"","pricing_plan_id":"cebpf4jnsgd1na2vs0mg"},{"bike_id":"011c1b4e-9966-4a21-8a42-07128396cd26","system_id":"levelo_inurba_marseille","lat":43.2968,"lon":5.37291,"is_reserved":false,"is_disabled":false,"rental_uris":{"android":"levelo://app?vid=011c1b4e-9966-4a21-8a42-07128396cd26","ios":"levelo://app?vid=011c1b4e-9966-4a21-8a42-07128396cd26"},"vehicle_type_id":"4","last_reported":1712509604,"current_range_meters":25200,"station_id":"ce4bgk12rcd13ifvqbj0","pricing_plan_id":"cebpf4jnsgd1na2vs0mg"},{"bike_id":"8ec9090d-c793-46f9-b48a-37bdbe727bbb","system_id":"levelo_inurba_marseille","lat":43.29573,"lon":5.367355,"is_reserved":false,"is_disabled":false,"rental_uris":{"android":"levelo://app?vid=8ec9090d-c793-46f9-b48a-37bdbe727bbb","ios":"levelo://app?vid=8ec9090d-c793-46f9-b48a-37bdbe727bbb"},"vehicle_type_id":"4","last_reported":1712509604,"current_range_meters":12800,"station_id":"ce4bgph2rcd13ifvqc2g","pricing_plan_id":"cebpf4jnsgd1na2vs0mg"},{"bike_id":"102bac93-7477-44ee-a3a1-f4b6ddeb80e6","system_id":"levelo_inurba_marseille","lat":43.29573,"lon":5.367355,"is_reserved":false,"is_disabled":false,"rental_uris":{"android":"levelo://app?vid=102bac93-7477-44ee-a3a1-f4b6ddeb80e6","ios":"levelo://app?vid=102bac93-7477-44ee-a3a1-f4b6ddeb80e6"},"vehicle_type_id":"4","last_reported":1712509604,"current_range_meters":6400,"station_id":"ce4bgph2rcd13ifvqc2g","pricing_plan_id":"cebpf4jnsgd1na2vs0mg"},{"bike_id":"8d45ff69-34ad-43fc-a123-c45634186e01","system_id":"levelo_inurba_marseille","lat":43.29573,"lon":5.367355,"is_reserved":false,"is_disabled":false,"rental_uris":{"android":"levelo://app?vid=8d45ff69-34ad-43fc-a123-c45634186e01","ios":"levelo://app?vid=8d45ff69-34ad-43fc-a123-c45634186e01"},"vehicle_type_id":"4","last_reported":1712509604,"current_range_meters":0,"station_id":"ce4bgph2rcd13ifvqc2g","pricing_plan_id":"cebpf4jnsgd1na2vs0mg"},{"bike_id":"75a6a2e3-384e-4cce-90d9-eb3c4bfb9853","system_id":"levelo_inurba_marseille","lat":43.296921,"lon":5.376579,"is_reserved":false,"is_disabled":false,"rental_uris":{"android":"levelo://app?vid=75a6a2e3-384e-4cce-90d9-eb3c4bfb9853","ios":"levelo://app?vid=75a6a2e3-384e-4cce-90d9-eb3c4bfb9853"},"vehicle_type_id":"4","last_reported":1712509604,"current_range_meters":16800,"station_id":"ce4bgkh2rcd13ifvqbl0","pricing_plan_id":"cebpf4jnsgd1na2vs0mg"},{"bike_id":"681ccfcf-f27d-4c53-be43-36016ea88cf2","system_id":"levelo_inurba_marseille","lat":43.298681,"lon":5.397225,"is_reserved":false,"is_disabled":false,"rental_uris":{"android":"levelo://app?vid=681ccfcf-f27d-4c53-be43-36016ea88cf2","ios":"levelo://app?vid=681ccfcf-f27d-4c53-be43-36016ea88cf2"},"vehicle_type_id":"4","last_reported":1712509604,"current_range_meters":25600,"station_id":"ce4bh0h2rcd13ifvqd50","pricing_plan_id":"cebpf4jnsgd1na2vs0mg"},{"bike_id":"f68512b6-de87-457c-b36d-777c307eab6b","system_id":"levelo_inurba_marseille","lat":43.309589,"lon":5.390258,"is_reserved":false,"is_disabled":false,"rental_uris":{"android":"levelo://app?vid=f68512b6-de87-457c-b36d-777c307eab6b","ios":"levelo://app?vid=f68512b6-de87-457c-b36d-777c307eab6b"},"vehicle_type_id":"4","last_reported":1712509604,"current_range_meters":4400,"station_id":"ce4bgup2rcd13ifvqco0","pricing_plan_id":"cebpf4jnsgd1na2vs0mg"},{"bike_id":"2a9444d6-0a7e-44ae-b594-9978c5f2ae68","system_id":"levelo_inurba_marseille","lat":43.30948,"lon":5.39024,"is_reserved":false,"is_disabled":false,"rental_uris":{"android":"levelo://app?vid=2a9444d6-0a7e-44ae-b594-9978c5f2ae68","ios":"levelo://app?vid=2a9444d6-0a7e-44ae-b594-9978c5f2ae68"},"vehicle_type_id":"4","last_reported":1712509604,"current_range_meters":16800,"station_id":"ce4bgup2rcd13ifvqco0","pricing_plan_id":"cebpf4jnsgd1na2vs0mg"},{"bike_id":"1dd8cb83-52a4-4143-9182-1291aeb505b3","system_id":"levelo_inurba_marseille","lat":43.309589,"lon":5.390258,"is_reserved":false,"is_disabled":false,"rental_uris":{"android":"levelo://app?vid=1dd8cb83-52a4-4143-9182-1291aeb505b3","ios":"levelo://app?vid=1dd8cb83-52a4-4143-9182-1291aeb505b3"},"vehicle_type_id":"4","last_reported":1712509604,"current_range_meters":5600,"station_id":"ce4bgup2rcd13ifvqco0","pricing_plan_id":"cebpf4jnsgd1na2vs0mg"},{"bike_id":"31d54591-9fbb-4ad3-8596-bca484b9ee2a","system_id":"levelo_inurba_marseille","lat":43.299044,"lon":5.381405,"is_reserved":false,"is_disabled":false,"rental_uris":{"android":"levelo://app?vid=31d54591-9fbb-4ad3-8596-bca484b9ee2a","ios":"levelo://app?vid=31d54591-9fbb-4ad3-8596-bca484b9ee2a"},"vehicle_type_id":"4","last_reported":1712509604,"current_range_meters":0,"station_id":"ce4bgj12rcd13ifvqbc0","pricing_plan_id":"cebpf4jnsgd1na2vs0mg"},{"bike_id":"459cff86-8c82-4901-8c11-dfbf8d1910d7","system_id":"levelo_inurba_marseille","lat":43.309589,"lon":5.390258,"is_reserved":false,"is_disabled":false,"rental_uris":{"android":"levelo://app?vid=459cff86-8c82-4901-8c11-dfbf8d1910d7","ios":"levelo://app?vid=459cff86-8c82-4901-8c11-dfbf8d1910d7"},"vehicle_type_id":"4","last_reported":1712509604,"current_range_meters":0,"station_id":"ce4bgup2rcd13ifvqco0","pricing_plan_id":"cebpf4jnsgd1na2vs0mg"},{"bike_id":"6f529189-158c-449e-9ed5-60695a8b4811","system_id":"levelo_inurba_marseille","lat":43.309589,"lon":5.390258,"is_reserved":false,"is_disabled":false,"rental_uris":{"android":"levelo://app?vid=6f529189-158c-449e-9ed5-60695a8b4811","ios":"levelo://app?vid=6f529189-158c-449e-9ed5-60695a8b4811"},"vehicle_type_id":"4","last_reported":1712509604,"current_range_meters":17600,"station_id":"ce4bgup2rcd13ifvqco0","pricing_plan_id":"cebpf4jnsgd1na2vs0mg"},{"bike_id":"13c9940a-cb4b-4662-99c1-d289bc9e557a","system_id":"levelo_inurba_marseille","lat":43.309589,"lon":5.390258,"is_reserved":false,"is_disabled":false,"rental_uris":{"android":"levelo://app?vid=13c9940a-cb4b-4662-99c1-d289bc9e557a","ios":"levelo://app?vid=13c9940a-cb4b-4662-99c1-d289bc9e557a"},"vehicle_type_id":"4","last_reported":1712509604,"current_range_meters":14000,"station_id":"ce4bgup2rcd13ifvqco0","pricing_plan_id":"cebpf4jnsgd1na2vs0mg"},{"bike_id":"1fa4faed-f7f4-45f6-aeb3-51763d2f2ef4","system_id":"levelo_inurba_marseille","lat":43.309589,"lon":5.390258,"is_reserved":false,"is_disabled":false,"rental_uris":{"android":"levelo://app?vid=1fa4faed-f7f4-45f6-aeb3-51763d2f2ef4","ios":"levelo://app?vid=1fa4faed-f7f4-45f6-aeb3-51763d2f2ef4"},"vehicle_type_id":"4","last_reported":1712509604,"current_range_meters":6400,"station_id":"ce4bgup2rcd13ifvqco0","pricing_plan_id":"cebpf4jnsgd1na2vs0mg"},{"bike_id":"e3ed30ed-88f3-4fe4-aabe-2bd0cf666c63","system_id":"levelo_inurba_marseille","lat":43.309589,"lon":5.390258,"is_reserved":false,"is_disabled":false,"rental_uris":{"android":"levelo://app?vid=e3ed30ed-88f3-4fe4-aabe-2bd0cf666c63","ios":"levelo://app?vid=e3ed30ed-88f3-4fe4-aabe-2bd0cf666c63"},"vehicle_type_id":"4","last_reported":1712509604,"current_range_meters":18400,"station_id":"ce4bgup2rcd13ifvqco0","pricing_plan_id":"cebpf4jnsgd1na2vs0mg"},{"bike_id":"b9c50ce4-23ed-410b-867d-b44ac82b3d10","system_id":"levelo_inurba_marseille","lat":43.309589,"lon":5.390258,"is_reserved":false,"is_disabled":false,"rental_uris":{"android":"levelo://app?vid=b9c50ce4-23ed-410b-867d-b44ac82b3d10","ios":"levelo://app?vid=b9c50ce4-23ed-410b-867d-b44ac82b3d10"},"vehicle_type_id":"4","last_reported":1712509604,"current_range_meters":3200,"station_id":"ce4bgup2rcd13ifvqco0","pricing_plan_id":"cebpf4jnsgd1na2vs0mg"},{"bike_id":"f0a8df23-0479-4fa0-8668-bbcca8464c10","system_id":"levelo_inurba_marseille","lat":43.309589,"lon":5.390258,"is_reserved":false,"is_disabled":false,"rental_uris":{"android":"levelo://app?vid=f0a8df23-0479-4fa0-8668-bbcca8464c10","ios":"levelo://app?vid=f0a8df23-0479-4fa0-8668-bbcca8464c10"},"vehicle_type_id":"4","last_reported":1712509604,"current_range_meters":5200,"station_id":"ce4bgup2rcd13ifvqco0","pricing_plan_id":"cebpf4jnsgd1na2vs0mg"},{"bike_id":"5a444f08-63ae-4081-82d7-f0b283a50237","system_id":"levelo_inurba_marseille","lat":43.309589,"lon":5.390258,"is_reserved":false,"is_disabled":false,"rental_uris":{"android":"levelo://app?vid=5a444f08-63ae-4081-82d7-f0b283a50237","ios":"levelo://app?vid=5a444f08-63ae-4081-82d7-f0b283a50237"},"vehicle_type_id":"4","last_reported":1712509604,"current_range_meters":8400,"station_id":"ce4bgup2rcd13ifvqco0","pricing_plan_id":"cebpf4jnsgd1na2vs0mg"},{"bike_id":"76bcaac9-6860-4eff-bf6b-2c314ab08bd5","system_id":"levelo_inurba_marseille","lat":43.298125,"lon":5.380865,"is_reserved":false,"is_disabled":false,"rental_uris":{"android":"levelo://app?vid=76bcaac9-6860-4eff-bf6b-2c314ab08bd5","ios":"levelo://app?vid=76bcaac9-6860-4eff-bf6b-2c314ab08bd5"},"vehicle_type_id":"4","last_reported":1712509604,"current_range_meters":0,"station_id":"ce4bgip2rcd13ifvqbb0","pricing_plan_id":"cebpf4jnsgd1na2vs0mg"},{"bike_id":"50105ca2-01b3-4b4d-b53a-02c53c7ee6a5","system_id":"levelo_inurba_marseille","lat":43.299717,"lon":5.384845,"is_reserved":false,"is_disabled":false,"rental_uris":{"android":"levelo://app?vid=50105ca2-01b3-4b4d-b53a-02c53c7ee6a5","ios":"levelo://app?vid=50105ca2-01b3-4b4d-b53a-02c53c7ee6a5"},"vehicle_type_id":"4","last_reported":1712509604,"current_range_meters":0,"station_id":"ce4bgj92rcd13ifvqbd0","pricing_plan_id":"cebpf4jnsgd1na2vs0mg"},{"bike_id":"808d0d92-4858-48f5-a446-b96f5d57c07e","system_id":"levelo_inurba_marseille","lat":43.298037,"lon":5.381066,"is_reserved":false,"is_disabled":false,"rental_uris":{"android":"levelo://app?vid=808d0d92-4858-48f5-a446-b96f5d57c07e","ios":"levelo://app?vid=808d0d92-4858-48f5-a446-b96f5d57c07e"},"vehicle_type_id":"4","last_reported":1712509604,"current_range_meters":0,"station_id":"ce4bgip2rcd13ifvqbb0","pricing_plan_id":"cebpf4jnsgd1na2vs0mg"},{"bike_id":"2e1381ce-d26e-4d45-8f0c-ef3673850d87","system_id":"levelo_inurba_marseille","lat":43.309589,"lon":5.390258,"is_reserved":false,"is_disabled":false,"rental_uris":{"android":"levelo://app?vid=2e1381ce-d26e-4d45-8f0c-ef3673850d87","ios":"levelo://app?vid=2e1381ce-d26e-4d45-8f0c-ef3673850d87"},"vehicle_type_id":"4","last_reported":1712509604,"current_range_meters":0,"station_id":"ce4bgup2rcd13ifvqco0","pricing_plan_id":"cebpf4jnsgd1na2vs0mg"},{"bike_id":"1ea8bf4e-d2f8-4811-8cbd-783779cd5e24","system_id":"levelo_inurba_marseille","lat":43.304274,"lon":5.388873,"is_reserved":false,"is_disabled":false,"rental_uris":{"android":"levelo://app?vid=1ea8bf4e-d2f8-4811-8cbd-783779cd5e24","ios":"levelo://app?vid=1ea8bf4e-d2f8-4811-8cbd-783779cd5e24"},"vehicle_type_id":"4","last_reported":1712509604,"current_range_meters":4800,"station_id":"ce4bgk12rcd13ifvqbi0","pricing_plan_id":"cebpf4jnsgd1na2vs0mg"},{"bike_id":"87ee824d-011c-4d35-ae36-06b4e8e88998","system_id":"levelo_inurba_marseille","lat":43.304278,"lon":5.388868,"is_reserved":false,"is_disabled":false,"rental_uris":{"android":"levelo://app?vid=87ee824d-011c-4d35-ae36-06b4e8e88998","ios":"levelo://app?vid=87ee824d-011c-4d35-ae36-06b4e8e88998"},"vehicle_type_id":"4","last_reported":1712509604,"current_range_meters":2400,"station_id":"ce4bgk12rcd13ifvqbi0","pricing_plan_id":"cebpf4jnsgd1na2vs0mg"},{"bike_id":"7a2e8024-371f-4d91-b893-f5938dc0e05f","system_id":"levelo_inurba_marseille","lat":43.2953,"lon":5.37426,"is_reserved":false,"is_disabled":false,"rental_uris":{"android":"levelo://app?vid=7a2e8024-371f-4d91-b893-f5938dc0e05f","ios":"levelo://app?vid=7a2e8024-371f-4d91-b893-f5938dc0e05f"},"vehicle_type_id":"4","last_reported":1712509604,"current_range_meters":13600,"station_id":"","pricing_plan_id":"cebpf4jnsgd1na2vs0mg"},{"bike_id":"1f5d34f9-d919-4949-bca0-c29a4871290c","system_id":"levelo_inurba_marseille","lat":43.295425,"lon":5.37499,"is_reserved":false,"is_disabled":false,"rental_uris":{"android":"levelo://app?vid=1f5d34f9-d919-4949-bca0-c29a4871290c","ios":"levelo://app?vid=1f5d34f9-d919-4949-bca0-c29a4871290c"},"vehicle_type_id":"4","last_reported":1712509604,"current_range_meters":0,"station_id":"ce4bgkp2rcd13ifvqbmg","pricing_plan_id":"cebpf4jnsgd1na2vs0mg"},{"bike_id":"d254da62-2c2b-4720-8617-f131b29d1d35","system_id":"levelo_inurba_marseille","lat":43.295411,"lon":5.37501,"is_reserved":false,"is_disabled":false,"rental_uris":{"android":"levelo://app?vid=d254da62-2c2b-4720-8617-f131b29d1d35","ios":"levelo://app?vid=d254da62-2c2b-4720-8617-f131b29d1d35"},"vehicle_type_id":"4","last_reported":1712509604,"current_range_meters":0,"station_id":"ce4bgkp2rcd13ifvqbmg","pricing_plan_id":"cebpf4jnsgd1na2vs0mg"},{"bike_id":"682dd5fa-1e8a-4117-85c4-310f34473212","system_id":"levelo_inurba_marseille","lat":43.295279,"lon":5.375048,"is_reserved":false,"is_disabled":false,"rental_uris":{"android":"levelo://app?vid=682dd5fa-1e8a-4117-85c4-310f34473212","ios":"levelo://app?vid=682dd5fa-1e8a-4117-85c4-310f34473212"},"vehicle_type_id":"4","last_reported":1712509604,"current_range_meters":0,"station_id":"ce4bgkp2rcd13ifvqbmg","pricing_plan_id":"cebpf4jnsgd1na2vs0mg"},{"bike_id":"72e4cca9-5fe6-4fcd-bb8a-a83703e13089","system_id":"levelo_inurba_marseille","lat":43.295279,"lon":5.375048,"is_reserved":false,"is_disabled":false,"rental_uris":{"android":"levelo://app?vid=72e4cca9-5fe6-4fcd-bb8a-a83703e13089","ios":"levelo://app?vid=72e4cca9-5fe6-4fcd-bb8a-a83703e13089"},"vehicle_type_id":"4","last_reported":1712509604,"current_range_meters":0,"station_id":"ce4bgkp2rcd13ifvqbmg","pricing_plan_id":"cebpf4jnsgd1na2vs0mg"},{"bike_id":"47f7e75d-cd3e-434e-b220-8f12227e21f1","system_id":"levelo_inurba_marseille","lat":43.299707,"lon":5.384859,"is_reserved":false,"is_disabled":false,"rental_uris":{"android":"levelo://app?vid=47f7e75d-cd3e-434e-b220-8f12227e21f1","ios":"levelo://app?vid=47f7e75d-cd3e-434e-b220-8f12227e21f1"},"vehicle_type_id":"4","last_reported":1712509604,"current_range_meters":0,"station_id":"ce4bgj92rcd13ifvqbd0","pricing_plan_id":"cebpf4jnsgd1na2vs0mg"},{"bike_id":"8612c1b3-5886-4ead-b8b2-150dd76df8bd","system_id":"levelo_inurba_marseille","lat":43.295279,"lon":5.375048,"is_reserved":false,"is_disabled":false,"rental_uris":{"android":"levelo://app?vid=8612c1b3-5886-4ead-b8b2-150dd76df8bd","ios":"levelo://app?vid=8612c1b3-5886-4ead-b8b2-150dd76df8bd"},"vehicle_type_id":"4","last_reported":1712509604,"current_range_meters":0,"station_id":"ce4bgkp2rcd13ifvqbmg","pricing_plan_id":"cebpf4jnsgd1na2vs0mg"},{"bike_id":"91304800-1740-42d4-825e-a5a8489f120e","system_id":"levelo_inurba_marseille","lat":43.299717,"lon":5.384845,"is_reserved":false,"is_disabled":false,"rental_uris":{"android":"levelo://app?vid=91304800-1740-42d4-825e-a5a8489f120e","ios":"levelo://app?vid=91304800-1740-42d4-825e-a5a8489f120e"},"vehicle_type_id":"4","last_reported":1712509604,"current_range_meters":0,"station_id":"ce4bgj92rcd13ifvqbd0","pricing_plan_id":"cebpf4jnsgd1na2vs0mg"},{"bike_id":"ca142e2c-200a-4f1d-a40b-fd8a88ae022f","system_id":"levelo_inurba_marseille","lat":43.299731,"lon":5.385036,"is_reserved":false,"is_disabled":false,"rental_uris":{"android":"levelo://app?vid=ca142e2c-200a-4f1d-a40b-fd8a88ae022f","ios":"levelo://app?vid=ca142e2c-200a-4f1d-a40b-fd8a88ae022f"},"vehicle_type_id":"4","last_reported":1712509604,"current_range_meters":0,"station_id":"ce4bgj92rcd13ifvqbd0","pricing_plan_id":"cebpf4jnsgd1na2vs0mg"},{"bike_id":"4fb559a7-3183-4dae-bcdf-ffead6416356","system_id":"levelo_inurba_marseille","lat":43.299724,"lon":5.384848,"is_reserved":false,"is_disabled":false,"rental_uris":{"android":"levelo://app?vid=4fb559a7-3183-4dae-bcdf-ffead6416356","ios":"levelo://app?vid=4fb559a7-3183-4dae-bcdf-ffead6416356"},"vehicle_type_id":"4","last_reported":1712509604,"current_range_meters":800,"station_id":"ce4bgj92rcd13ifvqbd0","pricing_plan_id":"cebpf4jnsgd1na2vs0mg"},{"bike_id":"97507190-77de-4d99-ba24-935aadcf2344","system_id":"levelo_inurba_marseille","lat":43.299717,"lon":5.384845,"is_reserved":false,"is_disabled":false,"rental_uris":{"android":"levelo://app?vid=97507190-77de-4d99-ba24-935aadcf2344","ios":"levelo://app?vid=97507190-77de-4d99-ba24-935aadcf2344"},"vehicle_type_id":"4","last_reported":1712509604,"current_range_meters":0,"station_id":"ce4bgj92rcd13ifvqbd0","pricing_plan_id":"cebpf4jnsgd1na2vs0mg"},{"bike_id":"d658d995-00c7-4808-9e1c-586c7570f57d","system_id":"levelo_inurba_marseille","lat":43.32371,"lon":5.38872,"is_reserved":false,"is_disabled":false,"rental_uris":{"android":"levelo://app?vid=d658d995-00c7-4808-9e1c-586c7570f57d","ios":"levelo://app?vid=d658d995-00c7-4808-9e1c-586c7570f57d"},"vehicle_type_id":"4","last_reported":1712509604,"current_range_meters":0,"station_id":"ce4bhqp2rcd13ifvqhog","pricing_plan_id":"cebpf4jnsgd1na2vs0mg"},{"bike_id":"ce88be02-35ce-43e7-a57f-0c1320a6ad06","system_id":"levelo_inurba_marseille","lat":43.29602,"lon":5.381084,"is_reserved":false,"is_disabled":false,"rental_uris":{"android":"levelo://app?vid=ce88be02-35ce-43e7-a57f-0c1320a6ad06","ios":"levelo://app?vid=ce88be02-35ce-43e7-a57f-0c1320a6ad06"},"vehicle_type_id":"4","last_reported":1712509604,"current_range_meters":2800,"station_id":"ce4bgl12rcd13ifvqbo0","pricing_plan_id":"cebpf4jnsgd1na2vs0mg"},{"bike_id":"026d069d-a277-4dea-9ffc-e94443f9e4fa","system_id":"levelo_inurba_marseille","lat":43.29602,"lon":5.381084,"is_reserved":false,"is_disabled":false,"rental_uris":{"android":"levelo://app?vid=026d069d-a277-4dea-9ffc-e94443f9e4fa","ios":"levelo://app?vid=026d069d-a277-4dea-9ffc-e94443f9e4fa"},"vehicle_type_id":"4","last_reported":1712509604,"current_range_meters":0,"station_id":"ce4bgl12rcd13ifvqbo0","pricing_plan_id":"cebpf4jnsgd1na2vs0mg"},{"bike_id":"14e5df18-9b3a-46f6-90a6-4a79f104f040","system_id":"levelo_inurba_marseille","lat":43.29612,"lon":5.381062,"is_reserved":false,"is_disabled":false,"rental_uris":{"android":"levelo://app?vid=14e5df18-9b3a-46f6-90a6-4a79f104f040","ios":"levelo://app?vid=14e5df18-9b3a-46f6-90a6-4a79f104f040"},"vehicle_type_id":"4","last_reported":1712509604,"current_range_meters":0,"station_id":"ce4bgvp2rcd13ifvqct0","pricing_plan_id":"cebpf4jnsgd1na2vs0mg"},{"bike_id":"e7b4f68f-e2a7-4dde-8421-9634e40c4d53","system_id":"levelo_inurba_marseille","lat":43.29602,"lon":5.381084,"is_reserved":false,"is_disabled":false,"rental_uris":{"android":"levelo://app?vid=e7b4f68f-e2a7-4dde-8421-9634e40c4d53","ios":"levelo://app?vid=e7b4f68f-e2a7-4dde-8421-9634e40c4d53"},"vehicle_type_id":"4","last_reported":1712509604,"current_range_meters":15600,"station_id":"ce4bgl12rcd13ifvqbo0","pricing_plan_id":"cebpf4jnsgd1na2vs0mg"},{"bike_id":"5023f71a-fb4e-439a-983b-7b565ae6b56a","system_id":"levelo_inurba_marseille","lat":43.29602,"lon":5.381084,"is_reserved":false,"is_disabled":false,"rental_uris":{"android":"levelo://app?vid=5023f71a-fb4e-439a-983b-7b565ae6b56a","ios":"levelo://app?vid=5023f71a-fb4e-439a-983b-7b565ae6b56a"},"vehicle_type_id":"4","last_reported":1712509604,"current_range_meters":18400,"station_id":"ce4bgl12rcd13ifvqbo0","pricing_plan_id":"cebpf4jnsgd1na2vs0mg"},{"bike_id":"4baaca82-326a-4869-aa6f-2d3878753298","system_id":"levelo_inurba_marseille","lat":43.29602,"lon":5.381084,"is_reserved":false,"is_disabled":false,"rental_uris":{"android":"levelo://app?vid=4baaca82-326a-4869-aa6f-2d3878753298","ios":"levelo://app?vid=4baaca82-326a-4869-aa6f-2d3878753298"},"vehicle_type_id":"4","last_reported":1712509604,"current_range_meters":9200,"station_id":"ce4bgl12rcd13ifvqbo0","pricing_plan_id":"cebpf4jnsgd1na2vs0mg"},{"bike_id":"25c854da-0dba-4c04-9f1d-873cd672017c","system_id":"levelo_inurba_marseille","lat":43.29277,"lon":5.36843,"is_reserved":false,"is_disabled":false,"rental_uris":{"android":"levelo://app?vid=25c854da-0dba-4c04-9f1d-873cd672017c","ios":"levelo://app?vid=25c854da-0dba-4c04-9f1d-873cd672017c"},"vehicle_type_id":"4","last_reported":1712509604,"current_range_meters":0,"station_id":"ce4bhbp2rcd13ifvqesg","pricing_plan_id":"cebpf4jnsgd1na2vs0mg"},{"bike_id":"28c44efa-2059-48d7-8a6c-b3e74b9a6e4c","system_id":"levelo_inurba_marseille","lat":43.29295,"lon":5.37168,"is_reserved":false,"is_disabled":false,"rental_uris":{"android":"levelo://app?vid=28c44efa-2059-48d7-8a6c-b3e74b9a6e4c","ios":"levelo://app?vid=28c44efa-2059-48d7-8a6c-b3e74b9a6e4c"},"vehicle_type_id":"4","last_reported":1712509604,"current_range_meters":0,"station_id":"ce4bgh92rcd13ifvqb40","pricing_plan_id":"cebpf4jnsgd1na2vs0mg"},{"bike_id":"920c4f3c-a3ea-4e97-b8d4-83d8f8d236d7","system_id":"levelo_inurba_marseille","lat":43.30003,"lon":5.38856,"is_reserved":false,"is_disabled":false,"rental_uris":{"android":"levelo://app?vid=920c4f3c-a3ea-4e97-b8d4-83d8f8d236d7","ios":"levelo://app?vid=920c4f3c-a3ea-4e97-b8d4-83d8f8d236d7"},"vehicle_type_id":"4","last_reported":1712509604,"current_range_meters":21600,"station_id":"","pricing_plan_id":"cebpf4jnsgd1na2vs0mg"},{"bike_id":"b27edba3-d1de-4586-a708-952b5382655c","system_id":"levelo_inurba_marseille","lat":43.293009,"lon":5.374584,"is_reserved":false,"is_disabled":false,"rental_uris":{"android":"levelo://app?vid=b27edba3-d1de-4586-a708-952b5382655c","ios":"levelo://app?vid=b27edba3-d1de-4586-a708-952b5382655c"},"vehicle_type_id":"4","last_reported":1712509604,"current_range_meters":0,"station_id":"ce4bgi12rcd13ifvqb70","pricing_plan_id":"cebpf4jnsgd1na2vs0mg"},{"bike_id":"fd7f274f-58f5-4f42-82da-ac83e33e8147","system_id":"levelo_inurba_marseille","lat":43.305994,"lon":5.393687,"is_reserved":false,"is_disabled":false,"rental_uris":{"android":"levelo://app?vid=fd7f274f-58f5-4f42-82da-ac83e33e8147","ios":"levelo://app?vid=fd7f274f-58f5-4f42-82da-ac83e33e8147"},"vehicle_type_id":"4","last_reported":1712509604,"current_range_meters":0,"station_id":"ce4bh0p2rcd13ifvqd80","pricing_plan_id":"cebpf4jnsgd1na2vs0mg"},{"bike_id":"c4020406-7198-4163-a017-16afecc48b76","system_id":"levelo_inurba_marseille","lat":43.292967,"lon":5.374417,"is_reserved":false,"is_disabled":false,"rental_uris":{"android":"levelo://app?vid=c4020406-7198-4163-a017-16afecc48b76","ios":"levelo://app?vid=c4020406-7198-4163-a017-16afecc48b76"},"vehicle_type_id":"4","last_reported":1712509604,"current_range_meters":0,"station_id":"ce4bgi12rcd13ifvqb70","pricing_plan_id":"cebpf4jnsgd1na2vs0mg"},{"bike_id":"1b72111e-2edd-4449-a9eb-f2a6f8470214","system_id":"levelo_inurba_marseille","lat":43.305994,"lon":5.393687,"is_reserved":false,"is_disabled":false,"rental_uris":{"android":"levelo://app?vid=1b72111e-2edd-4449-a9eb-f2a6f8470214","ios":"levelo://app?vid=1b72111e-2edd-4449-a9eb-f2a6f8470214"},"vehicle_type_id":"4","last_reported":1712509604,"current_range_meters":17600,"station_id":"ce4bh0p2rcd13ifvqd80","pricing_plan_id":"cebpf4jnsgd1na2vs0mg"},{"bike_id":"c186e019-e470-4025-9a99-c47f14132378","system_id":"levelo_inurba_marseille","lat":43.305994,"lon":5.393687,"is_reserved":false,"is_disabled":false,"rental_uris":{"android":"levelo://app?vid=c186e019-e470-4025-9a99-c47f14132378","ios":"levelo://app?vid=c186e019-e470-4025-9a99-c47f14132378"},"vehicle_type_id":"4","last_reported":1712509604,"current_range_meters":15200,"station_id":"ce4bh0p2rcd13ifvqd80","pricing_plan_id":"cebpf4jnsgd1na2vs0mg"},{"bike_id":"e416ca15-2efe-45c1-9d73-fd7ec5b0d57b","system_id":"levelo_inurba_marseille","lat":43.305994,"lon":5.393687,"is_reserved":false,"is_disabled":false,"rental_uris":{"android":"levelo://app?vid=e416ca15-2efe-45c1-9d73-fd7ec5b0d57b","ios":"levelo://app?vid=e416ca15-2efe-45c1-9d73-fd7ec5b0d57b"},"vehicle_type_id":"4","last_reported":1712509604,"current_range_meters":2000,"station_id":"ce4bh0p2rcd13ifvqd80","pricing_plan_id":"cebpf4jnsgd1na2vs0mg"},{"bike_id":"84d0193b-0e89-43a3-a120-79c86e2776b4","system_id":"levelo_inurba_marseille","lat":43.303002,"lon":5.392142,"is_reserved":false,"is_disabled":false,"rental_uris":{"android":"levelo://app?vid=84d0193b-0e89-43a3-a120-79c86e2776b4","ios":"levelo://app?vid=84d0193b-0e89-43a3-a120-79c86e2776b4"},"vehicle_type_id":"4","last_reported":1712509604,"current_range_meters":0,"station_id":"ce4bgkh2rcd13ifvqbk0","pricing_plan_id":"cebpf4jnsgd1na2vs0mg"},{"bike_id":"e2d5d2b0-0158-4434-9b99-dd3aac761d8c","system_id":"levelo_inurba_marseille","lat":43.302992,"lon":5.392136,"is_reserved":false,"is_disabled":false,"rental_uris":{"android":"levelo://app?vid=e2d5d2b0-0158-4434-9b99-dd3aac761d8c","ios":"levelo://app?vid=e2d5d2b0-0158-4434-9b99-dd3aac761d8c"},"vehicle_type_id":"4","last_reported":1712509604,"current_range_meters":6000,"station_id":"ce4bgkh2rcd13ifvqbk0","pricing_plan_id":"cebpf4jnsgd1na2vs0mg"},{"bike_id":"2d4275fd-4440-427f-af1e-40e682d30ae4","system_id":"levelo_inurba_marseille","lat":43.2936,"lon":5.37835,"is_reserved":false,"is_disabled":false,"rental_uris":{"android":"levelo://app?vid=2d4275fd-4440-427f-af1e-40e682d30ae4","ios":"levelo://app?vid=2d4275fd-4440-427f-af1e-40e682d30ae4"},"vehicle_type_id":"4","last_reported":1712509604,"current_range_meters":0,"station_id":"ce4bgjh2rcd13ifvqbf0","pricing_plan_id":"cebpf4jnsgd1na2vs0mg"},{"bike_id":"6d77d118-726c-4a85-8d9c-807389d4beff","system_id":"levelo_inurba_marseille","lat":43.2936,"lon":5.37835,"is_reserved":false,"is_disabled":false,"rental_uris":{"android":"levelo://app?vid=6d77d118-726c-4a85-8d9c-807389d4beff","ios":"levelo://app?vid=6d77d118-726c-4a85-8d9c-807389d4beff"},"vehicle_type_id":"4","last_reported":1712509604,"current_range_meters":13600,"station_id":"ce4bgjh2rcd13ifvqbf0","pricing_plan_id":"cebpf4jnsgd1na2vs0mg"},{"bike_id":"c9595469-25a5-4e7a-af18-d1275a45558f","system_id":"levelo_inurba_marseille","lat":43.2936,"lon":5.37835,"is_reserved":false,"is_disabled":false,"rental_uris":{"android":"levelo://app?vid=c9595469-25a5-4e7a-af18-d1275a45558f","ios":"levelo://app?vid=c9595469-25a5-4e7a-af18-d1275a45558f"},"vehicle_type_id":"4","last_reported":1712509604,"current_range_meters":1200,"station_id":"ce4bgjh2rcd13ifvqbf0","pricing_plan_id":"cebpf4jnsgd1na2vs0mg"},{"bike_id":"07849c56-0a42-46e0-84d0-efc2eb6846fc","system_id":"levelo_inurba_marseille","lat":43.275028,"lon":5.424534,"is_reserved":false,"is_disabled":false,"rental_uris":{"android":"levelo://app?vid=07849c56-0a42-46e0-84d0-efc2eb6846fc","ios":"levelo://app?vid=07849c56-0a42-46e0-84d0-efc2eb6846fc"},"vehicle_type_id":"4","last_reported":1712509604,"current_range_meters":5200,"station_id":"ce4bhn92rcd13ifvqgrg","pricing_plan_id":"cebpf4jnsgd1na2vs0mg"},{"bike_id":"764ea3c1-3cd4-4c3d-baec-a72f7af5c29e","system_id":"levelo_inurba_marseille","lat":43.292311,"lon":5.360731,"is_reserved":false,"is_disabled":false,"rental_uris":{"android":"levelo://app?vid=764ea3c1-3cd4-4c3d-baec-a72f7af5c29e","ios":"levelo://app?vid=764ea3c1-3cd4-4c3d-baec-a72f7af5c29e"},"vehicle_type_id":"4","last_reported":1712509604,"current_range_meters":0,"station_id":"ce4bhbh2rcd13ifvqeqg","pricing_plan_id":"cebpf4jnsgd1na2vs0mg"},{"bike_id":"064aae9a-9a90-4b3c-ae56-46cf6870239a","system_id":"levelo_inurba_marseille","lat":43.29231,"lon":5.36052,"is_reserved":false,"is_disabled":false,"rental_uris":{"android":"levelo://app?vid=064aae9a-9a90-4b3c-ae56-46cf6870239a","ios":"levelo://app?vid=064aae9a-9a90-4b3c-ae56-46cf6870239a"},"vehicle_type_id":"4","last_reported":1712509604,"current_range_meters":11200,"station_id":"ce4bhbh2rcd13ifvqeqg","pricing_plan_id":"cebpf4jnsgd1na2vs0mg"},{"bike_id":"aa9d7b49-a3a3-4c39-b0ee-56971d5a8342","system_id":"levelo_inurba_marseille","lat":43.292311,"lon":5.360731,"is_reserved":false,"is_disabled":false,"rental_uris":{"android":"levelo://app?vid=aa9d7b49-a3a3-4c39-b0ee-56971d5a8342","ios":"levelo://app?vid=aa9d7b49-a3a3-4c39-b0ee-56971d5a8342"},"vehicle_type_id":"4","last_reported":1712509604,"current_range_meters":24000,"station_id":"ce4bhbh2rcd13ifvqeqg","pricing_plan_id":"cebpf4jnsgd1na2vs0mg"},{"bike_id":"630d9fd9-13ce-4a85-9413-143b02d41d85","system_id":"levelo_inurba_marseille","lat":43.292311,"lon":5.360731,"is_reserved":false,"is_disabled":false,"rental_uris":{"android":"levelo://app?vid=630d9fd9-13ce-4a85-9413-143b02d41d85","ios":"levelo://app?vid=630d9fd9-13ce-4a85-9413-143b02d41d85"},"vehicle_type_id":"4","last_reported":1712509604,"current_range_meters":12800,"station_id":"ce4bhbh2rcd13ifvqeqg","pricing_plan_id":"cebpf4jnsgd1na2vs0mg"},{"bike_id":"02b834a1-2e13-434d-bad4-407172fa9a62","system_id":"levelo_inurba_marseille","lat":43.29227,"lon":5.36054,"is_reserved":false,"is_disabled":false,"rental_uris":{"android":"levelo://app?vid=02b834a1-2e13-434d-bad4-407172fa9a62","ios":"levelo://app?vid=02b834a1-2e13-434d-bad4-407172fa9a62"},"vehicle_type_id":"4","last_reported":1712509604,"current_range_meters":0,"station_id":"ce4bhbh2rcd13ifvqeqg","pricing_plan_id":"cebpf4jnsgd1na2vs0mg"},{"bike_id":"0749a4e6-943e-40e7-b31d-9490b895a62e","system_id":"levelo_inurba_marseille","lat":43.30085,"lon":5.390856,"is_reserved":false,"is_disabled":false,"rental_uris":{"android":"levelo://app?vid=0749a4e6-943e-40e7-b31d-9490b895a62e","ios":"levelo://app?vid=0749a4e6-943e-40e7-b31d-9490b895a62e"},"vehicle_type_id":"4","last_reported":1712509604,"current_range_meters":16400,"station_id":"ce4bh192rcd13ifvqdb0","pricing_plan_id":"cebpf4jnsgd1na2vs0mg"},{"bike_id":"babca53c-cb5f-4182-91b2-29f7ac85bb34","system_id":"levelo_inurba_marseille","lat":43.298764,"lon":5.388973,"is_reserved":false,"is_disabled":false,"rental_uris":{"android":"levelo://app?vid=babca53c-cb5f-4182-91b2-29f7ac85bb34","ios":"levelo://app?vid=babca53c-cb5f-4182-91b2-29f7ac85bb34"},"vehicle_type_id":"4","last_reported":1712509604,"current_range_meters":22400,"station_id":"ce4bh392rcd13ifvqdl0","pricing_plan_id":"cebpf4jnsgd1na2vs0mg"},{"bike_id":"a1a4e105-30b6-40e8-a453-38d8f94ddaa0","system_id":"levelo_inurba_marseille","lat":43.298764,"lon":5.388973,"is_reserved":false,"is_disabled":false,"rental_uris":{"android":"levelo://app?vid=a1a4e105-30b6-40e8-a453-38d8f94ddaa0","ios":"levelo://app?vid=a1a4e105-30b6-40e8-a453-38d8f94ddaa0"},"vehicle_type_id":"4","last_reported":1712509604,"current_range_meters":0,"station_id":"ce4bh392rcd13ifvqdl0","pricing_plan_id":"cebpf4jnsgd1na2vs0mg"},{"bike_id":"cd0bb144-b846-4ba6-a9f1-f6425fb9b252","system_id":"levelo_inurba_marseille","lat":43.313291,"lon":5.396838,"is_reserved":false,"is_disabled":false,"rental_uris":{"android":"levelo://app?vid=cd0bb144-b846-4ba6-a9f1-f6425fb9b252","ios":"levelo://app?vid=cd0bb144-b846-4ba6-a9f1-f6425fb9b252"},"vehicle_type_id":"4","last_reported":1712509604,"current_range_meters":14400,"station_id":"ce4bgvp2rcd13ifvqcu0","pricing_plan_id":"cebpf4jnsgd1na2vs0mg"},{"bike_id":"c61f0d88-b603-40fd-9c83-490138ed41df","system_id":"levelo_inurba_marseille","lat":43.30085,"lon":5.390856,"is_reserved":false,"is_disabled":false,"rental_uris":{"android":"levelo://app?vid=c61f0d88-b603-40fd-9c83-490138ed41df","ios":"levelo://app?vid=c61f0d88-b603-40fd-9c83-490138ed41df"},"vehicle_type_id":"4","last_reported":1712509604,"current_range_meters":3600,"station_id":"ce4bh192rcd13ifvqdb0","pricing_plan_id":"cebpf4jnsgd1na2vs0mg"},{"bike_id":"979d6705-33f0-4799-8c8e-3e1e28c51609","system_id":"levelo_inurba_marseille","lat":43.292005,"lon":5.357875,"is_reserved":false,"is_disabled":false,"rental_uris":{"android":"levelo://app?vid=979d6705-33f0-4799-8c8e-3e1e28c51609","ios":"levelo://app?vid=979d6705-33f0-4799-8c8e-3e1e28c51609"},"vehicle_type_id":"4","last_reported":1712509604,"current_range_meters":400,"station_id":"ce4bhb12rcd13ifvqel0","pricing_plan_id":"cebpf4jnsgd1na2vs0mg"},{"bike_id":"9cf43c36-fd63-45a0-b8ae-c4a13ce94bad","system_id":"levelo_inurba_marseille","lat":43.292005,"lon":5.357875,"is_reserved":false,"is_disabled":false,"rental_uris":{"android":"levelo://app?vid=9cf43c36-fd63-45a0-b8ae-c4a13ce94bad","ios":"levelo://app?vid=9cf43c36-fd63-45a0-b8ae-c4a13ce94bad"},"vehicle_type_id":"4","last_reported":1712509604,"current_range_meters":8000,"station_id":"ce4bhb12rcd13ifvqel0","pricing_plan_id":"cebpf4jnsgd1na2vs0mg"},{"bike_id":"2cfdd265-5470-4210-8f6c-d84b1e7d41ec","system_id":"levelo_inurba_marseille","lat":43.295196,"lon":5.39397,"is_reserved":false,"is_disabled":false,"rental_uris":{"android":"levelo://app?vid=2cfdd265-5470-4210-8f6c-d84b1e7d41ec","ios":"levelo://app?vid=2cfdd265-5470-4210-8f6c-d84b1e7d41ec"},"vehicle_type_id":"4","last_reported":1712509604,"current_range_meters":7200,"station_id":"ce4bh292rcd13ifvqdf0","pricing_plan_id":"cebpf4jnsgd1na2vs0mg"},{"bike_id":"a78dcdff-c30f-41d9-950c-592134ae3070","system_id":"levelo_inurba_marseille","lat":43.313291,"lon":5.396838,"is_reserved":false,"is_disabled":false,"rental_uris":{"android":"levelo://app?vid=a78dcdff-c30f-41d9-950c-592134ae3070","ios":"levelo://app?vid=a78dcdff-c30f-41d9-950c-592134ae3070"},"vehicle_type_id":"4","last_reported":1712509604,"current_range_meters":5600,"station_id":"ce4bgvp2rcd13ifvqcu0","pricing_plan_id":"cebpf4jnsgd1na2vs0mg"},{"bike_id":"dd32810b-834a-4450-903d-f00dbc811aca","system_id":"levelo_inurba_marseille","lat":43.313291,"lon":5.396838,"is_reserved":false,"is_disabled":false,"rental_uris":{"android":"levelo://app?vid=dd32810b-834a-4450-903d-f00dbc811aca","ios":"levelo://app?vid=dd32810b-834a-4450-903d-f00dbc811aca"},"vehicle_type_id":"4","last_reported":1712509604,"current_range_meters":8400,"station_id":"ce4bgvp2rcd13ifvqcu0","pricing_plan_id":"cebpf4jnsgd1na2vs0mg"},{"bike_id":"dcdb122f-0426-4c82-b96a-31b8d88f1341","system_id":"levelo_inurba_marseille","lat":43.313291,"lon":5.396838,"is_reserved":false,"is_disabled":false,"rental_uris":{"android":"levelo://app?vid=dcdb122f-0426-4c82-b96a-31b8d88f1341","ios":"levelo://app?vid=dcdb122f-0426-4c82-b96a-31b8d88f1341"},"vehicle_type_id":"4","last_reported":1712509604,"current_range_meters":3600,"station_id":"ce4bgvp2rcd13ifvqcu0","pricing_plan_id":"cebpf4jnsgd1na2vs0mg"},{"bike_id":"68bb8d8f-0c9d-4d37-9cde-2f067d0c782a","system_id":"levelo_inurba_marseille","lat":43.29193,"lon":5.35793,"is_reserved":false,"is_disabled":false,"rental_uris":{"android":"levelo://app?vid=68bb8d8f-0c9d-4d37-9cde-2f067d0c782a","ios":"levelo://app?vid=68bb8d8f-0c9d-4d37-9cde-2f067d0c782a"},"vehicle_type_id":"4","last_reported":1712509604,"current_range_meters":0,"station_id":"ce4bhb12rcd13ifvqel0","pricing_plan_id":"cebpf4jnsgd1na2vs0mg"},{"bike_id":"f1880c2a-6467-4f5f-b0b0-795f61aad757","system_id":"levelo_inurba_marseille","lat":43.313291,"lon":5.396838,"is_reserved":false,"is_disabled":false,"rental_uris":{"android":"levelo://app?vid=f1880c2a-6467-4f5f-b0b0-795f61aad757","ios":"levelo://app?vid=f1880c2a-6467-4f5f-b0b0-795f61aad757"},"vehicle_type_id":"4","last_reported":1712509604,"current_range_meters":29200,"station_id":"ce4bgvp2rcd13ifvqcu0","pricing_plan_id":"cebpf4jnsgd1na2vs0mg"},{"bike_id":"b60347e4-fe6d-4202-805e-2ce74f1bf9da","system_id":"levelo_inurba_marseille","lat":43.313291,"lon":5.396838,"is_reserved":false,"is_disabled":false,"rental_uris":{"android":"levelo://app?vid=b60347e4-fe6d-4202-805e-2ce74f1bf9da","ios":"levelo://app?vid=b60347e4-fe6d-4202-805e-2ce74f1bf9da"},"vehicle_type_id":"4","last_reported":1712509604,"current_range_meters":10800,"station_id":"ce4bgvp2rcd13ifvqcu0","pricing_plan_id":"cebpf4jnsgd1na2vs0mg"},{"bike_id":"023f3f61-4375-4ee5-9aeb-557cb01674b1","system_id":"levelo_inurba_marseille","lat":43.291994,"lon":5.357886,"is_reserved":false,"is_disabled":false,"rental_uris":{"android":"levelo://app?vid=023f3f61-4375-4ee5-9aeb-557cb01674b1","ios":"levelo://app?vid=023f3f61-4375-4ee5-9aeb-557cb01674b1"},"vehicle_type_id":"4","last_reported":1712509604,"current_range_meters":0,"station_id":"ce4bhb12rcd13ifvqel0","pricing_plan_id":"cebpf4jnsgd1na2vs0mg"},{"bike_id":"ca01e377-1db9-4cb4-b000-59b60b7cd638","system_id":"levelo_inurba_marseille","lat":43.313291,"lon":5.396838,"is_reserved":false,"is_disabled":false,"rental_uris":{"android":"levelo://app?vid=ca01e377-1db9-4cb4-b000-59b60b7cd638","ios":"levelo://app?vid=ca01e377-1db9-4cb4-b000-59b60b7cd638"},"vehicle_type_id":"4","last_reported":1712509604,"current_range_meters":1600,"station_id":"ce4bgvp2rcd13ifvqcu0","pricing_plan_id":"cebpf4jnsgd1na2vs0mg"},{"bike_id":"655a6725-c87f-44e9-b0d9-515b64282e96","system_id":"levelo_inurba_marseille","lat":43.291994,"lon":5.392907,"is_reserved":false,"is_disabled":false,"rental_uris":{"android":"levelo://app?vid=655a6725-c87f-44e9-b0d9-515b64282e96","ios":"levelo://app?vid=655a6725-c87f-44e9-b0d9-515b64282e96"},"vehicle_type_id":"4","last_reported":1712509604,"current_range_meters":0,"station_id":"ce4bh192rcd13ifvqdd0","pricing_plan_id":"cebpf4jnsgd1na2vs0mg"},{"bike_id":"2f07ff24-4a1e-4b29-99e0-19cc1761e6d0","system_id":"levelo_inurba_marseille","lat":43.313291,"lon":5.396838,"is_reserved":false,"is_disabled":false,"rental_uris":{"android":"levelo://app?vid=2f07ff24-4a1e-4b29-99e0-19cc1761e6d0","ios":"levelo://app?vid=2f07ff24-4a1e-4b29-99e0-19cc1761e6d0"},"vehicle_type_id":"4","last_reported":1712509604,"current_range_meters":18800,"station_id":"ce4bgvp2rcd13ifvqcu0","pricing_plan_id":"cebpf4jnsgd1na2vs0mg"},{"bike_id":"d555f473-9eb4-400e-bc34-da9e27234d82","system_id":"levelo_inurba_marseille","lat":43.2954,"lon":5.38534,"is_reserved":false,"is_disabled":false,"rental_uris":{"android":"levelo://app?vid=d555f473-9eb4-400e-bc34-da9e27234d82","ios":"levelo://app?vid=d555f473-9eb4-400e-bc34-da9e27234d82"},"vehicle_type_id":"4","last_reported":1712509604,"current_range_meters":0,"station_id":"ce4bgih2rcd13ifvqba0","pricing_plan_id":"cebpf4jnsgd1na2vs0mg"},{"bike_id":"dc8b1813-95ff-4e15-9689-146f198fa41e","system_id":"levelo_inurba_marseille","lat":43.313291,"lon":5.396838,"is_reserved":false,"is_disabled":false,"rental_uris":{"android":"levelo://app?vid=dc8b1813-95ff-4e15-9689-146f198fa41e","ios":"levelo://app?vid=dc8b1813-95ff-4e15-9689-146f198fa41e"},"vehicle_type_id":"4","last_reported":1712509604,"current_range_meters":18400,"station_id":"ce4bgvp2rcd13ifvqcu0","pricing_plan_id":"cebpf4jnsgd1na2vs0mg"},{"bike_id":"df57d4e5-9c47-4431-ac3f-fbd01ce2ee19","system_id":"levelo_inurba_marseille","lat":43.29536,"lon":5.38536,"is_reserved":false,"is_disabled":false,"rental_uris":{"android":"levelo://app?vid=df57d4e5-9c47-4431-ac3f-fbd01ce2ee19","ios":"levelo://app?vid=df57d4e5-9c47-4431-ac3f-fbd01ce2ee19"},"vehicle_type_id":"4","last_reported":1712509604,"current_range_meters":0,"station_id":"ce4bgih2rcd13ifvqba0","pricing_plan_id":"cebpf4jnsgd1na2vs0mg"},{"bike_id":"0b230ea4-2b83-4bfb-bb5a-23fb3952e4b1","system_id":"levelo_inurba_marseille","lat":43.29529,"lon":5.385581,"is_reserved":false,"is_disabled":false,"rental_uris":{"android":"levelo://app?vid=0b230ea4-2b83-4bfb-bb5a-23fb3952e4b1","ios":"levelo://app?vid=0b230ea4-2b83-4bfb-bb5a-23fb3952e4b1"},"vehicle_type_id":"4","last_reported":1712509604,"current_range_meters":12000,"station_id":"ce4bgih2rcd13ifvqba0","pricing_plan_id":"cebpf4jnsgd1na2vs0mg"},{"bike_id":"67d440f2-c6bd-4826-93cd-12be2572b413","system_id":"levelo_inurba_marseille","lat":43.29537,"lon":5.38543,"is_reserved":false,"is_disabled":false,"rental_uris":{"android":"levelo://app?vid=67d440f2-c6bd-4826-93cd-12be2572b413","ios":"levelo://app?vid=67d440f2-c6bd-4826-93cd-12be2572b413"},"vehicle_type_id":"4","last_reported":1712509604,"current_range_meters":0,"station_id":"ce4bgih2rcd13ifvqba0","pricing_plan_id":"cebpf4jnsgd1na2vs0mg"},{"bike_id":"2e5f772c-7b55-45ca-b32d-8ed0ec3ab376","system_id":"levelo_inurba_marseille","lat":43.29529,"lon":5.38533,"is_reserved":false,"is_disabled":false,"rental_uris":{"android":"levelo://app?vid=2e5f772c-7b55-45ca-b32d-8ed0ec3ab376","ios":"levelo://app?vid=2e5f772c-7b55-45ca-b32d-8ed0ec3ab376"},"vehicle_type_id":"4","last_reported":1712509604,"current_range_meters":1600,"station_id":"ce4bgih2rcd13ifvqba0","pricing_plan_id":"cebpf4jnsgd1na2vs0mg"},{"bike_id":"8cd688a1-19d7-44ee-ac7c-93eaa9470be5","system_id":"levelo_inurba_marseille","lat":43.29529,"lon":5.385581,"is_reserved":false,"is_disabled":false,"rental_uris":{"android":"levelo://app?vid=8cd688a1-19d7-44ee-ac7c-93eaa9470be5","ios":"levelo://app?vid=8cd688a1-19d7-44ee-ac7c-93eaa9470be5"},"vehicle_type_id":"4","last_reported":1712509604,"current_range_meters":4400,"station_id":"ce4bgih2rcd13ifvqba0","pricing_plan_id":"cebpf4jnsgd1na2vs0mg"},{"bike_id":"43c51b23-a2bc-4e3c-a4dd-685b6b25d8bb","system_id":"levelo_inurba_marseille","lat":43.290779,"lon":5.371482,"is_reserved":false,"is_disabled":false,"rental_uris":{"android":"levelo://app?vid=43c51b23-a2bc-4e3c-a4dd-685b6b25d8bb","ios":"levelo://app?vid=43c51b23-a2bc-4e3c-a4dd-685b6b25d8bb"},"vehicle_type_id":"4","last_reported":1712509604,"current_range_meters":8400,"station_id":"ce4bh5p2rcd13ifvqe4g","pricing_plan_id":"cebpf4jnsgd1na2vs0mg"},{"bike_id":"b9218640-316e-4e37-8c84-1cc2ac744610","system_id":"levelo_inurba_marseille","lat":43.290779,"lon":5.371482,"is_reserved":false,"is_disabled":false,"rental_uris":{"android":"levelo://app?vid=b9218640-316e-4e37-8c84-1cc2ac744610","ios":"levelo://app?vid=b9218640-316e-4e37-8c84-1cc2ac744610"},"vehicle_type_id":"4","last_reported":1712509604,"current_range_meters":16400,"station_id":"ce4bh5p2rcd13ifvqe4g","pricing_plan_id":"cebpf4jnsgd1na2vs0mg"},{"bike_id":"9f7ed780-7677-4bed-b3de-33c2f5608554","system_id":"levelo_inurba_marseille","lat":43.29059,"lon":5.36359,"is_reserved":false,"is_disabled":false,"rental_uris":{"android":"levelo://app?vid=9f7ed780-7677-4bed-b3de-33c2f5608554","ios":"levelo://app?vid=9f7ed780-7677-4bed-b3de-33c2f5608554"},"vehicle_type_id":"4","last_reported":1712509604,"current_range_meters":0,"station_id":"ce4bhap2rcd13ifvqek0","pricing_plan_id":"cebpf4jnsgd1na2vs0mg"},{"bike_id":"e711fd95-233a-4199-b7cb-a044a16e82a7","system_id":"levelo_inurba_marseille","lat":43.290779,"lon":5.371482,"is_reserved":false,"is_disabled":false,"rental_uris":{"android":"levelo://app?vid=e711fd95-233a-4199-b7cb-a044a16e82a7","ios":"levelo://app?vid=e711fd95-233a-4199-b7cb-a044a16e82a7"},"vehicle_type_id":"4","last_reported":1712509604,"current_range_meters":22000,"station_id":"ce4bh5p2rcd13ifvqe4g","pricing_plan_id":"cebpf4jnsgd1na2vs0mg"},{"bike_id":"8e760355-1ef0-40fa-b411-0aaac3a3a1e9","system_id":"levelo_inurba_marseille","lat":43.290631,"lon":5.359244,"is_reserved":false,"is_disabled":false,"rental_uris":{"android":"levelo://app?vid=8e760355-1ef0-40fa-b411-0aaac3a3a1e9","ios":"levelo://app?vid=8e760355-1ef0-40fa-b411-0aaac3a3a1e9"},"vehicle_type_id":"4","last_reported":1712509604,"current_range_meters":1600,"station_id":"ce4bha92rcd13ifvqeg0","pricing_plan_id":"cebpf4jnsgd1na2vs0mg"},{"bike_id":"996f89c1-d342-4a99-b118-cfaed61abfba","system_id":"levelo_inurba_marseille","lat":43.290327,"lon":5.375711,"is_reserved":false,"is_disabled":false,"rental_uris":{"android":"levelo://app?vid=996f89c1-d342-4a99-b118-cfaed61abfba","ios":"levelo://app?vid=996f89c1-d342-4a99-b118-cfaed61abfba"},"vehicle_type_id":"4","last_reported":1712509604,"current_range_meters":400,"station_id":"ce4bh692rcd13ifvqe90","pricing_plan_id":"cebpf4jnsgd1na2vs0mg"},{"bike_id":"1b2d19ac-bf4c-406c-a7b7-5ea5e0e61236","system_id":"levelo_inurba_marseille","lat":43.294162,"lon":5.386292,"is_reserved":false,"is_disabled":false,"rental_uris":{"android":"levelo://app?vid=1b2d19ac-bf4c-406c-a7b7-5ea5e0e61236","ios":"levelo://app?vid=1b2d19ac-bf4c-406c-a7b7-5ea5e0e61236"},"vehicle_type_id":"4","last_reported":1712509604,"current_range_meters":0,"station_id":"ce4bh2h2rcd13ifvqdh0","pricing_plan_id":"cebpf4jnsgd1na2vs0mg"},{"bike_id":"d31f5c6b-3263-4c50-953b-590df46e75ee","system_id":"levelo_inurba_marseille","lat":43.290327,"lon":5.375711,"is_reserved":false,"is_disabled":false,"rental_uris":{"android":"levelo://app?vid=d31f5c6b-3263-4c50-953b-590df46e75ee","ios":"levelo://app?vid=d31f5c6b-3263-4c50-953b-590df46e75ee"},"vehicle_type_id":"4","last_reported":1712509604,"current_range_meters":0,"station_id":"ce4bh692rcd13ifvqe90","pricing_plan_id":"cebpf4jnsgd1na2vs0mg"},{"bike_id":"ae53f6bb-d2e8-4eac-b4ad-402225a997f5","system_id":"levelo_inurba_marseille","lat":43.2942,"lon":5.38625,"is_reserved":false,"is_disabled":false,"rental_uris":{"android":"levelo://app?vid=ae53f6bb-d2e8-4eac-b4ad-402225a997f5","ios":"levelo://app?vid=ae53f6bb-d2e8-4eac-b4ad-402225a997f5"},"vehicle_type_id":"4","last_reported":1712509604,"current_range_meters":12000,"station_id":"","pricing_plan_id":"cebpf4jnsgd1na2vs0mg"},{"bike_id":"7bb06580-ceb3-4b4b-8157-7726a1ef61bf","system_id":"levelo_inurba_marseille","lat":43.290327,"lon":5.375711,"is_reserved":false,"is_disabled":false,"rental_uris":{"android":"levelo://app?vid=7bb06580-ceb3-4b4b-8157-7726a1ef61bf","ios":"levelo://app?vid=7bb06580-ceb3-4b4b-8157-7726a1ef61bf"},"vehicle_type_id":"4","last_reported":1712509604,"current_range_meters":1200,"station_id":"ce4bh692rcd13ifvqe90","pricing_plan_id":"cebpf4jnsgd1na2vs0mg"},{"bike_id":"900fe083-d5bc-4baf-b540-ea8aab8f8b84","system_id":"levelo_inurba_marseille","lat":43.278128,"lon":5.407195,"is_reserved":false,"is_disabled":false,"rental_uris":{"android":"levelo://app?vid=900fe083-d5bc-4baf-b540-ea8aab8f8b84","ios":"levelo://app?vid=900fe083-d5bc-4baf-b540-ea8aab8f8b84"},"vehicle_type_id":"4","last_reported":1712509604,"current_range_meters":2000,"station_id":"ce4bhnh2rcd13ifvqgtg","pricing_plan_id":"cebpf4jnsgd1na2vs0mg"},{"bike_id":"9d3ce996-0d9a-49d3-a5ba-26906cae624f","system_id":"levelo_inurba_marseille","lat":43.290327,"lon":5.375711,"is_reserved":false,"is_disabled":false,"rental_uris":{"android":"levelo://app?vid=9d3ce996-0d9a-49d3-a5ba-26906cae624f","ios":"levelo://app?vid=9d3ce996-0d9a-49d3-a5ba-26906cae624f"},"vehicle_type_id":"4","last_reported":1712509604,"current_range_meters":800,"station_id":"ce4bh692rcd13ifvqe90","pricing_plan_id":"cebpf4jnsgd1na2vs0mg"},{"bike_id":"6258c92c-eb9a-4cb3-8029-afb73c26e33b","system_id":"levelo_inurba_marseille","lat":43.289184,"lon":5.366408,"is_reserved":false,"is_disabled":false,"rental_uris":{"android":"levelo://app?vid=6258c92c-eb9a-4cb3-8029-afb73c26e33b","ios":"levelo://app?vid=6258c92c-eb9a-4cb3-8029-afb73c26e33b"},"vehicle_type_id":"4","last_reported":1712509604,"current_range_meters":10000,"station_id":"ce4bhap2rcd13ifvqek0","pricing_plan_id":"cebpf4jnsgd1na2vs0mg"},{"bike_id":"b957a331-50e0-4b52-85f3-a85db6357939","system_id":"levelo_inurba_marseille","lat":43.289184,"lon":5.366408,"is_reserved":false,"is_disabled":false,"rental_uris":{"android":"levelo://app?vid=b957a331-50e0-4b52-85f3-a85db6357939","ios":"levelo://app?vid=b957a331-50e0-4b52-85f3-a85db6357939"},"vehicle_type_id":"4","last_reported":1712509604,"current_range_meters":10000,"station_id":"ce4bhap2rcd13ifvqek0","pricing_plan_id":"cebpf4jnsgd1na2vs0mg"},{"bike_id":"ea6e849a-be28-4e62-92b7-6358ff6a6c25","system_id":"levelo_inurba_marseille","lat":43.290104,"lon":5.356111,"is_reserved":false,"is_disabled":false,"rental_uris":{"android":"levelo://app?vid=ea6e849a-be28-4e62-92b7-6358ff6a6c25","ios":"levelo://app?vid=ea6e849a-be28-4e62-92b7-6358ff6a6c25"},"vehicle_type_id":"4","last_reported":1712509604,"current_range_meters":0,"station_id":"ce4bhb92rcd13ifvqen0","pricing_plan_id":"cebpf4jnsgd1na2vs0mg"},{"bike_id":"a0e4cbd8-f508-4dd8-a8dd-0233dc24ad9f","system_id":"levelo_inurba_marseille","lat":43.292644,"lon":5.384257,"is_reserved":false,"is_disabled":false,"rental_uris":{"android":"levelo://app?vid=a0e4cbd8-f508-4dd8-a8dd-0233dc24ad9f","ios":"levelo://app?vid=a0e4cbd8-f508-4dd8-a8dd-0233dc24ad9f"},"vehicle_type_id":"4","last_reported":1712509604,"current_range_meters":23600,"station_id":"ce4bh692rcd13ifvqea0","pricing_plan_id":"cebpf4jnsgd1na2vs0mg"},{"bike_id":"81bbd2bc-074b-4aa6-9384-2f8545bf4d61","system_id":"levelo_inurba_marseille","lat":43.292642,"lon":5.384254,"is_reserved":false,"is_disabled":false,"rental_uris":{"android":"levelo://app?vid=81bbd2bc-074b-4aa6-9384-2f8545bf4d61","ios":"levelo://app?vid=81bbd2bc-074b-4aa6-9384-2f8545bf4d61"},"vehicle_type_id":"4","last_reported":1712509604,"current_range_meters":7200,"station_id":"ce4bh692rcd13ifvqea0","pricing_plan_id":"cebpf4jnsgd1na2vs0mg"},{"bike_id":"793dbb30-1854-42f4-aa9e-b3f6a948c550","system_id":"levelo_inurba_marseille","lat":43.292644,"lon":5.384257,"is_reserved":false,"is_disabled":false,"rental_uris":{"android":"levelo://app?vid=793dbb30-1854-42f4-aa9e-b3f6a948c550","ios":"levelo://app?vid=793dbb30-1854-42f4-aa9e-b3f6a948c550"},"vehicle_type_id":"4","last_reported":1712509604,"current_range_meters":15600,"station_id":"ce4bh692rcd13ifvqea0","pricing_plan_id":"cebpf4jnsgd1na2vs0mg"},{"bike_id":"166f22fa-43ba-4132-b22e-3e925e5bb820","system_id":"levelo_inurba_marseille","lat":43.292718,"lon":5.384375,"is_reserved":false,"is_disabled":false,"rental_uris":{"android":"levelo://app?vid=166f22fa-43ba-4132-b22e-3e925e5bb820","ios":"levelo://app?vid=166f22fa-43ba-4132-b22e-3e925e5bb820"},"vehicle_type_id":"4","last_reported":1712509604,"current_range_meters":0,"station_id":"ce4bh692rcd13ifvqea0","pricing_plan_id":"cebpf4jnsgd1na2vs0mg"},{"bike_id":"6b744bba-a7da-4733-8216-720bfee4e85a","system_id":"levelo_inurba_marseille","lat":43.292642,"lon":5.384254,"is_reserved":false,"is_disabled":false,"rental_uris":{"android":"levelo://app?vid=6b744bba-a7da-4733-8216-720bfee4e85a","ios":"levelo://app?vid=6b744bba-a7da-4733-8216-720bfee4e85a"},"vehicle_type_id":"4","last_reported":1712509604,"current_range_meters":5200,"station_id":"ce4bh692rcd13ifvqea0","pricing_plan_id":"cebpf4jnsgd1na2vs0mg"},{"bike_id":"36302386-4477-4d41-907e-1c03a29453ff","system_id":"levelo_inurba_marseille","lat":43.292642,"lon":5.384254,"is_reserved":false,"is_disabled":false,"rental_uris":{"android":"levelo://app?vid=36302386-4477-4d41-907e-1c03a29453ff","ios":"levelo://app?vid=36302386-4477-4d41-907e-1c03a29453ff"},"vehicle_type_id":"4","last_reported":1712509604,"current_range_meters":20000,"station_id":"ce4bh692rcd13ifvqea0","pricing_plan_id":"cebpf4jnsgd1na2vs0mg"},{"bike_id":"a57d0bde-aea7-4733-bcef-75188bc70531","system_id":"levelo_inurba_marseille","lat":43.292642,"lon":5.384254,"is_reserved":false,"is_disabled":false,"rental_uris":{"android":"levelo://app?vid=a57d0bde-aea7-4733-bcef-75188bc70531","ios":"levelo://app?vid=a57d0bde-aea7-4733-bcef-75188bc70531"},"vehicle_type_id":"4","last_reported":1712509604,"current_range_meters":1600,"station_id":"ce4bh692rcd13ifvqea0","pricing_plan_id":"cebpf4jnsgd1na2vs0mg"},{"bike_id":"c84eeb91-3789-4c48-9425-e21277081f54","system_id":"levelo_inurba_marseille","lat":43.292642,"lon":5.384254,"is_reserved":false,"is_disabled":false,"rental_uris":{"android":"levelo://app?vid=c84eeb91-3789-4c48-9425-e21277081f54","ios":"levelo://app?vid=c84eeb91-3789-4c48-9425-e21277081f54"},"vehicle_type_id":"4","last_reported":1712509604,"current_range_meters":8400,"station_id":"ce4bh692rcd13ifvqea0","pricing_plan_id":"cebpf4jnsgd1na2vs0mg"},{"bike_id":"8932ee35-9769-40b0-a25e-164d9c185b62","system_id":"levelo_inurba_marseille","lat":43.292642,"lon":5.384254,"is_reserved":false,"is_disabled":false,"rental_uris":{"android":"levelo://app?vid=8932ee35-9769-40b0-a25e-164d9c185b62","ios":"levelo://app?vid=8932ee35-9769-40b0-a25e-164d9c185b62"},"vehicle_type_id":"4","last_reported":1712509604,"current_range_meters":8400,"station_id":"ce4bh692rcd13ifvqea0","pricing_plan_id":"cebpf4jnsgd1na2vs0mg"},{"bike_id":"53ee0d6b-4ef6-4bcc-8cfb-bed059aa4fb4","system_id":"levelo_inurba_marseille","lat":43.29012,"lon":5.35618,"is_reserved":false,"is_disabled":false,"rental_uris":{"android":"levelo://app?vid=53ee0d6b-4ef6-4bcc-8cfb-bed059aa4fb4","ios":"levelo://app?vid=53ee0d6b-4ef6-4bcc-8cfb-bed059aa4fb4"},"vehicle_type_id":"4","last_reported":1712509604,"current_range_meters":0,"station_id":"","pricing_plan_id":"cebpf4jnsgd1na2vs0mg"},{"bike_id":"f9bdcdd6-0ed8-495b-86b7-24248bb09f50","system_id":"levelo_inurba_marseille","lat":43.290104,"lon":5.356111,"is_reserved":false,"is_disabled":false,"rental_uris":{"android":"levelo://app?vid=f9bdcdd6-0ed8-495b-86b7-24248bb09f50","ios":"levelo://app?vid=f9bdcdd6-0ed8-495b-86b7-24248bb09f50"},"vehicle_type_id":"4","last_reported":1712509604,"current_range_meters":0,"station_id":"ce4bhb92rcd13ifvqen0","pricing_plan_id":"cebpf4jnsgd1na2vs0mg"},{"bike_id":"c13111d5-f781-44f4-b3c1-f7c152d8188e","system_id":"levelo_inurba_marseille","lat":43.290103,"lon":5.356114,"is_reserved":false,"is_disabled":false,"rental_uris":{"android":"levelo://app?vid=c13111d5-f781-44f4-b3c1-f7c152d8188e","ios":"levelo://app?vid=c13111d5-f781-44f4-b3c1-f7c152d8188e"},"vehicle_type_id":"4","last_reported":1712509604,"current_range_meters":2000,"station_id":"ce4bhb92rcd13ifvqen0","pricing_plan_id":"cebpf4jnsgd1na2vs0mg"},{"bike_id":"34922658-96f5-4061-b3d2-e876fb48ec5e","system_id":"levelo_inurba_marseille","lat":43.290103,"lon":5.356114,"is_reserved":false,"is_disabled":false,"rental_uris":{"android":"levelo://app?vid=34922658-96f5-4061-b3d2-e876fb48ec5e","ios":"levelo://app?vid=34922658-96f5-4061-b3d2-e876fb48ec5e"},"vehicle_type_id":"4","last_reported":1712509604,"current_range_meters":0,"station_id":"ce4bhb92rcd13ifvqen0","pricing_plan_id":"cebpf4jnsgd1na2vs0mg"},{"bike_id":"8dc21a9c-a369-487b-89ed-b7f46b2c0c41","system_id":"levelo_inurba_marseille","lat":43.29559,"lon":5.39017,"is_reserved":false,"is_disabled":false,"rental_uris":{"android":"levelo://app?vid=8dc21a9c-a369-487b-89ed-b7f46b2c0c41","ios":"levelo://app?vid=8dc21a9c-a369-487b-89ed-b7f46b2c0c41"},"vehicle_type_id":"4","last_reported":1712509604,"current_range_meters":17200,"station_id":"","pricing_plan_id":"cebpf4jnsgd1na2vs0mg"},{"bike_id":"6f51a955-be37-4897-b8c3-64cc7bd63102","system_id":"levelo_inurba_marseille","lat":43.290995,"lon":5.381361,"is_reserved":false,"is_disabled":false,"rental_uris":{"android":"levelo://app?vid=6f51a955-be37-4897-b8c3-64cc7bd63102","ios":"levelo://app?vid=6f51a955-be37-4897-b8c3-64cc7bd63102"},"vehicle_type_id":"4","last_reported":1712509604,"current_range_meters":10000,"station_id":"ce4bh512rcd13ifvqe2g","pricing_plan_id":"cebpf4jnsgd1na2vs0mg"},{"bike_id":"e8e323cc-f6e8-445b-b0f3-23033db14604","system_id":"levelo_inurba_marseille","lat":43.29094,"lon":5.38141,"is_reserved":false,"is_disabled":false,"rental_uris":{"android":"levelo://app?vid=e8e323cc-f6e8-445b-b0f3-23033db14604","ios":"levelo://app?vid=e8e323cc-f6e8-445b-b0f3-23033db14604"},"vehicle_type_id":"4","last_reported":1712509604,"current_range_meters":0,"station_id":"ce4bh512rcd13ifvqe2g","pricing_plan_id":"cebpf4jnsgd1na2vs0mg"},{"bike_id":"8b6c2cfb-d24e-43a8-8a26-01b64a9daaad","system_id":"levelo_inurba_marseille","lat":43.29777,"lon":5.39329,"is_reserved":false,"is_disabled":false,"rental_uris":{"android":"levelo://app?vid=8b6c2cfb-d24e-43a8-8a26-01b64a9daaad","ios":"levelo://app?vid=8b6c2cfb-d24e-43a8-8a26-01b64a9daaad"},"vehicle_type_id":"4","last_reported":1712509604,"current_range_meters":0,"station_id":"chh1huq6cuj3fo74tm60","pricing_plan_id":"cebpf4jnsgd1na2vs0mg"},{"bike_id":"3c5d1fc1-c097-4d76-b79f-30cafbea397b","system_id":"levelo_inurba_marseille","lat":43.330442,"lon":5.389148,"is_reserved":false,"is_disabled":false,"rental_uris":{"android":"levelo://app?vid=3c5d1fc1-c097-4d76-b79f-30cafbea397b","ios":"levelo://app?vid=3c5d1fc1-c097-4d76-b79f-30cafbea397b"},"vehicle_type_id":"4","last_reported":1712509604,"current_range_meters":5600,"station_id":"ce4bhr92rcd13ifvqhrg","pricing_plan_id":"cebpf4jnsgd1na2vs0mg"},{"bike_id":"1dce9aa1-5232-4b74-8ce2-5f74a5bbde23","system_id":"levelo_inurba_marseille","lat":43.33113,"lon":5.38923,"is_reserved":false,"is_disabled":false,"rental_uris":{"android":"levelo://app?vid=1dce9aa1-5232-4b74-8ce2-5f74a5bbde23","ios":"levelo://app?vid=1dce9aa1-5232-4b74-8ce2-5f74a5bbde23"},"vehicle_type_id":"4","last_reported":1712509604,"current_range_meters":12400,"station_id":"","pricing_plan_id":"cebpf4jnsgd1na2vs0mg"},{"bike_id":"cb50bf84-8ca3-4487-9071-a935e4cf9288","system_id":"levelo_inurba_marseille","lat":43.33023,"lon":5.39056,"is_reserved":false,"is_disabled":false,"rental_uris":{"android":"levelo://app?vid=cb50bf84-8ca3-4487-9071-a935e4cf9288","ios":"levelo://app?vid=cb50bf84-8ca3-4487-9071-a935e4cf9288"},"vehicle_type_id":"4","last_reported":1712509604,"current_range_meters":0,"station_id":"ce4bhr92rcd13ifvqhrg","pricing_plan_id":"cebpf4jnsgd1na2vs0mg"},{"bike_id":"e4861fa4-a4ff-4ff9-8826-46e922025e50","system_id":"levelo_inurba_marseille","lat":43.330442,"lon":5.389148,"is_reserved":false,"is_disabled":false,"rental_uris":{"android":"levelo://app?vid=e4861fa4-a4ff-4ff9-8826-46e922025e50","ios":"levelo://app?vid=e4861fa4-a4ff-4ff9-8826-46e922025e50"},"vehicle_type_id":"4","last_reported":1712509604,"current_range_meters":15600,"station_id":"ce4bhr92rcd13ifvqhrg","pricing_plan_id":"cebpf4jnsgd1na2vs0mg"},{"bike_id":"c8b48d8f-d49f-4592-a4b3-b40758f61c21","system_id":"levelo_inurba_marseille","lat":43.2901,"lon":5.381269,"is_reserved":false,"is_disabled":false,"rental_uris":{"android":"levelo://app?vid=c8b48d8f-d49f-4592-a4b3-b40758f61c21","ios":"levelo://app?vid=c8b48d8f-d49f-4592-a4b3-b40758f61c21"},"vehicle_type_id":"4","last_reported":1712509604,"current_range_meters":800,"station_id":"ce4bh4p2rcd13ifvqe1g","pricing_plan_id":"cebpf4jnsgd1na2vs0mg"},{"bike_id":"f4f32bea-a766-4a3e-8c17-8e6037e9390a","system_id":"levelo_inurba_marseille","lat":43.290319,"lon":5.375732,"is_reserved":false,"is_disabled":false,"rental_uris":{"android":"levelo://app?vid=f4f32bea-a766-4a3e-8c17-8e6037e9390a","ios":"levelo://app?vid=f4f32bea-a766-4a3e-8c17-8e6037e9390a"},"vehicle_type_id":"4","last_reported":1712509604,"current_range_meters":24000,"station_id":"ce4bh692rcd13ifvqe90","pricing_plan_id":"cebpf4jnsgd1na2vs0mg"},{"bike_id":"78465f25-38e8-4eb3-a999-06c295b9bd1f","system_id":"levelo_inurba_marseille","lat":43.28856,"lon":5.358371,"is_reserved":false,"is_disabled":false,"rental_uris":{"android":"levelo://app?vid=78465f25-38e8-4eb3-a999-06c295b9bd1f","ios":"levelo://app?vid=78465f25-38e8-4eb3-a999-06c295b9bd1f"},"vehicle_type_id":"4","last_reported":1712509604,"current_range_meters":0,"station_id":"ce4bhb12rcd13ifvqem0","pricing_plan_id":"cebpf4jnsgd1na2vs0mg"},{"bike_id":"f272bd5c-f92e-4906-8c0f-7805ae88a629","system_id":"levelo_inurba_marseille","lat":43.28856,"lon":5.358371,"is_reserved":false,"is_disabled":false,"rental_uris":{"android":"levelo://app?vid=f272bd5c-f92e-4906-8c0f-7805ae88a629","ios":"levelo://app?vid=f272bd5c-f92e-4906-8c0f-7805ae88a629"},"vehicle_type_id":"4","last_reported":1712509604,"current_range_meters":2000,"station_id":"ce4bhb12rcd13ifvqem0","pricing_plan_id":"cebpf4jnsgd1na2vs0mg"},{"bike_id":"9d8fd43b-8efe-4b42-a8e0-303cf2582750","system_id":"levelo_inurba_marseille","lat":43.28856,"lon":5.358371,"is_reserved":false,"is_disabled":false,"rental_uris":{"android":"levelo://app?vid=9d8fd43b-8efe-4b42-a8e0-303cf2582750","ios":"levelo://app?vid=9d8fd43b-8efe-4b42-a8e0-303cf2582750"},"vehicle_type_id":"4","last_reported":1712509604,"current_range_meters":0,"station_id":"ce4bhb12rcd13ifvqem0","pricing_plan_id":"cebpf4jnsgd1na2vs0mg"},{"bike_id":"cd2bc0c5-a3b7-4f36-818c-bf5eb2f6b25e","system_id":"levelo_inurba_marseille","lat":43.28856,"lon":5.358371,"is_reserved":false,"is_disabled":false,"rental_uris":{"android":"levelo://app?vid=cd2bc0c5-a3b7-4f36-818c-bf5eb2f6b25e","ios":"levelo://app?vid=cd2bc0c5-a3b7-4f36-818c-bf5eb2f6b25e"},"vehicle_type_id":"4","last_reported":1712509604,"current_range_meters":0,"station_id":"ce4bhb12rcd13ifvqem0","pricing_plan_id":"cebpf4jnsgd1na2vs0mg"},{"bike_id":"1ac2b5a7-02f0-413e-8fc7-3c89acf71f24","system_id":"levelo_inurba_marseille","lat":43.28856,"lon":5.358371,"is_reserved":false,"is_disabled":false,"rental_uris":{"android":"levelo://app?vid=1ac2b5a7-02f0-413e-8fc7-3c89acf71f24","ios":"levelo://app?vid=1ac2b5a7-02f0-413e-8fc7-3c89acf71f24"},"vehicle_type_id":"4","last_reported":1712509604,"current_range_meters":8000,"station_id":"ce4bhb12rcd13ifvqem0","pricing_plan_id":"cebpf4jnsgd1na2vs0mg"},{"bike_id":"37fac7ff-9110-4ecb-949c-56641949913b","system_id":"levelo_inurba_marseille","lat":43.330442,"lon":5.389148,"is_reserved":false,"is_disabled":false,"rental_uris":{"android":"levelo://app?vid=37fac7ff-9110-4ecb-949c-56641949913b","ios":"levelo://app?vid=37fac7ff-9110-4ecb-949c-56641949913b"},"vehicle_type_id":"4","last_reported":1712509604,"current_range_meters":12400,"station_id":"ce4bhr92rcd13ifvqhrg","pricing_plan_id":"cebpf4jnsgd1na2vs0mg"},{"bike_id":"76e12616-032a-4387-9791-41add95f10bd","system_id":"levelo_inurba_marseille","lat":43.309371,"lon":5.401449,"is_reserved":false,"is_disabled":false,"rental_uris":{"android":"levelo://app?vid=76e12616-032a-4387-9791-41add95f10bd","ios":"levelo://app?vid=76e12616-032a-4387-9791-41add95f10bd"},"vehicle_type_id":"4","last_reported":1712509604,"current_range_meters":0,"station_id":"ce4bgvp2rcd13ifvqct0","pricing_plan_id":"cebpf4jnsgd1na2vs0mg"},{"bike_id":"6424c233-f62d-4f5f-84aa-26333cd41ad0","system_id":"levelo_inurba_marseille","lat":43.323464,"lon":5.406297,"is_reserved":false,"is_disabled":false,"rental_uris":{"android":"levelo://app?vid=6424c233-f62d-4f5f-84aa-26333cd41ad0","ios":"levelo://app?vid=6424c233-f62d-4f5f-84aa-26333cd41ad0"},"vehicle_type_id":"4","last_reported":1712509604,"current_range_meters":22400,"station_id":"ce4bhq92rcd13ifvqhjg","pricing_plan_id":"cebpf4jnsgd1na2vs0mg"},{"bike_id":"979ae432-9ff5-4588-908b-a7c2ac444746","system_id":"levelo_inurba_marseille","lat":43.3375,"lon":5.37452,"is_reserved":false,"is_disabled":false,"rental_uris":{"android":"levelo://app?vid=979ae432-9ff5-4588-908b-a7c2ac444746","ios":"levelo://app?vid=979ae432-9ff5-4588-908b-a7c2ac444746"},"vehicle_type_id":"4","last_reported":1712509604,"current_range_meters":26400,"station_id":"","pricing_plan_id":"cebpf4jnsgd1na2vs0mg"},{"bike_id":"04cc570e-5579-40b5-b3db-5b7ddfabd6fe","system_id":"levelo_inurba_marseille","lat":43.293145,"lon":5.389105,"is_reserved":false,"is_disabled":false,"rental_uris":{"android":"levelo://app?vid=04cc570e-5579-40b5-b3db-5b7ddfabd6fe","ios":"levelo://app?vid=04cc570e-5579-40b5-b3db-5b7ddfabd6fe"},"vehicle_type_id":"4","last_reported":1712509604,"current_range_meters":0,"station_id":"","pricing_plan_id":"cebpf4jnsgd1na2vs0mg"},{"bike_id":"90cd8342-cf35-42ab-9645-245aac8cd2b3","system_id":"levelo_inurba_marseille","lat":43.306412,"lon":5.401035,"is_reserved":false,"is_disabled":false,"rental_uris":{"android":"levelo://app?vid=90cd8342-cf35-42ab-9645-245aac8cd2b3","ios":"levelo://app?vid=90cd8342-cf35-42ab-9645-245aac8cd2b3"},"vehicle_type_id":"4","last_reported":1712509604,"current_range_meters":11200,"station_id":"ce4bh112rcd13ifvqda0","pricing_plan_id":"cebpf4jnsgd1na2vs0mg"},{"bike_id":"0eb8a8ca-e58c-4ab7-bf67-a50e0325c39d","system_id":"levelo_inurba_marseille","lat":43.301117,"lon":5.398795,"is_reserved":false,"is_disabled":false,"rental_uris":{"android":"levelo://app?vid=0eb8a8ca-e58c-4ab7-bf67-a50e0325c39d","ios":"levelo://app?vid=0eb8a8ca-e58c-4ab7-bf67-a50e0325c39d"},"vehicle_type_id":"4","last_reported":1712509604,"current_range_meters":0,"station_id":"ce4bh0h2rcd13ifvqd40","pricing_plan_id":"cebpf4jnsgd1na2vs0mg"},{"bike_id":"4d5fe970-84fd-41b9-a5a8-d0932237f189","system_id":"levelo_inurba_marseille","lat":43.301117,"lon":5.398795,"is_reserved":false,"is_disabled":false,"rental_uris":{"android":"levelo://app?vid=4d5fe970-84fd-41b9-a5a8-d0932237f189","ios":"levelo://app?vid=4d5fe970-84fd-41b9-a5a8-d0932237f189"},"vehicle_type_id":"4","last_reported":1712509604,"current_range_meters":0,"station_id":"ce4bh0h2rcd13ifvqd40","pricing_plan_id":"cebpf4jnsgd1na2vs0mg"},{"bike_id":"de0f1493-36f5-4f7c-aaa9-6125b2759c8a","system_id":"levelo_inurba_marseille","lat":43.30137,"lon":5.39874,"is_reserved":false,"is_disabled":false,"rental_uris":{"android":"levelo://app?vid=de0f1493-36f5-4f7c-aaa9-6125b2759c8a","ios":"levelo://app?vid=de0f1493-36f5-4f7c-aaa9-6125b2759c8a"},"vehicle_type_id":"4","last_reported":1712509604,"current_range_meters":0,"station_id":"ce4bh0h2rcd13ifvqd40","pricing_plan_id":"cebpf4jnsgd1na2vs0mg"},{"bike_id":"5658c929-914b-4516-bbb9-e27d3b01b26a","system_id":"levelo_inurba_marseille","lat":43.28728,"lon":5.36089,"is_reserved":false,"is_disabled":false,"rental_uris":{"android":"levelo://app?vid=5658c929-914b-4516-bbb9-e27d3b01b26a","ios":"levelo://app?vid=5658c929-914b-4516-bbb9-e27d3b01b26a"},"vehicle_type_id":"4","last_reported":1712509604,"current_range_meters":0,"station_id":"cki0cbj6b192h4jlfktg","pricing_plan_id":"cebpf4jnsgd1na2vs0mg"},{"bike_id":"bbd878bb-1b32-4301-af86-3622138196f7","system_id":"levelo_inurba_marseille","lat":43.298681,"lon":5.397225,"is_reserved":false,"is_disabled":false,"rental_uris":{"android":"levelo://app?vid=bbd878bb-1b32-4301-af86-3622138196f7","ios":"levelo://app?vid=bbd878bb-1b32-4301-af86-3622138196f7"},"vehicle_type_id":"4","last_reported":1712509604,"current_range_meters":5600,"station_id":"ce4bh0h2rcd13ifvqd50","pricing_plan_id":"cebpf4jnsgd1na2vs0mg"},{"bike_id":"bc32642b-863d-4c94-bf82-f062329cf050","system_id":"levelo_inurba_marseille","lat":43.28709,"lon":5.37375,"is_reserved":false,"is_disabled":false,"rental_uris":{"android":"levelo://app?vid=bc32642b-863d-4c94-bf82-f062329cf050","ios":"levelo://app?vid=bc32642b-863d-4c94-bf82-f062329cf050"},"vehicle_type_id":"4","last_reported":1712509604,"current_range_meters":1600,"station_id":"ce4bh3p2rcd13ifvqdq0","pricing_plan_id":"cebpf4jnsgd1na2vs0mg"},{"bike_id":"adf4bad8-8b7b-4f8f-b91d-c3015899f2fb","system_id":"levelo_inurba_marseille","lat":43.298681,"lon":5.397225,"is_reserved":false,"is_disabled":false,"rental_uris":{"android":"levelo://app?vid=adf4bad8-8b7b-4f8f-b91d-c3015899f2fb","ios":"levelo://app?vid=adf4bad8-8b7b-4f8f-b91d-c3015899f2fb"},"vehicle_type_id":"4","last_reported":1712509604,"current_range_meters":6000,"station_id":"ce4bh0h2rcd13ifvqd50","pricing_plan_id":"cebpf4jnsgd1na2vs0mg"},{"bike_id":"f341b0e6-ca33-4373-8d3c-1ccb3242315c","system_id":"levelo_inurba_marseille","lat":43.286961,"lon":5.373785,"is_reserved":false,"is_disabled":false,"rental_uris":{"android":"levelo://app?vid=f341b0e6-ca33-4373-8d3c-1ccb3242315c","ios":"levelo://app?vid=f341b0e6-ca33-4373-8d3c-1ccb3242315c"},"vehicle_type_id":"4","last_reported":1712509604,"current_range_meters":11200,"station_id":"ce4bh3p2rcd13ifvqdq0","pricing_plan_id":"cebpf4jnsgd1na2vs0mg"},{"bike_id":"82ac88f4-0ae4-4800-914b-6fb0c91153bd","system_id":"levelo_inurba_marseille","lat":43.298681,"lon":5.397225,"is_reserved":false,"is_disabled":false,"rental_uris":{"android":"levelo://app?vid=82ac88f4-0ae4-4800-914b-6fb0c91153bd","ios":"levelo://app?vid=82ac88f4-0ae4-4800-914b-6fb0c91153bd"},"vehicle_type_id":"4","last_reported":1712509604,"current_range_meters":400,"station_id":"ce4bh0h2rcd13ifvqd50","pricing_plan_id":"cebpf4jnsgd1na2vs0mg"},{"bike_id":"e81c7f66-4aa2-458f-b589-0fa63b1b505e","system_id":"levelo_inurba_marseille","lat":43.286961,"lon":5.373785,"is_reserved":false,"is_disabled":false,"rental_uris":{"android":"levelo://app?vid=e81c7f66-4aa2-458f-b589-0fa63b1b505e","ios":"levelo://app?vid=e81c7f66-4aa2-458f-b589-0fa63b1b505e"},"vehicle_type_id":"4","last_reported":1712509604,"current_range_meters":10000,"station_id":"ce4bh3p2rcd13ifvqdq0","pricing_plan_id":"cebpf4jnsgd1na2vs0mg"},{"bike_id":"c0d9fccb-93ea-4cd9-a975-e285c3e5c11f","system_id":"levelo_inurba_marseille","lat":43.286961,"lon":5.373785,"is_reserved":false,"is_disabled":false,"rental_uris":{"android":"levelo://app?vid=c0d9fccb-93ea-4cd9-a975-e285c3e5c11f","ios":"levelo://app?vid=c0d9fccb-93ea-4cd9-a975-e285c3e5c11f"},"vehicle_type_id":"4","last_reported":1712509604,"current_range_meters":2400,"station_id":"ce4bh3p2rcd13ifvqdq0","pricing_plan_id":"cebpf4jnsgd1na2vs0mg"},{"bike_id":"098cb1f8-b382-4e72-81f5-a1ea2d1ec2a6","system_id":"levelo_inurba_marseille","lat":43.295196,"lon":5.39397,"is_reserved":false,"is_disabled":false,"rental_uris":{"android":"levelo://app?vid=098cb1f8-b382-4e72-81f5-a1ea2d1ec2a6","ios":"levelo://app?vid=098cb1f8-b382-4e72-81f5-a1ea2d1ec2a6"},"vehicle_type_id":"4","last_reported":1712509604,"current_range_meters":400,"station_id":"ce4bh292rcd13ifvqdf0","pricing_plan_id":"cebpf4jnsgd1na2vs0mg"},{"bike_id":"75b283d3-c557-47f9-83a6-7d82e8b14126","system_id":"levelo_inurba_marseille","lat":43.295713,"lon":5.399639,"is_reserved":false,"is_disabled":false,"rental_uris":{"android":"levelo://app?vid=75b283d3-c557-47f9-83a6-7d82e8b14126","ios":"levelo://app?vid=75b283d3-c557-47f9-83a6-7d82e8b14126"},"vehicle_type_id":"4","last_reported":1712509604,"current_range_meters":1200,"station_id":"ce4bh312rcd13ifvqdj0","pricing_plan_id":"cebpf4jnsgd1na2vs0mg"},{"bike_id":"416dc560-67d5-422d-9f45-e2226fccd870","system_id":"levelo_inurba_marseille","lat":43.28701,"lon":5.37377,"is_reserved":false,"is_disabled":false,"rental_uris":{"android":"levelo://app?vid=416dc560-67d5-422d-9f45-e2226fccd870","ios":"levelo://app?vid=416dc560-67d5-422d-9f45-e2226fccd870"},"vehicle_type_id":"4","last_reported":1712509604,"current_range_meters":1600,"station_id":"ce4bh3p2rcd13ifvqdq0","pricing_plan_id":"cebpf4jnsgd1na2vs0mg"},{"bike_id":"f1afefd5-f23d-4aaf-b080-d1871cb423c6","system_id":"levelo_inurba_marseille","lat":43.286961,"lon":5.373785,"is_reserved":false,"is_disabled":false,"rental_uris":{"android":"levelo://app?vid=f1afefd5-f23d-4aaf-b080-d1871cb423c6","ios":"levelo://app?vid=f1afefd5-f23d-4aaf-b080-d1871cb423c6"},"vehicle_type_id":"4","last_reported":1712509604,"current_range_meters":22400,"station_id":"ce4bh3p2rcd13ifvqdq0","pricing_plan_id":"cebpf4jnsgd1na2vs0mg"},{"bike_id":"a98065da-627d-4a05-a20f-d73ae8800eb3","system_id":"levelo_inurba_marseille","lat":43.28699,"lon":5.3738,"is_reserved":false,"is_disabled":false,"rental_uris":{"android":"levelo://app?vid=a98065da-627d-4a05-a20f-d73ae8800eb3","ios":"levelo://app?vid=a98065da-627d-4a05-a20f-d73ae8800eb3"},"vehicle_type_id":"4","last_reported":1712509604,"current_range_meters":18800,"station_id":"ce4bh3p2rcd13ifvqdq0","pricing_plan_id":"cebpf4jnsgd1na2vs0mg"},{"bike_id":"b7e22f0d-1cb1-4bab-b6e6-20d1a87041b1","system_id":"levelo_inurba_marseille","lat":43.286961,"lon":5.373785,"is_reserved":false,"is_disabled":false,"rental_uris":{"android":"levelo://app?vid=b7e22f0d-1cb1-4bab-b6e6-20d1a87041b1","ios":"levelo://app?vid=b7e22f0d-1cb1-4bab-b6e6-20d1a87041b1"},"vehicle_type_id":"4","last_reported":1712509604,"current_range_meters":12800,"station_id":"ce4bh3p2rcd13ifvqdq0","pricing_plan_id":"cebpf4jnsgd1na2vs0mg"},{"bike_id":"4afc9c09-80b6-4ae6-901d-d39fa598510f","system_id":"levelo_inurba_marseille","lat":43.286961,"lon":5.373785,"is_reserved":false,"is_disabled":false,"rental_uris":{"android":"levelo://app?vid=4afc9c09-80b6-4ae6-901d-d39fa598510f","ios":"levelo://app?vid=4afc9c09-80b6-4ae6-901d-d39fa598510f"},"vehicle_type_id":"4","last_reported":1712509604,"current_range_meters":30800,"station_id":"ce4bh3p2rcd13ifvqdq0","pricing_plan_id":"cebpf4jnsgd1na2vs0mg"},{"bike_id":"3f54d565-a2c0-4931-acd4-22494c016ebf","system_id":"levelo_inurba_marseille","lat":43.286961,"lon":5.373785,"is_reserved":false,"is_disabled":false,"rental_uris":{"android":"levelo://app?vid=3f54d565-a2c0-4931-acd4-22494c016ebf","ios":"levelo://app?vid=3f54d565-a2c0-4931-acd4-22494c016ebf"},"vehicle_type_id":"4","last_reported":1712509604,"current_range_meters":0,"station_id":"ce4bh3p2rcd13ifvqdq0","pricing_plan_id":"cebpf4jnsgd1na2vs0mg"},{"bike_id":"cdc61e27-08da-4a62-81e9-ab5b72af4aaf","system_id":"levelo_inurba_marseille","lat":43.295194,"lon":5.39397,"is_reserved":false,"is_disabled":false,"rental_uris":{"android":"levelo://app?vid=cdc61e27-08da-4a62-81e9-ab5b72af4aaf","ios":"levelo://app?vid=cdc61e27-08da-4a62-81e9-ab5b72af4aaf"},"vehicle_type_id":"4","last_reported":1712509604,"current_range_meters":0,"station_id":"ce4bh292rcd13ifvqdf0","pricing_plan_id":"cebpf4jnsgd1na2vs0mg"},{"bike_id":"0ba9aec5-3d79-4367-b1b3-dc8fe2fb50b3","system_id":"levelo_inurba_marseille","lat":43.310804,"lon":5.38359,"is_reserved":false,"is_disabled":false,"rental_uris":{"android":"levelo://app?vid=0ba9aec5-3d79-4367-b1b3-dc8fe2fb50b3","ios":"levelo://app?vid=0ba9aec5-3d79-4367-b1b3-dc8fe2fb50b3"},"vehicle_type_id":"4","last_reported":1712509604,"current_range_meters":800,"station_id":"ce4bgv92rcd13ifvqcr0","pricing_plan_id":"cebpf4jnsgd1na2vs0mg"},{"bike_id":"8ff17f51-8bee-4021-a94b-0b4e3fcf1d5c","system_id":"levelo_inurba_marseille","lat":43.278128,"lon":5.407195,"is_reserved":false,"is_disabled":false,"rental_uris":{"android":"levelo://app?vid=8ff17f51-8bee-4021-a94b-0b4e3fcf1d5c","ios":"levelo://app?vid=8ff17f51-8bee-4021-a94b-0b4e3fcf1d5c"},"vehicle_type_id":"4","last_reported":1712509604,"current_range_meters":6000,"station_id":"ce4bhnh2rcd13ifvqgtg","pricing_plan_id":"cebpf4jnsgd1na2vs0mg"},{"bike_id":"74af6260-a3ca-4d26-b136-e728c41cda48","system_id":"levelo_inurba_marseille","lat":43.29029,"lon":5.38638,"is_reserved":false,"is_disabled":false,"rental_uris":{"android":"levelo://app?vid=74af6260-a3ca-4d26-b136-e728c41cda48","ios":"levelo://app?vid=74af6260-a3ca-4d26-b136-e728c41cda48"},"vehicle_type_id":"4","last_reported":1712509604,"current_range_meters":0,"station_id":"ce4bh4p2rcd13ifvqe0g","pricing_plan_id":"cebpf4jnsgd1na2vs0mg"},{"bike_id":"fa5b977e-16aa-49ae-b27e-29f023e29930","system_id":"levelo_inurba_marseille","lat":43.290345,"lon":5.38646,"is_reserved":false,"is_disabled":false,"rental_uris":{"android":"levelo://app?vid=fa5b977e-16aa-49ae-b27e-29f023e29930","ios":"levelo://app?vid=fa5b977e-16aa-49ae-b27e-29f023e29930"},"vehicle_type_id":"4","last_reported":1712509604,"current_range_meters":1200,"station_id":"ce4bh4p2rcd13ifvqe0g","pricing_plan_id":"cebpf4jnsgd1na2vs0mg"},{"bike_id":"7f70fef3-cf6f-4648-bbef-a1a765e4c594","system_id":"levelo_inurba_marseille","lat":43.289307,"lon":5.38406,"is_reserved":false,"is_disabled":false,"rental_uris":{"android":"levelo://app?vid=7f70fef3-cf6f-4648-bbef-a1a765e4c594","ios":"levelo://app?vid=7f70fef3-cf6f-4648-bbef-a1a765e4c594"},"vehicle_type_id":"4","last_reported":1712509604,"current_range_meters":26000,"station_id":"ce4bh612rcd13ifvqe6g","pricing_plan_id":"cebpf4jnsgd1na2vs0mg"},{"bike_id":"3f91feea-9bc7-4ea9-a4bc-b3ac02190544","system_id":"levelo_inurba_marseille","lat":43.30673,"lon":5.402503,"is_reserved":false,"is_disabled":false,"rental_uris":{"android":"levelo://app?vid=3f91feea-9bc7-4ea9-a4bc-b3ac02190544","ios":"levelo://app?vid=3f91feea-9bc7-4ea9-a4bc-b3ac02190544"},"vehicle_type_id":"4","last_reported":1712509604,"current_range_meters":3600,"station_id":"","pricing_plan_id":"cebpf4jnsgd1na2vs0mg"},