{"last_updated":1728544135,"ttl":60,"version":"2.2","data":{"bikes":[{"bike_id":"876c9efe-26b2-4a65-928c-c62d46b71593","system_id":"levelo_inurba_marseille","lat":43.28157,"lon":5.4264,"is_reserved":false,"is_disabled":false,"rental_uris":{"android":"levelo://app?vid=876c9efe-26b2-4a65-928c-c62d46b71593","ios":"levelo://app?vid=876c9efe-26b2-4a65-928c-c62d46b71593"},"vehicle_type_id":"4","last_reported":1728544135,"current_range_meters":16400,"station_id":"ce4bhg12rcd13ifvqf80","pricing_plan_id":"cebpf4jnsgd1na2vs0mg"},{"bike_id":"23d3f8b7-9a3c-4e03-8ab5-0690492a7e4b","system_id":"levelo_inurba_marseille","lat":43.29229,"lon":5.36083,"is_reserved":false,"is_disabled":false,"rental_uris":{"android":"levelo://app?vid=23d3f8b7-9a3c-4e03-8ab5-0690492a7e4b","ios":"levelo://app?vid=23d3f8b7-9a3c-4e03-8ab5-0690492a7e4b"},"vehicle_type_id":"4","last_reported":1728544135,"current_range_meters":9600,"station_id":"ce4bhbh2rcd13ifvqeqg","pricing_plan_id":"cebpf4jnsgd1na2vs0mg"},{"bike_id":"75a9026e-c25f-4e13-9968-02a895be48e4","system_id":"levelo_inurba_marseille","lat":43.24076,"lon":5.37756,"is_reserved":false,"is_disabled":false,"rental_uris":{"android":"levelo://app?vid=75a9026e-c25f-4e13-9968-02a895be48e4","ios":"levelo://app?vid=75a9026e-c25f-4e13-9968-02a895be48e4"},"vehicle_type_id":"4","last_reported":1728544135,"current_range_meters":37600,"station_id":"ce4bhnp2rcd13ifvqgvg","pricing_plan_id":"cebpf4jnsgd1na2vs0mg"},{"bike_id":"dc654fae-1dc8-48d7-a845-eaad252848f4","system_id":"levelo_inurba_marseille","lat":43.31232,"lon":5.36868,"is_reserved":false,"is_disabled":false,"rental_uris":{"android":"levelo://app?vid=dc654fae-1dc8-48d7-a845-eaad252848f4","ios":"levelo://app?vid=dc654fae-1dc8-48d7-a845-eaad252848f4"},"vehicle_type_id":"4","last_reported":1728544135,"current_range_meters":18000,"station_id":"ce4bgl92rcd13ifvqbq0","pricing_plan_id":"cebpf4jnsgd1na2vs0mg"},{"bike_id":"69e77010-a535-4398-8159-24f48f4c7d15","system_id":"levelo_inurba_marseille","lat":43.23069,"lon":5.35493,"is_reserved":false,"is_disabled":false,"rental_uris":{"android":"levelo://app?vid=69e77010-a535-4398-8159-24f48f4c7d15","ios":"levelo://app?vid=69e77010-a535-4398-8159-24f48f4c7d15"},"vehicle_type_id":"4","last_reported":1728544135,"current_range_meters":4400,"station_id":"cpo3342slgdg3j2ifvpg","pricing_plan_id":"cebpf4jnsgd1na2vs0mg"},{"bike_id":"4c52a9fc-63cd-4df1-989f-95aacc35a0ef","system_id":"levelo_inurba_marseille","lat":43.28348,"lon":5.38103,"is_reserved":false,"is_disabled":false,"rental_uris":{"android":"levelo://app?vid=4c52a9fc-63cd-4df1-989f-95aacc35a0ef","ios":"levelo://app?vid=4c52a9fc-63cd-4df1-989f-95aacc35a0ef"},"vehicle_type_id":"4","last_reported":1728544135,"current_range_meters":33200,"station_id":"ce4bh412rcd13ifvqdr0","pricing_plan_id":"cebpf4jnsgd1na2vs0mg"},{"bike_id":"312f7ff7-0410-4581-af7a-b1305e85abe0","system_id":"levelo_inurba_marseille","lat":43.29553,"lon":5.42285,"is_reserved":false,"is_disabled":false,"rental_uris":{"android":"levelo://app?vid=312f7ff7-0410-4581-af7a-b1305e85abe0","ios":"levelo://app?vid=312f7ff7-0410-4581-af7a-b1305e85abe0"},"vehicle_type_id":"4","last_reported":1728544135,"current_range_meters":38800,"station_id":"ce4bhph2rcd13ifvqhdg","pricing_plan_id":"cebpf4jnsgd1na2vs0mg"},{"bike_id":"fef204cd-3f7b-4866-b6e5-697771a3d001","system_id":"levelo_inurba_marseille","lat":43.3091,"lon":5.36844,"is_reserved":false,"is_disabled":false,"rental_uris":{"android":"levelo://app?vid=fef204cd-3f7b-4866-b6e5-697771a3d001","ios":"levelo://app?vid=fef204cd-3f7b-4866-b6e5-697771a3d001"},"vehicle_type_id":"4","last_reported":1728544135,"current_range_meters":38800,"station_id":"ce4bgn92rcd13ifvqbvg","pricing_plan_id":"cebpf4jnsgd1na2vs0mg"},{"bike_id":"beb07366-7b4b-4cf1-a1eb-4f650c3fdb6f","system_id":"levelo_inurba_marseille","lat":43.2408,"lon":5.37758,"is_reserved":false,"is_disabled":false,"rental_uris":{"android":"levelo://app?vid=beb07366-7b4b-4cf1-a1eb-4f650c3fdb6f","ios":"levelo://app?vid=beb07366-7b4b-4cf1-a1eb-4f650c3fdb6f"},"vehicle_type_id":"4","last_reported":1728544135,"current_range_meters":20000,"station_id":"ce4bhnp2rcd13ifvqgvg","pricing_plan_id":"cebpf4jnsgd1na2vs0mg"},{"bike_id":"16346ba1-5c79-4a0d-b6f8-99d1753b2f75","system_id":"levelo_inurba_marseille","lat":43.32481,"lon":5.36565,"is_reserved":false,"is_disabled":false,"rental_uris":{"android":"levelo://app?vid=16346ba1-5c79-4a0d-b6f8-99d1753b2f75","ios":"levelo://app?vid=16346ba1-5c79-4a0d-b6f8-99d1753b2f75"},"vehicle_type_id":"4","last_reported":1728544135,"current_range_meters":18000,"station_id":"ce4bhs12rcd13ifvqhvg","pricing_plan_id":"cebpf4jnsgd1na2vs0mg"},{"bike_id":"696145f4-1e70-49bc-9369-50eed6c21736","system_id":"levelo_inurba_marseille","lat":43.34147,"lon":5.4091,"is_reserved":false,"is_disabled":false,"rental_uris":{"android":"levelo://app?vid=696145f4-1e70-49bc-9369-50eed6c21736","ios":"levelo://app?vid=696145f4-1e70-49bc-9369-50eed6c21736"},"vehicle_type_id":"4","last_reported":1728544135,"current_range_meters":29600,"station_id":"ce4bhqh2rcd13ifvqhlg","pricing_plan_id":"cebpf4jnsgd1na2vs0mg"},{"bike_id":"cc48e78b-0de2-48fc-bd8c-835ef145dac9","system_id":"levelo_inurba_marseille","lat":43.28151,"lon":5.42641,"is_reserved":false,"is_disabled":false,"rental_uris":{"android":"levelo://app?vid=cc48e78b-0de2-48fc-bd8c-835ef145dac9","ios":"levelo://app?vid=cc48e78b-0de2-48fc-bd8c-835ef145dac9"},"vehicle_type_id":"4","last_reported":1728544135,"current_range_meters":27200,"station_id":"ce4bhnh2rcd13ifvqgug","pricing_plan_id":"cebpf4jnsgd1na2vs0mg"},{"bike_id":"b6238d41-ee15-425a-90f4-5765634a5d7f","system_id":"levelo_inurba_marseille","lat":43.23156,"lon":5.43709,"is_reserved":false,"is_disabled":false,"rental_uris":{"android":"levelo://app?vid=b6238d41-ee15-425a-90f4-5765634a5d7f","ios":"levelo://app?vid=b6238d41-ee15-425a-90f4-5765634a5d7f"},"vehicle_type_id":"4","last_reported":1728544135,"current_range_meters":28800,"station_id":"ce4bhmp2rcd13ifvqgog","pricing_plan_id":"cebpf4jnsgd1na2vs0mg"},{"bike_id":"a705ba65-72e5-49b3-acf5-27834b22f856","system_id":"levelo_inurba_marseille","lat":43.2408,"lon":5.37752,"is_reserved":false,"is_disabled":false,"rental_uris":{"android":"levelo://app?vid=a705ba65-72e5-49b3-acf5-27834b22f856","ios":"levelo://app?vid=a705ba65-72e5-49b3-acf5-27834b22f856"},"vehicle_type_id":"4","last_reported":1728544135,"current_range_meters":37600,"station_id":"ce4bhnp2rcd13ifvqgvg","pricing_plan_id":"cebpf4jnsgd1na2vs0mg"},{"bike_id":"729d92a6-b5d4-421f-82bd-c3e31fbc602e","system_id":"levelo_inurba_marseille","lat":43.23151,"lon":5.43717,"is_reserved":false,"is_disabled":false,"rental_uris":{"android":"levelo://app?vid=729d92a6-b5d4-421f-82bd-c3e31fbc602e","ios":"levelo://app?vid=729d92a6-b5d4-421f-82bd-c3e31fbc602e"},"vehicle_type_id":"4","last_reported":1728544135,"current_range_meters":33600,"station_id":"ce4bhmp2rcd13ifvqgog","pricing_plan_id":"cebpf4jnsgd1na2vs0mg"},{"bike_id":"6cb2fd54-0aca-4f7d-aadb-bc057dc4fb59","system_id":"levelo_inurba_marseille","lat":43.23063,"lon":5.35491,"is_reserved":false,"is_disabled":false,"rental_uris":{"android":"levelo://app?vid=6cb2fd54-0aca-4f7d-aadb-bc057dc4fb59","ios":"levelo://app?vid=6cb2fd54-0aca-4f7d-aadb-bc057dc4fb59"},"vehicle_type_id":"4","last_reported":1728544135,"current_range_meters":34800,"station_id":"cpo3342slgdg3j2ifvpg","pricing_plan_id":"cebpf4jnsgd1na2vs0mg"},{"bike_id":"1653f649-3f7e-4444-966a-6234fdc3452e","system_id":"levelo_inurba_marseille","lat":43.2658,"lon":5.39033,"is_reserved":false,"is_disabled":false,"rental_uris":{"android":"levelo://app?vid=1653f649-3f7e-4444-966a-6234fdc3452e","ios":"levelo://app?vid=1653f649-3f7e-4444-966a-6234fdc3452e"},"vehicle_type_id":"4","last_reported":1728544135,"current_range_meters":35200,"station_id":"ce4bhe12rcd13ifvqf30","pricing_plan_id":"cebpf4jnsgd1na2vs0mg"},{"bike_id":"b7965caf-e4c5-4273-9940-2e0802cd8590","system_id":"levelo_inurba_marseille","lat":43.31891,"lon":5.40735,"is_reserved":false,"is_disabled":false,"rental_uris":{"android":"levelo://app?vid=b7965caf-e4c5-4273-9940-2e0802cd8590","ios":"levelo://app?vid=b7965caf-e4c5-4273-9940-2e0802cd8590"},"vehicle_type_id":"4","last_reported":1728544135,"current_range_meters":38000,"station_id":"ce4bhq12rcd13ifvqhig","pricing_plan_id":"cebpf4jnsgd1na2vs0mg"},{"bike_id":"886aa239-0ce6-4cc7-a1be-709bc947b872","system_id":"levelo_inurba_marseille","lat":43.28151,"lon":5.42652,"is_reserved":false,"is_disabled":false,"rental_uris":{"android":"levelo://app?vid=886aa239-0ce6-4cc7-a1be-709bc947b872","ios":"levelo://app?vid=886aa239-0ce6-4cc7-a1be-709bc947b872"},"vehicle_type_id":"4","last_reported":1728544135,"current_range_meters":7200,"station_id":"ce4bhnh2rcd13ifvqgug","pricing_plan_id":"cebpf4jnsgd1na2vs0mg"},{"bike_id":"7f4cb316-eedc-4555-b9a1-bdd81f5fb4e5","system_id":"levelo_inurba_marseille","lat":43.26209,"lon":5.37923,"is_reserved":false,"is_disabled":false,"rental_uris":{"android":"levelo://app?vid=7f4cb316-eedc-4555-b9a1-bdd81f5fb4e5","ios":"levelo://app?vid=7f4cb316-eedc-4555-b9a1-bdd81f5fb4e5"},"vehicle_type_id":"4","last_reported":1728544135,"current_range_meters":26000,"station_id":"ce4bhjp2rcd13ifvqg90","pricing_plan_id":"cebpf4jnsgd1na2vs0mg"},{"bike_id":"6ac01319-5f01-43b5-b52d-79391e18b456","system_id":"levelo_inurba_marseille","lat":43.24184,"lon":5.39718,"is_reserved":false,"is_disabled":false,"rental_uris":{"android":"levelo://app?vid=6ac01319-5f01-43b5-b52d-79391e18b456","ios":"levelo://app?vid=6ac01319-5f01-43b5-b52d-79391e18b456"},"vehicle_type_id":"4","last_reported":1728544135,"current_range_meters":36800,"station_id":"ce4bhn12rcd13ifvqgpg","pricing_plan_id":"cebpf4jnsgd1na2vs0mg"},{"bike_id":"e5aae892-bf84-4196-b8d8-b1812af6f5d8","system_id":"levelo_inurba_marseille","lat":43.33608,"lon":5.41032,"is_reserved":false,"is_disabled":false,"rental_uris":{"android":"levelo://app?vid=e5aae892-bf84-4196-b8d8-b1812af6f5d8","ios":"levelo://app?vid=e5aae892-bf84-4196-b8d8-b1812af6f5d8"},"vehicle_type_id":"4","last_reported":1728544135,"current_range_meters":34000,"station_id":"ce4bhqh2rcd13ifvqhmg","pricing_plan_id":"cebpf4jnsgd1na2vs0mg"},{"bike_id":"97797349-fd2a-4ce4-b723-14f3d465d041","system_id":"levelo_inurba_marseille","lat":43.27497,"lon":5.42447,"is_reserved":false,"is_disabled":false,"rental_uris":{"android":"levelo://app?vid=97797349-fd2a-4ce4-b723-14f3d465d041","ios":"levelo://app?vid=97797349-fd2a-4ce4-b723-14f3d465d041"},"vehicle_type_id":"4","last_reported":1728544135,"current_range_meters":38400,"station_id":"ce4bhn92rcd13ifvqgrg","pricing_plan_id":"cebpf4jnsgd1na2vs0mg"},{"bike_id":"39d4f329-5b71-4253-bb84-effb88455907","system_id":"levelo_inurba_marseille","lat":43.31756,"lon":5.39016,"is_reserved":false,"is_disabled":false,"rental_uris":{"android":"levelo://app?vid=39d4f329-5b71-4253-bb84-effb88455907","ios":"levelo://app?vid=39d4f329-5b71-4253-bb84-effb88455907"},"vehicle_type_id":"4","last_reported":1728544135,"current_range_meters":34000,"station_id":"ce4bhqp2rcd13ifvqhng","pricing_plan_id":"cebpf4jnsgd1na2vs0mg"},{"bike_id":"9801f54a-433d-4d93-84b8-0159e49a9906","system_id":"levelo_inurba_marseille","lat":43.28154,"lon":5.42644,"is_reserved":false,"is_disabled":false,"rental_uris":{"android":"levelo://app?vid=9801f54a-433d-4d93-84b8-0159e49a9906","ios":"levelo://app?vid=9801f54a-433d-4d93-84b8-0159e49a9906"},"vehicle_type_id":"4","last_reported":1728544135,"current_range_meters":37600,"station_id":"ce4bhnh2rcd13ifvqgug","pricing_plan_id":"cebpf4jnsgd1na2vs0mg"},{"bike_id":"99f10e9f-bb03-40d6-a93f-3182b624514f","system_id":"levelo_inurba_marseille","lat":43.23964,"lon":5.36631,"is_reserved":false,"is_disabled":false,"rental_uris":{"android":"levelo://app?vid=99f10e9f-bb03-40d6-a93f-3182b624514f","ios":"levelo://app?vid=99f10e9f-bb03-40d6-a93f-3182b624514f"},"vehicle_type_id":"4","last_reported":1728544135,"current_range_meters":26000,"station_id":"ce4bhi12rcd13ifvqfp0","pricing_plan_id":"cebpf4jnsgd1na2vs0mg"},{"bike_id":"a4cfb676-c3d4-47c3-81cb-4244f3fedb71","system_id":"levelo_inurba_marseille","lat":43.30281,"lon":5.37717,"is_reserved":false,"is_disabled":false,"rental_uris":{"android":"levelo://app?vid=a4cfb676-c3d4-47c3-81cb-4244f3fedb71","ios":"levelo://app?vid=a4cfb676-c3d4-47c3-81cb-4244f3fedb71"},"vehicle_type_id":"4","last_reported":1728544135,"current_range_meters":30800,"station_id":"ce4bguh2rcd13ifvqcj0","pricing_plan_id":"cebpf4jnsgd1na2vs0mg"},{"bike_id":"bb870c43-42c1-4615-91e5-df282971f44c","system_id":"levelo_inurba_marseille","lat":43.29523,"lon":5.39063,"is_reserved":false,"is_disabled":false,"rental_uris":{"android":"levelo://app?vid=bb870c43-42c1-4615-91e5-df282971f44c","ios":"levelo://app?vid=bb870c43-42c1-4615-91e5-df282971f44c"},"vehicle_type_id":"4","last_reported":1728544135,"current_range_meters":12000,"station_id":"ce4bh3p2rcd13ifvqdp0","pricing_plan_id":"cebpf4jnsgd1na2vs0mg"},{"bike_id":"55a225cb-133c-4005-acec-6b888853cdd8","system_id":"levelo_inurba_marseille","lat":43.31227,"lon":5.36869,"is_reserved":false,"is_disabled":false,"rental_uris":{"android":"levelo://app?vid=55a225cb-133c-4005-acec-6b888853cdd8","ios":"levelo://app?vid=55a225cb-133c-4005-acec-6b888853cdd8"},"vehicle_type_id":"4","last_reported":1728544135,"current_range_meters":27600,"station_id":"ce4bgl92rcd13ifvqbq0","pricing_plan_id":"cebpf4jnsgd1na2vs0mg"},{"bike_id":"0383e821-f7aa-4bba-a5f5-642d7a1d6b38","system_id":"levelo_inurba_marseille","lat":43.27494,"lon":5.42458,"is_reserved":false,"is_disabled":false,"rental_uris":{"android":"levelo://app?vid=0383e821-f7aa-4bba-a5f5-642d7a1d6b38","ios":"levelo://app?vid=0383e821-f7aa-4bba-a5f5-642d7a1d6b38"},"vehicle_type_id":"4","last_reported":1728544135,"current_range_meters":30000,"station_id":"ce4bhn92rcd13ifvqgrg","pricing_plan_id":"cebpf4jnsgd1na2vs0mg"},{"bike_id":"57063353-a183-4b5b-8adf-fd38dffc9411","system_id":"levelo_inurba_marseille","lat":43.30285,"lon":5.37715,"is_reserved":false,"is_disabled":false,"rental_uris":{"android":"levelo://app?vid=57063353-a183-4b5b-8adf-fd38dffc9411","ios":"levelo://app?vid=57063353-a183-4b5b-8adf-fd38dffc9411"},"vehicle_type_id":"4","last_reported":1728544135,"current_range_meters":36400,"station_id":"ce4bguh2rcd13ifvqcj0","pricing_plan_id":"cebpf4jnsgd1na2vs0mg"},{"bike_id":"e872fc30-3c57-4a83-b46e-c9748d4c279a","system_id":"levelo_inurba_marseille","lat":43.33724,"lon":5.39195,"is_reserved":false,"is_disabled":false,"rental_uris":{"android":"levelo://app?vid=e872fc30-3c57-4a83-b46e-c9748d4c279a","ios":"levelo://app?vid=e872fc30-3c57-4a83-b46e-c9748d4c279a"},"vehicle_type_id":"4","last_reported":1728544135,"current_range_meters":27200,"station_id":"ce4bhr92rcd13ifvqhsg","pricing_plan_id":"cebpf4jnsgd1na2vs0mg"},{"bike_id":"25aeb13f-8bb2-4c1d-8a32-89d92a3e880c","system_id":"levelo_inurba_marseille","lat":43.24074,"lon":5.37759,"is_reserved":false,"is_disabled":false,"rental_uris":{"android":"levelo://app?vid=25aeb13f-8bb2-4c1d-8a32-89d92a3e880c","ios":"levelo://app?vid=25aeb13f-8bb2-4c1d-8a32-89d92a3e880c"},"vehicle_type_id":"4","last_reported":1728544135,"current_range_meters":28800,"station_id":"ce4bhnp2rcd13ifvqgvg","pricing_plan_id":"cebpf4jnsgd1na2vs0mg"},{"bike_id":"af28d066-a466-4ed7-bf62-08efa15ec1ce","system_id":"levelo_inurba_marseille","lat":43.241828,"lon":5.397197,"is_reserved":false,"is_disabled":false,"rental_uris":{"android":"levelo://app?vid=af28d066-a466-4ed7-bf62-08efa15ec1ce","ios":"levelo://app?vid=af28d066-a466-4ed7-bf62-08efa15ec1ce"},"vehicle_type_id":"4","last_reported":1728544135,"current_range_meters":36800,"station_id":"ce4bhn12rcd13ifvqgpg","pricing_plan_id":"cebpf4jnsgd1na2vs0mg"},{"bike_id":"de84acda-6809-47d1-a7b3-9a48fd0b44e7","system_id":"levelo_inurba_marseille","lat":43.2594,"lon":5.40909,"is_reserved":false,"is_disabled":false,"rental_uris":{"android":"levelo://app?vid=de84acda-6809-47d1-a7b3-9a48fd0b44e7","ios":"levelo://app?vid=de84acda-6809-47d1-a7b3-9a48fd0b44e7"},"vehicle_type_id":"4","last_reported":1728544135,"current_range_meters":25600,"station_id":"ce4bhm92rcd13ifvqglg","pricing_plan_id":"cebpf4jnsgd1na2vs0mg"},{"bike_id":"919515bb-aced-4b9f-b39c-cf960e5406f0","system_id":"levelo_inurba_marseille","lat":43.2408,"lon":5.37758,"is_reserved":false,"is_disabled":false,"rental_uris":{"android":"levelo://app?vid=919515bb-aced-4b9f-b39c-cf960e5406f0","ios":"levelo://app?vid=919515bb-aced-4b9f-b39c-cf960e5406f0"},"vehicle_type_id":"4","last_reported":1728544135,"current_range_meters":24400,"station_id":"ce4bhnp2rcd13ifvqgvg","pricing_plan_id":"cebpf4jnsgd1na2vs0mg"},{"bike_id":"6541639e-7721-4ca2-836b-a40c293e2191","system_id":"levelo_inurba_marseille","lat":43.31351,"lon":5.36688,"is_reserved":false,"is_disabled":false,"rental_uris":{"android":"levelo://app?vid=6541639e-7721-4ca2-836b-a40c293e2191","ios":"levelo://app?vid=6541639e-7721-4ca2-836b-a40c293e2191"},"vehicle_type_id":"4","last_reported":1728544135,"current_range_meters":35600,"station_id":"ce4bgr92rcd13ifvqc6g","pricing_plan_id":"cebpf4jnsgd1na2vs0mg"},{"bike_id":"7c830a7a-88a3-47c3-beae-d7986b2e3594","system_id":"levelo_inurba_marseille","lat":43.337576,"lon":5.374671,"is_reserved":false,"is_disabled":false,"rental_uris":{"android":"levelo://app?vid=7c830a7a-88a3-47c3-beae-d7986b2e3594","ios":"levelo://app?vid=7c830a7a-88a3-47c3-beae-d7986b2e3594"},"vehicle_type_id":"4","last_reported":1728544135,"current_range_meters":9600,"station_id":"ce4rr2p2rcd13i802rgg","pricing_plan_id":"cebpf4jnsgd1na2vs0mg"},{"bike_id":"1724a986-206e-44c4-acc6-99c3f365633c","system_id":"levelo_inurba_marseille","lat":43.23191,"lon":5.3555,"is_reserved":false,"is_disabled":false,"rental_uris":{"android":"levelo://app?vid=1724a986-206e-44c4-acc6-99c3f365633c","ios":"levelo://app?vid=1724a986-206e-44c4-acc6-99c3f365633c"},"vehicle_type_id":"4","last_reported":1728544135,"current_range_meters":19600,"station_id":"ce4bhu92rcd13ifvqi70","pricing_plan_id":"cebpf4jnsgd1na2vs0mg"},{"bike_id":"0a650b32-7ff6-4bbb-941b-3fc2e740d408","system_id":"levelo_inurba_marseille","lat":43.24182,"lon":5.39733,"is_reserved":false,"is_disabled":false,"rental_uris":{"android":"levelo://app?vid=0a650b32-7ff6-4bbb-941b-3fc2e740d408","ios":"levelo://app?vid=0a650b32-7ff6-4bbb-941b-3fc2e740d408"},"vehicle_type_id":"4","last_reported":1728544135,"current_range_meters":30800,"station_id":"ce4bhn12rcd13ifvqgpg","pricing_plan_id":"cebpf4jnsgd1na2vs0mg"},{"bike_id":"c9f14e7e-cd41-4306-8cc0-0536ea78d422","system_id":"levelo_inurba_marseille","lat":43.3375,"lon":5.37459,"is_reserved":false,"is_disabled":false,"rental_uris":{"android":"levelo://app?vid=c9f14e7e-cd41-4306-8cc0-0536ea78d422","ios":"levelo://app?vid=c9f14e7e-cd41-4306-8cc0-0536ea78d422"},"vehicle_type_id":"4","last_reported":1728544135,"current_range_meters":36800,"station_id":"","pricing_plan_id":"cebpf4jnsgd1na2vs0mg"},{"bike_id":"9fb561af-1165-43b4-ba74-81f5923c4f1c","system_id":"levelo_inurba_marseille","lat":43.33618,"lon":5.41039,"is_reserved":false,"is_disabled":false,"rental_uris":{"android":"levelo://app?vid=9fb561af-1165-43b4-ba74-81f5923c4f1c","ios":"levelo://app?vid=9fb561af-1165-43b4-ba74-81f5923c4f1c"},"vehicle_type_id":"4","last_reported":1728544135,"current_range_meters":38800,"station_id":"ce4bhqh2rcd13ifvqhmg","pricing_plan_id":"cebpf4jnsgd1na2vs0mg"},{"bike_id":"26b2eceb-c692-4d14-8cc1-fff73c1bb944","system_id":"levelo_inurba_marseille","lat":43.300771,"lon":5.390701,"is_reserved":false,"is_disabled":false,"rental_uris":{"android":"levelo://app?vid=26b2eceb-c692-4d14-8cc1-fff73c1bb944","ios":"levelo://app?vid=26b2eceb-c692-4d14-8cc1-fff73c1bb944"},"vehicle_type_id":"4","last_reported":1728544135,"current_range_meters":24400,"station_id":"ce4bh192rcd13ifvqdb0","pricing_plan_id":"cebpf4jnsgd1na2vs0mg"},{"bike_id":"2901e185-86be-4533-8c67-bc9c3fe67c09","system_id":"levelo_inurba_marseille","lat":43.32532,"lon":5.41454,"is_reserved":false,"is_disabled":false,"rental_uris":{"android":"levelo://app?vid=2901e185-86be-4533-8c67-bc9c3fe67c09","ios":"levelo://app?vid=2901e185-86be-4533-8c67-bc9c3fe67c09"},"vehicle_type_id":"4","last_reported":1728544135,"current_range_meters":35200,"station_id":"ce4bhq12rcd13ifvqhhg","pricing_plan_id":"cebpf4jnsgd1na2vs0mg"},{"bike_id":"184817a4-5fbe-49f3-a7d3-2ceeb234f685","system_id":"levelo_inurba_marseille","lat":43.290355,"lon":5.359169,"is_reserved":false,"is_disabled":false,"rental_uris":{"android":"levelo://app?vid=184817a4-5fbe-49f3-a7d3-2ceeb234f685","ios":"levelo://app?vid=184817a4-5fbe-49f3-a7d3-2ceeb234f685"},"vehicle_type_id":"4","last_reported":1728544135,"current_range_meters":8000,"station_id":"ce4bha92rcd13ifvqeg0","pricing_plan_id":"cebpf4jnsgd1na2vs0mg"},{"bike_id":"a283cbf4-3a4c-46de-ac3d-4d7c731b36e3","system_id":"levelo_inurba_marseille","lat":43.33607,"lon":5.41031,"is_reserved":false,"is_disabled":false,"rental_uris":{"android":"levelo://app?vid=a283cbf4-3a4c-46de-ac3d-4d7c731b36e3","ios":"levelo://app?vid=a283cbf4-3a4c-46de-ac3d-4d7c731b36e3"},"vehicle_type_id":"4","last_reported":1728544135,"current_range_meters":28400,"station_id":"ce4bhqh2rcd13ifvqhmg","pricing_plan_id":"cebpf4jnsgd1na2vs0mg"},{"bike_id":"47599fab-79da-461f-89fd-43d1d10b8a6d","system_id":"levelo_inurba_marseille","lat":43.23156,"lon":5.4371,"is_reserved":false,"is_disabled":false,"rental_uris":{"android":"levelo://app?vid=47599fab-79da-461f-89fd-43d1d10b8a6d","ios":"levelo://app?vid=47599fab-79da-461f-89fd-43d1d10b8a6d"},"vehicle_type_id":"4","last_reported":1728544135,"current_range_meters":39200,"station_id":"ce4bhmp2rcd13ifvqgog","pricing_plan_id":"cebpf4jnsgd1na2vs0mg"},{"bike_id":"cffce793-1dbe-4d0b-8799-7d818b935ff1","system_id":"levelo_inurba_marseille","lat":43.29578,"lon":5.36748,"is_reserved":false,"is_disabled":false,"rental_uris":{"android":"levelo://app?vid=cffce793-1dbe-4d0b-8799-7d818b935ff1","ios":"levelo://app?vid=cffce793-1dbe-4d0b-8799-7d818b935ff1"},"vehicle_type_id":"4","last_reported":1728544135,"current_range_meters":28000,"station_id":"ce4bgph2rcd13ifvqc2g","pricing_plan_id":"cebpf4jnsgd1na2vs0mg"},{"bike_id":"c2709d8c-182c-4c66-9678-32143d413767","system_id":"levelo_inurba_marseille","lat":43.22936,"lon":5.35378,"is_reserved":false,"is_disabled":false,"rental_uris":{"android":"levelo://app?vid=c2709d8c-182c-4c66-9678-32143d413767","ios":"levelo://app?vid=c2709d8c-182c-4c66-9678-32143d413767"},"vehicle_type_id":"4","last_reported":1728544135,"current_range_meters":37600,"station_id":"cpo3532slgdg3j2ikp40","pricing_plan_id":"cebpf4jnsgd1na2vs0mg"},{"bike_id":"9fb0f884-1315-4212-aa90-4f04308c55fb","system_id":"levelo_inurba_marseille","lat":43.337444,"lon":5.374475,"is_reserved":false,"is_disabled":false,"rental_uris":{"android":"levelo://app?vid=9fb0f884-1315-4212-aa90-4f04308c55fb","ios":"levelo://app?vid=9fb0f884-1315-4212-aa90-4f04308c55fb"},"vehicle_type_id":"4","last_reported":1728544135,"current_range_meters":13600,"station_id":"","pricing_plan_id":"cebpf4jnsgd1na2vs0mg"},{"bike_id":"c909d09a-ba9d-494d-99ae-367ad5ef8d1c","system_id":"levelo_inurba_marseille","lat":43.30548,"lon":5.36726,"is_reserved":false,"is_disabled":false,"rental_uris":{"android":"levelo://app?vid=c909d09a-ba9d-494d-99ae-367ad5ef8d1c","ios":"levelo://app?vid=c909d09a-ba9d-494d-99ae-367ad5ef8d1c"},"vehicle_type_id":"4","last_reported":1728544135,"current_range_meters":28800,"station_id":"ce4bgrp2rcd13ifvqc9g","pricing_plan_id":"cebpf4jnsgd1na2vs0mg"},{"bike_id":"b4cba638-8163-46a3-b411-e2ad75a37a80","system_id":"levelo_inurba_marseille","lat":43.24661,"lon":5.38161,"is_reserved":false,"is_disabled":false,"rental_uris":{"android":"levelo://app?vid=b4cba638-8163-46a3-b411-e2ad75a37a80","ios":"levelo://app?vid=b4cba638-8163-46a3-b411-e2ad75a37a80"},"vehicle_type_id":"4","last_reported":1728544135,"current_range_meters":27600,"station_id":"ce4bhih2rcd13ifvqfr0","pricing_plan_id":"cebpf4jnsgd1na2vs0mg"},{"bike_id":"1dcaef22-2c4c-46cd-a47b-712f6c26cc51","system_id":"levelo_inurba_marseille","lat":43.2749,"lon":5.42456,"is_reserved":false,"is_disabled":false,"rental_uris":{"android":"levelo://app?vid=1dcaef22-2c4c-46cd-a47b-712f6c26cc51","ios":"levelo://app?vid=1dcaef22-2c4c-46cd-a47b-712f6c26cc51"},"vehicle_type_id":"4","last_reported":1728544135,"current_range_meters":38000,"station_id":"ce4bhn92rcd13ifvqgrg","pricing_plan_id":"cebpf4jnsgd1na2vs0mg"},{"bike_id":"b8f66504-9c7c-4c8a-ace8-385bad15c11b","system_id":"levelo_inurba_marseille","lat":43.30137,"lon":5.38068,"is_reserved":false,"is_disabled":false,"rental_uris":{"android":"levelo://app?vid=b8f66504-9c7c-4c8a-ace8-385bad15c11b","ios":"levelo://app?vid=b8f66504-9c7c-4c8a-ace8-385bad15c11b"},"vehicle_type_id":"4","last_reported":1728544135,"current_range_meters":16400,"station_id":"ce4bgjp2rcd13ifvqbh0","pricing_plan_id":"cebpf4jnsgd1na2vs0mg"},{"bike_id":"19a2cb84-cf46-4abb-a6f3-027ac0c52cb4","system_id":"levelo_inurba_marseille","lat":43.24072,"lon":5.37761,"is_reserved":false,"is_disabled":false,"rental_uris":{"android":"levelo://app?vid=19a2cb84-cf46-4abb-a6f3-027ac0c52cb4","ios":"levelo://app?vid=19a2cb84-cf46-4abb-a6f3-027ac0c52cb4"},"vehicle_type_id":"4","last_reported":1728544135,"current_range_meters":36800,"station_id":"ce4bhnp2rcd13ifvqgvg","pricing_plan_id":"cebpf4jnsgd1na2vs0mg"},{"bike_id":"af059450-81b1-4513-8105-427d08378aaf","system_id":"levelo_inurba_marseille","lat":43.2408,"lon":5.37759,"is_reserved":false,"is_disabled":false,"rental_uris":{"android":"levelo://app?vid=af059450-81b1-4513-8105-427d08378aaf","ios":"levelo://app?vid=af059450-81b1-4513-8105-427d08378aaf"},"vehicle_type_id":"4","last_reported":1728544135,"current_range_meters":29600,"station_id":"ce4bhnp2rcd13ifvqgvg","pricing_plan_id":"cebpf4jnsgd1na2vs0mg"},{"bike_id":"6a4f0932-7419-4f15-8fc2-bf977b00a889","system_id":"levelo_inurba_marseille","lat":43.29074,"lon":5.37178,"is_reserved":false,"is_disabled":false,"rental_uris":{"android":"levelo://app?vid=6a4f0932-7419-4f15-8fc2-bf977b00a889","ios":"levelo://app?vid=6a4f0932-7419-4f15-8fc2-bf977b00a889"},"vehicle_type_id":"4","last_reported":1728544135,"current_range_meters":12800,"station_id":"ce4bh5p2rcd13ifvqe4g","pricing_plan_id":"cebpf4jnsgd1na2vs0mg"},{"bike_id":"9d66ea66-aee5-4d81-b0fb-4e4111d9317a","system_id":"levelo_inurba_marseille","lat":43.290633,"lon":5.371663,"is_reserved":false,"is_disabled":false,"rental_uris":{"android":"levelo://app?vid=9d66ea66-aee5-4d81-b0fb-4e4111d9317a","ios":"levelo://app?vid=9d66ea66-aee5-4d81-b0fb-4e4111d9317a"},"vehicle_type_id":"4","last_reported":1728544135,"current_range_meters":9600,"station_id":"ce4bh5p2rcd13ifvqe4g","pricing_plan_id":"cebpf4jnsgd1na2vs0mg"},{"bike_id":"f4d16d74-9f5d-4324-bee1-48b07e6d7978","system_id":"levelo_inurba_marseille","lat":43.32657,"lon":5.40997,"is_reserved":false,"is_disabled":false,"rental_uris":{"android":"levelo://app?vid=f4d16d74-9f5d-4324-bee1-48b07e6d7978","ios":"levelo://app?vid=f4d16d74-9f5d-4324-bee1-48b07e6d7978"},"vehicle_type_id":"4","last_reported":1728544135,"current_range_meters":30800,"station_id":"ce4bhpp2rcd13ifvqhgg","pricing_plan_id":"cebpf4jnsgd1na2vs0mg"},{"bike_id":"4918291f-19ab-4f46-a135-d61fa7a26c4f","system_id":"levelo_inurba_marseille","lat":43.32476,"lon":5.36572,"is_reserved":false,"is_disabled":false,"rental_uris":{"android":"levelo://app?vid=4918291f-19ab-4f46-a135-d61fa7a26c4f","ios":"levelo://app?vid=4918291f-19ab-4f46-a135-d61fa7a26c4f"},"vehicle_type_id":"4","last_reported":1728544135,"current_range_meters":25600,"station_id":"ce4bhs12rcd13ifvqhvg","pricing_plan_id":"cebpf4jnsgd1na2vs0mg"},{"bike_id":"191f894c-5ec4-4bb3-adfc-c821a49bd142","system_id":"levelo_inurba_marseille","lat":43.3248,"lon":5.36575,"is_reserved":false,"is_disabled":false,"rental_uris":{"android":"levelo://app?vid=191f894c-5ec4-4bb3-adfc-c821a49bd142","ios":"levelo://app?vid=191f894c-5ec4-4bb3-adfc-c821a49bd142"},"vehicle_type_id":"4","last_reported":1728544135,"current_range_meters":30800,"station_id":"ce4bhs12rcd13ifvqhvg","pricing_plan_id":"cebpf4jnsgd1na2vs0mg"},{"bike_id":"f92a9fb8-9f73-4cf9-bc9b-2bdf5b520248","system_id":"levelo_inurba_marseille","lat":43.32542,"lon":5.41451,"is_reserved":false,"is_disabled":false,"rental_uris":{"android":"levelo://app?vid=f92a9fb8-9f73-4cf9-bc9b-2bdf5b520248","ios":"levelo://app?vid=f92a9fb8-9f73-4cf9-bc9b-2bdf5b520248"},"vehicle_type_id":"4","last_reported":1728544135,"current_range_meters":39200,"station_id":"ce4bhq12rcd13ifvqhhg","pricing_plan_id":"cebpf4jnsgd1na2vs0mg"},{"bike_id":"c0a7d119-1b28-4b92-b8e2-5a72e71ff77d","system_id":"levelo_inurba_marseille","lat":43.32056,"lon":5.41544,"is_reserved":false,"is_disabled":false,"rental_uris":{"android":"levelo://app?vid=c0a7d119-1b28-4b92-b8e2-5a72e71ff77d","ios":"levelo://app?vid=c0a7d119-1b28-4b92-b8e2-5a72e71ff77d"},"vehicle_type_id":"4","last_reported":1728544135,"current_range_meters":8800,"station_id":"ce4bhq92rcd13ifvqhkg","pricing_plan_id":"cebpf4jnsgd1na2vs0mg"},{"bike_id":"252fdafd-d8bd-4445-933f-8c7cfafc9fac","system_id":"levelo_inurba_marseille","lat":43.24806,"lon":5.37456,"is_reserved":false,"is_disabled":false,"rental_uris":{"android":"levelo://app?vid=252fdafd-d8bd-4445-933f-8c7cfafc9fac","ios":"levelo://app?vid=252fdafd-d8bd-4445-933f-8c7cfafc9fac"},"vehicle_type_id":"4","last_reported":1728544135,"current_range_meters":28000,"station_id":"ce4bhgh2rcd13ifvqfb0","pricing_plan_id":"cebpf4jnsgd1na2vs0mg"},{"bike_id":"53f01418-4c04-4b1b-b3dc-f93d2ceb2ee6","system_id":"levelo_inurba_marseille","lat":43.29624,"lon":5.3717,"is_reserved":false,"is_disabled":false,"rental_uris":{"android":"levelo://app?vid=53f01418-4c04-4b1b-b3dc-f93d2ceb2ee6","ios":"levelo://app?vid=53f01418-4c04-4b1b-b3dc-f93d2ceb2ee6"},"vehicle_type_id":"4","last_reported":1728544135,"current_range_meters":39200,"station_id":"ce4bgnh2rcd13ifvqc0g","pricing_plan_id":"cebpf4jnsgd1na2vs0mg"},{"bike_id":"6e0ea931-7501-46bc-9508-6eccb758348e","system_id":"levelo_inurba_marseille","lat":43.24072,"lon":5.37762,"is_reserved":false,"is_disabled":false,"rental_uris":{"android":"levelo://app?vid=6e0ea931-7501-46bc-9508-6eccb758348e","ios":"levelo://app?vid=6e0ea931-7501-46bc-9508-6eccb758348e"},"vehicle_type_id":"4","last_reported":1728544135,"current_range_meters":38000,"station_id":"ce4bhnp2rcd13ifvqgvg","pricing_plan_id":"cebpf4jnsgd1na2vs0mg"},{"bike_id":"fc7c8d91-b1a0-4ad9-a4df-f62029c13000","system_id":"levelo_inurba_marseille","lat":43.31222,"lon":5.36863,"is_reserved":false,"is_disabled":false,"rental_uris":{"android":"levelo://app?vid=fc7c8d91-b1a0-4ad9-a4df-f62029c13000","ios":"levelo://app?vid=fc7c8d91-b1a0-4ad9-a4df-f62029c13000"},"vehicle_type_id":"4","last_reported":1728544135,"current_range_meters":24000,"station_id":"ce4bgl92rcd13ifvqbq0","pricing_plan_id":"cebpf4jnsgd1na2vs0mg"},{"bike_id":"1041b9a4-24b6-4e96-8c12-5b22e14ad25e","system_id":"levelo_inurba_marseille","lat":43.29037,"lon":5.37558,"is_reserved":false,"is_disabled":false,"rental_uris":{"android":"levelo://app?vid=1041b9a4-24b6-4e96-8c12-5b22e14ad25e","ios":"levelo://app?vid=1041b9a4-24b6-4e96-8c12-5b22e14ad25e"},"vehicle_type_id":"4","last_reported":1728544135,"current_range_meters":25600,"station_id":"ce4bh692rcd13ifvqe90","pricing_plan_id":"cebpf4jnsgd1na2vs0mg"},{"bike_id":"68918e1c-90ca-465f-be2a-d5a20a6657c0","system_id":"levelo_inurba_marseille","lat":43.25937,"lon":5.40906,"is_reserved":false,"is_disabled":false,"rental_uris":{"android":"levelo://app?vid=68918e1c-90ca-465f-be2a-d5a20a6657c0","ios":"levelo://app?vid=68918e1c-90ca-465f-be2a-d5a20a6657c0"},"vehicle_type_id":"4","last_reported":1728544135,"current_range_meters":17200,"station_id":"ce4bhm92rcd13ifvqglg","pricing_plan_id":"cebpf4jnsgd1na2vs0mg"},{"bike_id":"7c24fe02-f2b8-4e4c-9d99-9b350762dca2","system_id":"levelo_inurba_marseille","lat":43.24082,"lon":5.37752,"is_reserved":false,"is_disabled":false,"rental_uris":{"android":"levelo://app?vid=7c24fe02-f2b8-4e4c-9d99-9b350762dca2","ios":"levelo://app?vid=7c24fe02-f2b8-4e4c-9d99-9b350762dca2"},"vehicle_type_id":"4","last_reported":1728544135,"current_range_meters":24400,"station_id":"ce4bhnp2rcd13ifvqgvg","pricing_plan_id":"cebpf4jnsgd1na2vs0mg"},{"bike_id":"50aa4af7-94b4-48c9-959d-eeec3eaec001","system_id":"levelo_inurba_marseille","lat":43.23196,"lon":5.35545,"is_reserved":false,"is_disabled":false,"rental_uris":{"android":"levelo://app?vid=50aa4af7-94b4-48c9-959d-eeec3eaec001","ios":"levelo://app?vid=50aa4af7-94b4-48c9-959d-eeec3eaec001"},"vehicle_type_id":"4","last_reported":1728544135,"current_range_meters":8400,"station_id":"ce4bhu92rcd13ifvqi70","pricing_plan_id":"cebpf4jnsgd1na2vs0mg"},{"bike_id":"2fc520c6-ec15-4e61-8b1b-87c16b01b31c","system_id":"levelo_inurba_marseille","lat":43.25088,"lon":5.39509,"is_reserved":false,"is_disabled":false,"rental_uris":{"android":"levelo://app?vid=2fc520c6-ec15-4e61-8b1b-87c16b01b31c","ios":"levelo://app?vid=2fc520c6-ec15-4e61-8b1b-87c16b01b31c"},"vehicle_type_id":"4","last_reported":1728544135,"current_range_meters":18000,"station_id":"ce4bhm12rcd13ifvqgkg","pricing_plan_id":"cebpf4jnsgd1na2vs0mg"},{"bike_id":"bd495efc-fea9-44d8-a5bd-5fd5e04140f3","system_id":"levelo_inurba_marseille","lat":43.29227,"lon":5.36073,"is_reserved":false,"is_disabled":false,"rental_uris":{"android":"levelo://app?vid=bd495efc-fea9-44d8-a5bd-5fd5e04140f3","ios":"levelo://app?vid=bd495efc-fea9-44d8-a5bd-5fd5e04140f3"},"vehicle_type_id":"4","last_reported":1728544135,"current_range_meters":36400,"station_id":"ce4bhbh2rcd13ifvqeqg","pricing_plan_id":"cebpf4jnsgd1na2vs0mg"},{"bike_id":"ca356b29-ff94-4441-a9e1-4395d5b28767","system_id":"levelo_inurba_marseille","lat":43.2669,"lon":5.38283,"is_reserved":false,"is_disabled":false,"rental_uris":{"android":"levelo://app?vid=ca356b29-ff94-4441-a9e1-4395d5b28767","ios":"levelo://app?vid=ca356b29-ff94-4441-a9e1-4395d5b28767"},"vehicle_type_id":"4","last_reported":1728544135,"current_range_meters":28000,"station_id":"ce4bhg92rcd13ifvqf90","pricing_plan_id":"cebpf4jnsgd1na2vs0mg"},{"bike_id":"7c391a4a-0f07-4127-9193-ebd114642d44","system_id":"levelo_inurba_marseille","lat":43.23958,"lon":5.36641,"is_reserved":false,"is_disabled":false,"rental_uris":{"android":"levelo://app?vid=7c391a4a-0f07-4127-9193-ebd114642d44","ios":"levelo://app?vid=7c391a4a-0f07-4127-9193-ebd114642d44"},"vehicle_type_id":"4","last_reported":1728544135,"current_range_meters":3200,"station_id":"ce4bhi12rcd13ifvqfp0","pricing_plan_id":"cebpf4jnsgd1na2vs0mg"},{"bike_id":"48eacddf-68c2-479d-95fb-5ac38df97c75","system_id":"levelo_inurba_marseille","lat":43.2958,"lon":5.36749,"is_reserved":false,"is_disabled":false,"rental_uris":{"android":"levelo://app?vid=48eacddf-68c2-479d-95fb-5ac38df97c75","ios":"levelo://app?vid=48eacddf-68c2-479d-95fb-5ac38df97c75"},"vehicle_type_id":"4","last_reported":1728544135,"current_range_meters":28800,"station_id":"ce4bgph2rcd13ifvqc2g","pricing_plan_id":"cebpf4jnsgd1na2vs0mg"},{"bike_id":"5fcb97b9-d425-4a7f-9ed0-6de30a7d55a1","system_id":"levelo_inurba_marseille","lat":43.24804,"lon":5.37461,"is_reserved":false,"is_disabled":false,"rental_uris":{"android":"levelo://app?vid=5fcb97b9-d425-4a7f-9ed0-6de30a7d55a1","ios":"levelo://app?vid=5fcb97b9-d425-4a7f-9ed0-6de30a7d55a1"},"vehicle_type_id":"4","last_reported":1728544135,"current_range_meters":36000,"station_id":"ce4bhgh2rcd13ifvqfb0","pricing_plan_id":"cebpf4jnsgd1na2vs0mg"},{"bike_id":"09f79f1c-6319-482d-b2f6-19e2bc15c740","system_id":"levelo_inurba_marseille","lat":43.28083,"lon":5.40504,"is_reserved":false,"is_disabled":false,"rental_uris":{"android":"levelo://app?vid=09f79f1c-6319-482d-b2f6-19e2bc15c740","ios":"levelo://app?vid=09f79f1c-6319-482d-b2f6-19e2bc15c740"},"vehicle_type_id":"4","last_reported":1728544135,"current_range_meters":4800,"station_id":"","pricing_plan_id":"cebpf4jnsgd1na2vs0mg"},{"bike_id":"0dd8b709-aa00-43b3-b3c2-57354fabd0ef","system_id":"levelo_inurba_marseille","lat":43.30284,"lon":5.37705,"is_reserved":false,"is_disabled":false,"rental_uris":{"android":"levelo://app?vid=0dd8b709-aa00-43b3-b3c2-57354fabd0ef","ios":"levelo://app?vid=0dd8b709-aa00-43b3-b3c2-57354fabd0ef"},"vehicle_type_id":"4","last_reported":1728544135,"current_range_meters":34800,"station_id":"ce4bguh2rcd13ifvqcj0","pricing_plan_id":"cebpf4jnsgd1na2vs0mg"},{"bike_id":"b10b093b-7ee6-4d29-8c3c-c541489a488b","system_id":"levelo_inurba_marseille","lat":43.30144,"lon":5.37415,"is_reserved":false,"is_disabled":false,"rental_uris":{"android":"levelo://app?vid=b10b093b-7ee6-4d29-8c3c-c541489a488b","ios":"levelo://app?vid=b10b093b-7ee6-4d29-8c3c-c541489a488b"},"vehicle_type_id":"4","last_reported":1728544135,"current_range_meters":34000,"station_id":"ce4bgs92rcd13ifvqcc0","pricing_plan_id":"cebpf4jnsgd1na2vs0mg"},{"bike_id":"59b80e1c-ee01-4d86-911c-c2215c6be7a9","system_id":"levelo_inurba_marseille","lat":43.32541,"lon":5.41451,"is_reserved":false,"is_disabled":false,"rental_uris":{"android":"levelo://app?vid=59b80e1c-ee01-4d86-911c-c2215c6be7a9","ios":"levelo://app?vid=59b80e1c-ee01-4d86-911c-c2215c6be7a9"},"vehicle_type_id":"4","last_reported":1728544135,"current_range_meters":8000,"station_id":"ce4bhq12rcd13ifvqhhg","pricing_plan_id":"cebpf4jnsgd1na2vs0mg"},{"bike_id":"0b1140d6-a172-4a8a-803f-15d303370b5c","system_id":"levelo_inurba_marseille","lat":43.28158,"lon":5.42641,"is_reserved":false,"is_disabled":false,"rental_uris":{"android":"levelo://app?vid=0b1140d6-a172-4a8a-803f-15d303370b5c","ios":"levelo://app?vid=0b1140d6-a172-4a8a-803f-15d303370b5c"},"vehicle_type_id":"4","last_reported":1728544135,"current_range_meters":24800,"station_id":"ce4bhnh2rcd13ifvqgug","pricing_plan_id":"cebpf4jnsgd1na2vs0mg"},{"bike_id":"2c8aa3f8-6732-4a4b-8b1b-050c8eed7d4e","system_id":"levelo_inurba_marseille","lat":43.29533,"lon":5.37494,"is_reserved":false,"is_disabled":false,"rental_uris":{"android":"levelo://app?vid=2c8aa3f8-6732-4a4b-8b1b-050c8eed7d4e","ios":"levelo://app?vid=2c8aa3f8-6732-4a4b-8b1b-050c8eed7d4e"},"vehicle_type_id":"4","last_reported":1728544135,"current_range_meters":18800,"station_id":"ce4bgkp2rcd13ifvqbmg","pricing_plan_id":"cebpf4jnsgd1na2vs0mg"},{"bike_id":"81587ada-cc61-4386-b0c2-234cfb97acad","system_id":"levelo_inurba_marseille","lat":43.29559,"lon":5.42294,"is_reserved":false,"is_disabled":false,"rental_uris":{"android":"levelo://app?vid=81587ada-cc61-4386-b0c2-234cfb97acad","ios":"levelo://app?vid=81587ada-cc61-4386-b0c2-234cfb97acad"},"vehicle_type_id":"4","last_reported":1728544135,"current_range_meters":39200,"station_id":"ce4bhph2rcd13ifvqhdg","pricing_plan_id":"cebpf4jnsgd1na2vs0mg"},{"bike_id":"26598773-8eeb-4d5a-b8b3-3f5460620682","system_id":"levelo_inurba_marseille","lat":43.22935,"lon":5.35375,"is_reserved":false,"is_disabled":false,"rental_uris":{"android":"levelo://app?vid=26598773-8eeb-4d5a-b8b3-3f5460620682","ios":"levelo://app?vid=26598773-8eeb-4d5a-b8b3-3f5460620682"},"vehicle_type_id":"4","last_reported":1728544135,"current_range_meters":37600,"station_id":"cpo3532slgdg3j2ikp40","pricing_plan_id":"cebpf4jnsgd1na2vs0mg"},{"bike_id":"a22b04d3-9083-47af-bb7b-280e95b56aaf","system_id":"levelo_inurba_marseille","lat":43.26574,"lon":5.39023,"is_reserved":false,"is_disabled":false,"rental_uris":{"android":"levelo://app?vid=a22b04d3-9083-47af-bb7b-280e95b56aaf","ios":"levelo://app?vid=a22b04d3-9083-47af-bb7b-280e95b56aaf"},"vehicle_type_id":"4","last_reported":1728544135,"current_range_meters":25200,"station_id":"ce4bhe12rcd13ifvqf30","pricing_plan_id":"cebpf4jnsgd1na2vs0mg"},{"bike_id":"ff68b789-7173-415f-860f-fb58c1b9d01d","system_id":"levelo_inurba_marseille","lat":43.22928,"lon":5.35376,"is_reserved":false,"is_disabled":false,"rental_uris":{"android":"levelo://app?vid=ff68b789-7173-415f-860f-fb58c1b9d01d","ios":"levelo://app?vid=ff68b789-7173-415f-860f-fb58c1b9d01d"},"vehicle_type_id":"4","last_reported":1728544135,"current_range_meters":36800,"station_id":"cpo3532slgdg3j2ikp40","pricing_plan_id":"cebpf4jnsgd1na2vs0mg"},{"bike_id":"7715382e-e941-4043-bb62-16761964cb87","system_id":"levelo_inurba_marseille","lat":43.29303,"lon":5.37475,"is_reserved":false,"is_disabled":false,"rental_uris":{"android":"levelo://app?vid=7715382e-e941-4043-bb62-16761964cb87","ios":"levelo://app?vid=7715382e-e941-4043-bb62-16761964cb87"},"vehicle_type_id":"4","last_reported":1728544135,"current_range_meters":10800,"station_id":"ce4bgi12rcd13ifvqb70","pricing_plan_id":"cebpf4jnsgd1na2vs0mg"},{"bike_id":"467be7be-e0b0-4e6b-904e-e3d8987c9a55","system_id":"levelo_inurba_marseille","lat":43.27494,"lon":5.4246,"is_reserved":false,"is_disabled":false,"rental_uris":{"android":"levelo://app?vid=467be7be-e0b0-4e6b-904e-e3d8987c9a55","ios":"levelo://app?vid=467be7be-e0b0-4e6b-904e-e3d8987c9a55"},"vehicle_type_id":"4","last_reported":1728544135,"current_range_meters":36800,"station_id":"ce4bhn92rcd13ifvqgrg","pricing_plan_id":"cebpf4jnsgd1na2vs0mg"},{"bike_id":"7b755db8-d632-47b2-af2b-0913a00e7124","system_id":"levelo_inurba_marseille","lat":43.29581,"lon":5.36746,"is_reserved":false,"is_disabled":false,"rental_uris":{"android":"levelo://app?vid=7b755db8-d632-47b2-af2b-0913a00e7124","ios":"levelo://app?vid=7b755db8-d632-47b2-af2b-0913a00e7124"},"vehicle_type_id":"4","last_reported":1728544135,"current_range_meters":6800,"station_id":"ce4bgph2rcd13ifvqc2g","pricing_plan_id":"cebpf4jnsgd1na2vs0mg"},{"bike_id":"86a78c2a-79e3-4f25-99d0-9a42b0acad1f","system_id":"levelo_inurba_marseille","lat":43.31894,"lon":5.40742,"is_reserved":false,"is_disabled":false,"rental_uris":{"android":"levelo://app?vid=86a78c2a-79e3-4f25-99d0-9a42b0acad1f","ios":"levelo://app?vid=86a78c2a-79e3-4f25-99d0-9a42b0acad1f"},"vehicle_type_id":"4","last_reported":1728544135,"current_range_meters":38800,"station_id":"ce4bhq12rcd13ifvqhig","pricing_plan_id":"cebpf4jnsgd1na2vs0mg"},{"bike_id":"0e98676c-587f-43bc-910b-99569055e7c1","system_id":"levelo_inurba_marseille","lat":43.24081,"lon":5.37749,"is_reserved":false,"is_disabled":false,"rental_uris":{"android":"levelo://app?vid=0e98676c-587f-43bc-910b-99569055e7c1","ios":"levelo://app?vid=0e98676c-587f-43bc-910b-99569055e7c1"},"vehicle_type_id":"4","last_reported":1728544135,"current_range_meters":24400,"station_id":"ce4bhnp2rcd13ifvqgvg","pricing_plan_id":"cebpf4jnsgd1na2vs0mg"},{"bike_id":"760d55d9-eea4-47f6-b01a-dec7d7b11150","system_id":"levelo_inurba_marseille","lat":43.2864,"lon":5.37743,"is_reserved":false,"is_disabled":false,"rental_uris":{"android":"levelo://app?vid=760d55d9-eea4-47f6-b01a-dec7d7b11150","ios":"levelo://app?vid=760d55d9-eea4-47f6-b01a-dec7d7b11150"},"vehicle_type_id":"4","last_reported":1728544135,"current_range_meters":9600,"station_id":"ce4bh412rcd13ifvqds0","pricing_plan_id":"cebpf4jnsgd1na2vs0mg"},{"bike_id":"fe1e03c7-131e-4a5d-b0b3-2ee1f8f38b15","system_id":"levelo_inurba_marseille","lat":43.25938,"lon":5.40909,"is_reserved":false,"is_disabled":false,"rental_uris":{"android":"levelo://app?vid=fe1e03c7-131e-4a5d-b0b3-2ee1f8f38b15","ios":"levelo://app?vid=fe1e03c7-131e-4a5d-b0b3-2ee1f8f38b15"},"vehicle_type_id":"4","last_reported":1728544135,"current_range_meters":26000,"station_id":"ce4bhm92rcd13ifvqglg","pricing_plan_id":"cebpf4jnsgd1na2vs0mg"},{"bike_id":"fc34a4c2-5dda-43dc-8c76-0302a62a6427","system_id":"levelo_inurba_marseille","lat":43.2319,"lon":5.35558,"is_reserved":false,"is_disabled":false,"rental_uris":{"android":"levelo://app?vid=fc34a4c2-5dda-43dc-8c76-0302a62a6427","ios":"levelo://app?vid=fc34a4c2-5dda-43dc-8c76-0302a62a6427"},"vehicle_type_id":"4","last_reported":1728544135,"current_range_meters":36800,"station_id":"ce4bhu92rcd13ifvqi70","pricing_plan_id":"cebpf4jnsgd1na2vs0mg"},{"bike_id":"e69e17e0-0ca8-4a95-b8f4-81597f014eb7","system_id":"levelo_inurba_marseille","lat":43.30153,"lon":5.38081,"is_reserved":false,"is_disabled":false,"rental_uris":{"android":"levelo://app?vid=e69e17e0-0ca8-4a95-b8f4-81597f014eb7","ios":"levelo://app?vid=e69e17e0-0ca8-4a95-b8f4-81597f014eb7"},"vehicle_type_id":"4","last_reported":1728544135,"current_range_meters":31200,"station_id":"ce4bgjp2rcd13ifvqbh0","pricing_plan_id":"cebpf4jnsgd1na2vs0mg"},{"bike_id":"ef8803a1-4847-492c-a579-3d60ff96d306","system_id":"levelo_inurba_marseille","lat":43.27497,"lon":5.42456,"is_reserved":false,"is_disabled":false,"rental_uris":{"android":"levelo://app?vid=ef8803a1-4847-492c-a579-3d60ff96d306","ios":"levelo://app?vid=ef8803a1-4847-492c-a579-3d60ff96d306"},"vehicle_type_id":"4","last_reported":1728544135,"current_range_meters":24000,"station_id":"ce4bhn92rcd13ifvqgrg","pricing_plan_id":"cebpf4jnsgd1na2vs0mg"},{"bike_id":"58037c12-ebe8-47d9-934c-3e692bf7960b","system_id":"levelo_inurba_marseille","lat":43.27495,"lon":5.42448,"is_reserved":false,"is_disabled":false,"rental_uris":{"android":"levelo://app?vid=58037c12-ebe8-47d9-934c-3e692bf7960b","ios":"levelo://app?vid=58037c12-ebe8-47d9-934c-3e692bf7960b"},"vehicle_type_id":"4","last_reported":1728544135,"current_range_meters":30000,"station_id":"ce4bhn92rcd13ifvqgrg","pricing_plan_id":"cebpf4jnsgd1na2vs0mg"},{"bike_id":"54929f29-ab61-451e-9b1d-dbe9ddfba687","system_id":"levelo_inurba_marseille","lat":43.26801,"lon":5.40268,"is_reserved":false,"is_disabled":false,"rental_uris":{"android":"levelo://app?vid=54929f29-ab61-451e-9b1d-dbe9ddfba687","ios":"levelo://app?vid=54929f29-ab61-451e-9b1d-dbe9ddfba687"},"vehicle_type_id":"4","last_reported":1728544135,"current_range_meters":38800,"station_id":"ce501612rcd8frsf0b60","pricing_plan_id":"cebpf4jnsgd1na2vs0mg"},{"bike_id":"2f3a0f08-086d-4b84-8047-a0a18182f8d7","system_id":"levelo_inurba_marseille","lat":43.28004,"lon":5.4,"is_reserved":false,"is_disabled":false,"rental_uris":{"android":"levelo://app?vid=2f3a0f08-086d-4b84-8047-a0a18182f8d7","ios":"levelo://app?vid=2f3a0f08-086d-4b84-8047-a0a18182f8d7"},"vehicle_type_id":"4","last_reported":1728544135,"current_range_meters":38800,"station_id":"ce4bho92rcd13ifvqh4g","pricing_plan_id":"cebpf4jnsgd1na2vs0mg"},{"bike_id":"ef660b0a-835b-447c-aa51-aed0ae0a0cef","system_id":"levelo_inurba_marseille","lat":43.28579,"lon":5.39503,"is_reserved":false,"is_disabled":false,"rental_uris":{"android":"levelo://app?vid=ef660b0a-835b-447c-aa51-aed0ae0a0cef","ios":"levelo://app?vid=ef660b0a-835b-447c-aa51-aed0ae0a0cef"},"vehicle_type_id":"4","last_reported":1728544135,"current_range_meters":12800,"station_id":"ce4bh292rcd13ifvqdg0","pricing_plan_id":"cebpf4jnsgd1na2vs0mg"},{"bike_id":"c770c873-6ba7-4f44-ae36-497fe604d1ad","system_id":"levelo_inurba_marseille","lat":43.32665,"lon":5.40988,"is_reserved":false,"is_disabled":false,"rental_uris":{"android":"levelo://app?vid=c770c873-6ba7-4f44-ae36-497fe604d1ad","ios":"levelo://app?vid=c770c873-6ba7-4f44-ae36-497fe604d1ad"},"vehicle_type_id":"4","last_reported":1728544135,"current_range_meters":39200,"station_id":"ce4bhpp2rcd13ifvqhgg","pricing_plan_id":"cebpf4jnsgd1na2vs0mg"},{"bike_id":"5b871ea3-f812-4fd2-b86c-33dcb301f033","system_id":"levelo_inurba_marseille","lat":43.31354,"lon":5.36707,"is_reserved":false,"is_disabled":false,"rental_uris":{"android":"levelo://app?vid=5b871ea3-f812-4fd2-b86c-33dcb301f033","ios":"levelo://app?vid=5b871ea3-f812-4fd2-b86c-33dcb301f033"},"vehicle_type_id":"4","last_reported":1728544135,"current_range_meters":18000,"station_id":"ce4bgr92rcd13ifvqc6g","pricing_plan_id":"cebpf4jnsgd1na2vs0mg"},{"bike_id":"4e4e7083-89bd-4f48-a4f6-01f4a7d2fcc0","system_id":"levelo_inurba_marseille","lat":43.3415,"lon":5.4091,"is_reserved":false,"is_disabled":false,"rental_uris":{"android":"levelo://app?vid=4e4e7083-89bd-4f48-a4f6-01f4a7d2fcc0","ios":"levelo://app?vid=4e4e7083-89bd-4f48-a4f6-01f4a7d2fcc0"},"vehicle_type_id":"4","last_reported":1728544135,"current_range_meters":38000,"station_id":"ce4bhqh2rcd13ifvqhlg","pricing_plan_id":"cebpf4jnsgd1na2vs0mg"},{"bike_id":"b723734b-1861-4ed4-bfaf-e09b786ff443","system_id":"levelo_inurba_marseille","lat":43.30914,"lon":5.36855,"is_reserved":false,"is_disabled":false,"rental_uris":{"android":"levelo://app?vid=b723734b-1861-4ed4-bfaf-e09b786ff443","ios":"levelo://app?vid=b723734b-1861-4ed4-bfaf-e09b786ff443"},"vehicle_type_id":"4","last_reported":1728544135,"current_range_meters":25200,"station_id":"ce4bgn92rcd13ifvqbvg","pricing_plan_id":"cebpf4jnsgd1na2vs0mg"},{"bike_id":"e86d01e2-2710-427d-82b6-ffb883d95617","system_id":"levelo_inurba_marseille","lat":43.24069,"lon":5.3776,"is_reserved":false,"is_disabled":false,"rental_uris":{"android":"levelo://app?vid=e86d01e2-2710-427d-82b6-ffb883d95617","ios":"levelo://app?vid=e86d01e2-2710-427d-82b6-ffb883d95617"},"vehicle_type_id":"4","last_reported":1728544135,"current_range_meters":24800,"station_id":"ce4bhnp2rcd13ifvqgvg","pricing_plan_id":"cebpf4jnsgd1na2vs0mg"},{"bike_id":"604b4d08-da9f-4052-8b55-c845ec594528","system_id":"levelo_inurba_marseille","lat":43.284215,"lon":5.349799,"is_reserved":false,"is_disabled":false,"rental_uris":{"android":"levelo://app?vid=604b4d08-da9f-4052-8b55-c845ec594528","ios":"levelo://app?vid=604b4d08-da9f-4052-8b55-c845ec594528"},"vehicle_type_id":"4","last_reported":1728544135,"current_range_meters":38000,"station_id":"ce4bhbh2rcd13ifvqepg","pricing_plan_id":"cebpf4jnsgd1na2vs0mg"},{"bike_id":"4ed7c4f9-4646-432b-8918-e57a22cb6c6b","system_id":"levelo_inurba_marseille","lat":43.27488,"lon":5.42457,"is_reserved":false,"is_disabled":false,"rental_uris":{"android":"levelo://app?vid=4ed7c4f9-4646-432b-8918-e57a22cb6c6b","ios":"levelo://app?vid=4ed7c4f9-4646-432b-8918-e57a22cb6c6b"},"vehicle_type_id":"4","last_reported":1728544135,"current_range_meters":8400,"station_id":"ce4bhn92rcd13ifvqgrg","pricing_plan_id":"cebpf4jnsgd1na2vs0mg"},{"bike_id":"ca7f651b-c6f2-4d29-b448-ba1051480b94","system_id":"levelo_inurba_marseille","lat":43.30149,"lon":5.38076,"is_reserved":false,"is_disabled":false,"rental_uris":{"android":"levelo://app?vid=ca7f651b-c6f2-4d29-b448-ba1051480b94","ios":"levelo://app?vid=ca7f651b-c6f2-4d29-b448-ba1051480b94"},"vehicle_type_id":"4","last_reported":1728544135,"current_range_meters":30000,"station_id":"ce4bgjp2rcd13ifvqbh0","pricing_plan_id":"cebpf4jnsgd1na2vs0mg"},{"bike_id":"02893b5b-0a93-438a-9734-9eff91df5c62","system_id":"levelo_inurba_marseille","lat":43.24391,"lon":5.37062,"is_reserved":false,"is_disabled":false,"rental_uris":{"android":"levelo://app?vid=02893b5b-0a93-438a-9734-9eff91df5c62","ios":"levelo://app?vid=02893b5b-0a93-438a-9734-9eff91df5c62"},"vehicle_type_id":"4","last_reported":1728544135,"current_range_meters":29600,"station_id":"ce4bhhh2rcd13ifvqfk0","pricing_plan_id":"cebpf4jnsgd1na2vs0mg"},{"bike_id":"f90ca49f-87e5-4ffa-83bf-89fbe4726d17","system_id":"levelo_inurba_marseille","lat":43.23194,"lon":5.35541,"is_reserved":false,"is_disabled":false,"rental_uris":{"android":"levelo://app?vid=f90ca49f-87e5-4ffa-83bf-89fbe4726d17","ios":"levelo://app?vid=f90ca49f-87e5-4ffa-83bf-89fbe4726d17"},"vehicle_type_id":"4","last_reported":1728544135,"current_range_meters":36400,"station_id":"ce4bhu92rcd13ifvqi70","pricing_plan_id":"cebpf4jnsgd1na2vs0mg"},{"bike_id":"b2b799ad-55ed-42cc-931d-6864fd24fece","system_id":"levelo_inurba_marseille","lat":43.28418,"lon":5.3499,"is_reserved":false,"is_disabled":false,"rental_uris":{"android":"levelo://app?vid=b2b799ad-55ed-42cc-931d-6864fd24fece","ios":"levelo://app?vid=b2b799ad-55ed-42cc-931d-6864fd24fece"},"vehicle_type_id":"4","last_reported":1728544135,"current_range_meters":27200,"station_id":"ce4bhbh2rcd13ifvqepg","pricing_plan_id":"cebpf4jnsgd1na2vs0mg"},{"bike_id":"3b1fa369-d0fc-402a-9458-9b4eb4954fef","system_id":"levelo_inurba_marseille","lat":43.32546,"lon":5.4144,"is_reserved":false,"is_disabled":false,"rental_uris":{"android":"levelo://app?vid=3b1fa369-d0fc-402a-9458-9b4eb4954fef","ios":"levelo://app?vid=3b1fa369-d0fc-402a-9458-9b4eb4954fef"},"vehicle_type_id":"4","last_reported":1728544135,"current_range_meters":35200,"station_id":"ce4bhq12rcd13ifvqhhg","pricing_plan_id":"cebpf4jnsgd1na2vs0mg"},{"bike_id":"7980552a-8eee-4325-8b1a-a5e2acdf441a","system_id":"levelo_inurba_marseille","lat":43.32666,"lon":5.40997,"is_reserved":false,"is_disabled":false,"rental_uris":{"android":"levelo://app?vid=7980552a-8eee-4325-8b1a-a5e2acdf441a","ios":"levelo://app?vid=7980552a-8eee-4325-8b1a-a5e2acdf441a"},"vehicle_type_id":"4","last_reported":1728544135,"current_range_meters":25200,"station_id":"ce4bhpp2rcd13ifvqhgg","pricing_plan_id":"cebpf4jnsgd1na2vs0mg"},{"bike_id":"eac4d1f3-69e7-42fa-8e90-fa30310580cc","system_id":"levelo_inurba_marseille","lat":43.27494,"lon":5.4246,"is_reserved":false,"is_disabled":false,"rental_uris":{"android":"levelo://app?vid=eac4d1f3-69e7-42fa-8e90-fa30310580cc","ios":"levelo://app?vid=eac4d1f3-69e7-42fa-8e90-fa30310580cc"},"vehicle_type_id":"4","last_reported":1728544135,"current_range_meters":33200,"station_id":"ce4bhn92rcd13ifvqgrg","pricing_plan_id":"cebpf4jnsgd1na2vs0mg"},{"bike_id":"18aaddff-7a2c-44d9-b951-2654092acdd6","system_id":"levelo_inurba_marseille","lat":43.2749,"lon":5.42458,"is_reserved":false,"is_disabled":false,"rental_uris":{"android":"levelo://app?vid=18aaddff-7a2c-44d9-b951-2654092acdd6","ios":"levelo://app?vid=18aaddff-7a2c-44d9-b951-2654092acdd6"},"vehicle_type_id":"4","last_reported":1728544135,"current_range_meters":27600,"station_id":"ce4bhn92rcd13ifvqgrg","pricing_plan_id":"cebpf4jnsgd1na2vs0mg"},{"bike_id":"a417f96a-980c-42a7-9d67-d9a432a107ae","system_id":"levelo_inurba_marseille","lat":43.29271,"lon":5.38439,"is_reserved":false,"is_disabled":false,"rental_uris":{"android":"levelo://app?vid=a417f96a-980c-42a7-9d67-d9a432a107ae","ios":"levelo://app?vid=a417f96a-980c-42a7-9d67-d9a432a107ae"},"vehicle_type_id":"4","last_reported":1728544135,"current_range_meters":6400,"station_id":"ce4bh692rcd13ifvqea0","pricing_plan_id":"cebpf4jnsgd1na2vs0mg"},{"bike_id":"ff56bc15-27c6-4e6c-ac75-a24ac50e15df","system_id":"levelo_inurba_marseille","lat":43.27496,"lon":5.42458,"is_reserved":false,"is_disabled":false,"rental_uris":{"android":"levelo://app?vid=ff56bc15-27c6-4e6c-ac75-a24ac50e15df","ios":"levelo://app?vid=ff56bc15-27c6-4e6c-ac75-a24ac50e15df"},"vehicle_type_id":"4","last_reported":1728544135,"current_range_meters":38800,"station_id":"ce4bhn92rcd13ifvqgrg","pricing_plan_id":"cebpf4jnsgd1na2vs0mg"},{"bike_id":"82a743f6-0113-4e92-b566-f226fa11ebdc","system_id":"levelo_inurba_marseille","lat":43.29841,"lon":5.36267,"is_reserved":false,"is_disabled":false,"rental_uris":{"android":"levelo://app?vid=82a743f6-0113-4e92-b566-f226fa11ebdc","ios":"levelo://app?vid=82a743f6-0113-4e92-b566-f226fa11ebdc"},"vehicle_type_id":"4","last_reported":1728544135,"current_range_meters":30000,"station_id":"ce4bgpp2rcd13ifvqc3g","pricing_plan_id":"cebpf4jnsgd1na2vs0mg"},{"bike_id":"cc21cd39-dc80-4217-bc57-8130e5f4f35e","system_id":"levelo_inurba_marseille","lat":43.2732,"lon":5.39086,"is_reserved":false,"is_disabled":false,"rental_uris":{"android":"levelo://app?vid=cc21cd39-dc80-4217-bc57-8130e5f4f35e","ios":"levelo://app?vid=cc21cd39-dc80-4217-bc57-8130e5f4f35e"},"vehicle_type_id":"4","last_reported":1728544135,"current_range_meters":38400,"station_id":"ce4bhgp2rcd13ifvqfe0","pricing_plan_id":"cebpf4jnsgd1na2vs0mg"},{"bike_id":"fd788659-0e78-402b-91a4-458257ccd222","system_id":"levelo_inurba_marseille","lat":43.26948,"lon":5.38643,"is_reserved":false,"is_disabled":false,"rental_uris":{"android":"levelo://app?vid=fd788659-0e78-402b-91a4-458257ccd222","ios":"levelo://app?vid=fd788659-0e78-402b-91a4-458257ccd222"},"vehicle_type_id":"4","last_reported":1728544135,"current_range_meters":28800,"station_id":"ce4bhh92rcd13ifvqfh0","pricing_plan_id":"cebpf4jnsgd1na2vs0mg"},{"bike_id":"f22cc9bd-066d-4fae-bcba-f966e5bd56ad","system_id":"levelo_inurba_marseille","lat":43.33022,"lon":5.39039,"is_reserved":false,"is_disabled":false,"rental_uris":{"android":"levelo://app?vid=f22cc9bd-066d-4fae-bcba-f966e5bd56ad","ios":"levelo://app?vid=f22cc9bd-066d-4fae-bcba-f966e5bd56ad"},"vehicle_type_id":"4","last_reported":1728544135,"current_range_meters":39200,"station_id":"ce4bhr92rcd13ifvqhrg","pricing_plan_id":"cebpf4jnsgd1na2vs0mg"},{"bike_id":"6c177a40-4704-434a-9cda-37a59fc669e7","system_id":"levelo_inurba_marseille","lat":43.23157,"lon":5.43708,"is_reserved":false,"is_disabled":false,"rental_uris":{"android":"levelo://app?vid=6c177a40-4704-434a-9cda-37a59fc669e7","ios":"levelo://app?vid=6c177a40-4704-434a-9cda-37a59fc669e7"},"vehicle_type_id":"4","last_reported":1728544135,"current_range_meters":33600,"station_id":"ce4bhmp2rcd13ifvqgog","pricing_plan_id":"cebpf4jnsgd1na2vs0mg"},{"bike_id":"1d219b72-f5b7-4ec5-93e0-d20414f1655d","system_id":"levelo_inurba_marseille","lat":43.32536,"lon":5.41445,"is_reserved":false,"is_disabled":false,"rental_uris":{"android":"levelo://app?vid=1d219b72-f5b7-4ec5-93e0-d20414f1655d","ios":"levelo://app?vid=1d219b72-f5b7-4ec5-93e0-d20414f1655d"},"vehicle_type_id":"4","last_reported":1728544135,"current_range_meters":34000,"station_id":"ce4bhq12rcd13ifvqhhg","pricing_plan_id":"cebpf4jnsgd1na2vs0mg"},{"bike_id":"d886fd34-a767-4990-a006-a20de32201f1","system_id":"levelo_inurba_marseille","lat":43.29222,"lon":5.36054,"is_reserved":false,"is_disabled":false,"rental_uris":{"android":"levelo://app?vid=d886fd34-a767-4990-a006-a20de32201f1","ios":"levelo://app?vid=d886fd34-a767-4990-a006-a20de32201f1"},"vehicle_type_id":"4","last_reported":1728544135,"current_range_meters":11200,"station_id":"ce4bhbh2rcd13ifvqeqg","pricing_plan_id":"cebpf4jnsgd1na2vs0mg"},{"bike_id":"6621e1af-9ca0-463c-a3ad-f651030b0dd3","system_id":"levelo_inurba_marseille","lat":43.23193,"lon":5.35549,"is_reserved":false,"is_disabled":false,"rental_uris":{"android":"levelo://app?vid=6621e1af-9ca0-463c-a3ad-f651030b0dd3","ios":"levelo://app?vid=6621e1af-9ca0-463c-a3ad-f651030b0dd3"},"vehicle_type_id":"4","last_reported":1728544135,"current_range_meters":36800,"station_id":"ce4bhu92rcd13ifvqi70","pricing_plan_id":"cebpf4jnsgd1na2vs0mg"},{"bike_id":"dbbb62cb-4f9e-48bd-80c2-e05a0143e2e7","system_id":"levelo_inurba_marseille","lat":43.3254,"lon":5.41437,"is_reserved":false,"is_disabled":false,"rental_uris":{"android":"levelo://app?vid=dbbb62cb-4f9e-48bd-80c2-e05a0143e2e7","ios":"levelo://app?vid=dbbb62cb-4f9e-48bd-80c2-e05a0143e2e7"},"vehicle_type_id":"4","last_reported":1728544135,"current_range_meters":24400,"station_id":"ce4bhq12rcd13ifvqhhg","pricing_plan_id":"cebpf4jnsgd1na2vs0mg"},{"bike_id":"4c523da9-ca60-41b4-b257-8349df4a3c3a","system_id":"levelo_inurba_marseille","lat":43.27495,"lon":5.42455,"is_reserved":false,"is_disabled":false,"rental_uris":{"android":"levelo://app?vid=4c523da9-ca60-41b4-b257-8349df4a3c3a","ios":"levelo://app?vid=4c523da9-ca60-41b4-b257-8349df4a3c3a"},"vehicle_type_id":"4","last_reported":1728544135,"current_range_meters":35600,"station_id":"ce4bhn92rcd13ifvqgrg","pricing_plan_id":"cebpf4jnsgd1na2vs0mg"},{"bike_id":"369d26a6-9c7c-483f-ba16-377c911853f2","system_id":"levelo_inurba_marseille","lat":43.29677,"lon":5.36741,"is_reserved":false,"is_disabled":false,"rental_uris":{"android":"levelo://app?vid=369d26a6-9c7c-483f-ba16-377c911853f2","ios":"levelo://app?vid=369d26a6-9c7c-483f-ba16-377c911853f2"},"vehicle_type_id":"4","last_reported":1728544135,"current_range_meters":8800,"station_id":"","pricing_plan_id":"cebpf4jnsgd1na2vs0mg"},{"bike_id":"df8dd226-f557-4938-bf93-aa3a6802ae84","system_id":"levelo_inurba_marseille","lat":43.287018,"lon":5.373833,"is_reserved":false,"is_disabled":false,"rental_uris":{"android":"levelo://app?vid=df8dd226-f557-4938-bf93-aa3a6802ae84","ios":"levelo://app?vid=df8dd226-f557-4938-bf93-aa3a6802ae84"},"vehicle_type_id":"4","last_reported":1728544135,"current_range_meters":36400,"station_id":"ce4bh3p2rcd13ifvqdq0","pricing_plan_id":"cebpf4jnsgd1na2vs0mg"},{"bike_id":"1ea8d82f-2402-4d9e-8927-577e8e814d60","system_id":"levelo_inurba_marseille","lat":43.25001,"lon":5.38933,"is_reserved":false,"is_disabled":false,"rental_uris":{"android":"levelo://app?vid=1ea8d82f-2402-4d9e-8927-577e8e814d60","ios":"levelo://app?vid=1ea8d82f-2402-4d9e-8927-577e8e814d60"},"vehicle_type_id":"4","last_reported":1728544135,"current_range_meters":28000,"station_id":"ce4bhgp2rcd13ifvqfd0","pricing_plan_id":"cebpf4jnsgd1na2vs0mg"},{"bike_id":"9119f974-ea12-4975-b484-8868e7a8c451","system_id":"levelo_inurba_marseille","lat":43.32548,"lon":5.41436,"is_reserved":false,"is_disabled":false,"rental_uris":{"android":"levelo://app?vid=9119f974-ea12-4975-b484-8868e7a8c451","ios":"levelo://app?vid=9119f974-ea12-4975-b484-8868e7a8c451"},"vehicle_type_id":"4","last_reported":1728544135,"current_range_meters":8800,"station_id":"ce4bhq12rcd13ifvqhhg","pricing_plan_id":"cebpf4jnsgd1na2vs0mg"},{"bike_id":"37aed8a1-3fa7-4b24-ad4f-1103f233069c","system_id":"levelo_inurba_marseille","lat":43.32541,"lon":5.4144,"is_reserved":false,"is_disabled":false,"rental_uris":{"android":"levelo://app?vid=37aed8a1-3fa7-4b24-ad4f-1103f233069c","ios":"levelo://app?vid=37aed8a1-3fa7-4b24-ad4f-1103f233069c"},"vehicle_type_id":"4","last_reported":1728544135,"current_range_meters":32400,"station_id":"ce4bhq12rcd13ifvqhhg","pricing_plan_id":"cebpf4jnsgd1na2vs0mg"},{"bike_id":"376e406c-03b5-4f22-a05d-765e818ae79d","system_id":"levelo_inurba_marseille","lat":43.24069,"lon":5.37764,"is_reserved":false,"is_disabled":false,"rental_uris":{"android":"levelo://app?vid=376e406c-03b5-4f22-a05d-765e818ae79d","ios":"levelo://app?vid=376e406c-03b5-4f22-a05d-765e818ae79d"},"vehicle_type_id":"4","last_reported":1728544135,"current_range_meters":32800,"station_id":"ce4bhnp2rcd13ifvqgvg","pricing_plan_id":"cebpf4jnsgd1na2vs0mg"},{"bike_id":"eac3bf75-faff-452e-9d38-51a106f0cdcd","system_id":"levelo_inurba_marseille","lat":43.31352,"lon":5.36704,"is_reserved":false,"is_disabled":false,"rental_uris":{"android":"levelo://app?vid=eac3bf75-faff-452e-9d38-51a106f0cdcd","ios":"levelo://app?vid=eac3bf75-faff-452e-9d38-51a106f0cdcd"},"vehicle_type_id":"4","last_reported":1728544135,"current_range_meters":38800,"station_id":"ce4bgr92rcd13ifvqc6g","pricing_plan_id":"cebpf4jnsgd1na2vs0mg"},{"bike_id":"0c872638-1f69-4820-a1a1-3777ebbd7436","system_id":"levelo_inurba_marseille","lat":43.31361,"lon":5.367,"is_reserved":false,"is_disabled":false,"rental_uris":{"android":"levelo://app?vid=0c872638-1f69-4820-a1a1-3777ebbd7436","ios":"levelo://app?vid=0c872638-1f69-4820-a1a1-3777ebbd7436"},"vehicle_type_id":"4","last_reported":1728544135,"current_range_meters":33200,"station_id":"ce4bgr92rcd13ifvqc6g","pricing_plan_id":"cebpf4jnsgd1na2vs0mg"},{"bike_id":"bde6dd15-ba0c-45b8-986e-858faabb3a7e","system_id":"levelo_inurba_marseille","lat":43.24081,"lon":5.37756,"is_reserved":false,"is_disabled":false,"rental_uris":{"android":"levelo://app?vid=bde6dd15-ba0c-45b8-986e-858faabb3a7e","ios":"levelo://app?vid=bde6dd15-ba0c-45b8-986e-858faabb3a7e"},"vehicle_type_id":"4","last_reported":1728544135,"current_range_meters":33600,"station_id":"ce4bhnp2rcd13ifvqgvg","pricing_plan_id":"cebpf4jnsgd1na2vs0mg"},{"bike_id":"c02d3c4a-50d9-411f-8c38-7b187028da42","system_id":"levelo_inurba_marseille","lat":43.267303,"lon":5.383361,"is_reserved":false,"is_disabled":false,"rental_uris":{"android":"levelo://app?vid=c02d3c4a-50d9-411f-8c38-7b187028da42","ios":"levelo://app?vid=c02d3c4a-50d9-411f-8c38-7b187028da42"},"vehicle_type_id":"4","last_reported":1728544135,"current_range_meters":3200,"station_id":"ce4bhg92rcd13ifvqf90","pricing_plan_id":"cebpf4jnsgd1na2vs0mg"},{"bike_id":"910334d2-d108-4fc2-83c4-e16f3f792eec","system_id":"levelo_inurba_marseille","lat":43.30536,"lon":5.36534,"is_reserved":false,"is_disabled":false,"rental_uris":{"android":"levelo://app?vid=910334d2-d108-4fc2-83c4-e16f3f792eec","ios":"levelo://app?vid=910334d2-d108-4fc2-83c4-e16f3f792eec"},"vehicle_type_id":"4","last_reported":1728544135,"current_range_meters":34800,"station_id":"ce4bgs12rcd13ifvqcag","pricing_plan_id":"cebpf4jnsgd1na2vs0mg"},{"bike_id":"cba597d9-63b7-4ff9-90cd-9bda499345f0","system_id":"levelo_inurba_marseille","lat":43.28724,"lon":5.36089,"is_reserved":false,"is_disabled":false,"rental_uris":{"android":"levelo://app?vid=cba597d9-63b7-4ff9-90cd-9bda499345f0","ios":"levelo://app?vid=cba597d9-63b7-4ff9-90cd-9bda499345f0"},"vehicle_type_id":"4","last_reported":1728544135,"current_range_meters":38800,"station_id":"cki0cbj6b192h4jlfktg","pricing_plan_id":"cebpf4jnsgd1na2vs0mg"},{"bike_id":"6cd7d39b-2087-4d21-86bb-e2284a62aeb5","system_id":"levelo_inurba_marseille","lat":43.23189,"lon":5.35555,"is_reserved":false,"is_disabled":false,"rental_uris":{"android":"levelo://app?vid=6cd7d39b-2087-4d21-86bb-e2284a62aeb5","ios":"levelo://app?vid=6cd7d39b-2087-4d21-86bb-e2284a62aeb5"},"vehicle_type_id":"4","last_reported":1728544135,"current_range_meters":3600,"station_id":"ce4bhu92rcd13ifvqi70","pricing_plan_id":"cebpf4jnsgd1na2vs0mg"},{"bike_id":"8a1e694c-979c-4187-add5-7b891cc3e6f0","system_id":"levelo_inurba_marseille","lat":43.325408,"lon":5.414393,"is_reserved":false,"is_disabled":false,"rental_uris":{"android":"levelo://app?vid=8a1e694c-979c-4187-add5-7b891cc3e6f0","ios":"levelo://app?vid=8a1e694c-979c-4187-add5-7b891cc3e6f0"},"vehicle_type_id":"4","last_reported":1728544135,"current_range_meters":4000,"station_id":"ce4bhq12rcd13ifvqhhg","pricing_plan_id":"cebpf4jnsgd1na2vs0mg"},{"bike_id":"a5e64c68-956f-4b29-9868-7f764fafdf47","system_id":"levelo_inurba_marseille","lat":43.24072,"lon":5.37752,"is_reserved":false,"is_disabled":false,"rental_uris":{"android":"levelo://app?vid=a5e64c68-956f-4b29-9868-7f764fafdf47","ios":"levelo://app?vid=a5e64c68-956f-4b29-9868-7f764fafdf47"},"vehicle_type_id":"4","last_reported":1728544135,"current_range_meters":6400,"station_id":"ce4bhnp2rcd13ifvqgvg","pricing_plan_id":"cebpf4jnsgd1na2vs0mg"},{"bike_id":"60098230-9c6b-4727-adac-60752fa30bf1","system_id":"levelo_inurba_marseille","lat":43.30916,"lon":5.36851,"is_reserved":false,"is_disabled":false,"rental_uris":{"android":"levelo://app?vid=60098230-9c6b-4727-adac-60752fa30bf1","ios":"levelo://app?vid=60098230-9c6b-4727-adac-60752fa30bf1"},"vehicle_type_id":"4","last_reported":1728544135,"current_range_meters":24400,"station_id":"ce4bgn92rcd13ifvqbvg","pricing_plan_id":"cebpf4jnsgd1na2vs0mg"},{"bike_id":"e7c673ab-5b77-4d73-9429-2dfb0c4aeca0","system_id":"levelo_inurba_marseille","lat":43.2903,"lon":5.39969,"is_reserved":false,"is_disabled":false,"rental_uris":{"android":"levelo://app?vid=e7c673ab-5b77-4d73-9429-2dfb0c4aeca0","ios":"levelo://app?vid=e7c673ab-5b77-4d73-9429-2dfb0c4aeca0"},"vehicle_type_id":"4","last_reported":1728544135,"current_range_meters":39200,"station_id":"ce4bh392rcd13ifvqdm0","pricing_plan_id":"cebpf4jnsgd1na2vs0mg"},{"bike_id":"10955ab8-2dd3-42b5-a2e1-8d868db9c20c","system_id":"levelo_inurba_marseille","lat":43.28681,"lon":5.38662,"is_reserved":false,"is_disabled":false,"rental_uris":{"android":"levelo://app?vid=10955ab8-2dd3-42b5-a2e1-8d868db9c20c","ios":"levelo://app?vid=10955ab8-2dd3-42b5-a2e1-8d868db9c20c"},"vehicle_type_id":"4","last_reported":1728544135,"current_range_meters":18800,"station_id":"ce4bh492rcd13ifvqdug","pricing_plan_id":"cebpf4jnsgd1na2vs0mg"},{"bike_id":"0a914b9b-1fcc-4758-a91b-1f2a11f6cf7a","system_id":"levelo_inurba_marseille","lat":43.27183,"lon":5.40995,"is_reserved":false,"is_disabled":false,"rental_uris":{"android":"levelo://app?vid=0a914b9b-1fcc-4758-a91b-1f2a11f6cf7a","ios":"levelo://app?vid=0a914b9b-1fcc-4758-a91b-1f2a11f6cf7a"},"vehicle_type_id":"4","last_reported":1728544135,"current_range_meters":18000,"station_id":"ce4bhl12rcd13ifvqgf0","pricing_plan_id":"cebpf4jnsgd1na2vs0mg"},{"bike_id":"01414489-6dba-4d56-9a58-ad9dbf52855b","system_id":"levelo_inurba_marseille","lat":43.30956,"lon":5.39033,"is_reserved":false,"is_disabled":false,"rental_uris":{"android":"levelo://app?vid=01414489-6dba-4d56-9a58-ad9dbf52855b","ios":"levelo://app?vid=01414489-6dba-4d56-9a58-ad9dbf52855b"},"vehicle_type_id":"4","last_reported":1728544135,"current_range_meters":9600,"station_id":"ce4bgup2rcd13ifvqco0","pricing_plan_id":"cebpf4jnsgd1na2vs0mg"},{"bike_id":"af2ed3b6-ec39-4cab-88e0-1dfbcec64b09","system_id":"levelo_inurba_marseille","lat":43.31086,"lon":5.42434,"is_reserved":false,"is_disabled":false,"rental_uris":{"android":"levelo://app?vid=af2ed3b6-ec39-4cab-88e0-1dfbcec64b09","ios":"levelo://app?vid=af2ed3b6-ec39-4cab-88e0-1dfbcec64b09"},"vehicle_type_id":"4","last_reported":1728544135,"current_range_meters":36000,"station_id":"ce4bhp92rcd13ifvqhag","pricing_plan_id":"cebpf4jnsgd1na2vs0mg"},{"bike_id":"d65db0a0-2fe8-42de-a50f-73a9d36e8924","system_id":"levelo_inurba_marseille","lat":43.33607,"lon":5.41018,"is_reserved":false,"is_disabled":false,"rental_uris":{"android":"levelo://app?vid=d65db0a0-2fe8-42de-a50f-73a9d36e8924","ios":"levelo://app?vid=d65db0a0-2fe8-42de-a50f-73a9d36e8924"},"vehicle_type_id":"4","last_reported":1728544135,"current_range_meters":39200,"station_id":"ce4bhqh2rcd13ifvqhmg","pricing_plan_id":"cebpf4jnsgd1na2vs0mg"},{"bike_id":"5b9fe21e-ac55-4ff4-95f8-3f6705a4d2d4","system_id":"levelo_inurba_marseille","lat":43.27494,"lon":5.42455,"is_reserved":false,"is_disabled":false,"rental_uris":{"android":"levelo://app?vid=5b9fe21e-ac55-4ff4-95f8-3f6705a4d2d4","ios":"levelo://app?vid=5b9fe21e-ac55-4ff4-95f8-3f6705a4d2d4"},"vehicle_type_id":"4","last_reported":1728544135,"current_range_meters":14000,"station_id":"ce4bhn92rcd13ifvqgrg","pricing_plan_id":"cebpf4jnsgd1na2vs0mg"},{"bike_id":"1eac309f-c1ea-4f24-9bf1-742a5787b598","system_id":"levelo_inurba_marseille","lat":43.26572,"lon":5.39006,"is_reserved":false,"is_disabled":false,"rental_uris":{"android":"levelo://app?vid=1eac309f-c1ea-4f24-9bf1-742a5787b598","ios":"levelo://app?vid=1eac309f-c1ea-4f24-9bf1-742a5787b598"},"vehicle_type_id":"4","last_reported":1728544135,"current_range_meters":38000,"station_id":"ce4bhe12rcd13ifvqf30","pricing_plan_id":"cebpf4jnsgd1na2vs0mg"},{"bike_id":"02a56af8-24ab-4691-9a24-4ffab961eca7","system_id":"levelo_inurba_marseille","lat":43.30545,"lon":5.38431,"is_reserved":false,"is_disabled":false,"rental_uris":{"android":"levelo://app?vid=02a56af8-24ab-4691-9a24-4ffab961eca7","ios":"levelo://app?vid=02a56af8-24ab-4691-9a24-4ffab961eca7"},"vehicle_type_id":"4","last_reported":1728544135,"current_range_meters":36400,"station_id":"ce4bgg92rcd13ifvqb30","pricing_plan_id":"cebpf4jnsgd1na2vs0mg"},{"bike_id":"b0316ebf-c5c0-4623-b92b-581bac0fad84","system_id":"levelo_inurba_marseille","lat":43.29226,"lon":5.36057,"is_reserved":false,"is_disabled":false,"rental_uris":{"android":"levelo://app?vid=b0316ebf-c5c0-4623-b92b-581bac0fad84","ios":"levelo://app?vid=b0316ebf-c5c0-4623-b92b-581bac0fad84"},"vehicle_type_id":"4","last_reported":1728544135,"current_range_meters":6800,"station_id":"ce4bhbh2rcd13ifvqeqg","pricing_plan_id":"cebpf4jnsgd1na2vs0mg"},{"bike_id":"c111393d-9cd9-41aa-904d-9a71386ece93","system_id":"levelo_inurba_marseille","lat":43.32541,"lon":5.41447,"is_reserved":false,"is_disabled":false,"rental_uris":{"android":"levelo://app?vid=c111393d-9cd9-41aa-904d-9a71386ece93","ios":"levelo://app?vid=c111393d-9cd9-41aa-904d-9a71386ece93"},"vehicle_type_id":"4","last_reported":1728544135,"current_range_meters":30800,"station_id":"ce4bhq12rcd13ifvqhhg","pricing_plan_id":"cebpf4jnsgd1na2vs0mg"},{"bike_id":"c36785e0-16e7-4c4f-af83-fd603b02cc5b","system_id":"levelo_inurba_marseille","lat":43.33022,"lon":5.39046,"is_reserved":false,"is_disabled":false,"rental_uris":{"android":"levelo://app?vid=c36785e0-16e7-4c4f-af83-fd603b02cc5b","ios":"levelo://app?vid=c36785e0-16e7-4c4f-af83-fd603b02cc5b"},"vehicle_type_id":"4","last_reported":1728544135,"current_range_meters":32400,"station_id":"ce4bhr92rcd13ifvqhrg","pricing_plan_id":"cebpf4jnsgd1na2vs0mg"},{"bike_id":"693ef618-8549-4d96-a95a-75e12dd33ec1","system_id":"levelo_inurba_marseille","lat":43.2996,"lon":5.41316,"is_reserved":false,"is_disabled":false,"rental_uris":{"android":"levelo://app?vid=693ef618-8549-4d96-a95a-75e12dd33ec1","ios":"levelo://app?vid=693ef618-8549-4d96-a95a-75e12dd33ec1"},"vehicle_type_id":"4","last_reported":1728544135,"current_range_meters":37600,"station_id":"ce4bhp12rcd13ifvqh9g","pricing_plan_id":"cebpf4jnsgd1na2vs0mg"},{"bike_id":"9bac0547-caca-4eef-b3cb-aa22e13232b1","system_id":"levelo_inurba_marseille","lat":43.25935,"lon":5.40902,"is_reserved":false,"is_disabled":false,"rental_uris":{"android":"levelo://app?vid=9bac0547-caca-4eef-b3cb-aa22e13232b1","ios":"levelo://app?vid=9bac0547-caca-4eef-b3cb-aa22e13232b1"},"vehicle_type_id":"4","last_reported":1728544135,"current_range_meters":26800,"station_id":"ce4bhm92rcd13ifvqglg","pricing_plan_id":"cebpf4jnsgd1na2vs0mg"},{"bike_id":"cb66e998-67b2-45d7-b3cb-88f03d964bc0","system_id":"levelo_inurba_marseille","lat":43.302583,"lon":5.377127,"is_reserved":false,"is_disabled":false,"rental_uris":{"android":"levelo://app?vid=cb66e998-67b2-45d7-b3cb-88f03d964bc0","ios":"levelo://app?vid=cb66e998-67b2-45d7-b3cb-88f03d964bc0"},"vehicle_type_id":"4","last_reported":1728544135,"current_range_meters":8400,"station_id":"ce4bguh2rcd13ifvqcj0","pricing_plan_id":"cebpf4jnsgd1na2vs0mg"},{"bike_id":"002e17b8-4909-439d-bcf9-4fb1942077f6","system_id":"levelo_inurba_marseille","lat":43.31357,"lon":5.36716,"is_reserved":false,"is_disabled":false,"rental_uris":{"android":"levelo://app?vid=002e17b8-4909-439d-bcf9-4fb1942077f6","ios":"levelo://app?vid=002e17b8-4909-439d-bcf9-4fb1942077f6"},"vehicle_type_id":"4","last_reported":1728544135,"current_range_meters":28800,"station_id":"ce4bgr92rcd13ifvqc6g","pricing_plan_id":"cebpf4jnsgd1na2vs0mg"},{"bike_id":"c2e51e73-0bcd-44cc-8f9a-f57b10eab5f2","system_id":"levelo_inurba_marseille","lat":43.24087,"lon":5.37749,"is_reserved":false,"is_disabled":false,"rental_uris":{"android":"levelo://app?vid=c2e51e73-0bcd-44cc-8f9a-f57b10eab5f2","ios":"levelo://app?vid=c2e51e73-0bcd-44cc-8f9a-f57b10eab5f2"},"vehicle_type_id":"4","last_reported":1728544135,"current_range_meters":23200,"station_id":"ce4bhnp2rcd13ifvqgvg","pricing_plan_id":"cebpf4jnsgd1na2vs0mg"},{"bike_id":"62ccfddd-1382-446c-9bf2-416c2cb7471b","system_id":"levelo_inurba_marseille","lat":43.30562,"lon":5.36538,"is_reserved":false,"is_disabled":false,"rental_uris":{"android":"levelo://app?vid=62ccfddd-1382-446c-9bf2-416c2cb7471b","ios":"levelo://app?vid=62ccfddd-1382-446c-9bf2-416c2cb7471b"},"vehicle_type_id":"4","last_reported":1728544135,"current_range_meters":34000,"station_id":"ce4bgs12rcd13ifvqcag","pricing_plan_id":"cebpf4jnsgd1na2vs0mg"},{"bike_id":"fc3f0547-89f3-45ed-b216-20a87ce42cb7","system_id":"levelo_inurba_marseille","lat":43.2315,"lon":5.43725,"is_reserved":false,"is_disabled":false,"rental_uris":{"android":"levelo://app?vid=fc3f0547-89f3-45ed-b216-20a87ce42cb7","ios":"levelo://app?vid=fc3f0547-89f3-45ed-b216-20a87ce42cb7"},"vehicle_type_id":"4","last_reported":1728544135,"current_range_meters":25200,"station_id":"ce4bhmp2rcd13ifvqgog","pricing_plan_id":"cebpf4jnsgd1na2vs0mg"},{"bike_id":"a4843a4b-9cc1-425a-a219-22182db1a348","system_id":"levelo_inurba_marseille","lat":43.29976,"lon":5.38487,"is_reserved":false,"is_disabled":false,"rental_uris":{"android":"levelo://app?vid=a4843a4b-9cc1-425a-a219-22182db1a348","ios":"levelo://app?vid=a4843a4b-9cc1-425a-a219-22182db1a348"},"vehicle_type_id":"4","last_reported":1728544135,"current_range_meters":31200,"station_id":"ce4bgj92rcd13ifvqbd0","pricing_plan_id":"cebpf4jnsgd1na2vs0mg"},{"bike_id":"771e73b5-822c-442c-a5d4-b201a5fbfe1e","system_id":"levelo_inurba_marseille","lat":43.30917,"lon":5.36857,"is_reserved":false,"is_disabled":false,"rental_uris":{"android":"levelo://app?vid=771e73b5-822c-442c-a5d4-b201a5fbfe1e","ios":"levelo://app?vid=771e73b5-822c-442c-a5d4-b201a5fbfe1e"},"vehicle_type_id":"4","last_reported":1728544135,"current_range_meters":39200,"station_id":"ce4bgn92rcd13ifvqbvg","pricing_plan_id":"cebpf4jnsgd1na2vs0mg"},{"bike_id":"5b2002b1-99d3-437e-94a4-6eac9b7fb9e2","system_id":"levelo_inurba_marseille","lat":43.29596,"lon":5.37513,"is_reserved":false,"is_disabled":false,"rental_uris":{"android":"levelo://app?vid=5b2002b1-99d3-437e-94a4-6eac9b7fb9e2","ios":"levelo://app?vid=5b2002b1-99d3-437e-94a4-6eac9b7fb9e2"},"vehicle_type_id":"4","last_reported":1728544135,"current_range_meters":27600,"station_id":"ce4bgh92rcd13ifvqb50","pricing_plan_id":"cebpf4jnsgd1na2vs0mg"},{"bike_id":"7694d6c2-ef89-4707-8bc2-60143665e66b","system_id":"levelo_inurba_marseille","lat":43.31707,"lon":5.40465,"is_reserved":false,"is_disabled":false,"rental_uris":{"android":"levelo://app?vid=7694d6c2-ef89-4707-8bc2-60143665e66b","ios":"levelo://app?vid=7694d6c2-ef89-4707-8bc2-60143665e66b"},"vehicle_type_id":"4","last_reported":1728544135,"current_range_meters":17600,"station_id":"ce4bh012rcd13ifvqd00","pricing_plan_id":"cebpf4jnsgd1na2vs0mg"},{"bike_id":"b8b70d98-93e8-4a04-a5eb-1313b3131539","system_id":"levelo_inurba_marseille","lat":43.31349,"lon":5.36722,"is_reserved":false,"is_disabled":false,"rental_uris":{"android":"levelo://app?vid=b8b70d98-93e8-4a04-a5eb-1313b3131539","ios":"levelo://app?vid=b8b70d98-93e8-4a04-a5eb-1313b3131539"},"vehicle_type_id":"4","last_reported":1728544135,"current_range_meters":24800,"station_id":"ce4bgr92rcd13ifvqc6g","pricing_plan_id":"cebpf4jnsgd1na2vs0mg"},{"bike_id":"aa75c41c-1391-4d5a-b0ad-fb29c317877d","system_id":"levelo_inurba_marseille","lat":43.2307,"lon":5.35492,"is_reserved":false,"is_disabled":false,"rental_uris":{"android":"levelo://app?vid=aa75c41c-1391-4d5a-b0ad-fb29c317877d","ios":"levelo://app?vid=aa75c41c-1391-4d5a-b0ad-fb29c317877d"},"vehicle_type_id":"4","last_reported":1728544135,"current_range_meters":12800,"station_id":"cpo3342slgdg3j2ifvpg","pricing_plan_id":"cebpf4jnsgd1na2vs0mg"},{"bike_id":"f6963f46-5e73-42df-9f9e-8258ce538093","system_id":"levelo_inurba_marseille","lat":43.25492,"lon":5.37647,"is_reserved":false,"is_disabled":false,"rental_uris":{"android":"levelo://app?vid=f6963f46-5e73-42df-9f9e-8258ce538093","ios":"levelo://app?vid=f6963f46-5e73-42df-9f9e-8258ce538093"},"vehicle_type_id":"4","last_reported":1728544135,"current_range_meters":33200,"station_id":"ce4bhh12rcd13ifvqff0","pricing_plan_id":"cebpf4jnsgd1na2vs0mg"},{"bike_id":"3815e933-e20e-4440-bbdd-11c9132eb606","system_id":"levelo_inurba_marseille","lat":43.336,"lon":5.41027,"is_reserved":false,"is_disabled":false,"rental_uris":{"android":"levelo://app?vid=3815e933-e20e-4440-bbdd-11c9132eb606","ios":"levelo://app?vid=3815e933-e20e-4440-bbdd-11c9132eb606"},"vehicle_type_id":"4","last_reported":1728544135,"current_range_meters":38800,"station_id":"ce4bhqh2rcd13ifvqhmg","pricing_plan_id":"cebpf4jnsgd1na2vs0mg"},{"bike_id":"c16cf7f6-f1d1-4c55-99ff-06b0ddaf0455","system_id":"levelo_inurba_marseille","lat":43.24086,"lon":5.37751,"is_reserved":false,"is_disabled":false,"rental_uris":{"android":"levelo://app?vid=c16cf7f6-f1d1-4c55-99ff-06b0ddaf0455","ios":"levelo://app?vid=c16cf7f6-f1d1-4c55-99ff-06b0ddaf0455"},"vehicle_type_id":"4","last_reported":1728544135,"current_range_meters":24800,"station_id":"ce4bhnp2rcd13ifvqgvg","pricing_plan_id":"cebpf4jnsgd1na2vs0mg"},{"bike_id":"b7507c69-0bc0-4e9e-9023-7bda0a81f93b","system_id":"levelo_inurba_marseille","lat":43.30553,"lon":5.3654,"is_reserved":false,"is_disabled":false,"rental_uris":{"android":"levelo://app?vid=b7507c69-0bc0-4e9e-9023-7bda0a81f93b","ios":"levelo://app?vid=b7507c69-0bc0-4e9e-9023-7bda0a81f93b"},"vehicle_type_id":"4","last_reported":1728544135,"current_range_meters":38800,"station_id":"ce4bgs12rcd13ifvqcag","pricing_plan_id":"cebpf4jnsgd1na2vs0mg"},{"bike_id":"cffa0fb1-252e-49d0-9a3c-70e95ff36166","system_id":"levelo_inurba_marseille","lat":43.2695,"lon":5.38643,"is_reserved":false,"is_disabled":false,"rental_uris":{"android":"levelo://app?vid=cffa0fb1-252e-49d0-9a3c-70e95ff36166","ios":"levelo://app?vid=cffa0fb1-252e-49d0-9a3c-70e95ff36166"},"vehicle_type_id":"4","last_reported":1728544135,"current_range_meters":35600,"station_id":"ce4bhh92rcd13ifvqfh0","pricing_plan_id":"cebpf4jnsgd1na2vs0mg"},{"bike_id":"ad9314fe-c5cb-4bca-b410-41e675a101a4","system_id":"levelo_inurba_marseille","lat":43.33782,"lon":5.37433,"is_reserved":false,"is_disabled":false,"rental_uris":{"android":"levelo://app?vid=ad9314fe-c5cb-4bca-b410-41e675a101a4","ios":"levelo://app?vid=ad9314fe-c5cb-4bca-b410-41e675a101a4"},"vehicle_type_id":"4","last_reported":1728544135,"current_range_meters":19600,"station_id":"","pricing_plan_id":"cebpf4jnsgd1na2vs0mg"},{"bike_id":"1a977011-72ed-4067-9aed-56cd0c56aa5a","system_id":"levelo_inurba_marseille","lat":43.30275,"lon":5.37715,"is_reserved":false,"is_disabled":false,"rental_uris":{"android":"levelo://app?vid=1a977011-72ed-4067-9aed-56cd0c56aa5a","ios":"levelo://app?vid=1a977011-72ed-4067-9aed-56cd0c56aa5a"},"vehicle_type_id":"4","last_reported":1728544135,"current_range_meters":29600,"station_id":"ce4bguh2rcd13ifvqcj0","pricing_plan_id":"cebpf4jnsgd1na2vs0mg"},{"bike_id":"101d89f9-c6c1-46de-b9db-b649498f27b4","system_id":"levelo_inurba_marseille","lat":43.32544,"lon":5.41451,"is_reserved":false,"is_disabled":false,"rental_uris":{"android":"levelo://app?vid=101d89f9-c6c1-46de-b9db-b649498f27b4","ios":"levelo://app?vid=101d89f9-c6c1-46de-b9db-b649498f27b4"},"vehicle_type_id":"4","last_reported":1728544135,"current_range_meters":8400,"station_id":"ce4bhq12rcd13ifvqhhg","pricing_plan_id":"cebpf4jnsgd1na2vs0mg"},{"bike_id":"b9901189-aee7-4fc3-8dee-eb61bd5af0a5","system_id":"levelo_inurba_marseille","lat":43.28941,"lon":5.36393,"is_reserved":false,"is_disabled":false,"rental_uris":{"android":"levelo://app?vid=b9901189-aee7-4fc3-8dee-eb61bd5af0a5","ios":"levelo://app?vid=b9901189-aee7-4fc3-8dee-eb61bd5af0a5"},"vehicle_type_id":"4","last_reported":1728544135,"current_range_meters":34800,"station_id":"ce4bhc92rcd13ifvqetg","pricing_plan_id":"cebpf4jnsgd1na2vs0mg"},{"bike_id":"44bd2658-c950-4c7f-bc1c-11485c3153bf","system_id":"levelo_inurba_marseille","lat":43.29217,"lon":5.35965,"is_reserved":false,"is_disabled":false,"rental_uris":{"android":"levelo://app?vid=44bd2658-c950-4c7f-bc1c-11485c3153bf","ios":"levelo://app?vid=44bd2658-c950-4c7f-bc1c-11485c3153bf"},"vehicle_type_id":"4","last_reported":1728544135,"current_range_meters":32800,"station_id":"","pricing_plan_id":"cebpf4jnsgd1na2vs0mg"},{"bike_id":"b0204589-2685-4d1a-b68b-ce0b8ac3ca33","system_id":"levelo_inurba_marseille","lat":43.30796,"lon":5.43521,"is_reserved":false,"is_disabled":false,"rental_uris":{"android":"levelo://app?vid=b0204589-2685-4d1a-b68b-ce0b8ac3ca33","ios":"levelo://app?vid=b0204589-2685-4d1a-b68b-ce0b8ac3ca33"},"vehicle_type_id":"4","last_reported":1728544135,"current_range_meters":28400,"station_id":"ce4bhph2rcd13ifvqheg","pricing_plan_id":"cebpf4jnsgd1na2vs0mg"},{"bike_id":"b23acee4-5720-4575-91af-11c4e23edb2d","system_id":"levelo_inurba_marseille","lat":43.337444,"lon":5.374475,"is_reserved":false,"is_disabled":false,"rental_uris":{"android":"levelo://app?vid=b23acee4-5720-4575-91af-11c4e23edb2d","ios":"levelo://app?vid=b23acee4-5720-4575-91af-11c4e23edb2d"},"vehicle_type_id":"4","last_reported":1728544135,"current_range_meters":36800,"station_id":"ce4bhbh2rcd13ifvqepg","pricing_plan_id":"cebpf4jnsgd1na2vs0mg"},{"bike_id":"796930d2-49b5-4d90-9741-617e85c90984","system_id":"levelo_inurba_marseille","lat":43.31363,"lon":5.36699,"is_reserved":false,"is_disabled":false,"rental_uris":{"android":"levelo://app?vid=796930d2-49b5-4d90-9741-617e85c90984","ios":"levelo://app?vid=796930d2-49b5-4d90-9741-617e85c90984"},"vehicle_type_id":"4","last_reported":1728544135,"current_range_meters":37600,"station_id":"ce4bgr92rcd13ifvqc6g","pricing_plan_id":"cebpf4jnsgd1na2vs0mg"},{"bike_id":"09660993-55da-4221-bfc3-99ae9eebefed","system_id":"levelo_inurba_marseille","lat":43.267913,"lon":5.39414,"is_reserved":false,"is_disabled":false,"rental_uris":{"android":"levelo://app?vid=09660993-55da-4221-bfc3-99ae9eebefed","ios":"levelo://app?vid=09660993-55da-4221-bfc3-99ae9eebefed"},"vehicle_type_id":"4","last_reported":1728544135,"current_range_meters":20800,"station_id":"ce4bhh12rcd13ifvqfg0","pricing_plan_id":"cebpf4jnsgd1na2vs0mg"},{"bike_id":"1ff91736-0ff3-4380-8ef2-34e5221bceee","system_id":"levelo_inurba_marseille","lat":43.337444,"lon":5.374475,"is_reserved":false,"is_disabled":false,"rental_uris":{"android":"levelo://app?vid=1ff91736-0ff3-4380-8ef2-34e5221bceee","ios":"levelo://app?vid=1ff91736-0ff3-4380-8ef2-34e5221bceee"},"vehicle_type_id":"4","last_reported":1728544135,"current_range_meters":35600,"station_id":"","pricing_plan_id":"cebpf4jnsgd1na2vs0mg"},{"bike_id":"62f352ec-e233-4d7f-8753-6a5615214777","system_id":"levelo_inurba_marseille","lat":43.32287,"lon":5.38275,"is_reserved":false,"is_disabled":false,"rental_uris":{"android":"levelo://app?vid=62f352ec-e233-4d7f-8753-6a5615214777","ios":"levelo://app?vid=62f352ec-e233-4d7f-8753-6a5615214777"},"vehicle_type_id":"4","last_reported":1728544135,"current_range_meters":39200,"station_id":"ce4bhr12rcd13ifvqhqg","pricing_plan_id":"cebpf4jnsgd1na2vs0mg"},{"bike_id":"9f0b3c45-77b4-410d-9198-8d5b64a2df07","system_id":"levelo_inurba_marseille","lat":43.337444,"lon":5.374475,"is_reserved":false,"is_disabled":false,"rental_uris":{"android":"levelo://app?vid=9f0b3c45-77b4-410d-9198-8d5b64a2df07","ios":"levelo://app?vid=9f0b3c45-77b4-410d-9198-8d5b64a2df07"},"vehicle_type_id":"4","last_reported":1728544135,"current_range_meters":22400,"station_id":"","pricing_plan_id":"cebpf4jnsgd1na2vs0mg"},{"bike_id":"33b3bc64-4d11-4b4c-9ea9-f42d8b0bfa58","system_id":"levelo_inurba_marseille","lat":43.31223,"lon":5.36871,"is_reserved":false,"is_disabled":false,"rental_uris":{"android":"levelo://app?vid=33b3bc64-4d11-4b4c-9ea9-f42d8b0bfa58","ios":"levelo://app?vid=33b3bc64-4d11-4b4c-9ea9-f42d8b0bfa58"},"vehicle_type_id":"4","last_reported":1728544135,"current_range_meters":37600,"station_id":"ce4bgl92rcd13ifvqbq0","pricing_plan_id":"cebpf4jnsgd1na2vs0mg"},{"bike_id":"033e3983-eccc-4920-a19e-04422bbd4a75","system_id":"levelo_inurba_marseille","lat":43.3029,"lon":5.37709,"is_reserved":false,"is_disabled":false,"rental_uris":{"android":"levelo://app?vid=033e3983-eccc-4920-a19e-04422bbd4a75","ios":"levelo://app?vid=033e3983-eccc-4920-a19e-04422bbd4a75"},"vehicle_type_id":"4","last_reported":1728544135,"current_range_meters":34000,"station_id":"ce4bguh2rcd13ifvqcj0","pricing_plan_id":"cebpf4jnsgd1na2vs0mg"},{"bike_id":"c4500bb5-8905-4b53-bafc-a0882ba39d10","system_id":"levelo_inurba_marseille","lat":43.2594,"lon":5.40911,"is_reserved":false,"is_disabled":false,"rental_uris":{"android":"levelo://app?vid=c4500bb5-8905-4b53-bafc-a0882ba39d10","ios":"levelo://app?vid=c4500bb5-8905-4b53-bafc-a0882ba39d10"},"vehicle_type_id":"4","last_reported":1728544135,"current_range_meters":30800,"station_id":"ce4bhm92rcd13ifvqglg","pricing_plan_id":"cebpf4jnsgd1na2vs0mg"},{"bike_id":"4f0b5f40-7ba2-444c-b834-1d2c7df0d881","system_id":"levelo_inurba_marseille","lat":43.29299,"lon":5.401,"is_reserved":false,"is_disabled":false,"rental_uris":{"android":"levelo://app?vid=4f0b5f40-7ba2-444c-b834-1d2c7df0d881","ios":"levelo://app?vid=4f0b5f40-7ba2-444c-b834-1d2c7df0d881"},"vehicle_type_id":"4","last_reported":1728544135,"current_range_meters":17600,"station_id":"ce4bh312rcd13ifvqdk0","pricing_plan_id":"cebpf4jnsgd1na2vs0mg"},{"bike_id":"c9d834f9-c9e6-4db9-a1fe-2a41dc7e45e8","system_id":"levelo_inurba_marseille","lat":43.28948,"lon":5.36417,"is_reserved":false,"is_disabled":false,"rental_uris":{"android":"levelo://app?vid=c9d834f9-c9e6-4db9-a1fe-2a41dc7e45e8","ios":"levelo://app?vid=c9d834f9-c9e6-4db9-a1fe-2a41dc7e45e8"},"vehicle_type_id":"4","last_reported":1728544135,"current_range_meters":4800,"station_id":"ce4bhc92rcd13ifvqetg","pricing_plan_id":"cebpf4jnsgd1na2vs0mg"},{"bike_id":"9cda547a-28e7-4328-991a-bc111b890f79","system_id":"levelo_inurba_marseille","lat":43.30353,"lon":5.41876,"is_reserved":false,"is_disabled":false,"rental_uris":{"android":"levelo://app?vid=9cda547a-28e7-4328-991a-bc111b890f79","ios":"levelo://app?vid=9cda547a-28e7-4328-991a-bc111b890f79"},"vehicle_type_id":"4","last_reported":1728544135,"current_range_meters":32800,"station_id":"ce4bhop2rcd13ifvqh7g","pricing_plan_id":"cebpf4jnsgd1na2vs0mg"},{"bike_id":"9ec2e3a7-901e-4bba-b293-ac8ab8c8b7be","system_id":"levelo_inurba_marseille","lat":43.2407,"lon":5.37765,"is_reserved":false,"is_disabled":false,"rental_uris":{"android":"levelo://app?vid=9ec2e3a7-901e-4bba-b293-ac8ab8c8b7be","ios":"levelo://app?vid=9ec2e3a7-901e-4bba-b293-ac8ab8c8b7be"},"vehicle_type_id":"4","last_reported":1728544135,"current_range_meters":15200,"station_id":"ce4bhnp2rcd13ifvqgvg","pricing_plan_id":"cebpf4jnsgd1na2vs0mg"},{"bike_id":"ca816f8a-b6cf-4882-b10a-b1fb99b86dc4","system_id":"levelo_inurba_marseille","lat":43.27497,"lon":5.42451,"is_reserved":false,"is_disabled":false,"rental_uris":{"android":"levelo://app?vid=ca816f8a-b6cf-4882-b10a-b1fb99b86dc4","ios":"levelo://app?vid=ca816f8a-b6cf-4882-b10a-b1fb99b86dc4"},"vehicle_type_id":"4","last_reported":1728544135,"current_range_meters":24400,"station_id":"ce4bhn92rcd13ifvqgrg","pricing_plan_id":"cebpf4jnsgd1na2vs0mg"},{"bike_id":"28f14564-5a47-4bc5-a509-d99bcaace2f7","system_id":"levelo_inurba_marseille","lat":43.231563,"lon":5.437061,"is_reserved":false,"is_disabled":false,"rental_uris":{"android":"levelo://app?vid=28f14564-5a47-4bc5-a509-d99bcaace2f7","ios":"levelo://app?vid=28f14564-5a47-4bc5-a509-d99bcaace2f7"},"vehicle_type_id":"4","last_reported":1728544135,"current_range_meters":3200,"station_id":"ce4bhmp2rcd13ifvqgog","pricing_plan_id":"cebpf4jnsgd1na2vs0mg"},{"bike_id":"52104642-a800-46c3-987a-472577e3d292","system_id":"levelo_inurba_marseille","lat":43.288464,"lon":5.358555,"is_reserved":false,"is_disabled":false,"rental_uris":{"android":"levelo://app?vid=52104642-a800-46c3-987a-472577e3d292","ios":"levelo://app?vid=52104642-a800-46c3-987a-472577e3d292"},"vehicle_type_id":"4","last_reported":1728544135,"current_range_meters":38000,"station_id":"ce4bhb12rcd13ifvqem0","pricing_plan_id":"cebpf4jnsgd1na2vs0mg"},{"bike_id":"651eb07f-27a8-44af-962d-d8fd68bde4bd","system_id":"levelo_inurba_marseille","lat":43.29583,"lon":5.36746,"is_reserved":false,"is_disabled":false,"rental_uris":{"android":"levelo://app?vid=651eb07f-27a8-44af-962d-d8fd68bde4bd","ios":"levelo://app?vid=651eb07f-27a8-44af-962d-d8fd68bde4bd"},"vehicle_type_id":"4","last_reported":1728544135,"current_range_meters":37600,"station_id":"ce4bgph2rcd13ifvqc2g","pricing_plan_id":"cebpf4jnsgd1na2vs0mg"},{"bike_id":"1e4edb65-ef41-498c-957a-f24a17b44f6e","system_id":"levelo_inurba_marseille","lat":43.28945,"lon":5.36401,"is_reserved":false,"is_disabled":false,"rental_uris":{"android":"levelo://app?vid=1e4edb65-ef41-498c-957a-f24a17b44f6e","ios":"levelo://app?vid=1e4edb65-ef41-498c-957a-f24a17b44f6e"},"vehicle_type_id":"4","last_reported":1728544135,"current_range_meters":36400,"station_id":"ce4bhc92rcd13ifvqetg","pricing_plan_id":"cebpf4jnsgd1na2vs0mg"},{"bike_id":"7e084ca4-4bd7-4110-8fc4-450f25741239","system_id":"levelo_inurba_marseille","lat":43.337444,"lon":5.374475,"is_reserved":false,"is_disabled":false,"rental_uris":{"android":"levelo://app?vid=7e084ca4-4bd7-4110-8fc4-450f25741239","ios":"levelo://app?vid=7e084ca4-4bd7-4110-8fc4-450f25741239"},"vehicle_type_id":"4","last_reported":1728544135,"current_range_meters":32000,"station_id":"","pricing_plan_id":"cebpf4jnsgd1na2vs0mg"},{"bike_id":"8ae8bbf4-7502-4e26-9a9b-508af29fc57f","system_id":"levelo_inurba_marseille","lat":43.30159,"lon":5.3808,"is_reserved":false,"is_disabled":false,"rental_uris":{"android":"levelo://app?vid=8ae8bbf4-7502-4e26-9a9b-508af29fc57f","ios":"levelo://app?vid=8ae8bbf4-7502-4e26-9a9b-508af29fc57f"},"vehicle_type_id":"4","last_reported":1728544135,"current_range_meters":29600,"station_id":"ce4bgjp2rcd13ifvqbh0","pricing_plan_id":"cebpf4jnsgd1na2vs0mg"},{"bike_id":"4189f2dd-a4e1-4362-b305-56b4086e5ae3","system_id":"levelo_inurba_marseille","lat":43.28939,"lon":5.36402,"is_reserved":false,"is_disabled":false,"rental_uris":{"android":"levelo://app?vid=4189f2dd-a4e1-4362-b305-56b4086e5ae3","ios":"levelo://app?vid=4189f2dd-a4e1-4362-b305-56b4086e5ae3"},"vehicle_type_id":"4","last_reported":1728544135,"current_range_meters":28400,"station_id":"ce4bhc92rcd13ifvqetg","pricing_plan_id":"cebpf4jnsgd1na2vs0mg"},{"bike_id":"ed3cf72a-10e7-4c01-b0b8-a6a611853d67","system_id":"levelo_inurba_marseille","lat":43.3235,"lon":5.4062,"is_reserved":false,"is_disabled":false,"rental_uris":{"android":"levelo://app?vid=ed3cf72a-10e7-4c01-b0b8-a6a611853d67","ios":"levelo://app?vid=ed3cf72a-10e7-4c01-b0b8-a6a611853d67"},"vehicle_type_id":"4","last_reported":1728544135,"current_range_meters":36800,"station_id":"ce4bhq92rcd13ifvqhjg","pricing_plan_id":"cebpf4jnsgd1na2vs0mg"},{"bike_id":"a4d9193f-992e-4cd0-8a97-afb4e0659ba3","system_id":"levelo_inurba_marseille","lat":43.32656,"lon":5.40989,"is_reserved":false,"is_disabled":false,"rental_uris":{"android":"levelo://app?vid=a4d9193f-992e-4cd0-8a97-afb4e0659ba3","ios":"levelo://app?vid=a4d9193f-992e-4cd0-8a97-afb4e0659ba3"},"vehicle_type_id":"4","last_reported":1728544135,"current_range_meters":39200,"station_id":"ce4bhpp2rcd13ifvqhgg","pricing_plan_id":"cebpf4jnsgd1na2vs0mg"},{"bike_id":"94e21a69-ba2b-4e5b-a9e4-7687309b5a29","system_id":"levelo_inurba_marseille","lat":43.24078,"lon":5.37759,"is_reserved":false,"is_disabled":false,"rental_uris":{"android":"levelo://app?vid=94e21a69-ba2b-4e5b-a9e4-7687309b5a29","ios":"levelo://app?vid=94e21a69-ba2b-4e5b-a9e4-7687309b5a29"},"vehicle_type_id":"4","last_reported":1728544135,"current_range_meters":38800,"station_id":"ce4bhnp2rcd13ifvqgvg","pricing_plan_id":"cebpf4jnsgd1na2vs0mg"},{"bike_id":"7f6fc81f-f32b-49b5-8460-8ce9150b6693","system_id":"levelo_inurba_marseille","lat":43.29981,"lon":5.37186,"is_reserved":false,"is_disabled":false,"rental_uris":{"android":"levelo://app?vid=7f6fc81f-f32b-49b5-8460-8ce9150b6693","ios":"levelo://app?vid=7f6fc81f-f32b-49b5-8460-8ce9150b6693"},"vehicle_type_id":"4","last_reported":1728544135,"current_range_meters":28000,"station_id":"ce4bgr92rcd13ifvqc7g","pricing_plan_id":"cebpf4jnsgd1na2vs0mg"},{"bike_id":"977d9e0e-fa68-4eae-9557-565a02e21571","system_id":"levelo_inurba_marseille","lat":43.30548,"lon":5.36559,"is_reserved":false,"is_disabled":false,"rental_uris":{"android":"levelo://app?vid=977d9e0e-fa68-4eae-9557-565a02e21571","ios":"levelo://app?vid=977d9e0e-fa68-4eae-9557-565a02e21571"},"vehicle_type_id":"4","last_reported":1728544135,"current_range_meters":25600,"station_id":"ce4bgs12rcd13ifvqcag","pricing_plan_id":"cebpf4jnsgd1na2vs0mg"},{"bike_id":"e3f0958a-b015-4860-b909-00d66c14d089","system_id":"levelo_inurba_marseille","lat":43.239653,"lon":5.366273,"is_reserved":false,"is_disabled":false,"rental_uris":{"android":"levelo://app?vid=e3f0958a-b015-4860-b909-00d66c14d089","ios":"levelo://app?vid=e3f0958a-b015-4860-b909-00d66c14d089"},"vehicle_type_id":"4","last_reported":1728544135,"current_range_meters":25600,"station_id":"ce4bhi12rcd13ifvqfp0","pricing_plan_id":"cebpf4jnsgd1na2vs0mg"},{"bike_id":"69019cd8-e500-4221-a983-0fbacaa37828","system_id":"levelo_inurba_marseille","lat":43.27489,"lon":5.42458,"is_reserved":false,"is_disabled":false,"rental_uris":{"android":"levelo://app?vid=69019cd8-e500-4221-a983-0fbacaa37828","ios":"levelo://app?vid=69019cd8-e500-4221-a983-0fbacaa37828"},"vehicle_type_id":"4","last_reported":1728544135,"current_range_meters":38800,"station_id":"ce4bhn92rcd13ifvqgrg","pricing_plan_id":"cebpf4jnsgd1na2vs0mg"},{"bike_id":"a5eb8b3b-d708-4eff-867c-a8b361cc8d73","system_id":"levelo_inurba_marseille","lat":43.29969,"lon":5.38493,"is_reserved":false,"is_disabled":false,"rental_uris":{"android":"levelo://app?vid=a5eb8b3b-d708-4eff-867c-a8b361cc8d73","ios":"levelo://app?vid=a5eb8b3b-d708-4eff-867c-a8b361cc8d73"},"vehicle_type_id":"4","last_reported":1728544135,"current_range_meters":4000,"station_id":"ce4bgj92rcd13ifvqbd0","pricing_plan_id":"cebpf4jnsgd1na2vs0mg"},{"bike_id":"93a8a981-e8eb-46ae-b6d3-1ff1d018f00d","system_id":"levelo_inurba_marseille","lat":43.33025,"lon":5.39042,"is_reserved":false,"is_disabled":false,"rental_uris":{"android":"levelo://app?vid=93a8a981-e8eb-46ae-b6d3-1ff1d018f00d","ios":"levelo://app?vid=93a8a981-e8eb-46ae-b6d3-1ff1d018f00d"},"vehicle_type_id":"4","last_reported":1728544135,"current_range_meters":35200,"station_id":"ce4bhr92rcd13ifvqhrg","pricing_plan_id":"cebpf4jnsgd1na2vs0mg"},{"bike_id":"ad15bbd0-9b62-4d1e-8a57-0632bbe80630","system_id":"levelo_inurba_marseille","lat":43.28403,"lon":5.37504,"is_reserved":false,"is_disabled":false,"rental_uris":{"android":"levelo://app?vid=ad15bbd0-9b62-4d1e-8a57-0632bbe80630","ios":"levelo://app?vid=ad15bbd0-9b62-4d1e-8a57-0632bbe80630"},"vehicle_type_id":"4","last_reported":1728544135,"current_range_meters":21600,"station_id":"ce4bh412rcd13ifvqds0","pricing_plan_id":"cebpf4jnsgd1na2vs0mg"},{"bike_id":"efe9344e-42f6-4f4f-961b-67758bfcf428","system_id":"levelo_inurba_marseille","lat":43.25004,"lon":5.38924,"is_reserved":false,"is_disabled":false,"rental_uris":{"android":"levelo://app?vid=efe9344e-42f6-4f4f-961b-67758bfcf428","ios":"levelo://app?vid=efe9344e-42f6-4f4f-961b-67758bfcf428"},"vehicle_type_id":"4","last_reported":1728544135,"current_range_meters":8000,"station_id":"ce4bhgp2rcd13ifvqfd0","pricing_plan_id":"cebpf4jnsgd1na2vs0mg"},{"bike_id":"0ffbdbd8-5971-4b7e-9c40-3f2a96416cf9","system_id":"levelo_inurba_marseille","lat":43.31235,"lon":5.36878,"is_reserved":false,"is_disabled":false,"rental_uris":{"android":"levelo://app?vid=0ffbdbd8-5971-4b7e-9c40-3f2a96416cf9","ios":"levelo://app?vid=0ffbdbd8-5971-4b7e-9c40-3f2a96416cf9"},"vehicle_type_id":"4","last_reported":1728544135,"current_range_meters":30000,"station_id":"ce4bgl92rcd13ifvqbq0","pricing_plan_id":"cebpf4jnsgd1na2vs0mg"},{"bike_id":"e741d96d-32b6-4313-8a40-a18bfdee15a4","system_id":"levelo_inurba_marseille","lat":43.24544,"lon":5.39524,"is_reserved":false,"is_disabled":false,"rental_uris":{"android":"levelo://app?vid=e741d96d-32b6-4313-8a40-a18bfdee15a4","ios":"levelo://app?vid=e741d96d-32b6-4313-8a40-a18bfdee15a4"},"vehicle_type_id":"4","last_reported":1728544135,"current_range_meters":37600,"station_id":"ce4bhlp2rcd13ifvqgjg","pricing_plan_id":"cebpf4jnsgd1na2vs0mg"},{"bike_id":"4b2f4fea-06b2-477f-9883-12a546ad6d80","system_id":"levelo_inurba_marseille","lat":43.33605,"lon":5.41035,"is_reserved":false,"is_disabled":false,"rental_uris":{"android":"levelo://app?vid=4b2f4fea-06b2-477f-9883-12a546ad6d80","ios":"levelo://app?vid=4b2f4fea-06b2-477f-9883-12a546ad6d80"},"vehicle_type_id":"4","last_reported":1728544135,"current_range_meters":30400,"station_id":"ce4bhqh2rcd13ifvqhmg","pricing_plan_id":"cebpf4jnsgd1na2vs0mg"},{"bike_id":"0d616978-f5e6-49ce-94a5-19c6c56a53ac","system_id":"levelo_inurba_marseille","lat":43.34149,"lon":5.40905,"is_reserved":false,"is_disabled":false,"rental_uris":{"android":"levelo://app?vid=0d616978-f5e6-49ce-94a5-19c6c56a53ac","ios":"levelo://app?vid=0d616978-f5e6-49ce-94a5-19c6c56a53ac"},"vehicle_type_id":"4","last_reported":1728544135,"current_range_meters":8800,"station_id":"ce4bhqh2rcd13ifvqhlg","pricing_plan_id":"cebpf4jnsgd1na2vs0mg"},{"bike_id":"1b2782d1-a4a7-42fc-a94a-bf9dba11f92e","system_id":"levelo_inurba_marseille","lat":43.30902,"lon":5.36846,"is_reserved":false,"is_disabled":false,"rental_uris":{"android":"levelo://app?vid=1b2782d1-a4a7-42fc-a94a-bf9dba11f92e","ios":"levelo://app?vid=1b2782d1-a4a7-42fc-a94a-bf9dba11f92e"},"vehicle_type_id":"4","last_reported":1728544135,"current_range_meters":29600,"station_id":"ce4bgn92rcd13ifvqbvg","pricing_plan_id":"cebpf4jnsgd1na2vs0mg"},{"bike_id":"c2c2ac77-3693-4701-9fdd-6ae5aeac18e3","system_id":"levelo_inurba_marseille","lat":43.26572,"lon":5.39016,"is_reserved":false,"is_disabled":false,"rental_uris":{"android":"levelo://app?vid=c2c2ac77-3693-4701-9fdd-6ae5aeac18e3","ios":"levelo://app?vid=c2c2ac77-3693-4701-9fdd-6ae5aeac18e3"},"vehicle_type_id":"4","last_reported":1728544135,"current_range_meters":24800,"station_id":"ce4bhe12rcd13ifvqf30","pricing_plan_id":"cebpf4jnsgd1na2vs0mg"},{"bike_id":"7851dbc0-fe97-4d6c-8383-46784bdbec44","system_id":"levelo_inurba_marseille","lat":43.25006,"lon":5.38932,"is_reserved":false,"is_disabled":false,"rental_uris":{"android":"levelo://app?vid=7851dbc0-fe97-4d6c-8383-46784bdbec44","ios":"levelo://app?vid=7851dbc0-fe97-4d6c-8383-46784bdbec44"},"vehicle_type_id":"4","last_reported":1728544135,"current_range_meters":20800,"station_id":"ce4bhgp2rcd13ifvqfd0","pricing_plan_id":"cebpf4jnsgd1na2vs0mg"},