{"last_updated":1701785224,"ttl":30,"version":"2.2","data":{"bikes":[{"bike_id":"ff9f49a8-7cd0-4bbf-a87a-af7489536e88","system_id":"levelo_inurba_marseille","lat":43.313391,"lon":5.36706,"is_reserved":false,"is_disabled":false,"rental_uris":{"android":"levelo://app?vid=ff9f49a8-7cd0-4bbf-a87a-af7489536e88","ios":"levelo://app?vid=ff9f49a8-7cd0-4bbf-a87a-af7489536e88"},"vehicle_type_id":"4","last_reported":1701785224,"current_range_meters":31200,"station_id":"ce4bgr92rcd13ifvqc6g","pricing_plan_id":"free"},{"bike_id":"70b41924-c4ab-4775-984a-0b2c192e1b51","system_id":"levelo_inurba_marseille","lat":43.313391,"lon":5.36706,"is_reserved":false,"is_disabled":false,"rental_uris":{"android":"levelo://app?vid=70b41924-c4ab-4775-984a-0b2c192e1b51","ios":"levelo://app?vid=70b41924-c4ab-4775-984a-0b2c192e1b51"},"vehicle_type_id":"4","last_reported":1701785224,"current_range_meters":31600,"station_id":"ce4bgr92rcd13ifvqc6g","pricing_plan_id":"free"},{"bike_id":"ae4b0316-8fd1-40e3-bc76-be1388b5aa47","system_id":"levelo_inurba_marseille","lat":43.313391,"lon":5.36706,"is_reserved":false,"is_disabled":false,"rental_uris":{"android":"levelo://app?vid=ae4b0316-8fd1-40e3-bc76-be1388b5aa47","ios":"levelo://app?vid=ae4b0316-8fd1-40e3-bc76-be1388b5aa47"},"vehicle_type_id":"4","last_reported":1701785224,"current_range_meters":23200,"station_id":"ce4bgr92rcd13ifvqc6g","pricing_plan_id":"free"},{"bike_id":"6c22590d-6750-4410-b7e4-1413015c08a1","system_id":"levelo_inurba_marseille","lat":43.31337,"lon":5.36736,"is_reserved":false,"is_disabled":false,"rental_uris":{"android":"levelo://app?vid=6c22590d-6750-4410-b7e4-1413015c08a1","ios":"levelo://app?vid=6c22590d-6750-4410-b7e4-1413015c08a1"},"vehicle_type_id":"4","last_reported":1701785224,"current_range_meters":18800,"station_id":"ce4bgr92rcd13ifvqc6g","pricing_plan_id":"free"},{"bike_id":"4b076af0-63cb-42ed-902b-1abd681f46fe","system_id":"levelo_inurba_marseille","lat":43.313391,"lon":5.36706,"is_reserved":false,"is_disabled":false,"rental_uris":{"android":"levelo://app?vid=4b076af0-63cb-42ed-902b-1abd681f46fe","ios":"levelo://app?vid=4b076af0-63cb-42ed-902b-1abd681f46fe"},"vehicle_type_id":"4","last_reported":1701785224,"current_range_meters":13600,"station_id":"ce4bgr92rcd13ifvqc6g","pricing_plan_id":"free"},{"bike_id":"fd01627b-64c2-4d52-8bfd-4cab12c5ce93","system_id":"levelo_inurba_marseille","lat":43.313391,"lon":5.36706,"is_reserved":false,"is_disabled":false,"rental_uris":{"android":"levelo://app?vid=fd01627b-64c2-4d52-8bfd-4cab12c5ce93","ios":"levelo://app?vid=fd01627b-64c2-4d52-8bfd-4cab12c5ce93"},"vehicle_type_id":"4","last_reported":1701785224,"current_range_meters":21600,"station_id":"ce4bgr92rcd13ifvqc6g","pricing_plan_id":"free"},{"bike_id":"4167b9f2-99d5-4760-a9a1-6d91aacce329","system_id":"levelo_inurba_marseille","lat":43.313391,"lon":5.36706,"is_reserved":false,"is_disabled":false,"rental_uris":{"android":"levelo://app?vid=4167b9f2-99d5-4760-a9a1-6d91aacce329","ios":"levelo://app?vid=4167b9f2-99d5-4760-a9a1-6d91aacce329"},"vehicle_type_id":"4","last_reported":1701785224,"current_range_meters":23600,"station_id":"ce4bgr92rcd13ifvqc6g","pricing_plan_id":"free"},{"bike_id":"5fd61d4d-97d9-46ea-ad6e-9ae0ba00cbdf","system_id":"levelo_inurba_marseille","lat":43.31351,"lon":5.36712,"is_reserved":false,"is_disabled":false,"rental_uris":{"android":"levelo://app?vid=5fd61d4d-97d9-46ea-ad6e-9ae0ba00cbdf","ios":"levelo://app?vid=5fd61d4d-97d9-46ea-ad6e-9ae0ba00cbdf"},"vehicle_type_id":"4","last_reported":1701785224,"current_range_meters":24400,"station_id":"ce4bgr92rcd13ifvqc6g","pricing_plan_id":"free"},{"bike_id":"745e6030-c6ca-4127-8d3f-4f131fa830a6","system_id":"levelo_inurba_marseille","lat":43.313391,"lon":5.36706,"is_reserved":false,"is_disabled":false,"rental_uris":{"android":"levelo://app?vid=745e6030-c6ca-4127-8d3f-4f131fa830a6","ios":"levelo://app?vid=745e6030-c6ca-4127-8d3f-4f131fa830a6"},"vehicle_type_id":"4","last_reported":1701785224,"current_range_meters":18400,"station_id":"ce4bgr92rcd13ifvqc6g","pricing_plan_id":"free"},{"bike_id":"c90c4f56-179f-47c0-b367-8237d5be2f6f","system_id":"levelo_inurba_marseille","lat":43.313563,"lon":5.367085,"is_reserved":false,"is_disabled":false,"rental_uris":{"android":"levelo://app?vid=c90c4f56-179f-47c0-b367-8237d5be2f6f","ios":"levelo://app?vid=c90c4f56-179f-47c0-b367-8237d5be2f6f"},"vehicle_type_id":"4","last_reported":1701785224,"current_range_meters":22000,"station_id":"","pricing_plan_id":"free"},{"bike_id":"335bd2e4-d778-465e-8392-7659726a15ef","system_id":"levelo_inurba_marseille","lat":43.313561,"lon":5.367115,"is_reserved":false,"is_disabled":false,"rental_uris":{"android":"levelo://app?vid=335bd2e4-d778-465e-8392-7659726a15ef","ios":"levelo://app?vid=335bd2e4-d778-465e-8392-7659726a15ef"},"vehicle_type_id":"4","last_reported":1701785224,"current_range_meters":22400,"station_id":"ce4bgr92rcd13ifvqc6g","pricing_plan_id":"free"},{"bike_id":"5ba3014d-8658-4332-a218-35f7ef631cda","system_id":"levelo_inurba_marseille","lat":43.313605,"lon":5.367023,"is_reserved":false,"is_disabled":false,"rental_uris":{"android":"levelo://app?vid=5ba3014d-8658-4332-a218-35f7ef631cda","ios":"levelo://app?vid=5ba3014d-8658-4332-a218-35f7ef631cda"},"vehicle_type_id":"4","last_reported":1701785224,"current_range_meters":21200,"station_id":"ce4bgr92rcd13ifvqc6g","pricing_plan_id":"free"},{"bike_id":"d2ab9e52-b395-4984-b344-111e09f40656","system_id":"levelo_inurba_marseille","lat":43.312239,"lon":5.368562,"is_reserved":false,"is_disabled":false,"rental_uris":{"android":"levelo://app?vid=d2ab9e52-b395-4984-b344-111e09f40656","ios":"levelo://app?vid=d2ab9e52-b395-4984-b344-111e09f40656"},"vehicle_type_id":"4","last_reported":1701785224,"current_range_meters":12000,"station_id":"ce4bgl92rcd13ifvqbq0","pricing_plan_id":"free"},{"bike_id":"8e436c44-e603-4120-89ea-1611358b7412","system_id":"levelo_inurba_marseille","lat":43.312239,"lon":5.368562,"is_reserved":false,"is_disabled":false,"rental_uris":{"android":"levelo://app?vid=8e436c44-e603-4120-89ea-1611358b7412","ios":"levelo://app?vid=8e436c44-e603-4120-89ea-1611358b7412"},"vehicle_type_id":"4","last_reported":1701785224,"current_range_meters":25600,"station_id":"ce4bgl92rcd13ifvqbq0","pricing_plan_id":"free"},{"bike_id":"bf17a957-00da-4f83-8e68-75717675954c","system_id":"levelo_inurba_marseille","lat":43.312239,"lon":5.368562,"is_reserved":false,"is_disabled":false,"rental_uris":{"android":"levelo://app?vid=bf17a957-00da-4f83-8e68-75717675954c","ios":"levelo://app?vid=bf17a957-00da-4f83-8e68-75717675954c"},"vehicle_type_id":"4","last_reported":1701785224,"current_range_meters":23200,"station_id":"ce4bgl92rcd13ifvqbq0","pricing_plan_id":"free"},{"bike_id":"36aeb7cc-3e3c-4f8e-8a91-381bb6daf4c4","system_id":"levelo_inurba_marseille","lat":43.309076,"lon":5.368465,"is_reserved":false,"is_disabled":false,"rental_uris":{"android":"levelo://app?vid=36aeb7cc-3e3c-4f8e-8a91-381bb6daf4c4","ios":"levelo://app?vid=36aeb7cc-3e3c-4f8e-8a91-381bb6daf4c4"},"vehicle_type_id":"4","last_reported":1701785224,"current_range_meters":1600,"station_id":"ce4bgn92rcd13ifvqbvg","pricing_plan_id":"free"},{"bike_id":"c84da087-1a97-449f-b316-95f95a5b7fae","system_id":"levelo_inurba_marseille","lat":43.309076,"lon":5.368465,"is_reserved":false,"is_disabled":false,"rental_uris":{"android":"levelo://app?vid=c84da087-1a97-449f-b316-95f95a5b7fae","ios":"levelo://app?vid=c84da087-1a97-449f-b316-95f95a5b7fae"},"vehicle_type_id":"4","last_reported":1701785224,"current_range_meters":26000,"station_id":"ce4bgn92rcd13ifvqbvg","pricing_plan_id":"free"},{"bike_id":"303e4ff1-3db0-473a-ada9-b629a9bae404","system_id":"levelo_inurba_marseille","lat":43.314935,"lon":5.373019,"is_reserved":false,"is_disabled":false,"rental_uris":{"android":"levelo://app?vid=303e4ff1-3db0-473a-ada9-b629a9bae404","ios":"levelo://app?vid=303e4ff1-3db0-473a-ada9-b629a9bae404"},"vehicle_type_id":"4","last_reported":1701785224,"current_range_meters":28400,"station_id":"ce4bgt12rcd13ifvqcd0","pricing_plan_id":"free"},{"bike_id":"6ed6ab70-e155-4f15-b270-a2acb041e731","system_id":"levelo_inurba_marseille","lat":43.309039,"lon":5.371797,"is_reserved":false,"is_disabled":false,"rental_uris":{"android":"levelo://app?vid=6ed6ab70-e155-4f15-b270-a2acb041e731","ios":"levelo://app?vid=6ed6ab70-e155-4f15-b270-a2acb041e731"},"vehicle_type_id":"4","last_reported":1701785224,"current_range_meters":31200,"station_id":"ce4bguh2rcd13ifvqckg","pricing_plan_id":"free"},{"bike_id":"299c1eda-a86c-4f2c-a320-58b4e01cd6b9","system_id":"levelo_inurba_marseille","lat":43.305605,"lon":5.365528,"is_reserved":false,"is_disabled":false,"rental_uris":{"android":"levelo://app?vid=299c1eda-a86c-4f2c-a320-58b4e01cd6b9","ios":"levelo://app?vid=299c1eda-a86c-4f2c-a320-58b4e01cd6b9"},"vehicle_type_id":"4","last_reported":1701785224,"current_range_meters":0,"station_id":"ce4bgs12rcd13ifvqcag","pricing_plan_id":"free"},{"bike_id":"e68bd4fb-ac30-4166-938d-db87e415e22c","system_id":"levelo_inurba_marseille","lat":43.305381,"lon":5.367008,"is_reserved":false,"is_disabled":false,"rental_uris":{"android":"levelo://app?vid=e68bd4fb-ac30-4166-938d-db87e415e22c","ios":"levelo://app?vid=e68bd4fb-ac30-4166-938d-db87e415e22c"},"vehicle_type_id":"4","last_reported":1701785224,"current_range_meters":0,"station_id":"ce4bgrp2rcd13ifvqc9g","pricing_plan_id":"free"},{"bike_id":"ec249f92-f38a-409f-b148-5b26d73b5ed7","system_id":"levelo_inurba_marseille","lat":43.305989,"lon":5.37225,"is_reserved":false,"is_disabled":false,"rental_uris":{"android":"levelo://app?vid=ec249f92-f38a-409f-b148-5b26d73b5ed7","ios":"levelo://app?vid=ec249f92-f38a-409f-b148-5b26d73b5ed7"},"vehicle_type_id":"4","last_reported":1701785224,"current_range_meters":5600,"station_id":"ce4bgqh2rcd13ifvqc4g","pricing_plan_id":"free"},{"bike_id":"a728eea0-9f43-42cf-b8b1-39763a7f1ef5","system_id":"levelo_inurba_marseille","lat":43.30597,"lon":5.37214,"is_reserved":false,"is_disabled":false,"rental_uris":{"android":"levelo://app?vid=a728eea0-9f43-42cf-b8b1-39763a7f1ef5","ios":"levelo://app?vid=a728eea0-9f43-42cf-b8b1-39763a7f1ef5"},"vehicle_type_id":"4","last_reported":1701785224,"current_range_meters":0,"station_id":"ce4bgqh2rcd13ifvqc4g","pricing_plan_id":"free"},{"bike_id":"b065b12a-ef87-47d8-8ac6-a38844050d40","system_id":"levelo_inurba_marseille","lat":43.319338,"lon":5.372928,"is_reserved":false,"is_disabled":false,"rental_uris":{"android":"levelo://app?vid=b065b12a-ef87-47d8-8ac6-a38844050d40","ios":"levelo://app?vid=b065b12a-ef87-47d8-8ac6-a38844050d40"},"vehicle_type_id":"4","last_reported":1701785224,"current_range_meters":0,"station_id":"","pricing_plan_id":"free"},{"bike_id":"c52d5db6-7f37-47da-8dc9-fe39b7f57219","system_id":"levelo_inurba_marseille","lat":43.307945,"lon":5.376487,"is_reserved":false,"is_disabled":false,"rental_uris":{"android":"levelo://app?vid=c52d5db6-7f37-47da-8dc9-fe39b7f57219","ios":"levelo://app?vid=c52d5db6-7f37-47da-8dc9-fe39b7f57219"},"vehicle_type_id":"4","last_reported":1701785224,"current_range_meters":25600,"station_id":"ce4bgv92rcd13ifvqcq0","pricing_plan_id":"free"},{"bike_id":"fb6fd937-527b-4585-9058-0dfdc6436ac8","system_id":"levelo_inurba_marseille","lat":43.31351,"lon":5.37909,"is_reserved":false,"is_disabled":false,"rental_uris":{"android":"levelo://app?vid=fb6fd937-527b-4585-9058-0dfdc6436ac8","ios":"levelo://app?vid=fb6fd937-527b-4585-9058-0dfdc6436ac8"},"vehicle_type_id":"4","last_reported":1701785224,"current_range_meters":10000,"station_id":"","pricing_plan_id":"free"},{"bike_id":"98c7b888-80cd-42bb-af25-7fcd5dde9a55","system_id":"levelo_inurba_marseille","lat":43.31711,"lon":5.37759,"is_reserved":false,"is_disabled":false,"rental_uris":{"android":"levelo://app?vid=98c7b888-80cd-42bb-af25-7fcd5dde9a55","ios":"levelo://app?vid=98c7b888-80cd-42bb-af25-7fcd5dde9a55"},"vehicle_type_id":"4","last_reported":1701785224,"current_range_meters":20000,"station_id":"ce4bgth2rcd13ifvqch0","pricing_plan_id":"free"},{"bike_id":"5dfbe47a-ace2-4972-b59b-b7f915164da5","system_id":"levelo_inurba_marseille","lat":43.303046,"lon":5.368981,"is_reserved":false,"is_disabled":false,"rental_uris":{"android":"levelo://app?vid=5dfbe47a-ace2-4972-b59b-b7f915164da5","ios":"levelo://app?vid=5dfbe47a-ace2-4972-b59b-b7f915164da5"},"vehicle_type_id":"4","last_reported":1701785224,"current_range_meters":21200,"station_id":"ce4bgqh2rcd13ifvqc5g","pricing_plan_id":"free"},{"bike_id":"f316520e-a1f8-4389-af51-1ceab1abeb2f","system_id":"levelo_inurba_marseille","lat":43.301939,"lon":5.366286,"is_reserved":false,"is_disabled":false,"rental_uris":{"android":"levelo://app?vid=f316520e-a1f8-4389-af51-1ceab1abeb2f","ios":"levelo://app?vid=f316520e-a1f8-4389-af51-1ceab1abeb2f"},"vehicle_type_id":"4","last_reported":1701785224,"current_range_meters":3600,"station_id":"ce4bgrh2rcd13ifvqc8g","pricing_plan_id":"free"},{"bike_id":"ab542b0a-b258-4b62-baed-c4ff4b3a7961","system_id":"levelo_inurba_marseille","lat":43.324771,"lon":5.36557,"is_reserved":false,"is_disabled":false,"rental_uris":{"android":"levelo://app?vid=ab542b0a-b258-4b62-baed-c4ff4b3a7961","ios":"levelo://app?vid=ab542b0a-b258-4b62-baed-c4ff4b3a7961"},"vehicle_type_id":"4","last_reported":1701785224,"current_range_meters":12800,"station_id":"ce4bhs12rcd13ifvqhvg","pricing_plan_id":"free"},{"bike_id":"41280701-a143-4e50-93ef-fa297df3585f","system_id":"levelo_inurba_marseille","lat":43.324771,"lon":5.36557,"is_reserved":false,"is_disabled":false,"rental_uris":{"android":"levelo://app?vid=41280701-a143-4e50-93ef-fa297df3585f","ios":"levelo://app?vid=41280701-a143-4e50-93ef-fa297df3585f"},"vehicle_type_id":"4","last_reported":1701785224,"current_range_meters":25600,"station_id":"ce4bhs12rcd13ifvqhvg","pricing_plan_id":"free"},{"bike_id":"e222377b-5f50-452f-b870-cfaf3055e8ec","system_id":"levelo_inurba_marseille","lat":43.324771,"lon":5.36557,"is_reserved":false,"is_disabled":false,"rental_uris":{"android":"levelo://app?vid=e222377b-5f50-452f-b870-cfaf3055e8ec","ios":"levelo://app?vid=e222377b-5f50-452f-b870-cfaf3055e8ec"},"vehicle_type_id":"4","last_reported":1701785224,"current_range_meters":23600,"station_id":"ce4bhs12rcd13ifvqhvg","pricing_plan_id":"free"},{"bike_id":"349dfaee-3ed5-42be-8292-0ab2ba4552e5","system_id":"levelo_inurba_marseille","lat":43.324771,"lon":5.36557,"is_reserved":false,"is_disabled":false,"rental_uris":{"android":"levelo://app?vid=349dfaee-3ed5-42be-8292-0ab2ba4552e5","ios":"levelo://app?vid=349dfaee-3ed5-42be-8292-0ab2ba4552e5"},"vehicle_type_id":"4","last_reported":1701785224,"current_range_meters":28000,"station_id":"ce4bhs12rcd13ifvqhvg","pricing_plan_id":"free"},{"bike_id":"49d5a2a4-f14e-4abc-9290-bf47e27ee447","system_id":"levelo_inurba_marseille","lat":43.31105,"lon":5.383435,"is_reserved":false,"is_disabled":false,"rental_uris":{"android":"levelo://app?vid=49d5a2a4-f14e-4abc-9290-bf47e27ee447","ios":"levelo://app?vid=49d5a2a4-f14e-4abc-9290-bf47e27ee447"},"vehicle_type_id":"4","last_reported":1701785224,"current_range_meters":28400,"station_id":"","pricing_plan_id":"free"},{"bike_id":"84c39752-f48f-4f4d-ac4b-a1b4c5ddefdf","system_id":"levelo_inurba_marseille","lat":43.30143,"lon":5.37413,"is_reserved":false,"is_disabled":false,"rental_uris":{"android":"levelo://app?vid=84c39752-f48f-4f4d-ac4b-a1b4c5ddefdf","ios":"levelo://app?vid=84c39752-f48f-4f4d-ac4b-a1b4c5ddefdf"},"vehicle_type_id":"4","last_reported":1701785224,"current_range_meters":12400,"station_id":"ce4bgs92rcd13ifvqcc0","pricing_plan_id":"free"},{"bike_id":"7133deb6-71bc-404b-b226-c43de1c0902d","system_id":"levelo_inurba_marseille","lat":43.302784,"lon":5.377158,"is_reserved":false,"is_disabled":false,"rental_uris":{"android":"levelo://app?vid=7133deb6-71bc-404b-b226-c43de1c0902d","ios":"levelo://app?vid=7133deb6-71bc-404b-b226-c43de1c0902d"},"vehicle_type_id":"4","last_reported":1701785224,"current_range_meters":22400,"station_id":"ce4bguh2rcd13ifvqcj0","pricing_plan_id":"free"},{"bike_id":"d975ff2c-c617-4791-b27e-6202a3401b2c","system_id":"levelo_inurba_marseille","lat":43.302784,"lon":5.377158,"is_reserved":false,"is_disabled":false,"rental_uris":{"android":"levelo://app?vid=d975ff2c-c617-4791-b27e-6202a3401b2c","ios":"levelo://app?vid=d975ff2c-c617-4791-b27e-6202a3401b2c"},"vehicle_type_id":"4","last_reported":1701785224,"current_range_meters":15600,"station_id":"ce4bguh2rcd13ifvqcj0","pricing_plan_id":"free"},{"bike_id":"9640e18c-b12f-48a8-962b-a410fea077aa","system_id":"levelo_inurba_marseille","lat":43.30143,"lon":5.37413,"is_reserved":false,"is_disabled":false,"rental_uris":{"android":"levelo://app?vid=9640e18c-b12f-48a8-962b-a410fea077aa","ios":"levelo://app?vid=9640e18c-b12f-48a8-962b-a410fea077aa"},"vehicle_type_id":"4","last_reported":1701785224,"current_range_meters":29600,"station_id":"ce4bgs92rcd13ifvqcc0","pricing_plan_id":"free"},{"bike_id":"379581e9-298e-4b85-9a5d-29f875de6f0d","system_id":"levelo_inurba_marseille","lat":43.30143,"lon":5.37413,"is_reserved":false,"is_disabled":false,"rental_uris":{"android":"levelo://app?vid=379581e9-298e-4b85-9a5d-29f875de6f0d","ios":"levelo://app?vid=379581e9-298e-4b85-9a5d-29f875de6f0d"},"vehicle_type_id":"4","last_reported":1701785224,"current_range_meters":28400,"station_id":"ce4bgs92rcd13ifvqcc0","pricing_plan_id":"free"},{"bike_id":"fe94824b-69b7-4850-9ed1-b032288157dc","system_id":"levelo_inurba_marseille","lat":43.313571,"lon":5.384829,"is_reserved":false,"is_disabled":false,"rental_uris":{"android":"levelo://app?vid=fe94824b-69b7-4850-9ed1-b032288157dc","ios":"levelo://app?vid=fe94824b-69b7-4850-9ed1-b032288157dc"},"vehicle_type_id":"4","last_reported":1701785224,"current_range_meters":26800,"station_id":"ce4bgt92rcd13ifvqcf0","pricing_plan_id":"free"},{"bike_id":"e1e7f669-4983-44ce-85f1-65a269f1e61a","system_id":"levelo_inurba_marseille","lat":43.313265,"lon":5.385995,"is_reserved":false,"is_disabled":false,"rental_uris":{"android":"levelo://app?vid=e1e7f669-4983-44ce-85f1-65a269f1e61a","ios":"levelo://app?vid=e1e7f669-4983-44ce-85f1-65a269f1e61a"},"vehicle_type_id":"4","last_reported":1701785224,"current_range_meters":11200,"station_id":"","pricing_plan_id":"free"},{"bike_id":"a567495e-5fee-484c-b671-36927e375c53","system_id":"levelo_inurba_marseille","lat":43.298433,"lon":5.362774,"is_reserved":false,"is_disabled":false,"rental_uris":{"android":"levelo://app?vid=a567495e-5fee-484c-b671-36927e375c53","ios":"levelo://app?vid=a567495e-5fee-484c-b671-36927e375c53"},"vehicle_type_id":"4","last_reported":1701785224,"current_range_meters":14800,"station_id":"ce4bgpp2rcd13ifvqc3g","pricing_plan_id":"free"},{"bike_id":"46f7bb4e-75b2-4744-bd96-13af02d19940","system_id":"levelo_inurba_marseille","lat":43.299243,"lon":5.374807,"is_reserved":false,"is_disabled":false,"rental_uris":{"android":"levelo://app?vid=46f7bb4e-75b2-4744-bd96-13af02d19940","ios":"levelo://app?vid=46f7bb4e-75b2-4744-bd96-13af02d19940"},"vehicle_type_id":"4","last_reported":1701785224,"current_range_meters":18000,"station_id":"ce4bgjh2rcd13ifvqbg0","pricing_plan_id":"free"},{"bike_id":"f22845ae-bfed-4992-943f-24d8d6c03f25","system_id":"levelo_inurba_marseille","lat":43.311722,"lon":5.387247,"is_reserved":false,"is_disabled":false,"rental_uris":{"android":"levelo://app?vid=f22845ae-bfed-4992-943f-24d8d6c03f25","ios":"levelo://app?vid=f22845ae-bfed-4992-943f-24d8d6c03f25"},"vehicle_type_id":"4","last_reported":1701785224,"current_range_meters":16400,"station_id":"ce4bgv12rcd13ifvqcp0","pricing_plan_id":"free"},{"bike_id":"22246d08-5510-4ef9-88e2-78fe34345ac7","system_id":"levelo_inurba_marseille","lat":43.297794,"lon":5.370888,"is_reserved":false,"is_disabled":false,"rental_uris":{"android":"levelo://app?vid=22246d08-5510-4ef9-88e2-78fe34345ac7","ios":"levelo://app?vid=22246d08-5510-4ef9-88e2-78fe34345ac7"},"vehicle_type_id":"4","last_reported":1701785224,"current_range_meters":29600,"station_id":"ce4bgop2rcd13ifvqc1g","pricing_plan_id":"free"},{"bike_id":"de4a265a-84fa-45fa-b152-f885cbef2eea","system_id":"levelo_inurba_marseille","lat":43.297794,"lon":5.370888,"is_reserved":false,"is_disabled":false,"rental_uris":{"android":"levelo://app?vid=de4a265a-84fa-45fa-b152-f885cbef2eea","ios":"levelo://app?vid=de4a265a-84fa-45fa-b152-f885cbef2eea"},"vehicle_type_id":"4","last_reported":1701785224,"current_range_meters":12000,"station_id":"ce4bgop2rcd13ifvqc1g","pricing_plan_id":"free"},{"bike_id":"b4879a0b-f87c-476b-ba9f-57011b8686d8","system_id":"levelo_inurba_marseille","lat":43.298218,"lon":5.374416,"is_reserved":false,"is_disabled":false,"rental_uris":{"android":"levelo://app?vid=b4879a0b-f87c-476b-ba9f-57011b8686d8","ios":"levelo://app?vid=b4879a0b-f87c-476b-ba9f-57011b8686d8"},"vehicle_type_id":"4","last_reported":1701785224,"current_range_meters":17200,"station_id":"","pricing_plan_id":"free"},{"bike_id":"decb4574-6d6b-402e-89b6-fd19a98c1a00","system_id":"levelo_inurba_marseille","lat":43.32831,"lon":5.36682,"is_reserved":false,"is_disabled":false,"rental_uris":{"android":"levelo://app?vid=decb4574-6d6b-402e-89b6-fd19a98c1a00","ios":"levelo://app?vid=decb4574-6d6b-402e-89b6-fd19a98c1a00"},"vehicle_type_id":"4","last_reported":1701785224,"current_range_meters":21200,"station_id":"ce4bhs92rcd13ifvqi0g","pricing_plan_id":"free"},{"bike_id":"7c9b34d1-3514-4392-a2ee-937250c3bc00","system_id":"levelo_inurba_marseille","lat":43.32835,"lon":5.36675,"is_reserved":false,"is_disabled":false,"rental_uris":{"android":"levelo://app?vid=7c9b34d1-3514-4392-a2ee-937250c3bc00","ios":"levelo://app?vid=7c9b34d1-3514-4392-a2ee-937250c3bc00"},"vehicle_type_id":"4","last_reported":1701785224,"current_range_meters":14800,"station_id":"ce4bhs92rcd13ifvqi0g","pricing_plan_id":"free"},{"bike_id":"c397aa65-a0f0-42cd-88dc-1815a06dc1b9","system_id":"levelo_inurba_marseille","lat":43.297163,"lon":5.365866,"is_reserved":false,"is_disabled":false,"rental_uris":{"android":"levelo://app?vid=c397aa65-a0f0-42cd-88dc-1815a06dc1b9","ios":"levelo://app?vid=c397aa65-a0f0-42cd-88dc-1815a06dc1b9"},"vehicle_type_id":"4","last_reported":1701785224,"current_range_meters":24000,"station_id":"ce4bgn12rcd13ifvqbt0","pricing_plan_id":"free"},{"bike_id":"e96dfd9a-2b85-48df-97f7-50cbcabb3b0a","system_id":"levelo_inurba_marseille","lat":43.297163,"lon":5.365866,"is_reserved":false,"is_disabled":false,"rental_uris":{"android":"levelo://app?vid=e96dfd9a-2b85-48df-97f7-50cbcabb3b0a","ios":"levelo://app?vid=e96dfd9a-2b85-48df-97f7-50cbcabb3b0a"},"vehicle_type_id":"4","last_reported":1701785224,"current_range_meters":12800,"station_id":"ce4bgn12rcd13ifvqbt0","pricing_plan_id":"free"},{"bike_id":"8ff87d53-919d-40b7-8c01-8e2a961e6412","system_id":"levelo_inurba_marseille","lat":43.297163,"lon":5.365866,"is_reserved":false,"is_disabled":false,"rental_uris":{"android":"levelo://app?vid=8ff87d53-919d-40b7-8c01-8e2a961e6412","ios":"levelo://app?vid=8ff87d53-919d-40b7-8c01-8e2a961e6412"},"vehicle_type_id":"4","last_reported":1701785224,"current_range_meters":18400,"station_id":"ce4bgn12rcd13ifvqbt0","pricing_plan_id":"free"},{"bike_id":"0702eb67-df82-49b8-889e-00a589d8c3fe","system_id":"levelo_inurba_marseille","lat":43.297163,"lon":5.365866,"is_reserved":false,"is_disabled":false,"rental_uris":{"android":"levelo://app?vid=0702eb67-df82-49b8-889e-00a589d8c3fe","ios":"levelo://app?vid=0702eb67-df82-49b8-889e-00a589d8c3fe"},"vehicle_type_id":"4","last_reported":1701785224,"current_range_meters":19200,"station_id":"ce4bgn12rcd13ifvqbt0","pricing_plan_id":"free"},{"bike_id":"f0d2029d-b9e7-4bf5-86ee-6791bb936232","system_id":"levelo_inurba_marseille","lat":43.2968,"lon":5.37291,"is_reserved":false,"is_disabled":false,"rental_uris":{"android":"levelo://app?vid=f0d2029d-b9e7-4bf5-86ee-6791bb936232","ios":"levelo://app?vid=f0d2029d-b9e7-4bf5-86ee-6791bb936232"},"vehicle_type_id":"4","last_reported":1701785224,"current_range_meters":20400,"station_id":"ce4bgk12rcd13ifvqbj0","pricing_plan_id":"free"},{"bike_id":"7d0c1ad9-58b8-41d2-9bf2-5f40cc8e7a13","system_id":"levelo_inurba_marseille","lat":43.2968,"lon":5.37291,"is_reserved":false,"is_disabled":false,"rental_uris":{"android":"levelo://app?vid=7d0c1ad9-58b8-41d2-9bf2-5f40cc8e7a13","ios":"levelo://app?vid=7d0c1ad9-58b8-41d2-9bf2-5f40cc8e7a13"},"vehicle_type_id":"4","last_reported":1701785224,"current_range_meters":28800,"station_id":"ce4bgk12rcd13ifvqbj0","pricing_plan_id":"free"},{"bike_id":"eb6e7f47-d703-40d3-b365-ef330215af35","system_id":"levelo_inurba_marseille","lat":43.295899,"lon":5.368028,"is_reserved":false,"is_disabled":false,"rental_uris":{"android":"levelo://app?vid=eb6e7f47-d703-40d3-b365-ef330215af35","ios":"levelo://app?vid=eb6e7f47-d703-40d3-b365-ef330215af35"},"vehicle_type_id":"4","last_reported":1701785224,"current_range_meters":24400,"station_id":"","pricing_plan_id":"free"},{"bike_id":"eaa0e7e7-2390-47fa-909b-7b240952cbef","system_id":"levelo_inurba_marseille","lat":43.316538,"lon":5.38954,"is_reserved":false,"is_disabled":false,"rental_uris":{"android":"levelo://app?vid=eaa0e7e7-2390-47fa-909b-7b240952cbef","ios":"levelo://app?vid=eaa0e7e7-2390-47fa-909b-7b240952cbef"},"vehicle_type_id":"4","last_reported":1701785224,"current_range_meters":13200,"station_id":"","pricing_plan_id":"free"},{"bike_id":"477ae435-0f3c-4245-8596-246a5d6e8464","system_id":"levelo_inurba_marseille","lat":43.29617,"lon":5.37154,"is_reserved":false,"is_disabled":false,"rental_uris":{"android":"levelo://app?vid=477ae435-0f3c-4245-8596-246a5d6e8464","ios":"levelo://app?vid=477ae435-0f3c-4245-8596-246a5d6e8464"},"vehicle_type_id":"4","last_reported":1701785224,"current_range_meters":22800,"station_id":"ce4bgnh2rcd13ifvqc0g","pricing_plan_id":"free"},{"bike_id":"2c45381c-926d-4a14-8b47-3718dba6ca82","system_id":"levelo_inurba_marseille","lat":43.296935,"lon":5.376544,"is_reserved":false,"is_disabled":false,"rental_uris":{"android":"levelo://app?vid=2c45381c-926d-4a14-8b47-3718dba6ca82","ios":"levelo://app?vid=2c45381c-926d-4a14-8b47-3718dba6ca82"},"vehicle_type_id":"4","last_reported":1701785224,"current_range_meters":20400,"station_id":"ce4bgkh2rcd13ifvqbl0","pricing_plan_id":"free"},{"bike_id":"390ce454-35de-4c2a-bf9c-0ba60f1ce790","system_id":"levelo_inurba_marseille","lat":43.317557,"lon":5.390173,"is_reserved":false,"is_disabled":false,"rental_uris":{"android":"levelo://app?vid=390ce454-35de-4c2a-bf9c-0ba60f1ce790","ios":"levelo://app?vid=390ce454-35de-4c2a-bf9c-0ba60f1ce790"},"vehicle_type_id":"4","last_reported":1701785224,"current_range_meters":24000,"station_id":"ce4bhqp2rcd13ifvqhng","pricing_plan_id":"free"},{"bike_id":"520c8717-569f-4e4a-9011-ac832b6d9613","system_id":"levelo_inurba_marseille","lat":43.317557,"lon":5.390173,"is_reserved":false,"is_disabled":false,"rental_uris":{"android":"levelo://app?vid=520c8717-569f-4e4a-9011-ac832b6d9613","ios":"levelo://app?vid=520c8717-569f-4e4a-9011-ac832b6d9613"},"vehicle_type_id":"4","last_reported":1701785224,"current_range_meters":20800,"station_id":"ce4bhqp2rcd13ifvqhng","pricing_plan_id":"free"},{"bike_id":"142e7d99-d905-4155-8ace-ef64c4694d2c","system_id":"levelo_inurba_marseille","lat":43.317557,"lon":5.390173,"is_reserved":false,"is_disabled":false,"rental_uris":{"android":"levelo://app?vid=142e7d99-d905-4155-8ace-ef64c4694d2c","ios":"levelo://app?vid=142e7d99-d905-4155-8ace-ef64c4694d2c"},"vehicle_type_id":"4","last_reported":1701785224,"current_range_meters":23600,"station_id":"ce4bhqp2rcd13ifvqhng","pricing_plan_id":"free"},{"bike_id":"45b6c729-7530-4ee9-9991-6a7c67f8b2b1","system_id":"levelo_inurba_marseille","lat":43.304278,"lon":5.388868,"is_reserved":false,"is_disabled":false,"rental_uris":{"android":"levelo://app?vid=45b6c729-7530-4ee9-9991-6a7c67f8b2b1","ios":"levelo://app?vid=45b6c729-7530-4ee9-9991-6a7c67f8b2b1"},"vehicle_type_id":"4","last_reported":1701785224,"current_range_meters":12000,"station_id":"ce4bgk12rcd13ifvqbi0","pricing_plan_id":"free"},{"bike_id":"e3e7c360-3e50-4b49-999f-826a63765ee7","system_id":"levelo_inurba_marseille","lat":43.304274,"lon":5.388873,"is_reserved":false,"is_disabled":false,"rental_uris":{"android":"levelo://app?vid=e3e7c360-3e50-4b49-999f-826a63765ee7","ios":"levelo://app?vid=e3e7c360-3e50-4b49-999f-826a63765ee7"},"vehicle_type_id":"4","last_reported":1701785224,"current_range_meters":17600,"station_id":"ce4bgk12rcd13ifvqbi0","pricing_plan_id":"free"},{"bike_id":"02fb339d-935a-4d5f-aed5-83be63f01be6","system_id":"levelo_inurba_marseille","lat":43.296263,"lon":5.377094,"is_reserved":false,"is_disabled":false,"rental_uris":{"android":"levelo://app?vid=02fb339d-935a-4d5f-aed5-83be63f01be6","ios":"levelo://app?vid=02fb339d-935a-4d5f-aed5-83be63f01be6"},"vehicle_type_id":"4","last_reported":1701785224,"current_range_meters":18400,"station_id":"ce4bgi92rcd13ifvqb90","pricing_plan_id":"free"},{"bike_id":"423ce3da-3412-4022-b5b9-f1d48fa322c5","system_id":"levelo_inurba_marseille","lat":43.29797,"lon":5.38125,"is_reserved":false,"is_disabled":false,"rental_uris":{"android":"levelo://app?vid=423ce3da-3412-4022-b5b9-f1d48fa322c5","ios":"levelo://app?vid=423ce3da-3412-4022-b5b9-f1d48fa322c5"},"vehicle_type_id":"4","last_reported":1701785224,"current_range_meters":16000,"station_id":"ce4bgip2rcd13ifvqbb0","pricing_plan_id":"free"},{"bike_id":"00d463ac-07c7-428a-bd86-0eac5ffd165a","system_id":"levelo_inurba_marseille","lat":43.296263,"lon":5.377094,"is_reserved":false,"is_disabled":false,"rental_uris":{"android":"levelo://app?vid=00d463ac-07c7-428a-bd86-0eac5ffd165a","ios":"levelo://app?vid=00d463ac-07c7-428a-bd86-0eac5ffd165a"},"vehicle_type_id":"4","last_reported":1701785224,"current_range_meters":15600,"station_id":"ce4bgi92rcd13ifvqb90","pricing_plan_id":"free"},{"bike_id":"d8b9563a-ca29-4ce2-ab67-ff581250375c","system_id":"levelo_inurba_marseille","lat":43.304278,"lon":5.388868,"is_reserved":false,"is_disabled":false,"rental_uris":{"android":"levelo://app?vid=d8b9563a-ca29-4ce2-ab67-ff581250375c","ios":"levelo://app?vid=d8b9563a-ca29-4ce2-ab67-ff581250375c"},"vehicle_type_id":"4","last_reported":1701785224,"current_range_meters":16800,"station_id":"ce4bgk12rcd13ifvqbi0","pricing_plan_id":"free"},{"bike_id":"dc4202ce-42f5-4497-9916-17b3510b0c86","system_id":"levelo_inurba_marseille","lat":43.299707,"lon":5.384859,"is_reserved":false,"is_disabled":false,"rental_uris":{"android":"levelo://app?vid=dc4202ce-42f5-4497-9916-17b3510b0c86","ios":"levelo://app?vid=dc4202ce-42f5-4497-9916-17b3510b0c86"},"vehicle_type_id":"4","last_reported":1701785224,"current_range_meters":18400,"station_id":"ce4bgj92rcd13ifvqbd0","pricing_plan_id":"free"},{"bike_id":"3279ab10-c559-4255-80ce-132e262777da","system_id":"levelo_inurba_marseille","lat":43.29655,"lon":5.37941,"is_reserved":false,"is_disabled":false,"rental_uris":{"android":"levelo://app?vid=3279ab10-c559-4255-80ce-132e262777da","ios":"levelo://app?vid=3279ab10-c559-4255-80ce-132e262777da"},"vehicle_type_id":"4","last_reported":1701785224,"current_range_meters":24400,"station_id":"","pricing_plan_id":"free"},{"bike_id":"c3643ac2-cdd1-4bd1-99e6-62e33012d634","system_id":"levelo_inurba_marseille","lat":43.32365,"lon":5.38888,"is_reserved":false,"is_disabled":false,"rental_uris":{"android":"levelo://app?vid=c3643ac2-cdd1-4bd1-99e6-62e33012d634","ios":"levelo://app?vid=c3643ac2-cdd1-4bd1-99e6-62e33012d634"},"vehicle_type_id":"4","last_reported":1701785224,"current_range_meters":12400,"station_id":"ce4bhqp2rcd13ifvqhog","pricing_plan_id":"free"},{"bike_id":"531b6109-84df-4861-a042-620b9b32c732","system_id":"levelo_inurba_marseille","lat":43.29601,"lon":5.381084,"is_reserved":false,"is_disabled":false,"rental_uris":{"android":"levelo://app?vid=531b6109-84df-4861-a042-620b9b32c732","ios":"levelo://app?vid=531b6109-84df-4861-a042-620b9b32c732"},"vehicle_type_id":"4","last_reported":1701785224,"current_range_meters":5600,"station_id":"ce4bgl12rcd13ifvqbo0","pricing_plan_id":"free"},{"bike_id":"5009d47c-dc36-4ce2-9ae3-20f8d03c5f1e","system_id":"levelo_inurba_marseille","lat":43.293009,"lon":5.374584,"is_reserved":false,"is_disabled":false,"rental_uris":{"android":"levelo://app?vid=5009d47c-dc36-4ce2-9ae3-20f8d03c5f1e","ios":"levelo://app?vid=5009d47c-dc36-4ce2-9ae3-20f8d03c5f1e"},"vehicle_type_id":"4","last_reported":1701785224,"current_range_meters":10400,"station_id":"ce4bgi12rcd13ifvqb70","pricing_plan_id":"free"},{"bike_id":"cdc74f22-8d5e-469d-91a9-f888600acf47","system_id":"levelo_inurba_marseille","lat":43.303002,"lon":5.392142,"is_reserved":false,"is_disabled":false,"rental_uris":{"android":"levelo://app?vid=cdc74f22-8d5e-469d-91a9-f888600acf47","ios":"levelo://app?vid=cdc74f22-8d5e-469d-91a9-f888600acf47"},"vehicle_type_id":"4","last_reported":1701785224,"current_range_meters":5200,"station_id":"ce4bgkh2rcd13ifvqbk0","pricing_plan_id":"free"},{"bike_id":"a7038b85-7232-4855-badd-53fdd9a3d119","system_id":"levelo_inurba_marseille","lat":43.292663,"lon":5.376394,"is_reserved":false,"is_disabled":false,"rental_uris":{"android":"levelo://app?vid=a7038b85-7232-4855-badd-53fdd9a3d119","ios":"levelo://app?vid=a7038b85-7232-4855-badd-53fdd9a3d119"},"vehicle_type_id":"4","last_reported":1701785224,"current_range_meters":17600,"station_id":"ce4bgi12rcd13ifvqb80","pricing_plan_id":"free"},{"bike_id":"f253ff3b-b695-478a-8de9-13f895fbddbd","system_id":"levelo_inurba_marseille","lat":43.292663,"lon":5.376389,"is_reserved":false,"is_disabled":false,"rental_uris":{"android":"levelo://app?vid=f253ff3b-b695-478a-8de9-13f895fbddbd","ios":"levelo://app?vid=f253ff3b-b695-478a-8de9-13f895fbddbd"},"vehicle_type_id":"4","last_reported":1701785224,"current_range_meters":18800,"station_id":"ce4bgi12rcd13ifvqb80","pricing_plan_id":"free"},{"bike_id":"681dbb1d-fd33-4b20-8e45-94a8e33b9700","system_id":"levelo_inurba_marseille","lat":43.291994,"lon":5.357886,"is_reserved":false,"is_disabled":false,"rental_uris":{"android":"levelo://app?vid=681dbb1d-fd33-4b20-8e45-94a8e33b9700","ios":"levelo://app?vid=681dbb1d-fd33-4b20-8e45-94a8e33b9700"},"vehicle_type_id":"4","last_reported":1701785224,"current_range_meters":22400,"station_id":"ce4bhb12rcd13ifvqel0","pricing_plan_id":"free"},{"bike_id":"c3e06c12-7642-46ca-8eb9-0919a2734dbc","system_id":"levelo_inurba_marseille","lat":43.289184,"lon":5.366408,"is_reserved":false,"is_disabled":false,"rental_uris":{"android":"levelo://app?vid=c3e06c12-7642-46ca-8eb9-0919a2734dbc","ios":"levelo://app?vid=c3e06c12-7642-46ca-8eb9-0919a2734dbc"},"vehicle_type_id":"4","last_reported":1701785224,"current_range_meters":21600,"station_id":"ce4bhap2rcd13ifvqek0","pricing_plan_id":"free"},{"bike_id":"c5d33b92-e48c-4683-a9fb-c2d00c6626c5","system_id":"levelo_inurba_marseille","lat":43.290327,"lon":5.375711,"is_reserved":false,"is_disabled":false,"rental_uris":{"android":"levelo://app?vid=c5d33b92-e48c-4683-a9fb-c2d00c6626c5","ios":"levelo://app?vid=c5d33b92-e48c-4683-a9fb-c2d00c6626c5"},"vehicle_type_id":"4","last_reported":1701785224,"current_range_meters":18000,"station_id":"ce4bh692rcd13ifvqe90","pricing_plan_id":"free"},{"bike_id":"babe9859-0762-4197-9f31-fa40d9177655","system_id":"levelo_inurba_marseille","lat":43.28941,"lon":5.36642,"is_reserved":false,"is_disabled":false,"rental_uris":{"android":"levelo://app?vid=babe9859-0762-4197-9f31-fa40d9177655","ios":"levelo://app?vid=babe9859-0762-4197-9f31-fa40d9177655"},"vehicle_type_id":"4","last_reported":1701785224,"current_range_meters":10800,"station_id":"ce4bhap2rcd13ifvqek0","pricing_plan_id":"free"},{"bike_id":"a07cffef-2350-4aaf-8c50-0f14bc74749b","system_id":"levelo_inurba_marseille","lat":43.289184,"lon":5.366408,"is_reserved":false,"is_disabled":false,"rental_uris":{"android":"levelo://app?vid=a07cffef-2350-4aaf-8c50-0f14bc74749b","ios":"levelo://app?vid=a07cffef-2350-4aaf-8c50-0f14bc74749b"},"vehicle_type_id":"4","last_reported":1701785224,"current_range_meters":4000,"station_id":"ce4bhap2rcd13ifvqek0","pricing_plan_id":"free"},{"bike_id":"d138f2e6-f8ee-40f5-ac62-6e5992b4e6e4","system_id":"levelo_inurba_marseille","lat":43.28943,"lon":5.36388,"is_reserved":false,"is_disabled":false,"rental_uris":{"android":"levelo://app?vid=d138f2e6-f8ee-40f5-ac62-6e5992b4e6e4","ios":"levelo://app?vid=d138f2e6-f8ee-40f5-ac62-6e5992b4e6e4"},"vehicle_type_id":"4","last_reported":1701785224,"current_range_meters":25200,"station_id":"ce4bhc92rcd13ifvqetg","pricing_plan_id":"free"},{"bike_id":"97f4b0da-b59f-4ace-8ab5-587182c14653","system_id":"levelo_inurba_marseille","lat":43.28941,"lon":5.3641,"is_reserved":false,"is_disabled":false,"rental_uris":{"android":"levelo://app?vid=97f4b0da-b59f-4ace-8ab5-587182c14653","ios":"levelo://app?vid=97f4b0da-b59f-4ace-8ab5-587182c14653"},"vehicle_type_id":"4","last_reported":1701785224,"current_range_meters":24800,"station_id":"ce4bhc92rcd13ifvqetg","pricing_plan_id":"free"},{"bike_id":"2becf173-e0df-4769-92c6-041d86f283fc","system_id":"levelo_inurba_marseille","lat":43.330442,"lon":5.389148,"is_reserved":false,"is_disabled":false,"rental_uris":{"android":"levelo://app?vid=2becf173-e0df-4769-92c6-041d86f283fc","ios":"levelo://app?vid=2becf173-e0df-4769-92c6-041d86f283fc"},"vehicle_type_id":"4","last_reported":1701785224,"current_range_meters":22000,"station_id":"ce4bhr92rcd13ifvqhrg","pricing_plan_id":"free"},{"bike_id":"f68e2c8b-de08-4ad7-b342-74483183b5be","system_id":"levelo_inurba_marseille","lat":43.33049,"lon":5.38909,"is_reserved":false,"is_disabled":false,"rental_uris":{"android":"levelo://app?vid=f68e2c8b-de08-4ad7-b342-74483183b5be","ios":"levelo://app?vid=f68e2c8b-de08-4ad7-b342-74483183b5be"},"vehicle_type_id":"4","last_reported":1701785224,"current_range_meters":30400,"station_id":"ce4bhr92rcd13ifvqhrg","pricing_plan_id":"free"},{"bike_id":"858de6b4-64d4-4a33-9f45-498fd3422794","system_id":"levelo_inurba_marseille","lat":43.290104,"lon":5.356111,"is_reserved":false,"is_disabled":false,"rental_uris":{"android":"levelo://app?vid=858de6b4-64d4-4a33-9f45-498fd3422794","ios":"levelo://app?vid=858de6b4-64d4-4a33-9f45-498fd3422794"},"vehicle_type_id":"4","last_reported":1701785224,"current_range_meters":4400,"station_id":"ce4bhb92rcd13ifvqen0","pricing_plan_id":"free"},{"bike_id":"1af075da-15da-4307-b96b-36fee5e497e1","system_id":"levelo_inurba_marseille","lat":43.290995,"lon":5.381361,"is_reserved":false,"is_disabled":false,"rental_uris":{"android":"levelo://app?vid=1af075da-15da-4307-b96b-36fee5e497e1","ios":"levelo://app?vid=1af075da-15da-4307-b96b-36fee5e497e1"},"vehicle_type_id":"4","last_reported":1701785224,"current_range_meters":10800,"station_id":"ce4bh512rcd13ifvqe2g","pricing_plan_id":"free"},{"bike_id":"3473cc9a-8eec-4334-89a1-2cf772f6f820","system_id":"levelo_inurba_marseille","lat":43.290995,"lon":5.381361,"is_reserved":false,"is_disabled":false,"rental_uris":{"android":"levelo://app?vid=3473cc9a-8eec-4334-89a1-2cf772f6f820","ios":"levelo://app?vid=3473cc9a-8eec-4334-89a1-2cf772f6f820"},"vehicle_type_id":"4","last_reported":1701785224,"current_range_meters":2000,"station_id":"ce4bh512rcd13ifvqe2g","pricing_plan_id":"free"},{"bike_id":"d4c94667-cb6d-44bc-a766-a71477ceb208","system_id":"levelo_inurba_marseille","lat":43.29791,"lon":5.393484,"is_reserved":false,"is_disabled":false,"rental_uris":{"android":"levelo://app?vid=d4c94667-cb6d-44bc-a766-a71477ceb208","ios":"levelo://app?vid=d4c94667-cb6d-44bc-a766-a71477ceb208"},"vehicle_type_id":"4","last_reported":1701785224,"current_range_meters":0,"station_id":"chh1huq6cuj3fo74tm60","pricing_plan_id":"free"},{"bike_id":"9a89a12a-b069-4f0f-85c4-eba995e014e8","system_id":"levelo_inurba_marseille","lat":43.290094,"lon":5.381264,"is_reserved":false,"is_disabled":false,"rental_uris":{"android":"levelo://app?vid=9a89a12a-b069-4f0f-85c4-eba995e014e8","ios":"levelo://app?vid=9a89a12a-b069-4f0f-85c4-eba995e014e8"},"vehicle_type_id":"4","last_reported":1701785224,"current_range_meters":6400,"station_id":"ce4bh4p2rcd13ifvqe1g","pricing_plan_id":"free"},{"bike_id":"b1da507f-59bc-4bfa-9de7-dd18b0d37739","system_id":"levelo_inurba_marseille","lat":43.337494,"lon":5.374486,"is_reserved":false,"is_disabled":false,"rental_uris":{"android":"levelo://app?vid=b1da507f-59bc-4bfa-9de7-dd18b0d37739","ios":"levelo://app?vid=b1da507f-59bc-4bfa-9de7-dd18b0d37739"},"vehicle_type_id":"4","last_reported":1701785224,"current_range_meters":31200,"station_id":"","pricing_plan_id":"free"},{"bike_id":"2fbea006-0d22-445c-bfc1-d379dcddc1c1","system_id":"levelo_inurba_marseille","lat":43.33748,"lon":5.37465,"is_reserved":false,"is_disabled":false,"rental_uris":{"android":"levelo://app?vid=2fbea006-0d22-445c-bfc1-d379dcddc1c1","ios":"levelo://app?vid=2fbea006-0d22-445c-bfc1-d379dcddc1c1"},"vehicle_type_id":"4","last_reported":1701785224,"current_range_meters":28800,"station_id":"","pricing_plan_id":"free"},{"bike_id":"61e94894-252e-4e6e-9735-b09eceabfad5","system_id":"levelo_inurba_marseille","lat":43.337481,"lon":5.37474,"is_reserved":false,"is_disabled":false,"rental_uris":{"android":"levelo://app?vid=61e94894-252e-4e6e-9735-b09eceabfad5","ios":"levelo://app?vid=61e94894-252e-4e6e-9735-b09eceabfad5"},"vehicle_type_id":"4","last_reported":1701785224,"current_range_meters":29600,"station_id":"","pricing_plan_id":"free"},{"bike_id":"aecec5f1-f6c0-43a8-b8c2-75e67ea92633","system_id":"levelo_inurba_marseille","lat":43.33753,"lon":5.37473,"is_reserved":false,"is_disabled":false,"rental_uris":{"android":"levelo://app?vid=aecec5f1-f6c0-43a8-b8c2-75e67ea92633","ios":"levelo://app?vid=aecec5f1-f6c0-43a8-b8c2-75e67ea92633"},"vehicle_type_id":"4","last_reported":1701785224,"current_range_meters":30800,"station_id":"","pricing_plan_id":"free"},{"bike_id":"2c0bfd2f-173a-4baf-b2df-0133adbb7ed0","system_id":"levelo_inurba_marseille","lat":43.337577,"lon":5.374555,"is_reserved":false,"is_disabled":false,"rental_uris":{"android":"levelo://app?vid=2c0bfd2f-173a-4baf-b2df-0133adbb7ed0","ios":"levelo://app?vid=2c0bfd2f-173a-4baf-b2df-0133adbb7ed0"},"vehicle_type_id":"4","last_reported":1701785224,"current_range_meters":28800,"station_id":"","pricing_plan_id":"free"},{"bike_id":"86dab0c7-22ef-4e76-b958-62b5c35d508c","system_id":"levelo_inurba_marseille","lat":43.30642,"lon":5.401031,"is_reserved":false,"is_disabled":false,"rental_uris":{"android":"levelo://app?vid=86dab0c7-22ef-4e76-b958-62b5c35d508c","ios":"levelo://app?vid=86dab0c7-22ef-4e76-b958-62b5c35d508c"},"vehicle_type_id":"4","last_reported":1701785224,"current_range_meters":16400,"station_id":"ce4bh112rcd13ifvqda0","pricing_plan_id":"free"},{"bike_id":"aef7bcce-c87d-4ed4-b029-47a423b7c3f1","system_id":"levelo_inurba_marseille","lat":43.30642,"lon":5.401031,"is_reserved":false,"is_disabled":false,"rental_uris":{"android":"levelo://app?vid=aef7bcce-c87d-4ed4-b029-47a423b7c3f1","ios":"levelo://app?vid=aef7bcce-c87d-4ed4-b029-47a423b7c3f1"},"vehicle_type_id":"4","last_reported":1701785224,"current_range_meters":16800,"station_id":"ce4bh112rcd13ifvqda0","pricing_plan_id":"free"},{"bike_id":"7c64c6ac-1f74-493a-a7ee-6f979e3fd1e0","system_id":"levelo_inurba_marseille","lat":43.297815,"lon":5.393548,"is_reserved":false,"is_disabled":false,"rental_uris":{"android":"levelo://app?vid=7c64c6ac-1f74-493a-a7ee-6f979e3fd1e0","ios":"levelo://app?vid=7c64c6ac-1f74-493a-a7ee-6f979e3fd1e0"},"vehicle_type_id":"4","last_reported":1701785224,"current_range_meters":30800,"station_id":"chh1huq6cuj3fo74tm60","pricing_plan_id":"free"},{"bike_id":"ed3a3ec4-7be2-4376-a412-516b213c0f94","system_id":"levelo_inurba_marseille","lat":43.302759,"lon":5.400793,"is_reserved":false,"is_disabled":false,"rental_uris":{"android":"levelo://app?vid=ed3a3ec4-7be2-4376-a412-516b213c0f94","ios":"levelo://app?vid=ed3a3ec4-7be2-4376-a412-516b213c0f94"},"vehicle_type_id":"4","last_reported":1701785224,"current_range_meters":30800,"station_id":"ce4bgvh2rcd13ifvqcs0","pricing_plan_id":"free"},{"bike_id":"225d093d-3e76-4826-a384-c4eca1f4102b","system_id":"levelo_inurba_marseille","lat":43.29026,"lon":5.38655,"is_reserved":false,"is_disabled":false,"rental_uris":{"android":"levelo://app?vid=225d093d-3e76-4826-a384-c4eca1f4102b","ios":"levelo://app?vid=225d093d-3e76-4826-a384-c4eca1f4102b"},"vehicle_type_id":"4","last_reported":1701785224,"current_range_meters":26400,"station_id":"ce4bh4p2rcd13ifvqe0g","pricing_plan_id":"free"},{"bike_id":"a9806f5d-8874-414e-a5ba-6d21b3108d2c","system_id":"levelo_inurba_marseille","lat":43.286039,"lon":5.370679,"is_reserved":false,"is_disabled":false,"rental_uris":{"android":"levelo://app?vid=a9806f5d-8874-414e-a5ba-6d21b3108d2c","ios":"levelo://app?vid=a9806f5d-8874-414e-a5ba-6d21b3108d2c"},"vehicle_type_id":"4","last_reported":1701785224,"current_range_meters":27600,"station_id":"ce4bht12rcd13ifvqi60","pricing_plan_id":"free"},{"bike_id":"64c5447d-6cf0-472b-b1b7-1b0e72a80562","system_id":"levelo_inurba_marseille","lat":43.291994,"lon":5.392907,"is_reserved":false,"is_disabled":false,"rental_uris":{"android":"levelo://app?vid=64c5447d-6cf0-472b-b1b7-1b0e72a80562","ios":"levelo://app?vid=64c5447d-6cf0-472b-b1b7-1b0e72a80562"},"vehicle_type_id":"4","last_reported":1701785224,"current_range_meters":29200,"station_id":"ce4bh192rcd13ifvqdd0","pricing_plan_id":"free"},{"bike_id":"a7b716bd-6f6f-4d7c-94ed-74e91bfcfea3","system_id":"levelo_inurba_marseille","lat":43.284534,"lon":5.358662,"is_reserved":false,"is_disabled":false,"rental_uris":{"android":"levelo://app?vid=a7b716bd-6f6f-4d7c-94ed-74e91bfcfea3","ios":"levelo://app?vid=a7b716bd-6f6f-4d7c-94ed-74e91bfcfea3"},"vehicle_type_id":"4","last_reported":1701785224,"current_range_meters":28800,"station_id":"ce4bhah2rcd13ifvqei0","pricing_plan_id":"free"},{"bike_id":"f5d0542d-977e-4a45-bcd0-907f1aa31aa7","system_id":"levelo_inurba_marseille","lat":43.294314,"lon":5.397498,"is_reserved":false,"is_disabled":false,"rental_uris":{"android":"levelo://app?vid=f5d0542d-977e-4a45-bcd0-907f1aa31aa7","ios":"levelo://app?vid=f5d0542d-977e-4a45-bcd0-907f1aa31aa7"},"vehicle_type_id":"4","last_reported":1701785224,"current_range_meters":2800,"station_id":"ce4bh3h2rcd13ifvqdo0","pricing_plan_id":"free"},{"bike_id":"6f069aab-0dfd-4bb1-a7c7-dafdd20df186","system_id":"levelo_inurba_marseille","lat":43.279952,"lon":5.400085,"is_reserved":false,"is_disabled":false,"rental_uris":{"android":"levelo://app?vid=6f069aab-0dfd-4bb1-a7c7-dafdd20df186","ios":"levelo://app?vid=6f069aab-0dfd-4bb1-a7c7-dafdd20df186"},"vehicle_type_id":"4","last_reported":1701785224,"current_range_meters":30000,"station_id":"ce4bho92rcd13ifvqh4g","pricing_plan_id":"free"},{"bike_id":"2d941b1a-e8fe-4ce8-825a-01c8d87e9690","system_id":"levelo_inurba_marseille","lat":43.318885,"lon":5.407446,"is_reserved":false,"is_disabled":false,"rental_uris":{"android":"levelo://app?vid=2d941b1a-e8fe-4ce8-825a-01c8d87e9690","ios":"levelo://app?vid=2d941b1a-e8fe-4ce8-825a-01c8d87e9690"},"vehicle_type_id":"4","last_reported":1701785224,"current_range_meters":9600,"station_id":"","pricing_plan_id":"free"},{"bike_id":"950a5dc8-4fb3-4735-baf6-df73ef0b98de","system_id":"levelo_inurba_marseille","lat":43.319179,"lon":5.407725,"is_reserved":false,"is_disabled":false,"rental_uris":{"android":"levelo://app?vid=950a5dc8-4fb3-4735-baf6-df73ef0b98de","ios":"levelo://app?vid=950a5dc8-4fb3-4735-baf6-df73ef0b98de"},"vehicle_type_id":"4","last_reported":1701785224,"current_range_meters":0,"station_id":"ce4bhq12rcd13ifvqhig","pricing_plan_id":"free"},{"bike_id":"26a1eaaa-c052-4229-965d-422f6e872f39","system_id":"levelo_inurba_marseille","lat":43.337168,"lon":5.391825,"is_reserved":false,"is_disabled":false,"rental_uris":{"android":"levelo://app?vid=26a1eaaa-c052-4229-965d-422f6e872f39","ios":"levelo://app?vid=26a1eaaa-c052-4229-965d-422f6e872f39"},"vehicle_type_id":"4","last_reported":1701785224,"current_range_meters":29600,"station_id":"ce4bhr92rcd13ifvqhsg","pricing_plan_id":"free"},{"bike_id":"8cd637a3-0018-45be-a2ca-56d8ec5b631b","system_id":"levelo_inurba_marseille","lat":43.284787,"lon":5.384116,"is_reserved":false,"is_disabled":false,"rental_uris":{"android":"levelo://app?vid=8cd637a3-0018-45be-a2ca-56d8ec5b631b","ios":"levelo://app?vid=8cd637a3-0018-45be-a2ca-56d8ec5b631b"},"vehicle_type_id":"4","last_reported":1701785224,"current_range_meters":25600,"station_id":"ce4bh512rcd13ifvqe3g","pricing_plan_id":"free"},{"bike_id":"e082808c-1f5b-421e-98cd-341e71b84e2d","system_id":"levelo_inurba_marseille","lat":43.284793,"lon":5.384113,"is_reserved":false,"is_disabled":false,"rental_uris":{"android":"levelo://app?vid=e082808c-1f5b-421e-98cd-341e71b84e2d","ios":"levelo://app?vid=e082808c-1f5b-421e-98cd-341e71b84e2d"},"vehicle_type_id":"4","last_reported":1701785224,"current_range_meters":26000,"station_id":"ce4bh512rcd13ifvqe3g","pricing_plan_id":"free"},{"bike_id":"290727f5-284f-4ff7-b773-aa40c37b3655","system_id":"levelo_inurba_marseille","lat":43.283494,"lon":5.380945,"is_reserved":false,"is_disabled":false,"rental_uris":{"android":"levelo://app?vid=290727f5-284f-4ff7-b773-aa40c37b3655","ios":"levelo://app?vid=290727f5-284f-4ff7-b773-aa40c37b3655"},"vehicle_type_id":"4","last_reported":1701785224,"current_range_meters":13600,"station_id":"ce4bh412rcd13ifvqdr0","pricing_plan_id":"free"},{"bike_id":"23288f52-5adc-40a9-ae01-b290463e7041","system_id":"levelo_inurba_marseille","lat":43.282744,"lon":5.350533,"is_reserved":false,"is_disabled":false,"rental_uris":{"android":"levelo://app?vid=23288f52-5adc-40a9-ae01-b290463e7041","ios":"levelo://app?vid=23288f52-5adc-40a9-ae01-b290463e7041"},"vehicle_type_id":"4","last_reported":1701785224,"current_range_meters":21200,"station_id":"ce4bhbp2rcd13ifvqerg","pricing_plan_id":"free"},{"bike_id":"cd477c2b-87e2-40f6-b370-4729fe01e4e7","system_id":"levelo_inurba_marseille","lat":43.282754,"lon":5.350519,"is_reserved":false,"is_disabled":false,"rental_uris":{"android":"levelo://app?vid=cd477c2b-87e2-40f6-b370-4729fe01e4e7","ios":"levelo://app?vid=cd477c2b-87e2-40f6-b370-4729fe01e4e7"},"vehicle_type_id":"4","last_reported":1701785224,"current_range_meters":25600,"station_id":"ce4bhbp2rcd13ifvqerg","pricing_plan_id":"free"},{"bike_id":"be66f8e0-43ba-4a40-a91c-7d300aed3e40","system_id":"levelo_inurba_marseille","lat":43.283502,"lon":5.386471,"is_reserved":false,"is_disabled":false,"rental_uris":{"android":"levelo://app?vid=be66f8e0-43ba-4a40-a91c-7d300aed3e40","ios":"levelo://app?vid=be66f8e0-43ba-4a40-a91c-7d300aed3e40"},"vehicle_type_id":"4","last_reported":1701785224,"current_range_meters":23600,"station_id":"ce4bh492rcd13ifvqdvg","pricing_plan_id":"free"},{"bike_id":"eb5415df-f26c-4723-aa07-3ae9c458a6eb","system_id":"levelo_inurba_marseille","lat":43.282744,"lon":5.350533,"is_reserved":false,"is_disabled":false,"rental_uris":{"android":"levelo://app?vid=eb5415df-f26c-4723-aa07-3ae9c458a6eb","ios":"levelo://app?vid=eb5415df-f26c-4723-aa07-3ae9c458a6eb"},"vehicle_type_id":"4","last_reported":1701785224,"current_range_meters":30800,"station_id":"ce4bhbp2rcd13ifvqerg","pricing_plan_id":"free"},{"bike_id":"e0fdf188-cdaf-4580-883d-cd4e2e24bfb6","system_id":"levelo_inurba_marseille","lat":43.282744,"lon":5.350533,"is_reserved":false,"is_disabled":false,"rental_uris":{"android":"levelo://app?vid=e0fdf188-cdaf-4580-883d-cd4e2e24bfb6","ios":"levelo://app?vid=e0fdf188-cdaf-4580-883d-cd4e2e24bfb6"},"vehicle_type_id":"4","last_reported":1701785224,"current_range_meters":24400,"station_id":"ce4bhbp2rcd13ifvqerg","pricing_plan_id":"free"},{"bike_id":"89375a13-6ca3-41d5-b4f8-cc09cd3cb936","system_id":"levelo_inurba_marseille","lat":43.282744,"lon":5.350533,"is_reserved":false,"is_disabled":false,"rental_uris":{"android":"levelo://app?vid=89375a13-6ca3-41d5-b4f8-cc09cd3cb936","ios":"levelo://app?vid=89375a13-6ca3-41d5-b4f8-cc09cd3cb936"},"vehicle_type_id":"4","last_reported":1701785224,"current_range_meters":31200,"station_id":"ce4bhbp2rcd13ifvqerg","pricing_plan_id":"free"},{"bike_id":"60877ddb-9389-4a3a-8429-6b687c59db3f","system_id":"levelo_inurba_marseille","lat":43.28039,"lon":5.369297,"is_reserved":false,"is_disabled":false,"rental_uris":{"android":"levelo://app?vid=60877ddb-9389-4a3a-8429-6b687c59db3f","ios":"levelo://app?vid=60877ddb-9389-4a3a-8429-6b687c59db3f"},"vehicle_type_id":"4","last_reported":1701785224,"current_range_meters":19200,"station_id":"ce4bha12rcd13ifvqef0","pricing_plan_id":"free"},{"bike_id":"cf3fd51f-cce2-44fd-969a-dd41fd7ffb03","system_id":"levelo_inurba_marseille","lat":43.280382,"lon":5.369291,"is_reserved":false,"is_disabled":false,"rental_uris":{"android":"levelo://app?vid=cf3fd51f-cce2-44fd-969a-dd41fd7ffb03","ios":"levelo://app?vid=cf3fd51f-cce2-44fd-969a-dd41fd7ffb03"},"vehicle_type_id":"4","last_reported":1701785224,"current_range_meters":14400,"station_id":"ce4bha12rcd13ifvqef0","pricing_plan_id":"free"},{"bike_id":"ae104aee-7bcc-444e-8c18-1e71e61589c0","system_id":"levelo_inurba_marseille","lat":43.29041,"lon":5.399634,"is_reserved":false,"is_disabled":false,"rental_uris":{"android":"levelo://app?vid=ae104aee-7bcc-444e-8c18-1e71e61589c0","ios":"levelo://app?vid=ae104aee-7bcc-444e-8c18-1e71e61589c0"},"vehicle_type_id":"4","last_reported":1701785224,"current_range_meters":25600,"station_id":"ce4bh392rcd13ifvqdm0","pricing_plan_id":"free"},{"bike_id":"7614acee-57e5-4a66-b93d-3591a15f2aa7","system_id":"levelo_inurba_marseille","lat":43.281044,"lon":5.378308,"is_reserved":false,"is_disabled":false,"rental_uris":{"android":"levelo://app?vid=7614acee-57e5-4a66-b93d-3591a15f2aa7","ios":"levelo://app?vid=7614acee-57e5-4a66-b93d-3591a15f2aa7"},"vehicle_type_id":"4","last_reported":1701785224,"current_range_meters":17200,"station_id":"ce4bha12rcd13ifvqee0","pricing_plan_id":"free"},{"bike_id":"544f8498-f457-4ff4-aa96-9a30e00957e5","system_id":"levelo_inurba_marseille","lat":43.281044,"lon":5.378308,"is_reserved":false,"is_disabled":false,"rental_uris":{"android":"levelo://app?vid=544f8498-f457-4ff4-aa96-9a30e00957e5","ios":"levelo://app?vid=544f8498-f457-4ff4-aa96-9a30e00957e5"},"vehicle_type_id":"4","last_reported":1701785224,"current_range_meters":19200,"station_id":"ce4bha12rcd13ifvqee0","pricing_plan_id":"free"},{"bike_id":"0505417b-f320-4149-9ba1-8bef61495364","system_id":"levelo_inurba_marseille","lat":43.285742,"lon":5.395004,"is_reserved":false,"is_disabled":false,"rental_uris":{"android":"levelo://app?vid=0505417b-f320-4149-9ba1-8bef61495364","ios":"levelo://app?vid=0505417b-f320-4149-9ba1-8bef61495364"},"vehicle_type_id":"4","last_reported":1701785224,"current_range_meters":28400,"station_id":"ce4bh292rcd13ifvqdg0","pricing_plan_id":"free"},{"bike_id":"efb5fe83-e3e3-4add-8540-6e61e1a847bb","system_id":"levelo_inurba_marseille","lat":43.3266,"lon":5.40981,"is_reserved":false,"is_disabled":false,"rental_uris":{"android":"levelo://app?vid=efb5fe83-e3e3-4add-8540-6e61e1a847bb","ios":"levelo://app?vid=efb5fe83-e3e3-4add-8540-6e61e1a847bb"},"vehicle_type_id":"4","last_reported":1701785224,"current_range_meters":24000,"station_id":"ce4bhpp2rcd13ifvqhgg","pricing_plan_id":"free"},{"bike_id":"be2777a6-ea6e-46dd-bb90-1098e5347070","system_id":"levelo_inurba_marseille","lat":43.326605,"lon":5.409903,"is_reserved":false,"is_disabled":false,"rental_uris":{"android":"levelo://app?vid=be2777a6-ea6e-46dd-bb90-1098e5347070","ios":"levelo://app?vid=be2777a6-ea6e-46dd-bb90-1098e5347070"},"vehicle_type_id":"4","last_reported":1701785224,"current_range_meters":27200,"station_id":"ce4bhpp2rcd13ifvqhgg","pricing_plan_id":"free"},{"bike_id":"876d825d-f1ec-4536-a5f9-fcc306417330","system_id":"levelo_inurba_marseille","lat":43.326605,"lon":5.409903,"is_reserved":false,"is_disabled":false,"rental_uris":{"android":"levelo://app?vid=876d825d-f1ec-4536-a5f9-fcc306417330","ios":"levelo://app?vid=876d825d-f1ec-4536-a5f9-fcc306417330"},"vehicle_type_id":"4","last_reported":1701785224,"current_range_meters":19600,"station_id":"ce4bhpp2rcd13ifvqhgg","pricing_plan_id":"free"},{"bike_id":"2039eed6-1d0c-44fe-9940-0fd558c850cb","system_id":"levelo_inurba_marseille","lat":43.326605,"lon":5.409903,"is_reserved":false,"is_disabled":false,"rental_uris":{"android":"levelo://app?vid=2039eed6-1d0c-44fe-9940-0fd558c850cb","ios":"levelo://app?vid=2039eed6-1d0c-44fe-9940-0fd558c850cb"},"vehicle_type_id":"4","last_reported":1701785224,"current_range_meters":22800,"station_id":"ce4bhpp2rcd13ifvqhgg","pricing_plan_id":"free"},{"bike_id":"fc0f01ba-69ed-479b-9e65-f39483a15901","system_id":"levelo_inurba_marseille","lat":43.326605,"lon":5.409903,"is_reserved":false,"is_disabled":false,"rental_uris":{"android":"levelo://app?vid=fc0f01ba-69ed-479b-9e65-f39483a15901","ios":"levelo://app?vid=fc0f01ba-69ed-479b-9e65-f39483a15901"},"vehicle_type_id":"4","last_reported":1701785224,"current_range_meters":25200,"station_id":"ce4bhpp2rcd13ifvqhgg","pricing_plan_id":"free"},{"bike_id":"59ce5852-0b1e-4043-bdb7-4fbadfbe8f06","system_id":"levelo_inurba_marseille","lat":43.320045,"lon":5.415046,"is_reserved":false,"is_disabled":false,"rental_uris":{"android":"levelo://app?vid=59ce5852-0b1e-4043-bdb7-4fbadfbe8f06","ios":"levelo://app?vid=59ce5852-0b1e-4043-bdb7-4fbadfbe8f06"},"vehicle_type_id":"4","last_reported":1701785224,"current_range_meters":18000,"station_id":"ce4bhq92rcd13ifvqhkg","pricing_plan_id":"free"},{"bike_id":"6b41935b-528a-435e-a27c-42408993ed5c","system_id":"levelo_inurba_marseille","lat":43.320045,"lon":5.415048,"is_reserved":false,"is_disabled":false,"rental_uris":{"android":"levelo://app?vid=6b41935b-528a-435e-a27c-42408993ed5c","ios":"levelo://app?vid=6b41935b-528a-435e-a27c-42408993ed5c"},"vehicle_type_id":"4","last_reported":1701785224,"current_range_meters":23200,"station_id":"ce4bhq92rcd13ifvqhkg","pricing_plan_id":"free"},{"bike_id":"8f8255d9-376d-4edd-b79e-8a9b43facf3d","system_id":"levelo_inurba_marseille","lat":43.303837,"lon":5.418724,"is_reserved":false,"is_disabled":false,"rental_uris":{"android":"levelo://app?vid=8f8255d9-376d-4edd-b79e-8a9b43facf3d","ios":"levelo://app?vid=8f8255d9-376d-4edd-b79e-8a9b43facf3d"},"vehicle_type_id":"4","last_reported":1701785224,"current_range_meters":21200,"station_id":"ce4bhop2rcd13ifvqh7g","pricing_plan_id":"free"},{"bike_id":"17db11e9-ff6b-4265-a772-9fca0f8a787a","system_id":"levelo_inurba_marseille","lat":43.2848,"lon":5.40423,"is_reserved":false,"is_disabled":false,"rental_uris":{"android":"levelo://app?vid=17db11e9-ff6b-4265-a772-9fca0f8a787a","ios":"levelo://app?vid=17db11e9-ff6b-4265-a772-9fca0f8a787a"},"vehicle_type_id":"4","last_reported":1701785224,"current_range_meters":4000,"station_id":"","pricing_plan_id":"free"},{"bike_id":"a7a045f6-df2c-47f8-af8d-508f711efb0e","system_id":"levelo_inurba_marseille","lat":43.273613,"lon":5.362705,"is_reserved":false,"is_disabled":false,"rental_uris":{"android":"levelo://app?vid=a7a045f6-df2c-47f8-af8d-508f711efb0e","ios":"levelo://app?vid=a7a045f6-df2c-47f8-af8d-508f711efb0e"},"vehicle_type_id":"4","last_reported":1701785224,"current_range_meters":0,"station_id":"ce4bhbh2rcd13ifvqeo0","pricing_plan_id":"free"},{"bike_id":"4c2cf679-f32a-4ef0-a36f-e80c26765b16","system_id":"levelo_inurba_marseille","lat":43.273609,"lon":5.362708,"is_reserved":false,"is_disabled":false,"rental_uris":{"android":"levelo://app?vid=4c2cf679-f32a-4ef0-a36f-e80c26765b16","ios":"levelo://app?vid=4c2cf679-f32a-4ef0-a36f-e80c26765b16"},"vehicle_type_id":"4","last_reported":1701785224,"current_range_meters":10000,"station_id":"ce4bhbh2rcd13ifvqeo0","pricing_plan_id":"free"},{"bike_id":"1258299f-d7e4-429c-a530-9c376d622f15","system_id":"levelo_inurba_marseille","lat":43.33612,"lon":5.410321,"is_reserved":false,"is_disabled":false,"rental_uris":{"android":"levelo://app?vid=1258299f-d7e4-429c-a530-9c376d622f15","ios":"levelo://app?vid=1258299f-d7e4-429c-a530-9c376d622f15"},"vehicle_type_id":"4","last_reported":1701785224,"current_range_meters":31200,"station_id":"ce4bhqh2rcd13ifvqhmg","pricing_plan_id":"free"},{"bike_id":"8a47b020-aa5b-4cc3-8211-b16e6ca47a88","system_id":"levelo_inurba_marseille","lat":43.33607,"lon":5.410307,"is_reserved":false,"is_disabled":false,"rental_uris":{"android":"levelo://app?vid=8a47b020-aa5b-4cc3-8211-b16e6ca47a88","ios":"levelo://app?vid=8a47b020-aa5b-4cc3-8211-b16e6ca47a88"},"vehicle_type_id":"4","last_reported":1701785224,"current_range_meters":14000,"station_id":"ce4bhqh2rcd13ifvqhmg","pricing_plan_id":"free"},{"bike_id":"6dee21f9-0077-4751-a68d-f121846d4b85","system_id":"levelo_inurba_marseille","lat":43.336134,"lon":5.410341,"is_reserved":false,"is_disabled":false,"rental_uris":{"android":"levelo://app?vid=6dee21f9-0077-4751-a68d-f121846d4b85","ios":"levelo://app?vid=6dee21f9-0077-4751-a68d-f121846d4b85"},"vehicle_type_id":"4","last_reported":1701785224,"current_range_meters":10400,"station_id":"ce4bhqh2rcd13ifvqhmg","pricing_plan_id":"free"},{"bike_id":"3b5c90d6-7f62-401f-a31f-ef6443b131bd","system_id":"levelo_inurba_marseille","lat":43.276769,"lon":5.388787,"is_reserved":false,"is_disabled":false,"rental_uris":{"android":"levelo://app?vid=3b5c90d6-7f62-401f-a31f-ef6443b131bd","ios":"levelo://app?vid=3b5c90d6-7f62-401f-a31f-ef6443b131bd"},"vehicle_type_id":"4","last_reported":1701785224,"current_range_meters":9200,"station_id":"ce4bhi12rcd13ifvqfo0","pricing_plan_id":"free"},{"bike_id":"a9e9906d-1d07-4052-b1db-a806b8e7c813","system_id":"levelo_inurba_marseille","lat":43.279975,"lon":5.40009,"is_reserved":false,"is_disabled":false,"rental_uris":{"android":"levelo://app?vid=a9e9906d-1d07-4052-b1db-a806b8e7c813","ios":"levelo://app?vid=a9e9906d-1d07-4052-b1db-a806b8e7c813"},"vehicle_type_id":"4","last_reported":1701785224,"current_range_meters":19600,"station_id":"ce4bho92rcd13ifvqh4g","pricing_plan_id":"free"},{"bike_id":"8834434a-9c82-4d22-8468-bc4bfcddaa52","system_id":"levelo_inurba_marseille","lat":43.310785,"lon":5.424305,"is_reserved":false,"is_disabled":false,"rental_uris":{"android":"levelo://app?vid=8834434a-9c82-4d22-8468-bc4bfcddaa52","ios":"levelo://app?vid=8834434a-9c82-4d22-8468-bc4bfcddaa52"},"vehicle_type_id":"4","last_reported":1701785224,"current_range_meters":27600,"station_id":"ce4bhp92rcd13ifvqhag","pricing_plan_id":"free"},{"bike_id":"dc017e15-f028-4e52-802e-a3b27de32ccc","system_id":"levelo_inurba_marseille","lat":43.310785,"lon":5.424305,"is_reserved":false,"is_disabled":false,"rental_uris":{"android":"levelo://app?vid=dc017e15-f028-4e52-802e-a3b27de32ccc","ios":"levelo://app?vid=dc017e15-f028-4e52-802e-a3b27de32ccc"},"vehicle_type_id":"4","last_reported":1701785224,"current_range_meters":26000,"station_id":"ce4bhp92rcd13ifvqhag","pricing_plan_id":"free"},{"bike_id":"2b4b5227-7f75-4606-8538-80a8d3038e52","system_id":"levelo_inurba_marseille","lat":43.34137,"lon":5.40899,"is_reserved":false,"is_disabled":false,"rental_uris":{"android":"levelo://app?vid=2b4b5227-7f75-4606-8538-80a8d3038e52","ios":"levelo://app?vid=2b4b5227-7f75-4606-8538-80a8d3038e52"},"vehicle_type_id":"4","last_reported":1701785224,"current_range_meters":22400,"station_id":"ce4bhqh2rcd13ifvqhlg","pricing_plan_id":"free"},{"bike_id":"c5e2d489-64a7-4b1d-90c3-714ee1643fb3","system_id":"levelo_inurba_marseille","lat":43.341393,"lon":5.409007,"is_reserved":false,"is_disabled":false,"rental_uris":{"android":"levelo://app?vid=c5e2d489-64a7-4b1d-90c3-714ee1643fb3","ios":"levelo://app?vid=c5e2d489-64a7-4b1d-90c3-714ee1643fb3"},"vehicle_type_id":"4","last_reported":1701785224,"current_range_meters":28800,"station_id":"ce4bhqh2rcd13ifvqhlg","pricing_plan_id":"free"},{"bike_id":"4f4e5d52-124e-4276-8af2-2d2503944d2e","system_id":"levelo_inurba_marseille","lat":43.341403,"lon":5.408996,"is_reserved":false,"is_disabled":false,"rental_uris":{"android":"levelo://app?vid=4f4e5d52-124e-4276-8af2-2d2503944d2e","ios":"levelo://app?vid=4f4e5d52-124e-4276-8af2-2d2503944d2e"},"vehicle_type_id":"4","last_reported":1701785224,"current_range_meters":31200,"station_id":"ce4bhqh2rcd13ifvqhlg","pricing_plan_id":"free"},{"bike_id":"16157153-85f0-4b89-ba4e-76c2768de1a5","system_id":"levelo_inurba_marseille","lat":43.34141,"lon":5.40918,"is_reserved":false,"is_disabled":false,"rental_uris":{"android":"levelo://app?vid=16157153-85f0-4b89-ba4e-76c2768de1a5","ios":"levelo://app?vid=16157153-85f0-4b89-ba4e-76c2768de1a5"},"vehicle_type_id":"4","last_reported":1701785224,"current_range_meters":30400,"station_id":"ce4bhqh2rcd13ifvqhlg","pricing_plan_id":"free"},{"bike_id":"910fd3aa-d2e0-4553-894a-6161d41c7fcd","system_id":"levelo_inurba_marseille","lat":43.275746,"lon":5.395375,"is_reserved":false,"is_disabled":false,"rental_uris":{"android":"levelo://app?vid=910fd3aa-d2e0-4553-894a-6161d41c7fcd","ios":"levelo://app?vid=910fd3aa-d2e0-4553-894a-6161d41c7fcd"},"vehicle_type_id":"4","last_reported":1701785224,"current_range_meters":6000,"station_id":"","pricing_plan_id":"free"},{"bike_id":"802c4869-0809-45b1-b528-0c43c62df851","system_id":"levelo_inurba_marseille","lat":43.273129,"lon":5.390725,"is_reserved":false,"is_disabled":false,"rental_uris":{"android":"levelo://app?vid=802c4869-0809-45b1-b528-0c43c62df851","ios":"levelo://app?vid=802c4869-0809-45b1-b528-0c43c62df851"},"vehicle_type_id":"4","last_reported":1701785224,"current_range_meters":22400,"station_id":"ce4bhgp2rcd13ifvqfe0","pricing_plan_id":"free"},{"bike_id":"e543d6ef-e4dc-4ad0-9c2e-6767cb7c3243","system_id":"levelo_inurba_marseille","lat":43.273125,"lon":5.390731,"is_reserved":false,"is_disabled":false,"rental_uris":{"android":"levelo://app?vid=e543d6ef-e4dc-4ad0-9c2e-6767cb7c3243","ios":"levelo://app?vid=e543d6ef-e4dc-4ad0-9c2e-6767cb7c3243"},"vehicle_type_id":"4","last_reported":1701785224,"current_range_meters":18000,"station_id":"ce4bhgp2rcd13ifvqfe0","pricing_plan_id":"free"},{"bike_id":"e8635d6b-c89d-4686-a546-6ae53756c9bc","system_id":"levelo_inurba_marseille","lat":43.30414,"lon":5.4254,"is_reserved":false,"is_disabled":false,"rental_uris":{"android":"levelo://app?vid=e8635d6b-c89d-4686-a546-6ae53756c9bc","ios":"levelo://app?vid=e8635d6b-c89d-4686-a546-6ae53756c9bc"},"vehicle_type_id":"4","last_reported":1701785224,"current_range_meters":21200,"station_id":"ce4bhoh2rcd13ifvqh6g","pricing_plan_id":"free"},{"bike_id":"859d7ec7-684f-4249-96cc-164a9ac7874a","system_id":"levelo_inurba_marseille","lat":43.304096,"lon":5.425385,"is_reserved":false,"is_disabled":false,"rental_uris":{"android":"levelo://app?vid=859d7ec7-684f-4249-96cc-164a9ac7874a","ios":"levelo://app?vid=859d7ec7-684f-4249-96cc-164a9ac7874a"},"vehicle_type_id":"4","last_reported":1701785224,"current_range_meters":21600,"station_id":"ce4bhoh2rcd13ifvqh6g","pricing_plan_id":"free"},{"bike_id":"44b7e749-26e2-4b57-bc9c-9a6ffa54d913","system_id":"levelo_inurba_marseille","lat":43.295511,"lon":5.422926,"is_reserved":false,"is_disabled":false,"rental_uris":{"android":"levelo://app?vid=44b7e749-26e2-4b57-bc9c-9a6ffa54d913","ios":"levelo://app?vid=44b7e749-26e2-4b57-bc9c-9a6ffa54d913"},"vehicle_type_id":"4","last_reported":1701785224,"current_range_meters":14000,"station_id":"ce4bhph2rcd13ifvqhdg","pricing_plan_id":"free"},{"bike_id":"fb7ad819-8c3c-4ec4-a108-4950316cee73","system_id":"levelo_inurba_marseille","lat":43.272118,"lon":5.391758,"is_reserved":false,"is_disabled":false,"rental_uris":{"android":"levelo://app?vid=fb7ad819-8c3c-4ec4-a108-4950316cee73","ios":"levelo://app?vid=fb7ad819-8c3c-4ec4-a108-4950316cee73"},"vehicle_type_id":"4","last_reported":1701785224,"current_range_meters":18400,"station_id":"ce4bhhp2rcd13ifvqfm0","pricing_plan_id":"free"},{"bike_id":"4aaafaa4-5992-4d41-aca4-45ea537c3e9e","system_id":"levelo_inurba_marseille","lat":43.27214,"lon":5.3925,"is_reserved":false,"is_disabled":false,"rental_uris":{"android":"levelo://app?vid=4aaafaa4-5992-4d41-aca4-45ea537c3e9e","ios":"levelo://app?vid=4aaafaa4-5992-4d41-aca4-45ea537c3e9e"},"vehicle_type_id":"4","last_reported":1701785224,"current_range_meters":16800,"station_id":"","pricing_plan_id":"free"},{"bike_id":"c4b50c76-24de-4d0d-9f08-665fe921ed4e","system_id":"levelo_inurba_marseille","lat":43.278128,"lon":5.407195,"is_reserved":false,"is_disabled":false,"rental_uris":{"android":"levelo://app?vid=c4b50c76-24de-4d0d-9f08-665fe921ed4e","ios":"levelo://app?vid=c4b50c76-24de-4d0d-9f08-665fe921ed4e"},"vehicle_type_id":"4","last_reported":1701785224,"current_range_meters":25600,"station_id":"ce4bhnh2rcd13ifvqgtg","pricing_plan_id":"free"},{"bike_id":"a5d28c0b-2c12-49c1-8732-c2ec7fb16449","system_id":"levelo_inurba_marseille","lat":43.278128,"lon":5.407195,"is_reserved":false,"is_disabled":false,"rental_uris":{"android":"levelo://app?vid=a5d28c0b-2c12-49c1-8732-c2ec7fb16449","ios":"levelo://app?vid=a5d28c0b-2c12-49c1-8732-c2ec7fb16449"},"vehicle_type_id":"4","last_reported":1701785224,"current_range_meters":19200,"station_id":"ce4bhnh2rcd13ifvqgtg","pricing_plan_id":"free"},{"bike_id":"13643171-fc4f-42a5-9949-27ae7af98f15","system_id":"levelo_inurba_marseille","lat":43.278128,"lon":5.407195,"is_reserved":false,"is_disabled":false,"rental_uris":{"android":"levelo://app?vid=13643171-fc4f-42a5-9949-27ae7af98f15","ios":"levelo://app?vid=13643171-fc4f-42a5-9949-27ae7af98f15"},"vehicle_type_id":"4","last_reported":1701785224,"current_range_meters":15600,"station_id":"ce4bhnh2rcd13ifvqgtg","pricing_plan_id":"free"},{"bike_id":"193560bc-b2dc-4f4d-a1a0-e6a746f9f28e","system_id":"levelo_inurba_marseille","lat":43.269467,"lon":5.386439,"is_reserved":false,"is_disabled":false,"rental_uris":{"android":"levelo://app?vid=193560bc-b2dc-4f4d-a1a0-e6a746f9f28e","ios":"levelo://app?vid=193560bc-b2dc-4f4d-a1a0-e6a746f9f28e"},"vehicle_type_id":"4","last_reported":1701785224,"current_range_meters":30800,"station_id":"ce4bhh92rcd13ifvqfh0","pricing_plan_id":"free"},{"bike_id":"0adec9a2-e68b-4c27-96f9-9a9db54dc353","system_id":"levelo_inurba_marseille","lat":43.27955,"lon":5.410645,"is_reserved":false,"is_disabled":false,"rental_uris":{"android":"levelo://app?vid=0adec9a2-e68b-4c27-96f9-9a9db54dc353","ios":"levelo://app?vid=0adec9a2-e68b-4c27-96f9-9a9db54dc353"},"vehicle_type_id":"4","last_reported":1701785224,"current_range_meters":18400,"station_id":"ce4bhnp2rcd13ifvqh0g","pricing_plan_id":"free"},{"bike_id":"7a9bc1c5-da38-4458-adf7-0306aad57f41","system_id":"levelo_inurba_marseille","lat":43.26681,"lon":5.382694,"is_reserved":false,"is_disabled":false,"rental_uris":{"android":"levelo://app?vid=7a9bc1c5-da38-4458-adf7-0306aad57f41","ios":"levelo://app?vid=7a9bc1c5-da38-4458-adf7-0306aad57f41"},"vehicle_type_id":"4","last_reported":1701785224,"current_range_meters":30000,"station_id":"ce4bhg92rcd13ifvqf90","pricing_plan_id":"free"},{"bike_id":"4052ef76-8479-40b6-b537-8bd21eba56b1","system_id":"levelo_inurba_marseille","lat":43.26556,"lon":5.37288,"is_reserved":false,"is_disabled":false,"rental_uris":{"android":"levelo://app?vid=4052ef76-8479-40b6-b537-8bd21eba56b1","ios":"levelo://app?vid=4052ef76-8479-40b6-b537-8bd21eba56b1"},"vehicle_type_id":"4","last_reported":1701785224,"current_range_meters":28400,"station_id":"ce4bhg12rcd13ifvqf70","pricing_plan_id":"free"},{"bike_id":"f936a555-9ba4-4c63-9992-c6ccf026ed95","system_id":"levelo_inurba_marseille","lat":43.26681,"lon":5.382694,"is_reserved":false,"is_disabled":false,"rental_uris":{"android":"levelo://app?vid=f936a555-9ba4-4c63-9992-c6ccf026ed95","ios":"levelo://app?vid=f936a555-9ba4-4c63-9992-c6ccf026ed95"},"vehicle_type_id":"4","last_reported":1701785224,"current_range_meters":20000,"station_id":"ce4bhg92rcd13ifvqf90","pricing_plan_id":"free"},{"bike_id":"f8f2c491-2752-4019-8c31-7dfb3123d27c","system_id":"levelo_inurba_marseille","lat":43.265714,"lon":5.372891,"is_reserved":false,"is_disabled":false,"rental_uris":{"android":"levelo://app?vid=f8f2c491-2752-4019-8c31-7dfb3123d27c","ios":"levelo://app?vid=f8f2c491-2752-4019-8c31-7dfb3123d27c"},"vehicle_type_id":"4","last_reported":1701785224,"current_range_meters":18000,"station_id":"ce4bhg12rcd13ifvqf70","pricing_plan_id":"free"},{"bike_id":"9fb1c63f-cd97-4b2d-9970-74bb649c6d72","system_id":"levelo_inurba_marseille","lat":43.265569,"lon":5.390047,"is_reserved":false,"is_disabled":false,"rental_uris":{"android":"levelo://app?vid=9fb1c63f-cd97-4b2d-9970-74bb649c6d72","ios":"levelo://app?vid=9fb1c63f-cd97-4b2d-9970-74bb649c6d72"},"vehicle_type_id":"4","last_reported":1701785224,"current_range_meters":26400,"station_id":"ce4bhe12rcd13ifvqf30","pricing_plan_id":"free"},{"bike_id":"2e4a5670-45e0-486e-88aa-6078e547c157","system_id":"levelo_inurba_marseille","lat":43.26565,"lon":5.39028,"is_reserved":false,"is_disabled":false,"rental_uris":{"android":"levelo://app?vid=2e4a5670-45e0-486e-88aa-6078e547c157","ios":"levelo://app?vid=2e4a5670-45e0-486e-88aa-6078e547c157"},"vehicle_type_id":"4","last_reported":1701785224,"current_range_meters":19200,"station_id":"ce4bhe12rcd13ifvqf30","pricing_plan_id":"free"},{"bike_id":"893b2ac6-4c6b-4863-9ca8-ac20559a7a5d","system_id":"levelo_inurba_marseille","lat":43.271368,"lon":5.40928,"is_reserved":false,"is_disabled":false,"rental_uris":{"android":"levelo://app?vid=893b2ac6-4c6b-4863-9ca8-ac20559a7a5d","ios":"levelo://app?vid=893b2ac6-4c6b-4863-9ca8-ac20559a7a5d"},"vehicle_type_id":"4","last_reported":1701785224,"current_range_meters":27200,"station_id":"ce4bhl12rcd13ifvqgf0","pricing_plan_id":"free"},{"bike_id":"832bbf83-f612-426a-a9a9-4ed9c874c863","system_id":"levelo_inurba_marseille","lat":43.267959,"lon":5.402687,"is_reserved":false,"is_disabled":false,"rental_uris":{"android":"levelo://app?vid=832bbf83-f612-426a-a9a9-4ed9c874c863","ios":"levelo://app?vid=832bbf83-f612-426a-a9a9-4ed9c874c863"},"vehicle_type_id":"4","last_reported":1701785224,"current_range_meters":28800,"station_id":"ce501612rcd8frsf0b60","pricing_plan_id":"free"},{"bike_id":"c54cd023-a6f2-4d68-aabc-4be9f862ccbb","system_id":"levelo_inurba_marseille","lat":43.298768,"lon":5.43643,"is_reserved":false,"is_disabled":false,"rental_uris":{"android":"levelo://app?vid=c54cd023-a6f2-4d68-aabc-4be9f862ccbb","ios":"levelo://app?vid=c54cd023-a6f2-4d68-aabc-4be9f862ccbb"},"vehicle_type_id":"4","last_reported":1701785224,"current_range_meters":30000,"station_id":"ce4bhpp2rcd13ifvqhfg","pricing_plan_id":"free"},{"bike_id":"71268d5e-9c2e-4ab3-9a7d-33a4a5899461","system_id":"levelo_inurba_marseille","lat":43.2607,"lon":5.393983,"is_reserved":false,"is_disabled":false,"rental_uris":{"android":"levelo://app?vid=71268d5e-9c2e-4ab3-9a7d-33a4a5899461","ios":"levelo://app?vid=71268d5e-9c2e-4ab3-9a7d-33a4a5899461"},"vehicle_type_id":"4","last_reported":1701785224,"current_range_meters":23200,"station_id":"ce4bhh92rcd13ifvqfj0","pricing_plan_id":"free"},{"bike_id":"691b9079-0770-43af-aa83-f2290bca892b","system_id":"levelo_inurba_marseille","lat":43.255756,"lon":5.382303,"is_reserved":false,"is_disabled":false,"rental_uris":{"android":"levelo://app?vid=691b9079-0770-43af-aa83-f2290bca892b","ios":"levelo://app?vid=691b9079-0770-43af-aa83-f2290bca892b"},"vehicle_type_id":"4","last_reported":1701785224,"current_range_meters":24400,"station_id":"ce4bhih2rcd13ifvqfs0","pricing_plan_id":"free"},{"bike_id":"8fd00fe8-be8f-47e5-8787-f2091c48ddd8","system_id":"levelo_inurba_marseille","lat":43.255756,"lon":5.382303,"is_reserved":false,"is_disabled":false,"rental_uris":{"android":"levelo://app?vid=8fd00fe8-be8f-47e5-8787-f2091c48ddd8","ios":"levelo://app?vid=8fd00fe8-be8f-47e5-8787-f2091c48ddd8"},"vehicle_type_id":"4","last_reported":1701785224,"current_range_meters":16400,"station_id":"ce4bhih2rcd13ifvqfs0","pricing_plan_id":"free"},{"bike_id":"0c8af203-d673-474c-840b-33000aa98c3d","system_id":"levelo_inurba_marseille","lat":43.255756,"lon":5.382303,"is_reserved":false,"is_disabled":false,"rental_uris":{"android":"levelo://app?vid=0c8af203-d673-474c-840b-33000aa98c3d","ios":"levelo://app?vid=0c8af203-d673-474c-840b-33000aa98c3d"},"vehicle_type_id":"4","last_reported":1701785224,"current_range_meters":21600,"station_id":"ce4bhih2rcd13ifvqfs0","pricing_plan_id":"free"},{"bike_id":"38b180c8-0fb1-4657-a580-0d70cdf442be","system_id":"levelo_inurba_marseille","lat":43.258658,"lon":5.398935,"is_reserved":false,"is_disabled":false,"rental_uris":{"android":"levelo://app?vid=38b180c8-0fb1-4657-a580-0d70cdf442be","ios":"levelo://app?vid=38b180c8-0fb1-4657-a580-0d70cdf442be"},"vehicle_type_id":"4","last_reported":1701785224,"current_range_meters":27200,"station_id":"ce4bhl92rcd13ifvqghg","pricing_plan_id":"free"},{"bike_id":"0c5dd37f-06ef-4b2a-8f04-7e748e11872f","system_id":"levelo_inurba_marseille","lat":43.257273,"lon":5.41108,"is_reserved":false,"is_disabled":false,"rental_uris":{"android":"levelo://app?vid=0c5dd37f-06ef-4b2a-8f04-7e748e11872f","ios":"levelo://app?vid=0c5dd37f-06ef-4b2a-8f04-7e748e11872f"},"vehicle_type_id":"4","last_reported":1701785224,"current_range_meters":18400,"station_id":"ce4bhkp2rcd13ifvqgd0","pricing_plan_id":"free"},{"bike_id":"6d89ba26-a018-4503-8bc7-0e2707c2382b","system_id":"levelo_inurba_marseille","lat":43.25722,"lon":5.41105,"is_reserved":false,"is_disabled":false,"rental_uris":{"android":"levelo://app?vid=6d89ba26-a018-4503-8bc7-0e2707c2382b","ios":"levelo://app?vid=6d89ba26-a018-4503-8bc7-0e2707c2382b"},"vehicle_type_id":"4","last_reported":1701785224,"current_range_meters":4800,"station_id":"ce4bhkp2rcd13ifvqgd0","pricing_plan_id":"free"},{"bike_id":"908b18e5-f3a0-4189-9b52-ad5820ca1297","system_id":"levelo_inurba_marseille","lat":43.25723,"lon":5.4112,"is_reserved":false,"is_disabled":false,"rental_uris":{"android":"levelo://app?vid=908b18e5-f3a0-4189-9b52-ad5820ca1297","ios":"levelo://app?vid=908b18e5-f3a0-4189-9b52-ad5820ca1297"},"vehicle_type_id":"4","last_reported":1701785224,"current_range_meters":12800,"station_id":"ce4bhkp2rcd13ifvqgd0","pricing_plan_id":"free"},{"bike_id":"9507b06d-8d13-4d4a-9530-bd3712d0b2fb","system_id":"levelo_inurba_marseille","lat":43.250009,"lon":5.389195,"is_reserved":false,"is_disabled":false,"rental_uris":{"android":"levelo://app?vid=9507b06d-8d13-4d4a-9530-bd3712d0b2fb","ios":"levelo://app?vid=9507b06d-8d13-4d4a-9530-bd3712d0b2fb"},"vehicle_type_id":"4","last_reported":1701785224,"current_range_meters":18800,"station_id":"ce4bhgp2rcd13ifvqfd0","pricing_plan_id":"free"},{"bike_id":"3e56ef50-5c91-4be6-995a-6e11acf02124","system_id":"levelo_inurba_marseille","lat":43.250009,"lon":5.389195,"is_reserved":false,"is_disabled":false,"rental_uris":{"android":"levelo://app?vid=3e56ef50-5c91-4be6-995a-6e11acf02124","ios":"levelo://app?vid=3e56ef50-5c91-4be6-995a-6e11acf02124"},"vehicle_type_id":"4","last_reported":1701785224,"current_range_meters":21600,"station_id":"ce4bhgp2rcd13ifvqfd0","pricing_plan_id":"free"},{"bike_id":"c38b3de0-e9a8-4d7a-9863-fc34d6d9af1d","system_id":"levelo_inurba_marseille","lat":43.250009,"lon":5.389195,"is_reserved":false,"is_disabled":false,"rental_uris":{"android":"levelo://app?vid=c38b3de0-e9a8-4d7a-9863-fc34d6d9af1d","ios":"levelo://app?vid=c38b3de0-e9a8-4d7a-9863-fc34d6d9af1d"},"vehicle_type_id":"4","last_reported":1701785224,"current_range_meters":27200,"station_id":"ce4bhgp2rcd13ifvqfd0","pricing_plan_id":"free"},{"bike_id":"48719eba-6f22-4150-a0ff-f4f30c8e904c","system_id":"levelo_inurba_marseille","lat":43.250966,"lon":5.395186,"is_reserved":false,"is_disabled":false,"rental_uris":{"android":"levelo://app?vid=48719eba-6f22-4150-a0ff-f4f30c8e904c","ios":"levelo://app?vid=48719eba-6f22-4150-a0ff-f4f30c8e904c"},"vehicle_type_id":"4","last_reported":1701785224,"current_range_meters":15200,"station_id":"ce4bhm12rcd13ifvqgkg","pricing_plan_id":"free"},{"bike_id":"d127ae70-db99-4c7a-bfe1-e98008e28703","system_id":"levelo_inurba_marseille","lat":43.250966,"lon":5.395186,"is_reserved":false,"is_disabled":false,"rental_uris":{"android":"levelo://app?vid=d127ae70-db99-4c7a-bfe1-e98008e28703","ios":"levelo://app?vid=d127ae70-db99-4c7a-bfe1-e98008e28703"},"vehicle_type_id":"4","last_reported":1701785224,"current_range_meters":30000,"station_id":"ce4bhm12rcd13ifvqgkg","pricing_plan_id":"free"},{"bike_id":"07e4f5ed-9e28-45ff-ba4d-699e5fe75cab","system_id":"levelo_inurba_marseille","lat":43.250966,"lon":5.395186,"is_reserved":false,"is_disabled":false,"rental_uris":{"android":"levelo://app?vid=07e4f5ed-9e28-45ff-ba4d-699e5fe75cab","ios":"levelo://app?vid=07e4f5ed-9e28-45ff-ba4d-699e5fe75cab"},"vehicle_type_id":"4","last_reported":1701785224,"current_range_meters":6400,"station_id":"ce4bhm12rcd13ifvqgkg","pricing_plan_id":"free"},{"bike_id":"f001f280-0739-4d2d-bf28-6036555ec92b","system_id":"levelo_inurba_marseille","lat":43.25102,"lon":5.403214,"is_reserved":false,"is_disabled":false,"rental_uris":{"android":"levelo://app?vid=f001f280-0739-4d2d-bf28-6036555ec92b","ios":"levelo://app?vid=f001f280-0739-4d2d-bf28-6036555ec92b"},"vehicle_type_id":"4","last_reported":1701785224,"current_range_meters":22800,"station_id":"ce4bhlh2rcd13ifvqgig","pricing_plan_id":"free"},{"bike_id":"5923cf95-5cfc-4945-9d02-b21fb4ef7a73","system_id":"levelo_inurba_marseille","lat":43.246615,"lon":5.381625,"is_reserved":false,"is_disabled":false,"rental_uris":{"android":"levelo://app?vid=5923cf95-5cfc-4945-9d02-b21fb4ef7a73","ios":"levelo://app?vid=5923cf95-5cfc-4945-9d02-b21fb4ef7a73"},"vehicle_type_id":"4","last_reported":1701785224,"current_range_meters":0,"station_id":"ce4bhih2rcd13ifvqfr0","pricing_plan_id":"free"},{"bike_id":"03a68689-8d99-494f-8555-83777674deb8","system_id":"levelo_inurba_marseille","lat":43.24661,"lon":5.38167,"is_reserved":false,"is_disabled":false,"rental_uris":{"android":"levelo://app?vid=03a68689-8d99-494f-8555-83777674deb8","ios":"levelo://app?vid=03a68689-8d99-494f-8555-83777674deb8"},"vehicle_type_id":"4","last_reported":1701785224,"current_range_meters":5200,"station_id":"ce4bhih2rcd13ifvqfr0","pricing_plan_id":"free"},{"bike_id":"9c25f2cc-0aae-42e8-8fd4-11e891f0c373","system_id":"levelo_inurba_marseille","lat":43.25102,"lon":5.403214,"is_reserved":false,"is_disabled":false,"rental_uris":{"android":"levelo://app?vid=9c25f2cc-0aae-42e8-8fd4-11e891f0c373","ios":"levelo://app?vid=9c25f2cc-0aae-42e8-8fd4-11e891f0c373"},"vehicle_type_id":"4","last_reported":1701785224,"current_range_meters":0,"station_id":"ce4bhlh2rcd13ifvqgig","pricing_plan_id":"free"},{"bike_id":"cb4e4086-8219-4fba-88c1-0e944da0b150","system_id":"levelo_inurba_marseille","lat":43.25102,"lon":5.403214,"is_reserved":false,"is_disabled":false,"rental_uris":{"android":"levelo://app?vid=cb4e4086-8219-4fba-88c1-0e944da0b150","ios":"levelo://app?vid=cb4e4086-8219-4fba-88c1-0e944da0b150"},"vehicle_type_id":"4","last_reported":1701785224,"current_range_meters":30000,"station_id":"ce4bhlh2rcd13ifvqgig","pricing_plan_id":"free"},{"bike_id":"ed4ed92f-d533-49e7-a272-460e24eb2a5e","system_id":"levelo_inurba_marseille","lat":43.25102,"lon":5.403214,"is_reserved":false,"is_disabled":false,"rental_uris":{"android":"levelo://app?vid=ed4ed92f-d533-49e7-a272-460e24eb2a5e","ios":"levelo://app?vid=ed4ed92f-d533-49e7-a272-460e24eb2a5e"},"vehicle_type_id":"4","last_reported":1701785224,"current_range_meters":13600,"station_id":"ce4bhlh2rcd13ifvqgig","pricing_plan_id":"free"},{"bike_id":"6e615485-5a98-4541-b87c-0ad536d392b3","system_id":"levelo_inurba_marseille","lat":43.25115,"lon":5.40349,"is_reserved":false,"is_disabled":false,"rental_uris":{"android":"levelo://app?vid=6e615485-5a98-4541-b87c-0ad536d392b3","ios":"levelo://app?vid=6e615485-5a98-4541-b87c-0ad536d392b3"},"vehicle_type_id":"4","last_reported":1701785224,"current_range_meters":22800,"station_id":"ce4bhlh2rcd13ifvqgig","pricing_plan_id":"free"},{"bike_id":"7f99b533-0116-4a1f-9307-6fc0af8fa87b","system_id":"levelo_inurba_marseille","lat":43.25101,"lon":5.40326,"is_reserved":false,"is_disabled":false,"rental_uris":{"android":"levelo://app?vid=7f99b533-0116-4a1f-9307-6fc0af8fa87b","ios":"levelo://app?vid=7f99b533-0116-4a1f-9307-6fc0af8fa87b"},"vehicle_type_id":"4","last_reported":1701785224,"current_range_meters":4800,"station_id":"ce4bhlh2rcd13ifvqgig","pricing_plan_id":"free"},{"bike_id":"5ae3db74-75b3-4023-87be-98d4844d31d1","system_id":"levelo_inurba_marseille","lat":43.25102,"lon":5.403214,"is_reserved":false,"is_disabled":false,"rental_uris":{"android":"levelo://app?vid=5ae3db74-75b3-4023-87be-98d4844d31d1","ios":"levelo://app?vid=5ae3db74-75b3-4023-87be-98d4844d31d1"},"vehicle_type_id":"4","last_reported":1701785224,"current_range_meters":7200,"station_id":"ce4bhlh2rcd13ifvqgig","pricing_plan_id":"free"},{"bike_id":"2a465530-285a-4d88-bed4-f664fdd182c0","system_id":"levelo_inurba_marseille","lat":43.240623,"lon":5.377642,"is_reserved":false,"is_disabled":false,"rental_uris":{"android":"levelo://app?vid=2a465530-285a-4d88-bed4-f664fdd182c0","ios":"levelo://app?vid=2a465530-285a-4d88-bed4-f664fdd182c0"},"vehicle_type_id":"4","last_reported":1701785224,"current_range_meters":30800,"station_id":"ce4bhnp2rcd13ifvqgvg","pricing_plan_id":"free"},{"bike_id":"80ffc8c6-e96a-443a-88e2-40776d263155","system_id":"levelo_inurba_marseille","lat":43.24075,"lon":5.3776,"is_reserved":false,"is_disabled":false,"rental_uris":{"android":"levelo://app?vid=80ffc8c6-e96a-443a-88e2-40776d263155","ios":"levelo://app?vid=80ffc8c6-e96a-443a-88e2-40776d263155"},"vehicle_type_id":"4","last_reported":1701785224,"current_range_meters":20800,"station_id":"ce4bhnp2rcd13ifvqgvg","pricing_plan_id":"free"},{"bike_id":"0315da7f-87fa-4055-b382-7d72c0daef10","system_id":"levelo_inurba_marseille","lat":43.240623,"lon":5.377642,"is_reserved":false,"is_disabled":false,"rental_uris":{"android":"levelo://app?vid=0315da7f-87fa-4055-b382-7d72c0daef10","ios":"levelo://app?vid=0315da7f-87fa-4055-b382-7d72c0daef10"},"vehicle_type_id":"4","last_reported":1701785224,"current_range_meters":27600,"station_id":"ce4bhnp2rcd13ifvqgvg","pricing_plan_id":"free"},{"bike_id":"89aca074-359c-4e33-bf2d-a3d729e693f8","system_id":"levelo_inurba_marseille","lat":43.240623,"lon":5.377642,"is_reserved":false,"is_disabled":false,"rental_uris":{"android":"levelo://app?vid=89aca074-359c-4e33-bf2d-a3d729e693f8","ios":"levelo://app?vid=89aca074-359c-4e33-bf2d-a3d729e693f8"},"vehicle_type_id":"4","last_reported":1701785224,"current_range_meters":24000,"station_id":"ce4bhnp2rcd13ifvqgvg","pricing_plan_id":"free"},{"bike_id":"9f9eb382-f99a-4ffc-9842-b4408c41e05e","system_id":"levelo_inurba_marseille","lat":43.240623,"lon":5.377642,"is_reserved":false,"is_disabled":false,"rental_uris":{"android":"levelo://app?vid=9f9eb382-f99a-4ffc-9842-b4408c41e05e","ios":"levelo://app?vid=9f9eb382-f99a-4ffc-9842-b4408c41e05e"},"vehicle_type_id":"4","last_reported":1701785224,"current_range_meters":27600,"station_id":"ce4bhnp2rcd13ifvqgvg","pricing_plan_id":"free"},{"bike_id":"5d4489e1-715b-46d8-b5f4-a4d2fa590ccd","system_id":"levelo_inurba_marseille","lat":43.24072,"lon":5.3776,"is_reserved":false,"is_disabled":false,"rental_uris":{"android":"levelo://app?vid=5d4489e1-715b-46d8-b5f4-a4d2fa590ccd","ios":"levelo://app?vid=5d4489e1-715b-46d8-b5f4-a4d2fa590ccd"},"vehicle_type_id":"4","last_reported":1701785224,"current_range_meters":18400,"station_id":"ce4bhnp2rcd13ifvqgvg","pricing_plan_id":"free"},{"bike_id":"9f98581c-8321-4518-8823-402c9ea0822f","system_id":"levelo_inurba_marseille","lat":43.24072,"lon":5.37761,"is_reserved":false,"is_disabled":false,"rental_uris":{"android":"levelo://app?vid=9f98581c-8321-4518-8823-402c9ea0822f","ios":"levelo://app?vid=9f98581c-8321-4518-8823-402c9ea0822f"},"vehicle_type_id":"4","last_reported":1701785224,"current_range_meters":31200,"station_id":"ce4bhnp2rcd13ifvqgvg","pricing_plan_id":"free"},{"bike_id":"e88012e3-97a8-4461-a265-f849c0372100","system_id":"levelo_inurba_marseille","lat":43.240623,"lon":5.377642,"is_reserved":false,"is_disabled":false,"rental_uris":{"android":"levelo://app?vid=e88012e3-97a8-4461-a265-f849c0372100","ios":"levelo://app?vid=e88012e3-97a8-4461-a265-f849c0372100"},"vehicle_type_id":"4","last_reported":1701785224,"current_range_meters":31200,"station_id":"ce4bhnp2rcd13ifvqgvg","pricing_plan_id":"free"},{"bike_id":"2ac84801-0821-4fac-abed-f2686e6b71ef","system_id":"levelo_inurba_marseille","lat":43.240623,"lon":5.377642,"is_reserved":false,"is_disabled":false,"rental_uris":{"android":"levelo://app?vid=2ac84801-0821-4fac-abed-f2686e6b71ef","ios":"levelo://app?vid=2ac84801-0821-4fac-abed-f2686e6b71ef"},"vehicle_type_id":"4","last_reported":1701785224,"current_range_meters":15600,"station_id":"ce4bhnp2rcd13ifvqgvg","pricing_plan_id":"free"},{"bike_id":"64d3bd8e-2472-4693-8967-987a1a8386e8","system_id":"levelo_inurba_marseille","lat":43.240623,"lon":5.377642,"is_reserved":false,"is_disabled":false,"rental_uris":{"android":"levelo://app?vid=64d3bd8e-2472-4693-8967-987a1a8386e8","ios":"levelo://app?vid=64d3bd8e-2472-4693-8967-987a1a8386e8"},"vehicle_type_id":"4","last_reported":1701785224,"current_range_meters":19600,"station_id":"ce4bhnp2rcd13ifvqgvg","pricing_plan_id":"free"},{"bike_id":"e93d2c63-f14c-4faa-aae7-c435a0599ef0","system_id":"levelo_inurba_marseille","lat":43.240623,"lon":5.377642,"is_reserved":false,"is_disabled":false,"rental_uris":{"android":"levelo://app?vid=e93d2c63-f14c-4faa-aae7-c435a0599ef0","ios":"levelo://app?vid=e93d2c63-f14c-4faa-aae7-c435a0599ef0"},"vehicle_type_id":"4","last_reported":1701785224,"current_range_meters":28000,"station_id":"ce4bhnp2rcd13ifvqgvg","pricing_plan_id":"free"},{"bike_id":"3ad0ad55-5116-453d-b2e6-781e3a6b234a","system_id":"levelo_inurba_marseille","lat":43.240623,"lon":5.377642,"is_reserved":false,"is_disabled":false,"rental_uris":{"android":"levelo://app?vid=3ad0ad55-5116-453d-b2e6-781e3a6b234a","ios":"levelo://app?vid=3ad0ad55-5116-453d-b2e6-781e3a6b234a"},"vehicle_type_id":"4","last_reported":1701785224,"current_range_meters":22000,"station_id":"ce4bhnp2rcd13ifvqgvg","pricing_plan_id":"free"},{"bike_id":"8c28f869-8b27-4717-955f-eeabe389dff8","system_id":"levelo_inurba_marseille","lat":43.240623,"lon":5.377642,"is_reserved":false,"is_disabled":false,"rental_uris":{"android":"levelo://app?vid=8c28f869-8b27-4717-955f-eeabe389dff8","ios":"levelo://app?vid=8c28f869-8b27-4717-955f-eeabe389dff8"},"vehicle_type_id":"4","last_reported":1701785224,"current_range_meters":31200,"station_id":"ce4bhnp2rcd13ifvqgvg","pricing_plan_id":"free"},{"bike_id":"cb6ba51b-84b7-4540-b8f5-403657ef16c8","system_id":"levelo_inurba_marseille","lat":43.240623,"lon":5.377642,"is_reserved":false,"is_disabled":false,"rental_uris":{"android":"levelo://app?vid=cb6ba51b-84b7-4540-b8f5-403657ef16c8","ios":"levelo://app?vid=cb6ba51b-84b7-4540-b8f5-403657ef16c8"},"vehicle_type_id":"4","last_reported":1701785224,"current_range_meters":25200,"station_id":"ce4bhnp2rcd13ifvqgvg","pricing_plan_id":"free"},{"bike_id":"2e43447f-abca-4d71-8f13-a975156b923b","system_id":"levelo_inurba_marseille","lat":43.240623,"lon":5.377642,"is_reserved":false,"is_disabled":false,"rental_uris":{"android":"levelo://app?vid=2e43447f-abca-4d71-8f13-a975156b923b","ios":"levelo://app?vid=2e43447f-abca-4d71-8f13-a975156b923b"},"vehicle_type_id":"4","last_reported":1701785224,"current_range_meters":31600,"station_id":"ce4bhnp2rcd13ifvqgvg","pricing_plan_id":"free"},{"bike_id":"f6ecc4db-e5cd-49a3-b628-959830677cc9","system_id":"levelo_inurba_marseille","lat":43.239588,"lon":5.366238,"is_reserved":false,"is_disabled":false,"rental_uris":{"android":"levelo://app?vid=f6ecc4db-e5cd-49a3-b628-959830677cc9","ios":"levelo://app?vid=f6ecc4db-e5cd-49a3-b628-959830677cc9"},"vehicle_type_id":"4","last_reported":1701785224,"current_range_meters":18400,"station_id":"ce4bhi12rcd13ifvqfp0","pricing_plan_id":"free"},{"bike_id":"1f8e1a80-4243-4649-ac71-2ebc1e48b939","system_id":"levelo_inurba_marseille","lat":43.231923,"lon":5.355545,"is_reserved":false,"is_disabled":false,"rental_uris":{"android":"levelo://app?vid=1f8e1a80-4243-4649-ac71-2ebc1e48b939","ios":"levelo://app?vid=1f8e1a80-4243-4649-ac71-2ebc1e48b939"},"vehicle_type_id":"4","last_reported":1701785224,"current_range_meters":5600,"station_id":"ce4bhu92rcd13ifvqi70","pricing_plan_id":"free"},{"bike_id":"cf3102c4-88e0-4a41-86b7-69a76932d3e6","system_id":"levelo_inurba_marseille","lat":43.231923,"lon":5.355545,"is_reserved":false,"is_disabled":false,"rental_uris":{"android":"levelo://app?vid=cf3102c4-88e0-4a41-86b7-69a76932d3e6","ios":"levelo://app?vid=cf3102c4-88e0-4a41-86b7-69a76932d3e6"},"vehicle_type_id":"4","last_reported":1701785224,"current_range_meters":31600,"station_id":"ce4bhu92rcd13ifvqi70","pricing_plan_id":"free"},{"bike_id":"f922cddf-9fbc-4714-b966-50501c7ff4b4","system_id":"levelo_inurba_marseille","lat":43.231836,"lon":5.355519,"is_reserved":false,"is_disabled":false,"rental_uris":{"android":"levelo://app?vid=f922cddf-9fbc-4714-b966-50501c7ff4b4","ios":"levelo://app?vid=f922cddf-9fbc-4714-b966-50501c7ff4b4"},"vehicle_type_id":"4","last_reported":1701785224,"current_range_meters":7200,"station_id":"ce4bhu92rcd13ifvqi70","pricing_plan_id":"free"},{"bike_id":"757bceef-7472-4212-bf26-ffe97456eab6","system_id":"levelo_inurba_marseille","lat":43.231794,"lon":5.400052,"is_reserved":false,"is_disabled":false,"rental_uris":{"android":"levelo://app?vid=757bceef-7472-4212-bf26-ffe97456eab6","ios":"levelo://app?vid=757bceef-7472-4212-bf26-ffe97456eab6"},"vehicle_type_id":"4","last_reported":1701785224,"current_range_meters":11600,"station_id":"ce4bhn12rcd13ifvqgqg","pricing_plan_id":"free"},{"bike_id":"818b7971-a62f-4d0c-b4d6-ebcff5688a44","system_id":"levelo_inurba_marseille","lat":43.231562,"lon":5.436933,"is_reserved":false,"is_disabled":false,"rental_uris":{"android":"levelo://app?vid=818b7971-a62f-4d0c-b4d6-ebcff5688a44","ios":"levelo://app?vid=818b7971-a62f-4d0c-b4d6-ebcff5688a44"},"vehicle_type_id":"4","last_reported":1701785224,"current_range_meters":30000,"station_id":"ce4bhmp2rcd13ifvqgog","pricing_plan_id":"free"},{"bike_id":"fb57a19c-6052-4ad3-b116-cf7961d5d660","system_id":"levelo_inurba_marseille","lat":43.231562,"lon":5.436933,"is_reserved":false,"is_disabled":false,"rental_uris":{"android":"levelo://app?vid=fb57a19c-6052-4ad3-b116-cf7961d5d660","ios":"levelo://app?vid=fb57a19c-6052-4ad3-b116-cf7961d5d660"},"vehicle_type_id":"4","last_reported":1701785224,"current_range_meters":16800,"station_id":"ce4bhmp2rcd13ifvqgog","pricing_plan_id":"free"},{"bike_id":"b88a7beb-1507-4507-ad76-90e5fbe86117","system_id":"levelo_inurba_marseille","lat":43.231562,"lon":5.436933,"is_reserved":false,"is_disabled":false,"rental_uris":{"android":"levelo://app?vid=b88a7beb-1507-4507-ad76-90e5fbe86117","ios":"levelo://app?vid=b88a7beb-1507-4507-ad76-90e5fbe86117"},"vehicle_type_id":"4","last_reported":1701785224,"current_range_meters":26400,"station_id":"ce4bhmp2rcd13ifvqgog","pricing_plan_id":"free"},{"bike_id":"499f6839-de97-4b12-a005-76ce9f041c0f","system_id":"levelo_inurba_marseille","lat":43.231562,"lon":5.436933,"is_reserved":false,"is_disabled":false,"rental_uris":{"android":"levelo://app?vid=499f6839-de97-4b12-a005-76ce9f041c0f","ios":"levelo://app?vid=499f6839-de97-4b12-a005-76ce9f041c0f"},"vehicle_type_id":"4","last_reported":1701785224,"current_range_meters":21200,"station_id":"ce4bhmp2rcd13ifvqgog","pricing_plan_id":"free"},{"bike_id":"eb2c14b2-e332-47fe-992b-c25d14433af5","system_id":"levelo_inurba_marseille","lat":43.231562,"lon":5.436933,"is_reserved":false,"is_disabled":false,"rental_uris":{"android":"levelo://app?vid=eb2c14b2-e332-47fe-992b-c25d14433af5","ios":"levelo://app?vid=eb2c14b2-e332-47fe-992b-c25d14433af5"},"vehicle_type_id":"4","last_reported":1701785224,"current_range_meters":1600,"station_id":"ce4bhmp2rcd13ifvqgog","pricing_plan_id":"free"},{"bike_id":"bd1c9afa-c136-40b6-9ad4-c891fe6a0ae4","system_id":"levelo_inurba_marseille","lat":43.231562,"lon":5.436933,"is_reserved":false,"is_disabled":false,"rental_uris":{"android":"levelo://app?vid=bd1c9afa-c136-40b6-9ad4-c891fe6a0ae4","ios":"levelo://app?vid=bd1c9afa-c136-40b6-9ad4-c891fe6a0ae4"},"vehicle_type_id":"4","last_reported":1701785224,"current_range_meters":28000,"station_id":"ce4bhmp2rcd13ifvqgog","pricing_plan_id":"free"},{"bike_id":"f1f61720-9ba6-4659-bcf3-0c486f25507b","system_id":"levelo_inurba_marseille","lat":43.231562,"lon":5.436933,"is_reserved":false,"is_disabled":false,"rental_uris":{"android":"levelo://app?vid=f1f61720-9ba6-4659-bcf3-0c486f25507b","ios":"levelo://app?vid=f1f61720-9ba6-4659-bcf3-0c486f25507b"},"vehicle_type_id":"4","last_reported":1701785224,"current_range_meters":0,"station_id":"ce4bhmp2rcd13ifvqgog","pricing_plan_id":"free"},{"bike_id":"e1e260aa-9e11-47f3-bc85-67c6e8b56d68","system_id":"levelo_inurba_marseille","lat":43.231562,"lon":5.436933,"is_reserved":false,"is_disabled":false,"rental_uris":{"android":"levelo://app?vid=e1e260aa-9e11-47f3-bc85-67c6e8b56d68","ios":"levelo://app?vid=e1e260aa-9e11-47f3-bc85-67c6e8b56d68"},"vehicle_type_id":"4","last_reported":1701785224,"current_range_meters":31600,"station_id":"ce4bhmp2rcd13ifvqgog","pricing_plan_id":"free"},{"bike_id":"5acf437a-9bd4-4ab6-9a7c-1521245d7344","system_id":"levelo_inurba_marseille","lat":43.231562,"lon":5.436933,"is_reserved":false,"is_disabled":false,"rental_uris":{"android":"levelo://app?vid=5acf437a-9bd4-4ab6-9a7c-1521245d7344","ios":"levelo://app?vid=5acf437a-9bd4-4ab6-9a7c-1521245d7344"},"vehicle_type_id":"4","last_reported":1701785224,"current_range_meters":31600,"station_id":"ce4bhmp2rcd13ifvqgog","pricing_plan_id":"free"}]}}