{"last_updated":1747307342,"ttl":60,"version":"2.2","data":{"bikes":[{"bike_id":"c0b9fd4f-e181-46ce-b0bf-f5119973334f","system_id":"levelo_inurba_marseille","lat":43.33771,"lon":5.37424,"is_reserved":false,"is_disabled":false,"rental_uris":{"android":"levelo://app?vid=c0b9fd4f-e181-46ce-b0bf-f5119973334f","ios":"levelo://app?vid=c0b9fd4f-e181-46ce-b0bf-f5119973334f"},"vehicle_type_id":"4","last_reported":1747307342,"current_range_meters":14800,"station_id":"","pricing_plan_id":"cebpf4jnsgd1na2vs0mg"},{"bike_id":"111ebbdb-72a9-4e4d-bc22-f68f42b99ba3","system_id":"levelo_inurba_marseille","lat":43.28318,"lon":5.38521,"is_reserved":false,"is_disabled":true,"rental_uris":{"android":"levelo://app?vid=111ebbdb-72a9-4e4d-bc22-f68f42b99ba3","ios":"levelo://app?vid=111ebbdb-72a9-4e4d-bc22-f68f42b99ba3"},"vehicle_type_id":"4","last_reported":1747307342,"current_range_meters":0,"station_id":"","pricing_plan_id":"cebpf4jnsgd1na2vs0mg"},{"bike_id":"fc2577e7-1497-425b-9d4f-ab8d7dc843c6","system_id":"levelo_inurba_marseille","lat":43.33771,"lon":5.37485,"is_reserved":false,"is_disabled":true,"rental_uris":{"android":"levelo://app?vid=fc2577e7-1497-425b-9d4f-ab8d7dc843c6","ios":"levelo://app?vid=fc2577e7-1497-425b-9d4f-ab8d7dc843c6"},"vehicle_type_id":"4","last_reported":1747307342,"current_range_meters":0,"station_id":"","pricing_plan_id":"cebpf4jnsgd1na2vs0mg"},{"bike_id":"893cee9f-22ed-4823-82b3-4da288b81784","system_id":"levelo_inurba_marseille","lat":43.31837,"lon":5.36908,"is_reserved":false,"is_disabled":true,"rental_uris":{"android":"levelo://app?vid=893cee9f-22ed-4823-82b3-4da288b81784","ios":"levelo://app?vid=893cee9f-22ed-4823-82b3-4da288b81784"},"vehicle_type_id":"4","last_reported":1747307342,"current_range_meters":0,"station_id":"","pricing_plan_id":"cebpf4jnsgd1na2vs0mg"},{"bike_id":"792567c6-0442-4011-aff0-9c05e25deb48","system_id":"levelo_inurba_marseille","lat":43.337444,"lon":5.374475,"is_reserved":false,"is_disabled":true,"rental_uris":{"android":"levelo://app?vid=792567c6-0442-4011-aff0-9c05e25deb48","ios":"levelo://app?vid=792567c6-0442-4011-aff0-9c05e25deb48"},"vehicle_type_id":"4","last_reported":1747307342,"current_range_meters":0,"station_id":"","pricing_plan_id":"cebpf4jnsgd1na2vs0mg"},{"bike_id":"fde2ed5c-06d3-4bcc-af87-e5164f4119c3","system_id":"levelo_inurba_marseille","lat":43.29796,"lon":5.38094,"is_reserved":false,"is_disabled":true,"rental_uris":{"android":"levelo://app?vid=fde2ed5c-06d3-4bcc-af87-e5164f4119c3","ios":"levelo://app?vid=fde2ed5c-06d3-4bcc-af87-e5164f4119c3"},"vehicle_type_id":"4","last_reported":1747307342,"current_range_meters":0,"station_id":"ce4bgip2rcd13ifvqbb0","pricing_plan_id":"cebpf4jnsgd1na2vs0mg"},{"bike_id":"90477825-ffb2-4978-859d-dd7669b366b6","system_id":"levelo_inurba_marseille","lat":43.30892,"lon":5.39647,"is_reserved":false,"is_disabled":true,"rental_uris":{"android":"levelo://app?vid=90477825-ffb2-4978-859d-dd7669b366b6","ios":"levelo://app?vid=90477825-ffb2-4978-859d-dd7669b366b6"},"vehicle_type_id":"4","last_reported":1747307342,"current_range_meters":0,"station_id":"ce4bh012rcd13ifvqcv0","pricing_plan_id":"cebpf4jnsgd1na2vs0mg"},{"bike_id":"e26746df-2159-4bf0-855d-175333192a1f","system_id":"levelo_inurba_marseille","lat":43.28855,"lon":5.35848,"is_reserved":false,"is_disabled":true,"rental_uris":{"android":"levelo://app?vid=e26746df-2159-4bf0-855d-175333192a1f","ios":"levelo://app?vid=e26746df-2159-4bf0-855d-175333192a1f"},"vehicle_type_id":"4","last_reported":1747307342,"current_range_meters":0,"station_id":"ce4bhb12rcd13ifvqem0","pricing_plan_id":"cebpf4jnsgd1na2vs0mg"},{"bike_id":"f69b76cc-8219-4b7a-997d-eafe88d3699c","system_id":"levelo_inurba_marseille","lat":43.24174,"lon":5.39715,"is_reserved":false,"is_disabled":true,"rental_uris":{"android":"levelo://app?vid=f69b76cc-8219-4b7a-997d-eafe88d3699c","ios":"levelo://app?vid=f69b76cc-8219-4b7a-997d-eafe88d3699c"},"vehicle_type_id":"4","last_reported":1747307342,"current_range_meters":0,"station_id":"ce4bhn12rcd13ifvqgpg","pricing_plan_id":"cebpf4jnsgd1na2vs0mg"},{"bike_id":"4439649f-7739-4f07-a01c-6577497ea17b","system_id":"levelo_inurba_marseille","lat":43.32469,"lon":5.36582,"is_reserved":false,"is_disabled":true,"rental_uris":{"android":"levelo://app?vid=4439649f-7739-4f07-a01c-6577497ea17b","ios":"levelo://app?vid=4439649f-7739-4f07-a01c-6577497ea17b"},"vehicle_type_id":"4","last_reported":1747307342,"current_range_meters":0,"station_id":"ce4bhs12rcd13ifvqhvg","pricing_plan_id":"cebpf4jnsgd1na2vs0mg"},{"bike_id":"56ccf319-462b-4d1d-8019-c733dc5c4f08","system_id":"levelo_inurba_marseille","lat":43.28615,"lon":5.35102,"is_reserved":false,"is_disabled":true,"rental_uris":{"android":"levelo://app?vid=56ccf319-462b-4d1d-8019-c733dc5c4f08","ios":"levelo://app?vid=56ccf319-462b-4d1d-8019-c733dc5c4f08"},"vehicle_type_id":"4","last_reported":1747307342,"current_range_meters":400,"station_id":"ce4bhch2rcd13ifvqeug","pricing_plan_id":"cebpf4jnsgd1na2vs0mg"},{"bike_id":"9314dddf-072c-4cc0-8876-ed2b90349374","system_id":"levelo_inurba_marseille","lat":43.32537,"lon":5.4143,"is_reserved":false,"is_disabled":true,"rental_uris":{"android":"levelo://app?vid=9314dddf-072c-4cc0-8876-ed2b90349374","ios":"levelo://app?vid=9314dddf-072c-4cc0-8876-ed2b90349374"},"vehicle_type_id":"4","last_reported":1747307342,"current_range_meters":400,"station_id":"ce4bhq12rcd13ifvqhhg","pricing_plan_id":"cebpf4jnsgd1na2vs0mg"},{"bike_id":"315fb92c-f703-4231-8380-3666e7f1e7e6","system_id":"levelo_inurba_marseille","lat":43.25089,"lon":5.39522,"is_reserved":false,"is_disabled":true,"rental_uris":{"android":"levelo://app?vid=315fb92c-f703-4231-8380-3666e7f1e7e6","ios":"levelo://app?vid=315fb92c-f703-4231-8380-3666e7f1e7e6"},"vehicle_type_id":"4","last_reported":1747307342,"current_range_meters":1200,"station_id":"ce4bhm12rcd13ifvqgkg","pricing_plan_id":"cebpf4jnsgd1na2vs0mg"},{"bike_id":"85dae03a-e7a0-44dd-9917-66a39c7df6bd","system_id":"levelo_inurba_marseille","lat":43.211884,"lon":5.350732,"is_reserved":false,"is_disabled":true,"rental_uris":{"android":"levelo://app?vid=85dae03a-e7a0-44dd-9917-66a39c7df6bd","ios":"levelo://app?vid=85dae03a-e7a0-44dd-9917-66a39c7df6bd"},"vehicle_type_id":"4","last_reported":1747307342,"current_range_meters":1200,"station_id":"st_cvj6sg6p6f1abm77japg","pricing_plan_id":"cebpf4jnsgd1na2vs0mg"},{"bike_id":"ce56dac4-3879-4283-8148-af2b9fd6c04b","system_id":"levelo_inurba_marseille","lat":43.312966,"lon":5.390151,"is_reserved":false,"is_disabled":true,"rental_uris":{"android":"levelo://app?vid=ce56dac4-3879-4283-8148-af2b9fd6c04b","ios":"levelo://app?vid=ce56dac4-3879-4283-8148-af2b9fd6c04b"},"vehicle_type_id":"4","last_reported":1747307342,"current_range_meters":1600,"station_id":"","pricing_plan_id":"cebpf4jnsgd1na2vs0mg"},{"bike_id":"ce4325af-2448-4172-bdec-81d552ee0b62","system_id":"levelo_inurba_marseille","lat":43.2615,"lon":5.42013,"is_reserved":false,"is_disabled":true,"rental_uris":{"android":"levelo://app?vid=ce4325af-2448-4172-bdec-81d552ee0b62","ios":"levelo://app?vid=ce4325af-2448-4172-bdec-81d552ee0b62"},"vehicle_type_id":"4","last_reported":1747307342,"current_range_meters":2000,"station_id":"","pricing_plan_id":"cebpf4jnsgd1na2vs0mg"},{"bike_id":"2fd6ce4b-5657-4849-b762-c84c845512b8","system_id":"levelo_inurba_marseille","lat":43.2872,"lon":5.37943,"is_reserved":false,"is_disabled":true,"rental_uris":{"android":"levelo://app?vid=2fd6ce4b-5657-4849-b762-c84c845512b8","ios":"levelo://app?vid=2fd6ce4b-5657-4849-b762-c84c845512b8"},"vehicle_type_id":"4","last_reported":1747307342,"current_range_meters":2000,"station_id":"ce4bh9p2rcd13ifvqec0","pricing_plan_id":"cebpf4jnsgd1na2vs0mg"},{"bike_id":"77290800-1e62-4daa-9f55-33e527d5506c","system_id":"levelo_inurba_marseille","lat":43.24072,"lon":5.37762,"is_reserved":false,"is_disabled":true,"rental_uris":{"android":"levelo://app?vid=77290800-1e62-4daa-9f55-33e527d5506c","ios":"levelo://app?vid=77290800-1e62-4daa-9f55-33e527d5506c"},"vehicle_type_id":"4","last_reported":1747307342,"current_range_meters":2000,"station_id":"ce4bhnp2rcd13ifvqgvg","pricing_plan_id":"cebpf4jnsgd1na2vs0mg"},{"bike_id":"1878db1d-3dc9-4bef-af79-b521444cb6e1","system_id":"levelo_inurba_marseille","lat":43.24108,"lon":5.397,"is_reserved":false,"is_disabled":false,"rental_uris":{"android":"levelo://app?vid=1878db1d-3dc9-4bef-af79-b521444cb6e1","ios":"levelo://app?vid=1878db1d-3dc9-4bef-af79-b521444cb6e1"},"vehicle_type_id":"4","last_reported":1747307342,"current_range_meters":2800,"station_id":"","pricing_plan_id":"cebpf4jnsgd1na2vs0mg"},{"bike_id":"d805c266-e964-4fbd-aa05-19511acd6f8b","system_id":"levelo_inurba_marseille","lat":43.31239,"lon":5.36819,"is_reserved":false,"is_disabled":false,"rental_uris":{"android":"levelo://app?vid=d805c266-e964-4fbd-aa05-19511acd6f8b","ios":"levelo://app?vid=d805c266-e964-4fbd-aa05-19511acd6f8b"},"vehicle_type_id":"4","last_reported":1747307342,"current_range_meters":2800,"station_id":"ce4bgl92rcd13ifvqbq0","pricing_plan_id":"cebpf4jnsgd1na2vs0mg"},{"bike_id":"c0eb8721-cb34-4d10-ab8f-a96a8bc653b1","system_id":"levelo_inurba_marseille","lat":43.28098,"lon":5.37833,"is_reserved":false,"is_disabled":false,"rental_uris":{"android":"levelo://app?vid=c0eb8721-cb34-4d10-ab8f-a96a8bc653b1","ios":"levelo://app?vid=c0eb8721-cb34-4d10-ab8f-a96a8bc653b1"},"vehicle_type_id":"4","last_reported":1747307342,"current_range_meters":2800,"station_id":"ce4bha12rcd13ifvqee0","pricing_plan_id":"cebpf4jnsgd1na2vs0mg"},{"bike_id":"5f2668f6-9ec4-48c5-b5d8-b21dfe2c1f04","system_id":"levelo_inurba_marseille","lat":43.30262,"lon":5.37732,"is_reserved":false,"is_disabled":false,"rental_uris":{"android":"levelo://app?vid=5f2668f6-9ec4-48c5-b5d8-b21dfe2c1f04","ios":"levelo://app?vid=5f2668f6-9ec4-48c5-b5d8-b21dfe2c1f04"},"vehicle_type_id":"4","last_reported":1747307342,"current_range_meters":3200,"station_id":"ce4bguh2rcd13ifvqcj0","pricing_plan_id":"cebpf4jnsgd1na2vs0mg"},{"bike_id":"4507493e-d0ac-4100-ac5d-23201385fe17","system_id":"levelo_inurba_marseille","lat":43.29517,"lon":5.39031,"is_reserved":false,"is_disabled":false,"rental_uris":{"android":"levelo://app?vid=4507493e-d0ac-4100-ac5d-23201385fe17","ios":"levelo://app?vid=4507493e-d0ac-4100-ac5d-23201385fe17"},"vehicle_type_id":"4","last_reported":1747307342,"current_range_meters":3200,"station_id":"ce4bh3p2rcd13ifvqdp0","pricing_plan_id":"cebpf4jnsgd1na2vs0mg"},{"bike_id":"bbc537e6-e67c-4244-8eb3-49f71f0b545e","system_id":"levelo_inurba_marseille","lat":43.28156,"lon":5.42643,"is_reserved":false,"is_disabled":false,"rental_uris":{"android":"levelo://app?vid=bbc537e6-e67c-4244-8eb3-49f71f0b545e","ios":"levelo://app?vid=bbc537e6-e67c-4244-8eb3-49f71f0b545e"},"vehicle_type_id":"4","last_reported":1747307342,"current_range_meters":3200,"station_id":"ce4bhnh2rcd13ifvqgug","pricing_plan_id":"cebpf4jnsgd1na2vs0mg"},{"bike_id":"c668b725-6414-4867-8d5d-386c30dc2a28","system_id":"levelo_inurba_marseille","lat":43.29375,"lon":5.37833,"is_reserved":false,"is_disabled":false,"rental_uris":{"android":"levelo://app?vid=c668b725-6414-4867-8d5d-386c30dc2a28","ios":"levelo://app?vid=c668b725-6414-4867-8d5d-386c30dc2a28"},"vehicle_type_id":"4","last_reported":1747307342,"current_range_meters":3600,"station_id":"ce4bgjh2rcd13ifvqbf0","pricing_plan_id":"cebpf4jnsgd1na2vs0mg"},{"bike_id":"4317f692-2c2b-440a-aa19-d5978a422c28","system_id":"levelo_inurba_marseille","lat":43.26552,"lon":5.37282,"is_reserved":false,"is_disabled":false,"rental_uris":{"android":"levelo://app?vid=4317f692-2c2b-440a-aa19-d5978a422c28","ios":"levelo://app?vid=4317f692-2c2b-440a-aa19-d5978a422c28"},"vehicle_type_id":"4","last_reported":1747307342,"current_range_meters":4000,"station_id":"ce4bhg12rcd13ifvqf70","pricing_plan_id":"cebpf4jnsgd1na2vs0mg"},{"bike_id":"0303231a-44d3-46bc-914a-1fb5aa190fd8","system_id":"levelo_inurba_marseille","lat":43.32482,"lon":5.36571,"is_reserved":false,"is_disabled":false,"rental_uris":{"android":"levelo://app?vid=0303231a-44d3-46bc-914a-1fb5aa190fd8","ios":"levelo://app?vid=0303231a-44d3-46bc-914a-1fb5aa190fd8"},"vehicle_type_id":"4","last_reported":1747307342,"current_range_meters":4000,"station_id":"ce4bhs12rcd13ifvqhvg","pricing_plan_id":"cebpf4jnsgd1na2vs0mg"},{"bike_id":"a7f28c8f-4214-4206-8673-d1caaab4969c","system_id":"levelo_inurba_marseille","lat":43.30936,"lon":5.40145,"is_reserved":false,"is_disabled":false,"rental_uris":{"android":"levelo://app?vid=a7f28c8f-4214-4206-8673-d1caaab4969c","ios":"levelo://app?vid=a7f28c8f-4214-4206-8673-d1caaab4969c"},"vehicle_type_id":"4","last_reported":1747307342,"current_range_meters":4400,"station_id":"ce4bgvp2rcd13ifvqct0","pricing_plan_id":"cebpf4jnsgd1na2vs0mg"},{"bike_id":"26d327df-82ed-4957-b456-5a1ba43558e7","system_id":"levelo_inurba_marseille","lat":43.28349,"lon":5.38106,"is_reserved":false,"is_disabled":false,"rental_uris":{"android":"levelo://app?vid=26d327df-82ed-4957-b456-5a1ba43558e7","ios":"levelo://app?vid=26d327df-82ed-4957-b456-5a1ba43558e7"},"vehicle_type_id":"4","last_reported":1747307342,"current_range_meters":4400,"station_id":"ce4bh412rcd13ifvqdr0","pricing_plan_id":"cebpf4jnsgd1na2vs0mg"},{"bike_id":"86293160-1397-4bd4-bb89-7d7e9ae4b943","system_id":"levelo_inurba_marseille","lat":43.29307,"lon":5.37181,"is_reserved":false,"is_disabled":false,"rental_uris":{"android":"levelo://app?vid=86293160-1397-4bd4-bb89-7d7e9ae4b943","ios":"levelo://app?vid=86293160-1397-4bd4-bb89-7d7e9ae4b943"},"vehicle_type_id":"4","last_reported":1747307342,"current_range_meters":4800,"station_id":"ce4bgh92rcd13ifvqb40","pricing_plan_id":"cebpf4jnsgd1na2vs0mg"},{"bike_id":"71aa352f-8f6e-4ad3-890f-e5166944cf66","system_id":"levelo_inurba_marseille","lat":43.29293,"lon":5.3746,"is_reserved":false,"is_disabled":false,"rental_uris":{"android":"levelo://app?vid=71aa352f-8f6e-4ad3-890f-e5166944cf66","ios":"levelo://app?vid=71aa352f-8f6e-4ad3-890f-e5166944cf66"},"vehicle_type_id":"4","last_reported":1747307342,"current_range_meters":4800,"station_id":"ce4bgi12rcd13ifvqb70","pricing_plan_id":"cebpf4jnsgd1na2vs0mg"},{"bike_id":"9c8ffa9c-87de-44eb-bd8c-4c0c13c639f4","system_id":"levelo_inurba_marseille","lat":43.28477,"lon":5.38418,"is_reserved":false,"is_disabled":false,"rental_uris":{"android":"levelo://app?vid=9c8ffa9c-87de-44eb-bd8c-4c0c13c639f4","ios":"levelo://app?vid=9c8ffa9c-87de-44eb-bd8c-4c0c13c639f4"},"vehicle_type_id":"4","last_reported":1747307342,"current_range_meters":4800,"station_id":"ce4bh512rcd13ifvqe3g","pricing_plan_id":"cebpf4jnsgd1na2vs0mg"},{"bike_id":"06cd0760-578c-44e8-8768-0d2997d3a2a9","system_id":"levelo_inurba_marseille","lat":43.2802,"lon":5.36949,"is_reserved":false,"is_disabled":false,"rental_uris":{"android":"levelo://app?vid=06cd0760-578c-44e8-8768-0d2997d3a2a9","ios":"levelo://app?vid=06cd0760-578c-44e8-8768-0d2997d3a2a9"},"vehicle_type_id":"4","last_reported":1747307342,"current_range_meters":4800,"station_id":"ce4bha12rcd13ifvqef0","pricing_plan_id":"cebpf4jnsgd1na2vs0mg"},{"bike_id":"d5ddcfd4-cc60-4a84-bc76-55f25a231b05","system_id":"levelo_inurba_marseille","lat":43.26555,"lon":5.37285,"is_reserved":false,"is_disabled":false,"rental_uris":{"android":"levelo://app?vid=d5ddcfd4-cc60-4a84-bc76-55f25a231b05","ios":"levelo://app?vid=d5ddcfd4-cc60-4a84-bc76-55f25a231b05"},"vehicle_type_id":"4","last_reported":1747307342,"current_range_meters":5600,"station_id":"ce4bhg12rcd13ifvqf70","pricing_plan_id":"cebpf4jnsgd1na2vs0mg"},{"bike_id":"d53afe3d-1e06-4e50-9b2e-eab8ecbf1223","system_id":"levelo_inurba_marseille","lat":43.30467,"lon":5.37905,"is_reserved":false,"is_disabled":false,"rental_uris":{"android":"levelo://app?vid=d53afe3d-1e06-4e50-9b2e-eab8ecbf1223","ios":"levelo://app?vid=d53afe3d-1e06-4e50-9b2e-eab8ecbf1223"},"vehicle_type_id":"4","last_reported":1747307342,"current_range_meters":6000,"station_id":"ce4bgup2rcd13ifvqcn0","pricing_plan_id":"cebpf4jnsgd1na2vs0mg"},{"bike_id":"9e7078ac-69cd-4b22-9dbe-a0b45dfa0f48","system_id":"levelo_inurba_marseille","lat":43.29026,"lon":5.38651,"is_reserved":false,"is_disabled":false,"rental_uris":{"android":"levelo://app?vid=9e7078ac-69cd-4b22-9dbe-a0b45dfa0f48","ios":"levelo://app?vid=9e7078ac-69cd-4b22-9dbe-a0b45dfa0f48"},"vehicle_type_id":"4","last_reported":1747307342,"current_range_meters":6000,"station_id":"ce4bh4p2rcd13ifvqe0g","pricing_plan_id":"cebpf4jnsgd1na2vs0mg"},{"bike_id":"bee35244-ec95-4b3d-8fae-96abe913294a","system_id":"levelo_inurba_marseille","lat":43.28617,"lon":5.35105,"is_reserved":false,"is_disabled":false,"rental_uris":{"android":"levelo://app?vid=bee35244-ec95-4b3d-8fae-96abe913294a","ios":"levelo://app?vid=bee35244-ec95-4b3d-8fae-96abe913294a"},"vehicle_type_id":"4","last_reported":1747307342,"current_range_meters":6000,"station_id":"ce4bhch2rcd13ifvqeug","pricing_plan_id":"cebpf4jnsgd1na2vs0mg"},{"bike_id":"1f44b25d-4dfd-4348-8bed-14abd8e6a5f3","system_id":"levelo_inurba_marseille","lat":43.265513,"lon":5.372867,"is_reserved":false,"is_disabled":false,"rental_uris":{"android":"levelo://app?vid=1f44b25d-4dfd-4348-8bed-14abd8e6a5f3","ios":"levelo://app?vid=1f44b25d-4dfd-4348-8bed-14abd8e6a5f3"},"vehicle_type_id":"4","last_reported":1747307342,"current_range_meters":6000,"station_id":"ce4bhg12rcd13ifvqf70","pricing_plan_id":"cebpf4jnsgd1na2vs0mg"},{"bike_id":"2f4229ff-db69-4f02-a82a-6d6e0e47c85a","system_id":"levelo_inurba_marseille","lat":43.25111,"lon":5.40321,"is_reserved":false,"is_disabled":false,"rental_uris":{"android":"levelo://app?vid=2f4229ff-db69-4f02-a82a-6d6e0e47c85a","ios":"levelo://app?vid=2f4229ff-db69-4f02-a82a-6d6e0e47c85a"},"vehicle_type_id":"4","last_reported":1747307342,"current_range_meters":6000,"station_id":"ce4bhlh2rcd13ifvqgig","pricing_plan_id":"cebpf4jnsgd1na2vs0mg"},{"bike_id":"157c045f-79b2-4fc6-b5c6-11314caba77a","system_id":"levelo_inurba_marseille","lat":43.29622,"lon":5.37168,"is_reserved":false,"is_disabled":false,"rental_uris":{"android":"levelo://app?vid=157c045f-79b2-4fc6-b5c6-11314caba77a","ios":"levelo://app?vid=157c045f-79b2-4fc6-b5c6-11314caba77a"},"vehicle_type_id":"4","last_reported":1747307342,"current_range_meters":6400,"station_id":"ce4bgnh2rcd13ifvqc0g","pricing_plan_id":"cebpf4jnsgd1na2vs0mg"},{"bike_id":"23d1d55f-d815-4883-bfda-6e8be3046955","system_id":"levelo_inurba_marseille","lat":43.265849,"lon":5.390093,"is_reserved":false,"is_disabled":false,"rental_uris":{"android":"levelo://app?vid=23d1d55f-d815-4883-bfda-6e8be3046955","ios":"levelo://app?vid=23d1d55f-d815-4883-bfda-6e8be3046955"},"vehicle_type_id":"4","last_reported":1747307342,"current_range_meters":6400,"station_id":"ce4bhe12rcd13ifvqf30","pricing_plan_id":"cebpf4jnsgd1na2vs0mg"},{"bike_id":"6819c3ed-f4b1-45a0-bf21-5edcaf5092c3","system_id":"levelo_inurba_marseille","lat":43.24068,"lon":5.37768,"is_reserved":false,"is_disabled":false,"rental_uris":{"android":"levelo://app?vid=6819c3ed-f4b1-45a0-bf21-5edcaf5092c3","ios":"levelo://app?vid=6819c3ed-f4b1-45a0-bf21-5edcaf5092c3"},"vehicle_type_id":"4","last_reported":1747307342,"current_range_meters":6400,"station_id":"ce4bhnp2rcd13ifvqgvg","pricing_plan_id":"cebpf4jnsgd1na2vs0mg"},{"bike_id":"211b711a-f507-4285-b753-3294b2be4b8f","system_id":"levelo_inurba_marseille","lat":43.31714,"lon":5.37743,"is_reserved":false,"is_disabled":false,"rental_uris":{"android":"levelo://app?vid=211b711a-f507-4285-b753-3294b2be4b8f","ios":"levelo://app?vid=211b711a-f507-4285-b753-3294b2be4b8f"},"vehicle_type_id":"4","last_reported":1747307342,"current_range_meters":6800,"station_id":"ce4bgth2rcd13ifvqch0","pricing_plan_id":"cebpf4jnsgd1na2vs0mg"},{"bike_id":"5aab301f-ea10-4597-9d7d-2739153608b9","system_id":"levelo_inurba_marseille","lat":43.31684,"lon":5.40471,"is_reserved":false,"is_disabled":false,"rental_uris":{"android":"levelo://app?vid=5aab301f-ea10-4597-9d7d-2739153608b9","ios":"levelo://app?vid=5aab301f-ea10-4597-9d7d-2739153608b9"},"vehicle_type_id":"4","last_reported":1747307342,"current_range_meters":6800,"station_id":"ce4bh012rcd13ifvqd00","pricing_plan_id":"cebpf4jnsgd1na2vs0mg"},{"bike_id":"228fc470-6da2-4d42-8bc1-27aea0db3958","system_id":"levelo_inurba_marseille","lat":43.28617,"lon":5.35107,"is_reserved":false,"is_disabled":false,"rental_uris":{"android":"levelo://app?vid=228fc470-6da2-4d42-8bc1-27aea0db3958","ios":"levelo://app?vid=228fc470-6da2-4d42-8bc1-27aea0db3958"},"vehicle_type_id":"4","last_reported":1747307342,"current_range_meters":6800,"station_id":"ce4bhch2rcd13ifvqeug","pricing_plan_id":"cebpf4jnsgd1na2vs0mg"},{"bike_id":"7e20e75b-57f3-41b2-bc41-2d338e2b8b55","system_id":"levelo_inurba_marseille","lat":43.27057,"lon":5.40273,"is_reserved":false,"is_disabled":false,"rental_uris":{"android":"levelo://app?vid=7e20e75b-57f3-41b2-bc41-2d338e2b8b55","ios":"levelo://app?vid=7e20e75b-57f3-41b2-bc41-2d338e2b8b55"},"vehicle_type_id":"4","last_reported":1747307342,"current_range_meters":6800,"station_id":"ce4bhk92rcd13ifvqgc0","pricing_plan_id":"cebpf4jnsgd1na2vs0mg"},{"bike_id":"fdc5feaa-667f-4558-92a9-a87cfe586bf8","system_id":"levelo_inurba_marseille","lat":43.217473,"lon":5.345993,"is_reserved":false,"is_disabled":false,"rental_uris":{"android":"levelo://app?vid=fdc5feaa-667f-4558-92a9-a87cfe586bf8","ios":"levelo://app?vid=fdc5feaa-667f-4558-92a9-a87cfe586bf8"},"vehicle_type_id":"4","last_reported":1747307342,"current_range_meters":6800,"station_id":"cpo3342slgdg3j2ifvpg","pricing_plan_id":"cebpf4jnsgd1na2vs0mg"},{"bike_id":"6c5b0a02-83f2-4133-b836-57d2b18b1029","system_id":"levelo_inurba_marseille","lat":43.29539,"lon":5.39407,"is_reserved":false,"is_disabled":false,"rental_uris":{"android":"levelo://app?vid=6c5b0a02-83f2-4133-b836-57d2b18b1029","ios":"levelo://app?vid=6c5b0a02-83f2-4133-b836-57d2b18b1029"},"vehicle_type_id":"4","last_reported":1747307342,"current_range_meters":7200,"station_id":"ce4bh292rcd13ifvqdf0","pricing_plan_id":"cebpf4jnsgd1na2vs0mg"},{"bike_id":"e5f3be07-ee55-47c0-a064-813d3152fd26","system_id":"levelo_inurba_marseille","lat":43.23142,"lon":5.437,"is_reserved":false,"is_disabled":false,"rental_uris":{"android":"levelo://app?vid=e5f3be07-ee55-47c0-a064-813d3152fd26","ios":"levelo://app?vid=e5f3be07-ee55-47c0-a064-813d3152fd26"},"vehicle_type_id":"4","last_reported":1747307342,"current_range_meters":7200,"station_id":"ce4bhmp2rcd13ifvqgog","pricing_plan_id":"cebpf4jnsgd1na2vs0mg"},{"bike_id":"094c4808-776d-4b66-af3a-cf29dfc94970","system_id":"levelo_inurba_marseille","lat":43.2656,"lon":5.37269,"is_reserved":false,"is_disabled":false,"rental_uris":{"android":"levelo://app?vid=094c4808-776d-4b66-af3a-cf29dfc94970","ios":"levelo://app?vid=094c4808-776d-4b66-af3a-cf29dfc94970"},"vehicle_type_id":"4","last_reported":1747307342,"current_range_meters":8000,"station_id":"ce4bhg12rcd13ifvqf70","pricing_plan_id":"cebpf4jnsgd1na2vs0mg"},{"bike_id":"434a812c-1fba-42ba-9078-b039d5d12d98","system_id":"levelo_inurba_marseille","lat":43.26209,"lon":5.37444,"is_reserved":false,"is_disabled":false,"rental_uris":{"android":"levelo://app?vid=434a812c-1fba-42ba-9078-b039d5d12d98","ios":"levelo://app?vid=434a812c-1fba-42ba-9078-b039d5d12d98"},"vehicle_type_id":"4","last_reported":1747307342,"current_range_meters":8000,"station_id":"ce4bhgp2rcd13ifvqfc0","pricing_plan_id":"cebpf4jnsgd1na2vs0mg"},{"bike_id":"f85c526c-715a-4148-abdd-2552b420c2c6","system_id":"levelo_inurba_marseille","lat":43.2558,"lon":5.38234,"is_reserved":false,"is_disabled":false,"rental_uris":{"android":"levelo://app?vid=f85c526c-715a-4148-abdd-2552b420c2c6","ios":"levelo://app?vid=f85c526c-715a-4148-abdd-2552b420c2c6"},"vehicle_type_id":"4","last_reported":1747307342,"current_range_meters":8000,"station_id":"ce4bhih2rcd13ifvqfs0","pricing_plan_id":"cebpf4jnsgd1na2vs0mg"},{"bike_id":"52d1638d-c01c-4b93-af74-56246a94d3de","system_id":"levelo_inurba_marseille","lat":43.27073,"lon":5.42274,"is_reserved":false,"is_disabled":false,"rental_uris":{"android":"levelo://app?vid=52d1638d-c01c-4b93-af74-56246a94d3de","ios":"levelo://app?vid=52d1638d-c01c-4b93-af74-56246a94d3de"},"vehicle_type_id":"4","last_reported":1747307342,"current_range_meters":8000,"station_id":"ce4bhk92rcd13ifvqgb0","pricing_plan_id":"cebpf4jnsgd1na2vs0mg"},{"bike_id":"3faf053c-e846-4d83-83ee-8fd51efc38bb","system_id":"levelo_inurba_marseille","lat":43.321084,"lon":5.367766,"is_reserved":false,"is_disabled":false,"rental_uris":{"android":"levelo://app?vid=3faf053c-e846-4d83-83ee-8fd51efc38bb","ios":"levelo://app?vid=3faf053c-e846-4d83-83ee-8fd51efc38bb"},"vehicle_type_id":"4","last_reported":1747307342,"current_range_meters":8000,"station_id":"ce4bhrh2rcd13ifvqhug","pricing_plan_id":"cebpf4jnsgd1na2vs0mg"},{"bike_id":"f5de42f5-eda6-4b1b-8c07-b54f144d4904","system_id":"levelo_inurba_marseille","lat":43.3095,"lon":5.39039,"is_reserved":false,"is_disabled":false,"rental_uris":{"android":"levelo://app?vid=f5de42f5-eda6-4b1b-8c07-b54f144d4904","ios":"levelo://app?vid=f5de42f5-eda6-4b1b-8c07-b54f144d4904"},"vehicle_type_id":"4","last_reported":1747307342,"current_range_meters":8400,"station_id":"ce4bgup2rcd13ifvqco0","pricing_plan_id":"cebpf4jnsgd1na2vs0mg"},{"bike_id":"569176bd-df12-457b-b3ff-0bf46d05c358","system_id":"levelo_inurba_marseille","lat":43.30249,"lon":5.40055,"is_reserved":false,"is_disabled":false,"rental_uris":{"android":"levelo://app?vid=569176bd-df12-457b-b3ff-0bf46d05c358","ios":"levelo://app?vid=569176bd-df12-457b-b3ff-0bf46d05c358"},"vehicle_type_id":"4","last_reported":1747307342,"current_range_meters":8400,"station_id":"ce4bgvh2rcd13ifvqcs0","pricing_plan_id":"cebpf4jnsgd1na2vs0mg"},{"bike_id":"73174a1e-b779-4402-b8c8-f72bd450c25f","system_id":"levelo_inurba_marseille","lat":43.26557,"lon":5.37284,"is_reserved":false,"is_disabled":false,"rental_uris":{"android":"levelo://app?vid=73174a1e-b779-4402-b8c8-f72bd450c25f","ios":"levelo://app?vid=73174a1e-b779-4402-b8c8-f72bd450c25f"},"vehicle_type_id":"4","last_reported":1747307342,"current_range_meters":8400,"station_id":"ce4bhg12rcd13ifvqf70","pricing_plan_id":"cebpf4jnsgd1na2vs0mg"},{"bike_id":"35783b03-67b6-4df8-98b6-bec94665b3c9","system_id":"levelo_inurba_marseille","lat":43.23146,"lon":5.43718,"is_reserved":false,"is_disabled":false,"rental_uris":{"android":"levelo://app?vid=35783b03-67b6-4df8-98b6-bec94665b3c9","ios":"levelo://app?vid=35783b03-67b6-4df8-98b6-bec94665b3c9"},"vehicle_type_id":"4","last_reported":1747307342,"current_range_meters":8400,"station_id":"ce4bhmp2rcd13ifvqgog","pricing_plan_id":"cebpf4jnsgd1na2vs0mg"},{"bike_id":"9bbbecbc-3d43-45fe-b6c5-9cd4090b1886","system_id":"levelo_inurba_marseille","lat":43.27999,"lon":5.40008,"is_reserved":false,"is_disabled":false,"rental_uris":{"android":"levelo://app?vid=9bbbecbc-3d43-45fe-b6c5-9cd4090b1886","ios":"levelo://app?vid=9bbbecbc-3d43-45fe-b6c5-9cd4090b1886"},"vehicle_type_id":"4","last_reported":1747307342,"current_range_meters":8400,"station_id":"ce4bho92rcd13ifvqh4g","pricing_plan_id":"cebpf4jnsgd1na2vs0mg"},{"bike_id":"e3faef6f-635a-4b6b-b2b3-c0b918604df6","system_id":"levelo_inurba_marseille","lat":43.29915,"lon":5.43637,"is_reserved":false,"is_disabled":false,"rental_uris":{"android":"levelo://app?vid=e3faef6f-635a-4b6b-b2b3-c0b918604df6","ios":"levelo://app?vid=e3faef6f-635a-4b6b-b2b3-c0b918604df6"},"vehicle_type_id":"4","last_reported":1747307342,"current_range_meters":8400,"station_id":"ce4bhpp2rcd13ifvqhfg","pricing_plan_id":"cebpf4jnsgd1na2vs0mg"},{"bike_id":"bfdf8ff7-d71a-4e1a-8060-9c15c5cddb25","system_id":"levelo_inurba_marseille","lat":43.24802,"lon":5.37456,"is_reserved":false,"is_disabled":false,"rental_uris":{"android":"levelo://app?vid=bfdf8ff7-d71a-4e1a-8060-9c15c5cddb25","ios":"levelo://app?vid=bfdf8ff7-d71a-4e1a-8060-9c15c5cddb25"},"vehicle_type_id":"4","last_reported":1747307342,"current_range_meters":8800,"station_id":"ce4bhgh2rcd13ifvqfb0","pricing_plan_id":"cebpf4jnsgd1na2vs0mg"},{"bike_id":"6edf026e-5385-442d-a860-6f284d260fb7","system_id":"levelo_inurba_marseille","lat":43.28719,"lon":5.3608,"is_reserved":false,"is_disabled":false,"rental_uris":{"android":"levelo://app?vid=6edf026e-5385-442d-a860-6f284d260fb7","ios":"levelo://app?vid=6edf026e-5385-442d-a860-6f284d260fb7"},"vehicle_type_id":"4","last_reported":1747307342,"current_range_meters":8800,"station_id":"cki0cbj6b192h4jlfktg","pricing_plan_id":"cebpf4jnsgd1na2vs0mg"},{"bike_id":"9f22b8aa-a9ca-4a2c-ab0b-0a0b10dbe182","system_id":"levelo_inurba_marseille","lat":43.32435,"lon":5.36528,"is_reserved":false,"is_disabled":false,"rental_uris":{"android":"levelo://app?vid=9f22b8aa-a9ca-4a2c-ab0b-0a0b10dbe182","ios":"levelo://app?vid=9f22b8aa-a9ca-4a2c-ab0b-0a0b10dbe182"},"vehicle_type_id":"4","last_reported":1747307342,"current_range_meters":9200,"station_id":"ce4bhs12rcd13ifvqhvg","pricing_plan_id":"cebpf4jnsgd1na2vs0mg"},{"bike_id":"e53c7f18-60cf-4219-9ac8-4254c2f9fe68","system_id":"levelo_inurba_marseille","lat":43.31225,"lon":5.36849,"is_reserved":false,"is_disabled":false,"rental_uris":{"android":"levelo://app?vid=e53c7f18-60cf-4219-9ac8-4254c2f9fe68","ios":"levelo://app?vid=e53c7f18-60cf-4219-9ac8-4254c2f9fe68"},"vehicle_type_id":"4","last_reported":1747307342,"current_range_meters":9600,"station_id":"ce4bgl92rcd13ifvqbq0","pricing_plan_id":"cebpf4jnsgd1na2vs0mg"},{"bike_id":"bd616275-4295-402b-8369-af50dfe3d3e9","system_id":"levelo_inurba_marseille","lat":43.278373,"lon":5.392113,"is_reserved":false,"is_disabled":false,"rental_uris":{"android":"levelo://app?vid=bd616275-4295-402b-8369-af50dfe3d3e9","ios":"levelo://app?vid=bd616275-4295-402b-8369-af50dfe3d3e9"},"vehicle_type_id":"4","last_reported":1747307342,"current_range_meters":9600,"station_id":"ce4bh512rcd13ifvqe3g","pricing_plan_id":"cebpf4jnsgd1na2vs0mg"},{"bike_id":"c68022f0-7be7-4dde-9a51-7a59aed68b2d","system_id":"levelo_inurba_marseille","lat":43.23148,"lon":5.43718,"is_reserved":false,"is_disabled":false,"rental_uris":{"android":"levelo://app?vid=c68022f0-7be7-4dde-9a51-7a59aed68b2d","ios":"levelo://app?vid=c68022f0-7be7-4dde-9a51-7a59aed68b2d"},"vehicle_type_id":"4","last_reported":1747307342,"current_range_meters":9600,"station_id":"ce4bhmp2rcd13ifvqgog","pricing_plan_id":"cebpf4jnsgd1na2vs0mg"},{"bike_id":"17d57f58-ffb0-4d77-bbe5-7f462887ac74","system_id":"levelo_inurba_marseille","lat":43.241783,"lon":5.397138,"is_reserved":false,"is_disabled":false,"rental_uris":{"android":"levelo://app?vid=17d57f58-ffb0-4d77-bbe5-7f462887ac74","ios":"levelo://app?vid=17d57f58-ffb0-4d77-bbe5-7f462887ac74"},"vehicle_type_id":"4","last_reported":1747307342,"current_range_meters":9600,"station_id":"ce4bhn12rcd13ifvqgpg","pricing_plan_id":"cebpf4jnsgd1na2vs0mg"},{"bike_id":"7cad8bbf-afe9-4767-8543-3e633fd367b9","system_id":"levelo_inurba_marseille","lat":43.27818,"lon":5.40701,"is_reserved":false,"is_disabled":false,"rental_uris":{"android":"levelo://app?vid=7cad8bbf-afe9-4767-8543-3e633fd367b9","ios":"levelo://app?vid=7cad8bbf-afe9-4767-8543-3e633fd367b9"},"vehicle_type_id":"4","last_reported":1747307342,"current_range_meters":9600,"station_id":"ce4bhnh2rcd13ifvqgtg","pricing_plan_id":"cebpf4jnsgd1na2vs0mg"},{"bike_id":"a5ff2824-5e27-4fa5-8478-6d07a4dab298","system_id":"levelo_inurba_marseille","lat":43.29578,"lon":5.36738,"is_reserved":false,"is_disabled":false,"rental_uris":{"android":"levelo://app?vid=a5ff2824-5e27-4fa5-8478-6d07a4dab298","ios":"levelo://app?vid=a5ff2824-5e27-4fa5-8478-6d07a4dab298"},"vehicle_type_id":"4","last_reported":1747307342,"current_range_meters":10000,"station_id":"ce4bgph2rcd13ifvqc2g","pricing_plan_id":"cebpf4jnsgd1na2vs0mg"},{"bike_id":"784e5f00-54de-49f3-8c75-c6c300ece7fd","system_id":"levelo_inurba_marseille","lat":43.31118,"lon":5.37762,"is_reserved":false,"is_disabled":false,"rental_uris":{"android":"levelo://app?vid=784e5f00-54de-49f3-8c75-c6c300ece7fd","ios":"levelo://app?vid=784e5f00-54de-49f3-8c75-c6c300ece7fd"},"vehicle_type_id":"4","last_reported":1747307342,"current_range_meters":10000,"station_id":"ce4bgt92rcd13ifvqcg0","pricing_plan_id":"cebpf4jnsgd1na2vs0mg"},{"bike_id":"52ac7e71-7eae-4ec0-9676-f9b4de92d3c2","system_id":"levelo_inurba_marseille","lat":43.290125,"lon":5.381326,"is_reserved":false,"is_disabled":false,"rental_uris":{"android":"levelo://app?vid=52ac7e71-7eae-4ec0-9676-f9b4de92d3c2","ios":"levelo://app?vid=52ac7e71-7eae-4ec0-9676-f9b4de92d3c2"},"vehicle_type_id":"4","last_reported":1747307342,"current_range_meters":10000,"station_id":"ce4bh4p2rcd13ifvqe1g","pricing_plan_id":"cebpf4jnsgd1na2vs0mg"},{"bike_id":"f141b136-aadf-4a94-923e-4b198f8dbce8","system_id":"levelo_inurba_marseille","lat":43.26228,"lon":5.40452,"is_reserved":false,"is_disabled":false,"rental_uris":{"android":"levelo://app?vid=f141b136-aadf-4a94-923e-4b198f8dbce8","ios":"levelo://app?vid=f141b136-aadf-4a94-923e-4b198f8dbce8"},"vehicle_type_id":"4","last_reported":1747307342,"current_range_meters":10000,"station_id":"ce4bhmh2rcd13ifvqgmg","pricing_plan_id":"cebpf4jnsgd1na2vs0mg"},{"bike_id":"ecff8b47-fbe1-4c2b-8281-da5a048230ac","system_id":"levelo_inurba_marseille","lat":43.27807,"lon":5.40708,"is_reserved":false,"is_disabled":false,"rental_uris":{"android":"levelo://app?vid=ecff8b47-fbe1-4c2b-8281-da5a048230ac","ios":"levelo://app?vid=ecff8b47-fbe1-4c2b-8281-da5a048230ac"},"vehicle_type_id":"4","last_reported":1747307342,"current_range_meters":10800,"station_id":"ce4bhnh2rcd13ifvqgtg","pricing_plan_id":"cebpf4jnsgd1na2vs0mg"},{"bike_id":"fd897167-c18c-4147-a0c6-cffa04c630c1","system_id":"levelo_inurba_marseille","lat":43.27939,"lon":5.41049,"is_reserved":false,"is_disabled":false,"rental_uris":{"android":"levelo://app?vid=fd897167-c18c-4147-a0c6-cffa04c630c1","ios":"levelo://app?vid=fd897167-c18c-4147-a0c6-cffa04c630c1"},"vehicle_type_id":"4","last_reported":1747307342,"current_range_meters":10800,"station_id":"ce4bhnp2rcd13ifvqh0g","pricing_plan_id":"cebpf4jnsgd1na2vs0mg"},{"bike_id":"8c7308bf-84fd-4edb-9b86-07fbeaf5e51b","system_id":"levelo_inurba_marseille","lat":43.31737,"lon":5.42387,"is_reserved":false,"is_disabled":false,"rental_uris":{"android":"levelo://app?vid=8c7308bf-84fd-4edb-9b86-07fbeaf5e51b","ios":"levelo://app?vid=8c7308bf-84fd-4edb-9b86-07fbeaf5e51b"},"vehicle_type_id":"4","last_reported":1747307342,"current_range_meters":10800,"station_id":"ce4bhp92rcd13ifvqhbg","pricing_plan_id":"cebpf4jnsgd1na2vs0mg"},{"bike_id":"bbfd3c35-ddaa-44e6-9cb1-c430263d73d9","system_id":"levelo_inurba_marseille","lat":43.26552,"lon":5.37285,"is_reserved":false,"is_disabled":false,"rental_uris":{"android":"levelo://app?vid=bbfd3c35-ddaa-44e6-9cb1-c430263d73d9","ios":"levelo://app?vid=bbfd3c35-ddaa-44e6-9cb1-c430263d73d9"},"vehicle_type_id":"4","last_reported":1747307342,"current_range_meters":11600,"station_id":"ce4bhg12rcd13ifvqf70","pricing_plan_id":"cebpf4jnsgd1na2vs0mg"},{"bike_id":"a6083d34-e66a-4824-b164-ef0a4090c517","system_id":"levelo_inurba_marseille","lat":43.26555,"lon":5.37284,"is_reserved":false,"is_disabled":false,"rental_uris":{"android":"levelo://app?vid=a6083d34-e66a-4824-b164-ef0a4090c517","ios":"levelo://app?vid=a6083d34-e66a-4824-b164-ef0a4090c517"},"vehicle_type_id":"4","last_reported":1747307342,"current_range_meters":11600,"station_id":"ce4bhg12rcd13ifvqf70","pricing_plan_id":"cebpf4jnsgd1na2vs0mg"},{"bike_id":"cb8b7059-8a42-4571-9d84-7a35fb676251","system_id":"levelo_inurba_marseille","lat":43.26212,"lon":5.40462,"is_reserved":false,"is_disabled":false,"rental_uris":{"android":"levelo://app?vid=cb8b7059-8a42-4571-9d84-7a35fb676251","ios":"levelo://app?vid=cb8b7059-8a42-4571-9d84-7a35fb676251"},"vehicle_type_id":"4","last_reported":1747307342,"current_range_meters":11600,"station_id":"ce4bhmh2rcd13ifvqgmg","pricing_plan_id":"cebpf4jnsgd1na2vs0mg"},{"bike_id":"0d44d20c-5476-4809-b039-e90373358771","system_id":"levelo_inurba_marseille","lat":43.27491,"lon":5.42454,"is_reserved":false,"is_disabled":false,"rental_uris":{"android":"levelo://app?vid=0d44d20c-5476-4809-b039-e90373358771","ios":"levelo://app?vid=0d44d20c-5476-4809-b039-e90373358771"},"vehicle_type_id":"4","last_reported":1747307342,"current_range_meters":11600,"station_id":"ce4bhn92rcd13ifvqgrg","pricing_plan_id":"cebpf4jnsgd1na2vs0mg"},{"bike_id":"3d865944-f7af-4aae-a63d-adb45bcbc2d1","system_id":"levelo_inurba_marseille","lat":43.29551,"lon":5.42294,"is_reserved":false,"is_disabled":false,"rental_uris":{"android":"levelo://app?vid=3d865944-f7af-4aae-a63d-adb45bcbc2d1","ios":"levelo://app?vid=3d865944-f7af-4aae-a63d-adb45bcbc2d1"},"vehicle_type_id":"4","last_reported":1747307342,"current_range_meters":11600,"station_id":"ce4bhph2rcd13ifvqhdg","pricing_plan_id":"cebpf4jnsgd1na2vs0mg"},{"bike_id":"cc377332-c824-4cf8-bc9d-97d1852f3692","system_id":"levelo_inurba_marseille","lat":43.31688,"lon":5.40484,"is_reserved":false,"is_disabled":false,"rental_uris":{"android":"levelo://app?vid=cc377332-c824-4cf8-bc9d-97d1852f3692","ios":"levelo://app?vid=cc377332-c824-4cf8-bc9d-97d1852f3692"},"vehicle_type_id":"4","last_reported":1747307342,"current_range_meters":12000,"station_id":"ce4bh012rcd13ifvqd00","pricing_plan_id":"cebpf4jnsgd1na2vs0mg"},{"bike_id":"44725134-8302-4d7e-acb7-14afe0e26143","system_id":"levelo_inurba_marseille","lat":43.29017,"lon":5.38123,"is_reserved":false,"is_disabled":false,"rental_uris":{"android":"levelo://app?vid=44725134-8302-4d7e-acb7-14afe0e26143","ios":"levelo://app?vid=44725134-8302-4d7e-acb7-14afe0e26143"},"vehicle_type_id":"4","last_reported":1747307342,"current_range_meters":12000,"station_id":"ce4bh4p2rcd13ifvqe1g","pricing_plan_id":"cebpf4jnsgd1na2vs0mg"},{"bike_id":"da0c4fad-78e4-4017-9c8d-6f6509cc04e9","system_id":"levelo_inurba_marseille","lat":43.246552,"lon":5.381659,"is_reserved":false,"is_disabled":false,"rental_uris":{"android":"levelo://app?vid=da0c4fad-78e4-4017-9c8d-6f6509cc04e9","ios":"levelo://app?vid=da0c4fad-78e4-4017-9c8d-6f6509cc04e9"},"vehicle_type_id":"4","last_reported":1747307342,"current_range_meters":12000,"station_id":"ce4bho92rcd13ifvqh4g","pricing_plan_id":"cebpf4jnsgd1na2vs0mg"},{"bike_id":"e0cee8cc-6f19-45b7-9404-5da0172c0995","system_id":"levelo_inurba_marseille","lat":43.28,"lon":5.40009,"is_reserved":false,"is_disabled":false,"rental_uris":{"android":"levelo://app?vid=e0cee8cc-6f19-45b7-9404-5da0172c0995","ios":"levelo://app?vid=e0cee8cc-6f19-45b7-9404-5da0172c0995"},"vehicle_type_id":"4","last_reported":1747307342,"current_range_meters":12000,"station_id":"ce4bho92rcd13ifvqh4g","pricing_plan_id":"cebpf4jnsgd1na2vs0mg"},{"bike_id":"c6189e18-759c-4af5-af82-4c210291bdab","system_id":"levelo_inurba_marseille","lat":43.32107,"lon":5.36762,"is_reserved":false,"is_disabled":false,"rental_uris":{"android":"levelo://app?vid=c6189e18-759c-4af5-af82-4c210291bdab","ios":"levelo://app?vid=c6189e18-759c-4af5-af82-4c210291bdab"},"vehicle_type_id":"4","last_reported":1747307342,"current_range_meters":12000,"station_id":"ce4bhrh2rcd13ifvqhug","pricing_plan_id":"cebpf4jnsgd1na2vs0mg"},{"bike_id":"f7b25ce1-a89d-4c0c-8bc4-c0f867e52f74","system_id":"levelo_inurba_marseille","lat":43.265583,"lon":5.372828,"is_reserved":false,"is_disabled":false,"rental_uris":{"android":"levelo://app?vid=f7b25ce1-a89d-4c0c-8bc4-c0f867e52f74","ios":"levelo://app?vid=f7b25ce1-a89d-4c0c-8bc4-c0f867e52f74"},"vehicle_type_id":"4","last_reported":1747307342,"current_range_meters":12400,"station_id":"ce4bhg12rcd13ifvqf70","pricing_plan_id":"cebpf4jnsgd1na2vs0mg"},{"bike_id":"94425245-09df-4108-9a30-610dbcaf2585","system_id":"levelo_inurba_marseille","lat":43.317221,"lon":5.423937,"is_reserved":false,"is_disabled":false,"rental_uris":{"android":"levelo://app?vid=94425245-09df-4108-9a30-610dbcaf2585","ios":"levelo://app?vid=94425245-09df-4108-9a30-610dbcaf2585"},"vehicle_type_id":"4","last_reported":1747307342,"current_range_meters":12400,"station_id":"ce4bhp92rcd13ifvqhbg","pricing_plan_id":"cebpf4jnsgd1na2vs0mg"},{"bike_id":"57d5ec4b-e6e1-4a93-b415-2609c05b2387","system_id":"levelo_inurba_marseille","lat":43.30951,"lon":5.39026,"is_reserved":false,"is_disabled":false,"rental_uris":{"android":"levelo://app?vid=57d5ec4b-e6e1-4a93-b415-2609c05b2387","ios":"levelo://app?vid=57d5ec4b-e6e1-4a93-b415-2609c05b2387"},"vehicle_type_id":"4","last_reported":1747307342,"current_range_meters":12800,"station_id":"ce4bgup2rcd13ifvqco0","pricing_plan_id":"cebpf4jnsgd1na2vs0mg"},{"bike_id":"47a03204-ae48-4995-ae88-a1ce542b4144","system_id":"levelo_inurba_marseille","lat":43.29553,"lon":5.42278,"is_reserved":false,"is_disabled":false,"rental_uris":{"android":"levelo://app?vid=47a03204-ae48-4995-ae88-a1ce542b4144","ios":"levelo://app?vid=47a03204-ae48-4995-ae88-a1ce542b4144"},"vehicle_type_id":"4","last_reported":1747307342,"current_range_meters":12800,"station_id":"ce4bhph2rcd13ifvqhdg","pricing_plan_id":"cebpf4jnsgd1na2vs0mg"},{"bike_id":"8add6c6a-07e5-4ed5-a3ff-f03ff2661930","system_id":"levelo_inurba_marseille","lat":43.29557,"lon":5.42289,"is_reserved":false,"is_disabled":false,"rental_uris":{"android":"levelo://app?vid=8add6c6a-07e5-4ed5-a3ff-f03ff2661930","ios":"levelo://app?vid=8add6c6a-07e5-4ed5-a3ff-f03ff2661930"},"vehicle_type_id":"4","last_reported":1747307342,"current_range_meters":12800,"station_id":"ce4bhph2rcd13ifvqhdg","pricing_plan_id":"cebpf4jnsgd1na2vs0mg"},{"bike_id":"e2d5d4b6-55d1-4cd6-bafe-fd4265604c3a","system_id":"levelo_inurba_marseille","lat":43.23193,"lon":5.35554,"is_reserved":false,"is_disabled":false,"rental_uris":{"android":"levelo://app?vid=e2d5d4b6-55d1-4cd6-bafe-fd4265604c3a","ios":"levelo://app?vid=e2d5d4b6-55d1-4cd6-bafe-fd4265604c3a"},"vehicle_type_id":"4","last_reported":1747307342,"current_range_meters":12800,"station_id":"ce4bhu92rcd13ifvqi70","pricing_plan_id":"cebpf4jnsgd1na2vs0mg"},{"bike_id":"96ed4d0b-cd01-433d-88f9-3f669467e66d","system_id":"levelo_inurba_marseille","lat":43.29528,"lon":5.38537,"is_reserved":false,"is_disabled":false,"rental_uris":{"android":"levelo://app?vid=96ed4d0b-cd01-433d-88f9-3f669467e66d","ios":"levelo://app?vid=96ed4d0b-cd01-433d-88f9-3f669467e66d"},"vehicle_type_id":"4","last_reported":1747307342,"current_range_meters":14000,"station_id":"ce4bgih2rcd13ifvqba0","pricing_plan_id":"cebpf4jnsgd1na2vs0mg"},{"bike_id":"e52494ed-992f-4886-99d5-0a13de980004","system_id":"levelo_inurba_marseille","lat":43.28413,"lon":5.34987,"is_reserved":false,"is_disabled":false,"rental_uris":{"android":"levelo://app?vid=e52494ed-992f-4886-99d5-0a13de980004","ios":"levelo://app?vid=e52494ed-992f-4886-99d5-0a13de980004"},"vehicle_type_id":"4","last_reported":1747307342,"current_range_meters":14000,"station_id":"ce4bhbh2rcd13ifvqepg","pricing_plan_id":"cebpf4jnsgd1na2vs0mg"},{"bike_id":"dc643886-ab96-41da-96d1-bd674f19bfdb","system_id":"levelo_inurba_marseille","lat":43.28613,"lon":5.35101,"is_reserved":false,"is_disabled":false,"rental_uris":{"android":"levelo://app?vid=dc643886-ab96-41da-96d1-bd674f19bfdb","ios":"levelo://app?vid=dc643886-ab96-41da-96d1-bd674f19bfdb"},"vehicle_type_id":"4","last_reported":1747307342,"current_range_meters":14000,"station_id":"ce4bhch2rcd13ifvqeug","pricing_plan_id":"cebpf4jnsgd1na2vs0mg"},{"bike_id":"d972fdaf-a4c2-405d-8ff5-b86f5598c0e4","system_id":"levelo_inurba_marseille","lat":43.27997,"lon":5.41655,"is_reserved":false,"is_disabled":false,"rental_uris":{"android":"levelo://app?vid=d972fdaf-a4c2-405d-8ff5-b86f5598c0e4","ios":"levelo://app?vid=d972fdaf-a4c2-405d-8ff5-b86f5598c0e4"},"vehicle_type_id":"4","last_reported":1747307342,"current_range_meters":14000,"station_id":"ce4bho12rcd13ifvqh1g","pricing_plan_id":"cebpf4jnsgd1na2vs0mg"},{"bike_id":"3d56f7f4-d7d5-464c-9aae-bea466f318b2","system_id":"levelo_inurba_marseille","lat":43.3035,"lon":5.41879,"is_reserved":false,"is_disabled":false,"rental_uris":{"android":"levelo://app?vid=3d56f7f4-d7d5-464c-9aae-bea466f318b2","ios":"levelo://app?vid=3d56f7f4-d7d5-464c-9aae-bea466f318b2"},"vehicle_type_id":"4","last_reported":1747307342,"current_range_meters":14000,"station_id":"ce4bhop2rcd13ifvqh7g","pricing_plan_id":"cebpf4jnsgd1na2vs0mg"},{"bike_id":"041df7e8-bb22-47b0-8bc9-fe054aa37353","system_id":"levelo_inurba_marseille","lat":43.30313,"lon":5.36894,"is_reserved":false,"is_disabled":false,"rental_uris":{"android":"levelo://app?vid=041df7e8-bb22-47b0-8bc9-fe054aa37353","ios":"levelo://app?vid=041df7e8-bb22-47b0-8bc9-fe054aa37353"},"vehicle_type_id":"4","last_reported":1747307342,"current_range_meters":14400,"station_id":"ce4bgqh2rcd13ifvqc5g","pricing_plan_id":"cebpf4jnsgd1na2vs0mg"},{"bike_id":"171ce8a6-31ae-4e85-8134-c147a28834f6","system_id":"levelo_inurba_marseille","lat":43.29169,"lon":5.37162,"is_reserved":false,"is_disabled":false,"rental_uris":{"android":"levelo://app?vid=171ce8a6-31ae-4e85-8134-c147a28834f6","ios":"levelo://app?vid=171ce8a6-31ae-4e85-8134-c147a28834f6"},"vehicle_type_id":"4","last_reported":1747307342,"current_range_meters":14400,"station_id":"ce4bha92rcd13ifvqeh0","pricing_plan_id":"cebpf4jnsgd1na2vs0mg"},{"bike_id":"ef74dc31-1d56-445b-8de9-435d0bbcffc0","system_id":"levelo_inurba_marseille","lat":43.239628,"lon":5.366275,"is_reserved":false,"is_disabled":false,"rental_uris":{"android":"levelo://app?vid=ef74dc31-1d56-445b-8de9-435d0bbcffc0","ios":"levelo://app?vid=ef74dc31-1d56-445b-8de9-435d0bbcffc0"},"vehicle_type_id":"4","last_reported":1747307342,"current_range_meters":14400,"station_id":"ce4bhi12rcd13ifvqfp0","pricing_plan_id":"cebpf4jnsgd1na2vs0mg"},{"bike_id":"8fdee81b-b44e-4fc8-9203-1d136bb3e6db","system_id":"levelo_inurba_marseille","lat":43.28959,"lon":5.35559,"is_reserved":false,"is_disabled":false,"rental_uris":{"android":"levelo://app?vid=8fdee81b-b44e-4fc8-9203-1d136bb3e6db","ios":"levelo://app?vid=8fdee81b-b44e-4fc8-9203-1d136bb3e6db"},"vehicle_type_id":"4","last_reported":1747307342,"current_range_meters":14800,"station_id":"","pricing_plan_id":"cebpf4jnsgd1na2vs0mg"},{"bike_id":"0b6b35f4-fe4f-49d9-9808-16582d0cd37c","system_id":"levelo_inurba_marseille","lat":43.2762,"lon":5.36104,"is_reserved":false,"is_disabled":false,"rental_uris":{"android":"levelo://app?vid=0b6b35f4-fe4f-49d9-9808-16582d0cd37c","ios":"levelo://app?vid=0b6b35f4-fe4f-49d9-9808-16582d0cd37c"},"vehicle_type_id":"4","last_reported":1747307342,"current_range_meters":14800,"station_id":"ce4bgj92rcd13ifvqbe0","pricing_plan_id":"cebpf4jnsgd1na2vs0mg"},{"bike_id":"8d4a6c2a-9bb1-411e-8530-6bc4d204edf4","system_id":"levelo_inurba_marseille","lat":43.30927,"lon":5.40143,"is_reserved":false,"is_disabled":false,"rental_uris":{"android":"levelo://app?vid=8d4a6c2a-9bb1-411e-8530-6bc4d204edf4","ios":"levelo://app?vid=8d4a6c2a-9bb1-411e-8530-6bc4d204edf4"},"vehicle_type_id":"4","last_reported":1747307342,"current_range_meters":14800,"station_id":"ce4bgvp2rcd13ifvqct0","pricing_plan_id":"cebpf4jnsgd1na2vs0mg"},{"bike_id":"7bbd5443-7a26-45cd-9bbf-b2e088eaa359","system_id":"levelo_inurba_marseille","lat":43.25498,"lon":5.37652,"is_reserved":false,"is_disabled":false,"rental_uris":{"android":"levelo://app?vid=7bbd5443-7a26-45cd-9bbf-b2e088eaa359","ios":"levelo://app?vid=7bbd5443-7a26-45cd-9bbf-b2e088eaa359"},"vehicle_type_id":"4","last_reported":1747307342,"current_range_meters":14800,"station_id":"ce4bhh12rcd13ifvqff0","pricing_plan_id":"cebpf4jnsgd1na2vs0mg"},{"bike_id":"be8622eb-2829-4248-a4b4-e647c505699f","system_id":"levelo_inurba_marseille","lat":43.27993,"lon":5.40006,"is_reserved":false,"is_disabled":false,"rental_uris":{"android":"levelo://app?vid=be8622eb-2829-4248-a4b4-e647c505699f","ios":"levelo://app?vid=be8622eb-2829-4248-a4b4-e647c505699f"},"vehicle_type_id":"4","last_reported":1747307342,"current_range_meters":14800,"station_id":"ce4bho92rcd13ifvqh4g","pricing_plan_id":"cebpf4jnsgd1na2vs0mg"},{"bike_id":"c3acc1e9-c036-4520-87a3-7e8466cee4e3","system_id":"levelo_inurba_marseille","lat":43.32465,"lon":5.365709,"is_reserved":false,"is_disabled":false,"rental_uris":{"android":"levelo://app?vid=c3acc1e9-c036-4520-87a3-7e8466cee4e3","ios":"levelo://app?vid=c3acc1e9-c036-4520-87a3-7e8466cee4e3"},"vehicle_type_id":"4","last_reported":1747307342,"current_range_meters":14800,"station_id":"ce4bhs12rcd13ifvqhvg","pricing_plan_id":"cebpf4jnsgd1na2vs0mg"},{"bike_id":"a949b9e7-5481-4332-a4e1-0b6f34f3838d","system_id":"levelo_inurba_marseille","lat":43.28612,"lon":5.37065,"is_reserved":false,"is_disabled":false,"rental_uris":{"android":"levelo://app?vid=a949b9e7-5481-4332-a4e1-0b6f34f3838d","ios":"levelo://app?vid=a949b9e7-5481-4332-a4e1-0b6f34f3838d"},"vehicle_type_id":"4","last_reported":1747307342,"current_range_meters":14800,"station_id":"ce4bht12rcd13ifvqi60","pricing_plan_id":"cebpf4jnsgd1na2vs0mg"},{"bike_id":"bfce81bd-858b-4553-b97c-d24c89de31a5","system_id":"levelo_inurba_marseille","lat":43.29931,"lon":5.36546,"is_reserved":false,"is_disabled":false,"rental_uris":{"android":"levelo://app?vid=bfce81bd-858b-4553-b97c-d24c89de31a5","ios":"levelo://app?vid=bfce81bd-858b-4553-b97c-d24c89de31a5"},"vehicle_type_id":"4","last_reported":1747307342,"current_range_meters":15200,"station_id":"ce4bgm92rcd13ifvqbr0","pricing_plan_id":"cebpf4jnsgd1na2vs0mg"},{"bike_id":"ed7cdf8d-9ae7-4d84-9175-03efb64ffe23","system_id":"levelo_inurba_marseille","lat":43.30133,"lon":5.37419,"is_reserved":false,"is_disabled":false,"rental_uris":{"android":"levelo://app?vid=ed7cdf8d-9ae7-4d84-9175-03efb64ffe23","ios":"levelo://app?vid=ed7cdf8d-9ae7-4d84-9175-03efb64ffe23"},"vehicle_type_id":"4","last_reported":1747307342,"current_range_meters":15200,"station_id":"ce4bgs92rcd13ifvqcc0","pricing_plan_id":"cebpf4jnsgd1na2vs0mg"},{"bike_id":"b9a23695-4736-41cc-9fe4-43baa4c54ed0","system_id":"levelo_inurba_marseille","lat":43.23964,"lon":5.36631,"is_reserved":false,"is_disabled":false,"rental_uris":{"android":"levelo://app?vid=b9a23695-4736-41cc-9fe4-43baa4c54ed0","ios":"levelo://app?vid=b9a23695-4736-41cc-9fe4-43baa4c54ed0"},"vehicle_type_id":"4","last_reported":1747307342,"current_range_meters":15200,"station_id":"ce4bhi12rcd13ifvqfp0","pricing_plan_id":"cebpf4jnsgd1na2vs0mg"},{"bike_id":"1b2ca96b-a115-4009-b707-71f4c5b975d8","system_id":"levelo_inurba_marseille","lat":43.32481,"lon":5.3656,"is_reserved":false,"is_disabled":false,"rental_uris":{"android":"levelo://app?vid=1b2ca96b-a115-4009-b707-71f4c5b975d8","ios":"levelo://app?vid=1b2ca96b-a115-4009-b707-71f4c5b975d8"},"vehicle_type_id":"4","last_reported":1747307342,"current_range_meters":15200,"station_id":"ce4bhs12rcd13ifvqhvg","pricing_plan_id":"cebpf4jnsgd1na2vs0mg"},{"bike_id":"f909cca8-fcb7-44a4-be0e-85555c9f07dc","system_id":"levelo_inurba_marseille","lat":43.3046,"lon":5.37903,"is_reserved":false,"is_disabled":false,"rental_uris":{"android":"levelo://app?vid=f909cca8-fcb7-44a4-be0e-85555c9f07dc","ios":"levelo://app?vid=f909cca8-fcb7-44a4-be0e-85555c9f07dc"},"vehicle_type_id":"4","last_reported":1747307342,"current_range_meters":16000,"station_id":"ce4bgup2rcd13ifvqcn0","pricing_plan_id":"cebpf4jnsgd1na2vs0mg"},{"bike_id":"f32b51a3-a94d-4cb0-b3ac-0b6cf1aaffc0","system_id":"levelo_inurba_marseille","lat":43.29006,"lon":5.35608,"is_reserved":false,"is_disabled":false,"rental_uris":{"android":"levelo://app?vid=f32b51a3-a94d-4cb0-b3ac-0b6cf1aaffc0","ios":"levelo://app?vid=f32b51a3-a94d-4cb0-b3ac-0b6cf1aaffc0"},"vehicle_type_id":"4","last_reported":1747307342,"current_range_meters":16000,"station_id":"ce4bhb92rcd13ifvqen0","pricing_plan_id":"cebpf4jnsgd1na2vs0mg"},{"bike_id":"dbd34c21-58aa-4a6b-9f71-a475cb3405ff","system_id":"levelo_inurba_marseille","lat":43.28408,"lon":5.3499,"is_reserved":false,"is_disabled":false,"rental_uris":{"android":"levelo://app?vid=dbd34c21-58aa-4a6b-9f71-a475cb3405ff","ios":"levelo://app?vid=dbd34c21-58aa-4a6b-9f71-a475cb3405ff"},"vehicle_type_id":"4","last_reported":1747307342,"current_range_meters":16000,"station_id":"ce4bhbh2rcd13ifvqepg","pricing_plan_id":"cebpf4jnsgd1na2vs0mg"},{"bike_id":"0b49e0cd-76e5-41dd-ba77-c35a7d4e6e09","system_id":"levelo_inurba_marseille","lat":43.25497,"lon":5.37651,"is_reserved":false,"is_disabled":false,"rental_uris":{"android":"levelo://app?vid=0b49e0cd-76e5-41dd-ba77-c35a7d4e6e09","ios":"levelo://app?vid=0b49e0cd-76e5-41dd-ba77-c35a7d4e6e09"},"vehicle_type_id":"4","last_reported":1747307342,"current_range_meters":16000,"station_id":"ce4bhh12rcd13ifvqff0","pricing_plan_id":"cebpf4jnsgd1na2vs0mg"},{"bike_id":"249de94b-fd95-4983-a475-f4b57b786f5e","system_id":"levelo_inurba_marseille","lat":43.336041,"lon":5.410319,"is_reserved":false,"is_disabled":false,"rental_uris":{"android":"levelo://app?vid=249de94b-fd95-4983-a475-f4b57b786f5e","ios":"levelo://app?vid=249de94b-fd95-4983-a475-f4b57b786f5e"},"vehicle_type_id":"4","last_reported":1747307342,"current_range_meters":16000,"station_id":"ce4bhqh2rcd13ifvqhmg","pricing_plan_id":"cebpf4jnsgd1na2vs0mg"},{"bike_id":"46d8de76-ce03-4a99-b9a9-0e690e273029","system_id":"levelo_inurba_marseille","lat":43.33768,"lon":5.37433,"is_reserved":false,"is_disabled":false,"rental_uris":{"android":"levelo://app?vid=46d8de76-ce03-4a99-b9a9-0e690e273029","ios":"levelo://app?vid=46d8de76-ce03-4a99-b9a9-0e690e273029"},"vehicle_type_id":"4","last_reported":1747307342,"current_range_meters":16400,"station_id":"","pricing_plan_id":"cebpf4jnsgd1na2vs0mg"},{"bike_id":"655f658b-375f-4b05-96ae-dc5aedf99bab","system_id":"levelo_inurba_marseille","lat":43.30457,"lon":5.37901,"is_reserved":false,"is_disabled":false,"rental_uris":{"android":"levelo://app?vid=655f658b-375f-4b05-96ae-dc5aedf99bab","ios":"levelo://app?vid=655f658b-375f-4b05-96ae-dc5aedf99bab"},"vehicle_type_id":"4","last_reported":1747307342,"current_range_meters":16400,"station_id":"ce4bgup2rcd13ifvqcn0","pricing_plan_id":"cebpf4jnsgd1na2vs0mg"},{"bike_id":"c1f61543-5874-4a35-a67e-a01e157269a4","system_id":"levelo_inurba_marseille","lat":43.2835,"lon":5.38104,"is_reserved":false,"is_disabled":false,"rental_uris":{"android":"levelo://app?vid=c1f61543-5874-4a35-a67e-a01e157269a4","ios":"levelo://app?vid=c1f61543-5874-4a35-a67e-a01e157269a4"},"vehicle_type_id":"4","last_reported":1747307342,"current_range_meters":16400,"station_id":"ce4bh412rcd13ifvqdr0","pricing_plan_id":"cebpf4jnsgd1na2vs0mg"},{"bike_id":"f8a8e7f3-56e2-4aae-a998-d43df0ecdbe3","system_id":"levelo_inurba_marseille","lat":43.27494,"lon":5.42446,"is_reserved":false,"is_disabled":false,"rental_uris":{"android":"levelo://app?vid=f8a8e7f3-56e2-4aae-a998-d43df0ecdbe3","ios":"levelo://app?vid=f8a8e7f3-56e2-4aae-a998-d43df0ecdbe3"},"vehicle_type_id":"4","last_reported":1747307342,"current_range_meters":16400,"station_id":"ce4bhn92rcd13ifvqgrg","pricing_plan_id":"cebpf4jnsgd1na2vs0mg"},{"bike_id":"385c5680-aa17-4953-8596-7f0cb64e8bcd","system_id":"levelo_inurba_marseille","lat":43.32469,"lon":5.36539,"is_reserved":false,"is_disabled":false,"rental_uris":{"android":"levelo://app?vid=385c5680-aa17-4953-8596-7f0cb64e8bcd","ios":"levelo://app?vid=385c5680-aa17-4953-8596-7f0cb64e8bcd"},"vehicle_type_id":"4","last_reported":1747307342,"current_range_meters":16400,"station_id":"ce4bhs12rcd13ifvqhvg","pricing_plan_id":"cebpf4jnsgd1na2vs0mg"},{"bike_id":"925b4e85-aaeb-4fcc-be54-02ba3b0118e7","system_id":"levelo_inurba_marseille","lat":43.217493,"lon":5.345993,"is_reserved":false,"is_disabled":false,"rental_uris":{"android":"levelo://app?vid=925b4e85-aaeb-4fcc-be54-02ba3b0118e7","ios":"levelo://app?vid=925b4e85-aaeb-4fcc-be54-02ba3b0118e7"},"vehicle_type_id":"4","last_reported":1747307342,"current_range_meters":16400,"station_id":"st_cvj6r9ubvosntc0bgbag","pricing_plan_id":"cebpf4jnsgd1na2vs0mg"},{"bike_id":"d82557df-e581-4e7c-a50d-54afec677056","system_id":"levelo_inurba_marseille","lat":43.21749,"lon":5.34601,"is_reserved":false,"is_disabled":false,"rental_uris":{"android":"levelo://app?vid=d82557df-e581-4e7c-a50d-54afec677056","ios":"levelo://app?vid=d82557df-e581-4e7c-a50d-54afec677056"},"vehicle_type_id":"4","last_reported":1747307342,"current_range_meters":16400,"station_id":"st_cvj6r9ubvosntc0bgbag","pricing_plan_id":"cebpf4jnsgd1na2vs0mg"},{"bike_id":"e56f5c35-875b-4fd0-a35f-cc0a6f2d7ade","system_id":"levelo_inurba_marseille","lat":43.29082,"lon":5.37166,"is_reserved":false,"is_disabled":false,"rental_uris":{"android":"levelo://app?vid=e56f5c35-875b-4fd0-a35f-cc0a6f2d7ade","ios":"levelo://app?vid=e56f5c35-875b-4fd0-a35f-cc0a6f2d7ade"},"vehicle_type_id":"4","last_reported":1747307342,"current_range_meters":16800,"station_id":"ce4bh5p2rcd13ifvqe4g","pricing_plan_id":"cebpf4jnsgd1na2vs0mg"},{"bike_id":"6414c6d0-c577-4b00-8541-05cb008ccfad","system_id":"levelo_inurba_marseille","lat":43.28412,"lon":5.34981,"is_reserved":false,"is_disabled":false,"rental_uris":{"android":"levelo://app?vid=6414c6d0-c577-4b00-8541-05cb008ccfad","ios":"levelo://app?vid=6414c6d0-c577-4b00-8541-05cb008ccfad"},"vehicle_type_id":"4","last_reported":1747307342,"current_range_meters":17200,"station_id":"ce4bhbh2rcd13ifvqepg","pricing_plan_id":"cebpf4jnsgd1na2vs0mg"},{"bike_id":"db6d02dc-df5d-47ae-aabb-32963ba6a8fd","system_id":"levelo_inurba_marseille","lat":43.28268,"lon":5.35058,"is_reserved":false,"is_disabled":false,"rental_uris":{"android":"levelo://app?vid=db6d02dc-df5d-47ae-aabb-32963ba6a8fd","ios":"levelo://app?vid=db6d02dc-df5d-47ae-aabb-32963ba6a8fd"},"vehicle_type_id":"4","last_reported":1747307342,"current_range_meters":17200,"station_id":"ce4bhbp2rcd13ifvqerg","pricing_plan_id":"cebpf4jnsgd1na2vs0mg"},{"bike_id":"7eabcfe4-4418-4b9d-b76d-5930654da7d6","system_id":"levelo_inurba_marseille","lat":43.26213,"lon":5.40455,"is_reserved":false,"is_disabled":false,"rental_uris":{"android":"levelo://app?vid=7eabcfe4-4418-4b9d-b76d-5930654da7d6","ios":"levelo://app?vid=7eabcfe4-4418-4b9d-b76d-5930654da7d6"},"vehicle_type_id":"4","last_reported":1747307342,"current_range_meters":17200,"station_id":"ce4bhmh2rcd13ifvqgmg","pricing_plan_id":"cebpf4jnsgd1na2vs0mg"},{"bike_id":"49d4b4d3-9dca-4f2e-8ab0-c2b08546a6a4","system_id":"levelo_inurba_marseille","lat":43.32484,"lon":5.36551,"is_reserved":false,"is_disabled":false,"rental_uris":{"android":"levelo://app?vid=49d4b4d3-9dca-4f2e-8ab0-c2b08546a6a4","ios":"levelo://app?vid=49d4b4d3-9dca-4f2e-8ab0-c2b08546a6a4"},"vehicle_type_id":"4","last_reported":1747307342,"current_range_meters":17200,"station_id":"ce4bhs12rcd13ifvqhvg","pricing_plan_id":"cebpf4jnsgd1na2vs0mg"},{"bike_id":"6d886103-344e-431a-ac80-7f62879d2f7c","system_id":"levelo_inurba_marseille","lat":43.22933,"lon":5.35368,"is_reserved":false,"is_disabled":false,"rental_uris":{"android":"levelo://app?vid=6d886103-344e-431a-ac80-7f62879d2f7c","ios":"levelo://app?vid=6d886103-344e-431a-ac80-7f62879d2f7c"},"vehicle_type_id":"4","last_reported":1747307342,"current_range_meters":17200,"station_id":"cpo3532slgdg3j2ikp40","pricing_plan_id":"cebpf4jnsgd1na2vs0mg"},{"bike_id":"24662577-69c7-4d84-a260-f2892b169180","system_id":"levelo_inurba_marseille","lat":43.21752,"lon":5.346,"is_reserved":false,"is_disabled":false,"rental_uris":{"android":"levelo://app?vid=24662577-69c7-4d84-a260-f2892b169180","ios":"levelo://app?vid=24662577-69c7-4d84-a260-f2892b169180"},"vehicle_type_id":"4","last_reported":1747307342,"current_range_meters":17200,"station_id":"st_cvj6r9ubvosntc0bgbag","pricing_plan_id":"cebpf4jnsgd1na2vs0mg"},{"bike_id":"2de91efb-60f2-4f72-b11f-93f472e54cd5","system_id":"levelo_inurba_marseille","lat":43.30903,"lon":5.3684,"is_reserved":false,"is_disabled":false,"rental_uris":{"android":"levelo://app?vid=2de91efb-60f2-4f72-b11f-93f472e54cd5","ios":"levelo://app?vid=2de91efb-60f2-4f72-b11f-93f472e54cd5"},"vehicle_type_id":"4","last_reported":1747307342,"current_range_meters":17600,"station_id":"ce4bgn92rcd13ifvqbvg","pricing_plan_id":"cebpf4jnsgd1na2vs0mg"},{"bike_id":"0e642aa4-6b11-42d7-a2d5-23309c013ac1","system_id":"levelo_inurba_marseille","lat":43.30545,"lon":5.3671,"is_reserved":false,"is_disabled":false,"rental_uris":{"android":"levelo://app?vid=0e642aa4-6b11-42d7-a2d5-23309c013ac1","ios":"levelo://app?vid=0e642aa4-6b11-42d7-a2d5-23309c013ac1"},"vehicle_type_id":"4","last_reported":1747307342,"current_range_meters":17600,"station_id":"ce4bgrp2rcd13ifvqc9g","pricing_plan_id":"cebpf4jnsgd1na2vs0mg"},{"bike_id":"c3000279-955b-456e-978b-b408d994653f","system_id":"levelo_inurba_marseille","lat":43.2964,"lon":5.40603,"is_reserved":false,"is_disabled":false,"rental_uris":{"android":"levelo://app?vid=c3000279-955b-456e-978b-b408d994653f","ios":"levelo://app?vid=c3000279-955b-456e-978b-b408d994653f"},"vehicle_type_id":"4","last_reported":1747307342,"current_range_meters":17600,"station_id":"ce4bh0h2rcd13ifvqd60","pricing_plan_id":"cebpf4jnsgd1na2vs0mg"},{"bike_id":"04bd116a-5644-4473-92b1-d4807fe31f48","system_id":"levelo_inurba_marseille","lat":43.289287,"lon":5.384109,"is_reserved":false,"is_disabled":false,"rental_uris":{"android":"levelo://app?vid=04bd116a-5644-4473-92b1-d4807fe31f48","ios":"levelo://app?vid=04bd116a-5644-4473-92b1-d4807fe31f48"},"vehicle_type_id":"4","last_reported":1747307342,"current_range_meters":17600,"station_id":"ce4bh612rcd13ifvqe6g","pricing_plan_id":"cebpf4jnsgd1na2vs0mg"},{"bike_id":"bb1bef1d-2cdf-4c8c-95ac-b86236d68b26","system_id":"levelo_inurba_marseille","lat":43.29462,"lon":5.3765,"is_reserved":false,"is_disabled":false,"rental_uris":{"android":"levelo://app?vid=bb1bef1d-2cdf-4c8c-95ac-b86236d68b26","ios":"levelo://app?vid=bb1bef1d-2cdf-4c8c-95ac-b86236d68b26"},"vehicle_type_id":"4","last_reported":1747307342,"current_range_meters":17600,"station_id":"ce4bh9p2rcd13ifvqec0","pricing_plan_id":"cebpf4jnsgd1na2vs0mg"},{"bike_id":"e2608da9-1728-4b0d-98b0-26ca7aab6a5e","system_id":"levelo_inurba_marseille","lat":43.29004,"lon":5.35614,"is_reserved":false,"is_disabled":false,"rental_uris":{"android":"levelo://app?vid=e2608da9-1728-4b0d-98b0-26ca7aab6a5e","ios":"levelo://app?vid=e2608da9-1728-4b0d-98b0-26ca7aab6a5e"},"vehicle_type_id":"4","last_reported":1747307342,"current_range_meters":17600,"station_id":"ce4bhb92rcd13ifvqen0","pricing_plan_id":"cebpf4jnsgd1na2vs0mg"},{"bike_id":"6a5ca72e-51de-4905-96e1-5bd7c7c37213","system_id":"levelo_inurba_marseille","lat":43.27374,"lon":5.3626,"is_reserved":false,"is_disabled":false,"rental_uris":{"android":"levelo://app?vid=6a5ca72e-51de-4905-96e1-5bd7c7c37213","ios":"levelo://app?vid=6a5ca72e-51de-4905-96e1-5bd7c7c37213"},"vehicle_type_id":"4","last_reported":1747307342,"current_range_meters":17600,"station_id":"ce4bhbh2rcd13ifvqeo0","pricing_plan_id":"cebpf4jnsgd1na2vs0mg"},{"bike_id":"028512d3-26df-40b2-b967-7e505524b114","system_id":"levelo_inurba_marseille","lat":43.276264,"lon":5.422204,"is_reserved":false,"is_disabled":false,"rental_uris":{"android":"levelo://app?vid=028512d3-26df-40b2-b967-7e505524b114","ios":"levelo://app?vid=028512d3-26df-40b2-b967-7e505524b114"},"vehicle_type_id":"4","last_reported":1747307342,"current_range_meters":17600,"station_id":"ce4bhn92rcd13ifvqgrg","pricing_plan_id":"cebpf4jnsgd1na2vs0mg"},{"bike_id":"261a0563-7ac4-4e03-bfeb-0e913676293e","system_id":"levelo_inurba_marseille","lat":43.24072,"lon":5.3776,"is_reserved":false,"is_disabled":false,"rental_uris":{"android":"levelo://app?vid=261a0563-7ac4-4e03-bfeb-0e913676293e","ios":"levelo://app?vid=261a0563-7ac4-4e03-bfeb-0e913676293e"},"vehicle_type_id":"4","last_reported":1747307342,"current_range_meters":17600,"station_id":"ce4bhnp2rcd13ifvqgvg","pricing_plan_id":"cebpf4jnsgd1na2vs0mg"},{"bike_id":"10e0193d-8711-4319-9e2c-a6efb8e6265f","system_id":"levelo_inurba_marseille","lat":43.308938,"lon":5.368552,"is_reserved":false,"is_disabled":false,"rental_uris":{"android":"levelo://app?vid=10e0193d-8711-4319-9e2c-a6efb8e6265f","ios":"levelo://app?vid=10e0193d-8711-4319-9e2c-a6efb8e6265f"},"vehicle_type_id":"4","last_reported":1747307342,"current_range_meters":18000,"station_id":"ce4bhbp2rcd13ifvqerg","pricing_plan_id":"cebpf4jnsgd1na2vs0mg"},{"bike_id":"b6718f7f-b11e-4efd-b6a7-ab867c60eaf5","system_id":"levelo_inurba_marseille","lat":43.248484,"lon":5.376125,"is_reserved":false,"is_disabled":false,"rental_uris":{"android":"levelo://app?vid=b6718f7f-b11e-4efd-b6a7-ab867c60eaf5","ios":"levelo://app?vid=b6718f7f-b11e-4efd-b6a7-ab867c60eaf5"},"vehicle_type_id":"4","last_reported":1747307342,"current_range_meters":18000,"station_id":"ce4bhhh2rcd13ifvqfk0","pricing_plan_id":"cebpf4jnsgd1na2vs0mg"},{"bike_id":"b80086c7-01e2-4e00-9032-60754e0dea13","system_id":"levelo_inurba_marseille","lat":43.27054,"lon":5.40238,"is_reserved":false,"is_disabled":false,"rental_uris":{"android":"levelo://app?vid=b80086c7-01e2-4e00-9032-60754e0dea13","ios":"levelo://app?vid=b80086c7-01e2-4e00-9032-60754e0dea13"},"vehicle_type_id":"4","last_reported":1747307342,"current_range_meters":18000,"station_id":"ce4bhk92rcd13ifvqgc0","pricing_plan_id":"cebpf4jnsgd1na2vs0mg"},{"bike_id":"f1d6bead-709a-4e55-99a9-cc7cc7606d6e","system_id":"levelo_inurba_marseille","lat":43.24074,"lon":5.37767,"is_reserved":false,"is_disabled":false,"rental_uris":{"android":"levelo://app?vid=f1d6bead-709a-4e55-99a9-cc7cc7606d6e","ios":"levelo://app?vid=f1d6bead-709a-4e55-99a9-cc7cc7606d6e"},"vehicle_type_id":"4","last_reported":1747307342,"current_range_meters":18000,"station_id":"ce4bhnp2rcd13ifvqgvg","pricing_plan_id":"cebpf4jnsgd1na2vs0mg"},{"bike_id":"6e3a2a89-a769-40fd-9d75-6f65e239f3ef","system_id":"levelo_inurba_marseille","lat":43.29544,"lon":5.42282,"is_reserved":false,"is_disabled":false,"rental_uris":{"android":"levelo://app?vid=6e3a2a89-a769-40fd-9d75-6f65e239f3ef","ios":"levelo://app?vid=6e3a2a89-a769-40fd-9d75-6f65e239f3ef"},"vehicle_type_id":"4","last_reported":1747307342,"current_range_meters":18000,"station_id":"ce4bhph2rcd13ifvqhdg","pricing_plan_id":"cebpf4jnsgd1na2vs0mg"},{"bike_id":"a6a918b7-f192-461f-8ef4-9b93ba3f3240","system_id":"levelo_inurba_marseille","lat":43.21749,"lon":5.34604,"is_reserved":false,"is_disabled":false,"rental_uris":{"android":"levelo://app?vid=a6a918b7-f192-461f-8ef4-9b93ba3f3240","ios":"levelo://app?vid=a6a918b7-f192-461f-8ef4-9b93ba3f3240"},"vehicle_type_id":"4","last_reported":1747307342,"current_range_meters":18000,"station_id":"st_cvj6r9ubvosntc0bgbag","pricing_plan_id":"cebpf4jnsgd1na2vs0mg"},{"bike_id":"81d57934-be7d-43f0-91c3-0c34248f2cbc","system_id":"levelo_inurba_marseille","lat":43.28216,"lon":5.39049,"is_reserved":false,"is_disabled":false,"rental_uris":{"android":"levelo://app?vid=81d57934-be7d-43f0-91c3-0c34248f2cbc","ios":"levelo://app?vid=81d57934-be7d-43f0-91c3-0c34248f2cbc"},"vehicle_type_id":"4","last_reported":1747307342,"current_range_meters":18800,"station_id":"","pricing_plan_id":"cebpf4jnsgd1na2vs0mg"},{"bike_id":"8937e58a-82bd-4181-b426-25cf9717cf13","system_id":"levelo_inurba_marseille","lat":43.28412,"lon":5.34983,"is_reserved":false,"is_disabled":false,"rental_uris":{"android":"levelo://app?vid=8937e58a-82bd-4181-b426-25cf9717cf13","ios":"levelo://app?vid=8937e58a-82bd-4181-b426-25cf9717cf13"},"vehicle_type_id":"4","last_reported":1747307342,"current_range_meters":18800,"station_id":"ce4bhbh2rcd13ifvqepg","pricing_plan_id":"cebpf4jnsgd1na2vs0mg"},{"bike_id":"8c801b9f-3818-4ceb-9573-4499ff41234b","system_id":"levelo_inurba_marseille","lat":43.28409,"lon":5.34976,"is_reserved":false,"is_disabled":false,"rental_uris":{"android":"levelo://app?vid=8c801b9f-3818-4ceb-9573-4499ff41234b","ios":"levelo://app?vid=8c801b9f-3818-4ceb-9573-4499ff41234b"},"vehicle_type_id":"4","last_reported":1747307342,"current_range_meters":18800,"station_id":"ce4bhbh2rcd13ifvqepg","pricing_plan_id":"cebpf4jnsgd1na2vs0mg"},{"bike_id":"9d06ad4a-7fa6-4a4c-8ae2-b03f7dafd6db","system_id":"levelo_inurba_marseille","lat":43.28422,"lon":5.34975,"is_reserved":false,"is_disabled":false,"rental_uris":{"android":"levelo://app?vid=9d06ad4a-7fa6-4a4c-8ae2-b03f7dafd6db","ios":"levelo://app?vid=9d06ad4a-7fa6-4a4c-8ae2-b03f7dafd6db"},"vehicle_type_id":"4","last_reported":1747307342,"current_range_meters":18800,"station_id":"ce4bhbh2rcd13ifvqepg","pricing_plan_id":"cebpf4jnsgd1na2vs0mg"},{"bike_id":"03b14f6f-97f2-442f-9276-e7baa5de8335","system_id":"levelo_inurba_marseille","lat":43.27915,"lon":5.39572,"is_reserved":false,"is_disabled":false,"rental_uris":{"android":"levelo://app?vid=03b14f6f-97f2-442f-9276-e7baa5de8335","ios":"levelo://app?vid=03b14f6f-97f2-442f-9276-e7baa5de8335"},"vehicle_type_id":"4","last_reported":1747307342,"current_range_meters":18800,"station_id":"ce4bhf92rcd13ifvqf40","pricing_plan_id":"cebpf4jnsgd1na2vs0mg"},{"bike_id":"613ffd6f-3e58-49d4-bd25-15dff4b73bdd","system_id":"levelo_inurba_marseille","lat":43.26195,"lon":5.3746,"is_reserved":false,"is_disabled":false,"rental_uris":{"android":"levelo://app?vid=613ffd6f-3e58-49d4-bd25-15dff4b73bdd","ios":"levelo://app?vid=613ffd6f-3e58-49d4-bd25-15dff4b73bdd"},"vehicle_type_id":"4","last_reported":1747307342,"current_range_meters":18800,"station_id":"ce4bhgp2rcd13ifvqfc0","pricing_plan_id":"cebpf4jnsgd1na2vs0mg"},{"bike_id":"ffe2fd99-a9f3-43bc-a709-9280c6cffba9","system_id":"levelo_inurba_marseille","lat":43.24387,"lon":5.37058,"is_reserved":false,"is_disabled":false,"rental_uris":{"android":"levelo://app?vid=ffe2fd99-a9f3-43bc-a709-9280c6cffba9","ios":"levelo://app?vid=ffe2fd99-a9f3-43bc-a709-9280c6cffba9"},"vehicle_type_id":"4","last_reported":1747307342,"current_range_meters":18800,"station_id":"ce4bhhh2rcd13ifvqfk0","pricing_plan_id":"cebpf4jnsgd1na2vs0mg"},{"bike_id":"faf2f411-2cc7-4a64-aa5a-46c0961cb5a7","system_id":"levelo_inurba_marseille","lat":43.27071,"lon":5.42273,"is_reserved":false,"is_disabled":false,"rental_uris":{"android":"levelo://app?vid=faf2f411-2cc7-4a64-aa5a-46c0961cb5a7","ios":"levelo://app?vid=faf2f411-2cc7-4a64-aa5a-46c0961cb5a7"},"vehicle_type_id":"4","last_reported":1747307342,"current_range_meters":18800,"station_id":"ce4bhk92rcd13ifvqgb0","pricing_plan_id":"cebpf4jnsgd1na2vs0mg"},{"bike_id":"b01ef8b7-f396-46ca-96b7-e98c863e4a47","system_id":"levelo_inurba_marseille","lat":43.25918,"lon":5.40898,"is_reserved":false,"is_disabled":false,"rental_uris":{"android":"levelo://app?vid=b01ef8b7-f396-46ca-96b7-e98c863e4a47","ios":"levelo://app?vid=b01ef8b7-f396-46ca-96b7-e98c863e4a47"},"vehicle_type_id":"4","last_reported":1747307342,"current_range_meters":18800,"station_id":"ce4bhm92rcd13ifvqglg","pricing_plan_id":"cebpf4jnsgd1na2vs0mg"},{"bike_id":"bde53973-3edc-45d6-9e11-76054145b44a","system_id":"levelo_inurba_marseille","lat":43.23179,"lon":5.39986,"is_reserved":false,"is_disabled":false,"rental_uris":{"android":"levelo://app?vid=bde53973-3edc-45d6-9e11-76054145b44a","ios":"levelo://app?vid=bde53973-3edc-45d6-9e11-76054145b44a"},"vehicle_type_id":"4","last_reported":1747307342,"current_range_meters":18800,"station_id":"ce4bhn12rcd13ifvqgqg","pricing_plan_id":"cebpf4jnsgd1na2vs0mg"},{"bike_id":"22ad963e-f809-4036-bd22-9dae1aef29df","system_id":"levelo_inurba_marseille","lat":43.26033,"lon":5.37549,"is_reserved":false,"is_disabled":false,"rental_uris":{"android":"levelo://app?vid=22ad963e-f809-4036-bd22-9dae1aef29df","ios":"levelo://app?vid=22ad963e-f809-4036-bd22-9dae1aef29df"},"vehicle_type_id":"4","last_reported":1747307342,"current_range_meters":19200,"station_id":"","pricing_plan_id":"cebpf4jnsgd1na2vs0mg"},{"bike_id":"f843e528-99a6-4529-a905-a5d535752d8b","system_id":"levelo_inurba_marseille","lat":43.28353,"lon":5.3811,"is_reserved":false,"is_disabled":false,"rental_uris":{"android":"levelo://app?vid=f843e528-99a6-4529-a905-a5d535752d8b","ios":"levelo://app?vid=f843e528-99a6-4529-a905-a5d535752d8b"},"vehicle_type_id":"4","last_reported":1747307342,"current_range_meters":19200,"station_id":"ce4bh412rcd13ifvqdr0","pricing_plan_id":"cebpf4jnsgd1na2vs0mg"},{"bike_id":"270b0587-1421-4199-ad3c-0f803dee045b","system_id":"levelo_inurba_marseille","lat":43.28859,"lon":5.35853,"is_reserved":false,"is_disabled":false,"rental_uris":{"android":"levelo://app?vid=270b0587-1421-4199-ad3c-0f803dee045b","ios":"levelo://app?vid=270b0587-1421-4199-ad3c-0f803dee045b"},"vehicle_type_id":"4","last_reported":1747307342,"current_range_meters":19200,"station_id":"ce4bhb12rcd13ifvqem0","pricing_plan_id":"cebpf4jnsgd1na2vs0mg"},{"bike_id":"a0a970bc-df17-41d0-83c1-920bcea240a4","system_id":"levelo_inurba_marseille","lat":43.29003,"lon":5.3561,"is_reserved":false,"is_disabled":false,"rental_uris":{"android":"levelo://app?vid=a0a970bc-df17-41d0-83c1-920bcea240a4","ios":"levelo://app?vid=a0a970bc-df17-41d0-83c1-920bcea240a4"},"vehicle_type_id":"4","last_reported":1747307342,"current_range_meters":19200,"station_id":"ce4bhb92rcd13ifvqen0","pricing_plan_id":"cebpf4jnsgd1na2vs0mg"},{"bike_id":"71061298-85e7-45bc-993b-630ac66b913f","system_id":"levelo_inurba_marseille","lat":43.26556,"lon":5.3729,"is_reserved":false,"is_disabled":false,"rental_uris":{"android":"levelo://app?vid=71061298-85e7-45bc-993b-630ac66b913f","ios":"levelo://app?vid=71061298-85e7-45bc-993b-630ac66b913f"},"vehicle_type_id":"4","last_reported":1747307342,"current_range_meters":19200,"station_id":"ce4bhg12rcd13ifvqf70","pricing_plan_id":"cebpf4jnsgd1na2vs0mg"},{"bike_id":"db77887e-0d96-4823-9d7a-29dcd7da204d","system_id":"levelo_inurba_marseille","lat":43.26224,"lon":5.40453,"is_reserved":false,"is_disabled":false,"rental_uris":{"android":"levelo://app?vid=db77887e-0d96-4823-9d7a-29dcd7da204d","ios":"levelo://app?vid=db77887e-0d96-4823-9d7a-29dcd7da204d"},"vehicle_type_id":"4","last_reported":1747307342,"current_range_meters":19200,"station_id":"ce4bhmh2rcd13ifvqgmg","pricing_plan_id":"cebpf4jnsgd1na2vs0mg"},{"bike_id":"540934c7-658b-46f8-a1fc-1214c339e9eb","system_id":"levelo_inurba_marseille","lat":43.24072,"lon":5.37761,"is_reserved":false,"is_disabled":false,"rental_uris":{"android":"levelo://app?vid=540934c7-658b-46f8-a1fc-1214c339e9eb","ios":"levelo://app?vid=540934c7-658b-46f8-a1fc-1214c339e9eb"},"vehicle_type_id":"4","last_reported":1747307342,"current_range_meters":19200,"station_id":"ce4bhnp2rcd13ifvqgvg","pricing_plan_id":"cebpf4jnsgd1na2vs0mg"},{"bike_id":"255211c8-4a45-4d13-a933-afbdbda29618","system_id":"levelo_inurba_marseille","lat":43.30376,"lon":5.42489,"is_reserved":false,"is_disabled":false,"rental_uris":{"android":"levelo://app?vid=255211c8-4a45-4d13-a933-afbdbda29618","ios":"levelo://app?vid=255211c8-4a45-4d13-a933-afbdbda29618"},"vehicle_type_id":"4","last_reported":1747307342,"current_range_meters":19200,"station_id":"ce4bhoh2rcd13ifvqh6g","pricing_plan_id":"cebpf4jnsgd1na2vs0mg"},{"bike_id":"2fcc4300-9147-4a4b-a12c-17076499c238","system_id":"levelo_inurba_marseille","lat":43.32551,"lon":5.41452,"is_reserved":false,"is_disabled":false,"rental_uris":{"android":"levelo://app?vid=2fcc4300-9147-4a4b-a12c-17076499c238","ios":"levelo://app?vid=2fcc4300-9147-4a4b-a12c-17076499c238"},"vehicle_type_id":"4","last_reported":1747307342,"current_range_meters":19200,"station_id":"ce4bhq12rcd13ifvqhhg","pricing_plan_id":"cebpf4jnsgd1na2vs0mg"},{"bike_id":"180e10a7-ba2a-44a0-95b4-4567b94c2920","system_id":"levelo_inurba_marseille","lat":43.21754,"lon":5.34591,"is_reserved":false,"is_disabled":false,"rental_uris":{"android":"levelo://app?vid=180e10a7-ba2a-44a0-95b4-4567b94c2920","ios":"levelo://app?vid=180e10a7-ba2a-44a0-95b4-4567b94c2920"},"vehicle_type_id":"4","last_reported":1747307342,"current_range_meters":19200,"station_id":"st_cvj6r9ubvosntc0bgbag","pricing_plan_id":"cebpf4jnsgd1na2vs0mg"},{"bike_id":"64bd598c-dd43-4a46-9d6c-5633d6873e63","system_id":"levelo_inurba_marseille","lat":43.30742,"lon":5.37294,"is_reserved":false,"is_disabled":false,"rental_uris":{"android":"levelo://app?vid=64bd598c-dd43-4a46-9d6c-5633d6873e63","ios":"levelo://app?vid=64bd598c-dd43-4a46-9d6c-5633d6873e63"},"vehicle_type_id":"4","last_reported":1747307342,"current_range_meters":19600,"station_id":"","pricing_plan_id":"cebpf4jnsgd1na2vs0mg"},{"bike_id":"c0e0fd84-4c7c-420a-b641-45b7066ef9a9","system_id":"levelo_inurba_marseille","lat":43.31362,"lon":5.36722,"is_reserved":false,"is_disabled":false,"rental_uris":{"android":"levelo://app?vid=c0e0fd84-4c7c-420a-b641-45b7066ef9a9","ios":"levelo://app?vid=c0e0fd84-4c7c-420a-b641-45b7066ef9a9"},"vehicle_type_id":"4","last_reported":1747307342,"current_range_meters":19600,"station_id":"ce4bgr92rcd13ifvqc6g","pricing_plan_id":"cebpf4jnsgd1na2vs0mg"},{"bike_id":"bc30b56f-a81c-4581-8744-39bd45c79deb","system_id":"levelo_inurba_marseille","lat":43.29055,"lon":5.35923,"is_reserved":false,"is_disabled":false,"rental_uris":{"android":"levelo://app?vid=bc30b56f-a81c-4581-8744-39bd45c79deb","ios":"levelo://app?vid=bc30b56f-a81c-4581-8744-39bd45c79deb"},"vehicle_type_id":"4","last_reported":1747307342,"current_range_meters":19600,"station_id":"ce4bha92rcd13ifvqeg0","pricing_plan_id":"cebpf4jnsgd1na2vs0mg"},{"bike_id":"09fab4e8-eaad-4cb0-8160-0ce5b0e7567c","system_id":"levelo_inurba_marseille","lat":43.28994,"lon":5.35603,"is_reserved":false,"is_disabled":false,"rental_uris":{"android":"levelo://app?vid=09fab4e8-eaad-4cb0-8160-0ce5b0e7567c","ios":"levelo://app?vid=09fab4e8-eaad-4cb0-8160-0ce5b0e7567c"},"vehicle_type_id":"4","last_reported":1747307342,"current_range_meters":19600,"station_id":"ce4bhb92rcd13ifvqen0","pricing_plan_id":"cebpf4jnsgd1na2vs0mg"},{"bike_id":"f58276be-68ab-491b-ab6a-bd6abfbfb1cb","system_id":"levelo_inurba_marseille","lat":43.26949,"lon":5.38635,"is_reserved":false,"is_disabled":false,"rental_uris":{"android":"levelo://app?vid=f58276be-68ab-491b-ab6a-bd6abfbfb1cb","ios":"levelo://app?vid=f58276be-68ab-491b-ab6a-bd6abfbfb1cb"},"vehicle_type_id":"4","last_reported":1747307342,"current_range_meters":19600,"station_id":"ce4bhh92rcd13ifvqfh0","pricing_plan_id":"cebpf4jnsgd1na2vs0mg"},{"bike_id":"509d62b8-5162-4f66-bad6-65ba6ed51999","system_id":"levelo_inurba_marseille","lat":43.24381,"lon":5.37064,"is_reserved":false,"is_disabled":false,"rental_uris":{"android":"levelo://app?vid=509d62b8-5162-4f66-bad6-65ba6ed51999","ios":"levelo://app?vid=509d62b8-5162-4f66-bad6-65ba6ed51999"},"vehicle_type_id":"4","last_reported":1747307342,"current_range_meters":19600,"station_id":"ce4bhhh2rcd13ifvqfk0","pricing_plan_id":"cebpf4jnsgd1na2vs0mg"},{"bike_id":"54a1a73b-9f7a-414c-a48f-eeace73bd9b0","system_id":"levelo_inurba_marseille","lat":43.22433,"lon":5.34862,"is_reserved":false,"is_disabled":false,"rental_uris":{"android":"levelo://app?vid=54a1a73b-9f7a-414c-a48f-eeace73bd9b0","ios":"levelo://app?vid=54a1a73b-9f7a-414c-a48f-eeace73bd9b0"},"vehicle_type_id":"4","last_reported":1747307342,"current_range_meters":19600,"station_id":"st_cvj5dfep6f1abm77gieg","pricing_plan_id":"cebpf4jnsgd1na2vs0mg"},{"bike_id":"af34c7fd-6359-4fb8-87ef-a7d42bb0abf6","system_id":"levelo_inurba_marseille","lat":43.30434,"lon":5.39747,"is_reserved":false,"is_disabled":false,"rental_uris":{"android":"levelo://app?vid=af34c7fd-6359-4fb8-87ef-a7d42bb0abf6","ios":"levelo://app?vid=af34c7fd-6359-4fb8-87ef-a7d42bb0abf6"},"vehicle_type_id":"4","last_reported":1747307342,"current_range_meters":20000,"station_id":"ce4bh092rcd13ifvqd20","pricing_plan_id":"cebpf4jnsgd1na2vs0mg"},{"bike_id":"117c11fe-4da1-4c73-a21b-7cf48cf794a3","system_id":"levelo_inurba_marseille","lat":43.28858,"lon":5.35855,"is_reserved":false,"is_disabled":false,"rental_uris":{"android":"levelo://app?vid=117c11fe-4da1-4c73-a21b-7cf48cf794a3","ios":"levelo://app?vid=117c11fe-4da1-4c73-a21b-7cf48cf794a3"},"vehicle_type_id":"4","last_reported":1747307342,"current_range_meters":20000,"station_id":"ce4bhb12rcd13ifvqem0","pricing_plan_id":"cebpf4jnsgd1na2vs0mg"},{"bike_id":"444a83ab-8534-4782-ba69-20c25ccaa8b0","system_id":"levelo_inurba_marseille","lat":43.26551,"lon":5.37289,"is_reserved":false,"is_disabled":false,"rental_uris":{"android":"levelo://app?vid=444a83ab-8534-4782-ba69-20c25ccaa8b0","ios":"levelo://app?vid=444a83ab-8534-4782-ba69-20c25ccaa8b0"},"vehicle_type_id":"4","last_reported":1747307342,"current_range_meters":20000,"station_id":"ce4bhg12rcd13ifvqf70","pricing_plan_id":"cebpf4jnsgd1na2vs0mg"},{"bike_id":"21f5a1a4-43c5-4049-8a8d-3146c5c35157","system_id":"levelo_inurba_marseille","lat":43.229284,"lon":5.353708,"is_reserved":false,"is_disabled":false,"rental_uris":{"android":"levelo://app?vid=21f5a1a4-43c5-4049-8a8d-3146c5c35157","ios":"levelo://app?vid=21f5a1a4-43c5-4049-8a8d-3146c5c35157"},"vehicle_type_id":"4","last_reported":1747307342,"current_range_meters":20000,"station_id":"cpo3532slgdg3j2ikp40","pricing_plan_id":"cebpf4jnsgd1na2vs0mg"},{"bike_id":"aa53c5b9-c9b8-4906-989e-6e49a1f5abe6","system_id":"levelo_inurba_marseille","lat":43.22933,"lon":5.35378,"is_reserved":false,"is_disabled":false,"rental_uris":{"android":"levelo://app?vid=aa53c5b9-c9b8-4906-989e-6e49a1f5abe6","ios":"levelo://app?vid=aa53c5b9-c9b8-4906-989e-6e49a1f5abe6"},"vehicle_type_id":"4","last_reported":1747307342,"current_range_meters":20000,"station_id":"cpo3532slgdg3j2ikp40","pricing_plan_id":"cebpf4jnsgd1na2vs0mg"},{"bike_id":"f80c43a8-4e53-4744-847d-3b4dcfcb7947","system_id":"levelo_inurba_marseille","lat":43.24165,"lon":5.36393,"is_reserved":false,"is_disabled":false,"rental_uris":{"android":"levelo://app?vid=f80c43a8-4e53-4744-847d-3b4dcfcb7947","ios":"levelo://app?vid=f80c43a8-4e53-4744-847d-3b4dcfcb7947"},"vehicle_type_id":"4","last_reported":1747307342,"current_range_meters":20000,"station_id":"cpo36qri1sfpv3e86is0","pricing_plan_id":"cebpf4jnsgd1na2vs0mg"},{"bike_id":"54c80718-1468-47f9-9877-bc44f5940722","system_id":"levelo_inurba_marseille","lat":43.2119,"lon":5.35066,"is_reserved":false,"is_disabled":false,"rental_uris":{"android":"levelo://app?vid=54c80718-1468-47f9-9877-bc44f5940722","ios":"levelo://app?vid=54c80718-1468-47f9-9877-bc44f5940722"},"vehicle_type_id":"4","last_reported":1747307342,"current_range_meters":20000,"station_id":"st_cvj6sg6p6f1abm77japg","pricing_plan_id":"cebpf4jnsgd1na2vs0mg"},{"bike_id":"13fb7c0c-f7ea-4d7b-bdcd-c94492777a0b","system_id":"levelo_inurba_marseille","lat":43.30544,"lon":5.36503,"is_reserved":false,"is_disabled":false,"rental_uris":{"android":"levelo://app?vid=13fb7c0c-f7ea-4d7b-bdcd-c94492777a0b","ios":"levelo://app?vid=13fb7c0c-f7ea-4d7b-bdcd-c94492777a0b"},"vehicle_type_id":"4","last_reported":1747307342,"current_range_meters":20400,"station_id":"","pricing_plan_id":"cebpf4jnsgd1na2vs0mg"},{"bike_id":"3d46183d-e421-4498-8767-0e257c53394b","system_id":"levelo_inurba_marseille","lat":43.32588,"lon":5.41371,"is_reserved":false,"is_disabled":false,"rental_uris":{"android":"levelo://app?vid=3d46183d-e421-4498-8767-0e257c53394b","ios":"levelo://app?vid=3d46183d-e421-4498-8767-0e257c53394b"},"vehicle_type_id":"4","last_reported":1747307342,"current_range_meters":20400,"station_id":"","pricing_plan_id":"cebpf4jnsgd1na2vs0mg"},{"bike_id":"2a468ddf-4f37-482a-9c5d-88a0bccca861","system_id":"levelo_inurba_marseille","lat":43.2607,"lon":5.41891,"is_reserved":false,"is_disabled":false,"rental_uris":{"android":"levelo://app?vid=2a468ddf-4f37-482a-9c5d-88a0bccca861","ios":"levelo://app?vid=2a468ddf-4f37-482a-9c5d-88a0bccca861"},"vehicle_type_id":"4","last_reported":1747307342,"current_range_meters":20400,"station_id":"","pricing_plan_id":"cebpf4jnsgd1na2vs0mg"},{"bike_id":"cd3b4502-1608-4eb8-9176-eb06e254b87a","system_id":"levelo_inurba_marseille","lat":43.297125,"lon":5.366128,"is_reserved":false,"is_disabled":false,"rental_uris":{"android":"levelo://app?vid=cd3b4502-1608-4eb8-9176-eb06e254b87a","ios":"levelo://app?vid=cd3b4502-1608-4eb8-9176-eb06e254b87a"},"vehicle_type_id":"4","last_reported":1747307342,"current_range_meters":20400,"station_id":"ce4bgn12rcd13ifvqbt0","pricing_plan_id":"cebpf4jnsgd1na2vs0mg"},{"bike_id":"c8f3ba30-1a0e-4bd9-a28e-c26e0ba4acd4","system_id":"levelo_inurba_marseille","lat":43.31342,"lon":5.36722,"is_reserved":false,"is_disabled":false,"rental_uris":{"android":"levelo://app?vid=c8f3ba30-1a0e-4bd9-a28e-c26e0ba4acd4","ios":"levelo://app?vid=c8f3ba30-1a0e-4bd9-a28e-c26e0ba4acd4"},"vehicle_type_id":"4","last_reported":1747307342,"current_range_meters":20400,"station_id":"ce4bgr92rcd13ifvqc6g","pricing_plan_id":"cebpf4jnsgd1na2vs0mg"},{"bike_id":"69adc5b2-d802-49c4-a8ec-a7c6eeda7260","system_id":"levelo_inurba_marseille","lat":43.30554,"lon":5.36702,"is_reserved":false,"is_disabled":false,"rental_uris":{"android":"levelo://app?vid=69adc5b2-d802-49c4-a8ec-a7c6eeda7260","ios":"levelo://app?vid=69adc5b2-d802-49c4-a8ec-a7c6eeda7260"},"vehicle_type_id":"4","last_reported":1747307342,"current_range_meters":20400,"station_id":"ce4bgrp2rcd13ifvqc9g","pricing_plan_id":"cebpf4jnsgd1na2vs0mg"},{"bike_id":"f21f97f9-ae7b-455f-a9a6-ebf45c9453fb","system_id":"levelo_inurba_marseille","lat":43.23177,"lon":5.39996,"is_reserved":false,"is_disabled":false,"rental_uris":{"android":"levelo://app?vid=f21f97f9-ae7b-455f-a9a6-ebf45c9453fb","ios":"levelo://app?vid=f21f97f9-ae7b-455f-a9a6-ebf45c9453fb"},"vehicle_type_id":"4","last_reported":1747307342,"current_range_meters":20400,"station_id":"ce4bhn12rcd13ifvqgqg","pricing_plan_id":"cebpf4jnsgd1na2vs0mg"},{"bike_id":"3c2aecb5-a582-43ad-b8e7-f93b65b07c12","system_id":"levelo_inurba_marseille","lat":43.26224,"lon":5.40448,"is_reserved":false,"is_disabled":false,"rental_uris":{"android":"levelo://app?vid=3c2aecb5-a582-43ad-b8e7-f93b65b07c12","ios":"levelo://app?vid=3c2aecb5-a582-43ad-b8e7-f93b65b07c12"},"vehicle_type_id":"4","last_reported":1747307342,"current_range_meters":20800,"station_id":"ce4bhmh2rcd13ifvqgmg","pricing_plan_id":"cebpf4jnsgd1na2vs0mg"},{"bike_id":"dff8c6a1-13d1-4167-a2cc-2614f7472670","system_id":"levelo_inurba_marseille","lat":43.262207,"lon":5.404483,"is_reserved":false,"is_disabled":false,"rental_uris":{"android":"levelo://app?vid=dff8c6a1-13d1-4167-a2cc-2614f7472670","ios":"levelo://app?vid=dff8c6a1-13d1-4167-a2cc-2614f7472670"},"vehicle_type_id":"4","last_reported":1747307342,"current_range_meters":20800,"station_id":"ce4bhmh2rcd13ifvqgmg","pricing_plan_id":"cebpf4jnsgd1na2vs0mg"},{"bike_id":"bc997f5b-ce07-476e-841c-3f5b79bd98e0","system_id":"levelo_inurba_marseille","lat":43.23129,"lon":5.43741,"is_reserved":false,"is_disabled":false,"rental_uris":{"android":"levelo://app?vid=bc997f5b-ce07-476e-841c-3f5b79bd98e0","ios":"levelo://app?vid=bc997f5b-ce07-476e-841c-3f5b79bd98e0"},"vehicle_type_id":"4","last_reported":1747307342,"current_range_meters":20800,"station_id":"ce4bhmp2rcd13ifvqgog","pricing_plan_id":"cebpf4jnsgd1na2vs0mg"},{"bike_id":"c41abff9-2506-47e6-9902-a67c3ce73da3","system_id":"levelo_inurba_marseille","lat":43.24163,"lon":5.39746,"is_reserved":false,"is_disabled":false,"rental_uris":{"android":"levelo://app?vid=c41abff9-2506-47e6-9902-a67c3ce73da3","ios":"levelo://app?vid=c41abff9-2506-47e6-9902-a67c3ce73da3"},"vehicle_type_id":"4","last_reported":1747307342,"current_range_meters":20800,"station_id":"ce4bhn12rcd13ifvqgpg","pricing_plan_id":"cebpf4jnsgd1na2vs0mg"},{"bike_id":"6e09a424-e841-44ba-8ad4-ce2253a7578a","system_id":"levelo_inurba_marseille","lat":43.31084,"lon":5.42429,"is_reserved":false,"is_disabled":false,"rental_uris":{"android":"levelo://app?vid=6e09a424-e841-44ba-8ad4-ce2253a7578a","ios":"levelo://app?vid=6e09a424-e841-44ba-8ad4-ce2253a7578a"},"vehicle_type_id":"4","last_reported":1747307342,"current_range_meters":20800,"station_id":"ce4bhp92rcd13ifvqhag","pricing_plan_id":"cebpf4jnsgd1na2vs0mg"},{"bike_id":"683280a6-222a-410e-8092-5117649dec0a","system_id":"levelo_inurba_marseille","lat":43.2955,"lon":5.42294,"is_reserved":false,"is_disabled":false,"rental_uris":{"android":"levelo://app?vid=683280a6-222a-410e-8092-5117649dec0a","ios":"levelo://app?vid=683280a6-222a-410e-8092-5117649dec0a"},"vehicle_type_id":"4","last_reported":1747307342,"current_range_meters":20800,"station_id":"ce4bhph2rcd13ifvqhdg","pricing_plan_id":"cebpf4jnsgd1na2vs0mg"},{"bike_id":"0ad54c11-373d-4af5-8f31-d0b7a950287d","system_id":"levelo_inurba_marseille","lat":43.29523,"lon":5.42306,"is_reserved":false,"is_disabled":false,"rental_uris":{"android":"levelo://app?vid=0ad54c11-373d-4af5-8f31-d0b7a950287d","ios":"levelo://app?vid=0ad54c11-373d-4af5-8f31-d0b7a950287d"},"vehicle_type_id":"4","last_reported":1747307342,"current_range_meters":20800,"station_id":"ce4bhph2rcd13ifvqhdg","pricing_plan_id":"cebpf4jnsgd1na2vs0mg"},{"bike_id":"d2b358fa-3af4-4c03-a2ca-467ddd00ddbc","system_id":"levelo_inurba_marseille","lat":43.324795,"lon":5.365685,"is_reserved":false,"is_disabled":false,"rental_uris":{"android":"levelo://app?vid=d2b358fa-3af4-4c03-a2ca-467ddd00ddbc","ios":"levelo://app?vid=d2b358fa-3af4-4c03-a2ca-467ddd00ddbc"},"vehicle_type_id":"4","last_reported":1747307342,"current_range_meters":20800,"station_id":"ce4bhs12rcd13ifvqhvg","pricing_plan_id":"cebpf4jnsgd1na2vs0mg"},{"bike_id":"16a14a25-8e4a-4e60-927c-d7bb287d77ad","system_id":"levelo_inurba_marseille","lat":43.3078,"lon":5.37646,"is_reserved":false,"is_disabled":false,"rental_uris":{"android":"levelo://app?vid=16a14a25-8e4a-4e60-927c-d7bb287d77ad","ios":"levelo://app?vid=16a14a25-8e4a-4e60-927c-d7bb287d77ad"},"vehicle_type_id":"4","last_reported":1747307342,"current_range_meters":21600,"station_id":"ce4bgv92rcd13ifvqcq0","pricing_plan_id":"cebpf4jnsgd1na2vs0mg"},{"bike_id":"2824b223-3164-43b9-9e84-0580de346b34","system_id":"levelo_inurba_marseille","lat":43.31058,"lon":5.38343,"is_reserved":false,"is_disabled":false,"rental_uris":{"android":"levelo://app?vid=2824b223-3164-43b9-9e84-0580de346b34","ios":"levelo://app?vid=2824b223-3164-43b9-9e84-0580de346b34"},"vehicle_type_id":"4","last_reported":1747307342,"current_range_meters":21600,"station_id":"ce4bgv92rcd13ifvqcr0","pricing_plan_id":"cebpf4jnsgd1na2vs0mg"},{"bike_id":"a8b092ea-6ead-4e4b-8c7c-39218883595f","system_id":"levelo_inurba_marseille","lat":43.284135,"lon":5.349748,"is_reserved":false,"is_disabled":false,"rental_uris":{"android":"levelo://app?vid=a8b092ea-6ead-4e4b-8c7c-39218883595f","ios":"levelo://app?vid=a8b092ea-6ead-4e4b-8c7c-39218883595f"},"vehicle_type_id":"4","last_reported":1747307342,"current_range_meters":21600,"station_id":"ce4bh9p2rcd13ifvqed0","pricing_plan_id":"cebpf4jnsgd1na2vs0mg"},{"bike_id":"694bd0f2-6b04-4a77-9da9-ea9bca1265f5","system_id":"levelo_inurba_marseille","lat":43.26201,"lon":5.37462,"is_reserved":false,"is_disabled":false,"rental_uris":{"android":"levelo://app?vid=694bd0f2-6b04-4a77-9da9-ea9bca1265f5","ios":"levelo://app?vid=694bd0f2-6b04-4a77-9da9-ea9bca1265f5"},"vehicle_type_id":"4","last_reported":1747307342,"current_range_meters":21600,"station_id":"ce4bhgp2rcd13ifvqfc0","pricing_plan_id":"cebpf4jnsgd1na2vs0mg"},{"bike_id":"0836f697-23ff-44e4-8106-f9aba636d89d","system_id":"levelo_inurba_marseille","lat":43.24388,"lon":5.37066,"is_reserved":false,"is_disabled":false,"rental_uris":{"android":"levelo://app?vid=0836f697-23ff-44e4-8106-f9aba636d89d","ios":"levelo://app?vid=0836f697-23ff-44e4-8106-f9aba636d89d"},"vehicle_type_id":"4","last_reported":1747307342,"current_range_meters":21600,"station_id":"ce4bhhh2rcd13ifvqfk0","pricing_plan_id":"cebpf4jnsgd1na2vs0mg"},{"bike_id":"87ffd854-f95b-4ac1-a151-b8179d95860e","system_id":"levelo_inurba_marseille","lat":43.262213,"lon":5.404672,"is_reserved":false,"is_disabled":false,"rental_uris":{"android":"levelo://app?vid=87ffd854-f95b-4ac1-a151-b8179d95860e","ios":"levelo://app?vid=87ffd854-f95b-4ac1-a151-b8179d95860e"},"vehicle_type_id":"4","last_reported":1747307342,"current_range_meters":21600,"station_id":"ce4bhmh2rcd13ifvqgmg","pricing_plan_id":"cebpf4jnsgd1na2vs0mg"},{"bike_id":"56b281eb-56cb-460f-8b8f-cf004e7b133c","system_id":"levelo_inurba_marseille","lat":43.2622,"lon":5.40459,"is_reserved":false,"is_disabled":false,"rental_uris":{"android":"levelo://app?vid=56b281eb-56cb-460f-8b8f-cf004e7b133c","ios":"levelo://app?vid=56b281eb-56cb-460f-8b8f-cf004e7b133c"},"vehicle_type_id":"4","last_reported":1747307342,"current_range_meters":21600,"station_id":"ce4bhmh2rcd13ifvqgmg","pricing_plan_id":"cebpf4jnsgd1na2vs0mg"},{"bike_id":"e7acce4d-9309-438b-9bdd-36e79af46564","system_id":"levelo_inurba_marseille","lat":43.24158,"lon":5.39724,"is_reserved":false,"is_disabled":false,"rental_uris":{"android":"levelo://app?vid=e7acce4d-9309-438b-9bdd-36e79af46564","ios":"levelo://app?vid=e7acce4d-9309-438b-9bdd-36e79af46564"},"vehicle_type_id":"4","last_reported":1747307342,"current_range_meters":21600,"station_id":"ce4bhn12rcd13ifvqgpg","pricing_plan_id":"cebpf4jnsgd1na2vs0mg"},{"bike_id":"2c511460-bc69-4192-ae4d-20f65777a559","system_id":"levelo_inurba_marseille","lat":43.217476,"lon":5.346011,"is_reserved":false,"is_disabled":false,"rental_uris":{"android":"levelo://app?vid=2c511460-bc69-4192-ae4d-20f65777a559","ios":"levelo://app?vid=2c511460-bc69-4192-ae4d-20f65777a559"},"vehicle_type_id":"4","last_reported":1747307342,"current_range_meters":21600,"station_id":"st_cvj6r9ubvosntc0bgbag","pricing_plan_id":"cebpf4jnsgd1na2vs0mg"},{"bike_id":"0934cb3f-1cb2-4e34-9efb-abd0c06d8272","system_id":"levelo_inurba_marseille","lat":43.30538,"lon":5.367,"is_reserved":false,"is_disabled":false,"rental_uris":{"android":"levelo://app?vid=0934cb3f-1cb2-4e34-9efb-abd0c06d8272","ios":"levelo://app?vid=0934cb3f-1cb2-4e34-9efb-abd0c06d8272"},"vehicle_type_id":"4","last_reported":1747307342,"current_range_meters":22000,"station_id":"ce4bgrp2rcd13ifvqc9g","pricing_plan_id":"cebpf4jnsgd1na2vs0mg"},{"bike_id":"432b3b86-c9a2-43f5-8ae7-5da06bc34c8b","system_id":"levelo_inurba_marseille","lat":43.28354,"lon":5.38111,"is_reserved":false,"is_disabled":false,"rental_uris":{"android":"levelo://app?vid=432b3b86-c9a2-43f5-8ae7-5da06bc34c8b","ios":"levelo://app?vid=432b3b86-c9a2-43f5-8ae7-5da06bc34c8b"},"vehicle_type_id":"4","last_reported":1747307342,"current_range_meters":22000,"station_id":"ce4bh412rcd13ifvqdr0","pricing_plan_id":"cebpf4jnsgd1na2vs0mg"},{"bike_id":"cbd64803-3e38-411a-ab98-2ba632c27a7e","system_id":"levelo_inurba_marseille","lat":43.28674,"lon":5.36359,"is_reserved":false,"is_disabled":false,"rental_uris":{"android":"levelo://app?vid=cbd64803-3e38-411a-ab98-2ba632c27a7e","ios":"levelo://app?vid=cbd64803-3e38-411a-ab98-2ba632c27a7e"},"vehicle_type_id":"4","last_reported":1747307342,"current_range_meters":22000,"station_id":"ce4bhah2rcd13ifvqej0","pricing_plan_id":"cebpf4jnsgd1na2vs0mg"},{"bike_id":"b2ee0c2b-0d07-4874-974d-1614a8a40842","system_id":"levelo_inurba_marseille","lat":43.26557,"lon":5.37283,"is_reserved":false,"is_disabled":false,"rental_uris":{"android":"levelo://app?vid=b2ee0c2b-0d07-4874-974d-1614a8a40842","ios":"levelo://app?vid=b2ee0c2b-0d07-4874-974d-1614a8a40842"},"vehicle_type_id":"4","last_reported":1747307342,"current_range_meters":22000,"station_id":"ce4bhg12rcd13ifvqf70","pricing_plan_id":"cebpf4jnsgd1na2vs0mg"},{"bike_id":"663ff73a-1f1c-4297-937e-01b4880b5a71","system_id":"levelo_inurba_marseille","lat":43.260588,"lon":5.393922,"is_reserved":false,"is_disabled":false,"rental_uris":{"android":"levelo://app?vid=663ff73a-1f1c-4297-937e-01b4880b5a71","ios":"levelo://app?vid=663ff73a-1f1c-4297-937e-01b4880b5a71"},"vehicle_type_id":"4","last_reported":1747307342,"current_range_meters":22000,"station_id":"ce4bhh92rcd13ifvqfj0","pricing_plan_id":"cebpf4jnsgd1na2vs0mg"},{"bike_id":"bbf8c90b-992c-42f7-bada-117f953fe301","system_id":"levelo_inurba_marseille","lat":43.23966,"lon":5.36644,"is_reserved":false,"is_disabled":false,"rental_uris":{"android":"levelo://app?vid=bbf8c90b-992c-42f7-bada-117f953fe301","ios":"levelo://app?vid=bbf8c90b-992c-42f7-bada-117f953fe301"},"vehicle_type_id":"4","last_reported":1747307342,"current_range_meters":22000,"station_id":"ce4bhi12rcd13ifvqfp0","pricing_plan_id":"cebpf4jnsgd1na2vs0mg"},{"bike_id":"bea361d9-9be7-4fc1-ac10-18fb75abd701","system_id":"levelo_inurba_marseille","lat":43.25726,"lon":5.41106,"is_reserved":false,"is_disabled":false,"rental_uris":{"android":"levelo://app?vid=bea361d9-9be7-4fc1-ac10-18fb75abd701","ios":"levelo://app?vid=bea361d9-9be7-4fc1-ac10-18fb75abd701"},"vehicle_type_id":"4","last_reported":1747307342,"current_range_meters":22000,"station_id":"ce4bhkp2rcd13ifvqgd0","pricing_plan_id":"cebpf4jnsgd1na2vs0mg"},{"bike_id":"62b3547c-1003-4760-80c5-fd4f6e4d4573","system_id":"levelo_inurba_marseille","lat":43.29542,"lon":5.4227,"is_reserved":false,"is_disabled":false,"rental_uris":{"android":"levelo://app?vid=62b3547c-1003-4760-80c5-fd4f6e4d4573","ios":"levelo://app?vid=62b3547c-1003-4760-80c5-fd4f6e4d4573"},"vehicle_type_id":"4","last_reported":1747307342,"current_range_meters":22000,"station_id":"ce4bhph2rcd13ifvqhdg","pricing_plan_id":"cebpf4jnsgd1na2vs0mg"},{"bike_id":"2c05ac48-da0c-491e-9d84-1eb588661ac8","system_id":"levelo_inurba_marseille","lat":43.32536,"lon":5.41433,"is_reserved":false,"is_disabled":false,"rental_uris":{"android":"levelo://app?vid=2c05ac48-da0c-491e-9d84-1eb588661ac8","ios":"levelo://app?vid=2c05ac48-da0c-491e-9d84-1eb588661ac8"},"vehicle_type_id":"4","last_reported":1747307342,"current_range_meters":22000,"station_id":"ce4bhq12rcd13ifvqhhg","pricing_plan_id":"cebpf4jnsgd1na2vs0mg"},{"bike_id":"b68c6ff7-1f1c-4f7d-9041-9d51ea43e3d5","system_id":"levelo_inurba_marseille","lat":43.32481,"lon":5.365725,"is_reserved":false,"is_disabled":false,"rental_uris":{"android":"levelo://app?vid=b68c6ff7-1f1c-4f7d-9041-9d51ea43e3d5","ios":"levelo://app?vid=b68c6ff7-1f1c-4f7d-9041-9d51ea43e3d5"},"vehicle_type_id":"4","last_reported":1747307342,"current_range_meters":22000,"station_id":"ce4bhs12rcd13ifvqhvg","pricing_plan_id":"cebpf4jnsgd1na2vs0mg"},{"bike_id":"222e640d-4309-4e36-a781-2dad2f594c15","system_id":"levelo_inurba_marseille","lat":43.337444,"lon":5.374475,"is_reserved":false,"is_disabled":false,"rental_uris":{"android":"levelo://app?vid=222e640d-4309-4e36-a781-2dad2f594c15","ios":"levelo://app?vid=222e640d-4309-4e36-a781-2dad2f594c15"},"vehicle_type_id":"4","last_reported":1747307342,"current_range_meters":22400,"station_id":"","pricing_plan_id":"cebpf4jnsgd1na2vs0mg"},{"bike_id":"60d36196-6b9a-4ec6-a9fa-decabbb85653","system_id":"levelo_inurba_marseille","lat":43.29853,"lon":5.36272,"is_reserved":false,"is_disabled":false,"rental_uris":{"android":"levelo://app?vid=60d36196-6b9a-4ec6-a9fa-decabbb85653","ios":"levelo://app?vid=60d36196-6b9a-4ec6-a9fa-decabbb85653"},"vehicle_type_id":"4","last_reported":1747307342,"current_range_meters":22400,"station_id":"ce4bgpp2rcd13ifvqc3g","pricing_plan_id":"cebpf4jnsgd1na2vs0mg"},{"bike_id":"96f94c94-a8d8-48ef-99d3-5f0bcf6b1297","system_id":"levelo_inurba_marseille","lat":43.25503,"lon":5.37651,"is_reserved":false,"is_disabled":false,"rental_uris":{"android":"levelo://app?vid=96f94c94-a8d8-48ef-99d3-5f0bcf6b1297","ios":"levelo://app?vid=96f94c94-a8d8-48ef-99d3-5f0bcf6b1297"},"vehicle_type_id":"4","last_reported":1747307342,"current_range_meters":22400,"station_id":"ce4bhh12rcd13ifvqff0","pricing_plan_id":"cebpf4jnsgd1na2vs0mg"},{"bike_id":"857ae28a-aa1b-472c-81f4-a021793ae76f","system_id":"levelo_inurba_marseille","lat":43.28602,"lon":5.37059,"is_reserved":false,"is_disabled":false,"rental_uris":{"android":"levelo://app?vid=857ae28a-aa1b-472c-81f4-a021793ae76f","ios":"levelo://app?vid=857ae28a-aa1b-472c-81f4-a021793ae76f"},"vehicle_type_id":"4","last_reported":1747307342,"current_range_meters":22400,"station_id":"ce4bht12rcd13ifvqi60","pricing_plan_id":"cebpf4jnsgd1na2vs0mg"},{"bike_id":"7bfe3070-8935-4c63-9e5f-e953d5dfb638","system_id":"levelo_inurba_marseille","lat":43.312212,"lon":5.36863,"is_reserved":false,"is_disabled":false,"rental_uris":{"android":"levelo://app?vid=7bfe3070-8935-4c63-9e5f-e953d5dfb638","ios":"levelo://app?vid=7bfe3070-8935-4c63-9e5f-e953d5dfb638"},"vehicle_type_id":"4","last_reported":1747307342,"current_range_meters":22800,"station_id":"ce4bgl92rcd13ifvqbq0","pricing_plan_id":"cebpf4jnsgd1na2vs0mg"},{"bike_id":"ddfd940d-95a7-45bf-9c9c-763900983f9b","system_id":"levelo_inurba_marseille","lat":43.305373,"lon":5.367023,"is_reserved":false,"is_disabled":false,"rental_uris":{"android":"levelo://app?vid=ddfd940d-95a7-45bf-9c9c-763900983f9b","ios":"levelo://app?vid=ddfd940d-95a7-45bf-9c9c-763900983f9b"},"vehicle_type_id":"4","last_reported":1747307342,"current_range_meters":22800,"station_id":"ce4bgrp2rcd13ifvqc9g","pricing_plan_id":"cebpf4jnsgd1na2vs0mg"},{"bike_id":"d80e1c72-a0b9-4b1d-84b0-3c4eb2cfeb2c","system_id":"levelo_inurba_marseille","lat":43.29076,"lon":5.37174,"is_reserved":false,"is_disabled":false,"rental_uris":{"android":"levelo://app?vid=d80e1c72-a0b9-4b1d-84b0-3c4eb2cfeb2c","ios":"levelo://app?vid=d80e1c72-a0b9-4b1d-84b0-3c4eb2cfeb2c"},"vehicle_type_id":"4","last_reported":1747307342,"current_range_meters":22800,"station_id":"ce4bh5p2rcd13ifvqe4g","pricing_plan_id":"cebpf4jnsgd1na2vs0mg"},