{"last_updated":1733137710,"ttl":60,"version":"2.2","data":{"bikes":[{"bike_id":"d9cf30de-0faf-4592-b085-b334d71d07d1","system_id":"levelo_inurba_marseille","lat":43.30961,"lon":5.39041,"is_reserved":false,"is_disabled":false,"rental_uris":{"android":"levelo://app?vid=d9cf30de-0faf-4592-b085-b334d71d07d1","ios":"levelo://app?vid=d9cf30de-0faf-4592-b085-b334d71d07d1"},"vehicle_type_id":"4","last_reported":1733137710,"current_range_meters":38800,"station_id":"ce4bgup2rcd13ifvqco0","pricing_plan_id":"cebpf4jnsgd1na2vs0mg"},{"bike_id":"a8240cfa-6b36-44f3-899a-4807a01486bd","system_id":"levelo_inurba_marseille","lat":43.2955,"lon":5.42281,"is_reserved":false,"is_disabled":false,"rental_uris":{"android":"levelo://app?vid=a8240cfa-6b36-44f3-899a-4807a01486bd","ios":"levelo://app?vid=a8240cfa-6b36-44f3-899a-4807a01486bd"},"vehicle_type_id":"4","last_reported":1733137710,"current_range_meters":22800,"station_id":"ce4bhph2rcd13ifvqhdg","pricing_plan_id":"cebpf4jnsgd1na2vs0mg"},{"bike_id":"5d185ce1-f6f3-4450-a56d-622efc6c6751","system_id":"levelo_inurba_marseille","lat":43.30152,"lon":5.38102,"is_reserved":false,"is_disabled":true,"rental_uris":{"android":"levelo://app?vid=5d185ce1-f6f3-4450-a56d-622efc6c6751","ios":"levelo://app?vid=5d185ce1-f6f3-4450-a56d-622efc6c6751"},"vehicle_type_id":"4","last_reported":1733137710,"current_range_meters":0,"station_id":"ce4bgjp2rcd13ifvqbh0","pricing_plan_id":"cebpf4jnsgd1na2vs0mg"},{"bike_id":"36f80ea5-8062-4524-a4e5-be8cde6b930a","system_id":"levelo_inurba_marseille","lat":43.29688,"lon":5.37078,"is_reserved":false,"is_disabled":true,"rental_uris":{"android":"levelo://app?vid=36f80ea5-8062-4524-a4e5-be8cde6b930a","ios":"levelo://app?vid=36f80ea5-8062-4524-a4e5-be8cde6b930a"},"vehicle_type_id":"4","last_reported":1733137710,"current_range_meters":0,"station_id":"","pricing_plan_id":"cebpf4jnsgd1na2vs0mg"},{"bike_id":"7ff9ed7d-51d4-4c0b-aef0-61969fefb411","system_id":"levelo_inurba_marseille","lat":43.2418,"lon":5.36416,"is_reserved":false,"is_disabled":false,"rental_uris":{"android":"levelo://app?vid=7ff9ed7d-51d4-4c0b-aef0-61969fefb411","ios":"levelo://app?vid=7ff9ed7d-51d4-4c0b-aef0-61969fefb411"},"vehicle_type_id":"4","last_reported":1733137710,"current_range_meters":21600,"station_id":"cpo36qri1sfpv3e86is0","pricing_plan_id":"cebpf4jnsgd1na2vs0mg"},{"bike_id":"304c3c23-006c-47a7-be41-53df15bd78fa","system_id":"levelo_inurba_marseille","lat":43.294174,"lon":5.386148,"is_reserved":false,"is_disabled":true,"rental_uris":{"android":"levelo://app?vid=304c3c23-006c-47a7-be41-53df15bd78fa","ios":"levelo://app?vid=304c3c23-006c-47a7-be41-53df15bd78fa"},"vehicle_type_id":"4","last_reported":1733137710,"current_range_meters":24000,"station_id":"ce4bh2h2rcd13ifvqdh0","pricing_plan_id":"cebpf4jnsgd1na2vs0mg"},{"bike_id":"2e201dc3-1654-4486-8880-a15f960b680d","system_id":"levelo_inurba_marseille","lat":43.29197,"lon":5.39323,"is_reserved":false,"is_disabled":false,"rental_uris":{"android":"levelo://app?vid=2e201dc3-1654-4486-8880-a15f960b680d","ios":"levelo://app?vid=2e201dc3-1654-4486-8880-a15f960b680d"},"vehicle_type_id":"4","last_reported":1733137710,"current_range_meters":30400,"station_id":"ce4bh192rcd13ifvqdd0","pricing_plan_id":"cebpf4jnsgd1na2vs0mg"},{"bike_id":"2f238872-9fb2-4825-808e-79402db36306","system_id":"levelo_inurba_marseille","lat":43.29048,"lon":5.39965,"is_reserved":false,"is_disabled":false,"rental_uris":{"android":"levelo://app?vid=2f238872-9fb2-4825-808e-79402db36306","ios":"levelo://app?vid=2f238872-9fb2-4825-808e-79402db36306"},"vehicle_type_id":"4","last_reported":1733137710,"current_range_meters":37600,"station_id":"ce4bh392rcd13ifvqdm0","pricing_plan_id":"cebpf4jnsgd1na2vs0mg"},{"bike_id":"c7fd9a8a-683d-4913-a335-37412e9cdae7","system_id":"levelo_inurba_marseille","lat":43.27833,"lon":5.39207,"is_reserved":false,"is_disabled":false,"rental_uris":{"android":"levelo://app?vid=c7fd9a8a-683d-4913-a335-37412e9cdae7","ios":"levelo://app?vid=c7fd9a8a-683d-4913-a335-37412e9cdae7"},"vehicle_type_id":"4","last_reported":1733137710,"current_range_meters":22000,"station_id":"ce4bhjp2rcd13ifvqga0","pricing_plan_id":"cebpf4jnsgd1na2vs0mg"},{"bike_id":"1c82affe-6529-4401-9239-4b3b8b2a7b56","system_id":"levelo_inurba_marseille","lat":43.33026,"lon":5.39047,"is_reserved":false,"is_disabled":false,"rental_uris":{"android":"levelo://app?vid=1c82affe-6529-4401-9239-4b3b8b2a7b56","ios":"levelo://app?vid=1c82affe-6529-4401-9239-4b3b8b2a7b56"},"vehicle_type_id":"4","last_reported":1733137710,"current_range_meters":34000,"station_id":"ce4bhr92rcd13ifvqhrg","pricing_plan_id":"cebpf4jnsgd1na2vs0mg"},{"bike_id":"7efd0a66-6d6c-4730-a1fe-0cd3222ee3da","system_id":"levelo_inurba_marseille","lat":43.23139,"lon":5.43711,"is_reserved":false,"is_disabled":false,"rental_uris":{"android":"levelo://app?vid=7efd0a66-6d6c-4730-a1fe-0cd3222ee3da","ios":"levelo://app?vid=7efd0a66-6d6c-4730-a1fe-0cd3222ee3da"},"vehicle_type_id":"4","last_reported":1733137710,"current_range_meters":12800,"station_id":"ce4bhmp2rcd13ifvqgog","pricing_plan_id":"cebpf4jnsgd1na2vs0mg"},{"bike_id":"966791e8-cdff-4838-a42b-c9b609a533a7","system_id":"levelo_inurba_marseille","lat":43.27455,"lon":5.40073,"is_reserved":false,"is_disabled":true,"rental_uris":{"android":"levelo://app?vid=966791e8-cdff-4838-a42b-c9b609a533a7","ios":"levelo://app?vid=966791e8-cdff-4838-a42b-c9b609a533a7"},"vehicle_type_id":"4","last_reported":1733137710,"current_range_meters":0,"station_id":"","pricing_plan_id":"cebpf4jnsgd1na2vs0mg"},{"bike_id":"edaa2690-e8bc-498d-ab5c-13269193fb53","system_id":"levelo_inurba_marseille","lat":43.30539,"lon":5.36696,"is_reserved":false,"is_disabled":false,"rental_uris":{"android":"levelo://app?vid=edaa2690-e8bc-498d-ab5c-13269193fb53","ios":"levelo://app?vid=edaa2690-e8bc-498d-ab5c-13269193fb53"},"vehicle_type_id":"4","last_reported":1733137710,"current_range_meters":38800,"station_id":"ce4bgrp2rcd13ifvqc9g","pricing_plan_id":"cebpf4jnsgd1na2vs0mg"},{"bike_id":"2de89d26-ce43-4a87-a1d1-a54c43ca69b7","system_id":"levelo_inurba_marseille","lat":43.3248,"lon":5.36559,"is_reserved":false,"is_disabled":false,"rental_uris":{"android":"levelo://app?vid=2de89d26-ce43-4a87-a1d1-a54c43ca69b7","ios":"levelo://app?vid=2de89d26-ce43-4a87-a1d1-a54c43ca69b7"},"vehicle_type_id":"4","last_reported":1733137710,"current_range_meters":22000,"station_id":"ce4bhs12rcd13ifvqhvg","pricing_plan_id":"cebpf4jnsgd1na2vs0mg"},{"bike_id":"7358bb8b-14d0-4930-9478-05e0c0da6cb5","system_id":"levelo_inurba_marseille","lat":43.26194,"lon":5.37453,"is_reserved":false,"is_disabled":false,"rental_uris":{"android":"levelo://app?vid=7358bb8b-14d0-4930-9478-05e0c0da6cb5","ios":"levelo://app?vid=7358bb8b-14d0-4930-9478-05e0c0da6cb5"},"vehicle_type_id":"4","last_reported":1733137710,"current_range_meters":38400,"station_id":"ce4bhgp2rcd13ifvqfc0","pricing_plan_id":"cebpf4jnsgd1na2vs0mg"},{"bike_id":"90b2275d-7c71-4985-84cb-204f1c3e9988","system_id":"levelo_inurba_marseille","lat":43.30182,"lon":5.36607,"is_reserved":false,"is_disabled":false,"rental_uris":{"android":"levelo://app?vid=90b2275d-7c71-4985-84cb-204f1c3e9988","ios":"levelo://app?vid=90b2275d-7c71-4985-84cb-204f1c3e9988"},"vehicle_type_id":"4","last_reported":1733137710,"current_range_meters":22400,"station_id":"ce4bgrh2rcd13ifvqc8g","pricing_plan_id":"cebpf4jnsgd1na2vs0mg"},{"bike_id":"599721bc-4c56-4323-a7a6-1e094f7971bc","system_id":"levelo_inurba_marseille","lat":43.2815,"lon":5.42641,"is_reserved":false,"is_disabled":false,"rental_uris":{"android":"levelo://app?vid=599721bc-4c56-4323-a7a6-1e094f7971bc","ios":"levelo://app?vid=599721bc-4c56-4323-a7a6-1e094f7971bc"},"vehicle_type_id":"4","last_reported":1733137710,"current_range_meters":23200,"station_id":"ce4bhnh2rcd13ifvqgug","pricing_plan_id":"cebpf4jnsgd1na2vs0mg"},{"bike_id":"cd0fcf25-e3a1-4578-b825-9b01814e142b","system_id":"levelo_inurba_marseille","lat":43.33603,"lon":5.41032,"is_reserved":false,"is_disabled":false,"rental_uris":{"android":"levelo://app?vid=cd0fcf25-e3a1-4578-b825-9b01814e142b","ios":"levelo://app?vid=cd0fcf25-e3a1-4578-b825-9b01814e142b"},"vehicle_type_id":"4","last_reported":1733137710,"current_range_meters":10800,"station_id":"ce4bhqh2rcd13ifvqhmg","pricing_plan_id":"cebpf4jnsgd1na2vs0mg"},{"bike_id":"c4971927-50ca-4e1a-ad6c-f3b5f3e20680","system_id":"levelo_inurba_marseille","lat":43.320652,"lon":5.415422,"is_reserved":false,"is_disabled":true,"rental_uris":{"android":"levelo://app?vid=c4971927-50ca-4e1a-ad6c-f3b5f3e20680","ios":"levelo://app?vid=c4971927-50ca-4e1a-ad6c-f3b5f3e20680"},"vehicle_type_id":"4","last_reported":1733137710,"current_range_meters":38800,"station_id":"ce4bhq92rcd13ifvqhkg","pricing_plan_id":"cebpf4jnsgd1na2vs0mg"},{"bike_id":"c8540c9d-7dc3-44fa-a0f8-7263d3d70bb8","system_id":"levelo_inurba_marseille","lat":43.2464,"lon":5.38896,"is_reserved":false,"is_disabled":true,"rental_uris":{"android":"levelo://app?vid=c8540c9d-7dc3-44fa-a0f8-7263d3d70bb8","ios":"levelo://app?vid=c8540c9d-7dc3-44fa-a0f8-7263d3d70bb8"},"vehicle_type_id":"4","last_reported":1733137710,"current_range_meters":0,"station_id":"ce4bhg12rcd13ifvqf60","pricing_plan_id":"cebpf4jnsgd1na2vs0mg"},{"bike_id":"deab20d3-06dd-44bd-8513-0f9135b4dbf4","system_id":"levelo_inurba_marseille","lat":43.31884,"lon":5.40727,"is_reserved":false,"is_disabled":false,"rental_uris":{"android":"levelo://app?vid=deab20d3-06dd-44bd-8513-0f9135b4dbf4","ios":"levelo://app?vid=deab20d3-06dd-44bd-8513-0f9135b4dbf4"},"vehicle_type_id":"4","last_reported":1733137710,"current_range_meters":14800,"station_id":"ce4bhq12rcd13ifvqhig","pricing_plan_id":"cebpf4jnsgd1na2vs0mg"},{"bike_id":"87a177cf-8a72-43d2-ad9b-470961f3e5dc","system_id":"levelo_inurba_marseille","lat":43.299976,"lon":5.376415,"is_reserved":false,"is_disabled":true,"rental_uris":{"android":"levelo://app?vid=87a177cf-8a72-43d2-ad9b-470961f3e5dc","ios":"levelo://app?vid=87a177cf-8a72-43d2-ad9b-470961f3e5dc"},"vehicle_type_id":"4","last_reported":1733137710,"current_range_meters":0,"station_id":"","pricing_plan_id":"cebpf4jnsgd1na2vs0mg"},{"bike_id":"e7d3785a-1f87-4212-a721-03fa819e8c45","system_id":"levelo_inurba_marseille","lat":43.23184,"lon":5.39978,"is_reserved":false,"is_disabled":false,"rental_uris":{"android":"levelo://app?vid=e7d3785a-1f87-4212-a721-03fa819e8c45","ios":"levelo://app?vid=e7d3785a-1f87-4212-a721-03fa819e8c45"},"vehicle_type_id":"4","last_reported":1733137710,"current_range_meters":38800,"station_id":"ce4bhn12rcd13ifvqgqg","pricing_plan_id":"cebpf4jnsgd1na2vs0mg"},{"bike_id":"aefe19c6-ea14-4a1e-94eb-a2510a93b49c","system_id":"levelo_inurba_marseille","lat":43.23151,"lon":5.43722,"is_reserved":false,"is_disabled":false,"rental_uris":{"android":"levelo://app?vid=aefe19c6-ea14-4a1e-94eb-a2510a93b49c","ios":"levelo://app?vid=aefe19c6-ea14-4a1e-94eb-a2510a93b49c"},"vehicle_type_id":"4","last_reported":1733137710,"current_range_meters":8400,"station_id":"ce4bhmp2rcd13ifvqgog","pricing_plan_id":"cebpf4jnsgd1na2vs0mg"},{"bike_id":"b0bd4cdf-7308-45f0-8e99-a0d5811907ff","system_id":"levelo_inurba_marseille","lat":43.25438,"lon":5.38158,"is_reserved":false,"is_disabled":true,"rental_uris":{"android":"levelo://app?vid=b0bd4cdf-7308-45f0-8e99-a0d5811907ff","ios":"levelo://app?vid=b0bd4cdf-7308-45f0-8e99-a0d5811907ff"},"vehicle_type_id":"4","last_reported":1733137710,"current_range_meters":0,"station_id":"","pricing_plan_id":"cebpf4jnsgd1na2vs0mg"},{"bike_id":"13341a5c-709a-42b3-984a-1db82542f4c6","system_id":"levelo_inurba_marseille","lat":43.29892,"lon":5.40327,"is_reserved":false,"is_disabled":true,"rental_uris":{"android":"levelo://app?vid=13341a5c-709a-42b3-984a-1db82542f4c6","ios":"levelo://app?vid=13341a5c-709a-42b3-984a-1db82542f4c6"},"vehicle_type_id":"4","last_reported":1733137710,"current_range_meters":0,"station_id":"","pricing_plan_id":"cebpf4jnsgd1na2vs0mg"},{"bike_id":"e8e48636-9f03-431e-ab9d-14ec67229389","system_id":"levelo_inurba_marseille","lat":43.295767,"lon":5.36751,"is_reserved":false,"is_disabled":false,"rental_uris":{"android":"levelo://app?vid=e8e48636-9f03-431e-ab9d-14ec67229389","ios":"levelo://app?vid=e8e48636-9f03-431e-ab9d-14ec67229389"},"vehicle_type_id":"4","last_reported":1733137710,"current_range_meters":35600,"station_id":"ce4bgph2rcd13ifvqc2g","pricing_plan_id":"cebpf4jnsgd1na2vs0mg"},{"bike_id":"dd2dacc9-c476-4299-b364-15e3af471c3b","system_id":"levelo_inurba_marseille","lat":43.28341,"lon":5.381,"is_reserved":false,"is_disabled":false,"rental_uris":{"android":"levelo://app?vid=dd2dacc9-c476-4299-b364-15e3af471c3b","ios":"levelo://app?vid=dd2dacc9-c476-4299-b364-15e3af471c3b"},"vehicle_type_id":"4","last_reported":1733137710,"current_range_meters":28800,"station_id":"ce4bh412rcd13ifvqdr0","pricing_plan_id":"cebpf4jnsgd1na2vs0mg"},{"bike_id":"6f7949e1-de87-4a49-8620-fec27e04447f","system_id":"levelo_inurba_marseille","lat":43.33722,"lon":5.39194,"is_reserved":false,"is_disabled":false,"rental_uris":{"android":"levelo://app?vid=6f7949e1-de87-4a49-8620-fec27e04447f","ios":"levelo://app?vid=6f7949e1-de87-4a49-8620-fec27e04447f"},"vehicle_type_id":"4","last_reported":1733137710,"current_range_meters":19200,"station_id":"ce4bhr92rcd13ifvqhsg","pricing_plan_id":"cebpf4jnsgd1na2vs0mg"},{"bike_id":"39a4f230-2b4a-43d5-b832-65f8065979c8","system_id":"levelo_inurba_marseille","lat":43.25933,"lon":5.4091,"is_reserved":false,"is_disabled":true,"rental_uris":{"android":"levelo://app?vid=39a4f230-2b4a-43d5-b832-65f8065979c8","ios":"levelo://app?vid=39a4f230-2b4a-43d5-b832-65f8065979c8"},"vehicle_type_id":"4","last_reported":1733137710,"current_range_meters":30800,"station_id":"ce4bhm92rcd13ifvqglg","pricing_plan_id":"cebpf4jnsgd1na2vs0mg"},{"bike_id":"79da6e11-068f-4f85-891a-bf5d6033ae1b","system_id":"levelo_inurba_marseille","lat":43.29186,"lon":5.39307,"is_reserved":false,"is_disabled":true,"rental_uris":{"android":"levelo://app?vid=79da6e11-068f-4f85-891a-bf5d6033ae1b","ios":"levelo://app?vid=79da6e11-068f-4f85-891a-bf5d6033ae1b"},"vehicle_type_id":"4","last_reported":1733137710,"current_range_meters":12800,"station_id":"ce4bh192rcd13ifvqdd0","pricing_plan_id":"cebpf4jnsgd1na2vs0mg"},{"bike_id":"a11ec84b-4c39-41a3-8618-20d5e8ae2c31","system_id":"levelo_inurba_marseille","lat":43.30806,"lon":5.43522,"is_reserved":false,"is_disabled":true,"rental_uris":{"android":"levelo://app?vid=a11ec84b-4c39-41a3-8618-20d5e8ae2c31","ios":"levelo://app?vid=a11ec84b-4c39-41a3-8618-20d5e8ae2c31"},"vehicle_type_id":"4","last_reported":1733137710,"current_range_meters":14800,"station_id":"ce4bhph2rcd13ifvqheg","pricing_plan_id":"cebpf4jnsgd1na2vs0mg"},{"bike_id":"2a1fea18-1ebc-4640-836e-bf0ccaac311e","system_id":"levelo_inurba_marseille","lat":43.30209,"lon":5.39472,"is_reserved":false,"is_disabled":false,"rental_uris":{"android":"levelo://app?vid=2a1fea18-1ebc-4640-836e-bf0ccaac311e","ios":"levelo://app?vid=2a1fea18-1ebc-4640-836e-bf0ccaac311e"},"vehicle_type_id":"4","last_reported":1733137710,"current_range_meters":26800,"station_id":"ce4bh0p2rcd13ifvqd70","pricing_plan_id":"cebpf4jnsgd1na2vs0mg"},{"bike_id":"2dcc4d7e-07bd-4653-baca-340e238b4d04","system_id":"levelo_inurba_marseille","lat":43.23963,"lon":5.36634,"is_reserved":false,"is_disabled":false,"rental_uris":{"android":"levelo://app?vid=2dcc4d7e-07bd-4653-baca-340e238b4d04","ios":"levelo://app?vid=2dcc4d7e-07bd-4653-baca-340e238b4d04"},"vehicle_type_id":"4","last_reported":1733137710,"current_range_meters":27600,"station_id":"ce4bhi12rcd13ifvqfp0","pricing_plan_id":"cebpf4jnsgd1na2vs0mg"},{"bike_id":"fa2dc7bb-12ec-4082-a039-9b1547b640e1","system_id":"levelo_inurba_marseille","lat":43.30544,"lon":5.36527,"is_reserved":false,"is_disabled":false,"rental_uris":{"android":"levelo://app?vid=fa2dc7bb-12ec-4082-a039-9b1547b640e1","ios":"levelo://app?vid=fa2dc7bb-12ec-4082-a039-9b1547b640e1"},"vehicle_type_id":"4","last_reported":1733137710,"current_range_meters":8800,"station_id":"ce4bgs12rcd13ifvqcag","pricing_plan_id":"cebpf4jnsgd1na2vs0mg"},{"bike_id":"32d55f99-0252-4be1-bce9-7a80f3291e5b","system_id":"levelo_inurba_marseille","lat":43.26684,"lon":5.38274,"is_reserved":false,"is_disabled":true,"rental_uris":{"android":"levelo://app?vid=32d55f99-0252-4be1-bce9-7a80f3291e5b","ios":"levelo://app?vid=32d55f99-0252-4be1-bce9-7a80f3291e5b"},"vehicle_type_id":"4","last_reported":1733137710,"current_range_meters":31200,"station_id":"ce4bhg92rcd13ifvqf90","pricing_plan_id":"cebpf4jnsgd1na2vs0mg"},{"bike_id":"06ff026d-0472-485b-af7f-31b0e650a412","system_id":"levelo_inurba_marseille","lat":43.32288,"lon":5.37567,"is_reserved":false,"is_disabled":false,"rental_uris":{"android":"levelo://app?vid=06ff026d-0472-485b-af7f-31b0e650a412","ios":"levelo://app?vid=06ff026d-0472-485b-af7f-31b0e650a412"},"vehicle_type_id":"4","last_reported":1733137710,"current_range_meters":16400,"station_id":"","pricing_plan_id":"cebpf4jnsgd1na2vs0mg"},{"bike_id":"da67d931-2540-48e2-8ad4-3de8085bb870","system_id":"levelo_inurba_marseille","lat":43.305328,"lon":5.365581,"is_reserved":false,"is_disabled":false,"rental_uris":{"android":"levelo://app?vid=da67d931-2540-48e2-8ad4-3de8085bb870","ios":"levelo://app?vid=da67d931-2540-48e2-8ad4-3de8085bb870"},"vehicle_type_id":"4","last_reported":1733137710,"current_range_meters":8000,"station_id":"ce4bgs12rcd13ifvqcag","pricing_plan_id":"cebpf4jnsgd1na2vs0mg"},{"bike_id":"7ed2229e-6e77-42d8-826e-e15ec9f33077","system_id":"levelo_inurba_marseille","lat":43.26686,"lon":5.38269,"is_reserved":false,"is_disabled":true,"rental_uris":{"android":"levelo://app?vid=7ed2229e-6e77-42d8-826e-e15ec9f33077","ios":"levelo://app?vid=7ed2229e-6e77-42d8-826e-e15ec9f33077"},"vehicle_type_id":"4","last_reported":1733137710,"current_range_meters":11600,"station_id":"ce4bhg92rcd13ifvqf90","pricing_plan_id":"cebpf4jnsgd1na2vs0mg"},{"bike_id":"ed8fe776-6da4-45e3-ba7e-1dd45fb7df34","system_id":"levelo_inurba_marseille","lat":43.30888,"lon":5.39642,"is_reserved":false,"is_disabled":false,"rental_uris":{"android":"levelo://app?vid=ed8fe776-6da4-45e3-ba7e-1dd45fb7df34","ios":"levelo://app?vid=ed8fe776-6da4-45e3-ba7e-1dd45fb7df34"},"vehicle_type_id":"4","last_reported":1733137710,"current_range_meters":38800,"station_id":"ce4bh012rcd13ifvqcv0","pricing_plan_id":"cebpf4jnsgd1na2vs0mg"},{"bike_id":"64cbfd6a-4a4e-4d37-982c-18402a201eee","system_id":"levelo_inurba_marseille","lat":43.28646,"lon":5.36341,"is_reserved":false,"is_disabled":false,"rental_uris":{"android":"levelo://app?vid=64cbfd6a-4a4e-4d37-982c-18402a201eee","ios":"levelo://app?vid=64cbfd6a-4a4e-4d37-982c-18402a201eee"},"vehicle_type_id":"4","last_reported":1733137710,"current_range_meters":11200,"station_id":"ce4bhah2rcd13ifvqej0","pricing_plan_id":"cebpf4jnsgd1na2vs0mg"},{"bike_id":"73a2b44f-75c8-4c01-8662-25e588e79ba4","system_id":"levelo_inurba_marseille","lat":43.30888,"lon":5.39645,"is_reserved":false,"is_disabled":false,"rental_uris":{"android":"levelo://app?vid=73a2b44f-75c8-4c01-8662-25e588e79ba4","ios":"levelo://app?vid=73a2b44f-75c8-4c01-8662-25e588e79ba4"},"vehicle_type_id":"4","last_reported":1733137710,"current_range_meters":36800,"station_id":"ce4bh012rcd13ifvqcv0","pricing_plan_id":"cebpf4jnsgd1na2vs0mg"},{"bike_id":"abc1476c-a7e0-42d6-a54c-ef07025d3129","system_id":"levelo_inurba_marseille","lat":43.27499,"lon":5.42457,"is_reserved":false,"is_disabled":false,"rental_uris":{"android":"levelo://app?vid=abc1476c-a7e0-42d6-a54c-ef07025d3129","ios":"levelo://app?vid=abc1476c-a7e0-42d6-a54c-ef07025d3129"},"vehicle_type_id":"4","last_reported":1733137710,"current_range_meters":24800,"station_id":"ce4bhn92rcd13ifvqgrg","pricing_plan_id":"cebpf4jnsgd1na2vs0mg"},{"bike_id":"5ddfa011-d975-41ac-ab06-32125b62100c","system_id":"levelo_inurba_marseille","lat":43.28413,"lon":5.37517,"is_reserved":false,"is_disabled":true,"rental_uris":{"android":"levelo://app?vid=5ddfa011-d975-41ac-ab06-32125b62100c","ios":"levelo://app?vid=5ddfa011-d975-41ac-ab06-32125b62100c"},"vehicle_type_id":"4","last_reported":1733137710,"current_range_meters":28800,"station_id":"ce4bh412rcd13ifvqds0","pricing_plan_id":"cebpf4jnsgd1na2vs0mg"},{"bike_id":"aed17666-490a-428c-9273-cbfba3e6a2e4","system_id":"levelo_inurba_marseille","lat":43.27613,"lon":5.36109,"is_reserved":false,"is_disabled":false,"rental_uris":{"android":"levelo://app?vid=aed17666-490a-428c-9273-cbfba3e6a2e4","ios":"levelo://app?vid=aed17666-490a-428c-9273-cbfba3e6a2e4"},"vehicle_type_id":"4","last_reported":1733137710,"current_range_meters":38400,"station_id":"ce4bgj92rcd13ifvqbe0","pricing_plan_id":"cebpf4jnsgd1na2vs0mg"},{"bike_id":"5c31e5cc-3de4-458d-9b5c-d28152b70ae4","system_id":"levelo_inurba_marseille","lat":43.29595,"lon":5.38089,"is_reserved":false,"is_disabled":false,"rental_uris":{"android":"levelo://app?vid=5c31e5cc-3de4-458d-9b5c-d28152b70ae4","ios":"levelo://app?vid=5c31e5cc-3de4-458d-9b5c-d28152b70ae4"},"vehicle_type_id":"4","last_reported":1733137710,"current_range_meters":21600,"station_id":"ce4bgl12rcd13ifvqbo0","pricing_plan_id":"cebpf4jnsgd1na2vs0mg"},{"bike_id":"209c0815-1137-465b-b0d6-13fcf1b7a485","system_id":"levelo_inurba_marseille","lat":43.29549,"lon":5.42289,"is_reserved":false,"is_disabled":false,"rental_uris":{"android":"levelo://app?vid=209c0815-1137-465b-b0d6-13fcf1b7a485","ios":"levelo://app?vid=209c0815-1137-465b-b0d6-13fcf1b7a485"},"vehicle_type_id":"4","last_reported":1733137710,"current_range_meters":38800,"station_id":"ce4bhph2rcd13ifvqhdg","pricing_plan_id":"cebpf4jnsgd1na2vs0mg"},{"bike_id":"9653f8dd-b1c9-4e4b-abca-535ab57d8208","system_id":"levelo_inurba_marseille","lat":43.28488,"lon":5.38416,"is_reserved":false,"is_disabled":false,"rental_uris":{"android":"levelo://app?vid=9653f8dd-b1c9-4e4b-abca-535ab57d8208","ios":"levelo://app?vid=9653f8dd-b1c9-4e4b-abca-535ab57d8208"},"vehicle_type_id":"4","last_reported":1733137710,"current_range_meters":31200,"station_id":"ce4bh512rcd13ifvqe3g","pricing_plan_id":"cebpf4jnsgd1na2vs0mg"},{"bike_id":"80ce8c20-4bfd-4d65-9ef9-5ccdb276a92d","system_id":"levelo_inurba_marseille","lat":43.26027,"lon":5.3755,"is_reserved":false,"is_disabled":false,"rental_uris":{"android":"levelo://app?vid=80ce8c20-4bfd-4d65-9ef9-5ccdb276a92d","ios":"levelo://app?vid=80ce8c20-4bfd-4d65-9ef9-5ccdb276a92d"},"vehicle_type_id":"4","last_reported":1733137710,"current_range_meters":36400,"station_id":"ce4bhgh2rcd13ifvqfa0","pricing_plan_id":"cebpf4jnsgd1na2vs0mg"},{"bike_id":"95c98dc0-e590-407f-91f9-1fb2b136e289","system_id":"levelo_inurba_marseille","lat":43.33602,"lon":5.41021,"is_reserved":false,"is_disabled":false,"rental_uris":{"android":"levelo://app?vid=95c98dc0-e590-407f-91f9-1fb2b136e289","ios":"levelo://app?vid=95c98dc0-e590-407f-91f9-1fb2b136e289"},"vehicle_type_id":"4","last_reported":1733137710,"current_range_meters":12400,"station_id":"ce4bhqh2rcd13ifvqhmg","pricing_plan_id":"cebpf4jnsgd1na2vs0mg"},{"bike_id":"67fa2a9e-eed8-4ed6-bdd8-7d1023a52b4e","system_id":"levelo_inurba_marseille","lat":43.26937,"lon":5.38922,"is_reserved":false,"is_disabled":true,"rental_uris":{"android":"levelo://app?vid=67fa2a9e-eed8-4ed6-bdd8-7d1023a52b4e","ios":"levelo://app?vid=67fa2a9e-eed8-4ed6-bdd8-7d1023a52b4e"},"vehicle_type_id":"4","last_reported":1733137710,"current_range_meters":0,"station_id":"ce4bhhh2rcd13ifvqfl0","pricing_plan_id":"cebpf4jnsgd1na2vs0mg"},{"bike_id":"d7935a4e-3fa9-4259-9e60-39bc0ad852e1","system_id":"levelo_inurba_marseille","lat":43.29552,"lon":5.42286,"is_reserved":false,"is_disabled":false,"rental_uris":{"android":"levelo://app?vid=d7935a4e-3fa9-4259-9e60-39bc0ad852e1","ios":"levelo://app?vid=d7935a4e-3fa9-4259-9e60-39bc0ad852e1"},"vehicle_type_id":"4","last_reported":1733137710,"current_range_meters":38800,"station_id":"ce4bhph2rcd13ifvqhdg","pricing_plan_id":"cebpf4jnsgd1na2vs0mg"},{"bike_id":"2e78ca5f-ab85-4c6b-a7c1-d21756dc944c","system_id":"levelo_inurba_marseille","lat":43.30951,"lon":5.39044,"is_reserved":false,"is_disabled":false,"rental_uris":{"android":"levelo://app?vid=2e78ca5f-ab85-4c6b-a7c1-d21756dc944c","ios":"levelo://app?vid=2e78ca5f-ab85-4c6b-a7c1-d21756dc944c"},"vehicle_type_id":"4","last_reported":1733137710,"current_range_meters":38800,"station_id":"ce4bgup2rcd13ifvqco0","pricing_plan_id":"cebpf4jnsgd1na2vs0mg"},{"bike_id":"ea5b94a9-f113-4c93-ac37-1b2264541f5d","system_id":"levelo_inurba_marseille","lat":43.29275,"lon":5.36853,"is_reserved":false,"is_disabled":true,"rental_uris":{"android":"levelo://app?vid=ea5b94a9-f113-4c93-ac37-1b2264541f5d","ios":"levelo://app?vid=ea5b94a9-f113-4c93-ac37-1b2264541f5d"},"vehicle_type_id":"4","last_reported":1733137710,"current_range_meters":27600,"station_id":"","pricing_plan_id":"cebpf4jnsgd1na2vs0mg"},{"bike_id":"4fb36359-4540-4a72-9569-1ea1bd036d9c","system_id":"levelo_inurba_marseille","lat":43.23961,"lon":5.36629,"is_reserved":false,"is_disabled":false,"rental_uris":{"android":"levelo://app?vid=4fb36359-4540-4a72-9569-1ea1bd036d9c","ios":"levelo://app?vid=4fb36359-4540-4a72-9569-1ea1bd036d9c"},"vehicle_type_id":"4","last_reported":1733137710,"current_range_meters":38400,"station_id":"ce4bhi12rcd13ifvqfp0","pricing_plan_id":"cebpf4jnsgd1na2vs0mg"},{"bike_id":"fee40e4a-edf0-429c-9838-5fd8b4a4fd95","system_id":"levelo_inurba_marseille","lat":43.29738,"lon":5.37425,"is_reserved":false,"is_disabled":true,"rental_uris":{"android":"levelo://app?vid=fee40e4a-edf0-429c-9838-5fd8b4a4fd95","ios":"levelo://app?vid=fee40e4a-edf0-429c-9838-5fd8b4a4fd95"},"vehicle_type_id":"4","last_reported":1733137710,"current_range_meters":0,"station_id":"","pricing_plan_id":"cebpf4jnsgd1na2vs0mg"},{"bike_id":"72299c03-492d-4eb1-a40e-3fc41844a746","system_id":"levelo_inurba_marseille","lat":43.31711,"lon":5.37728,"is_reserved":false,"is_disabled":false,"rental_uris":{"android":"levelo://app?vid=72299c03-492d-4eb1-a40e-3fc41844a746","ios":"levelo://app?vid=72299c03-492d-4eb1-a40e-3fc41844a746"},"vehicle_type_id":"4","last_reported":1733137710,"current_range_meters":28000,"station_id":"ce4bgth2rcd13ifvqch0","pricing_plan_id":"cebpf4jnsgd1na2vs0mg"},{"bike_id":"74b5679f-12e8-4f95-852c-9f7ff4024dca","system_id":"levelo_inurba_marseille","lat":43.23155,"lon":5.43707,"is_reserved":false,"is_disabled":false,"rental_uris":{"android":"levelo://app?vid=74b5679f-12e8-4f95-852c-9f7ff4024dca","ios":"levelo://app?vid=74b5679f-12e8-4f95-852c-9f7ff4024dca"},"vehicle_type_id":"4","last_reported":1733137710,"current_range_meters":16800,"station_id":"ce4bhmp2rcd13ifvqgog","pricing_plan_id":"cebpf4jnsgd1na2vs0mg"},{"bike_id":"0368178a-5014-405a-80b6-f910fe9fa63a","system_id":"levelo_inurba_marseille","lat":43.28665,"lon":5.3635,"is_reserved":false,"is_disabled":false,"rental_uris":{"android":"levelo://app?vid=0368178a-5014-405a-80b6-f910fe9fa63a","ios":"levelo://app?vid=0368178a-5014-405a-80b6-f910fe9fa63a"},"vehicle_type_id":"4","last_reported":1733137710,"current_range_meters":27600,"station_id":"ce4bhah2rcd13ifvqej0","pricing_plan_id":"cebpf4jnsgd1na2vs0mg"},{"bike_id":"45c95cf3-1aa9-4af9-a9a3-7dba50ecc20e","system_id":"levelo_inurba_marseille","lat":43.27438,"lon":5.4072,"is_reserved":false,"is_disabled":false,"rental_uris":{"android":"levelo://app?vid=45c95cf3-1aa9-4af9-a9a3-7dba50ecc20e","ios":"levelo://app?vid=45c95cf3-1aa9-4af9-a9a3-7dba50ecc20e"},"vehicle_type_id":"4","last_reported":1733137710,"current_range_meters":14000,"station_id":"","pricing_plan_id":"cebpf4jnsgd1na2vs0mg"},{"bike_id":"bc749360-3ce4-4dd6-a0ac-83aa82c323a7","system_id":"levelo_inurba_marseille","lat":43.28149,"lon":5.42647,"is_reserved":false,"is_disabled":false,"rental_uris":{"android":"levelo://app?vid=bc749360-3ce4-4dd6-a0ac-83aa82c323a7","ios":"levelo://app?vid=bc749360-3ce4-4dd6-a0ac-83aa82c323a7"},"vehicle_type_id":"4","last_reported":1733137710,"current_range_meters":25600,"station_id":"ce4bhnh2rcd13ifvqgug","pricing_plan_id":"cebpf4jnsgd1na2vs0mg"},{"bike_id":"8f8a4827-69e7-43ee-98f6-d01ef3d0c5b1","system_id":"levelo_inurba_marseille","lat":43.2418,"lon":5.39732,"is_reserved":false,"is_disabled":false,"rental_uris":{"android":"levelo://app?vid=8f8a4827-69e7-43ee-98f6-d01ef3d0c5b1","ios":"levelo://app?vid=8f8a4827-69e7-43ee-98f6-d01ef3d0c5b1"},"vehicle_type_id":"4","last_reported":1733137710,"current_range_meters":22400,"station_id":"ce4bhn12rcd13ifvqgpg","pricing_plan_id":"cebpf4jnsgd1na2vs0mg"},{"bike_id":"4d4c884f-6933-49c0-8899-f9856d90f44d","system_id":"levelo_inurba_marseille","lat":43.29748,"lon":5.37971,"is_reserved":false,"is_disabled":true,"rental_uris":{"android":"levelo://app?vid=4d4c884f-6933-49c0-8899-f9856d90f44d","ios":"levelo://app?vid=4d4c884f-6933-49c0-8899-f9856d90f44d"},"vehicle_type_id":"4","last_reported":1733137710,"current_range_meters":0,"station_id":"","pricing_plan_id":"cebpf4jnsgd1na2vs0mg"},{"bike_id":"49383f8c-5e0c-4bb5-aa2b-e1c81f4536f3","system_id":"levelo_inurba_marseille","lat":43.32291,"lon":5.38262,"is_reserved":false,"is_disabled":false,"rental_uris":{"android":"levelo://app?vid=49383f8c-5e0c-4bb5-aa2b-e1c81f4536f3","ios":"levelo://app?vid=49383f8c-5e0c-4bb5-aa2b-e1c81f4536f3"},"vehicle_type_id":"4","last_reported":1733137710,"current_range_meters":19600,"station_id":"ce4bhr12rcd13ifvqhqg","pricing_plan_id":"cebpf4jnsgd1na2vs0mg"},{"bike_id":"14510e50-0c03-4dac-816e-3d69ec8f9ebc","system_id":"levelo_inurba_marseille","lat":43.29953,"lon":5.41319,"is_reserved":false,"is_disabled":false,"rental_uris":{"android":"levelo://app?vid=14510e50-0c03-4dac-816e-3d69ec8f9ebc","ios":"levelo://app?vid=14510e50-0c03-4dac-816e-3d69ec8f9ebc"},"vehicle_type_id":"4","last_reported":1733137710,"current_range_meters":20000,"station_id":"ce4bhp12rcd13ifvqh9g","pricing_plan_id":"cebpf4jnsgd1na2vs0mg"},{"bike_id":"362acf97-9e8f-4c3e-8574-4958ae2ff74f","system_id":"levelo_inurba_marseille","lat":43.26248,"lon":5.42119,"is_reserved":false,"is_disabled":false,"rental_uris":{"android":"levelo://app?vid=362acf97-9e8f-4c3e-8574-4958ae2ff74f","ios":"levelo://app?vid=362acf97-9e8f-4c3e-8574-4958ae2ff74f"},"vehicle_type_id":"4","last_reported":1733137710,"current_range_meters":24400,"station_id":"","pricing_plan_id":"cebpf4jnsgd1na2vs0mg"},{"bike_id":"0f5fbce9-146c-49c4-8788-16d1a8f4deb0","system_id":"levelo_inurba_marseille","lat":43.30328,"lon":5.36588,"is_reserved":false,"is_disabled":true,"rental_uris":{"android":"levelo://app?vid=0f5fbce9-146c-49c4-8788-16d1a8f4deb0","ios":"levelo://app?vid=0f5fbce9-146c-49c4-8788-16d1a8f4deb0"},"vehicle_type_id":"4","last_reported":1733137710,"current_range_meters":0,"station_id":"","pricing_plan_id":"cebpf4jnsgd1na2vs0mg"},{"bike_id":"f070b46f-f295-4869-946e-332934d2e60a","system_id":"levelo_inurba_marseille","lat":43.22929,"lon":5.35379,"is_reserved":false,"is_disabled":false,"rental_uris":{"android":"levelo://app?vid=f070b46f-f295-4869-946e-332934d2e60a","ios":"levelo://app?vid=f070b46f-f295-4869-946e-332934d2e60a"},"vehicle_type_id":"4","last_reported":1733137710,"current_range_meters":37600,"station_id":"cpo3532slgdg3j2ikp40","pricing_plan_id":"cebpf4jnsgd1na2vs0mg"},{"bike_id":"0df3a188-afb8-4aa7-a10d-8141326d33b1","system_id":"levelo_inurba_marseille","lat":43.25932,"lon":5.40913,"is_reserved":false,"is_disabled":false,"rental_uris":{"android":"levelo://app?vid=0df3a188-afb8-4aa7-a10d-8141326d33b1","ios":"levelo://app?vid=0df3a188-afb8-4aa7-a10d-8141326d33b1"},"vehicle_type_id":"4","last_reported":1733137710,"current_range_meters":38800,"station_id":"ce4bhm92rcd13ifvqglg","pricing_plan_id":"cebpf4jnsgd1na2vs0mg"},{"bike_id":"fe67cab3-cd8c-4dbc-8822-3e3b46f02ee4","system_id":"levelo_inurba_marseille","lat":43.30884,"lon":5.39644,"is_reserved":false,"is_disabled":false,"rental_uris":{"android":"levelo://app?vid=fe67cab3-cd8c-4dbc-8822-3e3b46f02ee4","ios":"levelo://app?vid=fe67cab3-cd8c-4dbc-8822-3e3b46f02ee4"},"vehicle_type_id":"4","last_reported":1733137710,"current_range_meters":36800,"station_id":"ce4bh012rcd13ifvqcv0","pricing_plan_id":"cebpf4jnsgd1na2vs0mg"},{"bike_id":"4d430e73-ba33-45b8-8f85-205a09424c89","system_id":"levelo_inurba_marseille","lat":43.313459,"lon":5.367164,"is_reserved":false,"is_disabled":false,"rental_uris":{"android":"levelo://app?vid=4d430e73-ba33-45b8-8f85-205a09424c89","ios":"levelo://app?vid=4d430e73-ba33-45b8-8f85-205a09424c89"},"vehicle_type_id":"4","last_reported":1733137710,"current_range_meters":28400,"station_id":"ce4bgr92rcd13ifvqc6g","pricing_plan_id":"cebpf4jnsgd1na2vs0mg"},{"bike_id":"b7b33697-14a7-4110-9b8b-4194e6ef5f3f","system_id":"levelo_inurba_marseille","lat":43.27277,"lon":5.39192,"is_reserved":false,"is_disabled":true,"rental_uris":{"android":"levelo://app?vid=b7b33697-14a7-4110-9b8b-4194e6ef5f3f","ios":"levelo://app?vid=b7b33697-14a7-4110-9b8b-4194e6ef5f3f"},"vehicle_type_id":"4","last_reported":1733137710,"current_range_meters":0,"station_id":"","pricing_plan_id":"cebpf4jnsgd1na2vs0mg"},{"bike_id":"0ea7d3a5-28e5-4b11-ad90-988cc84bda69","system_id":"levelo_inurba_marseille","lat":43.30135,"lon":5.3742,"is_reserved":false,"is_disabled":false,"rental_uris":{"android":"levelo://app?vid=0ea7d3a5-28e5-4b11-ad90-988cc84bda69","ios":"levelo://app?vid=0ea7d3a5-28e5-4b11-ad90-988cc84bda69"},"vehicle_type_id":"4","last_reported":1733137710,"current_range_meters":22400,"station_id":"ce4bgs92rcd13ifvqcc0","pricing_plan_id":"cebpf4jnsgd1na2vs0mg"},{"bike_id":"ac49fba4-30df-4893-b052-7d9d76fd86a2","system_id":"levelo_inurba_marseille","lat":43.29249,"lon":5.38432,"is_reserved":false,"is_disabled":true,"rental_uris":{"android":"levelo://app?vid=ac49fba4-30df-4893-b052-7d9d76fd86a2","ios":"levelo://app?vid=ac49fba4-30df-4893-b052-7d9d76fd86a2"},"vehicle_type_id":"4","last_reported":1733137710,"current_range_meters":8000,"station_id":"ce4bh692rcd13ifvqea0","pricing_plan_id":"cebpf4jnsgd1na2vs0mg"},{"bike_id":"da786c18-1732-48a5-8a36-44fffcc9890b","system_id":"levelo_inurba_marseille","lat":43.3053,"lon":5.3654,"is_reserved":false,"is_disabled":false,"rental_uris":{"android":"levelo://app?vid=da786c18-1732-48a5-8a36-44fffcc9890b","ios":"levelo://app?vid=da786c18-1732-48a5-8a36-44fffcc9890b"},"vehicle_type_id":"4","last_reported":1733137710,"current_range_meters":32000,"station_id":"ce4bgs12rcd13ifvqcag","pricing_plan_id":"cebpf4jnsgd1na2vs0mg"},{"bike_id":"c70bed4a-03c3-4d48-9d9d-f10e1949ee20","system_id":"levelo_inurba_marseille","lat":43.25009,"lon":5.38927,"is_reserved":false,"is_disabled":false,"rental_uris":{"android":"levelo://app?vid=c70bed4a-03c3-4d48-9d9d-f10e1949ee20","ios":"levelo://app?vid=c70bed4a-03c3-4d48-9d9d-f10e1949ee20"},"vehicle_type_id":"4","last_reported":1733137710,"current_range_meters":40000,"station_id":"ce4bhgp2rcd13ifvqfd0","pricing_plan_id":"cebpf4jnsgd1na2vs0mg"},{"bike_id":"4168b43c-3049-46dc-94dd-a599091d3594","system_id":"levelo_inurba_marseille","lat":43.30909,"lon":5.36853,"is_reserved":false,"is_disabled":true,"rental_uris":{"android":"levelo://app?vid=4168b43c-3049-46dc-94dd-a599091d3594","ios":"levelo://app?vid=4168b43c-3049-46dc-94dd-a599091d3594"},"vehicle_type_id":"4","last_reported":1733137710,"current_range_meters":38800,"station_id":"ce4bgn92rcd13ifvqbvg","pricing_plan_id":"cebpf4jnsgd1na2vs0mg"},{"bike_id":"0c75325c-958e-45f7-89d5-8bf413dd17d1","system_id":"levelo_inurba_marseille","lat":43.30006,"lon":5.38267,"is_reserved":false,"is_disabled":true,"rental_uris":{"android":"levelo://app?vid=0c75325c-958e-45f7-89d5-8bf413dd17d1","ios":"levelo://app?vid=0c75325c-958e-45f7-89d5-8bf413dd17d1"},"vehicle_type_id":"4","last_reported":1733137710,"current_range_meters":0,"station_id":"","pricing_plan_id":"cebpf4jnsgd1na2vs0mg"},{"bike_id":"ac6227b0-4537-4e38-93b3-d0e01fa3ff1c","system_id":"levelo_inurba_marseille","lat":43.30125,"lon":5.3878,"is_reserved":false,"is_disabled":true,"rental_uris":{"android":"levelo://app?vid=ac6227b0-4537-4e38-93b3-d0e01fa3ff1c","ios":"levelo://app?vid=ac6227b0-4537-4e38-93b3-d0e01fa3ff1c"},"vehicle_type_id":"4","last_reported":1733137710,"current_range_meters":35200,"station_id":"ce4bghh2rcd13ifvqb60","pricing_plan_id":"cebpf4jnsgd1na2vs0mg"},{"bike_id":"38bfa4e7-59dd-4411-9607-c55294e3c897","system_id":"levelo_inurba_marseille","lat":43.306496,"lon":5.400948,"is_reserved":false,"is_disabled":false,"rental_uris":{"android":"levelo://app?vid=38bfa4e7-59dd-4411-9607-c55294e3c897","ios":"levelo://app?vid=38bfa4e7-59dd-4411-9607-c55294e3c897"},"vehicle_type_id":"4","last_reported":1733137710,"current_range_meters":39200,"station_id":"ce4bh112rcd13ifvqda0","pricing_plan_id":"cebpf4jnsgd1na2vs0mg"},{"bike_id":"6c3b4431-ca2c-4347-a6db-d1e4dee15e08","system_id":"levelo_inurba_marseille","lat":43.27495,"lon":5.4245,"is_reserved":false,"is_disabled":false,"rental_uris":{"android":"levelo://app?vid=6c3b4431-ca2c-4347-a6db-d1e4dee15e08","ios":"levelo://app?vid=6c3b4431-ca2c-4347-a6db-d1e4dee15e08"},"vehicle_type_id":"4","last_reported":1733137710,"current_range_meters":25200,"station_id":"ce4bhn92rcd13ifvqgrg","pricing_plan_id":"cebpf4jnsgd1na2vs0mg"},{"bike_id":"3177ba56-bcdf-481a-af24-8c33f66d42b8","system_id":"levelo_inurba_marseille","lat":43.26196,"lon":5.37933,"is_reserved":false,"is_disabled":false,"rental_uris":{"android":"levelo://app?vid=3177ba56-bcdf-481a-af24-8c33f66d42b8","ios":"levelo://app?vid=3177ba56-bcdf-481a-af24-8c33f66d42b8"},"vehicle_type_id":"4","last_reported":1733137710,"current_range_meters":27600,"station_id":"ce4bhjp2rcd13ifvqg90","pricing_plan_id":"cebpf4jnsgd1na2vs0mg"},{"bike_id":"314d1365-c0f9-4b36-8299-e279909a774d","system_id":"levelo_inurba_marseille","lat":43.31214,"lon":5.36859,"is_reserved":false,"is_disabled":true,"rental_uris":{"android":"levelo://app?vid=314d1365-c0f9-4b36-8299-e279909a774d","ios":"levelo://app?vid=314d1365-c0f9-4b36-8299-e279909a774d"},"vehicle_type_id":"4","last_reported":1733137710,"current_range_meters":0,"station_id":"ce4bgl92rcd13ifvqbq0","pricing_plan_id":"cebpf4jnsgd1na2vs0mg"},{"bike_id":"25bd60e4-f7c2-4ddc-9b35-a66ed7fc0c81","system_id":"levelo_inurba_marseille","lat":43.27204,"lon":5.39185,"is_reserved":false,"is_disabled":false,"rental_uris":{"android":"levelo://app?vid=25bd60e4-f7c2-4ddc-9b35-a66ed7fc0c81","ios":"levelo://app?vid=25bd60e4-f7c2-4ddc-9b35-a66ed7fc0c81"},"vehicle_type_id":"4","last_reported":1733137710,"current_range_meters":34800,"station_id":"ce4bhhp2rcd13ifvqfm0","pricing_plan_id":"cebpf4jnsgd1na2vs0mg"},{"bike_id":"58068a88-3d12-441c-a369-14e5f31ef9c8","system_id":"levelo_inurba_marseille","lat":43.29936,"lon":5.36533,"is_reserved":false,"is_disabled":false,"rental_uris":{"android":"levelo://app?vid=58068a88-3d12-441c-a369-14e5f31ef9c8","ios":"levelo://app?vid=58068a88-3d12-441c-a369-14e5f31ef9c8"},"vehicle_type_id":"4","last_reported":1733137710,"current_range_meters":27200,"station_id":"ce4bgm92rcd13ifvqbr0","pricing_plan_id":"cebpf4jnsgd1na2vs0mg"},{"bike_id":"8e126d5e-9202-4d02-9b96-07562eaa0d7f","system_id":"levelo_inurba_marseille","lat":43.3372,"lon":5.39178,"is_reserved":false,"is_disabled":true,"rental_uris":{"android":"levelo://app?vid=8e126d5e-9202-4d02-9b96-07562eaa0d7f","ios":"levelo://app?vid=8e126d5e-9202-4d02-9b96-07562eaa0d7f"},"vehicle_type_id":"4","last_reported":1733137710,"current_range_meters":21600,"station_id":"ce4bhr92rcd13ifvqhsg","pricing_plan_id":"cebpf4jnsgd1na2vs0mg"},{"bike_id":"05105735-e014-425e-a423-3d282ee4f2be","system_id":"levelo_inurba_marseille","lat":43.23957,"lon":5.36642,"is_reserved":false,"is_disabled":false,"rental_uris":{"android":"levelo://app?vid=05105735-e014-425e-a423-3d282ee4f2be","ios":"levelo://app?vid=05105735-e014-425e-a423-3d282ee4f2be"},"vehicle_type_id":"4","last_reported":1733137710,"current_range_meters":32400,"station_id":"ce4bhi12rcd13ifvqfp0","pricing_plan_id":"cebpf4jnsgd1na2vs0mg"},{"bike_id":"cd8cc499-deb6-4097-9823-c7ccf6d23d4f","system_id":"levelo_inurba_marseille","lat":43.28034,"lon":5.36955,"is_reserved":false,"is_disabled":true,"rental_uris":{"android":"levelo://app?vid=cd8cc499-deb6-4097-9823-c7ccf6d23d4f","ios":"levelo://app?vid=cd8cc499-deb6-4097-9823-c7ccf6d23d4f"},"vehicle_type_id":"4","last_reported":1733137710,"current_range_meters":0,"station_id":"ce4bha12rcd13ifvqef0","pricing_plan_id":"cebpf4jnsgd1na2vs0mg"},{"bike_id":"064861a6-5a15-4e22-bc40-26ea165590ab","system_id":"levelo_inurba_marseille","lat":43.29195,"lon":5.39319,"is_reserved":false,"is_disabled":true,"rental_uris":{"android":"levelo://app?vid=064861a6-5a15-4e22-bc40-26ea165590ab","ios":"levelo://app?vid=064861a6-5a15-4e22-bc40-26ea165590ab"},"vehicle_type_id":"4","last_reported":1733137710,"current_range_meters":19200,"station_id":"ce4bh192rcd13ifvqdd0","pricing_plan_id":"cebpf4jnsgd1na2vs0mg"},{"bike_id":"83187be1-7efa-435e-ae9b-74201cb4dec3","system_id":"levelo_inurba_marseille","lat":43.2668,"lon":5.38269,"is_reserved":false,"is_disabled":true,"rental_uris":{"android":"levelo://app?vid=83187be1-7efa-435e-ae9b-74201cb4dec3","ios":"levelo://app?vid=83187be1-7efa-435e-ae9b-74201cb4dec3"},"vehicle_type_id":"4","last_reported":1733137710,"current_range_meters":34000,"station_id":"ce4bhg92rcd13ifvqf90","pricing_plan_id":"cebpf4jnsgd1na2vs0mg"},{"bike_id":"2aa1e707-1373-4f29-9a6c-51393a307d7d","system_id":"levelo_inurba_marseille","lat":43.3188,"lon":5.40735,"is_reserved":false,"is_disabled":false,"rental_uris":{"android":"levelo://app?vid=2aa1e707-1373-4f29-9a6c-51393a307d7d","ios":"levelo://app?vid=2aa1e707-1373-4f29-9a6c-51393a307d7d"},"vehicle_type_id":"4","last_reported":1733137710,"current_range_meters":7200,"station_id":"ce4bhq12rcd13ifvqhig","pricing_plan_id":"cebpf4jnsgd1na2vs0mg"},{"bike_id":"e8fa7be1-2407-41a7-b843-e7c70f1917ef","system_id":"levelo_inurba_marseille","lat":43.27611,"lon":5.36109,"is_reserved":false,"is_disabled":true,"rental_uris":{"android":"levelo://app?vid=e8fa7be1-2407-41a7-b843-e7c70f1917ef","ios":"levelo://app?vid=e8fa7be1-2407-41a7-b843-e7c70f1917ef"},"vehicle_type_id":"4","last_reported":1733137710,"current_range_meters":0,"station_id":"ce4bgj92rcd13ifvqbe0","pricing_plan_id":"cebpf4jnsgd1na2vs0mg"},{"bike_id":"4cf3c709-123f-4975-a3e0-82a257de5fe0","system_id":"levelo_inurba_marseille","lat":43.2909,"lon":5.38139,"is_reserved":false,"is_disabled":false,"rental_uris":{"android":"levelo://app?vid=4cf3c709-123f-4975-a3e0-82a257de5fe0","ios":"levelo://app?vid=4cf3c709-123f-4975-a3e0-82a257de5fe0"},"vehicle_type_id":"4","last_reported":1733137710,"current_range_meters":38800,"station_id":"ce4bh512rcd13ifvqe2g","pricing_plan_id":"cebpf4jnsgd1na2vs0mg"},{"bike_id":"83554333-a19f-4cbb-8792-d83a119d3984","system_id":"levelo_inurba_marseille","lat":43.28986,"lon":5.37842,"is_reserved":false,"is_disabled":false,"rental_uris":{"android":"levelo://app?vid=83554333-a19f-4cbb-8792-d83a119d3984","ios":"levelo://app?vid=83554333-a19f-4cbb-8792-d83a119d3984"},"vehicle_type_id":"4","last_reported":1733137710,"current_range_meters":26800,"station_id":"ce4bh9p2rcd13ifvqed0","pricing_plan_id":"cebpf4jnsgd1na2vs0mg"},{"bike_id":"58e6eead-0041-4d53-8264-5b8bd59050d1","system_id":"levelo_inurba_marseille","lat":43.29844,"lon":5.36273,"is_reserved":false,"is_disabled":false,"rental_uris":{"android":"levelo://app?vid=58e6eead-0041-4d53-8264-5b8bd59050d1","ios":"levelo://app?vid=58e6eead-0041-4d53-8264-5b8bd59050d1"},"vehicle_type_id":"4","last_reported":1733137710,"current_range_meters":38800,"station_id":"ce4bgpp2rcd13ifvqc3g","pricing_plan_id":"cebpf4jnsgd1na2vs0mg"},{"bike_id":"2474090c-fa0b-4808-945e-6b393dd77e47","system_id":"levelo_inurba_marseille","lat":43.30454,"lon":5.37911,"is_reserved":false,"is_disabled":true,"rental_uris":{"android":"levelo://app?vid=2474090c-fa0b-4808-945e-6b393dd77e47","ios":"levelo://app?vid=2474090c-fa0b-4808-945e-6b393dd77e47"},"vehicle_type_id":"4","last_reported":1733137710,"current_range_meters":4000,"station_id":"ce4bgup2rcd13ifvqcn0","pricing_plan_id":"cebpf4jnsgd1na2vs0mg"},{"bike_id":"8af09490-14ea-428d-943d-641bc55500e5","system_id":"levelo_inurba_marseille","lat":43.29251,"lon":5.40901,"is_reserved":false,"is_disabled":false,"rental_uris":{"android":"levelo://app?vid=8af09490-14ea-428d-943d-641bc55500e5","ios":"levelo://app?vid=8af09490-14ea-428d-943d-641bc55500e5"},"vehicle_type_id":"4","last_reported":1733137710,"current_range_meters":35600,"station_id":"ce4bh192rcd13ifvqdc0","pricing_plan_id":"cebpf4jnsgd1na2vs0mg"},{"bike_id":"f0377788-1477-4300-b47b-703012aeff49","system_id":"levelo_inurba_marseille","lat":43.27494,"lon":5.42444,"is_reserved":false,"is_disabled":false,"rental_uris":{"android":"levelo://app?vid=f0377788-1477-4300-b47b-703012aeff49","ios":"levelo://app?vid=f0377788-1477-4300-b47b-703012aeff49"},"vehicle_type_id":"4","last_reported":1733137710,"current_range_meters":22000,"station_id":"ce4bhn92rcd13ifvqgrg","pricing_plan_id":"cebpf4jnsgd1na2vs0mg"},{"bike_id":"acd0c46d-18f0-4f75-82bb-ec2d32762e24","system_id":"levelo_inurba_marseille","lat":43.28695,"lon":5.39978,"is_reserved":false,"is_disabled":false,"rental_uris":{"android":"levelo://app?vid=acd0c46d-18f0-4f75-82bb-ec2d32762e24","ios":"levelo://app?vid=acd0c46d-18f0-4f75-82bb-ec2d32762e24"},"vehicle_type_id":"4","last_reported":1733137710,"current_range_meters":39200,"station_id":"ce4bho92rcd13ifvqh3g","pricing_plan_id":"cebpf4jnsgd1na2vs0mg"},{"bike_id":"ea1337cb-aaf9-4a8f-9612-c78771fe8808","system_id":"levelo_inurba_marseille","lat":43.25286,"lon":5.39456,"is_reserved":false,"is_disabled":true,"rental_uris":{"android":"levelo://app?vid=ea1337cb-aaf9-4a8f-9612-c78771fe8808","ios":"levelo://app?vid=ea1337cb-aaf9-4a8f-9612-c78771fe8808"},"vehicle_type_id":"4","last_reported":1733137710,"current_range_meters":0,"station_id":"","pricing_plan_id":"cebpf4jnsgd1na2vs0mg"},{"bike_id":"19ed358c-454d-432c-8e7a-7793a8f5038d","system_id":"levelo_inurba_marseille","lat":43.28704,"lon":5.39988,"is_reserved":false,"is_disabled":false,"rental_uris":{"android":"levelo://app?vid=19ed358c-454d-432c-8e7a-7793a8f5038d","ios":"levelo://app?vid=19ed358c-454d-432c-8e7a-7793a8f5038d"},"vehicle_type_id":"4","last_reported":1733137710,"current_range_meters":19200,"station_id":"ce4bho92rcd13ifvqh3g","pricing_plan_id":"cebpf4jnsgd1na2vs0mg"},{"bike_id":"6dd95a09-deda-4ebb-a4fa-4eb9ade84edb","system_id":"levelo_inurba_marseille","lat":43.32364,"lon":5.38888,"is_reserved":false,"is_disabled":false,"rental_uris":{"android":"levelo://app?vid=6dd95a09-deda-4ebb-a4fa-4eb9ade84edb","ios":"levelo://app?vid=6dd95a09-deda-4ebb-a4fa-4eb9ade84edb"},"vehicle_type_id":"4","last_reported":1733137710,"current_range_meters":6400,"station_id":"ce4bhqp2rcd13ifvqhog","pricing_plan_id":"cebpf4jnsgd1na2vs0mg"},{"bike_id":"615470e5-564b-404e-92bd-9f8548c50cce","system_id":"levelo_inurba_marseille","lat":43.30741,"lon":5.38027,"is_reserved":false,"is_disabled":false,"rental_uris":{"android":"levelo://app?vid=615470e5-564b-404e-92bd-9f8548c50cce","ios":"levelo://app?vid=615470e5-564b-404e-92bd-9f8548c50cce"},"vehicle_type_id":"4","last_reported":1733137710,"current_range_meters":25600,"station_id":"","pricing_plan_id":"cebpf4jnsgd1na2vs0mg"},{"bike_id":"af12a5f9-720e-4019-987d-3779fe2b91a2","system_id":"levelo_inurba_marseille","lat":43.30819,"lon":5.37416,"is_reserved":false,"is_disabled":true,"rental_uris":{"android":"levelo://app?vid=af12a5f9-720e-4019-987d-3779fe2b91a2","ios":"levelo://app?vid=af12a5f9-720e-4019-987d-3779fe2b91a2"},"vehicle_type_id":"4","last_reported":1733137710,"current_range_meters":0,"station_id":"","pricing_plan_id":"cebpf4jnsgd1na2vs0mg"},{"bike_id":"d0592eb8-3ecf-464d-9d68-0e819f43852c","system_id":"levelo_inurba_marseille","lat":43.28268,"lon":5.35068,"is_reserved":false,"is_disabled":false,"rental_uris":{"android":"levelo://app?vid=d0592eb8-3ecf-464d-9d68-0e819f43852c","ios":"levelo://app?vid=d0592eb8-3ecf-464d-9d68-0e819f43852c"},"vehicle_type_id":"4","last_reported":1733137710,"current_range_meters":6800,"station_id":"ce4bhbp2rcd13ifvqerg","pricing_plan_id":"cebpf4jnsgd1na2vs0mg"},{"bike_id":"4b126055-c3f8-4668-9f2a-0f800af30756","system_id":"levelo_inurba_marseille","lat":43.29934,"lon":5.36525,"is_reserved":false,"is_disabled":false,"rental_uris":{"android":"levelo://app?vid=4b126055-c3f8-4668-9f2a-0f800af30756","ios":"levelo://app?vid=4b126055-c3f8-4668-9f2a-0f800af30756"},"vehicle_type_id":"4","last_reported":1733137710,"current_range_meters":17600,"station_id":"ce4bgm92rcd13ifvqbr0","pricing_plan_id":"cebpf4jnsgd1na2vs0mg"},{"bike_id":"6f206291-5210-422f-bd21-551cab675f49","system_id":"levelo_inurba_marseille","lat":43.30954,"lon":5.39026,"is_reserved":false,"is_disabled":false,"rental_uris":{"android":"levelo://app?vid=6f206291-5210-422f-bd21-551cab675f49","ios":"levelo://app?vid=6f206291-5210-422f-bd21-551cab675f49"},"vehicle_type_id":"4","last_reported":1733137710,"current_range_meters":17200,"station_id":"ce4bgup2rcd13ifvqco0","pricing_plan_id":"cebpf4jnsgd1na2vs0mg"},{"bike_id":"c4a65884-b54c-4c76-9da9-6db532738bac","system_id":"levelo_inurba_marseille","lat":43.29786,"lon":5.38111,"is_reserved":false,"is_disabled":true,"rental_uris":{"android":"levelo://app?vid=c4a65884-b54c-4c76-9da9-6db532738bac","ios":"levelo://app?vid=c4a65884-b54c-4c76-9da9-6db532738bac"},"vehicle_type_id":"4","last_reported":1733137710,"current_range_meters":0,"station_id":"ce4bgip2rcd13ifvqbb0","pricing_plan_id":"cebpf4jnsgd1na2vs0mg"},{"bike_id":"e8aaf989-f7c7-4f92-9039-2cedc59abe88","system_id":"levelo_inurba_marseille","lat":43.25387,"lon":5.41855,"is_reserved":false,"is_disabled":false,"rental_uris":{"android":"levelo://app?vid=e8aaf989-f7c7-4f92-9039-2cedc59abe88","ios":"levelo://app?vid=e8aaf989-f7c7-4f92-9039-2cedc59abe88"},"vehicle_type_id":"4","last_reported":1733137710,"current_range_meters":24800,"station_id":"","pricing_plan_id":"cebpf4jnsgd1na2vs0mg"},{"bike_id":"ac2a82ed-217d-4a5c-aeff-ea21a140ef53","system_id":"levelo_inurba_marseille","lat":43.280573,"lon":5.356328,"is_reserved":false,"is_disabled":false,"rental_uris":{"android":"levelo://app?vid=ac2a82ed-217d-4a5c-aeff-ea21a140ef53","ios":"levelo://app?vid=ac2a82ed-217d-4a5c-aeff-ea21a140ef53"},"vehicle_type_id":"4","last_reported":1733137710,"current_range_meters":12000,"station_id":"","pricing_plan_id":"cebpf4jnsgd1na2vs0mg"},{"bike_id":"4cb44827-4e68-471a-87cf-24834bf4a870","system_id":"levelo_inurba_marseille","lat":43.29972,"lon":5.3718,"is_reserved":false,"is_disabled":false,"rental_uris":{"android":"levelo://app?vid=4cb44827-4e68-471a-87cf-24834bf4a870","ios":"levelo://app?vid=4cb44827-4e68-471a-87cf-24834bf4a870"},"vehicle_type_id":"4","last_reported":1733137710,"current_range_meters":19600,"station_id":"ce4bgr92rcd13ifvqc7g","pricing_plan_id":"cebpf4jnsgd1na2vs0mg"},{"bike_id":"4a2be555-d056-454c-bed3-fe781ba86f8e","system_id":"levelo_inurba_marseille","lat":43.25886,"lon":5.39954,"is_reserved":false,"is_disabled":true,"rental_uris":{"android":"levelo://app?vid=4a2be555-d056-454c-bed3-fe781ba86f8e","ios":"levelo://app?vid=4a2be555-d056-454c-bed3-fe781ba86f8e"},"vehicle_type_id":"4","last_reported":1733137710,"current_range_meters":0,"station_id":"","pricing_plan_id":"cebpf4jnsgd1na2vs0mg"},{"bike_id":"cfbe74de-df6e-410f-a135-fdfa5d6ad801","system_id":"levelo_inurba_marseille","lat":43.29568,"lon":5.3752,"is_reserved":false,"is_disabled":false,"rental_uris":{"android":"levelo://app?vid=cfbe74de-df6e-410f-a135-fdfa5d6ad801","ios":"levelo://app?vid=cfbe74de-df6e-410f-a135-fdfa5d6ad801"},"vehicle_type_id":"4","last_reported":1733137710,"current_range_meters":38000,"station_id":"ce4bgh92rcd13ifvqb50","pricing_plan_id":"cebpf4jnsgd1na2vs0mg"},{"bike_id":"4bc94dc8-8dfe-4739-a5bd-9ac915b9a612","system_id":"levelo_inurba_marseille","lat":43.28845,"lon":5.35849,"is_reserved":false,"is_disabled":true,"rental_uris":{"android":"levelo://app?vid=4bc94dc8-8dfe-4739-a5bd-9ac915b9a612","ios":"levelo://app?vid=4bc94dc8-8dfe-4739-a5bd-9ac915b9a612"},"vehicle_type_id":"4","last_reported":1733137710,"current_range_meters":38000,"station_id":"ce4bhb12rcd13ifvqem0","pricing_plan_id":"cebpf4jnsgd1na2vs0mg"},{"bike_id":"fedb8f41-f066-432e-b337-108e0e005840","system_id":"levelo_inurba_marseille","lat":43.26559,"lon":5.39005,"is_reserved":false,"is_disabled":false,"rental_uris":{"android":"levelo://app?vid=fedb8f41-f066-432e-b337-108e0e005840","ios":"levelo://app?vid=fedb8f41-f066-432e-b337-108e0e005840"},"vehicle_type_id":"4","last_reported":1733137710,"current_range_meters":28800,"station_id":"ce4bhe12rcd13ifvqf30","pricing_plan_id":"cebpf4jnsgd1na2vs0mg"},{"bike_id":"57f80629-123c-4bac-a8c2-34daf0ee5b1d","system_id":"levelo_inurba_marseille","lat":43.23195,"lon":5.355523,"is_reserved":false,"is_disabled":false,"rental_uris":{"android":"levelo://app?vid=57f80629-123c-4bac-a8c2-34daf0ee5b1d","ios":"levelo://app?vid=57f80629-123c-4bac-a8c2-34daf0ee5b1d"},"vehicle_type_id":"4","last_reported":1733137710,"current_range_meters":38000,"station_id":"ce4bhu92rcd13ifvqi70","pricing_plan_id":"cebpf4jnsgd1na2vs0mg"},{"bike_id":"81fb84ad-1dd0-4962-abe2-ac71962b9005","system_id":"levelo_inurba_marseille","lat":43.3031,"lon":5.39211,"is_reserved":false,"is_disabled":true,"rental_uris":{"android":"levelo://app?vid=81fb84ad-1dd0-4962-abe2-ac71962b9005","ios":"levelo://app?vid=81fb84ad-1dd0-4962-abe2-ac71962b9005"},"vehicle_type_id":"4","last_reported":1733137710,"current_range_meters":27600,"station_id":"ce4bgkh2rcd13ifvqbk0","pricing_plan_id":"cebpf4jnsgd1na2vs0mg"},{"bike_id":"58bdc8d2-85cd-4027-9057-48ff10b2bd06","system_id":"levelo_inurba_marseille","lat":43.27894,"lon":5.38006,"is_reserved":false,"is_disabled":false,"rental_uris":{"android":"levelo://app?vid=58bdc8d2-85cd-4027-9057-48ff10b2bd06","ios":"levelo://app?vid=58bdc8d2-85cd-4027-9057-48ff10b2bd06"},"vehicle_type_id":"4","last_reported":1733137710,"current_range_meters":15200,"station_id":"ce4bhf92rcd13ifvqf50","pricing_plan_id":"cebpf4jnsgd1na2vs0mg"},{"bike_id":"eb5c916b-2f62-4970-a07a-597dde3f9251","system_id":"levelo_inurba_marseille","lat":43.24069,"lon":5.37752,"is_reserved":false,"is_disabled":true,"rental_uris":{"android":"levelo://app?vid=eb5c916b-2f62-4970-a07a-597dde3f9251","ios":"levelo://app?vid=eb5c916b-2f62-4970-a07a-597dde3f9251"},"vehicle_type_id":"4","last_reported":1733137710,"current_range_meters":0,"station_id":"ce4bhnp2rcd13ifvqgvg","pricing_plan_id":"cebpf4jnsgd1na2vs0mg"},{"bike_id":"000b518d-442b-4752-8b9a-e2fc3654d286","system_id":"levelo_inurba_marseille","lat":43.29451,"lon":5.3976,"is_reserved":false,"is_disabled":true,"rental_uris":{"android":"levelo://app?vid=000b518d-442b-4752-8b9a-e2fc3654d286","ios":"levelo://app?vid=000b518d-442b-4752-8b9a-e2fc3654d286"},"vehicle_type_id":"4","last_reported":1733137710,"current_range_meters":12000,"station_id":"ce4bh3h2rcd13ifvqdo0","pricing_plan_id":"cebpf4jnsgd1na2vs0mg"},{"bike_id":"d7c7c188-73c6-4431-b4ce-2aa315b7cb0c","system_id":"levelo_inurba_marseille","lat":43.28153,"lon":5.42644,"is_reserved":false,"is_disabled":false,"rental_uris":{"android":"levelo://app?vid=d7c7c188-73c6-4431-b4ce-2aa315b7cb0c","ios":"levelo://app?vid=d7c7c188-73c6-4431-b4ce-2aa315b7cb0c"},"vehicle_type_id":"4","last_reported":1733137710,"current_range_meters":38800,"station_id":"ce4bhnh2rcd13ifvqgug","pricing_plan_id":"cebpf4jnsgd1na2vs0mg"},{"bike_id":"e39d22a4-daed-483a-acbb-550d4592cfe0","system_id":"levelo_inurba_marseille","lat":43.30056,"lon":5.38828,"is_reserved":false,"is_disabled":true,"rental_uris":{"android":"levelo://app?vid=e39d22a4-daed-483a-acbb-550d4592cfe0","ios":"levelo://app?vid=e39d22a4-daed-483a-acbb-550d4592cfe0"},"vehicle_type_id":"4","last_reported":1733137710,"current_range_meters":0,"station_id":"","pricing_plan_id":"cebpf4jnsgd1na2vs0mg"},{"bike_id":"079378bb-c3a7-454f-9874-32bd54a1e01d","system_id":"levelo_inurba_marseille","lat":43.30933,"lon":5.4015,"is_reserved":false,"is_disabled":false,"rental_uris":{"android":"levelo://app?vid=079378bb-c3a7-454f-9874-32bd54a1e01d","ios":"levelo://app?vid=079378bb-c3a7-454f-9874-32bd54a1e01d"},"vehicle_type_id":"4","last_reported":1733137710,"current_range_meters":36800,"station_id":"ce4bgvp2rcd13ifvqct0","pricing_plan_id":"cebpf4jnsgd1na2vs0mg"},{"bike_id":"1df9b703-c348-4e74-bbcb-1f4c6fc14b39","system_id":"levelo_inurba_marseille","lat":43.30549,"lon":5.36529,"is_reserved":false,"is_disabled":false,"rental_uris":{"android":"levelo://app?vid=1df9b703-c348-4e74-bbcb-1f4c6fc14b39","ios":"levelo://app?vid=1df9b703-c348-4e74-bbcb-1f4c6fc14b39"},"vehicle_type_id":"4","last_reported":1733137710,"current_range_meters":39200,"station_id":"ce4bgs12rcd13ifvqcag","pricing_plan_id":"cebpf4jnsgd1na2vs0mg"},{"bike_id":"f9c8b933-6f3c-415b-a23a-3b43c2f5668d","system_id":"levelo_inurba_marseille","lat":43.23038,"lon":5.35486,"is_reserved":false,"is_disabled":false,"rental_uris":{"android":"levelo://app?vid=f9c8b933-6f3c-415b-a23a-3b43c2f5668d","ios":"levelo://app?vid=f9c8b933-6f3c-415b-a23a-3b43c2f5668d"},"vehicle_type_id":"4","last_reported":1733137710,"current_range_meters":26800,"station_id":"cpo3342slgdg3j2ifvpg","pricing_plan_id":"cebpf4jnsgd1na2vs0mg"},{"bike_id":"7e240355-01c5-4914-a572-525c5ba6ec0f","system_id":"levelo_inurba_marseille","lat":43.29253,"lon":5.40917,"is_reserved":false,"is_disabled":true,"rental_uris":{"android":"levelo://app?vid=7e240355-01c5-4914-a572-525c5ba6ec0f","ios":"levelo://app?vid=7e240355-01c5-4914-a572-525c5ba6ec0f"},"vehicle_type_id":"4","last_reported":1733137710,"current_range_meters":8400,"station_id":"ce4bh192rcd13ifvqdc0","pricing_plan_id":"cebpf4jnsgd1na2vs0mg"},{"bike_id":"ae254242-0ad2-4ccf-9230-038b02ca7b28","system_id":"levelo_inurba_marseille","lat":43.29621,"lon":5.37151,"is_reserved":false,"is_disabled":false,"rental_uris":{"android":"levelo://app?vid=ae254242-0ad2-4ccf-9230-038b02ca7b28","ios":"levelo://app?vid=ae254242-0ad2-4ccf-9230-038b02ca7b28"},"vehicle_type_id":"4","last_reported":1733137710,"current_range_meters":38800,"station_id":"ce4bgnh2rcd13ifvqc0g","pricing_plan_id":"cebpf4jnsgd1na2vs0mg"},{"bike_id":"6a75b6a9-e9e2-4116-9f09-087c638c2462","system_id":"levelo_inurba_marseille","lat":43.32113,"lon":5.36782,"is_reserved":false,"is_disabled":false,"rental_uris":{"android":"levelo://app?vid=6a75b6a9-e9e2-4116-9f09-087c638c2462","ios":"levelo://app?vid=6a75b6a9-e9e2-4116-9f09-087c638c2462"},"vehicle_type_id":"4","last_reported":1733137710,"current_range_meters":36800,"station_id":"ce4bhrh2rcd13ifvqhug","pricing_plan_id":"cebpf4jnsgd1na2vs0mg"},{"bike_id":"d6bd3c8b-c80e-40e1-b60a-f48f1234d172","system_id":"levelo_inurba_marseille","lat":43.26942,"lon":5.40252,"is_reserved":false,"is_disabled":false,"rental_uris":{"android":"levelo://app?vid=d6bd3c8b-c80e-40e1-b60a-f48f1234d172","ios":"levelo://app?vid=d6bd3c8b-c80e-40e1-b60a-f48f1234d172"},"vehicle_type_id":"4","last_reported":1733137710,"current_range_meters":17600,"station_id":"cjm6bp8fraef2m0cb0m0","pricing_plan_id":"cebpf4jnsgd1na2vs0mg"},{"bike_id":"b535dfd0-ec01-4a13-996f-71245b6113cc","system_id":"levelo_inurba_marseille","lat":43.27977,"lon":5.41229,"is_reserved":false,"is_disabled":true,"rental_uris":{"android":"levelo://app?vid=b535dfd0-ec01-4a13-996f-71245b6113cc","ios":"levelo://app?vid=b535dfd0-ec01-4a13-996f-71245b6113cc"},"vehicle_type_id":"4","last_reported":1733137710,"current_range_meters":0,"station_id":"","pricing_plan_id":"cebpf4jnsgd1na2vs0mg"},{"bike_id":"11d5604e-29c4-4f54-96ae-67f1e4e1420d","system_id":"levelo_inurba_marseille","lat":43.29569,"lon":5.37512,"is_reserved":false,"is_disabled":true,"rental_uris":{"android":"levelo://app?vid=11d5604e-29c4-4f54-96ae-67f1e4e1420d","ios":"levelo://app?vid=11d5604e-29c4-4f54-96ae-67f1e4e1420d"},"vehicle_type_id":"4","last_reported":1733137710,"current_range_meters":0,"station_id":"ce4bgh92rcd13ifvqb50","pricing_plan_id":"cebpf4jnsgd1na2vs0mg"},{"bike_id":"2a401333-53bc-42ac-853b-1aea45bc2e54","system_id":"levelo_inurba_marseille","lat":43.24173,"lon":5.3974,"is_reserved":false,"is_disabled":false,"rental_uris":{"android":"levelo://app?vid=2a401333-53bc-42ac-853b-1aea45bc2e54","ios":"levelo://app?vid=2a401333-53bc-42ac-853b-1aea45bc2e54"},"vehicle_type_id":"4","last_reported":1733137710,"current_range_meters":39200,"station_id":"ce4bhn12rcd13ifvqgpg","pricing_plan_id":"cebpf4jnsgd1na2vs0mg"},{"bike_id":"b642d79a-bd2c-495a-acdd-099583f67bf5","system_id":"levelo_inurba_marseille","lat":43.32282,"lon":5.38268,"is_reserved":false,"is_disabled":false,"rental_uris":{"android":"levelo://app?vid=b642d79a-bd2c-495a-acdd-099583f67bf5","ios":"levelo://app?vid=b642d79a-bd2c-495a-acdd-099583f67bf5"},"vehicle_type_id":"4","last_reported":1733137710,"current_range_meters":22800,"station_id":"ce4bhr12rcd13ifvqhqg","pricing_plan_id":"cebpf4jnsgd1na2vs0mg"},{"bike_id":"ffc8afea-4e9a-410b-a553-533ded6b8e84","system_id":"levelo_inurba_marseille","lat":43.26684,"lon":5.38273,"is_reserved":false,"is_disabled":true,"rental_uris":{"android":"levelo://app?vid=ffc8afea-4e9a-410b-a553-533ded6b8e84","ios":"levelo://app?vid=ffc8afea-4e9a-410b-a553-533ded6b8e84"},"vehicle_type_id":"4","last_reported":1733137710,"current_range_meters":0,"station_id":"ce4bhg92rcd13ifvqf90","pricing_plan_id":"cebpf4jnsgd1na2vs0mg"},{"bike_id":"97981cc8-c463-4538-bd2d-7f5cd2bcbd32","system_id":"levelo_inurba_marseille","lat":43.32538,"lon":5.41444,"is_reserved":false,"is_disabled":true,"rental_uris":{"android":"levelo://app?vid=97981cc8-c463-4538-bd2d-7f5cd2bcbd32","ios":"levelo://app?vid=97981cc8-c463-4538-bd2d-7f5cd2bcbd32"},"vehicle_type_id":"4","last_reported":1733137710,"current_range_meters":2800,"station_id":"ce4bhq12rcd13ifvqhhg","pricing_plan_id":"cebpf4jnsgd1na2vs0mg"},{"bike_id":"426e8663-b5b6-4b38-b89a-a8ae0a534b6d","system_id":"levelo_inurba_marseille","lat":43.30902,"lon":5.36854,"is_reserved":false,"is_disabled":false,"rental_uris":{"android":"levelo://app?vid=426e8663-b5b6-4b38-b89a-a8ae0a534b6d","ios":"levelo://app?vid=426e8663-b5b6-4b38-b89a-a8ae0a534b6d"},"vehicle_type_id":"4","last_reported":1733137710,"current_range_meters":36800,"station_id":"ce4bgn92rcd13ifvqbvg","pricing_plan_id":"cebpf4jnsgd1na2vs0mg"},{"bike_id":"359037ce-df63-42eb-9637-548aafa4bd60","system_id":"levelo_inurba_marseille","lat":43.27068,"lon":5.42275,"is_reserved":false,"is_disabled":false,"rental_uris":{"android":"levelo://app?vid=359037ce-df63-42eb-9637-548aafa4bd60","ios":"levelo://app?vid=359037ce-df63-42eb-9637-548aafa4bd60"},"vehicle_type_id":"4","last_reported":1733137710,"current_range_meters":38800,"station_id":"ce4bhk92rcd13ifvqgb0","pricing_plan_id":"cebpf4jnsgd1na2vs0mg"},{"bike_id":"5b9d6f48-f6d1-42ec-91ce-2705b20346f7","system_id":"levelo_inurba_marseille","lat":43.27622,"lon":5.36129,"is_reserved":false,"is_disabled":true,"rental_uris":{"android":"levelo://app?vid=5b9d6f48-f6d1-42ec-91ce-2705b20346f7","ios":"levelo://app?vid=5b9d6f48-f6d1-42ec-91ce-2705b20346f7"},"vehicle_type_id":"4","last_reported":1733137710,"current_range_meters":36800,"station_id":"ce4bgj92rcd13ifvqbe0","pricing_plan_id":"cebpf4jnsgd1na2vs0mg"},{"bike_id":"cefd8873-d714-41a8-8b3d-6336397ee20a","system_id":"levelo_inurba_marseille","lat":43.28694,"lon":5.39978,"is_reserved":false,"is_disabled":false,"rental_uris":{"android":"levelo://app?vid=cefd8873-d714-41a8-8b3d-6336397ee20a","ios":"levelo://app?vid=cefd8873-d714-41a8-8b3d-6336397ee20a"},"vehicle_type_id":"4","last_reported":1733137710,"current_range_meters":27200,"station_id":"ce4bho92rcd13ifvqh3g","pricing_plan_id":"cebpf4jnsgd1na2vs0mg"},{"bike_id":"55aa419e-7ca9-4f29-976a-fefd7a814401","system_id":"levelo_inurba_marseille","lat":43.30131,"lon":5.38779,"is_reserved":false,"is_disabled":true,"rental_uris":{"android":"levelo://app?vid=55aa419e-7ca9-4f29-976a-fefd7a814401","ios":"levelo://app?vid=55aa419e-7ca9-4f29-976a-fefd7a814401"},"vehicle_type_id":"4","last_reported":1733137710,"current_range_meters":12400,"station_id":"ce4bghh2rcd13ifvqb60","pricing_plan_id":"cebpf4jnsgd1na2vs0mg"},{"bike_id":"e209c152-2234-42ad-9c50-93eb261dcd1d","system_id":"levelo_inurba_marseille","lat":43.32472,"lon":5.36563,"is_reserved":false,"is_disabled":false,"rental_uris":{"android":"levelo://app?vid=e209c152-2234-42ad-9c50-93eb261dcd1d","ios":"levelo://app?vid=e209c152-2234-42ad-9c50-93eb261dcd1d"},"vehicle_type_id":"4","last_reported":1733137710,"current_range_meters":17600,"station_id":"ce4bhs12rcd13ifvqhvg","pricing_plan_id":"cebpf4jnsgd1na2vs0mg"},{"bike_id":"eb3f7a45-8ce5-4652-9ae0-80e8d6cefc86","system_id":"levelo_inurba_marseille","lat":43.26933,"lon":5.38913,"is_reserved":false,"is_disabled":false,"rental_uris":{"android":"levelo://app?vid=eb3f7a45-8ce5-4652-9ae0-80e8d6cefc86","ios":"levelo://app?vid=eb3f7a45-8ce5-4652-9ae0-80e8d6cefc86"},"vehicle_type_id":"4","last_reported":1733137710,"current_range_meters":36400,"station_id":"ce4bhhh2rcd13ifvqfl0","pricing_plan_id":"cebpf4jnsgd1na2vs0mg"},{"bike_id":"4a848964-57ac-4c6d-8c91-6d054c0b34e7","system_id":"levelo_inurba_marseille","lat":43.29199,"lon":5.39319,"is_reserved":false,"is_disabled":false,"rental_uris":{"android":"levelo://app?vid=4a848964-57ac-4c6d-8c91-6d054c0b34e7","ios":"levelo://app?vid=4a848964-57ac-4c6d-8c91-6d054c0b34e7"},"vehicle_type_id":"4","last_reported":1733137710,"current_range_meters":13600,"station_id":"ce4bh192rcd13ifvqdd0","pricing_plan_id":"cebpf4jnsgd1na2vs0mg"},{"bike_id":"d5557f00-e16d-4ecd-a66d-4a52adabb5c5","system_id":"levelo_inurba_marseille","lat":43.3189,"lon":5.40725,"is_reserved":false,"is_disabled":false,"rental_uris":{"android":"levelo://app?vid=d5557f00-e16d-4ecd-a66d-4a52adabb5c5","ios":"levelo://app?vid=d5557f00-e16d-4ecd-a66d-4a52adabb5c5"},"vehicle_type_id":"4","last_reported":1733137710,"current_range_meters":28000,"station_id":"","pricing_plan_id":"cebpf4jnsgd1na2vs0mg"},{"bike_id":"09003072-63d7-420f-83b4-f8216bccbc6a","system_id":"levelo_inurba_marseille","lat":43.31034,"lon":5.40181,"is_reserved":false,"is_disabled":false,"rental_uris":{"android":"levelo://app?vid=09003072-63d7-420f-83b4-f8216bccbc6a","ios":"levelo://app?vid=09003072-63d7-420f-83b4-f8216bccbc6a"},"vehicle_type_id":"4","last_reported":1733137710,"current_range_meters":26800,"station_id":"ce4bgvh2rcd13ifvqcs0","pricing_plan_id":"cebpf4jnsgd1na2vs0mg"},{"bike_id":"db1f621b-3e70-47a2-9f40-e7c88c14cc8d","system_id":"levelo_inurba_marseille","lat":43.32364,"lon":5.3676,"is_reserved":false,"is_disabled":false,"rental_uris":{"android":"levelo://app?vid=db1f621b-3e70-47a2-9f40-e7c88c14cc8d","ios":"levelo://app?vid=db1f621b-3e70-47a2-9f40-e7c88c14cc8d"},"vehicle_type_id":"4","last_reported":1733137710,"current_range_meters":29600,"station_id":"ce4bhsh2rcd13ifvqi2g","pricing_plan_id":"cebpf4jnsgd1na2vs0mg"},{"bike_id":"eb4cef70-700b-438f-b2dd-e2fcfd704608","system_id":"levelo_inurba_marseille","lat":43.30953,"lon":5.39041,"is_reserved":false,"is_disabled":true,"rental_uris":{"android":"levelo://app?vid=eb4cef70-700b-438f-b2dd-e2fcfd704608","ios":"levelo://app?vid=eb4cef70-700b-438f-b2dd-e2fcfd704608"},"vehicle_type_id":"4","last_reported":1733137710,"current_range_meters":0,"station_id":"ce4bgup2rcd13ifvqco0","pricing_plan_id":"cebpf4jnsgd1na2vs0mg"},{"bike_id":"ef03cfd6-89ab-4af0-b7c1-754b87418e04","system_id":"levelo_inurba_marseille","lat":43.30314,"lon":5.36896,"is_reserved":false,"is_disabled":false,"rental_uris":{"android":"levelo://app?vid=ef03cfd6-89ab-4af0-b7c1-754b87418e04","ios":"levelo://app?vid=ef03cfd6-89ab-4af0-b7c1-754b87418e04"},"vehicle_type_id":"4","last_reported":1733137710,"current_range_meters":28400,"station_id":"ce4bgqh2rcd13ifvqc5g","pricing_plan_id":"cebpf4jnsgd1na2vs0mg"},{"bike_id":"4213c837-d727-413b-ba3b-8731e753917c","system_id":"levelo_inurba_marseille","lat":43.28145,"lon":5.42671,"is_reserved":false,"is_disabled":false,"rental_uris":{"android":"levelo://app?vid=4213c837-d727-413b-ba3b-8731e753917c","ios":"levelo://app?vid=4213c837-d727-413b-ba3b-8731e753917c"},"vehicle_type_id":"4","last_reported":1733137710,"current_range_meters":28800,"station_id":"ce4bhnh2rcd13ifvqgug","pricing_plan_id":"cebpf4jnsgd1na2vs0mg"},{"bike_id":"25dd2a60-280f-4b55-9588-353347a1acca","system_id":"levelo_inurba_marseille","lat":43.24082,"lon":5.3775,"is_reserved":false,"is_disabled":false,"rental_uris":{"android":"levelo://app?vid=25dd2a60-280f-4b55-9588-353347a1acca","ios":"levelo://app?vid=25dd2a60-280f-4b55-9588-353347a1acca"},"vehicle_type_id":"4","last_reported":1733137710,"current_range_meters":39200,"station_id":"ce4bhnp2rcd13ifvqgvg","pricing_plan_id":"cebpf4jnsgd1na2vs0mg"},{"bike_id":"ca3e12a3-558f-4632-9bc9-97c14c4dfcae","system_id":"levelo_inurba_marseille","lat":43.30142,"lon":5.37421,"is_reserved":false,"is_disabled":true,"rental_uris":{"android":"levelo://app?vid=ca3e12a3-558f-4632-9bc9-97c14c4dfcae","ios":"levelo://app?vid=ca3e12a3-558f-4632-9bc9-97c14c4dfcae"},"vehicle_type_id":"4","last_reported":1733137710,"current_range_meters":36400,"station_id":"ce4bgs92rcd13ifvqcc0","pricing_plan_id":"cebpf4jnsgd1na2vs0mg"},{"bike_id":"70d69c3b-6ac7-4dda-b773-a927cf4791a4","system_id":"levelo_inurba_marseille","lat":43.29585,"lon":5.36744,"is_reserved":false,"is_disabled":false,"rental_uris":{"android":"levelo://app?vid=70d69c3b-6ac7-4dda-b773-a927cf4791a4","ios":"levelo://app?vid=70d69c3b-6ac7-4dda-b773-a927cf4791a4"},"vehicle_type_id":"4","last_reported":1733137710,"current_range_meters":24400,"station_id":"ce4bgph2rcd13ifvqc2g","pricing_plan_id":"cebpf4jnsgd1na2vs0mg"},{"bike_id":"f10e3904-7533-4a4f-a392-3ce2fa743ada","system_id":"levelo_inurba_marseille","lat":43.23143,"lon":5.43718,"is_reserved":false,"is_disabled":false,"rental_uris":{"android":"levelo://app?vid=f10e3904-7533-4a4f-a392-3ce2fa743ada","ios":"levelo://app?vid=f10e3904-7533-4a4f-a392-3ce2fa743ada"},"vehicle_type_id":"4","last_reported":1733137710,"current_range_meters":24000,"station_id":"ce4bhmp2rcd13ifvqgog","pricing_plan_id":"cebpf4jnsgd1na2vs0mg"},{"bike_id":"42dff1c4-6053-46d6-ab14-2b44877e8b55","system_id":"levelo_inurba_marseille","lat":43.28442,"lon":5.39177,"is_reserved":false,"is_disabled":true,"rental_uris":{"android":"levelo://app?vid=42dff1c4-6053-46d6-ab14-2b44877e8b55","ios":"levelo://app?vid=42dff1c4-6053-46d6-ab14-2b44877e8b55"},"vehicle_type_id":"4","last_reported":1733137710,"current_range_meters":32800,"station_id":"ce4bhoh2rcd13ifvqh5g","pricing_plan_id":"cebpf4jnsgd1na2vs0mg"},{"bike_id":"d5a80474-e33e-4cc3-907c-6059f080f32b","system_id":"levelo_inurba_marseille","lat":43.25111,"lon":5.40328,"is_reserved":false,"is_disabled":false,"rental_uris":{"android":"levelo://app?vid=d5a80474-e33e-4cc3-907c-6059f080f32b","ios":"levelo://app?vid=d5a80474-e33e-4cc3-907c-6059f080f32b"},"vehicle_type_id":"4","last_reported":1733137710,"current_range_meters":37600,"station_id":"ce4bhlh2rcd13ifvqgig","pricing_plan_id":"cebpf4jnsgd1na2vs0mg"},{"bike_id":"1a30036b-f702-4b77-9d67-c567bec24936","system_id":"levelo_inurba_marseille","lat":43.27943,"lon":5.41043,"is_reserved":false,"is_disabled":false,"rental_uris":{"android":"levelo://app?vid=1a30036b-f702-4b77-9d67-c567bec24936","ios":"levelo://app?vid=1a30036b-f702-4b77-9d67-c567bec24936"},"vehicle_type_id":"4","last_reported":1733137710,"current_range_meters":8400,"station_id":"ce4bhnp2rcd13ifvqh0g","pricing_plan_id":"cebpf4jnsgd1na2vs0mg"},{"bike_id":"27d13c7a-6338-48dc-81dd-618b3e4ff60b","system_id":"levelo_inurba_marseille","lat":43.29064,"lon":5.38345,"is_reserved":false,"is_disabled":true,"rental_uris":{"android":"levelo://app?vid=27d13c7a-6338-48dc-81dd-618b3e4ff60b","ios":"levelo://app?vid=27d13c7a-6338-48dc-81dd-618b3e4ff60b"},"vehicle_type_id":"4","last_reported":1733137710,"current_range_meters":30000,"station_id":"","pricing_plan_id":"cebpf4jnsgd1na2vs0mg"},{"bike_id":"c320e1eb-dbd0-4df2-8282-00e392a1bad3","system_id":"levelo_inurba_marseille","lat":43.30945,"lon":5.39058,"is_reserved":false,"is_disabled":false,"rental_uris":{"android":"levelo://app?vid=c320e1eb-dbd0-4df2-8282-00e392a1bad3","ios":"levelo://app?vid=c320e1eb-dbd0-4df2-8282-00e392a1bad3"},"vehicle_type_id":"4","last_reported":1733137710,"current_range_meters":18800,"station_id":"ce4bgup2rcd13ifvqco0","pricing_plan_id":"cebpf4jnsgd1na2vs0mg"},{"bike_id":"49e5ad66-0c25-41ce-a0f0-4dcbbaf3d70a","system_id":"levelo_inurba_marseille","lat":43.30187,"lon":5.36621,"is_reserved":false,"is_disabled":false,"rental_uris":{"android":"levelo://app?vid=49e5ad66-0c25-41ce-a0f0-4dcbbaf3d70a","ios":"levelo://app?vid=49e5ad66-0c25-41ce-a0f0-4dcbbaf3d70a"},"vehicle_type_id":"4","last_reported":1733137710,"current_range_meters":28400,"station_id":"ce4bgrh2rcd13ifvqc8g","pricing_plan_id":"cebpf4jnsgd1na2vs0mg"},{"bike_id":"af17e8d0-72e1-4b5f-a66a-2ae7d000fad7","system_id":"levelo_inurba_marseille","lat":43.23957,"lon":5.3664,"is_reserved":false,"is_disabled":false,"rental_uris":{"android":"levelo://app?vid=af17e8d0-72e1-4b5f-a66a-2ae7d000fad7","ios":"levelo://app?vid=af17e8d0-72e1-4b5f-a66a-2ae7d000fad7"},"vehicle_type_id":"4","last_reported":1733137710,"current_range_meters":36000,"station_id":"ce4bhi12rcd13ifvqfp0","pricing_plan_id":"cebpf4jnsgd1na2vs0mg"},{"bike_id":"5377510e-7dd7-4d2a-9830-a3dc2517bdc5","system_id":"levelo_inurba_marseille","lat":43.30532,"lon":5.3843,"is_reserved":false,"is_disabled":false,"rental_uris":{"android":"levelo://app?vid=5377510e-7dd7-4d2a-9830-a3dc2517bdc5","ios":"levelo://app?vid=5377510e-7dd7-4d2a-9830-a3dc2517bdc5"},"vehicle_type_id":"4","last_reported":1733137710,"current_range_meters":24000,"station_id":"ce4bgg92rcd13ifvqb30","pricing_plan_id":"cebpf4jnsgd1na2vs0mg"},{"bike_id":"39905032-31f0-43f8-9e25-836bef7bb967","system_id":"levelo_inurba_marseille","lat":43.28924,"lon":5.38399,"is_reserved":false,"is_disabled":false,"rental_uris":{"android":"levelo://app?vid=39905032-31f0-43f8-9e25-836bef7bb967","ios":"levelo://app?vid=39905032-31f0-43f8-9e25-836bef7bb967"},"vehicle_type_id":"4","last_reported":1733137710,"current_range_meters":38000,"station_id":"ce4bh612rcd13ifvqe6g","pricing_plan_id":"cebpf4jnsgd1na2vs0mg"},{"bike_id":"5c6e39ca-15ff-443c-bf37-76526b476ea2","system_id":"levelo_inurba_marseille","lat":43.27909,"lon":5.38015,"is_reserved":false,"is_disabled":false,"rental_uris":{"android":"levelo://app?vid=5c6e39ca-15ff-443c-bf37-76526b476ea2","ios":"levelo://app?vid=5c6e39ca-15ff-443c-bf37-76526b476ea2"},"vehicle_type_id":"4","last_reported":1733137710,"current_range_meters":37600,"station_id":"ce4bhf92rcd13ifvqf50","pricing_plan_id":"cebpf4jnsgd1na2vs0mg"},{"bike_id":"0d62bda4-1090-4351-8589-159fc8185692","system_id":"levelo_inurba_marseille","lat":43.31116,"lon":5.37766,"is_reserved":false,"is_disabled":false,"rental_uris":{"android":"levelo://app?vid=0d62bda4-1090-4351-8589-159fc8185692","ios":"levelo://app?vid=0d62bda4-1090-4351-8589-159fc8185692"},"vehicle_type_id":"4","last_reported":1733137710,"current_range_meters":9600,"station_id":"ce4bgt92rcd13ifvqcg0","pricing_plan_id":"cebpf4jnsgd1na2vs0mg"},{"bike_id":"f82355d5-3bae-4cc3-9dfa-61a4fd346c46","system_id":"levelo_inurba_marseille","lat":43.26557,"lon":5.37301,"is_reserved":false,"is_disabled":false,"rental_uris":{"android":"levelo://app?vid=f82355d5-3bae-4cc3-9dfa-61a4fd346c46","ios":"levelo://app?vid=f82355d5-3bae-4cc3-9dfa-61a4fd346c46"},"vehicle_type_id":"4","last_reported":1733137710,"current_range_meters":17600,"station_id":"ce4bhg12rcd13ifvqf70","pricing_plan_id":"cebpf4jnsgd1na2vs0mg"},{"bike_id":"6ee9b804-219d-4821-9052-991b7df2bed2","system_id":"levelo_inurba_marseille","lat":43.23161,"lon":5.43698,"is_reserved":false,"is_disabled":true,"rental_uris":{"android":"levelo://app?vid=6ee9b804-219d-4821-9052-991b7df2bed2","ios":"levelo://app?vid=6ee9b804-219d-4821-9052-991b7df2bed2"},"vehicle_type_id":"4","last_reported":1733137710,"current_range_meters":0,"station_id":"ce4bhmp2rcd13ifvqgog","pricing_plan_id":"cebpf4jnsgd1na2vs0mg"},{"bike_id":"441c09c7-12b7-475f-8f2f-939b3fee058b","system_id":"levelo_inurba_marseille","lat":43.32467,"lon":5.36558,"is_reserved":false,"is_disabled":false,"rental_uris":{"android":"levelo://app?vid=441c09c7-12b7-475f-8f2f-939b3fee058b","ios":"levelo://app?vid=441c09c7-12b7-475f-8f2f-939b3fee058b"},"vehicle_type_id":"4","last_reported":1733137710,"current_range_meters":38000,"station_id":"ce4bhs12rcd13ifvqhvg","pricing_plan_id":"cebpf4jnsgd1na2vs0mg"},{"bike_id":"e0161261-fd33-45e3-8038-51d77778a6b0","system_id":"levelo_inurba_marseille","lat":43.30638,"lon":5.4008,"is_reserved":false,"is_disabled":true,"rental_uris":{"android":"levelo://app?vid=e0161261-fd33-45e3-8038-51d77778a6b0","ios":"levelo://app?vid=e0161261-fd33-45e3-8038-51d77778a6b0"},"vehicle_type_id":"4","last_reported":1733137710,"current_range_meters":39200,"station_id":"ce4bh112rcd13ifvqda0","pricing_plan_id":"cebpf4jnsgd1na2vs0mg"},{"bike_id":"e2da588e-b394-492c-a6e0-214eb5eaf1c5","system_id":"levelo_inurba_marseille","lat":43.30212,"lon":5.39473,"is_reserved":false,"is_disabled":false,"rental_uris":{"android":"levelo://app?vid=e2da588e-b394-492c-a6e0-214eb5eaf1c5","ios":"levelo://app?vid=e2da588e-b394-492c-a6e0-214eb5eaf1c5"},"vehicle_type_id":"4","last_reported":1733137710,"current_range_meters":25200,"station_id":"ce4bh0p2rcd13ifvqd70","pricing_plan_id":"cebpf4jnsgd1na2vs0mg"},{"bike_id":"4d38a818-9531-4d9e-a2a0-b9cd0b136842","system_id":"levelo_inurba_marseille","lat":43.26483,"lon":5.39143,"is_reserved":false,"is_disabled":true,"rental_uris":{"android":"levelo://app?vid=4d38a818-9531-4d9e-a2a0-b9cd0b136842","ios":"levelo://app?vid=4d38a818-9531-4d9e-a2a0-b9cd0b136842"},"vehicle_type_id":"4","last_reported":1733137710,"current_range_meters":0,"station_id":"","pricing_plan_id":"cebpf4jnsgd1na2vs0mg"},{"bike_id":"d74f6380-9290-47e1-a199-fbd3fdcddc74","system_id":"levelo_inurba_marseille","lat":43.30546,"lon":5.36696,"is_reserved":false,"is_disabled":true,"rental_uris":{"android":"levelo://app?vid=d74f6380-9290-47e1-a199-fbd3fdcddc74","ios":"levelo://app?vid=d74f6380-9290-47e1-a199-fbd3fdcddc74"},"vehicle_type_id":"4","last_reported":1733137710,"current_range_meters":37600,"station_id":"ce4bgrp2rcd13ifvqc9g","pricing_plan_id":"cebpf4jnsgd1na2vs0mg"},{"bike_id":"a794634e-f858-4eb8-a1c0-a675bb554c5c","system_id":"levelo_inurba_marseille","lat":43.33611,"lon":5.41014,"is_reserved":false,"is_disabled":false,"rental_uris":{"android":"levelo://app?vid=a794634e-f858-4eb8-a1c0-a675bb554c5c","ios":"levelo://app?vid=a794634e-f858-4eb8-a1c0-a675bb554c5c"},"vehicle_type_id":"4","last_reported":1733137710,"current_range_meters":38000,"station_id":"ce4bhqh2rcd13ifvqhmg","pricing_plan_id":"cebpf4jnsgd1na2vs0mg"},{"bike_id":"0925ff43-bab0-49be-8348-5535795fc1c0","system_id":"levelo_inurba_marseille","lat":43.30542,"lon":5.384304,"is_reserved":false,"is_disabled":true,"rental_uris":{"android":"levelo://app?vid=0925ff43-bab0-49be-8348-5535795fc1c0","ios":"levelo://app?vid=0925ff43-bab0-49be-8348-5535795fc1c0"},"vehicle_type_id":"4","last_reported":1733137710,"current_range_meters":8400,"station_id":"ce4bgg92rcd13ifvqb30","pricing_plan_id":"cebpf4jnsgd1na2vs0mg"},{"bike_id":"4e2c75fb-1749-4137-bf42-f4956aac40ef","system_id":"levelo_inurba_marseille","lat":43.29977,"lon":5.38552,"is_reserved":false,"is_disabled":false,"rental_uris":{"android":"levelo://app?vid=4e2c75fb-1749-4137-bf42-f4956aac40ef","ios":"levelo://app?vid=4e2c75fb-1749-4137-bf42-f4956aac40ef"},"vehicle_type_id":"4","last_reported":1733137710,"current_range_meters":19200,"station_id":"","pricing_plan_id":"cebpf4jnsgd1na2vs0mg"},{"bike_id":"df175e35-a109-455b-a549-3a0af8fc4135","system_id":"levelo_inurba_marseille","lat":43.26679,"lon":5.38268,"is_reserved":false,"is_disabled":true,"rental_uris":{"android":"levelo://app?vid=df175e35-a109-455b-a549-3a0af8fc4135","ios":"levelo://app?vid=df175e35-a109-455b-a549-3a0af8fc4135"},"vehicle_type_id":"4","last_reported":1733137710,"current_range_meters":12800,"station_id":"ce4bhg92rcd13ifvqf90","pricing_plan_id":"cebpf4jnsgd1na2vs0mg"},{"bike_id":"11ed2f4a-c0d4-4746-92e5-e783e91ec95c","system_id":"levelo_inurba_marseille","lat":43.30129,"lon":5.39884,"is_reserved":false,"is_disabled":false,"rental_uris":{"android":"levelo://app?vid=11ed2f4a-c0d4-4746-92e5-e783e91ec95c","ios":"levelo://app?vid=11ed2f4a-c0d4-4746-92e5-e783e91ec95c"},"vehicle_type_id":"4","last_reported":1733137710,"current_range_meters":38000,"station_id":"ce4bh0h2rcd13ifvqd40","pricing_plan_id":"cebpf4jnsgd1na2vs0mg"},{"bike_id":"a6e58d9f-9722-411e-858a-11e0422c87e7","system_id":"levelo_inurba_marseille","lat":43.31229,"lon":5.36843,"is_reserved":false,"is_disabled":false,"rental_uris":{"android":"levelo://app?vid=a6e58d9f-9722-411e-858a-11e0422c87e7","ios":"levelo://app?vid=a6e58d9f-9722-411e-858a-11e0422c87e7"},"vehicle_type_id":"4","last_reported":1733137710,"current_range_meters":36800,"station_id":"ce4bgl92rcd13ifvqbq0","pricing_plan_id":"cebpf4jnsgd1na2vs0mg"},{"bike_id":"7b2a0aef-6809-4590-a9da-75983d389cd2","system_id":"levelo_inurba_marseille","lat":43.30135,"lon":5.37431,"is_reserved":false,"is_disabled":false,"rental_uris":{"android":"levelo://app?vid=7b2a0aef-6809-4590-a9da-75983d389cd2","ios":"levelo://app?vid=7b2a0aef-6809-4590-a9da-75983d389cd2"},"vehicle_type_id":"4","last_reported":1733137710,"current_range_meters":32000,"station_id":"ce4bgs92rcd13ifvqcc0","pricing_plan_id":"cebpf4jnsgd1na2vs0mg"},{"bike_id":"42338954-2e8a-4d0f-bf94-14edb001dd5b","system_id":"levelo_inurba_marseille","lat":43.32475,"lon":5.36564,"is_reserved":false,"is_disabled":false,"rental_uris":{"android":"levelo://app?vid=42338954-2e8a-4d0f-bf94-14edb001dd5b","ios":"levelo://app?vid=42338954-2e8a-4d0f-bf94-14edb001dd5b"},"vehicle_type_id":"4","last_reported":1733137710,"current_range_meters":27200,"station_id":"ce4bhs12rcd13ifvqhvg","pricing_plan_id":"cebpf4jnsgd1na2vs0mg"},{"bike_id":"1e9f7531-f02f-4a68-a033-35dfa2f6d9df","system_id":"levelo_inurba_marseille","lat":43.28475,"lon":5.38545,"is_reserved":false,"is_disabled":true,"rental_uris":{"android":"levelo://app?vid=1e9f7531-f02f-4a68-a033-35dfa2f6d9df","ios":"levelo://app?vid=1e9f7531-f02f-4a68-a033-35dfa2f6d9df"},"vehicle_type_id":"4","last_reported":1733137710,"current_range_meters":38800,"station_id":"ce4bh8p2rcd13ifvqeb0","pricing_plan_id":"cebpf4jnsgd1na2vs0mg"},{"bike_id":"0d03bb26-c720-45e4-a013-9bb2b263aa21","system_id":"levelo_inurba_marseille","lat":43.26955,"lon":5.38629,"is_reserved":false,"is_disabled":false,"rental_uris":{"android":"levelo://app?vid=0d03bb26-c720-45e4-a013-9bb2b263aa21","ios":"levelo://app?vid=0d03bb26-c720-45e4-a013-9bb2b263aa21"},"vehicle_type_id":"4","last_reported":1733137710,"current_range_meters":25600,"station_id":"ce4bhh92rcd13ifvqfh0","pricing_plan_id":"cebpf4jnsgd1na2vs0mg"},{"bike_id":"be2251c1-cd70-4be7-b384-11c1b73557fa","system_id":"levelo_inurba_marseille","lat":43.29678,"lon":5.37288,"is_reserved":false,"is_disabled":false,"rental_uris":{"android":"levelo://app?vid=be2251c1-cd70-4be7-b384-11c1b73557fa","ios":"levelo://app?vid=be2251c1-cd70-4be7-b384-11c1b73557fa"},"vehicle_type_id":"4","last_reported":1733137710,"current_range_meters":36800,"station_id":"ce4bgk12rcd13ifvqbj0","pricing_plan_id":"cebpf4jnsgd1na2vs0mg"},{"bike_id":"e0af28c8-a863-4484-ab80-caa4b3e90a58","system_id":"levelo_inurba_marseille","lat":43.30544,"lon":5.36702,"is_reserved":false,"is_disabled":false,"rental_uris":{"android":"levelo://app?vid=e0af28c8-a863-4484-ab80-caa4b3e90a58","ios":"levelo://app?vid=e0af28c8-a863-4484-ab80-caa4b3e90a58"},"vehicle_type_id":"4","last_reported":1733137710,"current_range_meters":16800,"station_id":"ce4bgrp2rcd13ifvqc9g","pricing_plan_id":"cebpf4jnsgd1na2vs0mg"},{"bike_id":"74f81b79-b016-4120-b119-bcc64481fa7e","system_id":"levelo_inurba_marseille","lat":43.29303,"lon":5.37454,"is_reserved":false,"is_disabled":false,"rental_uris":{"android":"levelo://app?vid=74f81b79-b016-4120-b119-bcc64481fa7e","ios":"levelo://app?vid=74f81b79-b016-4120-b119-bcc64481fa7e"},"vehicle_type_id":"4","last_reported":1733137710,"current_range_meters":35200,"station_id":"ce4bgi12rcd13ifvqb70","pricing_plan_id":"cebpf4jnsgd1na2vs0mg"},{"bike_id":"5086ea3e-49c1-472e-bf74-3588bb2e0a99","system_id":"levelo_inurba_marseille","lat":43.30309,"lon":5.36891,"is_reserved":false,"is_disabled":false,"rental_uris":{"android":"levelo://app?vid=5086ea3e-49c1-472e-bf74-3588bb2e0a99","ios":"levelo://app?vid=5086ea3e-49c1-472e-bf74-3588bb2e0a99"},"vehicle_type_id":"4","last_reported":1733137710,"current_range_meters":15200,"station_id":"ce4bgqh2rcd13ifvqc5g","pricing_plan_id":"cebpf4jnsgd1na2vs0mg"},{"bike_id":"741e87c8-37e0-4458-b772-9d2a50752ac6","system_id":"levelo_inurba_marseille","lat":43.30548,"lon":5.36702,"is_reserved":false,"is_disabled":false,"rental_uris":{"android":"levelo://app?vid=741e87c8-37e0-4458-b772-9d2a50752ac6","ios":"levelo://app?vid=741e87c8-37e0-4458-b772-9d2a50752ac6"},"vehicle_type_id":"4","last_reported":1733137710,"current_range_meters":38800,"station_id":"ce4bgrp2rcd13ifvqc9g","pricing_plan_id":"cebpf4jnsgd1na2vs0mg"},{"bike_id":"15f7db9f-95f5-4bd9-bddc-67bb73b7373f","system_id":"levelo_inurba_marseille","lat":43.23189,"lon":5.35556,"is_reserved":false,"is_disabled":false,"rental_uris":{"android":"levelo://app?vid=15f7db9f-95f5-4bd9-bddc-67bb73b7373f","ios":"levelo://app?vid=15f7db9f-95f5-4bd9-bddc-67bb73b7373f"},"vehicle_type_id":"4","last_reported":1733137710,"current_range_meters":3600,"station_id":"ce4bhu92rcd13ifvqi70","pricing_plan_id":"cebpf4jnsgd1na2vs0mg"},{"bike_id":"2ca2c672-d86a-4f8c-bf98-0176e87f6243","system_id":"levelo_inurba_marseille","lat":43.2719,"lon":5.4099,"is_reserved":false,"is_disabled":false,"rental_uris":{"android":"levelo://app?vid=2ca2c672-d86a-4f8c-bf98-0176e87f6243","ios":"levelo://app?vid=2ca2c672-d86a-4f8c-bf98-0176e87f6243"},"vehicle_type_id":"4","last_reported":1733137710,"current_range_meters":28800,"station_id":"ce4bhl12rcd13ifvqgf0","pricing_plan_id":"cebpf4jnsgd1na2vs0mg"},{"bike_id":"c109599f-460a-4c04-9b06-057f16909e88","system_id":"levelo_inurba_marseille","lat":43.295723,"lon":5.399681,"is_reserved":false,"is_disabled":true,"rental_uris":{"android":"levelo://app?vid=c109599f-460a-4c04-9b06-057f16909e88","ios":"levelo://app?vid=c109599f-460a-4c04-9b06-057f16909e88"},"vehicle_type_id":"4","last_reported":1733137710,"current_range_meters":20000,"station_id":"ce4bh312rcd13ifvqdj0","pricing_plan_id":"cebpf4jnsgd1na2vs0mg"},{"bike_id":"94040737-4b61-4ed3-b97e-348ef1bb43d8","system_id":"levelo_inurba_marseille","lat":43.31482,"lon":5.37304,"is_reserved":false,"is_disabled":false,"rental_uris":{"android":"levelo://app?vid=94040737-4b61-4ed3-b97e-348ef1bb43d8","ios":"levelo://app?vid=94040737-4b61-4ed3-b97e-348ef1bb43d8"},"vehicle_type_id":"4","last_reported":1733137710,"current_range_meters":16400,"station_id":"ce4bgt12rcd13ifvqcd0","pricing_plan_id":"cebpf4jnsgd1na2vs0mg"},{"bike_id":"d8d6cb5e-eedd-4683-935e-c88248734e3e","system_id":"levelo_inurba_marseille","lat":43.30538,"lon":5.36532,"is_reserved":false,"is_disabled":false,"rental_uris":{"android":"levelo://app?vid=d8d6cb5e-eedd-4683-935e-c88248734e3e","ios":"levelo://app?vid=d8d6cb5e-eedd-4683-935e-c88248734e3e"},"vehicle_type_id":"4","last_reported":1733137710,"current_range_meters":38800,"station_id":"ce4bgs12rcd13ifvqcag","pricing_plan_id":"cebpf4jnsgd1na2vs0mg"},{"bike_id":"cbc873b5-9408-42f9-aca1-728e71c0ec86","system_id":"levelo_inurba_marseille","lat":43.25476,"lon":5.3765,"is_reserved":false,"is_disabled":false,"rental_uris":{"android":"levelo://app?vid=cbc873b5-9408-42f9-aca1-728e71c0ec86","ios":"levelo://app?vid=cbc873b5-9408-42f9-aca1-728e71c0ec86"},"vehicle_type_id":"4","last_reported":1733137710,"current_range_meters":12400,"station_id":"ce4bhh12rcd13ifvqff0","pricing_plan_id":"cebpf4jnsgd1na2vs0mg"},{"bike_id":"9dd1fc98-a89e-437a-b707-6eb8b3c899e8","system_id":"levelo_inurba_marseille","lat":43.29036,"lon":5.35925,"is_reserved":false,"is_disabled":true,"rental_uris":{"android":"levelo://app?vid=9dd1fc98-a89e-437a-b707-6eb8b3c899e8","ios":"levelo://app?vid=9dd1fc98-a89e-437a-b707-6eb8b3c899e8"},"vehicle_type_id":"4","last_reported":1733137710,"current_range_meters":0,"station_id":"ce4bha92rcd13ifvqeg0","pricing_plan_id":"cebpf4jnsgd1na2vs0mg"},{"bike_id":"c4695e4c-b562-45fa-ba5c-940774687599","system_id":"levelo_inurba_marseille","lat":43.29309,"lon":5.37169,"is_reserved":false,"is_disabled":false,"rental_uris":{"android":"levelo://app?vid=c4695e4c-b562-45fa-ba5c-940774687599","ios":"levelo://app?vid=c4695e4c-b562-45fa-ba5c-940774687599"},"vehicle_type_id":"4","last_reported":1733137710,"current_range_meters":36400,"station_id":"ce4bgh92rcd13ifvqb40","pricing_plan_id":"cebpf4jnsgd1na2vs0mg"},{"bike_id":"a56566fc-0103-4916-99a2-70296d88373f","system_id":"levelo_inurba_marseille","lat":43.30886,"lon":5.39639,"is_reserved":false,"is_disabled":false,"rental_uris":{"android":"levelo://app?vid=a56566fc-0103-4916-99a2-70296d88373f","ios":"levelo://app?vid=a56566fc-0103-4916-99a2-70296d88373f"},"vehicle_type_id":"4","last_reported":1733137710,"current_range_meters":38000,"station_id":"ce4bh012rcd13ifvqcv0","pricing_plan_id":"cebpf4jnsgd1na2vs0mg"},{"bike_id":"fb3ca736-6ecb-47b7-90e2-663d13bb67d1","system_id":"levelo_inurba_marseille","lat":43.31353,"lon":5.36728,"is_reserved":false,"is_disabled":true,"rental_uris":{"android":"levelo://app?vid=fb3ca736-6ecb-47b7-90e2-663d13bb67d1","ios":"levelo://app?vid=fb3ca736-6ecb-47b7-90e2-663d13bb67d1"},"vehicle_type_id":"4","last_reported":1733137710,"current_range_meters":22400,"station_id":"ce4bgr92rcd13ifvqc6g","pricing_plan_id":"cebpf4jnsgd1na2vs0mg"},{"bike_id":"bea43fe6-0ab8-4ff0-afcb-1dc4fc192577","system_id":"levelo_inurba_marseille","lat":43.25109,"lon":5.40322,"is_reserved":false,"is_disabled":false,"rental_uris":{"android":"levelo://app?vid=bea43fe6-0ab8-4ff0-afcb-1dc4fc192577","ios":"levelo://app?vid=bea43fe6-0ab8-4ff0-afcb-1dc4fc192577"},"vehicle_type_id":"4","last_reported":1733137710,"current_range_meters":38400,"station_id":"ce4bhlh2rcd13ifvqgig","pricing_plan_id":"cebpf4jnsgd1na2vs0mg"},{"bike_id":"f5078b8f-458c-46e5-9040-98e7aeec84ee","system_id":"levelo_inurba_marseille","lat":43.29838,"lon":5.36259,"is_reserved":false,"is_disabled":false,"rental_uris":{"android":"levelo://app?vid=f5078b8f-458c-46e5-9040-98e7aeec84ee","ios":"levelo://app?vid=f5078b8f-458c-46e5-9040-98e7aeec84ee"},"vehicle_type_id":"4","last_reported":1733137710,"current_range_meters":38800,"station_id":"ce4bgpp2rcd13ifvqc3g","pricing_plan_id":"cebpf4jnsgd1na2vs0mg"},{"bike_id":"1b4091b4-9da5-4e08-a623-15bd0eb83e75","system_id":"levelo_inurba_marseille","lat":43.293,"lon":5.3717,"is_reserved":false,"is_disabled":true,"rental_uris":{"android":"levelo://app?vid=1b4091b4-9da5-4e08-a623-15bd0eb83e75","ios":"levelo://app?vid=1b4091b4-9da5-4e08-a623-15bd0eb83e75"},"vehicle_type_id":"4","last_reported":1733137710,"current_range_meters":0,"station_id":"ce4bgh92rcd13ifvqb40","pricing_plan_id":"cebpf4jnsgd1na2vs0mg"},{"bike_id":"54ff68ce-a6db-4911-bad9-570f28d71ad3","system_id":"levelo_inurba_marseille","lat":43.30212,"lon":5.39467,"is_reserved":false,"is_disabled":false,"rental_uris":{"android":"levelo://app?vid=54ff68ce-a6db-4911-bad9-570f28d71ad3","ios":"levelo://app?vid=54ff68ce-a6db-4911-bad9-570f28d71ad3"},"vehicle_type_id":"4","last_reported":1733137710,"current_range_meters":18800,"station_id":"ce4bgj92rcd13ifvqbd0","pricing_plan_id":"cebpf4jnsgd1na2vs0mg"},{"bike_id":"d943d960-7d9b-4964-9228-20089cd21664","system_id":"levelo_inurba_marseille","lat":43.32901,"lon":5.36446,"is_reserved":false,"is_disabled":false,"rental_uris":{"android":"levelo://app?vid=d943d960-7d9b-4964-9228-20089cd21664","ios":"levelo://app?vid=d943d960-7d9b-4964-9228-20089cd21664"},"vehicle_type_id":"4","last_reported":1733137710,"current_range_meters":10000,"station_id":"","pricing_plan_id":"cebpf4jnsgd1na2vs0mg"},{"bike_id":"23da5067-cac7-4ef3-9734-be333b976303","system_id":"levelo_inurba_marseille","lat":43.25494,"lon":5.37649,"is_reserved":false,"is_disabled":false,"rental_uris":{"android":"levelo://app?vid=23da5067-cac7-4ef3-9734-be333b976303","ios":"levelo://app?vid=23da5067-cac7-4ef3-9734-be333b976303"},"vehicle_type_id":"4","last_reported":1733137710,"current_range_meters":16800,"station_id":"ce4bhh12rcd13ifvqff0","pricing_plan_id":"cebpf4jnsgd1na2vs0mg"},{"bike_id":"9508c21f-0e52-4ab0-8643-3a136a0d7736","system_id":"levelo_inurba_marseille","lat":43.30147,"lon":5.38082,"is_reserved":false,"is_disabled":false,"rental_uris":{"android":"levelo://app?vid=9508c21f-0e52-4ab0-8643-3a136a0d7736","ios":"levelo://app?vid=9508c21f-0e52-4ab0-8643-3a136a0d7736"},"vehicle_type_id":"4","last_reported":1733137710,"current_range_meters":33600,"station_id":"ce4bgjp2rcd13ifvqbh0","pricing_plan_id":"cebpf4jnsgd1na2vs0mg"},{"bike_id":"af9b6b8a-f06b-4d44-8d4f-213a33da296a","system_id":"levelo_inurba_marseille","lat":43.29571,"lon":5.3997,"is_reserved":false,"is_disabled":true,"rental_uris":{"android":"levelo://app?vid=af9b6b8a-f06b-4d44-8d4f-213a33da296a","ios":"levelo://app?vid=af9b6b8a-f06b-4d44-8d4f-213a33da296a"},"vehicle_type_id":"4","last_reported":1733137710,"current_range_meters":33200,"station_id":"ce4bh312rcd13ifvqdj0","pricing_plan_id":"cebpf4jnsgd1na2vs0mg"},{"bike_id":"576c45ad-a52b-4e51-9df1-98c809c7705f","system_id":"levelo_inurba_marseille","lat":43.29274,"lon":5.40141,"is_reserved":false,"is_disabled":true,"rental_uris":{"android":"levelo://app?vid=576c45ad-a52b-4e51-9df1-98c809c7705f","ios":"levelo://app?vid=576c45ad-a52b-4e51-9df1-98c809c7705f"},"vehicle_type_id":"4","last_reported":1733137710,"current_range_meters":38400,"station_id":"ce4bh312rcd13ifvqdk0","pricing_plan_id":"cebpf4jnsgd1na2vs0mg"},{"bike_id":"5c1862d6-3b86-4de8-afe1-b06c7f37480d","system_id":"levelo_inurba_marseille","lat":43.28418,"lon":5.34985,"is_reserved":false,"is_disabled":false,"rental_uris":{"android":"levelo://app?vid=5c1862d6-3b86-4de8-afe1-b06c7f37480d","ios":"levelo://app?vid=5c1862d6-3b86-4de8-afe1-b06c7f37480d"},"vehicle_type_id":"4","last_reported":1733137710,"current_range_meters":28400,"station_id":"ce4bhbh2rcd13ifvqepg","pricing_plan_id":"cebpf4jnsgd1na2vs0mg"},{"bike_id":"f9a63393-5401-4f98-ae5a-dfbb8291ab6d","system_id":"levelo_inurba_marseille","lat":43.3004,"lon":5.37551,"is_reserved":false,"is_disabled":true,"rental_uris":{"android":"levelo://app?vid=f9a63393-5401-4f98-ae5a-dfbb8291ab6d","ios":"levelo://app?vid=f9a63393-5401-4f98-ae5a-dfbb8291ab6d"},"vehicle_type_id":"4","last_reported":1733137710,"current_range_meters":0,"station_id":"","pricing_plan_id":"cebpf4jnsgd1na2vs0mg"},{"bike_id":"fd1b4578-3001-4303-ac74-c407ef94a212","system_id":"levelo_inurba_marseille","lat":43.25937,"lon":5.40904,"is_reserved":false,"is_disabled":false,"rental_uris":{"android":"levelo://app?vid=fd1b4578-3001-4303-ac74-c407ef94a212","ios":"levelo://app?vid=fd1b4578-3001-4303-ac74-c407ef94a212"},"vehicle_type_id":"4","last_reported":1733137710,"current_range_meters":28800,"station_id":"ce4bhm92rcd13ifvqglg","pricing_plan_id":"cebpf4jnsgd1na2vs0mg"},{"bike_id":"916c5b5b-883e-47c1-900a-74ee012eedb7","system_id":"levelo_inurba_marseille","lat":43.30328,"lon":5.40433,"is_reserved":false,"is_disabled":false,"rental_uris":{"android":"levelo://app?vid=916c5b5b-883e-47c1-900a-74ee012eedb7","ios":"levelo://app?vid=916c5b5b-883e-47c1-900a-74ee012eedb7"},"vehicle_type_id":"4","last_reported":1733137710,"current_range_meters":38000,"station_id":"ce4bh012rcd13ifvqd10","pricing_plan_id":"cebpf4jnsgd1na2vs0mg"},{"bike_id":"68db1c35-200d-4c95-ade8-7ad610965ea4","system_id":"levelo_inurba_marseille","lat":43.30503,"lon":5.36679,"is_reserved":false,"is_disabled":false,"rental_uris":{"android":"levelo://app?vid=68db1c35-200d-4c95-ade8-7ad610965ea4","ios":"levelo://app?vid=68db1c35-200d-4c95-ade8-7ad610965ea4"},"vehicle_type_id":"4","last_reported":1733137710,"current_range_meters":38800,"station_id":"","pricing_plan_id":"cebpf4jnsgd1na2vs0mg"},{"bike_id":"c5762501-05c7-4925-be09-7db178fed8e8","system_id":"levelo_inurba_marseille","lat":43.2407,"lon":5.37735,"is_reserved":false,"is_disabled":false,"rental_uris":{"android":"levelo://app?vid=c5762501-05c7-4925-be09-7db178fed8e8","ios":"levelo://app?vid=c5762501-05c7-4925-be09-7db178fed8e8"},"vehicle_type_id":"4","last_reported":1733137710,"current_range_meters":38800,"station_id":"ce4bhnp2rcd13ifvqgvg","pricing_plan_id":"cebpf4jnsgd1na2vs0mg"},{"bike_id":"f02350a2-929a-4729-ae88-383d8a49769f","system_id":"levelo_inurba_marseille","lat":43.33604,"lon":5.41024,"is_reserved":false,"is_disabled":false,"rental_uris":{"android":"levelo://app?vid=f02350a2-929a-4729-ae88-383d8a49769f","ios":"levelo://app?vid=f02350a2-929a-4729-ae88-383d8a49769f"},"vehicle_type_id":"4","last_reported":1733137710,"current_range_meters":21600,"station_id":"ce4bhqh2rcd13ifvqhmg","pricing_plan_id":"cebpf4jnsgd1na2vs0mg"},{"bike_id":"fc894edf-273c-490f-85ae-098ced5c7411","system_id":"levelo_inurba_marseille","lat":43.33599,"lon":5.41034,"is_reserved":false,"is_disabled":false,"rental_uris":{"android":"levelo://app?vid=fc894edf-273c-490f-85ae-098ced5c7411","ios":"levelo://app?vid=fc894edf-273c-490f-85ae-098ced5c7411"},"vehicle_type_id":"4","last_reported":1733137710,"current_range_meters":19200,"station_id":"ce4bhqh2rcd13ifvqhmg","pricing_plan_id":"cebpf4jnsgd1na2vs0mg"},{"bike_id":"b9a531c4-12f8-49a8-a18b-699852bd9528","system_id":"levelo_inurba_marseille","lat":43.25497,"lon":5.37651,"is_reserved":false,"is_disabled":false,"rental_uris":{"android":"levelo://app?vid=b9a531c4-12f8-49a8-a18b-699852bd9528","ios":"levelo://app?vid=b9a531c4-12f8-49a8-a18b-699852bd9528"},"vehicle_type_id":"4","last_reported":1733137710,"current_range_meters":38400,"station_id":"ce4bhh12rcd13ifvqff0","pricing_plan_id":"cebpf4jnsgd1na2vs0mg"},{"bike_id":"8cc48acd-63fd-490d-babb-54a09804e6c5","system_id":"levelo_inurba_marseille","lat":43.29524,"lon":5.37505,"is_reserved":false,"is_disabled":false,"rental_uris":{"android":"levelo://app?vid=8cc48acd-63fd-490d-babb-54a09804e6c5","ios":"levelo://app?vid=8cc48acd-63fd-490d-babb-54a09804e6c5"},"vehicle_type_id":"4","last_reported":1733137710,"current_range_meters":34000,"station_id":"ce4bgkp2rcd13ifvqbmg","pricing_plan_id":"cebpf4jnsgd1na2vs0mg"},{"bike_id":"b0bda3a0-8d9d-4bd3-a5b8-75ccdf39fdf3","system_id":"levelo_inurba_marseille","lat":43.29444,"lon":5.39754,"is_reserved":false,"is_disabled":true,"rental_uris":{"android":"levelo://app?vid=b0bda3a0-8d9d-4bd3-a5b8-75ccdf39fdf3","ios":"levelo://app?vid=b0bda3a0-8d9d-4bd3-a5b8-75ccdf39fdf3"},"vehicle_type_id":"4","last_reported":1733137710,"current_range_meters":20800,"station_id":"ce4bh3h2rcd13ifvqdo0","pricing_plan_id":"cebpf4jnsgd1na2vs0mg"},{"bike_id":"0dfd20f8-7009-498d-b92b-5b72b396946a","system_id":"levelo_inurba_marseille","lat":43.27941,"lon":5.41041,"is_reserved":false,"is_disabled":true,"rental_uris":{"android":"levelo://app?vid=0dfd20f8-7009-498d-b92b-5b72b396946a","ios":"levelo://app?vid=0dfd20f8-7009-498d-b92b-5b72b396946a"},"vehicle_type_id":"4","last_reported":1733137710,"current_range_meters":0,"station_id":"ce4bhnp2rcd13ifvqh0g","pricing_plan_id":"cebpf4jnsgd1na2vs0mg"},{"bike_id":"1816255d-3929-400a-969e-a4db804dcb5f","system_id":"levelo_inurba_marseille","lat":43.25104,"lon":5.40321,"is_reserved":false,"is_disabled":false,"rental_uris":{"android":"levelo://app?vid=1816255d-3929-400a-969e-a4db804dcb5f","ios":"levelo://app?vid=1816255d-3929-400a-969e-a4db804dcb5f"},"vehicle_type_id":"4","last_reported":1733137710,"current_range_meters":38400,"station_id":"ce4bhlh2rcd13ifvqgig","pricing_plan_id":"cebpf4jnsgd1na2vs0mg"},{"bike_id":"7d7cede7-2633-409b-b661-c0617848067b","system_id":"levelo_inurba_marseille","lat":43.3019,"lon":5.36589,"is_reserved":false,"is_disabled":false,"rental_uris":{"android":"levelo://app?vid=7d7cede7-2633-409b-b661-c0617848067b","ios":"levelo://app?vid=7d7cede7-2633-409b-b661-c0617848067b"},"vehicle_type_id":"4","last_reported":1733137710,"current_range_meters":29600,"station_id":"ce4bgrh2rcd13ifvqc8g","pricing_plan_id":"cebpf4jnsgd1na2vs0mg"},{"bike_id":"81b6eaa8-c97a-4ed2-85c7-0f7597804c28","system_id":"levelo_inurba_marseille","lat":43.27171,"lon":5.40993,"is_reserved":false,"is_disabled":false,"rental_uris":{"android":"levelo://app?vid=81b6eaa8-c97a-4ed2-85c7-0f7597804c28","ios":"levelo://app?vid=81b6eaa8-c97a-4ed2-85c7-0f7597804c28"},"vehicle_type_id":"4","last_reported":1733137710,"current_range_meters":30000,"station_id":"ce4bhl12rcd13ifvqgf0","pricing_plan_id":"cebpf4jnsgd1na2vs0mg"},