{"last_updated":1713978515,"ttl":30,"version":"2.2","data":{"bikes":[{"bike_id":"46a89ef4-2acc-4d04-b0c2-606b0bfd29d0","system_id":"levelo_inurba_marseille","lat":43.312239,"lon":5.368562,"is_reserved":false,"is_disabled":false,"rental_uris":{"android":"levelo://app?vid=46a89ef4-2acc-4d04-b0c2-606b0bfd29d0","ios":"levelo://app?vid=46a89ef4-2acc-4d04-b0c2-606b0bfd29d0"},"vehicle_type_id":"4","last_reported":1713978515,"current_range_meters":12800,"station_id":"ce4bgl92rcd13ifvqbq0","pricing_plan_id":"cebpf4jnsgd1na2vs0mg"},{"bike_id":"6200e974-8c11-4ee4-977a-427485f461ce","system_id":"levelo_inurba_marseille","lat":43.309094,"lon":5.368558,"is_reserved":false,"is_disabled":false,"rental_uris":{"android":"levelo://app?vid=6200e974-8c11-4ee4-977a-427485f461ce","ios":"levelo://app?vid=6200e974-8c11-4ee4-977a-427485f461ce"},"vehicle_type_id":"4","last_reported":1713978515,"current_range_meters":23600,"station_id":"ce4bgn92rcd13ifvqbvg","pricing_plan_id":"cebpf4jnsgd1na2vs0mg"},{"bike_id":"4dc49086-b11c-4ec6-b6ad-15f4d9e320c6","system_id":"levelo_inurba_marseille","lat":43.314811,"lon":5.373103,"is_reserved":false,"is_disabled":false,"rental_uris":{"android":"levelo://app?vid=4dc49086-b11c-4ec6-b6ad-15f4d9e320c6","ios":"levelo://app?vid=4dc49086-b11c-4ec6-b6ad-15f4d9e320c6"},"vehicle_type_id":"4","last_reported":1713978515,"current_range_meters":24000,"station_id":"ce4bgt12rcd13ifvqcd0","pricing_plan_id":"cebpf4jnsgd1na2vs0mg"},{"bike_id":"b9b337f6-be67-4a5a-a12c-d0ab17adb992","system_id":"levelo_inurba_marseille","lat":43.314811,"lon":5.373103,"is_reserved":false,"is_disabled":false,"rental_uris":{"android":"levelo://app?vid=b9b337f6-be67-4a5a-a12c-d0ab17adb992","ios":"levelo://app?vid=b9b337f6-be67-4a5a-a12c-d0ab17adb992"},"vehicle_type_id":"4","last_reported":1713978515,"current_range_meters":2800,"station_id":"ce4bgt12rcd13ifvqcd0","pricing_plan_id":"cebpf4jnsgd1na2vs0mg"},{"bike_id":"aa2879a2-1874-4feb-a376-91de2da5e811","system_id":"levelo_inurba_marseille","lat":43.30888,"lon":5.37187,"is_reserved":false,"is_disabled":false,"rental_uris":{"android":"levelo://app?vid=aa2879a2-1874-4feb-a376-91de2da5e811","ios":"levelo://app?vid=aa2879a2-1874-4feb-a376-91de2da5e811"},"vehicle_type_id":"4","last_reported":1713978515,"current_range_meters":0,"station_id":"ce4bguh2rcd13ifvqckg","pricing_plan_id":"cebpf4jnsgd1na2vs0mg"},{"bike_id":"3584366e-8821-458b-a76b-ca944995674c","system_id":"levelo_inurba_marseille","lat":43.307945,"lon":5.376487,"is_reserved":false,"is_disabled":false,"rental_uris":{"android":"levelo://app?vid=3584366e-8821-458b-a76b-ca944995674c","ios":"levelo://app?vid=3584366e-8821-458b-a76b-ca944995674c"},"vehicle_type_id":"4","last_reported":1713978515,"current_range_meters":28000,"station_id":"ce4bgv92rcd13ifvqcq0","pricing_plan_id":"cebpf4jnsgd1na2vs0mg"},{"bike_id":"d8397a68-a8fe-410d-b95a-2294f68a715d","system_id":"levelo_inurba_marseille","lat":43.307945,"lon":5.376487,"is_reserved":false,"is_disabled":false,"rental_uris":{"android":"levelo://app?vid=d8397a68-a8fe-410d-b95a-2294f68a715d","ios":"levelo://app?vid=d8397a68-a8fe-410d-b95a-2294f68a715d"},"vehicle_type_id":"4","last_reported":1713978515,"current_range_meters":19200,"station_id":"ce4bgv92rcd13ifvqcq0","pricing_plan_id":"cebpf4jnsgd1na2vs0mg"},{"bike_id":"9bb5a9dd-7b3f-4796-a59b-8b99eba5f26f","system_id":"levelo_inurba_marseille","lat":43.307945,"lon":5.376487,"is_reserved":false,"is_disabled":false,"rental_uris":{"android":"levelo://app?vid=9bb5a9dd-7b3f-4796-a59b-8b99eba5f26f","ios":"levelo://app?vid=9bb5a9dd-7b3f-4796-a59b-8b99eba5f26f"},"vehicle_type_id":"4","last_reported":1713978515,"current_range_meters":31200,"station_id":"ce4bgv92rcd13ifvqcq0","pricing_plan_id":"cebpf4jnsgd1na2vs0mg"},{"bike_id":"3346d7f7-fabe-41e2-9baa-829db4e6aec4","system_id":"levelo_inurba_marseille","lat":43.307945,"lon":5.376487,"is_reserved":false,"is_disabled":false,"rental_uris":{"android":"levelo://app?vid=3346d7f7-fabe-41e2-9baa-829db4e6aec4","ios":"levelo://app?vid=3346d7f7-fabe-41e2-9baa-829db4e6aec4"},"vehicle_type_id":"4","last_reported":1713978515,"current_range_meters":28800,"station_id":"ce4bgv92rcd13ifvqcq0","pricing_plan_id":"cebpf4jnsgd1na2vs0mg"},{"bike_id":"c0f6efc7-9010-4fc7-b148-2fbe5ea2ec1f","system_id":"levelo_inurba_marseille","lat":43.317075,"lon":5.377367,"is_reserved":false,"is_disabled":false,"rental_uris":{"android":"levelo://app?vid=c0f6efc7-9010-4fc7-b148-2fbe5ea2ec1f","ios":"levelo://app?vid=c0f6efc7-9010-4fc7-b148-2fbe5ea2ec1f"},"vehicle_type_id":"4","last_reported":1713978515,"current_range_meters":25600,"station_id":"ce4bgth2rcd13ifvqch0","pricing_plan_id":"cebpf4jnsgd1na2vs0mg"},{"bike_id":"fd4340d1-484c-46ba-9282-ae50fd3ef3ce","system_id":"levelo_inurba_marseille","lat":43.317075,"lon":5.377367,"is_reserved":false,"is_disabled":false,"rental_uris":{"android":"levelo://app?vid=fd4340d1-484c-46ba-9282-ae50fd3ef3ce","ios":"levelo://app?vid=fd4340d1-484c-46ba-9282-ae50fd3ef3ce"},"vehicle_type_id":"4","last_reported":1713978515,"current_range_meters":13200,"station_id":"ce4bgth2rcd13ifvqch0","pricing_plan_id":"cebpf4jnsgd1na2vs0mg"},{"bike_id":"429fca6f-8ab1-47d3-8299-01861bd1cc6a","system_id":"levelo_inurba_marseille","lat":43.317075,"lon":5.377367,"is_reserved":false,"is_disabled":false,"rental_uris":{"android":"levelo://app?vid=429fca6f-8ab1-47d3-8299-01861bd1cc6a","ios":"levelo://app?vid=429fca6f-8ab1-47d3-8299-01861bd1cc6a"},"vehicle_type_id":"4","last_reported":1713978515,"current_range_meters":18800,"station_id":"ce4bgth2rcd13ifvqch0","pricing_plan_id":"cebpf4jnsgd1na2vs0mg"},{"bike_id":"98bf3e86-aa0a-447a-91be-940394f7a5fe","system_id":"levelo_inurba_marseille","lat":43.315293,"lon":5.380349,"is_reserved":false,"is_disabled":false,"rental_uris":{"android":"levelo://app?vid=98bf3e86-aa0a-447a-91be-940394f7a5fe","ios":"levelo://app?vid=98bf3e86-aa0a-447a-91be-940394f7a5fe"},"vehicle_type_id":"4","last_reported":1713978515,"current_range_meters":8400,"station_id":"ce4bhsp2rcd13ifvqi50","pricing_plan_id":"cebpf4jnsgd1na2vs0mg"},{"bike_id":"746dd2cd-e5f6-43be-ae9f-5f4091a8bc0d","system_id":"levelo_inurba_marseille","lat":43.30304,"lon":5.368987,"is_reserved":false,"is_disabled":false,"rental_uris":{"android":"levelo://app?vid=746dd2cd-e5f6-43be-ae9f-5f4091a8bc0d","ios":"levelo://app?vid=746dd2cd-e5f6-43be-ae9f-5f4091a8bc0d"},"vehicle_type_id":"4","last_reported":1713978515,"current_range_meters":6800,"station_id":"ce4bgqh2rcd13ifvqc5g","pricing_plan_id":"cebpf4jnsgd1na2vs0mg"},{"bike_id":"8fdb7d66-7ac7-4cea-9740-e58bb75ee80f","system_id":"levelo_inurba_marseille","lat":43.303046,"lon":5.368981,"is_reserved":false,"is_disabled":false,"rental_uris":{"android":"levelo://app?vid=8fdb7d66-7ac7-4cea-9740-e58bb75ee80f","ios":"levelo://app?vid=8fdb7d66-7ac7-4cea-9740-e58bb75ee80f"},"vehicle_type_id":"4","last_reported":1713978515,"current_range_meters":10400,"station_id":"ce4bgqh2rcd13ifvqc5g","pricing_plan_id":"cebpf4jnsgd1na2vs0mg"},{"bike_id":"36546b37-7cd1-4aaf-b477-e314d13f016a","system_id":"levelo_inurba_marseille","lat":43.303046,"lon":5.368981,"is_reserved":false,"is_disabled":false,"rental_uris":{"android":"levelo://app?vid=36546b37-7cd1-4aaf-b477-e314d13f016a","ios":"levelo://app?vid=36546b37-7cd1-4aaf-b477-e314d13f016a"},"vehicle_type_id":"4","last_reported":1713978515,"current_range_meters":1200,"station_id":"ce4bgqh2rcd13ifvqc5g","pricing_plan_id":"cebpf4jnsgd1na2vs0mg"},{"bike_id":"6db5a915-c3d3-4397-85f0-96cee4df0f2d","system_id":"levelo_inurba_marseille","lat":43.30304,"lon":5.368987,"is_reserved":false,"is_disabled":false,"rental_uris":{"android":"levelo://app?vid=6db5a915-c3d3-4397-85f0-96cee4df0f2d","ios":"levelo://app?vid=6db5a915-c3d3-4397-85f0-96cee4df0f2d"},"vehicle_type_id":"4","last_reported":1713978515,"current_range_meters":0,"station_id":"ce4bgqh2rcd13ifvqc5g","pricing_plan_id":"cebpf4jnsgd1na2vs0mg"},{"bike_id":"f82abc93-8401-4d4c-b760-b35ce10d19a1","system_id":"levelo_inurba_marseille","lat":43.315293,"lon":5.380349,"is_reserved":false,"is_disabled":false,"rental_uris":{"android":"levelo://app?vid=f82abc93-8401-4d4c-b760-b35ce10d19a1","ios":"levelo://app?vid=f82abc93-8401-4d4c-b760-b35ce10d19a1"},"vehicle_type_id":"4","last_reported":1713978515,"current_range_meters":27200,"station_id":"ce4bhsp2rcd13ifvqi50","pricing_plan_id":"cebpf4jnsgd1na2vs0mg"},{"bike_id":"a7a40563-5c97-44f6-8629-fc885b291eaa","system_id":"levelo_inurba_marseille","lat":43.315289,"lon":5.380349,"is_reserved":false,"is_disabled":false,"rental_uris":{"android":"levelo://app?vid=a7a40563-5c97-44f6-8629-fc885b291eaa","ios":"levelo://app?vid=a7a40563-5c97-44f6-8629-fc885b291eaa"},"vehicle_type_id":"4","last_reported":1713978515,"current_range_meters":26400,"station_id":"ce4bhsp2rcd13ifvqi50","pricing_plan_id":"cebpf4jnsgd1na2vs0mg"},{"bike_id":"b62b6be3-797e-4066-8f02-226444ff6183","system_id":"levelo_inurba_marseille","lat":43.311125,"lon":5.377624,"is_reserved":false,"is_disabled":false,"rental_uris":{"android":"levelo://app?vid=b62b6be3-797e-4066-8f02-226444ff6183","ios":"levelo://app?vid=b62b6be3-797e-4066-8f02-226444ff6183"},"vehicle_type_id":"4","last_reported":1713978515,"current_range_meters":25200,"station_id":"ce4bgt92rcd13ifvqcg0","pricing_plan_id":"cebpf4jnsgd1na2vs0mg"},{"bike_id":"150feaf5-0d75-4858-80e4-8af240ff8b4a","system_id":"levelo_inurba_marseille","lat":43.315289,"lon":5.380349,"is_reserved":false,"is_disabled":false,"rental_uris":{"android":"levelo://app?vid=150feaf5-0d75-4858-80e4-8af240ff8b4a","ios":"levelo://app?vid=150feaf5-0d75-4858-80e4-8af240ff8b4a"},"vehicle_type_id":"4","last_reported":1713978515,"current_range_meters":22000,"station_id":"ce4bhsp2rcd13ifvqi50","pricing_plan_id":"cebpf4jnsgd1na2vs0mg"},{"bike_id":"d116c958-58d5-467f-a841-eccaa5e00816","system_id":"levelo_inurba_marseille","lat":43.299222,"lon":5.365554,"is_reserved":false,"is_disabled":false,"rental_uris":{"android":"levelo://app?vid=d116c958-58d5-467f-a841-eccaa5e00816","ios":"levelo://app?vid=d116c958-58d5-467f-a841-eccaa5e00816"},"vehicle_type_id":"4","last_reported":1713978515,"current_range_meters":18000,"station_id":"ce4bgm92rcd13ifvqbr0","pricing_plan_id":"cebpf4jnsgd1na2vs0mg"},{"bike_id":"13746614-3a3a-4313-bb9c-1bc0219f6209","system_id":"levelo_inurba_marseille","lat":43.308012,"lon":5.381511,"is_reserved":false,"is_disabled":false,"rental_uris":{"android":"levelo://app?vid=13746614-3a3a-4313-bb9c-1bc0219f6209","ios":"levelo://app?vid=13746614-3a3a-4313-bb9c-1bc0219f6209"},"vehicle_type_id":"4","last_reported":1713978515,"current_range_meters":6000,"station_id":"ce4bgt12rcd13ifvqce0","pricing_plan_id":"cebpf4jnsgd1na2vs0mg"},{"bike_id":"6a1bfead-44b5-4786-8ebf-c2948e637983","system_id":"levelo_inurba_marseille","lat":43.307945,"lon":5.376487,"is_reserved":false,"is_disabled":false,"rental_uris":{"android":"levelo://app?vid=6a1bfead-44b5-4786-8ebf-c2948e637983","ios":"levelo://app?vid=6a1bfead-44b5-4786-8ebf-c2948e637983"},"vehicle_type_id":"4","last_reported":1713978515,"current_range_meters":3600,"station_id":"ce4bgv92rcd13ifvqcq0","pricing_plan_id":"cebpf4jnsgd1na2vs0mg"},{"bike_id":"4e361820-13f4-49d6-b8ed-2e2c4b4e5acc","system_id":"levelo_inurba_marseille","lat":43.304606,"lon":5.379026,"is_reserved":false,"is_disabled":false,"rental_uris":{"android":"levelo://app?vid=4e361820-13f4-49d6-b8ed-2e2c4b4e5acc","ios":"levelo://app?vid=4e361820-13f4-49d6-b8ed-2e2c4b4e5acc"},"vehicle_type_id":"4","last_reported":1713978515,"current_range_meters":0,"station_id":"ce4bgup2rcd13ifvqcn0","pricing_plan_id":"cebpf4jnsgd1na2vs0mg"},{"bike_id":"5019467a-44df-4ec4-8e67-d31b973d1ac4","system_id":"levelo_inurba_marseille","lat":43.292311,"lon":5.360731,"is_reserved":false,"is_disabled":false,"rental_uris":{"android":"levelo://app?vid=5019467a-44df-4ec4-8e67-d31b973d1ac4","ios":"levelo://app?vid=5019467a-44df-4ec4-8e67-d31b973d1ac4"},"vehicle_type_id":"4","last_reported":1713978515,"current_range_meters":0,"station_id":"ce4bhbh2rcd13ifvqeqg","pricing_plan_id":"cebpf4jnsgd1na2vs0mg"},{"bike_id":"7957fba5-5179-45bb-a281-f364eaef2eb5","system_id":"levelo_inurba_marseille","lat":43.31065,"lon":5.38347,"is_reserved":false,"is_disabled":false,"rental_uris":{"android":"levelo://app?vid=7957fba5-5179-45bb-a281-f364eaef2eb5","ios":"levelo://app?vid=7957fba5-5179-45bb-a281-f364eaef2eb5"},"vehicle_type_id":"4","last_reported":1713978515,"current_range_meters":400,"station_id":"ce4bgv92rcd13ifvqcr0","pricing_plan_id":"cebpf4jnsgd1na2vs0mg"},{"bike_id":"603a40bd-6ce4-46be-8c2f-97b3034e541a","system_id":"levelo_inurba_marseille","lat":43.31068,"lon":5.3835,"is_reserved":false,"is_disabled":false,"rental_uris":{"android":"levelo://app?vid=603a40bd-6ce4-46be-8c2f-97b3034e541a","ios":"levelo://app?vid=603a40bd-6ce4-46be-8c2f-97b3034e541a"},"vehicle_type_id":"4","last_reported":1713978515,"current_range_meters":2800,"station_id":"ce4bgv92rcd13ifvqcr0","pricing_plan_id":"cebpf4jnsgd1na2vs0mg"},{"bike_id":"dea28083-d92d-4f3b-9f85-66961a9dcc09","system_id":"levelo_inurba_marseille","lat":43.3107,"lon":5.38356,"is_reserved":false,"is_disabled":false,"rental_uris":{"android":"levelo://app?vid=dea28083-d92d-4f3b-9f85-66961a9dcc09","ios":"levelo://app?vid=dea28083-d92d-4f3b-9f85-66961a9dcc09"},"vehicle_type_id":"4","last_reported":1713978515,"current_range_meters":0,"station_id":"ce4bgv92rcd13ifvqcr0","pricing_plan_id":"cebpf4jnsgd1na2vs0mg"},{"bike_id":"da38b3fe-7d0a-4add-ad95-8723215f86ff","system_id":"levelo_inurba_marseille","lat":43.30284,"lon":5.377073,"is_reserved":false,"is_disabled":false,"rental_uris":{"android":"levelo://app?vid=da38b3fe-7d0a-4add-ad95-8723215f86ff","ios":"levelo://app?vid=da38b3fe-7d0a-4add-ad95-8723215f86ff"},"vehicle_type_id":"4","last_reported":1713978515,"current_range_meters":0,"station_id":"ce4bguh2rcd13ifvqcj0","pricing_plan_id":"cebpf4jnsgd1na2vs0mg"},{"bike_id":"85882642-9341-427e-a829-5e4127e20c64","system_id":"levelo_inurba_marseille","lat":43.31082,"lon":5.38371,"is_reserved":false,"is_disabled":false,"rental_uris":{"android":"levelo://app?vid=85882642-9341-427e-a829-5e4127e20c64","ios":"levelo://app?vid=85882642-9341-427e-a829-5e4127e20c64"},"vehicle_type_id":"4","last_reported":1713978515,"current_range_meters":11600,"station_id":"ce4bgv92rcd13ifvqcr0","pricing_plan_id":"cebpf4jnsgd1na2vs0mg"},{"bike_id":"71bb08fc-5619-4a80-8dde-920e6d69cfbe","system_id":"levelo_inurba_marseille","lat":43.311015,"lon":5.38382,"is_reserved":false,"is_disabled":false,"rental_uris":{"android":"levelo://app?vid=71bb08fc-5619-4a80-8dde-920e6d69cfbe","ios":"levelo://app?vid=71bb08fc-5619-4a80-8dde-920e6d69cfbe"},"vehicle_type_id":"4","last_reported":1713978515,"current_range_meters":14400,"station_id":"ce4bgv92rcd13ifvqcr0","pricing_plan_id":"cebpf4jnsgd1na2vs0mg"},{"bike_id":"b23a50f9-aff3-4f08-bb97-44e429ff297f","system_id":"levelo_inurba_marseille","lat":43.30143,"lon":5.37413,"is_reserved":false,"is_disabled":false,"rental_uris":{"android":"levelo://app?vid=b23a50f9-aff3-4f08-bb97-44e429ff297f","ios":"levelo://app?vid=b23a50f9-aff3-4f08-bb97-44e429ff297f"},"vehicle_type_id":"4","last_reported":1713978515,"current_range_meters":22000,"station_id":"ce4bgs92rcd13ifvqcc0","pricing_plan_id":"cebpf4jnsgd1na2vs0mg"},{"bike_id":"199c3715-d5a4-4f84-b56f-772be581a284","system_id":"levelo_inurba_marseille","lat":43.313291,"lon":5.396838,"is_reserved":false,"is_disabled":false,"rental_uris":{"android":"levelo://app?vid=199c3715-d5a4-4f84-b56f-772be581a284","ios":"levelo://app?vid=199c3715-d5a4-4f84-b56f-772be581a284"},"vehicle_type_id":"4","last_reported":1713978515,"current_range_meters":30000,"station_id":"ce4bgvp2rcd13ifvqcu0","pricing_plan_id":"cebpf4jnsgd1na2vs0mg"},{"bike_id":"b03e41ff-f7f0-4032-9a46-a2e78f53cd88","system_id":"levelo_inurba_marseille","lat":43.302784,"lon":5.377158,"is_reserved":false,"is_disabled":false,"rental_uris":{"android":"levelo://app?vid=b03e41ff-f7f0-4032-9a46-a2e78f53cd88","ios":"levelo://app?vid=b03e41ff-f7f0-4032-9a46-a2e78f53cd88"},"vehicle_type_id":"4","last_reported":1713978515,"current_range_meters":19600,"station_id":"ce4bguh2rcd13ifvqcj0","pricing_plan_id":"cebpf4jnsgd1na2vs0mg"},{"bike_id":"12cf1fda-5190-40c5-b284-97f064be11c3","system_id":"levelo_inurba_marseille","lat":43.31999,"lon":5.38161,"is_reserved":false,"is_disabled":false,"rental_uris":{"android":"levelo://app?vid=12cf1fda-5190-40c5-b284-97f064be11c3","ios":"levelo://app?vid=12cf1fda-5190-40c5-b284-97f064be11c3"},"vehicle_type_id":"4","last_reported":1713978515,"current_range_meters":7200,"station_id":"ce4bhr12rcd13ifvqhpg","pricing_plan_id":"cebpf4jnsgd1na2vs0mg"},{"bike_id":"22378714-76c2-46f0-9619-bdbeae4cd8df","system_id":"levelo_inurba_marseille","lat":43.319935,"lon":5.381699,"is_reserved":false,"is_disabled":false,"rental_uris":{"android":"levelo://app?vid=22378714-76c2-46f0-9619-bdbeae4cd8df","ios":"levelo://app?vid=22378714-76c2-46f0-9619-bdbeae4cd8df"},"vehicle_type_id":"4","last_reported":1713978515,"current_range_meters":24400,"station_id":"ce4bhr12rcd13ifvqhpg","pricing_plan_id":"cebpf4jnsgd1na2vs0mg"},{"bike_id":"0d298d88-138b-469f-b4e2-ca91f165c25e","system_id":"levelo_inurba_marseille","lat":43.313571,"lon":5.384829,"is_reserved":false,"is_disabled":false,"rental_uris":{"android":"levelo://app?vid=0d298d88-138b-469f-b4e2-ca91f165c25e","ios":"levelo://app?vid=0d298d88-138b-469f-b4e2-ca91f165c25e"},"vehicle_type_id":"4","last_reported":1713978515,"current_range_meters":8800,"station_id":"ce4bgt92rcd13ifvqcf0","pricing_plan_id":"cebpf4jnsgd1na2vs0mg"},{"bike_id":"f01e9e51-0f35-41f9-b003-25419c5df645","system_id":"levelo_inurba_marseille","lat":43.313571,"lon":5.384829,"is_reserved":false,"is_disabled":false,"rental_uris":{"android":"levelo://app?vid=f01e9e51-0f35-41f9-b003-25419c5df645","ios":"levelo://app?vid=f01e9e51-0f35-41f9-b003-25419c5df645"},"vehicle_type_id":"4","last_reported":1713978515,"current_range_meters":16000,"station_id":"ce4bgt92rcd13ifvqcf0","pricing_plan_id":"cebpf4jnsgd1na2vs0mg"},{"bike_id":"f5364423-52f0-47a2-85f3-f869ed8b50ea","system_id":"levelo_inurba_marseille","lat":43.313571,"lon":5.384829,"is_reserved":false,"is_disabled":false,"rental_uris":{"android":"levelo://app?vid=f5364423-52f0-47a2-85f3-f869ed8b50ea","ios":"levelo://app?vid=f5364423-52f0-47a2-85f3-f869ed8b50ea"},"vehicle_type_id":"4","last_reported":1713978515,"current_range_meters":24800,"station_id":"ce4bgt92rcd13ifvqcf0","pricing_plan_id":"cebpf4jnsgd1na2vs0mg"},{"bike_id":"043ea850-f434-401d-a483-4353cf676528","system_id":"levelo_inurba_marseille","lat":43.299222,"lon":5.365554,"is_reserved":false,"is_disabled":false,"rental_uris":{"android":"levelo://app?vid=043ea850-f434-401d-a483-4353cf676528","ios":"levelo://app?vid=043ea850-f434-401d-a483-4353cf676528"},"vehicle_type_id":"4","last_reported":1713978515,"current_range_meters":13200,"station_id":"ce4bgm92rcd13ifvqbr0","pricing_plan_id":"cebpf4jnsgd1na2vs0mg"},{"bike_id":"d89845bc-ed50-4e49-9c05-161a71078821","system_id":"levelo_inurba_marseille","lat":43.299222,"lon":5.365554,"is_reserved":false,"is_disabled":false,"rental_uris":{"android":"levelo://app?vid=d89845bc-ed50-4e49-9c05-161a71078821","ios":"levelo://app?vid=d89845bc-ed50-4e49-9c05-161a71078821"},"vehicle_type_id":"4","last_reported":1713978515,"current_range_meters":15600,"station_id":"ce4bgm92rcd13ifvqbr0","pricing_plan_id":"cebpf4jnsgd1na2vs0mg"},{"bike_id":"eedd7ee4-4e9b-47f9-a451-40b6ec7654de","system_id":"levelo_inurba_marseille","lat":43.299222,"lon":5.365554,"is_reserved":false,"is_disabled":false,"rental_uris":{"android":"levelo://app?vid=eedd7ee4-4e9b-47f9-a451-40b6ec7654de","ios":"levelo://app?vid=eedd7ee4-4e9b-47f9-a451-40b6ec7654de"},"vehicle_type_id":"4","last_reported":1713978515,"current_range_meters":28400,"station_id":"ce4bgm92rcd13ifvqbr0","pricing_plan_id":"cebpf4jnsgd1na2vs0mg"},{"bike_id":"09fe2e67-4f76-4d47-946b-79a21f8a7e7d","system_id":"levelo_inurba_marseille","lat":43.29967,"lon":5.37181,"is_reserved":false,"is_disabled":false,"rental_uris":{"android":"levelo://app?vid=09fe2e67-4f76-4d47-946b-79a21f8a7e7d","ios":"levelo://app?vid=09fe2e67-4f76-4d47-946b-79a21f8a7e7d"},"vehicle_type_id":"4","last_reported":1713978515,"current_range_meters":14400,"station_id":"ce4bgr92rcd13ifvqc7g","pricing_plan_id":"cebpf4jnsgd1na2vs0mg"},{"bike_id":"d5604663-bcaa-49e7-9731-72195026b858","system_id":"levelo_inurba_marseille","lat":43.298433,"lon":5.362774,"is_reserved":false,"is_disabled":false,"rental_uris":{"android":"levelo://app?vid=d5604663-bcaa-49e7-9731-72195026b858","ios":"levelo://app?vid=d5604663-bcaa-49e7-9731-72195026b858"},"vehicle_type_id":"4","last_reported":1713978515,"current_range_meters":26400,"station_id":"ce4bgpp2rcd13ifvqc3g","pricing_plan_id":"cebpf4jnsgd1na2vs0mg"},{"bike_id":"ad0b7891-0970-4ca5-b4b2-808fad6764e5","system_id":"levelo_inurba_marseille","lat":43.298433,"lon":5.362774,"is_reserved":false,"is_disabled":false,"rental_uris":{"android":"levelo://app?vid=ad0b7891-0970-4ca5-b4b2-808fad6764e5","ios":"levelo://app?vid=ad0b7891-0970-4ca5-b4b2-808fad6764e5"},"vehicle_type_id":"4","last_reported":1713978515,"current_range_meters":26400,"station_id":"ce4bgpp2rcd13ifvqc3g","pricing_plan_id":"cebpf4jnsgd1na2vs0mg"},{"bike_id":"57e4318d-3e67-486c-a8fb-219e417975f3","system_id":"levelo_inurba_marseille","lat":43.298433,"lon":5.362774,"is_reserved":false,"is_disabled":false,"rental_uris":{"android":"levelo://app?vid=57e4318d-3e67-486c-a8fb-219e417975f3","ios":"levelo://app?vid=57e4318d-3e67-486c-a8fb-219e417975f3"},"vehicle_type_id":"4","last_reported":1713978515,"current_range_meters":24800,"station_id":"ce4bgpp2rcd13ifvqc3g","pricing_plan_id":"cebpf4jnsgd1na2vs0mg"},{"bike_id":"a79e2c13-5778-45d3-905d-c517f446ceff","system_id":"levelo_inurba_marseille","lat":43.297163,"lon":5.365866,"is_reserved":false,"is_disabled":false,"rental_uris":{"android":"levelo://app?vid=a79e2c13-5778-45d3-905d-c517f446ceff","ios":"levelo://app?vid=a79e2c13-5778-45d3-905d-c517f446ceff"},"vehicle_type_id":"4","last_reported":1713978515,"current_range_meters":24000,"station_id":"ce4bgn12rcd13ifvqbt0","pricing_plan_id":"cebpf4jnsgd1na2vs0mg"},{"bike_id":"6484ac94-752e-49c6-829a-2a1ecb091717","system_id":"levelo_inurba_marseille","lat":43.29916,"lon":5.37407,"is_reserved":false,"is_disabled":false,"rental_uris":{"android":"levelo://app?vid=6484ac94-752e-49c6-829a-2a1ecb091717","ios":"levelo://app?vid=6484ac94-752e-49c6-829a-2a1ecb091717"},"vehicle_type_id":"4","last_reported":1713978515,"current_range_meters":29200,"station_id":"","pricing_plan_id":"cebpf4jnsgd1na2vs0mg"},{"bike_id":"03b03568-abb3-4b35-ab47-afd58bbaf26c","system_id":"levelo_inurba_marseille","lat":43.305364,"lon":5.384119,"is_reserved":false,"is_disabled":false,"rental_uris":{"android":"levelo://app?vid=03b03568-abb3-4b35-ab47-afd58bbaf26c","ios":"levelo://app?vid=03b03568-abb3-4b35-ab47-afd58bbaf26c"},"vehicle_type_id":"4","last_reported":1713978515,"current_range_meters":7200,"station_id":"ce4bgg92rcd13ifvqb30","pricing_plan_id":"cebpf4jnsgd1na2vs0mg"},{"bike_id":"f3bfd73d-dd03-419a-943f-a5743df360b2","system_id":"levelo_inurba_marseille","lat":43.29848,"lon":5.36274,"is_reserved":false,"is_disabled":false,"rental_uris":{"android":"levelo://app?vid=f3bfd73d-dd03-419a-943f-a5743df360b2","ios":"levelo://app?vid=f3bfd73d-dd03-419a-943f-a5743df360b2"},"vehicle_type_id":"4","last_reported":1713978515,"current_range_meters":7200,"station_id":"ce4bgpp2rcd13ifvqc3g","pricing_plan_id":"cebpf4jnsgd1na2vs0mg"},{"bike_id":"248e0f75-4835-4991-a206-f61a25fb8b15","system_id":"levelo_inurba_marseille","lat":43.298433,"lon":5.362774,"is_reserved":false,"is_disabled":false,"rental_uris":{"android":"levelo://app?vid=248e0f75-4835-4991-a206-f61a25fb8b15","ios":"levelo://app?vid=248e0f75-4835-4991-a206-f61a25fb8b15"},"vehicle_type_id":"4","last_reported":1713978515,"current_range_meters":29600,"station_id":"ce4bgpp2rcd13ifvqc3g","pricing_plan_id":"cebpf4jnsgd1na2vs0mg"},{"bike_id":"1154c9ce-9427-4b30-8a01-55a4771e362c","system_id":"levelo_inurba_marseille","lat":43.311578,"lon":5.386983,"is_reserved":false,"is_disabled":false,"rental_uris":{"android":"levelo://app?vid=1154c9ce-9427-4b30-8a01-55a4771e362c","ios":"levelo://app?vid=1154c9ce-9427-4b30-8a01-55a4771e362c"},"vehicle_type_id":"4","last_reported":1713978515,"current_range_meters":5600,"station_id":"ce4bgv12rcd13ifvqcp0","pricing_plan_id":"cebpf4jnsgd1na2vs0mg"},{"bike_id":"7f6f4b81-221b-404f-a1e8-71ed695a4b6f","system_id":"levelo_inurba_marseille","lat":43.305364,"lon":5.384119,"is_reserved":false,"is_disabled":false,"rental_uris":{"android":"levelo://app?vid=7f6f4b81-221b-404f-a1e8-71ed695a4b6f","ios":"levelo://app?vid=7f6f4b81-221b-404f-a1e8-71ed695a4b6f"},"vehicle_type_id":"4","last_reported":1713978515,"current_range_meters":26400,"station_id":"ce4bgg92rcd13ifvqb30","pricing_plan_id":"cebpf4jnsgd1na2vs0mg"},{"bike_id":"810c944a-2faf-4fca-9c2d-60e0de9a8689","system_id":"levelo_inurba_marseille","lat":43.298433,"lon":5.362774,"is_reserved":false,"is_disabled":false,"rental_uris":{"android":"levelo://app?vid=810c944a-2faf-4fca-9c2d-60e0de9a8689","ios":"levelo://app?vid=810c944a-2faf-4fca-9c2d-60e0de9a8689"},"vehicle_type_id":"4","last_reported":1713978515,"current_range_meters":28800,"station_id":"ce4bgpp2rcd13ifvqc3g","pricing_plan_id":"cebpf4jnsgd1na2vs0mg"},{"bike_id":"d531b072-66f0-4e56-bfb2-a3867e4e64f9","system_id":"levelo_inurba_marseille","lat":43.299243,"lon":5.37481,"is_reserved":false,"is_disabled":false,"rental_uris":{"android":"levelo://app?vid=d531b072-66f0-4e56-bfb2-a3867e4e64f9","ios":"levelo://app?vid=d531b072-66f0-4e56-bfb2-a3867e4e64f9"},"vehicle_type_id":"4","last_reported":1713978515,"current_range_meters":7600,"station_id":"ce4bgjh2rcd13ifvqbg0","pricing_plan_id":"cebpf4jnsgd1na2vs0mg"},{"bike_id":"b56b8269-075a-4ae3-99a4-41a6163bea48","system_id":"levelo_inurba_marseille","lat":43.31172,"lon":5.3871,"is_reserved":false,"is_disabled":false,"rental_uris":{"android":"levelo://app?vid=b56b8269-075a-4ae3-99a4-41a6163bea48","ios":"levelo://app?vid=b56b8269-075a-4ae3-99a4-41a6163bea48"},"vehicle_type_id":"4","last_reported":1713978515,"current_range_meters":8000,"station_id":"ce4bgv12rcd13ifvqcp0","pricing_plan_id":"cebpf4jnsgd1na2vs0mg"},{"bike_id":"8f024409-97b5-4b57-a3a1-01ebe7926204","system_id":"levelo_inurba_marseille","lat":43.299243,"lon":5.37481,"is_reserved":false,"is_disabled":false,"rental_uris":{"android":"levelo://app?vid=8f024409-97b5-4b57-a3a1-01ebe7926204","ios":"levelo://app?vid=8f024409-97b5-4b57-a3a1-01ebe7926204"},"vehicle_type_id":"4","last_reported":1713978515,"current_range_meters":24000,"station_id":"ce4bgjh2rcd13ifvqbg0","pricing_plan_id":"cebpf4jnsgd1na2vs0mg"},{"bike_id":"00b3fb5e-e899-45aa-a86b-9c5701a6cb54","system_id":"levelo_inurba_marseille","lat":43.299243,"lon":5.37481,"is_reserved":false,"is_disabled":false,"rental_uris":{"android":"levelo://app?vid=00b3fb5e-e899-45aa-a86b-9c5701a6cb54","ios":"levelo://app?vid=00b3fb5e-e899-45aa-a86b-9c5701a6cb54"},"vehicle_type_id":"4","last_reported":1713978515,"current_range_meters":2800,"station_id":"ce4bgjh2rcd13ifvqbg0","pricing_plan_id":"cebpf4jnsgd1na2vs0mg"},{"bike_id":"46b21693-79b9-4a46-bd70-cfd417b40692","system_id":"levelo_inurba_marseille","lat":43.299243,"lon":5.37481,"is_reserved":false,"is_disabled":false,"rental_uris":{"android":"levelo://app?vid=46b21693-79b9-4a46-bd70-cfd417b40692","ios":"levelo://app?vid=46b21693-79b9-4a46-bd70-cfd417b40692"},"vehicle_type_id":"4","last_reported":1713978515,"current_range_meters":18000,"station_id":"ce4bgjh2rcd13ifvqbg0","pricing_plan_id":"cebpf4jnsgd1na2vs0mg"},{"bike_id":"e16ba0f0-ef9d-4856-b65a-7176c800d5ac","system_id":"levelo_inurba_marseille","lat":43.311272,"lon":5.387123,"is_reserved":false,"is_disabled":false,"rental_uris":{"android":"levelo://app?vid=e16ba0f0-ef9d-4856-b65a-7176c800d5ac","ios":"levelo://app?vid=e16ba0f0-ef9d-4856-b65a-7176c800d5ac"},"vehicle_type_id":"4","last_reported":1713978515,"current_range_meters":800,"station_id":"ce4bgv12rcd13ifvqcp0","pricing_plan_id":"cebpf4jnsgd1na2vs0mg"},{"bike_id":"ba52c1ec-b668-4acc-9cba-94689dfae3b7","system_id":"levelo_inurba_marseille","lat":43.311793,"lon":5.387183,"is_reserved":false,"is_disabled":false,"rental_uris":{"android":"levelo://app?vid=ba52c1ec-b668-4acc-9cba-94689dfae3b7","ios":"levelo://app?vid=ba52c1ec-b668-4acc-9cba-94689dfae3b7"},"vehicle_type_id":"4","last_reported":1713978515,"current_range_meters":17200,"station_id":"ce4bgv12rcd13ifvqcp0","pricing_plan_id":"cebpf4jnsgd1na2vs0mg"},{"bike_id":"3c8d5799-f70e-4884-bce0-75fb08c51a01","system_id":"levelo_inurba_marseille","lat":43.299243,"lon":5.37481,"is_reserved":false,"is_disabled":false,"rental_uris":{"android":"levelo://app?vid=3c8d5799-f70e-4884-bce0-75fb08c51a01","ios":"levelo://app?vid=3c8d5799-f70e-4884-bce0-75fb08c51a01"},"vehicle_type_id":"4","last_reported":1713978515,"current_range_meters":26400,"station_id":"ce4bgjh2rcd13ifvqbg0","pricing_plan_id":"cebpf4jnsgd1na2vs0mg"},{"bike_id":"e32f78f5-f231-45b6-88a7-25fbbe502546","system_id":"levelo_inurba_marseille","lat":43.296129,"lon":5.370777,"is_reserved":false,"is_disabled":false,"rental_uris":{"android":"levelo://app?vid=e32f78f5-f231-45b6-88a7-25fbbe502546","ios":"levelo://app?vid=e32f78f5-f231-45b6-88a7-25fbbe502546"},"vehicle_type_id":"4","last_reported":1713978515,"current_range_meters":16000,"station_id":"ce4bgnh2rcd13ifvqc0g","pricing_plan_id":"cebpf4jnsgd1na2vs0mg"},{"bike_id":"f741c2cc-a81d-47b8-a1dd-b5d7589e0b21","system_id":"levelo_inurba_marseille","lat":43.297774,"lon":5.370875,"is_reserved":false,"is_disabled":false,"rental_uris":{"android":"levelo://app?vid=f741c2cc-a81d-47b8-a1dd-b5d7589e0b21","ios":"levelo://app?vid=f741c2cc-a81d-47b8-a1dd-b5d7589e0b21"},"vehicle_type_id":"4","last_reported":1713978515,"current_range_meters":22000,"station_id":"ce4bgop2rcd13ifvqc1g","pricing_plan_id":"cebpf4jnsgd1na2vs0mg"},{"bike_id":"ce606e76-a929-44dd-871a-0e678afe5f08","system_id":"levelo_inurba_marseille","lat":43.322872,"lon":5.382756,"is_reserved":false,"is_disabled":false,"rental_uris":{"android":"levelo://app?vid=ce606e76-a929-44dd-871a-0e678afe5f08","ios":"levelo://app?vid=ce606e76-a929-44dd-871a-0e678afe5f08"},"vehicle_type_id":"4","last_reported":1713978515,"current_range_meters":23200,"station_id":"ce4bhr12rcd13ifvqhqg","pricing_plan_id":"cebpf4jnsgd1na2vs0mg"},{"bike_id":"501882ab-f3f1-4055-a5f0-2af0d2546ab9","system_id":"levelo_inurba_marseille","lat":43.322872,"lon":5.382756,"is_reserved":false,"is_disabled":false,"rental_uris":{"android":"levelo://app?vid=501882ab-f3f1-4055-a5f0-2af0d2546ab9","ios":"levelo://app?vid=501882ab-f3f1-4055-a5f0-2af0d2546ab9"},"vehicle_type_id":"4","last_reported":1713978515,"current_range_meters":13200,"station_id":"ce4bhr12rcd13ifvqhqg","pricing_plan_id":"cebpf4jnsgd1na2vs0mg"},{"bike_id":"fe0b5675-a63e-475c-adf1-68df5930f4bc","system_id":"levelo_inurba_marseille","lat":43.297163,"lon":5.365866,"is_reserved":false,"is_disabled":false,"rental_uris":{"android":"levelo://app?vid=fe0b5675-a63e-475c-adf1-68df5930f4bc","ios":"levelo://app?vid=fe0b5675-a63e-475c-adf1-68df5930f4bc"},"vehicle_type_id":"4","last_reported":1713978515,"current_range_meters":14800,"station_id":"ce4bgn12rcd13ifvqbt0","pricing_plan_id":"cebpf4jnsgd1na2vs0mg"},{"bike_id":"9e693039-4c31-4fa9-a1b6-06dea2c3d506","system_id":"levelo_inurba_marseille","lat":43.297163,"lon":5.365866,"is_reserved":false,"is_disabled":false,"rental_uris":{"android":"levelo://app?vid=9e693039-4c31-4fa9-a1b6-06dea2c3d506","ios":"levelo://app?vid=9e693039-4c31-4fa9-a1b6-06dea2c3d506"},"vehicle_type_id":"4","last_reported":1713978515,"current_range_meters":8800,"station_id":"ce4bgn12rcd13ifvqbt0","pricing_plan_id":"cebpf4jnsgd1na2vs0mg"},{"bike_id":"15dba75e-1d5b-4e1e-9b0d-20372eaf7b39","system_id":"levelo_inurba_marseille","lat":43.297163,"lon":5.365866,"is_reserved":false,"is_disabled":false,"rental_uris":{"android":"levelo://app?vid=15dba75e-1d5b-4e1e-9b0d-20372eaf7b39","ios":"levelo://app?vid=15dba75e-1d5b-4e1e-9b0d-20372eaf7b39"},"vehicle_type_id":"4","last_reported":1713978515,"current_range_meters":12800,"station_id":"ce4bgn12rcd13ifvqbt0","pricing_plan_id":"cebpf4jnsgd1na2vs0mg"},{"bike_id":"8c50a091-7b89-4aaa-a09f-be452059e237","system_id":"levelo_inurba_marseille","lat":43.297163,"lon":5.365866,"is_reserved":false,"is_disabled":false,"rental_uris":{"android":"levelo://app?vid=8c50a091-7b89-4aaa-a09f-be452059e237","ios":"levelo://app?vid=8c50a091-7b89-4aaa-a09f-be452059e237"},"vehicle_type_id":"4","last_reported":1713978515,"current_range_meters":30400,"station_id":"ce4bgn12rcd13ifvqbt0","pricing_plan_id":"cebpf4jnsgd1na2vs0mg"},{"bike_id":"e35de237-386e-4bdd-84c3-5e68e3eaa55d","system_id":"levelo_inurba_marseille","lat":43.296921,"lon":5.376579,"is_reserved":false,"is_disabled":false,"rental_uris":{"android":"levelo://app?vid=e35de237-386e-4bdd-84c3-5e68e3eaa55d","ios":"levelo://app?vid=e35de237-386e-4bdd-84c3-5e68e3eaa55d"},"vehicle_type_id":"4","last_reported":1713978515,"current_range_meters":2800,"station_id":"ce4bgkh2rcd13ifvqbl0","pricing_plan_id":"cebpf4jnsgd1na2vs0mg"},{"bike_id":"91f5d879-068a-444a-8bd9-9fdc3b09a54d","system_id":"levelo_inurba_marseille","lat":43.28856,"lon":5.358371,"is_reserved":false,"is_disabled":false,"rental_uris":{"android":"levelo://app?vid=91f5d879-068a-444a-8bd9-9fdc3b09a54d","ios":"levelo://app?vid=91f5d879-068a-444a-8bd9-9fdc3b09a54d"},"vehicle_type_id":"4","last_reported":1713978515,"current_range_meters":19600,"station_id":"ce4bhb12rcd13ifvqem0","pricing_plan_id":"cebpf4jnsgd1na2vs0mg"},{"bike_id":"50565e5c-b2f0-4b1c-9abc-06c3aa5a41c2","system_id":"levelo_inurba_marseille","lat":43.296935,"lon":5.376544,"is_reserved":false,"is_disabled":false,"rental_uris":{"android":"levelo://app?vid=50565e5c-b2f0-4b1c-9abc-06c3aa5a41c2","ios":"levelo://app?vid=50565e5c-b2f0-4b1c-9abc-06c3aa5a41c2"},"vehicle_type_id":"4","last_reported":1713978515,"current_range_meters":27200,"station_id":"ce4bgkh2rcd13ifvqbl0","pricing_plan_id":"cebpf4jnsgd1na2vs0mg"},{"bike_id":"e8aeffd8-7b18-4cc5-b9cf-d05b0f4d777b","system_id":"levelo_inurba_marseille","lat":43.299028,"lon":5.381509,"is_reserved":false,"is_disabled":false,"rental_uris":{"android":"levelo://app?vid=e8aeffd8-7b18-4cc5-b9cf-d05b0f4d777b","ios":"levelo://app?vid=e8aeffd8-7b18-4cc5-b9cf-d05b0f4d777b"},"vehicle_type_id":"4","last_reported":1713978515,"current_range_meters":20800,"station_id":"ce4bgj12rcd13ifvqbc0","pricing_plan_id":"cebpf4jnsgd1na2vs0mg"},{"bike_id":"66e8f54f-4320-43a7-8a92-0070bc3d0b54","system_id":"levelo_inurba_marseille","lat":43.29573,"lon":5.367355,"is_reserved":false,"is_disabled":false,"rental_uris":{"android":"levelo://app?vid=66e8f54f-4320-43a7-8a92-0070bc3d0b54","ios":"levelo://app?vid=66e8f54f-4320-43a7-8a92-0070bc3d0b54"},"vehicle_type_id":"4","last_reported":1713978515,"current_range_meters":13600,"station_id":"ce4bgph2rcd13ifvqc2g","pricing_plan_id":"cebpf4jnsgd1na2vs0mg"},{"bike_id":"e817b3e5-9ae4-4ac2-b5fb-095dd0a64888","system_id":"levelo_inurba_marseille","lat":43.296129,"lon":5.370777,"is_reserved":false,"is_disabled":false,"rental_uris":{"android":"levelo://app?vid=e817b3e5-9ae4-4ac2-b5fb-095dd0a64888","ios":"levelo://app?vid=e817b3e5-9ae4-4ac2-b5fb-095dd0a64888"},"vehicle_type_id":"4","last_reported":1713978515,"current_range_meters":18400,"station_id":"ce4bgnh2rcd13ifvqc0g","pricing_plan_id":"cebpf4jnsgd1na2vs0mg"},{"bike_id":"830e3448-4581-45c9-a49b-f4997b43f214","system_id":"levelo_inurba_marseille","lat":43.296131,"lon":5.370773,"is_reserved":false,"is_disabled":false,"rental_uris":{"android":"levelo://app?vid=830e3448-4581-45c9-a49b-f4997b43f214","ios":"levelo://app?vid=830e3448-4581-45c9-a49b-f4997b43f214"},"vehicle_type_id":"4","last_reported":1713978515,"current_range_meters":28400,"station_id":"ce4bgnh2rcd13ifvqc0g","pricing_plan_id":"cebpf4jnsgd1na2vs0mg"},{"bike_id":"89462c05-efb4-428f-9f45-8a26ffa69230","system_id":"levelo_inurba_marseille","lat":43.29583,"lon":5.36743,"is_reserved":false,"is_disabled":false,"rental_uris":{"android":"levelo://app?vid=89462c05-efb4-428f-9f45-8a26ffa69230","ios":"levelo://app?vid=89462c05-efb4-428f-9f45-8a26ffa69230"},"vehicle_type_id":"4","last_reported":1713978515,"current_range_meters":13200,"station_id":"ce4bhgh2rcd13ifvqfb0","pricing_plan_id":"cebpf4jnsgd1na2vs0mg"},{"bike_id":"22ee16ca-a245-4dc1-ad8a-db06da73955c","system_id":"levelo_inurba_marseille","lat":43.29585,"lon":5.36878,"is_reserved":false,"is_disabled":false,"rental_uris":{"android":"levelo://app?vid=22ee16ca-a245-4dc1-ad8a-db06da73955c","ios":"levelo://app?vid=22ee16ca-a245-4dc1-ad8a-db06da73955c"},"vehicle_type_id":"4","last_reported":1713978515,"current_range_meters":8000,"station_id":"","pricing_plan_id":"cebpf4jnsgd1na2vs0mg"},{"bike_id":"77145508-e031-48a4-8e00-9830033ed20c","system_id":"levelo_inurba_marseille","lat":43.296921,"lon":5.376579,"is_reserved":false,"is_disabled":false,"rental_uris":{"android":"levelo://app?vid=77145508-e031-48a4-8e00-9830033ed20c","ios":"levelo://app?vid=77145508-e031-48a4-8e00-9830033ed20c"},"vehicle_type_id":"4","last_reported":1713978515,"current_range_meters":31200,"station_id":"ce4bgkh2rcd13ifvqbl0","pricing_plan_id":"cebpf4jnsgd1na2vs0mg"},{"bike_id":"9f24ed06-b030-457e-ab41-07becc5d3d98","system_id":"levelo_inurba_marseille","lat":43.299028,"lon":5.381509,"is_reserved":false,"is_disabled":false,"rental_uris":{"android":"levelo://app?vid=9f24ed06-b030-457e-ab41-07becc5d3d98","ios":"levelo://app?vid=9f24ed06-b030-457e-ab41-07becc5d3d98"},"vehicle_type_id":"4","last_reported":1713978515,"current_range_meters":19200,"station_id":"ce4bgj12rcd13ifvqbc0","pricing_plan_id":"cebpf4jnsgd1na2vs0mg"},{"bike_id":"d6fed090-c4b8-4024-b07d-3b60a3e368af","system_id":"levelo_inurba_marseille","lat":43.296921,"lon":5.376579,"is_reserved":false,"is_disabled":false,"rental_uris":{"android":"levelo://app?vid=d6fed090-c4b8-4024-b07d-3b60a3e368af","ios":"levelo://app?vid=d6fed090-c4b8-4024-b07d-3b60a3e368af"},"vehicle_type_id":"4","last_reported":1713978515,"current_range_meters":20400,"station_id":"ce4bgkh2rcd13ifvqbl0","pricing_plan_id":"cebpf4jnsgd1na2vs0mg"},{"bike_id":"4b634dbb-6f50-49e0-9ed7-7d2517f0d363","system_id":"levelo_inurba_marseille","lat":43.296921,"lon":5.376579,"is_reserved":false,"is_disabled":false,"rental_uris":{"android":"levelo://app?vid=4b634dbb-6f50-49e0-9ed7-7d2517f0d363","ios":"levelo://app?vid=4b634dbb-6f50-49e0-9ed7-7d2517f0d363"},"vehicle_type_id":"4","last_reported":1713978515,"current_range_meters":8000,"station_id":"ce4bgkh2rcd13ifvqbl0","pricing_plan_id":"cebpf4jnsgd1na2vs0mg"},{"bike_id":"6a9e1efd-0ad9-424e-836d-dbf430eff664","system_id":"levelo_inurba_marseille","lat":43.299028,"lon":5.381509,"is_reserved":false,"is_disabled":false,"rental_uris":{"android":"levelo://app?vid=6a9e1efd-0ad9-424e-836d-dbf430eff664","ios":"levelo://app?vid=6a9e1efd-0ad9-424e-836d-dbf430eff664"},"vehicle_type_id":"4","last_reported":1713978515,"current_range_meters":20800,"station_id":"ce4bgj12rcd13ifvqbc0","pricing_plan_id":"cebpf4jnsgd1na2vs0mg"},{"bike_id":"83c6374e-1d18-4109-9e2c-4b185fe9a021","system_id":"levelo_inurba_marseille","lat":43.299028,"lon":5.381509,"is_reserved":false,"is_disabled":false,"rental_uris":{"android":"levelo://app?vid=83c6374e-1d18-4109-9e2c-4b185fe9a021","ios":"levelo://app?vid=83c6374e-1d18-4109-9e2c-4b185fe9a021"},"vehicle_type_id":"4","last_reported":1713978515,"current_range_meters":6800,"station_id":"ce4bgj12rcd13ifvqbc0","pricing_plan_id":"cebpf4jnsgd1na2vs0mg"},{"bike_id":"7800036e-dfd1-445e-bace-e1ac2096360c","system_id":"levelo_inurba_marseille","lat":43.299028,"lon":5.381509,"is_reserved":false,"is_disabled":false,"rental_uris":{"android":"levelo://app?vid=7800036e-dfd1-445e-bace-e1ac2096360c","ios":"levelo://app?vid=7800036e-dfd1-445e-bace-e1ac2096360c"},"vehicle_type_id":"4","last_reported":1713978515,"current_range_meters":16800,"station_id":"ce4bgj12rcd13ifvqbc0","pricing_plan_id":"cebpf4jnsgd1na2vs0mg"},{"bike_id":"820adfde-545c-48c6-b4ed-75a34e56aa25","system_id":"levelo_inurba_marseille","lat":43.309589,"lon":5.390258,"is_reserved":false,"is_disabled":false,"rental_uris":{"android":"levelo://app?vid=820adfde-545c-48c6-b4ed-75a34e56aa25","ios":"levelo://app?vid=820adfde-545c-48c6-b4ed-75a34e56aa25"},"vehicle_type_id":"4","last_reported":1713978515,"current_range_meters":10000,"station_id":"ce4bgup2rcd13ifvqco0","pricing_plan_id":"cebpf4jnsgd1na2vs0mg"},{"bike_id":"eb395d10-40bf-42dc-8ae0-174c9b674133","system_id":"levelo_inurba_marseille","lat":43.317526,"lon":5.38988,"is_reserved":false,"is_disabled":false,"rental_uris":{"android":"levelo://app?vid=eb395d10-40bf-42dc-8ae0-174c9b674133","ios":"levelo://app?vid=eb395d10-40bf-42dc-8ae0-174c9b674133"},"vehicle_type_id":"4","last_reported":1713978515,"current_range_meters":14800,"station_id":"ce4bhqp2rcd13ifvqhng","pricing_plan_id":"cebpf4jnsgd1na2vs0mg"},{"bike_id":"2f135f6c-8db9-4aeb-88dd-851653e4471f","system_id":"levelo_inurba_marseille","lat":43.299028,"lon":5.381509,"is_reserved":false,"is_disabled":false,"rental_uris":{"android":"levelo://app?vid=2f135f6c-8db9-4aeb-88dd-851653e4471f","ios":"levelo://app?vid=2f135f6c-8db9-4aeb-88dd-851653e4471f"},"vehicle_type_id":"4","last_reported":1713978515,"current_range_meters":31200,"station_id":"ce4bgj12rcd13ifvqbc0","pricing_plan_id":"cebpf4jnsgd1na2vs0mg"},{"bike_id":"8d58a6b3-f8cc-4ec8-a3b1-20070405ff1a","system_id":"levelo_inurba_marseille","lat":43.309589,"lon":5.390258,"is_reserved":false,"is_disabled":false,"rental_uris":{"android":"levelo://app?vid=8d58a6b3-f8cc-4ec8-a3b1-20070405ff1a","ios":"levelo://app?vid=8d58a6b3-f8cc-4ec8-a3b1-20070405ff1a"},"vehicle_type_id":"4","last_reported":1713978515,"current_range_meters":17200,"station_id":"ce4bgup2rcd13ifvqco0","pricing_plan_id":"cebpf4jnsgd1na2vs0mg"},{"bike_id":"9bfb1d99-937f-43af-8972-9337e75f9e9a","system_id":"levelo_inurba_marseille","lat":43.309589,"lon":5.390258,"is_reserved":false,"is_disabled":false,"rental_uris":{"android":"levelo://app?vid=9bfb1d99-937f-43af-8972-9337e75f9e9a","ios":"levelo://app?vid=9bfb1d99-937f-43af-8972-9337e75f9e9a"},"vehicle_type_id":"4","last_reported":1713978515,"current_range_meters":13600,"station_id":"ce4bgup2rcd13ifvqco0","pricing_plan_id":"cebpf4jnsgd1na2vs0mg"},{"bike_id":"f52eb590-7c9d-4ee9-afda-aeb836bdd3dc","system_id":"levelo_inurba_marseille","lat":43.317557,"lon":5.390173,"is_reserved":false,"is_disabled":false,"rental_uris":{"android":"levelo://app?vid=f52eb590-7c9d-4ee9-afda-aeb836bdd3dc","ios":"levelo://app?vid=f52eb590-7c9d-4ee9-afda-aeb836bdd3dc"},"vehicle_type_id":"4","last_reported":1713978515,"current_range_meters":28800,"station_id":"ce4bhqp2rcd13ifvqhng","pricing_plan_id":"cebpf4jnsgd1na2vs0mg"},{"bike_id":"c007bef9-8802-41bb-8338-c0ddc6a2a353","system_id":"levelo_inurba_marseille","lat":43.317557,"lon":5.390173,"is_reserved":false,"is_disabled":false,"rental_uris":{"android":"levelo://app?vid=c007bef9-8802-41bb-8338-c0ddc6a2a353","ios":"levelo://app?vid=c007bef9-8802-41bb-8338-c0ddc6a2a353"},"vehicle_type_id":"4","last_reported":1713978515,"current_range_meters":14000,"station_id":"ce4bhqp2rcd13ifvqhng","pricing_plan_id":"cebpf4jnsgd1na2vs0mg"},{"bike_id":"009b6dbe-f06a-410e-9507-c1ecba6e1674","system_id":"levelo_inurba_marseille","lat":43.317557,"lon":5.390173,"is_reserved":false,"is_disabled":false,"rental_uris":{"android":"levelo://app?vid=009b6dbe-f06a-410e-9507-c1ecba6e1674","ios":"levelo://app?vid=009b6dbe-f06a-410e-9507-c1ecba6e1674"},"vehicle_type_id":"4","last_reported":1713978515,"current_range_meters":22000,"station_id":"ce4bhqp2rcd13ifvqhng","pricing_plan_id":"cebpf4jnsgd1na2vs0mg"},{"bike_id":"7cc61156-595f-4e4e-a33e-89f91602f767","system_id":"levelo_inurba_marseille","lat":43.31756,"lon":5.39019,"is_reserved":false,"is_disabled":false,"rental_uris":{"android":"levelo://app?vid=7cc61156-595f-4e4e-a33e-89f91602f767","ios":"levelo://app?vid=7cc61156-595f-4e4e-a33e-89f91602f767"},"vehicle_type_id":"4","last_reported":1713978515,"current_range_meters":12800,"station_id":"ce4bhqp2rcd13ifvqhng","pricing_plan_id":"cebpf4jnsgd1na2vs0mg"},{"bike_id":"3ddd29e4-7600-43e5-b6d0-b2af8c40141a","system_id":"levelo_inurba_marseille","lat":43.317557,"lon":5.390173,"is_reserved":false,"is_disabled":false,"rental_uris":{"android":"levelo://app?vid=3ddd29e4-7600-43e5-b6d0-b2af8c40141a","ios":"levelo://app?vid=3ddd29e4-7600-43e5-b6d0-b2af8c40141a"},"vehicle_type_id":"4","last_reported":1713978515,"current_range_meters":17600,"station_id":"ce4bhqp2rcd13ifvqhng","pricing_plan_id":"cebpf4jnsgd1na2vs0mg"},{"bike_id":"4c2ec41b-cd98-482a-b9b7-b6b1e7365c47","system_id":"levelo_inurba_marseille","lat":43.312609,"lon":5.401662,"is_reserved":false,"is_disabled":false,"rental_uris":{"android":"levelo://app?vid=4c2ec41b-cd98-482a-b9b7-b6b1e7365c47","ios":"levelo://app?vid=4c2ec41b-cd98-482a-b9b7-b6b1e7365c47"},"vehicle_type_id":"4","last_reported":1713978515,"current_range_meters":6000,"station_id":"ce4bh092rcd13ifvqd30","pricing_plan_id":"cebpf4jnsgd1na2vs0mg"},{"bike_id":"416415ef-cf19-4d35-b20d-3a02cd3bcf68","system_id":"levelo_inurba_marseille","lat":43.298037,"lon":5.381066,"is_reserved":false,"is_disabled":false,"rental_uris":{"android":"levelo://app?vid=416415ef-cf19-4d35-b20d-3a02cd3bcf68","ios":"levelo://app?vid=416415ef-cf19-4d35-b20d-3a02cd3bcf68"},"vehicle_type_id":"4","last_reported":1713978515,"current_range_meters":10000,"station_id":"ce4bgip2rcd13ifvqbb0","pricing_plan_id":"cebpf4jnsgd1na2vs0mg"},{"bike_id":"8a16dd87-7097-4be4-922b-60a37ee54c61","system_id":"levelo_inurba_marseille","lat":43.298037,"lon":5.381066,"is_reserved":false,"is_disabled":false,"rental_uris":{"android":"levelo://app?vid=8a16dd87-7097-4be4-922b-60a37ee54c61","ios":"levelo://app?vid=8a16dd87-7097-4be4-922b-60a37ee54c61"},"vehicle_type_id":"4","last_reported":1713978515,"current_range_meters":30000,"station_id":"ce4bgip2rcd13ifvqbb0","pricing_plan_id":"cebpf4jnsgd1na2vs0mg"},{"bike_id":"e176d8d7-b260-4094-bfab-2f20185a29ca","system_id":"levelo_inurba_marseille","lat":43.298037,"lon":5.381066,"is_reserved":false,"is_disabled":false,"rental_uris":{"android":"levelo://app?vid=e176d8d7-b260-4094-bfab-2f20185a29ca","ios":"levelo://app?vid=e176d8d7-b260-4094-bfab-2f20185a29ca"},"vehicle_type_id":"4","last_reported":1713978515,"current_range_meters":14000,"station_id":"ce4bgip2rcd13ifvqbb0","pricing_plan_id":"cebpf4jnsgd1na2vs0mg"},{"bike_id":"1df51914-f0f1-4339-b36a-18d989592ad2","system_id":"levelo_inurba_marseille","lat":43.298037,"lon":5.381066,"is_reserved":false,"is_disabled":false,"rental_uris":{"android":"levelo://app?vid=1df51914-f0f1-4339-b36a-18d989592ad2","ios":"levelo://app?vid=1df51914-f0f1-4339-b36a-18d989592ad2"},"vehicle_type_id":"4","last_reported":1713978515,"current_range_meters":19600,"station_id":"ce4bgip2rcd13ifvqbb0","pricing_plan_id":"cebpf4jnsgd1na2vs0mg"},{"bike_id":"a2c2d3d3-ea63-483e-8728-4fa6faaff914","system_id":"levelo_inurba_marseille","lat":43.298037,"lon":5.381066,"is_reserved":false,"is_disabled":false,"rental_uris":{"android":"levelo://app?vid=a2c2d3d3-ea63-483e-8728-4fa6faaff914","ios":"levelo://app?vid=a2c2d3d3-ea63-483e-8728-4fa6faaff914"},"vehicle_type_id":"4","last_reported":1713978515,"current_range_meters":20800,"station_id":"ce4bgip2rcd13ifvqbb0","pricing_plan_id":"cebpf4jnsgd1na2vs0mg"},{"bike_id":"a953c5f4-4d29-4cb0-b792-9cdf09a35b5e","system_id":"levelo_inurba_marseille","lat":43.298037,"lon":5.381066,"is_reserved":false,"is_disabled":false,"rental_uris":{"android":"levelo://app?vid=a953c5f4-4d29-4cb0-b792-9cdf09a35b5e","ios":"levelo://app?vid=a953c5f4-4d29-4cb0-b792-9cdf09a35b5e"},"vehicle_type_id":"4","last_reported":1713978515,"current_range_meters":26000,"station_id":"ce4bgip2rcd13ifvqbb0","pricing_plan_id":"cebpf4jnsgd1na2vs0mg"},{"bike_id":"240a5259-2544-4564-adcf-2414286d6799","system_id":"levelo_inurba_marseille","lat":43.298037,"lon":5.381066,"is_reserved":false,"is_disabled":false,"rental_uris":{"android":"levelo://app?vid=240a5259-2544-4564-adcf-2414286d6799","ios":"levelo://app?vid=240a5259-2544-4564-adcf-2414286d6799"},"vehicle_type_id":"4","last_reported":1713978515,"current_range_meters":31600,"station_id":"ce4bgip2rcd13ifvqbb0","pricing_plan_id":"cebpf4jnsgd1na2vs0mg"},{"bike_id":"dd464ad1-5508-44ab-ba07-bb8a67869a59","system_id":"levelo_inurba_marseille","lat":43.298037,"lon":5.381066,"is_reserved":false,"is_disabled":false,"rental_uris":{"android":"levelo://app?vid=dd464ad1-5508-44ab-ba07-bb8a67869a59","ios":"levelo://app?vid=dd464ad1-5508-44ab-ba07-bb8a67869a59"},"vehicle_type_id":"4","last_reported":1713978515,"current_range_meters":22400,"station_id":"ce4bgip2rcd13ifvqbb0","pricing_plan_id":"cebpf4jnsgd1na2vs0mg"},{"bike_id":"9a31c00b-d57e-43b1-a262-8a1410340aa1","system_id":"levelo_inurba_marseille","lat":43.298037,"lon":5.381066,"is_reserved":false,"is_disabled":false,"rental_uris":{"android":"levelo://app?vid=9a31c00b-d57e-43b1-a262-8a1410340aa1","ios":"levelo://app?vid=9a31c00b-d57e-43b1-a262-8a1410340aa1"},"vehicle_type_id":"4","last_reported":1713978515,"current_range_meters":31200,"station_id":"ce4bgip2rcd13ifvqbb0","pricing_plan_id":"cebpf4jnsgd1na2vs0mg"},{"bike_id":"53d4e378-a1ba-452b-8b2e-5c31e628391d","system_id":"levelo_inurba_marseille","lat":43.298037,"lon":5.381066,"is_reserved":false,"is_disabled":false,"rental_uris":{"android":"levelo://app?vid=53d4e378-a1ba-452b-8b2e-5c31e628391d","ios":"levelo://app?vid=53d4e378-a1ba-452b-8b2e-5c31e628391d"},"vehicle_type_id":"4","last_reported":1713978515,"current_range_meters":30000,"station_id":"ce4bgip2rcd13ifvqbb0","pricing_plan_id":"cebpf4jnsgd1na2vs0mg"},{"bike_id":"b9ea30e1-2ca8-404b-a9b7-e21fb67e22ff","system_id":"levelo_inurba_marseille","lat":43.298037,"lon":5.381066,"is_reserved":false,"is_disabled":false,"rental_uris":{"android":"levelo://app?vid=b9ea30e1-2ca8-404b-a9b7-e21fb67e22ff","ios":"levelo://app?vid=b9ea30e1-2ca8-404b-a9b7-e21fb67e22ff"},"vehicle_type_id":"4","last_reported":1713978515,"current_range_meters":30400,"station_id":"ce4bgip2rcd13ifvqbb0","pricing_plan_id":"cebpf4jnsgd1na2vs0mg"},{"bike_id":"1e0ace8c-7a36-4d90-9fd8-94f99ff0ba22","system_id":"levelo_inurba_marseille","lat":43.298037,"lon":5.381066,"is_reserved":false,"is_disabled":false,"rental_uris":{"android":"levelo://app?vid=1e0ace8c-7a36-4d90-9fd8-94f99ff0ba22","ios":"levelo://app?vid=1e0ace8c-7a36-4d90-9fd8-94f99ff0ba22"},"vehicle_type_id":"4","last_reported":1713978515,"current_range_meters":12800,"station_id":"ce4bgip2rcd13ifvqbb0","pricing_plan_id":"cebpf4jnsgd1na2vs0mg"},{"bike_id":"94191512-70fa-49a5-b34f-3a0eaf408ec2","system_id":"levelo_inurba_marseille","lat":43.298037,"lon":5.381066,"is_reserved":false,"is_disabled":false,"rental_uris":{"android":"levelo://app?vid=94191512-70fa-49a5-b34f-3a0eaf408ec2","ios":"levelo://app?vid=94191512-70fa-49a5-b34f-3a0eaf408ec2"},"vehicle_type_id":"4","last_reported":1713978515,"current_range_meters":25200,"station_id":"ce4bgip2rcd13ifvqbb0","pricing_plan_id":"cebpf4jnsgd1na2vs0mg"},{"bike_id":"60702650-3072-4965-9ad6-473b0f792a82","system_id":"levelo_inurba_marseille","lat":43.298037,"lon":5.381066,"is_reserved":false,"is_disabled":false,"rental_uris":{"android":"levelo://app?vid=60702650-3072-4965-9ad6-473b0f792a82","ios":"levelo://app?vid=60702650-3072-4965-9ad6-473b0f792a82"},"vehicle_type_id":"4","last_reported":1713978515,"current_range_meters":24800,"station_id":"ce4bgip2rcd13ifvqbb0","pricing_plan_id":"cebpf4jnsgd1na2vs0mg"},{"bike_id":"f142ab98-db2b-4bf5-852e-3f65000816b2","system_id":"levelo_inurba_marseille","lat":43.298037,"lon":5.381066,"is_reserved":false,"is_disabled":false,"rental_uris":{"android":"levelo://app?vid=f142ab98-db2b-4bf5-852e-3f65000816b2","ios":"levelo://app?vid=f142ab98-db2b-4bf5-852e-3f65000816b2"},"vehicle_type_id":"4","last_reported":1713978515,"current_range_meters":30000,"station_id":"ce4bgip2rcd13ifvqbb0","pricing_plan_id":"cebpf4jnsgd1na2vs0mg"},{"bike_id":"b6935ed5-ba60-4f70-b415-6c86b4dcc9fd","system_id":"levelo_inurba_marseille","lat":43.298037,"lon":5.381066,"is_reserved":false,"is_disabled":false,"rental_uris":{"android":"levelo://app?vid=b6935ed5-ba60-4f70-b415-6c86b4dcc9fd","ios":"levelo://app?vid=b6935ed5-ba60-4f70-b415-6c86b4dcc9fd"},"vehicle_type_id":"4","last_reported":1713978515,"current_range_meters":15200,"station_id":"ce4bgip2rcd13ifvqbb0","pricing_plan_id":"cebpf4jnsgd1na2vs0mg"},{"bike_id":"7b41680c-98f6-4baf-a42e-04ea25018d54","system_id":"levelo_inurba_marseille","lat":43.298037,"lon":5.381066,"is_reserved":false,"is_disabled":false,"rental_uris":{"android":"levelo://app?vid=7b41680c-98f6-4baf-a42e-04ea25018d54","ios":"levelo://app?vid=7b41680c-98f6-4baf-a42e-04ea25018d54"},"vehicle_type_id":"4","last_reported":1713978515,"current_range_meters":26800,"station_id":"ce4bgip2rcd13ifvqbb0","pricing_plan_id":"cebpf4jnsgd1na2vs0mg"},{"bike_id":"e89d0b4e-bcec-4053-97b5-ba43378dc2ed","system_id":"levelo_inurba_marseille","lat":43.298037,"lon":5.381066,"is_reserved":false,"is_disabled":false,"rental_uris":{"android":"levelo://app?vid=e89d0b4e-bcec-4053-97b5-ba43378dc2ed","ios":"levelo://app?vid=e89d0b4e-bcec-4053-97b5-ba43378dc2ed"},"vehicle_type_id":"4","last_reported":1713978515,"current_range_meters":16000,"station_id":"ce4bgip2rcd13ifvqbb0","pricing_plan_id":"cebpf4jnsgd1na2vs0mg"},{"bike_id":"3fe14f1c-b70c-4a66-8704-6e3e7444f610","system_id":"levelo_inurba_marseille","lat":43.298037,"lon":5.381066,"is_reserved":false,"is_disabled":false,"rental_uris":{"android":"levelo://app?vid=3fe14f1c-b70c-4a66-8704-6e3e7444f610","ios":"levelo://app?vid=3fe14f1c-b70c-4a66-8704-6e3e7444f610"},"vehicle_type_id":"4","last_reported":1713978515,"current_range_meters":20000,"station_id":"ce4bgip2rcd13ifvqbb0","pricing_plan_id":"cebpf4jnsgd1na2vs0mg"},{"bike_id":"00909e30-6070-4a1b-a5e4-7ff5b1e00f6f","system_id":"levelo_inurba_marseille","lat":43.298037,"lon":5.381066,"is_reserved":false,"is_disabled":false,"rental_uris":{"android":"levelo://app?vid=00909e30-6070-4a1b-a5e4-7ff5b1e00f6f","ios":"levelo://app?vid=00909e30-6070-4a1b-a5e4-7ff5b1e00f6f"},"vehicle_type_id":"4","last_reported":1713978515,"current_range_meters":31200,"station_id":"ce4bgip2rcd13ifvqbb0","pricing_plan_id":"cebpf4jnsgd1na2vs0mg"},{"bike_id":"c3a56c2b-bd49-48cd-876a-68c47efea700","system_id":"levelo_inurba_marseille","lat":43.298037,"lon":5.381066,"is_reserved":false,"is_disabled":false,"rental_uris":{"android":"levelo://app?vid=c3a56c2b-bd49-48cd-876a-68c47efea700","ios":"levelo://app?vid=c3a56c2b-bd49-48cd-876a-68c47efea700"},"vehicle_type_id":"4","last_reported":1713978515,"current_range_meters":9600,"station_id":"ce4bgip2rcd13ifvqbb0","pricing_plan_id":"cebpf4jnsgd1na2vs0mg"},{"bike_id":"074a855b-4fbf-4446-bbf7-16feaffbe876","system_id":"levelo_inurba_marseille","lat":43.30442,"lon":5.388885,"is_reserved":false,"is_disabled":false,"rental_uris":{"android":"levelo://app?vid=074a855b-4fbf-4446-bbf7-16feaffbe876","ios":"levelo://app?vid=074a855b-4fbf-4446-bbf7-16feaffbe876"},"vehicle_type_id":"4","last_reported":1713978515,"current_range_meters":28400,"station_id":"ce4bgk12rcd13ifvqbi0","pricing_plan_id":"cebpf4jnsgd1na2vs0mg"},{"bike_id":"72a1079b-cc95-47fe-b18a-256adb2fedfe","system_id":"levelo_inurba_marseille","lat":43.299028,"lon":5.381509,"is_reserved":false,"is_disabled":false,"rental_uris":{"android":"levelo://app?vid=72a1079b-cc95-47fe-b18a-256adb2fedfe","ios":"levelo://app?vid=72a1079b-cc95-47fe-b18a-256adb2fedfe"},"vehicle_type_id":"4","last_reported":1713978515,"current_range_meters":8000,"station_id":"ce4bgj12rcd13ifvqbc0","pricing_plan_id":"cebpf4jnsgd1na2vs0mg"},{"bike_id":"101016d2-616b-426b-9879-41f452139881","system_id":"levelo_inurba_marseille","lat":43.298037,"lon":5.381066,"is_reserved":false,"is_disabled":false,"rental_uris":{"android":"levelo://app?vid=101016d2-616b-426b-9879-41f452139881","ios":"levelo://app?vid=101016d2-616b-426b-9879-41f452139881"},"vehicle_type_id":"4","last_reported":1713978515,"current_range_meters":7600,"station_id":"ce4bgip2rcd13ifvqbb0","pricing_plan_id":"cebpf4jnsgd1na2vs0mg"},{"bike_id":"adb2ec82-edb0-4893-9ed0-e0e5afaec84d","system_id":"levelo_inurba_marseille","lat":43.304369,"lon":5.388903,"is_reserved":false,"is_disabled":false,"rental_uris":{"android":"levelo://app?vid=adb2ec82-edb0-4893-9ed0-e0e5afaec84d","ios":"levelo://app?vid=adb2ec82-edb0-4893-9ed0-e0e5afaec84d"},"vehicle_type_id":"4","last_reported":1713978515,"current_range_meters":0,"station_id":"ce4bgk12rcd13ifvqbi0","pricing_plan_id":"cebpf4jnsgd1na2vs0mg"},{"bike_id":"c79e1b10-3818-41e0-b4ee-8d169c5fb0b1","system_id":"levelo_inurba_marseille","lat":43.298037,"lon":5.381066,"is_reserved":false,"is_disabled":false,"rental_uris":{"android":"levelo://app?vid=c79e1b10-3818-41e0-b4ee-8d169c5fb0b1","ios":"levelo://app?vid=c79e1b10-3818-41e0-b4ee-8d169c5fb0b1"},"vehicle_type_id":"4","last_reported":1713978515,"current_range_meters":28400,"station_id":"ce4bgip2rcd13ifvqbb0","pricing_plan_id":"cebpf4jnsgd1na2vs0mg"},{"bike_id":"14a826b6-522d-4b15-ae37-87518d2228b4","system_id":"levelo_inurba_marseille","lat":43.29567,"lon":5.37508,"is_reserved":false,"is_disabled":false,"rental_uris":{"android":"levelo://app?vid=14a826b6-522d-4b15-ae37-87518d2228b4","ios":"levelo://app?vid=14a826b6-522d-4b15-ae37-87518d2228b4"},"vehicle_type_id":"4","last_reported":1713978515,"current_range_meters":14400,"station_id":"ce4bgh92rcd13ifvqb50","pricing_plan_id":"cebpf4jnsgd1na2vs0mg"},{"bike_id":"387d1b07-769a-4728-9e79-8329d1c035c2","system_id":"levelo_inurba_marseille","lat":43.298037,"lon":5.381066,"is_reserved":false,"is_disabled":false,"rental_uris":{"android":"levelo://app?vid=387d1b07-769a-4728-9e79-8329d1c035c2","ios":"levelo://app?vid=387d1b07-769a-4728-9e79-8329d1c035c2"},"vehicle_type_id":"4","last_reported":1713978515,"current_range_meters":31200,"station_id":"ce4bgip2rcd13ifvqbb0","pricing_plan_id":"cebpf4jnsgd1na2vs0mg"},{"bike_id":"ae23ec71-5513-4d09-8f51-52762ebbfd71","system_id":"levelo_inurba_marseille","lat":43.2963,"lon":5.37726,"is_reserved":false,"is_disabled":false,"rental_uris":{"android":"levelo://app?vid=ae23ec71-5513-4d09-8f51-52762ebbfd71","ios":"levelo://app?vid=ae23ec71-5513-4d09-8f51-52762ebbfd71"},"vehicle_type_id":"4","last_reported":1713978515,"current_range_meters":30800,"station_id":"","pricing_plan_id":"cebpf4jnsgd1na2vs0mg"},{"bike_id":"f8ab8e2f-37e7-4107-9fcd-14a34ac23e4b","system_id":"levelo_inurba_marseille","lat":43.297163,"lon":5.365866,"is_reserved":false,"is_disabled":false,"rental_uris":{"android":"levelo://app?vid=f8ab8e2f-37e7-4107-9fcd-14a34ac23e4b","ios":"levelo://app?vid=f8ab8e2f-37e7-4107-9fcd-14a34ac23e4b"},"vehicle_type_id":"4","last_reported":1713978515,"current_range_meters":2400,"station_id":"ce4bgn12rcd13ifvqbt0","pricing_plan_id":"cebpf4jnsgd1na2vs0mg"},{"bike_id":"3e26ee8f-68a6-4e95-8a7f-7e484db8a518","system_id":"levelo_inurba_marseille","lat":43.298037,"lon":5.381066,"is_reserved":false,"is_disabled":false,"rental_uris":{"android":"levelo://app?vid=3e26ee8f-68a6-4e95-8a7f-7e484db8a518","ios":"levelo://app?vid=3e26ee8f-68a6-4e95-8a7f-7e484db8a518"},"vehicle_type_id":"4","last_reported":1713978515,"current_range_meters":18800,"station_id":"ce4bgip2rcd13ifvqbb0","pricing_plan_id":"cebpf4jnsgd1na2vs0mg"},{"bike_id":"ea522bff-76e8-42cf-9cd2-0f21be8b1591","system_id":"levelo_inurba_marseille","lat":43.298037,"lon":5.381066,"is_reserved":false,"is_disabled":false,"rental_uris":{"android":"levelo://app?vid=ea522bff-76e8-42cf-9cd2-0f21be8b1591","ios":"levelo://app?vid=ea522bff-76e8-42cf-9cd2-0f21be8b1591"},"vehicle_type_id":"4","last_reported":1713978515,"current_range_meters":16000,"station_id":"ce4bgip2rcd13ifvqbb0","pricing_plan_id":"cebpf4jnsgd1na2vs0mg"},{"bike_id":"aa9033f2-ca77-4a59-a417-2b6473a52a0e","system_id":"levelo_inurba_marseille","lat":43.29612,"lon":5.3768,"is_reserved":false,"is_disabled":false,"rental_uris":{"android":"levelo://app?vid=aa9033f2-ca77-4a59-a417-2b6473a52a0e","ios":"levelo://app?vid=aa9033f2-ca77-4a59-a417-2b6473a52a0e"},"vehicle_type_id":"4","last_reported":1713978515,"current_range_meters":24800,"station_id":"","pricing_plan_id":"cebpf4jnsgd1na2vs0mg"},{"bike_id":"567a49ea-de01-4363-91c6-7b450512053d","system_id":"levelo_inurba_marseille","lat":43.30437,"lon":5.38901,"is_reserved":false,"is_disabled":false,"rental_uris":{"android":"levelo://app?vid=567a49ea-de01-4363-91c6-7b450512053d","ios":"levelo://app?vid=567a49ea-de01-4363-91c6-7b450512053d"},"vehicle_type_id":"4","last_reported":1713978515,"current_range_meters":0,"station_id":"ce4bgk12rcd13ifvqbi0","pricing_plan_id":"cebpf4jnsgd1na2vs0mg"},{"bike_id":"f676db58-0dcf-4c6e-a9e2-464b9f59c2a4","system_id":"levelo_inurba_marseille","lat":43.29786,"lon":5.38119,"is_reserved":false,"is_disabled":false,"rental_uris":{"android":"levelo://app?vid=f676db58-0dcf-4c6e-a9e2-464b9f59c2a4","ios":"levelo://app?vid=f676db58-0dcf-4c6e-a9e2-464b9f59c2a4"},"vehicle_type_id":"4","last_reported":1713978515,"current_range_meters":27200,"station_id":"ce4bgip2rcd13ifvqbb0","pricing_plan_id":"cebpf4jnsgd1na2vs0mg"},{"bike_id":"b00c6842-a901-4477-a91b-6a4f16b060e3","system_id":"levelo_inurba_marseille","lat":43.296263,"lon":5.377094,"is_reserved":false,"is_disabled":false,"rental_uris":{"android":"levelo://app?vid=b00c6842-a901-4477-a91b-6a4f16b060e3","ios":"levelo://app?vid=b00c6842-a901-4477-a91b-6a4f16b060e3"},"vehicle_type_id":"4","last_reported":1713978515,"current_range_meters":16400,"station_id":"ce4bgi92rcd13ifvqb90","pricing_plan_id":"cebpf4jnsgd1na2vs0mg"},{"bike_id":"127693b6-a7c3-4525-bff0-b9ba9d7e12a0","system_id":"levelo_inurba_marseille","lat":43.296277,"lon":5.377108,"is_reserved":false,"is_disabled":false,"rental_uris":{"android":"levelo://app?vid=127693b6-a7c3-4525-bff0-b9ba9d7e12a0","ios":"levelo://app?vid=127693b6-a7c3-4525-bff0-b9ba9d7e12a0"},"vehicle_type_id":"4","last_reported":1713978515,"current_range_meters":1200,"station_id":"ce4bgi92rcd13ifvqb90","pricing_plan_id":"cebpf4jnsgd1na2vs0mg"},{"bike_id":"1cb6ce32-05fe-450d-80ce-017c8c552b3c","system_id":"levelo_inurba_marseille","lat":43.295517,"lon":5.375117,"is_reserved":false,"is_disabled":false,"rental_uris":{"android":"levelo://app?vid=1cb6ce32-05fe-450d-80ce-017c8c552b3c","ios":"levelo://app?vid=1cb6ce32-05fe-450d-80ce-017c8c552b3c"},"vehicle_type_id":"4","last_reported":1713978515,"current_range_meters":10000,"station_id":"ce4bgh92rcd13ifvqb50","pricing_plan_id":"cebpf4jnsgd1na2vs0mg"},{"bike_id":"be0013a0-8daa-48e0-9056-522735f73c31","system_id":"levelo_inurba_marseille","lat":43.283502,"lon":5.386471,"is_reserved":false,"is_disabled":false,"rental_uris":{"android":"levelo://app?vid=be0013a0-8daa-48e0-9056-522735f73c31","ios":"levelo://app?vid=be0013a0-8daa-48e0-9056-522735f73c31"},"vehicle_type_id":"4","last_reported":1713978515,"current_range_meters":10000,"station_id":"ce4bh492rcd13ifvqdvg","pricing_plan_id":"cebpf4jnsgd1na2vs0mg"},{"bike_id":"475f965c-29a9-40d2-8407-e0df68e8a427","system_id":"levelo_inurba_marseille","lat":43.298037,"lon":5.381066,"is_reserved":false,"is_disabled":false,"rental_uris":{"android":"levelo://app?vid=475f965c-29a9-40d2-8407-e0df68e8a427","ios":"levelo://app?vid=475f965c-29a9-40d2-8407-e0df68e8a427"},"vehicle_type_id":"4","last_reported":1713978515,"current_range_meters":19600,"station_id":"ce4bgip2rcd13ifvqbb0","pricing_plan_id":"cebpf4jnsgd1na2vs0mg"},{"bike_id":"b5989461-911a-4375-8628-31f932c98e33","system_id":"levelo_inurba_marseille","lat":43.296263,"lon":5.377094,"is_reserved":false,"is_disabled":false,"rental_uris":{"android":"levelo://app?vid=b5989461-911a-4375-8628-31f932c98e33","ios":"levelo://app?vid=b5989461-911a-4375-8628-31f932c98e33"},"vehicle_type_id":"4","last_reported":1713978515,"current_range_meters":17200,"station_id":"ce4bgi92rcd13ifvqb90","pricing_plan_id":"cebpf4jnsgd1na2vs0mg"},{"bike_id":"9d2c65ba-54a4-45bc-bde5-e8a56362a494","system_id":"levelo_inurba_marseille","lat":43.299707,"lon":5.384859,"is_reserved":false,"is_disabled":false,"rental_uris":{"android":"levelo://app?vid=9d2c65ba-54a4-45bc-bde5-e8a56362a494","ios":"levelo://app?vid=9d2c65ba-54a4-45bc-bde5-e8a56362a494"},"vehicle_type_id":"4","last_reported":1713978515,"current_range_meters":16000,"station_id":"ce4bgj92rcd13ifvqbd0","pricing_plan_id":"cebpf4jnsgd1na2vs0mg"},{"bike_id":"c0ce59a9-445e-4d57-8a5a-408d0cbbb30d","system_id":"levelo_inurba_marseille","lat":43.29982,"lon":5.3849,"is_reserved":false,"is_disabled":false,"rental_uris":{"android":"levelo://app?vid=c0ce59a9-445e-4d57-8a5a-408d0cbbb30d","ios":"levelo://app?vid=c0ce59a9-445e-4d57-8a5a-408d0cbbb30d"},"vehicle_type_id":"4","last_reported":1713978515,"current_range_meters":4400,"station_id":"ce4bgj92rcd13ifvqbd0","pricing_plan_id":"cebpf4jnsgd1na2vs0mg"},{"bike_id":"219f5a31-cdf3-4b85-aec5-5d6a33ad5a60","system_id":"levelo_inurba_marseille","lat":43.29983,"lon":5.38499,"is_reserved":false,"is_disabled":false,"rental_uris":{"android":"levelo://app?vid=219f5a31-cdf3-4b85-aec5-5d6a33ad5a60","ios":"levelo://app?vid=219f5a31-cdf3-4b85-aec5-5d6a33ad5a60"},"vehicle_type_id":"4","last_reported":1713978515,"current_range_meters":8400,"station_id":"ce4bgj92rcd13ifvqbd0","pricing_plan_id":"cebpf4jnsgd1na2vs0mg"},{"bike_id":"48c27deb-d264-4e05-af13-9de53cab2214","system_id":"levelo_inurba_marseille","lat":43.29981,"lon":5.38497,"is_reserved":false,"is_disabled":false,"rental_uris":{"android":"levelo://app?vid=48c27deb-d264-4e05-af13-9de53cab2214","ios":"levelo://app?vid=48c27deb-d264-4e05-af13-9de53cab2214"},"vehicle_type_id":"4","last_reported":1713978515,"current_range_meters":4800,"station_id":"ce4bgj92rcd13ifvqbd0","pricing_plan_id":"cebpf4jnsgd1na2vs0mg"},{"bike_id":"fbc6a8a0-5807-4511-9b3c-5c3d96fb00e0","system_id":"levelo_inurba_marseille","lat":43.295279,"lon":5.375048,"is_reserved":false,"is_disabled":false,"rental_uris":{"android":"levelo://app?vid=fbc6a8a0-5807-4511-9b3c-5c3d96fb00e0","ios":"levelo://app?vid=fbc6a8a0-5807-4511-9b3c-5c3d96fb00e0"},"vehicle_type_id":"4","last_reported":1713978515,"current_range_meters":24000,"station_id":"ce4bgkp2rcd13ifvqbmg","pricing_plan_id":"cebpf4jnsgd1na2vs0mg"},{"bike_id":"289b0baa-6260-4ef5-b01a-209600a18b3f","system_id":"levelo_inurba_marseille","lat":43.29978,"lon":5.38498,"is_reserved":false,"is_disabled":false,"rental_uris":{"android":"levelo://app?vid=289b0baa-6260-4ef5-b01a-209600a18b3f","ios":"levelo://app?vid=289b0baa-6260-4ef5-b01a-209600a18b3f"},"vehicle_type_id":"4","last_reported":1713978515,"current_range_meters":28400,"station_id":"ce4bgj92rcd13ifvqbd0","pricing_plan_id":"cebpf4jnsgd1na2vs0mg"},{"bike_id":"aa773e96-5b6a-4bfe-ad52-5205679566ea","system_id":"levelo_inurba_marseille","lat":43.298037,"lon":5.381066,"is_reserved":false,"is_disabled":false,"rental_uris":{"android":"levelo://app?vid=aa773e96-5b6a-4bfe-ad52-5205679566ea","ios":"levelo://app?vid=aa773e96-5b6a-4bfe-ad52-5205679566ea"},"vehicle_type_id":"4","last_reported":1713978515,"current_range_meters":26000,"station_id":"ce4bgip2rcd13ifvqbb0","pricing_plan_id":"cebpf4jnsgd1na2vs0mg"},{"bike_id":"e19b9c91-6fdf-449a-96ff-d60117d9a25f","system_id":"levelo_inurba_marseille","lat":43.299717,"lon":5.384845,"is_reserved":false,"is_disabled":false,"rental_uris":{"android":"levelo://app?vid=e19b9c91-6fdf-449a-96ff-d60117d9a25f","ios":"levelo://app?vid=e19b9c91-6fdf-449a-96ff-d60117d9a25f"},"vehicle_type_id":"4","last_reported":1713978515,"current_range_meters":16800,"station_id":"ce4bgj92rcd13ifvqbd0","pricing_plan_id":"cebpf4jnsgd1na2vs0mg"},{"bike_id":"19e66640-89f6-439d-93d0-d48228eac6cb","system_id":"levelo_inurba_marseille","lat":43.295,"lon":5.375122,"is_reserved":false,"is_disabled":false,"rental_uris":{"android":"levelo://app?vid=19e66640-89f6-439d-93d0-d48228eac6cb","ios":"levelo://app?vid=19e66640-89f6-439d-93d0-d48228eac6cb"},"vehicle_type_id":"4","last_reported":1713978515,"current_range_meters":25600,"station_id":"ce4bgkp2rcd13ifvqbmg","pricing_plan_id":"cebpf4jnsgd1na2vs0mg"},{"bike_id":"2e8cfebd-46e7-495b-9715-f35bdd0e280e","system_id":"levelo_inurba_marseille","lat":43.32367,"lon":5.388836,"is_reserved":false,"is_disabled":false,"rental_uris":{"android":"levelo://app?vid=2e8cfebd-46e7-495b-9715-f35bdd0e280e","ios":"levelo://app?vid=2e8cfebd-46e7-495b-9715-f35bdd0e280e"},"vehicle_type_id":"4","last_reported":1713978515,"current_range_meters":12400,"station_id":"ce4bhqp2rcd13ifvqhog","pricing_plan_id":"cebpf4jnsgd1na2vs0mg"},{"bike_id":"6eee273b-f2f7-42a7-b189-a5b0926a269f","system_id":"levelo_inurba_marseille","lat":43.32367,"lon":5.388836,"is_reserved":false,"is_disabled":false,"rental_uris":{"android":"levelo://app?vid=6eee273b-f2f7-42a7-b189-a5b0926a269f","ios":"levelo://app?vid=6eee273b-f2f7-42a7-b189-a5b0926a269f"},"vehicle_type_id":"4","last_reported":1713978515,"current_range_meters":800,"station_id":"ce4bhqp2rcd13ifvqhog","pricing_plan_id":"cebpf4jnsgd1na2vs0mg"},{"bike_id":"d4d3cd4e-b54f-4a3c-95e6-c055b4a45477","system_id":"levelo_inurba_marseille","lat":43.29602,"lon":5.381084,"is_reserved":false,"is_disabled":false,"rental_uris":{"android":"levelo://app?vid=d4d3cd4e-b54f-4a3c-95e6-c055b4a45477","ios":"levelo://app?vid=d4d3cd4e-b54f-4a3c-95e6-c055b4a45477"},"vehicle_type_id":"4","last_reported":1713978515,"current_range_meters":3600,"station_id":"ce4bgl12rcd13ifvqbo0","pricing_plan_id":"cebpf4jnsgd1na2vs0mg"},{"bike_id":"c2b97f62-93cc-4154-9011-aae5ef0b2b27","system_id":"levelo_inurba_marseille","lat":43.29602,"lon":5.381084,"is_reserved":false,"is_disabled":false,"rental_uris":{"android":"levelo://app?vid=c2b97f62-93cc-4154-9011-aae5ef0b2b27","ios":"levelo://app?vid=c2b97f62-93cc-4154-9011-aae5ef0b2b27"},"vehicle_type_id":"4","last_reported":1713978515,"current_range_meters":21200,"station_id":"ce4bgl12rcd13ifvqbo0","pricing_plan_id":"cebpf4jnsgd1na2vs0mg"},{"bike_id":"85369fab-5361-4621-acca-816e90dde4e4","system_id":"levelo_inurba_marseille","lat":43.29602,"lon":5.381084,"is_reserved":false,"is_disabled":false,"rental_uris":{"android":"levelo://app?vid=85369fab-5361-4621-acca-816e90dde4e4","ios":"levelo://app?vid=85369fab-5361-4621-acca-816e90dde4e4"},"vehicle_type_id":"4","last_reported":1713978515,"current_range_meters":1600,"station_id":"ce4bgl12rcd13ifvqbo0","pricing_plan_id":"cebpf4jnsgd1na2vs0mg"},{"bike_id":"56fd8944-8b42-4293-9f9a-0f5fd3be16c1","system_id":"levelo_inurba_marseille","lat":43.29602,"lon":5.381084,"is_reserved":false,"is_disabled":false,"rental_uris":{"android":"levelo://app?vid=56fd8944-8b42-4293-9f9a-0f5fd3be16c1","ios":"levelo://app?vid=56fd8944-8b42-4293-9f9a-0f5fd3be16c1"},"vehicle_type_id":"4","last_reported":1713978515,"current_range_meters":21600,"station_id":"ce4bgl12rcd13ifvqbo0","pricing_plan_id":"cebpf4jnsgd1na2vs0mg"},{"bike_id":"1ea552f9-bf6f-4b98-ab77-3d787dc31a35","system_id":"levelo_inurba_marseille","lat":43.293259,"lon":5.371586,"is_reserved":false,"is_disabled":false,"rental_uris":{"android":"levelo://app?vid=1ea552f9-bf6f-4b98-ab77-3d787dc31a35","ios":"levelo://app?vid=1ea552f9-bf6f-4b98-ab77-3d787dc31a35"},"vehicle_type_id":"4","last_reported":1713978515,"current_range_meters":28400,"station_id":"ce4bgh92rcd13ifvqb40","pricing_plan_id":"cebpf4jnsgd1na2vs0mg"},{"bike_id":"2c45533d-824e-49fb-8456-88f71d8c99a1","system_id":"levelo_inurba_marseille","lat":43.293259,"lon":5.371586,"is_reserved":false,"is_disabled":false,"rental_uris":{"android":"levelo://app?vid=2c45533d-824e-49fb-8456-88f71d8c99a1","ios":"levelo://app?vid=2c45533d-824e-49fb-8456-88f71d8c99a1"},"vehicle_type_id":"4","last_reported":1713978515,"current_range_meters":18800,"station_id":"ce4bgh92rcd13ifvqb40","pricing_plan_id":"cebpf4jnsgd1na2vs0mg"},{"bike_id":"d63c03b9-edc0-43bd-843d-91f0556eed6a","system_id":"levelo_inurba_marseille","lat":43.293259,"lon":5.371586,"is_reserved":false,"is_disabled":false,"rental_uris":{"android":"levelo://app?vid=d63c03b9-edc0-43bd-843d-91f0556eed6a","ios":"levelo://app?vid=d63c03b9-edc0-43bd-843d-91f0556eed6a"},"vehicle_type_id":"4","last_reported":1713978515,"current_range_meters":27200,"station_id":"ce4bgh92rcd13ifvqb40","pricing_plan_id":"cebpf4jnsgd1na2vs0mg"},{"bike_id":"bb649af1-398c-4839-9d2d-aac3a2c29e9d","system_id":"levelo_inurba_marseille","lat":43.293259,"lon":5.371586,"is_reserved":false,"is_disabled":false,"rental_uris":{"android":"levelo://app?vid=bb649af1-398c-4839-9d2d-aac3a2c29e9d","ios":"levelo://app?vid=bb649af1-398c-4839-9d2d-aac3a2c29e9d"},"vehicle_type_id":"4","last_reported":1713978515,"current_range_meters":4800,"station_id":"ce4bgh92rcd13ifvqb40","pricing_plan_id":"cebpf4jnsgd1na2vs0mg"},{"bike_id":"353e0612-5eb0-4d7d-a064-5f3ef6dc9af9","system_id":"levelo_inurba_marseille","lat":43.293259,"lon":5.371586,"is_reserved":false,"is_disabled":false,"rental_uris":{"android":"levelo://app?vid=353e0612-5eb0-4d7d-a064-5f3ef6dc9af9","ios":"levelo://app?vid=353e0612-5eb0-4d7d-a064-5f3ef6dc9af9"},"vehicle_type_id":"4","last_reported":1713978515,"current_range_meters":400,"station_id":"ce4bgh92rcd13ifvqb40","pricing_plan_id":"cebpf4jnsgd1na2vs0mg"},{"bike_id":"9876ba6a-f557-49c6-afe9-d3a2a8215ef8","system_id":"levelo_inurba_marseille","lat":43.293133,"lon":5.371907,"is_reserved":false,"is_disabled":false,"rental_uris":{"android":"levelo://app?vid=9876ba6a-f557-49c6-afe9-d3a2a8215ef8","ios":"levelo://app?vid=9876ba6a-f557-49c6-afe9-d3a2a8215ef8"},"vehicle_type_id":"4","last_reported":1713978515,"current_range_meters":14800,"station_id":"ce4bgh92rcd13ifvqb40","pricing_plan_id":"cebpf4jnsgd1na2vs0mg"},{"bike_id":"e8f5e7cf-038a-4fca-af4b-3f807bea875f","system_id":"levelo_inurba_marseille","lat":43.293259,"lon":5.371586,"is_reserved":false,"is_disabled":false,"rental_uris":{"android":"levelo://app?vid=e8f5e7cf-038a-4fca-af4b-3f807bea875f","ios":"levelo://app?vid=e8f5e7cf-038a-4fca-af4b-3f807bea875f"},"vehicle_type_id":"4","last_reported":1713978515,"current_range_meters":9200,"station_id":"ce4bgh92rcd13ifvqb40","pricing_plan_id":"cebpf4jnsgd1na2vs0mg"},{"bike_id":"b851b885-93d2-40ec-84da-9230916ef864","system_id":"levelo_inurba_marseille","lat":43.292749,"lon":5.368398,"is_reserved":false,"is_disabled":false,"rental_uris":{"android":"levelo://app?vid=b851b885-93d2-40ec-84da-9230916ef864","ios":"levelo://app?vid=b851b885-93d2-40ec-84da-9230916ef864"},"vehicle_type_id":"4","last_reported":1713978515,"current_range_meters":16400,"station_id":"ce4bhbp2rcd13ifvqesg","pricing_plan_id":"cebpf4jnsgd1na2vs0mg"},{"bike_id":"79b7ae42-2469-41cc-b049-d2e41181d368","system_id":"levelo_inurba_marseille","lat":43.293259,"lon":5.371586,"is_reserved":false,"is_disabled":false,"rental_uris":{"android":"levelo://app?vid=79b7ae42-2469-41cc-b049-d2e41181d368","ios":"levelo://app?vid=79b7ae42-2469-41cc-b049-d2e41181d368"},"vehicle_type_id":"4","last_reported":1713978515,"current_range_meters":8400,"station_id":"ce4bgh92rcd13ifvqb40","pricing_plan_id":"cebpf4jnsgd1na2vs0mg"},{"bike_id":"002a3e1a-e5da-4dca-8c7b-345f689b81ab","system_id":"levelo_inurba_marseille","lat":43.293259,"lon":5.371586,"is_reserved":false,"is_disabled":false,"rental_uris":{"android":"levelo://app?vid=002a3e1a-e5da-4dca-8c7b-345f689b81ab","ios":"levelo://app?vid=002a3e1a-e5da-4dca-8c7b-345f689b81ab"},"vehicle_type_id":"4","last_reported":1713978515,"current_range_meters":15200,"station_id":"ce4bgh92rcd13ifvqb40","pricing_plan_id":"cebpf4jnsgd1na2vs0mg"},{"bike_id":"2775e294-d3cf-4341-a2a0-059a7ff281a9","system_id":"levelo_inurba_marseille","lat":43.293259,"lon":5.371586,"is_reserved":false,"is_disabled":false,"rental_uris":{"android":"levelo://app?vid=2775e294-d3cf-4341-a2a0-059a7ff281a9","ios":"levelo://app?vid=2775e294-d3cf-4341-a2a0-059a7ff281a9"},"vehicle_type_id":"4","last_reported":1713978515,"current_range_meters":23600,"station_id":"ce4bgh92rcd13ifvqb40","pricing_plan_id":"cebpf4jnsgd1na2vs0mg"},{"bike_id":"3190e011-9d54-48c3-8df4-24c375041388","system_id":"levelo_inurba_marseille","lat":43.292749,"lon":5.368402,"is_reserved":false,"is_disabled":false,"rental_uris":{"android":"levelo://app?vid=3190e011-9d54-48c3-8df4-24c375041388","ios":"levelo://app?vid=3190e011-9d54-48c3-8df4-24c375041388"},"vehicle_type_id":"4","last_reported":1713978515,"current_range_meters":23200,"station_id":"ce4bhbp2rcd13ifvqesg","pricing_plan_id":"cebpf4jnsgd1na2vs0mg"},{"bike_id":"548cc188-851f-4166-9a33-7843293c8e4d","system_id":"levelo_inurba_marseille","lat":43.293009,"lon":5.374584,"is_reserved":false,"is_disabled":false,"rental_uris":{"android":"levelo://app?vid=548cc188-851f-4166-9a33-7843293c8e4d","ios":"levelo://app?vid=548cc188-851f-4166-9a33-7843293c8e4d"},"vehicle_type_id":"4","last_reported":1713978515,"current_range_meters":20400,"station_id":"ce4bgi12rcd13ifvqb70","pricing_plan_id":"cebpf4jnsgd1na2vs0mg"},{"bike_id":"6646a119-2f98-4b40-83bb-2ea53a107cf5","system_id":"levelo_inurba_marseille","lat":43.293259,"lon":5.371586,"is_reserved":false,"is_disabled":false,"rental_uris":{"android":"levelo://app?vid=6646a119-2f98-4b40-83bb-2ea53a107cf5","ios":"levelo://app?vid=6646a119-2f98-4b40-83bb-2ea53a107cf5"},"vehicle_type_id":"4","last_reported":1713978515,"current_range_meters":6000,"station_id":"ce4bgh92rcd13ifvqb40","pricing_plan_id":"cebpf4jnsgd1na2vs0mg"},{"bike_id":"adcfac25-0054-490b-8fba-619add2b7fc3","system_id":"levelo_inurba_marseille","lat":43.293009,"lon":5.374584,"is_reserved":false,"is_disabled":false,"rental_uris":{"android":"levelo://app?vid=adcfac25-0054-490b-8fba-619add2b7fc3","ios":"levelo://app?vid=adcfac25-0054-490b-8fba-619add2b7fc3"},"vehicle_type_id":"4","last_reported":1713978515,"current_range_meters":10400,"station_id":"ce4bgi12rcd13ifvqb70","pricing_plan_id":"cebpf4jnsgd1na2vs0mg"},{"bike_id":"1194c5c6-a8ab-477d-a31d-2cd5ae2ba017","system_id":"levelo_inurba_marseille","lat":43.305994,"lon":5.393687,"is_reserved":false,"is_disabled":false,"rental_uris":{"android":"levelo://app?vid=1194c5c6-a8ab-477d-a31d-2cd5ae2ba017","ios":"levelo://app?vid=1194c5c6-a8ab-477d-a31d-2cd5ae2ba017"},"vehicle_type_id":"4","last_reported":1713978515,"current_range_meters":14800,"station_id":"ce4bh0p2rcd13ifvqd80","pricing_plan_id":"cebpf4jnsgd1na2vs0mg"},{"bike_id":"0315000c-0521-4ee2-839a-c50d864b717a","system_id":"levelo_inurba_marseille","lat":43.306005,"lon":5.393536,"is_reserved":false,"is_disabled":false,"rental_uris":{"android":"levelo://app?vid=0315000c-0521-4ee2-839a-c50d864b717a","ios":"levelo://app?vid=0315000c-0521-4ee2-839a-c50d864b717a"},"vehicle_type_id":"4","last_reported":1713978515,"current_range_meters":26400,"station_id":"ce4bh0p2rcd13ifvqd80","pricing_plan_id":"cebpf4jnsgd1na2vs0mg"},{"bike_id":"580a1597-648c-4e99-9796-08cca16171ab","system_id":"levelo_inurba_marseille","lat":43.289184,"lon":5.366408,"is_reserved":false,"is_disabled":false,"rental_uris":{"android":"levelo://app?vid=580a1597-648c-4e99-9796-08cca16171ab","ios":"levelo://app?vid=580a1597-648c-4e99-9796-08cca16171ab"},"vehicle_type_id":"4","last_reported":1713978515,"current_range_meters":30400,"station_id":"ce4bhap2rcd13ifvqek0","pricing_plan_id":"cebpf4jnsgd1na2vs0mg"},{"bike_id":"c510381c-e526-443a-900f-087f9ee678c6","system_id":"levelo_inurba_marseille","lat":43.305994,"lon":5.393687,"is_reserved":false,"is_disabled":false,"rental_uris":{"android":"levelo://app?vid=c510381c-e526-443a-900f-087f9ee678c6","ios":"levelo://app?vid=c510381c-e526-443a-900f-087f9ee678c6"},"vehicle_type_id":"4","last_reported":1713978515,"current_range_meters":6000,"station_id":"ce4bh0p2rcd13ifvqd80","pricing_plan_id":"cebpf4jnsgd1na2vs0mg"},{"bike_id":"be03a79c-b1a8-44da-9b67-267e8855e5c1","system_id":"levelo_inurba_marseille","lat":43.300852,"lon":5.390859,"is_reserved":false,"is_disabled":false,"rental_uris":{"android":"levelo://app?vid=be03a79c-b1a8-44da-9b67-267e8855e5c1","ios":"levelo://app?vid=be03a79c-b1a8-44da-9b67-267e8855e5c1"},"vehicle_type_id":"4","last_reported":1713978515,"current_range_meters":21200,"station_id":"ce4bh192rcd13ifvqdb0","pricing_plan_id":"cebpf4jnsgd1na2vs0mg"},{"bike_id":"21670e36-40df-4607-92cb-877d17bc4907","system_id":"levelo_inurba_marseille","lat":43.302992,"lon":5.392136,"is_reserved":false,"is_disabled":false,"rental_uris":{"android":"levelo://app?vid=21670e36-40df-4607-92cb-877d17bc4907","ios":"levelo://app?vid=21670e36-40df-4607-92cb-877d17bc4907"},"vehicle_type_id":"4","last_reported":1713978515,"current_range_meters":15200,"station_id":"ce4bgkh2rcd13ifvqbk0","pricing_plan_id":"cebpf4jnsgd1na2vs0mg"},{"bike_id":"d53f01da-d77b-43e3-aeff-574821cd4851","system_id":"levelo_inurba_marseille","lat":43.2936,"lon":5.37835,"is_reserved":false,"is_disabled":false,"rental_uris":{"android":"levelo://app?vid=d53f01da-d77b-43e3-aeff-574821cd4851","ios":"levelo://app?vid=d53f01da-d77b-43e3-aeff-574821cd4851"},"vehicle_type_id":"4","last_reported":1713978515,"current_range_meters":6000,"station_id":"ce4bgjh2rcd13ifvqbf0","pricing_plan_id":"cebpf4jnsgd1na2vs0mg"},{"bike_id":"52c66e1e-96fc-4b38-a8b0-50ec49921ab4","system_id":"levelo_inurba_marseille","lat":43.316821,"lon":5.404737,"is_reserved":false,"is_disabled":false,"rental_uris":{"android":"levelo://app?vid=52c66e1e-96fc-4b38-a8b0-50ec49921ab4","ios":"levelo://app?vid=52c66e1e-96fc-4b38-a8b0-50ec49921ab4"},"vehicle_type_id":"4","last_reported":1713978515,"current_range_meters":16800,"station_id":"ce4bh012rcd13ifvqd00","pricing_plan_id":"cebpf4jnsgd1na2vs0mg"},{"bike_id":"fdab3b40-3a4b-4e0a-8372-ee86948eb7d4","system_id":"levelo_inurba_marseille","lat":43.29529,"lon":5.385581,"is_reserved":false,"is_disabled":false,"rental_uris":{"android":"levelo://app?vid=fdab3b40-3a4b-4e0a-8372-ee86948eb7d4","ios":"levelo://app?vid=fdab3b40-3a4b-4e0a-8372-ee86948eb7d4"},"vehicle_type_id":"4","last_reported":1713978515,"current_range_meters":22000,"station_id":"ce4bgih2rcd13ifvqba0","pricing_plan_id":"cebpf4jnsgd1na2vs0mg"},{"bike_id":"7aef936c-4955-4ed3-9cfb-1e4118fcfa33","system_id":"levelo_inurba_marseille","lat":43.305994,"lon":5.393687,"is_reserved":false,"is_disabled":false,"rental_uris":{"android":"levelo://app?vid=7aef936c-4955-4ed3-9cfb-1e4118fcfa33","ios":"levelo://app?vid=7aef936c-4955-4ed3-9cfb-1e4118fcfa33"},"vehicle_type_id":"4","last_reported":1713978515,"current_range_meters":19200,"station_id":"ce4bh0p2rcd13ifvqd80","pricing_plan_id":"cebpf4jnsgd1na2vs0mg"},{"bike_id":"05d20577-2776-4720-ad26-7bfa26a2ba50","system_id":"levelo_inurba_marseille","lat":43.300852,"lon":5.390859,"is_reserved":false,"is_disabled":false,"rental_uris":{"android":"levelo://app?vid=05d20577-2776-4720-ad26-7bfa26a2ba50","ios":"levelo://app?vid=05d20577-2776-4720-ad26-7bfa26a2ba50"},"vehicle_type_id":"4","last_reported":1713978515,"current_range_meters":12400,"station_id":"ce4bh192rcd13ifvqdb0","pricing_plan_id":"cebpf4jnsgd1na2vs0mg"},{"bike_id":"64a875f7-1257-415d-a068-66636ed186ea","system_id":"levelo_inurba_marseille","lat":43.300852,"lon":5.390859,"is_reserved":false,"is_disabled":false,"rental_uris":{"android":"levelo://app?vid=64a875f7-1257-415d-a068-66636ed186ea","ios":"levelo://app?vid=64a875f7-1257-415d-a068-66636ed186ea"},"vehicle_type_id":"4","last_reported":1713978515,"current_range_meters":25600,"station_id":"ce4bh192rcd13ifvqdb0","pricing_plan_id":"cebpf4jnsgd1na2vs0mg"},{"bike_id":"0a8f6780-585b-4a60-ae9c-33420959a7d9","system_id":"levelo_inurba_marseille","lat":43.300852,"lon":5.390859,"is_reserved":false,"is_disabled":false,"rental_uris":{"android":"levelo://app?vid=0a8f6780-585b-4a60-ae9c-33420959a7d9","ios":"levelo://app?vid=0a8f6780-585b-4a60-ae9c-33420959a7d9"},"vehicle_type_id":"4","last_reported":1713978515,"current_range_meters":8000,"station_id":"ce4bh192rcd13ifvqdb0","pricing_plan_id":"cebpf4jnsgd1na2vs0mg"},{"bike_id":"c966738e-de65-42ac-b01e-e7a0af8a0099","system_id":"levelo_inurba_marseille","lat":43.300912,"lon":5.390778,"is_reserved":false,"is_disabled":false,"rental_uris":{"android":"levelo://app?vid=c966738e-de65-42ac-b01e-e7a0af8a0099","ios":"levelo://app?vid=c966738e-de65-42ac-b01e-e7a0af8a0099"},"vehicle_type_id":"4","last_reported":1713978515,"current_range_meters":20000,"station_id":"ce4bh192rcd13ifvqdb0","pricing_plan_id":"cebpf4jnsgd1na2vs0mg"},{"bike_id":"bd2de9f1-76eb-4954-9f42-81edbb9d81df","system_id":"levelo_inurba_marseille","lat":43.30085,"lon":5.390856,"is_reserved":false,"is_disabled":false,"rental_uris":{"android":"levelo://app?vid=bd2de9f1-76eb-4954-9f42-81edbb9d81df","ios":"levelo://app?vid=bd2de9f1-76eb-4954-9f42-81edbb9d81df"},"vehicle_type_id":"4","last_reported":1713978515,"current_range_meters":0,"station_id":"ce4bh192rcd13ifvqdb0","pricing_plan_id":"cebpf4jnsgd1na2vs0mg"},{"bike_id":"d74bac33-ad2b-4cd0-ad25-9af6b4801911","system_id":"levelo_inurba_marseille","lat":43.293009,"lon":5.374584,"is_reserved":false,"is_disabled":false,"rental_uris":{"android":"levelo://app?vid=d74bac33-ad2b-4cd0-ad25-9af6b4801911","ios":"levelo://app?vid=d74bac33-ad2b-4cd0-ad25-9af6b4801911"},"vehicle_type_id":"4","last_reported":1713978515,"current_range_meters":2400,"station_id":"ce4bgi12rcd13ifvqb70","pricing_plan_id":"cebpf4jnsgd1na2vs0mg"},{"bike_id":"2209ce3e-2543-4701-907b-8c75a3560e92","system_id":"levelo_inurba_marseille","lat":43.291671,"lon":5.371575,"is_reserved":false,"is_disabled":false,"rental_uris":{"android":"levelo://app?vid=2209ce3e-2543-4701-907b-8c75a3560e92","ios":"levelo://app?vid=2209ce3e-2543-4701-907b-8c75a3560e92"},"vehicle_type_id":"4","last_reported":1713978515,"current_range_meters":10000,"station_id":"ce4bha92rcd13ifvqeh0","pricing_plan_id":"cebpf4jnsgd1na2vs0mg"},{"bike_id":"11119918-b667-46d4-b33f-18eb669e2c48","system_id":"levelo_inurba_marseille","lat":43.30085,"lon":5.390856,"is_reserved":false,"is_disabled":false,"rental_uris":{"android":"levelo://app?vid=11119918-b667-46d4-b33f-18eb669e2c48","ios":"levelo://app?vid=11119918-b667-46d4-b33f-18eb669e2c48"},"vehicle_type_id":"4","last_reported":1713978515,"current_range_meters":26400,"station_id":"ce4bh192rcd13ifvqdb0","pricing_plan_id":"cebpf4jnsgd1na2vs0mg"},{"bike_id":"812ae96e-d1a3-4433-acaa-4118defcc53f","system_id":"levelo_inurba_marseille","lat":43.298764,"lon":5.388973,"is_reserved":false,"is_disabled":false,"rental_uris":{"android":"levelo://app?vid=812ae96e-d1a3-4433-acaa-4118defcc53f","ios":"levelo://app?vid=812ae96e-d1a3-4433-acaa-4118defcc53f"},"vehicle_type_id":"4","last_reported":1713978515,"current_range_meters":25600,"station_id":"ce4bh392rcd13ifvqdl0","pricing_plan_id":"cebpf4jnsgd1na2vs0mg"},{"bike_id":"98a43146-e9fe-4468-a3df-2f39f959fae5","system_id":"levelo_inurba_marseille","lat":43.298764,"lon":5.388973,"is_reserved":false,"is_disabled":false,"rental_uris":{"android":"levelo://app?vid=98a43146-e9fe-4468-a3df-2f39f959fae5","ios":"levelo://app?vid=98a43146-e9fe-4468-a3df-2f39f959fae5"},"vehicle_type_id":"4","last_reported":1713978515,"current_range_meters":20000,"station_id":"ce4bh392rcd13ifvqdl0","pricing_plan_id":"cebpf4jnsgd1na2vs0mg"},{"bike_id":"1c9b5e4a-3f8f-47fd-a3d2-49ced7fcc7ae","system_id":"levelo_inurba_marseille","lat":43.29887,"lon":5.38905,"is_reserved":false,"is_disabled":false,"rental_uris":{"android":"levelo://app?vid=1c9b5e4a-3f8f-47fd-a3d2-49ced7fcc7ae","ios":"levelo://app?vid=1c9b5e4a-3f8f-47fd-a3d2-49ced7fcc7ae"},"vehicle_type_id":"4","last_reported":1713978515,"current_range_meters":12800,"station_id":"ce4bh392rcd13ifvqdl0","pricing_plan_id":"cebpf4jnsgd1na2vs0mg"},{"bike_id":"c7021719-7316-4037-908e-62d6cfd26306","system_id":"levelo_inurba_marseille","lat":43.29883,"lon":5.38903,"is_reserved":false,"is_disabled":false,"rental_uris":{"android":"levelo://app?vid=c7021719-7316-4037-908e-62d6cfd26306","ios":"levelo://app?vid=c7021719-7316-4037-908e-62d6cfd26306"},"vehicle_type_id":"4","last_reported":1713978515,"current_range_meters":3600,"station_id":"ce4bh392rcd13ifvqdl0","pricing_plan_id":"cebpf4jnsgd1na2vs0mg"},{"bike_id":"7e141e3b-22ad-4d57-9ef2-7df34c90b2e9","system_id":"levelo_inurba_marseille","lat":43.291671,"lon":5.371575,"is_reserved":false,"is_disabled":false,"rental_uris":{"android":"levelo://app?vid=7e141e3b-22ad-4d57-9ef2-7df34c90b2e9","ios":"levelo://app?vid=7e141e3b-22ad-4d57-9ef2-7df34c90b2e9"},"vehicle_type_id":"4","last_reported":1713978515,"current_range_meters":8800,"station_id":"ce4bha92rcd13ifvqeh0","pricing_plan_id":"cebpf4jnsgd1na2vs0mg"},{"bike_id":"e4a2f833-d1b7-49a7-94e9-386f8d2235ee","system_id":"levelo_inurba_marseille","lat":43.29885,"lon":5.38907,"is_reserved":false,"is_disabled":false,"rental_uris":{"android":"levelo://app?vid=e4a2f833-d1b7-49a7-94e9-386f8d2235ee","ios":"levelo://app?vid=e4a2f833-d1b7-49a7-94e9-386f8d2235ee"},"vehicle_type_id":"4","last_reported":1713978515,"current_range_meters":21200,"station_id":"ce4bh392rcd13ifvqdl0","pricing_plan_id":"cebpf4jnsgd1na2vs0mg"},{"bike_id":"e7453f34-e1d5-4fe4-9df6-47281bee97c6","system_id":"levelo_inurba_marseille","lat":43.298764,"lon":5.388973,"is_reserved":false,"is_disabled":false,"rental_uris":{"android":"levelo://app?vid=e7453f34-e1d5-4fe4-9df6-47281bee97c6","ios":"levelo://app?vid=e7453f34-e1d5-4fe4-9df6-47281bee97c6"},"vehicle_type_id":"4","last_reported":1713978515,"current_range_meters":2000,"station_id":"ce4bh392rcd13ifvqdl0","pricing_plan_id":"cebpf4jnsgd1na2vs0mg"},{"bike_id":"f748ddbc-3406-4ab7-b3a5-814f112a2aa2","system_id":"levelo_inurba_marseille","lat":43.298764,"lon":5.388973,"is_reserved":false,"is_disabled":false,"rental_uris":{"android":"levelo://app?vid=f748ddbc-3406-4ab7-b3a5-814f112a2aa2","ios":"levelo://app?vid=f748ddbc-3406-4ab7-b3a5-814f112a2aa2"},"vehicle_type_id":"4","last_reported":1713978515,"current_range_meters":11600,"station_id":"ce4bh392rcd13ifvqdl0","pricing_plan_id":"cebpf4jnsgd1na2vs0mg"},{"bike_id":"220a4ea8-ba1b-4d81-9e69-a8d383013435","system_id":"levelo_inurba_marseille","lat":43.298764,"lon":5.388973,"is_reserved":false,"is_disabled":false,"rental_uris":{"android":"levelo://app?vid=220a4ea8-ba1b-4d81-9e69-a8d383013435","ios":"levelo://app?vid=220a4ea8-ba1b-4d81-9e69-a8d383013435"},"vehicle_type_id":"4","last_reported":1713978515,"current_range_meters":16000,"station_id":"ce4bh392rcd13ifvqdl0","pricing_plan_id":"cebpf4jnsgd1na2vs0mg"},{"bike_id":"a87a1b06-60f5-41a1-a3c1-5d939352ad5f","system_id":"levelo_inurba_marseille","lat":43.298764,"lon":5.388973,"is_reserved":false,"is_disabled":false,"rental_uris":{"android":"levelo://app?vid=a87a1b06-60f5-41a1-a3c1-5d939352ad5f","ios":"levelo://app?vid=a87a1b06-60f5-41a1-a3c1-5d939352ad5f"},"vehicle_type_id":"4","last_reported":1713978515,"current_range_meters":0,"station_id":"ce4bh392rcd13ifvqdl0","pricing_plan_id":"cebpf4jnsgd1na2vs0mg"},{"bike_id":"3c956c24-d10a-4f5b-9ffd-3bf9297db600","system_id":"levelo_inurba_marseille","lat":43.29883,"lon":5.38908,"is_reserved":false,"is_disabled":false,"rental_uris":{"android":"levelo://app?vid=3c956c24-d10a-4f5b-9ffd-3bf9297db600","ios":"levelo://app?vid=3c956c24-d10a-4f5b-9ffd-3bf9297db600"},"vehicle_type_id":"4","last_reported":1713978515,"current_range_meters":15200,"station_id":"ce4bh392rcd13ifvqdl0","pricing_plan_id":"cebpf4jnsgd1na2vs0mg"},{"bike_id":"b12f3281-afa6-4224-a4a9-3ac6699cc6ba","system_id":"levelo_inurba_marseille","lat":43.291671,"lon":5.371575,"is_reserved":false,"is_disabled":false,"rental_uris":{"android":"levelo://app?vid=b12f3281-afa6-4224-a4a9-3ac6699cc6ba","ios":"levelo://app?vid=b12f3281-afa6-4224-a4a9-3ac6699cc6ba"},"vehicle_type_id":"4","last_reported":1713978515,"current_range_meters":17200,"station_id":"ce4bha92rcd13ifvqeh0","pricing_plan_id":"cebpf4jnsgd1na2vs0mg"},{"bike_id":"8f13dd4f-c5d7-4ce0-b70d-fd18ec5b0936","system_id":"levelo_inurba_marseille","lat":43.291671,"lon":5.371575,"is_reserved":false,"is_disabled":false,"rental_uris":{"android":"levelo://app?vid=8f13dd4f-c5d7-4ce0-b70d-fd18ec5b0936","ios":"levelo://app?vid=8f13dd4f-c5d7-4ce0-b70d-fd18ec5b0936"},"vehicle_type_id":"4","last_reported":1713978515,"current_range_meters":28000,"station_id":"ce4bha92rcd13ifvqeh0","pricing_plan_id":"cebpf4jnsgd1na2vs0mg"},{"bike_id":"8c8a12df-1436-48a7-8a51-953bca9ee61e","system_id":"levelo_inurba_marseille","lat":43.29529,"lon":5.385581,"is_reserved":false,"is_disabled":false,"rental_uris":{"android":"levelo://app?vid=8c8a12df-1436-48a7-8a51-953bca9ee61e","ios":"levelo://app?vid=8c8a12df-1436-48a7-8a51-953bca9ee61e"},"vehicle_type_id":"4","last_reported":1713978515,"current_range_meters":24400,"station_id":"ce4bgih2rcd13ifvqba0","pricing_plan_id":"cebpf4jnsgd1na2vs0mg"},{"bike_id":"3abefe89-f5a0-4803-a466-95ddc2cf9b0a","system_id":"levelo_inurba_marseille","lat":43.29874,"lon":5.38904,"is_reserved":false,"is_disabled":false,"rental_uris":{"android":"levelo://app?vid=3abefe89-f5a0-4803-a466-95ddc2cf9b0a","ios":"levelo://app?vid=3abefe89-f5a0-4803-a466-95ddc2cf9b0a"},"vehicle_type_id":"4","last_reported":1713978515,"current_range_meters":10800,"station_id":"ce4bh392rcd13ifvqdl0","pricing_plan_id":"cebpf4jnsgd1na2vs0mg"},{"bike_id":"9201c34a-b8f4-487f-ab3a-32b931bdc3c0","system_id":"levelo_inurba_marseille","lat":43.291671,"lon":5.371575,"is_reserved":false,"is_disabled":false,"rental_uris":{"android":"levelo://app?vid=9201c34a-b8f4-487f-ab3a-32b931bdc3c0","ios":"levelo://app?vid=9201c34a-b8f4-487f-ab3a-32b931bdc3c0"},"vehicle_type_id":"4","last_reported":1713978515,"current_range_meters":7600,"station_id":"ce4bha92rcd13ifvqeh0","pricing_plan_id":"cebpf4jnsgd1na2vs0mg"},{"bike_id":"6c035599-2554-4113-9020-4e3866c65c4c","system_id":"levelo_inurba_marseille","lat":43.291671,"lon":5.371575,"is_reserved":false,"is_disabled":false,"rental_uris":{"android":"levelo://app?vid=6c035599-2554-4113-9020-4e3866c65c4c","ios":"levelo://app?vid=6c035599-2554-4113-9020-4e3866c65c4c"},"vehicle_type_id":"4","last_reported":1713978515,"current_range_meters":9600,"station_id":"ce4bha92rcd13ifvqeh0","pricing_plan_id":"cebpf4jnsgd1na2vs0mg"},{"bike_id":"474c909d-1018-4cd5-93b0-02921d768335","system_id":"levelo_inurba_marseille","lat":43.30898,"lon":5.39597,"is_reserved":false,"is_disabled":false,"rental_uris":{"android":"levelo://app?vid=474c909d-1018-4cd5-93b0-02921d768335","ios":"levelo://app?vid=474c909d-1018-4cd5-93b0-02921d768335"},"vehicle_type_id":"4","last_reported":1713978515,"current_range_meters":17200,"station_id":"ce4bh012rcd13ifvqcv0","pricing_plan_id":"cebpf4jnsgd1na2vs0mg"},{"bike_id":"b16389dc-5033-4df4-b7c8-e88b83722a58","system_id":"levelo_inurba_marseille","lat":43.29203,"lon":5.35886,"is_reserved":false,"is_disabled":false,"rental_uris":{"android":"levelo://app?vid=b16389dc-5033-4df4-b7c8-e88b83722a58","ios":"levelo://app?vid=b16389dc-5033-4df4-b7c8-e88b83722a58"},"vehicle_type_id":"4","last_reported":1713978515,"current_range_meters":17600,"station_id":"","pricing_plan_id":"cebpf4jnsgd1na2vs0mg"},{"bike_id":"e2397925-7676-4692-8901-d440c077a4c9","system_id":"levelo_inurba_marseille","lat":43.309038,"lon":5.396546,"is_reserved":false,"is_disabled":false,"rental_uris":{"android":"levelo://app?vid=e2397925-7676-4692-8901-d440c077a4c9","ios":"levelo://app?vid=e2397925-7676-4692-8901-d440c077a4c9"},"vehicle_type_id":"4","last_reported":1713978515,"current_range_meters":31600,"station_id":"ce4bh012rcd13ifvqcv0","pricing_plan_id":"cebpf4jnsgd1na2vs0mg"},{"bike_id":"0b90223a-e9b8-4bcc-93b5-87b3d800070e","system_id":"levelo_inurba_marseille","lat":43.309047,"lon":5.396551,"is_reserved":false,"is_disabled":false,"rental_uris":{"android":"levelo://app?vid=0b90223a-e9b8-4bcc-93b5-87b3d800070e","ios":"levelo://app?vid=0b90223a-e9b8-4bcc-93b5-87b3d800070e"},"vehicle_type_id":"4","last_reported":1713978515,"current_range_meters":17200,"station_id":"ce4bh012rcd13ifvqcv0","pricing_plan_id":"cebpf4jnsgd1na2vs0mg"},{"bike_id":"2cbd2ea9-7736-4940-a3a7-061d8134a3ad","system_id":"levelo_inurba_marseille","lat":43.309038,"lon":5.396546,"is_reserved":false,"is_disabled":false,"rental_uris":{"android":"levelo://app?vid=2cbd2ea9-7736-4940-a3a7-061d8134a3ad","ios":"levelo://app?vid=2cbd2ea9-7736-4940-a3a7-061d8134a3ad"},"vehicle_type_id":"4","last_reported":1713978515,"current_range_meters":18800,"station_id":"ce4bh012rcd13ifvqcv0","pricing_plan_id":"cebpf4jnsgd1na2vs0mg"},{"bike_id":"6ce25560-1d26-449e-b614-dd640114ebaa","system_id":"levelo_inurba_marseille","lat":43.309047,"lon":5.396551,"is_reserved":false,"is_disabled":false,"rental_uris":{"android":"levelo://app?vid=6ce25560-1d26-449e-b614-dd640114ebaa","ios":"levelo://app?vid=6ce25560-1d26-449e-b614-dd640114ebaa"},"vehicle_type_id":"4","last_reported":1713978515,"current_range_meters":18400,"station_id":"ce4bh012rcd13ifvqcv0","pricing_plan_id":"cebpf4jnsgd1na2vs0mg"},{"bike_id":"ce79a8d5-3577-412c-a514-ab49adbdf09a","system_id":"levelo_inurba_marseille","lat":43.309038,"lon":5.396546,"is_reserved":false,"is_disabled":false,"rental_uris":{"android":"levelo://app?vid=ce79a8d5-3577-412c-a514-ab49adbdf09a","ios":"levelo://app?vid=ce79a8d5-3577-412c-a514-ab49adbdf09a"},"vehicle_type_id":"4","last_reported":1713978515,"current_range_meters":23200,"station_id":"ce4bh012rcd13ifvqcv0","pricing_plan_id":"cebpf4jnsgd1na2vs0mg"},{"bike_id":"b8a8d3ba-dfc5-4a35-b28d-aa75f897e30b","system_id":"levelo_inurba_marseille","lat":43.292005,"lon":5.357875,"is_reserved":false,"is_disabled":false,"rental_uris":{"android":"levelo://app?vid=b8a8d3ba-dfc5-4a35-b28d-aa75f897e30b","ios":"levelo://app?vid=b8a8d3ba-dfc5-4a35-b28d-aa75f897e30b"},"vehicle_type_id":"4","last_reported":1713978515,"current_range_meters":13600,"station_id":"ce4bhb12rcd13ifvqel0","pricing_plan_id":"cebpf4jnsgd1na2vs0mg"},{"bike_id":"574dad4e-72b7-4d3a-911e-681693b1c4c7","system_id":"levelo_inurba_marseille","lat":43.295169,"lon":5.390426,"is_reserved":false,"is_disabled":false,"rental_uris":{"android":"levelo://app?vid=574dad4e-72b7-4d3a-911e-681693b1c4c7","ios":"levelo://app?vid=574dad4e-72b7-4d3a-911e-681693b1c4c7"},"vehicle_type_id":"4","last_reported":1713978515,"current_range_meters":8000,"station_id":"ce4bh3p2rcd13ifvqdp0","pricing_plan_id":"cebpf4jnsgd1na2vs0mg"},{"bike_id":"49b07811-4533-4e13-bed3-510b00badefe","system_id":"levelo_inurba_marseille","lat":43.309047,"lon":5.396551,"is_reserved":false,"is_disabled":false,"rental_uris":{"android":"levelo://app?vid=49b07811-4533-4e13-bed3-510b00badefe","ios":"levelo://app?vid=49b07811-4533-4e13-bed3-510b00badefe"},"vehicle_type_id":"4","last_reported":1713978515,"current_range_meters":29200,"station_id":"ce4bh012rcd13ifvqcv0","pricing_plan_id":"cebpf4jnsgd1na2vs0mg"},{"bike_id":"646696a1-c0e9-4536-8dd5-b0b02627c756","system_id":"levelo_inurba_marseille","lat":43.30884,"lon":5.39633,"is_reserved":false,"is_disabled":false,"rental_uris":{"android":"levelo://app?vid=646696a1-c0e9-4536-8dd5-b0b02627c756","ios":"levelo://app?vid=646696a1-c0e9-4536-8dd5-b0b02627c756"},"vehicle_type_id":"4","last_reported":1713978515,"current_range_meters":24000,"station_id":"ce4bh012rcd13ifvqcv0","pricing_plan_id":"cebpf4jnsgd1na2vs0mg"},{"bike_id":"6a3e5ee4-3098-4985-9da5-c681d03fc84d","system_id":"levelo_inurba_marseille","lat":43.291994,"lon":5.357886,"is_reserved":false,"is_disabled":false,"rental_uris":{"android":"levelo://app?vid=6a3e5ee4-3098-4985-9da5-c681d03fc84d","ios":"levelo://app?vid=6a3e5ee4-3098-4985-9da5-c681d03fc84d"},"vehicle_type_id":"4","last_reported":1713978515,"current_range_meters":0,"station_id":"ce4bhb12rcd13ifvqel0","pricing_plan_id":"cebpf4jnsgd1na2vs0mg"},{"bike_id":"153e4fd2-46b8-4abf-9ea6-5db61c4071ed","system_id":"levelo_inurba_marseille","lat":43.291994,"lon":5.357886,"is_reserved":false,"is_disabled":false,"rental_uris":{"android":"levelo://app?vid=153e4fd2-46b8-4abf-9ea6-5db61c4071ed","ios":"levelo://app?vid=153e4fd2-46b8-4abf-9ea6-5db61c4071ed"},"vehicle_type_id":"4","last_reported":1713978515,"current_range_meters":20000,"station_id":"ce4bhb12rcd13ifvqel0","pricing_plan_id":"cebpf4jnsgd1na2vs0mg"},{"bike_id":"1a7b78bf-907e-4212-a7ba-acabfc8308b2","system_id":"levelo_inurba_marseille","lat":43.292005,"lon":5.357875,"is_reserved":false,"is_disabled":false,"rental_uris":{"android":"levelo://app?vid=1a7b78bf-907e-4212-a7ba-acabfc8308b2","ios":"levelo://app?vid=1a7b78bf-907e-4212-a7ba-acabfc8308b2"},"vehicle_type_id":"4","last_reported":1713978515,"current_range_meters":8400,"station_id":"ce4bhb12rcd13ifvqel0","pricing_plan_id":"cebpf4jnsgd1na2vs0mg"},