{"last_updated":1722985704,"ttl":30,"version":"2.2","data":{"bikes":[{"bike_id":"2f2d5965-1d00-49bf-9391-8d5b53a76703","system_id":"levelo_inurba_marseille","lat":43.31341,"lon":5.367098,"is_reserved":false,"is_disabled":false,"rental_uris":{"android":"levelo://app?vid=2f2d5965-1d00-49bf-9391-8d5b53a76703","ios":"levelo://app?vid=2f2d5965-1d00-49bf-9391-8d5b53a76703"},"vehicle_type_id":"4","last_reported":1722985704,"current_range_meters":15200,"station_id":"ce4bgr92rcd13ifvqc6g","pricing_plan_id":"cebpf4jnsgd1na2vs0mg"},{"bike_id":"ea1245c1-f67a-43a7-abab-36e729cd5a1a","system_id":"levelo_inurba_marseille","lat":43.312239,"lon":5.368562,"is_reserved":false,"is_disabled":false,"rental_uris":{"android":"levelo://app?vid=ea1245c1-f67a-43a7-abab-36e729cd5a1a","ios":"levelo://app?vid=ea1245c1-f67a-43a7-abab-36e729cd5a1a"},"vehicle_type_id":"4","last_reported":1722985704,"current_range_meters":10800,"station_id":"ce4bgl92rcd13ifvqbq0","pricing_plan_id":"cebpf4jnsgd1na2vs0mg"},{"bike_id":"5e931e0c-8d89-4172-8beb-3d145a1dbe6b","system_id":"levelo_inurba_marseille","lat":43.30917,"lon":5.36851,"is_reserved":false,"is_disabled":false,"rental_uris":{"android":"levelo://app?vid=5e931e0c-8d89-4172-8beb-3d145a1dbe6b","ios":"levelo://app?vid=5e931e0c-8d89-4172-8beb-3d145a1dbe6b"},"vehicle_type_id":"4","last_reported":1722985704,"current_range_meters":6800,"station_id":"ce4bgn92rcd13ifvqbvg","pricing_plan_id":"cebpf4jnsgd1na2vs0mg"},{"bike_id":"23e384f4-9c92-4d0f-b7e4-d19518bdf9af","system_id":"levelo_inurba_marseille","lat":43.314811,"lon":5.373103,"is_reserved":false,"is_disabled":false,"rental_uris":{"android":"levelo://app?vid=23e384f4-9c92-4d0f-b7e4-d19518bdf9af","ios":"levelo://app?vid=23e384f4-9c92-4d0f-b7e4-d19518bdf9af"},"vehicle_type_id":"4","last_reported":1722985704,"current_range_meters":6800,"station_id":"ce4bgt12rcd13ifvqcd0","pricing_plan_id":"cebpf4jnsgd1na2vs0mg"},{"bike_id":"d5028120-295a-4852-809a-fb0c35dbf6b1","system_id":"levelo_inurba_marseille","lat":43.314811,"lon":5.373103,"is_reserved":false,"is_disabled":false,"rental_uris":{"android":"levelo://app?vid=d5028120-295a-4852-809a-fb0c35dbf6b1","ios":"levelo://app?vid=d5028120-295a-4852-809a-fb0c35dbf6b1"},"vehicle_type_id":"4","last_reported":1722985704,"current_range_meters":18400,"station_id":"ce4bgt12rcd13ifvqcd0","pricing_plan_id":"cebpf4jnsgd1na2vs0mg"},{"bike_id":"91ff3801-daa2-47eb-81db-543701b2cd6e","system_id":"levelo_inurba_marseille","lat":43.314898,"lon":5.373143,"is_reserved":false,"is_disabled":false,"rental_uris":{"android":"levelo://app?vid=91ff3801-daa2-47eb-81db-543701b2cd6e","ios":"levelo://app?vid=91ff3801-daa2-47eb-81db-543701b2cd6e"},"vehicle_type_id":"4","last_reported":1722985704,"current_range_meters":24400,"station_id":"ce4bgt12rcd13ifvqcd0","pricing_plan_id":"cebpf4jnsgd1na2vs0mg"},{"bike_id":"d4ba9e16-1609-44d4-9ee2-e9ed6a3bb2f6","system_id":"levelo_inurba_marseille","lat":43.314811,"lon":5.373103,"is_reserved":false,"is_disabled":false,"rental_uris":{"android":"levelo://app?vid=d4ba9e16-1609-44d4-9ee2-e9ed6a3bb2f6","ios":"levelo://app?vid=d4ba9e16-1609-44d4-9ee2-e9ed6a3bb2f6"},"vehicle_type_id":"4","last_reported":1722985704,"current_range_meters":12800,"station_id":"ce4bgt12rcd13ifvqcd0","pricing_plan_id":"cebpf4jnsgd1na2vs0mg"},{"bike_id":"85aebf61-bbcd-4bd8-9a55-88408f19e9c4","system_id":"levelo_inurba_marseille","lat":43.309039,"lon":5.371797,"is_reserved":false,"is_disabled":false,"rental_uris":{"android":"levelo://app?vid=85aebf61-bbcd-4bd8-9a55-88408f19e9c4","ios":"levelo://app?vid=85aebf61-bbcd-4bd8-9a55-88408f19e9c4"},"vehicle_type_id":"4","last_reported":1722985704,"current_range_meters":26000,"station_id":"ce4bguh2rcd13ifvqckg","pricing_plan_id":"cebpf4jnsgd1na2vs0mg"},{"bike_id":"3e4df37c-35db-46b2-8279-b37cf4c2de10","system_id":"levelo_inurba_marseille","lat":43.31445,"lon":5.37384,"is_reserved":false,"is_disabled":false,"rental_uris":{"android":"levelo://app?vid=3e4df37c-35db-46b2-8279-b37cf4c2de10","ios":"levelo://app?vid=3e4df37c-35db-46b2-8279-b37cf4c2de10"},"vehicle_type_id":"4","last_reported":1722985704,"current_range_meters":30400,"station_id":"","pricing_plan_id":"cebpf4jnsgd1na2vs0mg"},{"bike_id":"7ab2ced7-fa9c-42c2-ae40-070e2bd80d78","system_id":"levelo_inurba_marseille","lat":43.31712,"lon":5.37319,"is_reserved":false,"is_disabled":false,"rental_uris":{"android":"levelo://app?vid=7ab2ced7-fa9c-42c2-ae40-070e2bd80d78","ios":"levelo://app?vid=7ab2ced7-fa9c-42c2-ae40-070e2bd80d78"},"vehicle_type_id":"4","last_reported":1722985704,"current_range_meters":6000,"station_id":"","pricing_plan_id":"cebpf4jnsgd1na2vs0mg"},{"bike_id":"271fcc76-ab6b-492a-ab2f-2e35c6c27f86","system_id":"levelo_inurba_marseille","lat":43.30937,"lon":5.374823,"is_reserved":false,"is_disabled":false,"rental_uris":{"android":"levelo://app?vid=271fcc76-ab6b-492a-ab2f-2e35c6c27f86","ios":"levelo://app?vid=271fcc76-ab6b-492a-ab2f-2e35c6c27f86"},"vehicle_type_id":"4","last_reported":1722985704,"current_range_meters":4000,"station_id":"","pricing_plan_id":"cebpf4jnsgd1na2vs0mg"},{"bike_id":"421828bd-6e73-40e4-bee4-8d4e76bfe3d4","system_id":"levelo_inurba_marseille","lat":43.317075,"lon":5.377367,"is_reserved":false,"is_disabled":false,"rental_uris":{"android":"levelo://app?vid=421828bd-6e73-40e4-bee4-8d4e76bfe3d4","ios":"levelo://app?vid=421828bd-6e73-40e4-bee4-8d4e76bfe3d4"},"vehicle_type_id":"4","last_reported":1722985704,"current_range_meters":25200,"station_id":"ce4bgth2rcd13ifvqch0","pricing_plan_id":"cebpf4jnsgd1na2vs0mg"},{"bike_id":"d09b62ea-0166-41ee-9955-5cd97f063bcf","system_id":"levelo_inurba_marseille","lat":43.31596,"lon":5.37609,"is_reserved":false,"is_disabled":false,"rental_uris":{"android":"levelo://app?vid=d09b62ea-0166-41ee-9955-5cd97f063bcf","ios":"levelo://app?vid=d09b62ea-0166-41ee-9955-5cd97f063bcf"},"vehicle_type_id":"4","last_reported":1722985704,"current_range_meters":28800,"station_id":"","pricing_plan_id":"cebpf4jnsgd1na2vs0mg"},{"bike_id":"d0282a01-4e2a-40eb-9a7c-8ade1910667b","system_id":"levelo_inurba_marseille","lat":43.305989,"lon":5.37225,"is_reserved":false,"is_disabled":false,"rental_uris":{"android":"levelo://app?vid=d0282a01-4e2a-40eb-9a7c-8ade1910667b","ios":"levelo://app?vid=d0282a01-4e2a-40eb-9a7c-8ade1910667b"},"vehicle_type_id":"4","last_reported":1722985704,"current_range_meters":25200,"station_id":"ce4bgqh2rcd13ifvqc4g","pricing_plan_id":"cebpf4jnsgd1na2vs0mg"},{"bike_id":"7c74ca85-7995-4d3b-80be-b9d1e2dda882","system_id":"levelo_inurba_marseille","lat":43.305989,"lon":5.37225,"is_reserved":false,"is_disabled":false,"rental_uris":{"android":"levelo://app?vid=7c74ca85-7995-4d3b-80be-b9d1e2dda882","ios":"levelo://app?vid=7c74ca85-7995-4d3b-80be-b9d1e2dda882"},"vehicle_type_id":"4","last_reported":1722985704,"current_range_meters":26400,"station_id":"ce4bgqh2rcd13ifvqc4g","pricing_plan_id":"cebpf4jnsgd1na2vs0mg"},{"bike_id":"809ae3eb-cc19-43d7-8ef2-3eb8e6e99cf8","system_id":"levelo_inurba_marseille","lat":43.305989,"lon":5.37225,"is_reserved":false,"is_disabled":false,"rental_uris":{"android":"levelo://app?vid=809ae3eb-cc19-43d7-8ef2-3eb8e6e99cf8","ios":"levelo://app?vid=809ae3eb-cc19-43d7-8ef2-3eb8e6e99cf8"},"vehicle_type_id":"4","last_reported":1722985704,"current_range_meters":16400,"station_id":"ce4bgqh2rcd13ifvqc4g","pricing_plan_id":"cebpf4jnsgd1na2vs0mg"},{"bike_id":"58f06639-e6d2-422f-9700-e21c2e6469ea","system_id":"levelo_inurba_marseille","lat":43.306,"lon":5.37228,"is_reserved":false,"is_disabled":false,"rental_uris":{"android":"levelo://app?vid=58f06639-e6d2-422f-9700-e21c2e6469ea","ios":"levelo://app?vid=58f06639-e6d2-422f-9700-e21c2e6469ea"},"vehicle_type_id":"4","last_reported":1722985704,"current_range_meters":29200,"station_id":"ce4bgqh2rcd13ifvqc4g","pricing_plan_id":"cebpf4jnsgd1na2vs0mg"},{"bike_id":"250c8f61-c5ff-42c4-9ef4-fe66a60b4ab6","system_id":"levelo_inurba_marseille","lat":43.311131,"lon":5.377651,"is_reserved":false,"is_disabled":false,"rental_uris":{"android":"levelo://app?vid=250c8f61-c5ff-42c4-9ef4-fe66a60b4ab6","ios":"levelo://app?vid=250c8f61-c5ff-42c4-9ef4-fe66a60b4ab6"},"vehicle_type_id":"4","last_reported":1722985704,"current_range_meters":0,"station_id":"ce4bgt92rcd13ifvqcg0","pricing_plan_id":"cebpf4jnsgd1na2vs0mg"},{"bike_id":"1ef60074-d961-48b7-9e39-567691e22df4","system_id":"levelo_inurba_marseille","lat":43.311131,"lon":5.377651,"is_reserved":false,"is_disabled":false,"rental_uris":{"android":"levelo://app?vid=1ef60074-d961-48b7-9e39-567691e22df4","ios":"levelo://app?vid=1ef60074-d961-48b7-9e39-567691e22df4"},"vehicle_type_id":"4","last_reported":1722985704,"current_range_meters":7600,"station_id":"ce4bgt92rcd13ifvqcg0","pricing_plan_id":"cebpf4jnsgd1na2vs0mg"},{"bike_id":"4d4c029e-950b-4d18-86db-c857d9ad3c87","system_id":"levelo_inurba_marseille","lat":43.31118,"lon":5.377753,"is_reserved":false,"is_disabled":false,"rental_uris":{"android":"levelo://app?vid=4d4c029e-950b-4d18-86db-c857d9ad3c87","ios":"levelo://app?vid=4d4c029e-950b-4d18-86db-c857d9ad3c87"},"vehicle_type_id":"4","last_reported":1722985704,"current_range_meters":30000,"station_id":"ce4bgt92rcd13ifvqcg0","pricing_plan_id":"cebpf4jnsgd1na2vs0mg"},{"bike_id":"51761203-1989-480f-afc8-217572b64856","system_id":"levelo_inurba_marseille","lat":43.311131,"lon":5.377651,"is_reserved":false,"is_disabled":false,"rental_uris":{"android":"levelo://app?vid=51761203-1989-480f-afc8-217572b64856","ios":"levelo://app?vid=51761203-1989-480f-afc8-217572b64856"},"vehicle_type_id":"4","last_reported":1722985704,"current_range_meters":22000,"station_id":"ce4bgt92rcd13ifvqcg0","pricing_plan_id":"cebpf4jnsgd1na2vs0mg"},{"bike_id":"868ba03c-0f0b-423f-9047-89a682beec73","system_id":"levelo_inurba_marseille","lat":43.311131,"lon":5.377651,"is_reserved":false,"is_disabled":false,"rental_uris":{"android":"levelo://app?vid=868ba03c-0f0b-423f-9047-89a682beec73","ios":"levelo://app?vid=868ba03c-0f0b-423f-9047-89a682beec73"},"vehicle_type_id":"4","last_reported":1722985704,"current_range_meters":25600,"station_id":"ce4bgt92rcd13ifvqcg0","pricing_plan_id":"cebpf4jnsgd1na2vs0mg"},{"bike_id":"29752e75-7b0e-4512-a73c-8451050f46fa","system_id":"levelo_inurba_marseille","lat":43.304884,"lon":5.370873,"is_reserved":false,"is_disabled":false,"rental_uris":{"android":"levelo://app?vid=29752e75-7b0e-4512-a73c-8451050f46fa","ios":"levelo://app?vid=29752e75-7b0e-4512-a73c-8451050f46fa"},"vehicle_type_id":"4","last_reported":1722985704,"current_range_meters":8400,"station_id":"","pricing_plan_id":"cebpf4jnsgd1na2vs0mg"},{"bike_id":"366e21fa-019e-4b68-b4b0-10f6b3b10eff","system_id":"levelo_inurba_marseille","lat":43.307945,"lon":5.376487,"is_reserved":false,"is_disabled":false,"rental_uris":{"android":"levelo://app?vid=366e21fa-019e-4b68-b4b0-10f6b3b10eff","ios":"levelo://app?vid=366e21fa-019e-4b68-b4b0-10f6b3b10eff"},"vehicle_type_id":"4","last_reported":1722985704,"current_range_meters":26800,"station_id":"ce4bgv92rcd13ifvqcq0","pricing_plan_id":"cebpf4jnsgd1na2vs0mg"},{"bike_id":"29d24b92-2ee5-46d4-aec6-62da727206fe","system_id":"levelo_inurba_marseille","lat":43.317075,"lon":5.377367,"is_reserved":false,"is_disabled":false,"rental_uris":{"android":"levelo://app?vid=29d24b92-2ee5-46d4-aec6-62da727206fe","ios":"levelo://app?vid=29d24b92-2ee5-46d4-aec6-62da727206fe"},"vehicle_type_id":"4","last_reported":1722985704,"current_range_meters":29600,"station_id":"ce4bgth2rcd13ifvqch0","pricing_plan_id":"cebpf4jnsgd1na2vs0mg"},{"bike_id":"1f755b1d-e73c-4bd5-8215-4e526e353092","system_id":"levelo_inurba_marseille","lat":43.317075,"lon":5.377367,"is_reserved":false,"is_disabled":false,"rental_uris":{"android":"levelo://app?vid=1f755b1d-e73c-4bd5-8215-4e526e353092","ios":"levelo://app?vid=1f755b1d-e73c-4bd5-8215-4e526e353092"},"vehicle_type_id":"4","last_reported":1722985704,"current_range_meters":21600,"station_id":"ce4bgth2rcd13ifvqch0","pricing_plan_id":"cebpf4jnsgd1na2vs0mg"},{"bike_id":"26df8301-7647-4559-be43-e4df7f8abe28","system_id":"levelo_inurba_marseille","lat":43.30304,"lon":5.368987,"is_reserved":false,"is_disabled":false,"rental_uris":{"android":"levelo://app?vid=26df8301-7647-4559-be43-e4df7f8abe28","ios":"levelo://app?vid=26df8301-7647-4559-be43-e4df7f8abe28"},"vehicle_type_id":"4","last_reported":1722985704,"current_range_meters":18000,"station_id":"ce4bgqh2rcd13ifvqc5g","pricing_plan_id":"cebpf4jnsgd1na2vs0mg"},{"bike_id":"63d9e7e3-ce1e-4193-b668-bbd6917544d2","system_id":"levelo_inurba_marseille","lat":43.31511,"lon":5.380259,"is_reserved":false,"is_disabled":false,"rental_uris":{"android":"levelo://app?vid=63d9e7e3-ce1e-4193-b668-bbd6917544d2","ios":"levelo://app?vid=63d9e7e3-ce1e-4193-b668-bbd6917544d2"},"vehicle_type_id":"4","last_reported":1722985704,"current_range_meters":4000,"station_id":"ce4bhsp2rcd13ifvqi50","pricing_plan_id":"cebpf4jnsgd1na2vs0mg"},{"bike_id":"4dcf867c-d764-4bc5-8158-74eed7430209","system_id":"levelo_inurba_marseille","lat":43.31531,"lon":5.38036,"is_reserved":false,"is_disabled":false,"rental_uris":{"android":"levelo://app?vid=4dcf867c-d764-4bc5-8158-74eed7430209","ios":"levelo://app?vid=4dcf867c-d764-4bc5-8158-74eed7430209"},"vehicle_type_id":"4","last_reported":1722985704,"current_range_meters":3600,"station_id":"ce4bhsp2rcd13ifvqi50","pricing_plan_id":"cebpf4jnsgd1na2vs0mg"},{"bike_id":"6286c270-eae5-4df5-a40f-fc36a706c892","system_id":"levelo_inurba_marseille","lat":43.301939,"lon":5.366286,"is_reserved":false,"is_disabled":false,"rental_uris":{"android":"levelo://app?vid=6286c270-eae5-4df5-a40f-fc36a706c892","ios":"levelo://app?vid=6286c270-eae5-4df5-a40f-fc36a706c892"},"vehicle_type_id":"4","last_reported":1722985704,"current_range_meters":0,"station_id":"ce4bgrh2rcd13ifvqc8g","pricing_plan_id":"cebpf4jnsgd1na2vs0mg"},{"bike_id":"fdc0b072-7f3d-4d80-be4e-297e767c8e42","system_id":"levelo_inurba_marseille","lat":43.308012,"lon":5.381511,"is_reserved":false,"is_disabled":false,"rental_uris":{"android":"levelo://app?vid=fdc0b072-7f3d-4d80-be4e-297e767c8e42","ios":"levelo://app?vid=fdc0b072-7f3d-4d80-be4e-297e767c8e42"},"vehicle_type_id":"4","last_reported":1722985704,"current_range_meters":8400,"station_id":"ce4bgt12rcd13ifvqce0","pricing_plan_id":"cebpf4jnsgd1na2vs0mg"},{"bike_id":"6924ab04-1ecc-4d0a-b502-f1a5892d59f0","system_id":"levelo_inurba_marseille","lat":43.308012,"lon":5.381511,"is_reserved":false,"is_disabled":false,"rental_uris":{"android":"levelo://app?vid=6924ab04-1ecc-4d0a-b502-f1a5892d59f0","ios":"levelo://app?vid=6924ab04-1ecc-4d0a-b502-f1a5892d59f0"},"vehicle_type_id":"4","last_reported":1722985704,"current_range_meters":31600,"station_id":"ce4bgt12rcd13ifvqce0","pricing_plan_id":"cebpf4jnsgd1na2vs0mg"},{"bike_id":"5391844a-0c1a-449a-9bfa-f1d28730c510","system_id":"levelo_inurba_marseille","lat":43.308012,"lon":5.381511,"is_reserved":false,"is_disabled":false,"rental_uris":{"android":"levelo://app?vid=5391844a-0c1a-449a-9bfa-f1d28730c510","ios":"levelo://app?vid=5391844a-0c1a-449a-9bfa-f1d28730c510"},"vehicle_type_id":"4","last_reported":1722985704,"current_range_meters":5200,"station_id":"ce4bgt12rcd13ifvqce0","pricing_plan_id":"cebpf4jnsgd1na2vs0mg"},{"bike_id":"272c47cb-cb27-452a-833d-9e4a6fae5b7f","system_id":"levelo_inurba_marseille","lat":43.308012,"lon":5.381511,"is_reserved":false,"is_disabled":false,"rental_uris":{"android":"levelo://app?vid=272c47cb-cb27-452a-833d-9e4a6fae5b7f","ios":"levelo://app?vid=272c47cb-cb27-452a-833d-9e4a6fae5b7f"},"vehicle_type_id":"4","last_reported":1722985704,"current_range_meters":10800,"station_id":"ce4bgt12rcd13ifvqce0","pricing_plan_id":"cebpf4jnsgd1na2vs0mg"},{"bike_id":"7099cccf-b412-43d3-84f1-2001398edca1","system_id":"levelo_inurba_marseille","lat":43.308012,"lon":5.381511,"is_reserved":false,"is_disabled":false,"rental_uris":{"android":"levelo://app?vid=7099cccf-b412-43d3-84f1-2001398edca1","ios":"levelo://app?vid=7099cccf-b412-43d3-84f1-2001398edca1"},"vehicle_type_id":"4","last_reported":1722985704,"current_range_meters":20400,"station_id":"ce4bgt12rcd13ifvqce0","pricing_plan_id":"cebpf4jnsgd1na2vs0mg"},{"bike_id":"ede58024-3e06-41ab-a3ae-82abc72946db","system_id":"levelo_inurba_marseille","lat":43.308012,"lon":5.381511,"is_reserved":false,"is_disabled":false,"rental_uris":{"android":"levelo://app?vid=ede58024-3e06-41ab-a3ae-82abc72946db","ios":"levelo://app?vid=ede58024-3e06-41ab-a3ae-82abc72946db"},"vehicle_type_id":"4","last_reported":1722985704,"current_range_meters":8400,"station_id":"ce4bgt12rcd13ifvqce0","pricing_plan_id":"cebpf4jnsgd1na2vs0mg"},{"bike_id":"f3521be7-6a34-42b4-b246-d22e8e181542","system_id":"levelo_inurba_marseille","lat":43.308012,"lon":5.381511,"is_reserved":false,"is_disabled":false,"rental_uris":{"android":"levelo://app?vid=f3521be7-6a34-42b4-b246-d22e8e181542","ios":"levelo://app?vid=f3521be7-6a34-42b4-b246-d22e8e181542"},"vehicle_type_id":"4","last_reported":1722985704,"current_range_meters":20800,"station_id":"ce4bgt12rcd13ifvqce0","pricing_plan_id":"cebpf4jnsgd1na2vs0mg"},{"bike_id":"534c1c6e-8a20-41b4-bbc4-3b4cd3bd2e90","system_id":"levelo_inurba_marseille","lat":43.308012,"lon":5.381511,"is_reserved":false,"is_disabled":false,"rental_uris":{"android":"levelo://app?vid=534c1c6e-8a20-41b4-bbc4-3b4cd3bd2e90","ios":"levelo://app?vid=534c1c6e-8a20-41b4-bbc4-3b4cd3bd2e90"},"vehicle_type_id":"4","last_reported":1722985704,"current_range_meters":16400,"station_id":"ce4bgt12rcd13ifvqce0","pricing_plan_id":"cebpf4jnsgd1na2vs0mg"},{"bike_id":"15b8a000-ea24-4fa5-95f7-5b667e0a51bf","system_id":"levelo_inurba_marseille","lat":43.308012,"lon":5.381511,"is_reserved":false,"is_disabled":false,"rental_uris":{"android":"levelo://app?vid=15b8a000-ea24-4fa5-95f7-5b667e0a51bf","ios":"levelo://app?vid=15b8a000-ea24-4fa5-95f7-5b667e0a51bf"},"vehicle_type_id":"4","last_reported":1722985704,"current_range_meters":30400,"station_id":"ce4bgt12rcd13ifvqce0","pricing_plan_id":"cebpf4jnsgd1na2vs0mg"},{"bike_id":"99f48eee-fc92-4d8b-9f47-0ee391618626","system_id":"levelo_inurba_marseille","lat":43.308012,"lon":5.381511,"is_reserved":false,"is_disabled":false,"rental_uris":{"android":"levelo://app?vid=99f48eee-fc92-4d8b-9f47-0ee391618626","ios":"levelo://app?vid=99f48eee-fc92-4d8b-9f47-0ee391618626"},"vehicle_type_id":"4","last_reported":1722985704,"current_range_meters":14400,"station_id":"ce4bgt12rcd13ifvqce0","pricing_plan_id":"cebpf4jnsgd1na2vs0mg"},{"bike_id":"895d125b-e0f4-4c2c-9c19-37ab7955f903","system_id":"levelo_inurba_marseille","lat":43.30461,"lon":5.37899,"is_reserved":false,"is_disabled":false,"rental_uris":{"android":"levelo://app?vid=895d125b-e0f4-4c2c-9c19-37ab7955f903","ios":"levelo://app?vid=895d125b-e0f4-4c2c-9c19-37ab7955f903"},"vehicle_type_id":"4","last_reported":1722985704,"current_range_meters":13200,"station_id":"ce4bgup2rcd13ifvqcn0","pricing_plan_id":"cebpf4jnsgd1na2vs0mg"},{"bike_id":"6c7e1867-22e1-4774-8386-93bdcd21f723","system_id":"levelo_inurba_marseille","lat":43.324771,"lon":5.36557,"is_reserved":false,"is_disabled":false,"rental_uris":{"android":"levelo://app?vid=6c7e1867-22e1-4774-8386-93bdcd21f723","ios":"levelo://app?vid=6c7e1867-22e1-4774-8386-93bdcd21f723"},"vehicle_type_id":"4","last_reported":1722985704,"current_range_meters":9200,"station_id":"ce4bhs12rcd13ifvqhvg","pricing_plan_id":"cebpf4jnsgd1na2vs0mg"},{"bike_id":"cab79253-85eb-4d6a-b149-8fe8f1b2de7c","system_id":"levelo_inurba_marseille","lat":43.324771,"lon":5.36557,"is_reserved":false,"is_disabled":false,"rental_uris":{"android":"levelo://app?vid=cab79253-85eb-4d6a-b149-8fe8f1b2de7c","ios":"levelo://app?vid=cab79253-85eb-4d6a-b149-8fe8f1b2de7c"},"vehicle_type_id":"4","last_reported":1722985704,"current_range_meters":15200,"station_id":"ce4bhs12rcd13ifvqhvg","pricing_plan_id":"cebpf4jnsgd1na2vs0mg"},{"bike_id":"67236220-b290-4733-96c4-a8c424b17241","system_id":"levelo_inurba_marseille","lat":43.3247,"lon":5.36567,"is_reserved":false,"is_disabled":false,"rental_uris":{"android":"levelo://app?vid=67236220-b290-4733-96c4-a8c424b17241","ios":"levelo://app?vid=67236220-b290-4733-96c4-a8c424b17241"},"vehicle_type_id":"4","last_reported":1722985704,"current_range_meters":3600,"station_id":"ce4bhs12rcd13ifvqhvg","pricing_plan_id":"cebpf4jnsgd1na2vs0mg"},{"bike_id":"b37d20bd-a720-4085-ba55-0f66c50dbc8d","system_id":"levelo_inurba_marseille","lat":43.324771,"lon":5.36557,"is_reserved":false,"is_disabled":false,"rental_uris":{"android":"levelo://app?vid=b37d20bd-a720-4085-ba55-0f66c50dbc8d","ios":"levelo://app?vid=b37d20bd-a720-4085-ba55-0f66c50dbc8d"},"vehicle_type_id":"4","last_reported":1722985704,"current_range_meters":8000,"station_id":"ce4bhs12rcd13ifvqhvg","pricing_plan_id":"cebpf4jnsgd1na2vs0mg"},{"bike_id":"f9cf28b0-44ab-4b7c-bad1-12ae49b2b053","system_id":"levelo_inurba_marseille","lat":43.324771,"lon":5.36557,"is_reserved":false,"is_disabled":false,"rental_uris":{"android":"levelo://app?vid=f9cf28b0-44ab-4b7c-bad1-12ae49b2b053","ios":"levelo://app?vid=f9cf28b0-44ab-4b7c-bad1-12ae49b2b053"},"vehicle_type_id":"4","last_reported":1722985704,"current_range_meters":12400,"station_id":"ce4bhs12rcd13ifvqhvg","pricing_plan_id":"cebpf4jnsgd1na2vs0mg"},{"bike_id":"ec4810b9-099c-4e7d-a0c2-34bd5fc15777","system_id":"levelo_inurba_marseille","lat":43.32475,"lon":5.36572,"is_reserved":false,"is_disabled":false,"rental_uris":{"android":"levelo://app?vid=ec4810b9-099c-4e7d-a0c2-34bd5fc15777","ios":"levelo://app?vid=ec4810b9-099c-4e7d-a0c2-34bd5fc15777"},"vehicle_type_id":"4","last_reported":1722985704,"current_range_meters":5600,"station_id":"ce4bhs12rcd13ifvqhvg","pricing_plan_id":"cebpf4jnsgd1na2vs0mg"},{"bike_id":"86ebc100-942a-46fe-9f57-9a98b8f8dcc0","system_id":"levelo_inurba_marseille","lat":43.324763,"lon":5.365673,"is_reserved":false,"is_disabled":false,"rental_uris":{"android":"levelo://app?vid=86ebc100-942a-46fe-9f57-9a98b8f8dcc0","ios":"levelo://app?vid=86ebc100-942a-46fe-9f57-9a98b8f8dcc0"},"vehicle_type_id":"4","last_reported":1722985704,"current_range_meters":5600,"station_id":"ce4bhs12rcd13ifvqhvg","pricing_plan_id":"cebpf4jnsgd1na2vs0mg"},{"bike_id":"03e38786-cc36-4649-a90e-f8f46159e822","system_id":"levelo_inurba_marseille","lat":43.324771,"lon":5.36557,"is_reserved":false,"is_disabled":false,"rental_uris":{"android":"levelo://app?vid=03e38786-cc36-4649-a90e-f8f46159e822","ios":"levelo://app?vid=03e38786-cc36-4649-a90e-f8f46159e822"},"vehicle_type_id":"4","last_reported":1722985704,"current_range_meters":26400,"station_id":"ce4bhs12rcd13ifvqhvg","pricing_plan_id":"cebpf4jnsgd1na2vs0mg"},{"bike_id":"6c2a97c4-c472-418e-a8c2-c3aeebcb4250","system_id":"levelo_inurba_marseille","lat":43.324771,"lon":5.36557,"is_reserved":false,"is_disabled":false,"rental_uris":{"android":"levelo://app?vid=6c2a97c4-c472-418e-a8c2-c3aeebcb4250","ios":"levelo://app?vid=6c2a97c4-c472-418e-a8c2-c3aeebcb4250"},"vehicle_type_id":"4","last_reported":1722985704,"current_range_meters":13600,"station_id":"ce4bhs12rcd13ifvqhvg","pricing_plan_id":"cebpf4jnsgd1na2vs0mg"},{"bike_id":"0c3cf877-5fce-4372-9396-cfd0ff380805","system_id":"levelo_inurba_marseille","lat":43.324771,"lon":5.36557,"is_reserved":false,"is_disabled":false,"rental_uris":{"android":"levelo://app?vid=0c3cf877-5fce-4372-9396-cfd0ff380805","ios":"levelo://app?vid=0c3cf877-5fce-4372-9396-cfd0ff380805"},"vehicle_type_id":"4","last_reported":1722985704,"current_range_meters":28000,"station_id":"ce4bhs12rcd13ifvqhvg","pricing_plan_id":"cebpf4jnsgd1na2vs0mg"},{"bike_id":"c4af26d5-b0d4-4154-812a-7fdc23b0ac8c","system_id":"levelo_inurba_marseille","lat":43.32481,"lon":5.36567,"is_reserved":false,"is_disabled":false,"rental_uris":{"android":"levelo://app?vid=c4af26d5-b0d4-4154-812a-7fdc23b0ac8c","ios":"levelo://app?vid=c4af26d5-b0d4-4154-812a-7fdc23b0ac8c"},"vehicle_type_id":"4","last_reported":1722985704,"current_range_meters":8400,"station_id":"ce4bhs12rcd13ifvqhvg","pricing_plan_id":"cebpf4jnsgd1na2vs0mg"},{"bike_id":"0fa3bca1-936c-4735-ac76-eea62a1b2047","system_id":"levelo_inurba_marseille","lat":43.324771,"lon":5.36557,"is_reserved":false,"is_disabled":false,"rental_uris":{"android":"levelo://app?vid=0fa3bca1-936c-4735-ac76-eea62a1b2047","ios":"levelo://app?vid=0fa3bca1-936c-4735-ac76-eea62a1b2047"},"vehicle_type_id":"4","last_reported":1722985704,"current_range_meters":15200,"station_id":"ce4bhs12rcd13ifvqhvg","pricing_plan_id":"cebpf4jnsgd1na2vs0mg"},{"bike_id":"e59842e6-65ae-4bcd-ae87-db816f11b6c5","system_id":"levelo_inurba_marseille","lat":43.324771,"lon":5.36557,"is_reserved":false,"is_disabled":false,"rental_uris":{"android":"levelo://app?vid=e59842e6-65ae-4bcd-ae87-db816f11b6c5","ios":"levelo://app?vid=e59842e6-65ae-4bcd-ae87-db816f11b6c5"},"vehicle_type_id":"4","last_reported":1722985704,"current_range_meters":31200,"station_id":"ce4bhs12rcd13ifvqhvg","pricing_plan_id":"cebpf4jnsgd1na2vs0mg"},{"bike_id":"8c4daa72-9c24-496e-8ea5-456936fb71a6","system_id":"levelo_inurba_marseille","lat":43.324771,"lon":5.36557,"is_reserved":false,"is_disabled":false,"rental_uris":{"android":"levelo://app?vid=8c4daa72-9c24-496e-8ea5-456936fb71a6","ios":"levelo://app?vid=8c4daa72-9c24-496e-8ea5-456936fb71a6"},"vehicle_type_id":"4","last_reported":1722985704,"current_range_meters":16400,"station_id":"ce4bhs12rcd13ifvqhvg","pricing_plan_id":"cebpf4jnsgd1na2vs0mg"},{"bike_id":"00dae0c6-af69-4b1c-8baa-4a6dba6200b4","system_id":"levelo_inurba_marseille","lat":43.310804,"lon":5.38359,"is_reserved":false,"is_disabled":false,"rental_uris":{"android":"levelo://app?vid=00dae0c6-af69-4b1c-8baa-4a6dba6200b4","ios":"levelo://app?vid=00dae0c6-af69-4b1c-8baa-4a6dba6200b4"},"vehicle_type_id":"4","last_reported":1722985704,"current_range_meters":22400,"station_id":"ce4bgv92rcd13ifvqcr0","pricing_plan_id":"cebpf4jnsgd1na2vs0mg"},{"bike_id":"edcc5c0f-62dd-431b-8613-cb30cbd7f801","system_id":"levelo_inurba_marseille","lat":43.310804,"lon":5.38359,"is_reserved":false,"is_disabled":false,"rental_uris":{"android":"levelo://app?vid=edcc5c0f-62dd-431b-8613-cb30cbd7f801","ios":"levelo://app?vid=edcc5c0f-62dd-431b-8613-cb30cbd7f801"},"vehicle_type_id":"4","last_reported":1722985704,"current_range_meters":19200,"station_id":"ce4bgv92rcd13ifvqcr0","pricing_plan_id":"cebpf4jnsgd1na2vs0mg"},{"bike_id":"ec27b5bf-c551-43cc-8e71-b4c415549d22","system_id":"levelo_inurba_marseille","lat":43.310804,"lon":5.38359,"is_reserved":false,"is_disabled":false,"rental_uris":{"android":"levelo://app?vid=ec27b5bf-c551-43cc-8e71-b4c415549d22","ios":"levelo://app?vid=ec27b5bf-c551-43cc-8e71-b4c415549d22"},"vehicle_type_id":"4","last_reported":1722985704,"current_range_meters":24800,"station_id":"ce4bgv92rcd13ifvqcr0","pricing_plan_id":"cebpf4jnsgd1na2vs0mg"},{"bike_id":"db935b3e-7731-47e9-a089-30bc77473846","system_id":"levelo_inurba_marseille","lat":43.310804,"lon":5.38359,"is_reserved":false,"is_disabled":false,"rental_uris":{"android":"levelo://app?vid=db935b3e-7731-47e9-a089-30bc77473846","ios":"levelo://app?vid=db935b3e-7731-47e9-a089-30bc77473846"},"vehicle_type_id":"4","last_reported":1722985704,"current_range_meters":23200,"station_id":"ce4bgv92rcd13ifvqcr0","pricing_plan_id":"cebpf4jnsgd1na2vs0mg"},{"bike_id":"eb22bc54-df53-49f2-848b-c5d3881298f1","system_id":"levelo_inurba_marseille","lat":43.310804,"lon":5.38359,"is_reserved":false,"is_disabled":false,"rental_uris":{"android":"levelo://app?vid=eb22bc54-df53-49f2-848b-c5d3881298f1","ios":"levelo://app?vid=eb22bc54-df53-49f2-848b-c5d3881298f1"},"vehicle_type_id":"4","last_reported":1722985704,"current_range_meters":28800,"station_id":"ce4bgv92rcd13ifvqcr0","pricing_plan_id":"cebpf4jnsgd1na2vs0mg"},{"bike_id":"eeb75424-e787-4cfc-8a42-5387846e42de","system_id":"levelo_inurba_marseille","lat":43.30191,"lon":5.37502,"is_reserved":false,"is_disabled":false,"rental_uris":{"android":"levelo://app?vid=eeb75424-e787-4cfc-8a42-5387846e42de","ios":"levelo://app?vid=eeb75424-e787-4cfc-8a42-5387846e42de"},"vehicle_type_id":"4","last_reported":1722985704,"current_range_meters":8000,"station_id":"","pricing_plan_id":"cebpf4jnsgd1na2vs0mg"},{"bike_id":"497fe46a-bf8a-4551-ad85-d2e838cdcd2b","system_id":"levelo_inurba_marseille","lat":43.310804,"lon":5.38359,"is_reserved":false,"is_disabled":false,"rental_uris":{"android":"levelo://app?vid=497fe46a-bf8a-4551-ad85-d2e838cdcd2b","ios":"levelo://app?vid=497fe46a-bf8a-4551-ad85-d2e838cdcd2b"},"vehicle_type_id":"4","last_reported":1722985704,"current_range_meters":27200,"station_id":"ce4bgv92rcd13ifvqcr0","pricing_plan_id":"cebpf4jnsgd1na2vs0mg"},{"bike_id":"37ab2d42-fef4-4401-9880-b26f20646747","system_id":"levelo_inurba_marseille","lat":43.310804,"lon":5.38359,"is_reserved":false,"is_disabled":false,"rental_uris":{"android":"levelo://app?vid=37ab2d42-fef4-4401-9880-b26f20646747","ios":"levelo://app?vid=37ab2d42-fef4-4401-9880-b26f20646747"},"vehicle_type_id":"4","last_reported":1722985704,"current_range_meters":28000,"station_id":"ce4bgv92rcd13ifvqcr0","pricing_plan_id":"cebpf4jnsgd1na2vs0mg"},{"bike_id":"2316a210-162c-4c52-990b-dbcb9ca7100c","system_id":"levelo_inurba_marseille","lat":43.302784,"lon":5.377158,"is_reserved":false,"is_disabled":false,"rental_uris":{"android":"levelo://app?vid=2316a210-162c-4c52-990b-dbcb9ca7100c","ios":"levelo://app?vid=2316a210-162c-4c52-990b-dbcb9ca7100c"},"vehicle_type_id":"4","last_reported":1722985704,"current_range_meters":14400,"station_id":"ce4bguh2rcd13ifvqcj0","pricing_plan_id":"cebpf4jnsgd1na2vs0mg"},{"bike_id":"b2ddd464-3aef-4538-beb5-cc20f31243df","system_id":"levelo_inurba_marseille","lat":43.302784,"lon":5.377158,"is_reserved":false,"is_disabled":false,"rental_uris":{"android":"levelo://app?vid=b2ddd464-3aef-4538-beb5-cc20f31243df","ios":"levelo://app?vid=b2ddd464-3aef-4538-beb5-cc20f31243df"},"vehicle_type_id":"4","last_reported":1722985704,"current_range_meters":26800,"station_id":"ce4bguh2rcd13ifvqcj0","pricing_plan_id":"cebpf4jnsgd1na2vs0mg"},{"bike_id":"a6f717ea-e4b0-442c-9eec-ff154a5d851e","system_id":"levelo_inurba_marseille","lat":43.301429,"lon":5.37413,"is_reserved":false,"is_disabled":false,"rental_uris":{"android":"levelo://app?vid=a6f717ea-e4b0-442c-9eec-ff154a5d851e","ios":"levelo://app?vid=a6f717ea-e4b0-442c-9eec-ff154a5d851e"},"vehicle_type_id":"4","last_reported":1722985704,"current_range_meters":28800,"station_id":"ce4bgs92rcd13ifvqcc0","pricing_plan_id":"cebpf4jnsgd1na2vs0mg"},{"bike_id":"46d47ede-b7d5-463e-9ebb-d66c72a74361","system_id":"levelo_inurba_marseille","lat":43.30143,"lon":5.37413,"is_reserved":false,"is_disabled":false,"rental_uris":{"android":"levelo://app?vid=46d47ede-b7d5-463e-9ebb-d66c72a74361","ios":"levelo://app?vid=46d47ede-b7d5-463e-9ebb-d66c72a74361"},"vehicle_type_id":"4","last_reported":1722985704,"current_range_meters":29600,"station_id":"ce4bgs92rcd13ifvqcc0","pricing_plan_id":"cebpf4jnsgd1na2vs0mg"},{"bike_id":"6ece644f-2183-47d8-a6ad-111b65d1770b","system_id":"levelo_inurba_marseille","lat":43.30257,"lon":5.3774,"is_reserved":false,"is_disabled":false,"rental_uris":{"android":"levelo://app?vid=6ece644f-2183-47d8-a6ad-111b65d1770b","ios":"levelo://app?vid=6ece644f-2183-47d8-a6ad-111b65d1770b"},"vehicle_type_id":"4","last_reported":1722985704,"current_range_meters":27200,"station_id":"","pricing_plan_id":"cebpf4jnsgd1na2vs0mg"},{"bike_id":"ccd4daea-ba42-4cd7-8a50-3fa93efffa34","system_id":"levelo_inurba_marseille","lat":43.319935,"lon":5.381699,"is_reserved":false,"is_disabled":false,"rental_uris":{"android":"levelo://app?vid=ccd4daea-ba42-4cd7-8a50-3fa93efffa34","ios":"levelo://app?vid=ccd4daea-ba42-4cd7-8a50-3fa93efffa34"},"vehicle_type_id":"4","last_reported":1722985704,"current_range_meters":28800,"station_id":"ce4bhr12rcd13ifvqhpg","pricing_plan_id":"cebpf4jnsgd1na2vs0mg"},{"bike_id":"9f3c9633-86d1-43cf-9e47-eb2f9ada7437","system_id":"levelo_inurba_marseille","lat":43.319935,"lon":5.381699,"is_reserved":false,"is_disabled":false,"rental_uris":{"android":"levelo://app?vid=9f3c9633-86d1-43cf-9e47-eb2f9ada7437","ios":"levelo://app?vid=9f3c9633-86d1-43cf-9e47-eb2f9ada7437"},"vehicle_type_id":"4","last_reported":1722985704,"current_range_meters":25600,"station_id":"ce4bhr12rcd13ifvqhpg","pricing_plan_id":"cebpf4jnsgd1na2vs0mg"},{"bike_id":"8db693f1-fdda-484e-9039-cce7c0fe475b","system_id":"levelo_inurba_marseille","lat":43.319935,"lon":5.381699,"is_reserved":false,"is_disabled":false,"rental_uris":{"android":"levelo://app?vid=8db693f1-fdda-484e-9039-cce7c0fe475b","ios":"levelo://app?vid=8db693f1-fdda-484e-9039-cce7c0fe475b"},"vehicle_type_id":"4","last_reported":1722985704,"current_range_meters":30800,"station_id":"ce4bhr12rcd13ifvqhpg","pricing_plan_id":"cebpf4jnsgd1na2vs0mg"},{"bike_id":"1030898f-6ae8-4194-a92a-060fdaeec93e","system_id":"levelo_inurba_marseille","lat":43.319935,"lon":5.381699,"is_reserved":false,"is_disabled":false,"rental_uris":{"android":"levelo://app?vid=1030898f-6ae8-4194-a92a-060fdaeec93e","ios":"levelo://app?vid=1030898f-6ae8-4194-a92a-060fdaeec93e"},"vehicle_type_id":"4","last_reported":1722985704,"current_range_meters":24400,"station_id":"ce4bhr12rcd13ifvqhpg","pricing_plan_id":"cebpf4jnsgd1na2vs0mg"},{"bike_id":"c4fb209e-28a8-4db9-ab61-6eeefce165de","system_id":"levelo_inurba_marseille","lat":43.319935,"lon":5.381699,"is_reserved":false,"is_disabled":false,"rental_uris":{"android":"levelo://app?vid=c4fb209e-28a8-4db9-ab61-6eeefce165de","ios":"levelo://app?vid=c4fb209e-28a8-4db9-ab61-6eeefce165de"},"vehicle_type_id":"4","last_reported":1722985704,"current_range_meters":9600,"station_id":"ce4bhr12rcd13ifvqhpg","pricing_plan_id":"cebpf4jnsgd1na2vs0mg"},{"bike_id":"03282c19-9e9a-4355-aa14-4b2b14132767","system_id":"levelo_inurba_marseille","lat":43.313571,"lon":5.384829,"is_reserved":false,"is_disabled":false,"rental_uris":{"android":"levelo://app?vid=03282c19-9e9a-4355-aa14-4b2b14132767","ios":"levelo://app?vid=03282c19-9e9a-4355-aa14-4b2b14132767"},"vehicle_type_id":"4","last_reported":1722985704,"current_range_meters":31600,"station_id":"ce4bgt92rcd13ifvqcf0","pricing_plan_id":"cebpf4jnsgd1na2vs0mg"},{"bike_id":"38df84c4-871f-46de-867b-2f88602dc10d","system_id":"levelo_inurba_marseille","lat":43.313571,"lon":5.384829,"is_reserved":false,"is_disabled":false,"rental_uris":{"android":"levelo://app?vid=38df84c4-871f-46de-867b-2f88602dc10d","ios":"levelo://app?vid=38df84c4-871f-46de-867b-2f88602dc10d"},"vehicle_type_id":"4","last_reported":1722985704,"current_range_meters":31200,"station_id":"ce4bgt92rcd13ifvqcf0","pricing_plan_id":"cebpf4jnsgd1na2vs0mg"},{"bike_id":"82d04625-c96f-4952-86dc-f7925412e8e3","system_id":"levelo_inurba_marseille","lat":43.313571,"lon":5.384829,"is_reserved":false,"is_disabled":false,"rental_uris":{"android":"levelo://app?vid=82d04625-c96f-4952-86dc-f7925412e8e3","ios":"levelo://app?vid=82d04625-c96f-4952-86dc-f7925412e8e3"},"vehicle_type_id":"4","last_reported":1722985704,"current_range_meters":13200,"station_id":"ce4bgt92rcd13ifvqcf0","pricing_plan_id":"cebpf4jnsgd1na2vs0mg"},{"bike_id":"d518baf2-34eb-4f42-88ae-dbdb57a37e41","system_id":"levelo_inurba_marseille","lat":43.313533,"lon":5.384987,"is_reserved":false,"is_disabled":false,"rental_uris":{"android":"levelo://app?vid=d518baf2-34eb-4f42-88ae-dbdb57a37e41","ios":"levelo://app?vid=d518baf2-34eb-4f42-88ae-dbdb57a37e41"},"vehicle_type_id":"4","last_reported":1722985704,"current_range_meters":29600,"station_id":"ce4bgt92rcd13ifvqcf0","pricing_plan_id":"cebpf4jnsgd1na2vs0mg"},{"bike_id":"783fc8b6-f0af-4db8-8d85-f15091ba5e13","system_id":"levelo_inurba_marseille","lat":43.313637,"lon":5.384979,"is_reserved":false,"is_disabled":false,"rental_uris":{"android":"levelo://app?vid=783fc8b6-f0af-4db8-8d85-f15091ba5e13","ios":"levelo://app?vid=783fc8b6-f0af-4db8-8d85-f15091ba5e13"},"vehicle_type_id":"4","last_reported":1722985704,"current_range_meters":31200,"station_id":"ce4bgt92rcd13ifvqcf0","pricing_plan_id":"cebpf4jnsgd1na2vs0mg"},{"bike_id":"76b4d657-2104-4401-9565-f115ad99ac55","system_id":"levelo_inurba_marseille","lat":43.313571,"lon":5.384829,"is_reserved":false,"is_disabled":false,"rental_uris":{"android":"levelo://app?vid=76b4d657-2104-4401-9565-f115ad99ac55","ios":"levelo://app?vid=76b4d657-2104-4401-9565-f115ad99ac55"},"vehicle_type_id":"4","last_reported":1722985704,"current_range_meters":28000,"station_id":"ce4bgt92rcd13ifvqcf0","pricing_plan_id":"cebpf4jnsgd1na2vs0mg"},{"bike_id":"fea3f0da-38c4-4853-a068-0f73ef340a8c","system_id":"levelo_inurba_marseille","lat":43.313571,"lon":5.384829,"is_reserved":false,"is_disabled":false,"rental_uris":{"android":"levelo://app?vid=fea3f0da-38c4-4853-a068-0f73ef340a8c","ios":"levelo://app?vid=fea3f0da-38c4-4853-a068-0f73ef340a8c"},"vehicle_type_id":"4","last_reported":1722985704,"current_range_meters":22800,"station_id":"ce4bgt92rcd13ifvqcf0","pricing_plan_id":"cebpf4jnsgd1na2vs0mg"},{"bike_id":"0d261846-e93a-4045-8719-7b061294004e","system_id":"levelo_inurba_marseille","lat":43.299724,"lon":5.371829,"is_reserved":false,"is_disabled":false,"rental_uris":{"android":"levelo://app?vid=0d261846-e93a-4045-8719-7b061294004e","ios":"levelo://app?vid=0d261846-e93a-4045-8719-7b061294004e"},"vehicle_type_id":"4","last_reported":1722985704,"current_range_meters":24000,"station_id":"ce4bgr92rcd13ifvqc7g","pricing_plan_id":"cebpf4jnsgd1na2vs0mg"},{"bike_id":"1085f984-4bd6-4dd3-8320-4eb14ce03c77","system_id":"levelo_inurba_marseille","lat":43.30526,"lon":5.38231,"is_reserved":false,"is_disabled":false,"rental_uris":{"android":"levelo://app?vid=1085f984-4bd6-4dd3-8320-4eb14ce03c77","ios":"levelo://app?vid=1085f984-4bd6-4dd3-8320-4eb14ce03c77"},"vehicle_type_id":"4","last_reported":1722985704,"current_range_meters":18400,"station_id":"","pricing_plan_id":"cebpf4jnsgd1na2vs0mg"},{"bike_id":"5836413d-a2ac-4b5d-beb0-36f24d91244f","system_id":"levelo_inurba_marseille","lat":43.299724,"lon":5.371829,"is_reserved":false,"is_disabled":false,"rental_uris":{"android":"levelo://app?vid=5836413d-a2ac-4b5d-beb0-36f24d91244f","ios":"levelo://app?vid=5836413d-a2ac-4b5d-beb0-36f24d91244f"},"vehicle_type_id":"4","last_reported":1722985704,"current_range_meters":28400,"station_id":"ce4bgr92rcd13ifvqc7g","pricing_plan_id":"cebpf4jnsgd1na2vs0mg"},{"bike_id":"1f168c90-5ead-4590-a8d8-90b06c09034f","system_id":"levelo_inurba_marseille","lat":43.319935,"lon":5.381699,"is_reserved":false,"is_disabled":false,"rental_uris":{"android":"levelo://app?vid=1f168c90-5ead-4590-a8d8-90b06c09034f","ios":"levelo://app?vid=1f168c90-5ead-4590-a8d8-90b06c09034f"},"vehicle_type_id":"4","last_reported":1722985704,"current_range_meters":11200,"station_id":"ce4bhr12rcd13ifvqhpg","pricing_plan_id":"cebpf4jnsgd1na2vs0mg"},{"bike_id":"f09bdbe5-e01a-48c6-a844-b92c66876576","system_id":"levelo_inurba_marseille","lat":43.298433,"lon":5.362774,"is_reserved":false,"is_disabled":false,"rental_uris":{"android":"levelo://app?vid=f09bdbe5-e01a-48c6-a844-b92c66876576","ios":"levelo://app?vid=f09bdbe5-e01a-48c6-a844-b92c66876576"},"vehicle_type_id":"4","last_reported":1722985704,"current_range_meters":3600,"station_id":"ce4bgpp2rcd13ifvqc3g","pricing_plan_id":"cebpf4jnsgd1na2vs0mg"},{"bike_id":"d7e8fcbd-c224-45fe-a8b2-511db2f9f899","system_id":"levelo_inurba_marseille","lat":43.298433,"lon":5.362774,"is_reserved":false,"is_disabled":false,"rental_uris":{"android":"levelo://app?vid=d7e8fcbd-c224-45fe-a8b2-511db2f9f899","ios":"levelo://app?vid=d7e8fcbd-c224-45fe-a8b2-511db2f9f899"},"vehicle_type_id":"4","last_reported":1722985704,"current_range_meters":2400,"station_id":"ce4bgpp2rcd13ifvqc3g","pricing_plan_id":"cebpf4jnsgd1na2vs0mg"},{"bike_id":"503ca7b6-702e-4725-bae9-11ff6d6ebc7d","system_id":"levelo_inurba_marseille","lat":43.305305,"lon":5.384328,"is_reserved":false,"is_disabled":false,"rental_uris":{"android":"levelo://app?vid=503ca7b6-702e-4725-bae9-11ff6d6ebc7d","ios":"levelo://app?vid=503ca7b6-702e-4725-bae9-11ff6d6ebc7d"},"vehicle_type_id":"4","last_reported":1722985704,"current_range_meters":28400,"station_id":"ce4bgg92rcd13ifvqb30","pricing_plan_id":"cebpf4jnsgd1na2vs0mg"},{"bike_id":"7d96c18e-0209-4923-a168-037e50c338be","system_id":"levelo_inurba_marseille","lat":43.311722,"lon":5.387247,"is_reserved":false,"is_disabled":false,"rental_uris":{"android":"levelo://app?vid=7d96c18e-0209-4923-a168-037e50c338be","ios":"levelo://app?vid=7d96c18e-0209-4923-a168-037e50c338be"},"vehicle_type_id":"4","last_reported":1722985704,"current_range_meters":28400,"station_id":"ce4bgv12rcd13ifvqcp0","pricing_plan_id":"cebpf4jnsgd1na2vs0mg"},{"bike_id":"adda2793-e6e6-4abf-bc64-a0063dfac5cf","system_id":"levelo_inurba_marseille","lat":43.311722,"lon":5.387247,"is_reserved":false,"is_disabled":false,"rental_uris":{"android":"levelo://app?vid=adda2793-e6e6-4abf-bc64-a0063dfac5cf","ios":"levelo://app?vid=adda2793-e6e6-4abf-bc64-a0063dfac5cf"},"vehicle_type_id":"4","last_reported":1722985704,"current_range_meters":8800,"station_id":"ce4bgv12rcd13ifvqcp0","pricing_plan_id":"cebpf4jnsgd1na2vs0mg"},{"bike_id":"e44e3fd7-47af-4c17-9a72-faaeecafd5e4","system_id":"levelo_inurba_marseille","lat":43.311722,"lon":5.387247,"is_reserved":false,"is_disabled":false,"rental_uris":{"android":"levelo://app?vid=e44e3fd7-47af-4c17-9a72-faaeecafd5e4","ios":"levelo://app?vid=e44e3fd7-47af-4c17-9a72-faaeecafd5e4"},"vehicle_type_id":"4","last_reported":1722985704,"current_range_meters":24400,"station_id":"ce4bgv12rcd13ifvqcp0","pricing_plan_id":"cebpf4jnsgd1na2vs0mg"},{"bike_id":"8c03cb56-5775-44b1-bcf3-3bd82ad2df1d","system_id":"levelo_inurba_marseille","lat":43.299243,"lon":5.37481,"is_reserved":false,"is_disabled":false,"rental_uris":{"android":"levelo://app?vid=8c03cb56-5775-44b1-bcf3-3bd82ad2df1d","ios":"levelo://app?vid=8c03cb56-5775-44b1-bcf3-3bd82ad2df1d"},"vehicle_type_id":"4","last_reported":1722985704,"current_range_meters":28800,"station_id":"ce4bgjh2rcd13ifvqbg0","pricing_plan_id":"cebpf4jnsgd1na2vs0mg"},{"bike_id":"2e292509-e79f-4af4-a1ee-939a84e83af5","system_id":"levelo_inurba_marseille","lat":43.311722,"lon":5.387247,"is_reserved":false,"is_disabled":false,"rental_uris":{"android":"levelo://app?vid=2e292509-e79f-4af4-a1ee-939a84e83af5","ios":"levelo://app?vid=2e292509-e79f-4af4-a1ee-939a84e83af5"},"vehicle_type_id":"4","last_reported":1722985704,"current_range_meters":27600,"station_id":"ce4bgv12rcd13ifvqcp0","pricing_plan_id":"cebpf4jnsgd1na2vs0mg"},{"bike_id":"7ad7ed47-e3b1-415f-8de9-98cf96c37e0f","system_id":"levelo_inurba_marseille","lat":43.311722,"lon":5.387247,"is_reserved":false,"is_disabled":false,"rental_uris":{"android":"levelo://app?vid=7ad7ed47-e3b1-415f-8de9-98cf96c37e0f","ios":"levelo://app?vid=7ad7ed47-e3b1-415f-8de9-98cf96c37e0f"},"vehicle_type_id":"4","last_reported":1722985704,"current_range_meters":4800,"station_id":"ce4bgv12rcd13ifvqcp0","pricing_plan_id":"cebpf4jnsgd1na2vs0mg"},{"bike_id":"46a7c710-7b55-4c17-9477-4a28d13a5ee4","system_id":"levelo_inurba_marseille","lat":43.311722,"lon":5.387247,"is_reserved":false,"is_disabled":false,"rental_uris":{"android":"levelo://app?vid=46a7c710-7b55-4c17-9477-4a28d13a5ee4","ios":"levelo://app?vid=46a7c710-7b55-4c17-9477-4a28d13a5ee4"},"vehicle_type_id":"4","last_reported":1722985704,"current_range_meters":20000,"station_id":"ce4bgv12rcd13ifvqcp0","pricing_plan_id":"cebpf4jnsgd1na2vs0mg"},{"bike_id":"f1c1d28c-66d1-4416-95c1-0d2f23d50c38","system_id":"levelo_inurba_marseille","lat":43.311722,"lon":5.387247,"is_reserved":false,"is_disabled":false,"rental_uris":{"android":"levelo://app?vid=f1c1d28c-66d1-4416-95c1-0d2f23d50c38","ios":"levelo://app?vid=f1c1d28c-66d1-4416-95c1-0d2f23d50c38"},"vehicle_type_id":"4","last_reported":1722985704,"current_range_meters":5600,"station_id":"ce4bgv12rcd13ifvqcp0","pricing_plan_id":"cebpf4jnsgd1na2vs0mg"},{"bike_id":"81b8f198-c754-4bd1-97ce-498cbc1521b4","system_id":"levelo_inurba_marseille","lat":43.297794,"lon":5.370888,"is_reserved":false,"is_disabled":false,"rental_uris":{"android":"levelo://app?vid=81b8f198-c754-4bd1-97ce-498cbc1521b4","ios":"levelo://app?vid=81b8f198-c754-4bd1-97ce-498cbc1521b4"},"vehicle_type_id":"4","last_reported":1722985704,"current_range_meters":0,"station_id":"ce4bgop2rcd13ifvqc1g","pricing_plan_id":"cebpf4jnsgd1na2vs0mg"},{"bike_id":"9c608ea9-622e-4d37-a18e-8abe55fe6a9d","system_id":"levelo_inurba_marseille","lat":43.297794,"lon":5.370888,"is_reserved":false,"is_disabled":false,"rental_uris":{"android":"levelo://app?vid=9c608ea9-622e-4d37-a18e-8abe55fe6a9d","ios":"levelo://app?vid=9c608ea9-622e-4d37-a18e-8abe55fe6a9d"},"vehicle_type_id":"4","last_reported":1722985704,"current_range_meters":8800,"station_id":"ce4bgop2rcd13ifvqc1g","pricing_plan_id":"cebpf4jnsgd1na2vs0mg"},{"bike_id":"e849082b-e0ab-41ef-af7c-c58d643c0d0a","system_id":"levelo_inurba_marseille","lat":43.30151,"lon":5.381023,"is_reserved":false,"is_disabled":false,"rental_uris":{"android":"levelo://app?vid=e849082b-e0ab-41ef-af7c-c58d643c0d0a","ios":"levelo://app?vid=e849082b-e0ab-41ef-af7c-c58d643c0d0a"},"vehicle_type_id":"4","last_reported":1722985704,"current_range_meters":24800,"station_id":"","pricing_plan_id":"cebpf4jnsgd1na2vs0mg"},{"bike_id":"4f6808a1-8d10-495c-a120-94ce080ac3f1","system_id":"levelo_inurba_marseille","lat":43.322872,"lon":5.382756,"is_reserved":false,"is_disabled":false,"rental_uris":{"android":"levelo://app?vid=4f6808a1-8d10-495c-a120-94ce080ac3f1","ios":"levelo://app?vid=4f6808a1-8d10-495c-a120-94ce080ac3f1"},"vehicle_type_id":"4","last_reported":1722985704,"current_range_meters":30800,"station_id":"ce4bhr12rcd13ifvqhqg","pricing_plan_id":"cebpf4jnsgd1na2vs0mg"},{"bike_id":"10347cb0-ee34-4409-9da4-fc8edd24c596","system_id":"levelo_inurba_marseille","lat":43.322872,"lon":5.382756,"is_reserved":false,"is_disabled":false,"rental_uris":{"android":"levelo://app?vid=10347cb0-ee34-4409-9da4-fc8edd24c596","ios":"levelo://app?vid=10347cb0-ee34-4409-9da4-fc8edd24c596"},"vehicle_type_id":"4","last_reported":1722985704,"current_range_meters":31600,"station_id":"ce4bhr12rcd13ifvqhqg","pricing_plan_id":"cebpf4jnsgd1na2vs0mg"},{"bike_id":"b02d1d9b-94ad-4d5f-a0bb-0ad3c0d5897d","system_id":"levelo_inurba_marseille","lat":43.322872,"lon":5.382756,"is_reserved":false,"is_disabled":false,"rental_uris":{"android":"levelo://app?vid=b02d1d9b-94ad-4d5f-a0bb-0ad3c0d5897d","ios":"levelo://app?vid=b02d1d9b-94ad-4d5f-a0bb-0ad3c0d5897d"},"vehicle_type_id":"4","last_reported":1722985704,"current_range_meters":13600,"station_id":"ce4bhr12rcd13ifvqhqg","pricing_plan_id":"cebpf4jnsgd1na2vs0mg"},{"bike_id":"0792bba9-7222-439f-98eb-b66f7523ce05","system_id":"levelo_inurba_marseille","lat":43.322872,"lon":5.382756,"is_reserved":false,"is_disabled":false,"rental_uris":{"android":"levelo://app?vid=0792bba9-7222-439f-98eb-b66f7523ce05","ios":"levelo://app?vid=0792bba9-7222-439f-98eb-b66f7523ce05"},"vehicle_type_id":"4","last_reported":1722985704,"current_range_meters":20000,"station_id":"ce4bhr12rcd13ifvqhqg","pricing_plan_id":"cebpf4jnsgd1na2vs0mg"},{"bike_id":"51010075-5b09-485b-9346-0f51254392d9","system_id":"levelo_inurba_marseille","lat":43.32293,"lon":5.3827,"is_reserved":false,"is_disabled":false,"rental_uris":{"android":"levelo://app?vid=51010075-5b09-485b-9346-0f51254392d9","ios":"levelo://app?vid=51010075-5b09-485b-9346-0f51254392d9"},"vehicle_type_id":"4","last_reported":1722985704,"current_range_meters":25200,"station_id":"ce4bhr12rcd13ifvqhqg","pricing_plan_id":"cebpf4jnsgd1na2vs0mg"},{"bike_id":"5a4869e6-472f-4448-a43c-c23c813b2f3f","system_id":"levelo_inurba_marseille","lat":43.322872,"lon":5.382756,"is_reserved":false,"is_disabled":false,"rental_uris":{"android":"levelo://app?vid=5a4869e6-472f-4448-a43c-c23c813b2f3f","ios":"levelo://app?vid=5a4869e6-472f-4448-a43c-c23c813b2f3f"},"vehicle_type_id":"4","last_reported":1722985704,"current_range_meters":30400,"station_id":"ce4bhr12rcd13ifvqhqg","pricing_plan_id":"cebpf4jnsgd1na2vs0mg"},{"bike_id":"970b0739-7ffd-4036-9c41-2674f56f5f5c","system_id":"levelo_inurba_marseille","lat":43.322872,"lon":5.382756,"is_reserved":false,"is_disabled":false,"rental_uris":{"android":"levelo://app?vid=970b0739-7ffd-4036-9c41-2674f56f5f5c","ios":"levelo://app?vid=970b0739-7ffd-4036-9c41-2674f56f5f5c"},"vehicle_type_id":"4","last_reported":1722985704,"current_range_meters":28000,"station_id":"ce4bhr12rcd13ifvqhqg","pricing_plan_id":"cebpf4jnsgd1na2vs0mg"},{"bike_id":"99741cf9-48ff-451d-a5a8-4c525521e4bc","system_id":"levelo_inurba_marseille","lat":43.297163,"lon":5.365866,"is_reserved":false,"is_disabled":false,"rental_uris":{"android":"levelo://app?vid=99741cf9-48ff-451d-a5a8-4c525521e4bc","ios":"levelo://app?vid=99741cf9-48ff-451d-a5a8-4c525521e4bc"},"vehicle_type_id":"4","last_reported":1722985704,"current_range_meters":28000,"station_id":"ce4bgn12rcd13ifvqbt0","pricing_plan_id":"cebpf4jnsgd1na2vs0mg"},{"bike_id":"e104ae70-54a9-468e-98f9-c1863975610f","system_id":"levelo_inurba_marseille","lat":43.31971,"lon":5.38617,"is_reserved":false,"is_disabled":false,"rental_uris":{"android":"levelo://app?vid=e104ae70-54a9-468e-98f9-c1863975610f","ios":"levelo://app?vid=e104ae70-54a9-468e-98f9-c1863975610f"},"vehicle_type_id":"4","last_reported":1722985704,"current_range_meters":1600,"station_id":"","pricing_plan_id":"cebpf4jnsgd1na2vs0mg"},{"bike_id":"9b264167-0080-4879-88b4-131f38aec3ec","system_id":"levelo_inurba_marseille","lat":43.297163,"lon":5.365866,"is_reserved":false,"is_disabled":false,"rental_uris":{"android":"levelo://app?vid=9b264167-0080-4879-88b4-131f38aec3ec","ios":"levelo://app?vid=9b264167-0080-4879-88b4-131f38aec3ec"},"vehicle_type_id":"4","last_reported":1722985704,"current_range_meters":15600,"station_id":"ce4bgn12rcd13ifvqbt0","pricing_plan_id":"cebpf4jnsgd1na2vs0mg"},{"bike_id":"bd2bea09-9e2b-4979-abd3-28d64127bb10","system_id":"levelo_inurba_marseille","lat":43.297163,"lon":5.365866,"is_reserved":false,"is_disabled":false,"rental_uris":{"android":"levelo://app?vid=bd2bea09-9e2b-4979-abd3-28d64127bb10","ios":"levelo://app?vid=bd2bea09-9e2b-4979-abd3-28d64127bb10"},"vehicle_type_id":"4","last_reported":1722985704,"current_range_meters":10000,"station_id":"ce4bgn12rcd13ifvqbt0","pricing_plan_id":"cebpf4jnsgd1na2vs0mg"},{"bike_id":"8bc111d1-b7a8-4f68-b81b-19ab91a0ef31","system_id":"levelo_inurba_marseille","lat":43.297163,"lon":5.365866,"is_reserved":false,"is_disabled":false,"rental_uris":{"android":"levelo://app?vid=8bc111d1-b7a8-4f68-b81b-19ab91a0ef31","ios":"levelo://app?vid=8bc111d1-b7a8-4f68-b81b-19ab91a0ef31"},"vehicle_type_id":"4","last_reported":1722985704,"current_range_meters":21600,"station_id":"ce4bgn12rcd13ifvqbt0","pricing_plan_id":"cebpf4jnsgd1na2vs0mg"},{"bike_id":"216240ef-238f-48ba-bd26-5d1c9cf540df","system_id":"levelo_inurba_marseille","lat":43.320441,"lon":5.386038,"is_reserved":false,"is_disabled":false,"rental_uris":{"android":"levelo://app?vid=216240ef-238f-48ba-bd26-5d1c9cf540df","ios":"levelo://app?vid=216240ef-238f-48ba-bd26-5d1c9cf540df"},"vehicle_type_id":"4","last_reported":1722985704,"current_range_meters":5200,"station_id":"","pricing_plan_id":"cebpf4jnsgd1na2vs0mg"},{"bike_id":"3d68700e-65c5-4304-b23a-d2d640763b16","system_id":"levelo_inurba_marseille","lat":43.323339,"lon":5.385206,"is_reserved":false,"is_disabled":false,"rental_uris":{"android":"levelo://app?vid=3d68700e-65c5-4304-b23a-d2d640763b16","ios":"levelo://app?vid=3d68700e-65c5-4304-b23a-d2d640763b16"},"vehicle_type_id":"4","last_reported":1722985704,"current_range_meters":19200,"station_id":"","pricing_plan_id":"cebpf4jnsgd1na2vs0mg"},{"bike_id":"0c7125e6-3f6a-4d7c-8ad8-80c30680cd39","system_id":"levelo_inurba_marseille","lat":43.296935,"lon":5.376544,"is_reserved":false,"is_disabled":false,"rental_uris":{"android":"levelo://app?vid=0c7125e6-3f6a-4d7c-8ad8-80c30680cd39","ios":"levelo://app?vid=0c7125e6-3f6a-4d7c-8ad8-80c30680cd39"},"vehicle_type_id":"4","last_reported":1722985704,"current_range_meters":28000,"station_id":"ce4bgkh2rcd13ifvqbl0","pricing_plan_id":"cebpf4jnsgd1na2vs0mg"},{"bike_id":"69d48249-5c53-41c6-be03-918423a3ed5b","system_id":"levelo_inurba_marseille","lat":43.309589,"lon":5.390258,"is_reserved":false,"is_disabled":false,"rental_uris":{"android":"levelo://app?vid=69d48249-5c53-41c6-be03-918423a3ed5b","ios":"levelo://app?vid=69d48249-5c53-41c6-be03-918423a3ed5b"},"vehicle_type_id":"4","last_reported":1722985704,"current_range_meters":31200,"station_id":"ce4bgup2rcd13ifvqco0","pricing_plan_id":"cebpf4jnsgd1na2vs0mg"},{"bike_id":"7e990d97-96ba-4090-87e2-f4fde6ad5bf7","system_id":"levelo_inurba_marseille","lat":43.299028,"lon":5.381509,"is_reserved":false,"is_disabled":false,"rental_uris":{"android":"levelo://app?vid=7e990d97-96ba-4090-87e2-f4fde6ad5bf7","ios":"levelo://app?vid=7e990d97-96ba-4090-87e2-f4fde6ad5bf7"},"vehicle_type_id":"4","last_reported":1722985704,"current_range_meters":15600,"station_id":"ce4bgj12rcd13ifvqbc0","pricing_plan_id":"cebpf4jnsgd1na2vs0mg"},{"bike_id":"ba5a2422-cd91-4cbd-994c-a372313a3b7f","system_id":"levelo_inurba_marseille","lat":43.309589,"lon":5.390258,"is_reserved":false,"is_disabled":false,"rental_uris":{"android":"levelo://app?vid=ba5a2422-cd91-4cbd-994c-a372313a3b7f","ios":"levelo://app?vid=ba5a2422-cd91-4cbd-994c-a372313a3b7f"},"vehicle_type_id":"4","last_reported":1722985704,"current_range_meters":30800,"station_id":"ce4bgup2rcd13ifvqco0","pricing_plan_id":"cebpf4jnsgd1na2vs0mg"},{"bike_id":"b6e2d3ef-a2ea-453c-adfd-93afe83b2a61","system_id":"levelo_inurba_marseille","lat":43.309589,"lon":5.390258,"is_reserved":false,"is_disabled":false,"rental_uris":{"android":"levelo://app?vid=b6e2d3ef-a2ea-453c-adfd-93afe83b2a61","ios":"levelo://app?vid=b6e2d3ef-a2ea-453c-adfd-93afe83b2a61"},"vehicle_type_id":"4","last_reported":1722985704,"current_range_meters":12400,"station_id":"ce4bgup2rcd13ifvqco0","pricing_plan_id":"cebpf4jnsgd1na2vs0mg"},{"bike_id":"80f20dc2-443e-4c7e-98ee-64fe1a44ab16","system_id":"levelo_inurba_marseille","lat":43.309589,"lon":5.390258,"is_reserved":false,"is_disabled":false,"rental_uris":{"android":"levelo://app?vid=80f20dc2-443e-4c7e-98ee-64fe1a44ab16","ios":"levelo://app?vid=80f20dc2-443e-4c7e-98ee-64fe1a44ab16"},"vehicle_type_id":"4","last_reported":1722985704,"current_range_meters":31200,"station_id":"ce4bgup2rcd13ifvqco0","pricing_plan_id":"cebpf4jnsgd1na2vs0mg"},{"bike_id":"70e946fd-a8df-47e2-b2d2-ac6fd2cdae72","system_id":"levelo_inurba_marseille","lat":43.309589,"lon":5.390258,"is_reserved":false,"is_disabled":false,"rental_uris":{"android":"levelo://app?vid=70e946fd-a8df-47e2-b2d2-ac6fd2cdae72","ios":"levelo://app?vid=70e946fd-a8df-47e2-b2d2-ac6fd2cdae72"},"vehicle_type_id":"4","last_reported":1722985704,"current_range_meters":0,"station_id":"ce4bgup2rcd13ifvqco0","pricing_plan_id":"cebpf4jnsgd1na2vs0mg"},{"bike_id":"a95da88a-3242-4e23-a3b7-226c7958b133","system_id":"levelo_inurba_marseille","lat":43.309589,"lon":5.390258,"is_reserved":false,"is_disabled":false,"rental_uris":{"android":"levelo://app?vid=a95da88a-3242-4e23-a3b7-226c7958b133","ios":"levelo://app?vid=a95da88a-3242-4e23-a3b7-226c7958b133"},"vehicle_type_id":"4","last_reported":1722985704,"current_range_meters":31600,"station_id":"ce4bgup2rcd13ifvqco0","pricing_plan_id":"cebpf4jnsgd1na2vs0mg"},{"bike_id":"72d5f5eb-831f-4895-b159-e67232f6a052","system_id":"levelo_inurba_marseille","lat":43.309589,"lon":5.390258,"is_reserved":false,"is_disabled":false,"rental_uris":{"android":"levelo://app?vid=72d5f5eb-831f-4895-b159-e67232f6a052","ios":"levelo://app?vid=72d5f5eb-831f-4895-b159-e67232f6a052"},"vehicle_type_id":"4","last_reported":1722985704,"current_range_meters":31200,"station_id":"ce4bgup2rcd13ifvqco0","pricing_plan_id":"cebpf4jnsgd1na2vs0mg"},{"bike_id":"f658c457-ac19-42f3-9783-6f16b90f0dae","system_id":"levelo_inurba_marseille","lat":43.309589,"lon":5.390258,"is_reserved":false,"is_disabled":false,"rental_uris":{"android":"levelo://app?vid=f658c457-ac19-42f3-9783-6f16b90f0dae","ios":"levelo://app?vid=f658c457-ac19-42f3-9783-6f16b90f0dae"},"vehicle_type_id":"4","last_reported":1722985704,"current_range_meters":24000,"station_id":"ce4bgup2rcd13ifvqco0","pricing_plan_id":"cebpf4jnsgd1na2vs0mg"},{"bike_id":"b49fa772-ca5a-4025-b5ea-e06fd674a5fd","system_id":"levelo_inurba_marseille","lat":43.309589,"lon":5.390258,"is_reserved":false,"is_disabled":false,"rental_uris":{"android":"levelo://app?vid=b49fa772-ca5a-4025-b5ea-e06fd674a5fd","ios":"levelo://app?vid=b49fa772-ca5a-4025-b5ea-e06fd674a5fd"},"vehicle_type_id":"4","last_reported":1722985704,"current_range_meters":30800,"station_id":"ce4bgup2rcd13ifvqco0","pricing_plan_id":"cebpf4jnsgd1na2vs0mg"},{"bike_id":"1596d363-f980-4f5f-ad84-bc4afb3ae8df","system_id":"levelo_inurba_marseille","lat":43.309589,"lon":5.390258,"is_reserved":false,"is_disabled":false,"rental_uris":{"android":"levelo://app?vid=1596d363-f980-4f5f-ad84-bc4afb3ae8df","ios":"levelo://app?vid=1596d363-f980-4f5f-ad84-bc4afb3ae8df"},"vehicle_type_id":"4","last_reported":1722985704,"current_range_meters":22000,"station_id":"ce4bgup2rcd13ifvqco0","pricing_plan_id":"cebpf4jnsgd1na2vs0mg"},{"bike_id":"34eeb3ea-ed36-4872-95ee-5fd067e756ba","system_id":"levelo_inurba_marseille","lat":43.309589,"lon":5.390258,"is_reserved":false,"is_disabled":false,"rental_uris":{"android":"levelo://app?vid=34eeb3ea-ed36-4872-95ee-5fd067e756ba","ios":"levelo://app?vid=34eeb3ea-ed36-4872-95ee-5fd067e756ba"},"vehicle_type_id":"4","last_reported":1722985704,"current_range_meters":4400,"station_id":"ce4bgup2rcd13ifvqco0","pricing_plan_id":"cebpf4jnsgd1na2vs0mg"},{"bike_id":"dbb0db9e-6642-4436-8e66-20de0b23fb74","system_id":"levelo_inurba_marseille","lat":43.309589,"lon":5.390258,"is_reserved":false,"is_disabled":false,"rental_uris":{"android":"levelo://app?vid=dbb0db9e-6642-4436-8e66-20de0b23fb74","ios":"levelo://app?vid=dbb0db9e-6642-4436-8e66-20de0b23fb74"},"vehicle_type_id":"4","last_reported":1722985704,"current_range_meters":2000,"station_id":"ce4bgup2rcd13ifvqco0","pricing_plan_id":"cebpf4jnsgd1na2vs0mg"},{"bike_id":"9c78359c-7df8-45cb-a9f9-ddf9d5ebd10c","system_id":"levelo_inurba_marseille","lat":43.317557,"lon":5.390173,"is_reserved":false,"is_disabled":false,"rental_uris":{"android":"levelo://app?vid=9c78359c-7df8-45cb-a9f9-ddf9d5ebd10c","ios":"levelo://app?vid=9c78359c-7df8-45cb-a9f9-ddf9d5ebd10c"},"vehicle_type_id":"4","last_reported":1722985704,"current_range_meters":19200,"station_id":"ce4bhqp2rcd13ifvqhng","pricing_plan_id":"cebpf4jnsgd1na2vs0mg"},{"bike_id":"ae104666-0983-4a43-89f5-2e4ad0140fa9","system_id":"levelo_inurba_marseille","lat":43.317557,"lon":5.390173,"is_reserved":false,"is_disabled":false,"rental_uris":{"android":"levelo://app?vid=ae104666-0983-4a43-89f5-2e4ad0140fa9","ios":"levelo://app?vid=ae104666-0983-4a43-89f5-2e4ad0140fa9"},"vehicle_type_id":"4","last_reported":1722985704,"current_range_meters":31200,"station_id":"ce4bhqp2rcd13ifvqhng","pricing_plan_id":"cebpf4jnsgd1na2vs0mg"},{"bike_id":"9f32367c-97cd-4c18-8ff9-c50c420dbefa","system_id":"levelo_inurba_marseille","lat":43.317557,"lon":5.390173,"is_reserved":false,"is_disabled":false,"rental_uris":{"android":"levelo://app?vid=9f32367c-97cd-4c18-8ff9-c50c420dbefa","ios":"levelo://app?vid=9f32367c-97cd-4c18-8ff9-c50c420dbefa"},"vehicle_type_id":"4","last_reported":1722985704,"current_range_meters":32000,"station_id":"ce4bhqp2rcd13ifvqhng","pricing_plan_id":"cebpf4jnsgd1na2vs0mg"},{"bike_id":"0ec19712-cced-4714-a2ba-f0065dba1d80","system_id":"levelo_inurba_marseille","lat":43.317557,"lon":5.390173,"is_reserved":false,"is_disabled":false,"rental_uris":{"android":"levelo://app?vid=0ec19712-cced-4714-a2ba-f0065dba1d80","ios":"levelo://app?vid=0ec19712-cced-4714-a2ba-f0065dba1d80"},"vehicle_type_id":"4","last_reported":1722985704,"current_range_meters":22800,"station_id":"ce4bhqp2rcd13ifvqhng","pricing_plan_id":"cebpf4jnsgd1na2vs0mg"},{"bike_id":"dcd157a6-2749-4746-be19-4b6f9d5824a9","system_id":"levelo_inurba_marseille","lat":43.317557,"lon":5.390173,"is_reserved":false,"is_disabled":false,"rental_uris":{"android":"levelo://app?vid=dcd157a6-2749-4746-be19-4b6f9d5824a9","ios":"levelo://app?vid=dcd157a6-2749-4746-be19-4b6f9d5824a9"},"vehicle_type_id":"4","last_reported":1722985704,"current_range_meters":6000,"station_id":"ce4bhqp2rcd13ifvqhng","pricing_plan_id":"cebpf4jnsgd1na2vs0mg"},{"bike_id":"4135400c-effb-4920-8806-27f5c62d53ec","system_id":"levelo_inurba_marseille","lat":43.322984,"lon":5.386746,"is_reserved":false,"is_disabled":false,"rental_uris":{"android":"levelo://app?vid=4135400c-effb-4920-8806-27f5c62d53ec","ios":"levelo://app?vid=4135400c-effb-4920-8806-27f5c62d53ec"},"vehicle_type_id":"4","last_reported":1722985704,"current_range_meters":11600,"station_id":"","pricing_plan_id":"cebpf4jnsgd1na2vs0mg"},{"bike_id":"2eb021d6-4c2b-442a-ad22-31f0675cbd83","system_id":"levelo_inurba_marseille","lat":43.32346,"lon":5.38632,"is_reserved":false,"is_disabled":false,"rental_uris":{"android":"levelo://app?vid=2eb021d6-4c2b-442a-ad22-31f0675cbd83","ios":"levelo://app?vid=2eb021d6-4c2b-442a-ad22-31f0675cbd83"},"vehicle_type_id":"4","last_reported":1722985704,"current_range_meters":24000,"station_id":"","pricing_plan_id":"cebpf4jnsgd1na2vs0mg"},{"bike_id":"e5fd5a09-0c7e-4621-9b00-da59e902f46b","system_id":"levelo_inurba_marseille","lat":43.304278,"lon":5.388868,"is_reserved":false,"is_disabled":false,"rental_uris":{"android":"levelo://app?vid=e5fd5a09-0c7e-4621-9b00-da59e902f46b","ios":"levelo://app?vid=e5fd5a09-0c7e-4621-9b00-da59e902f46b"},"vehicle_type_id":"4","last_reported":1722985704,"current_range_meters":22000,"station_id":"ce4bgk12rcd13ifvqbi0","pricing_plan_id":"cebpf4jnsgd1na2vs0mg"},{"bike_id":"2a366dd6-cc7b-422c-b06e-14bcb42ee73a","system_id":"levelo_inurba_marseille","lat":43.304274,"lon":5.388873,"is_reserved":false,"is_disabled":false,"rental_uris":{"android":"levelo://app?vid=2a366dd6-cc7b-422c-b06e-14bcb42ee73a","ios":"levelo://app?vid=2a366dd6-cc7b-422c-b06e-14bcb42ee73a"},"vehicle_type_id":"4","last_reported":1722985704,"current_range_meters":27600,"station_id":"ce4bgk12rcd13ifvqbi0","pricing_plan_id":"cebpf4jnsgd1na2vs0mg"},{"bike_id":"21b37992-0006-40f2-8cc5-234ee9cd67c4","system_id":"levelo_inurba_marseille","lat":43.304274,"lon":5.388873,"is_reserved":false,"is_disabled":false,"rental_uris":{"android":"levelo://app?vid=21b37992-0006-40f2-8cc5-234ee9cd67c4","ios":"levelo://app?vid=21b37992-0006-40f2-8cc5-234ee9cd67c4"},"vehicle_type_id":"4","last_reported":1722985704,"current_range_meters":21600,"station_id":"ce4bgk12rcd13ifvqbi0","pricing_plan_id":"cebpf4jnsgd1na2vs0mg"},{"bike_id":"8987b7cc-3a2e-4541-a7a7-74758615de28","system_id":"levelo_inurba_marseille","lat":43.304278,"lon":5.388868,"is_reserved":false,"is_disabled":false,"rental_uris":{"android":"levelo://app?vid=8987b7cc-3a2e-4541-a7a7-74758615de28","ios":"levelo://app?vid=8987b7cc-3a2e-4541-a7a7-74758615de28"},"vehicle_type_id":"4","last_reported":1722985704,"current_range_meters":27600,"station_id":"ce4bgk12rcd13ifvqbi0","pricing_plan_id":"cebpf4jnsgd1na2vs0mg"},{"bike_id":"d02ff127-eac0-46c4-bcdc-7d946bf34dcb","system_id":"levelo_inurba_marseille","lat":43.304278,"lon":5.388868,"is_reserved":false,"is_disabled":false,"rental_uris":{"android":"levelo://app?vid=d02ff127-eac0-46c4-bcdc-7d946bf34dcb","ios":"levelo://app?vid=d02ff127-eac0-46c4-bcdc-7d946bf34dcb"},"vehicle_type_id":"4","last_reported":1722985704,"current_range_meters":32000,"station_id":"ce4bgk12rcd13ifvqbi0","pricing_plan_id":"cebpf4jnsgd1na2vs0mg"},{"bike_id":"da82dad8-7cf8-4fac-886a-1e6482320c63","system_id":"levelo_inurba_marseille","lat":43.304278,"lon":5.388868,"is_reserved":false,"is_disabled":false,"rental_uris":{"android":"levelo://app?vid=da82dad8-7cf8-4fac-886a-1e6482320c63","ios":"levelo://app?vid=da82dad8-7cf8-4fac-886a-1e6482320c63"},"vehicle_type_id":"4","last_reported":1722985704,"current_range_meters":31600,"station_id":"ce4bgk12rcd13ifvqbi0","pricing_plan_id":"cebpf4jnsgd1na2vs0mg"},{"bike_id":"4db71d0e-fae6-40bd-8fcd-e043161875e7","system_id":"levelo_inurba_marseille","lat":43.304278,"lon":5.388868,"is_reserved":false,"is_disabled":false,"rental_uris":{"android":"levelo://app?vid=4db71d0e-fae6-40bd-8fcd-e043161875e7","ios":"levelo://app?vid=4db71d0e-fae6-40bd-8fcd-e043161875e7"},"vehicle_type_id":"4","last_reported":1722985704,"current_range_meters":24800,"station_id":"ce4bgk12rcd13ifvqbi0","pricing_plan_id":"cebpf4jnsgd1na2vs0mg"},{"bike_id":"b86b4257-9b02-45db-bf42-ba5be13ed49f","system_id":"levelo_inurba_marseille","lat":43.304278,"lon":5.388868,"is_reserved":false,"is_disabled":false,"rental_uris":{"android":"levelo://app?vid=b86b4257-9b02-45db-bf42-ba5be13ed49f","ios":"levelo://app?vid=b86b4257-9b02-45db-bf42-ba5be13ed49f"},"vehicle_type_id":"4","last_reported":1722985704,"current_range_meters":28400,"station_id":"ce4bgk12rcd13ifvqbi0","pricing_plan_id":"cebpf4jnsgd1na2vs0mg"},{"bike_id":"1c5e073a-d5c2-4005-a576-2e852d69ac0a","system_id":"levelo_inurba_marseille","lat":43.324743,"lon":5.386013,"is_reserved":false,"is_disabled":false,"rental_uris":{"android":"levelo://app?vid=1c5e073a-d5c2-4005-a576-2e852d69ac0a","ios":"levelo://app?vid=1c5e073a-d5c2-4005-a576-2e852d69ac0a"},"vehicle_type_id":"4","last_reported":1722985704,"current_range_meters":30400,"station_id":"","pricing_plan_id":"cebpf4jnsgd1na2vs0mg"},{"bike_id":"18bf678d-2eed-40f9-ad55-df5d550760e0","system_id":"levelo_inurba_marseille","lat":43.314554,"lon":5.392052,"is_reserved":false,"is_disabled":false,"rental_uris":{"android":"levelo://app?vid=18bf678d-2eed-40f9-ad55-df5d550760e0","ios":"levelo://app?vid=18bf678d-2eed-40f9-ad55-df5d550760e0"},"vehicle_type_id":"4","last_reported":1722985704,"current_range_meters":20000,"station_id":"","pricing_plan_id":"cebpf4jnsgd1na2vs0mg"},{"bike_id":"73f86bd4-f6e1-4011-b125-05d246b4ff4e","system_id":"levelo_inurba_marseille","lat":43.299717,"lon":5.384845,"is_reserved":false,"is_disabled":false,"rental_uris":{"android":"levelo://app?vid=73f86bd4-f6e1-4011-b125-05d246b4ff4e","ios":"levelo://app?vid=73f86bd4-f6e1-4011-b125-05d246b4ff4e"},"vehicle_type_id":"4","last_reported":1722985704,"current_range_meters":3200,"station_id":"ce4bgj92rcd13ifvqbd0","pricing_plan_id":"cebpf4jnsgd1na2vs0mg"},{"bike_id":"d8c51528-a786-4bf8-88a8-471220762fbb","system_id":"levelo_inurba_marseille","lat":43.314336,"lon":5.39289,"is_reserved":false,"is_disabled":false,"rental_uris":{"android":"levelo://app?vid=d8c51528-a786-4bf8-88a8-471220762fbb","ios":"levelo://app?vid=d8c51528-a786-4bf8-88a8-471220762fbb"},"vehicle_type_id":"4","last_reported":1722985704,"current_range_meters":11600,"station_id":"","pricing_plan_id":"cebpf4jnsgd1na2vs0mg"},{"bike_id":"e511b15f-0d2b-4913-9476-9641cba1ddcf","system_id":"levelo_inurba_marseille","lat":43.32367,"lon":5.388836,"is_reserved":false,"is_disabled":false,"rental_uris":{"android":"levelo://app?vid=e511b15f-0d2b-4913-9476-9641cba1ddcf","ios":"levelo://app?vid=e511b15f-0d2b-4913-9476-9641cba1ddcf"},"vehicle_type_id":"4","last_reported":1722985704,"current_range_meters":30800,"station_id":"ce4bhqp2rcd13ifvqhog","pricing_plan_id":"cebpf4jnsgd1na2vs0mg"},{"bike_id":"614ca04c-428d-4313-95ad-47e7aac5afcb","system_id":"levelo_inurba_marseille","lat":43.323604,"lon":5.388872,"is_reserved":false,"is_disabled":false,"rental_uris":{"android":"levelo://app?vid=614ca04c-428d-4313-95ad-47e7aac5afcb","ios":"levelo://app?vid=614ca04c-428d-4313-95ad-47e7aac5afcb"},"vehicle_type_id":"4","last_reported":1722985704,"current_range_meters":10400,"station_id":"ce4bhqp2rcd13ifvqhog","pricing_plan_id":"cebpf4jnsgd1na2vs0mg"},{"bike_id":"9989284d-c497-4bdb-a636-474f0b60793d","system_id":"levelo_inurba_marseille","lat":43.32367,"lon":5.388836,"is_reserved":false,"is_disabled":false,"rental_uris":{"android":"levelo://app?vid=9989284d-c497-4bdb-a636-474f0b60793d","ios":"levelo://app?vid=9989284d-c497-4bdb-a636-474f0b60793d"},"vehicle_type_id":"4","last_reported":1722985704,"current_range_meters":13200,"station_id":"ce4bhqp2rcd13ifvqhog","pricing_plan_id":"cebpf4jnsgd1na2vs0mg"},{"bike_id":"6c8456ed-f9dc-4dc6-ad8b-14d91edddba0","system_id":"levelo_inurba_marseille","lat":43.32367,"lon":5.388836,"is_reserved":false,"is_disabled":false,"rental_uris":{"android":"levelo://app?vid=6c8456ed-f9dc-4dc6-ad8b-14d91edddba0","ios":"levelo://app?vid=6c8456ed-f9dc-4dc6-ad8b-14d91edddba0"},"vehicle_type_id":"4","last_reported":1722985704,"current_range_meters":22400,"station_id":"ce4bhqp2rcd13ifvqhog","pricing_plan_id":"cebpf4jnsgd1na2vs0mg"},{"bike_id":"2f78e8ce-c079-4ce3-a1b4-8ca459024ba3","system_id":"levelo_inurba_marseille","lat":43.32367,"lon":5.3889,"is_reserved":false,"is_disabled":false,"rental_uris":{"android":"levelo://app?vid=2f78e8ce-c079-4ce3-a1b4-8ca459024ba3","ios":"levelo://app?vid=2f78e8ce-c079-4ce3-a1b4-8ca459024ba3"},"vehicle_type_id":"4","last_reported":1722985704,"current_range_meters":16000,"station_id":"ce4bhqp2rcd13ifvqhog","pricing_plan_id":"cebpf4jnsgd1na2vs0mg"},{"bike_id":"6db8d5ba-8c43-4e8c-be44-dfab21f0747d","system_id":"levelo_inurba_marseille","lat":43.32367,"lon":5.388836,"is_reserved":false,"is_disabled":false,"rental_uris":{"android":"levelo://app?vid=6db8d5ba-8c43-4e8c-be44-dfab21f0747d","ios":"levelo://app?vid=6db8d5ba-8c43-4e8c-be44-dfab21f0747d"},"vehicle_type_id":"4","last_reported":1722985704,"current_range_meters":20800,"station_id":"ce4bhqp2rcd13ifvqhog","pricing_plan_id":"cebpf4jnsgd1na2vs0mg"},{"bike_id":"2f5f069a-93f3-417f-8977-da5bb7c0f912","system_id":"levelo_inurba_marseille","lat":43.254945,"lon":5.376454,"is_reserved":false,"is_disabled":false,"rental_uris":{"android":"levelo://app?vid=2f5f069a-93f3-417f-8977-da5bb7c0f912","ios":"levelo://app?vid=2f5f069a-93f3-417f-8977-da5bb7c0f912"},"vehicle_type_id":"4","last_reported":1722985704,"current_range_meters":0,"station_id":"ce4bhh12rcd13ifvqff0","pricing_plan_id":"cebpf4jnsgd1na2vs0mg"},{"bike_id":"d14e11b6-8789-4057-a085-50cfea565785","system_id":"levelo_inurba_marseille","lat":43.29311,"lon":5.37443,"is_reserved":false,"is_disabled":false,"rental_uris":{"android":"levelo://app?vid=d14e11b6-8789-4057-a085-50cfea565785","ios":"levelo://app?vid=d14e11b6-8789-4057-a085-50cfea565785"},"vehicle_type_id":"4","last_reported":1722985704,"current_range_meters":18000,"station_id":"ce4bgi12rcd13ifvqb70","pricing_plan_id":"cebpf4jnsgd1na2vs0mg"},{"bike_id":"0df0b183-d855-417c-98ad-c8a107ae143d","system_id":"levelo_inurba_marseille","lat":43.305994,"lon":5.393687,"is_reserved":false,"is_disabled":false,"rental_uris":{"android":"levelo://app?vid=0df0b183-d855-417c-98ad-c8a107ae143d","ios":"levelo://app?vid=0df0b183-d855-417c-98ad-c8a107ae143d"},"vehicle_type_id":"4","last_reported":1722985704,"current_range_meters":22400,"station_id":"ce4bh0p2rcd13ifvqd80","pricing_plan_id":"cebpf4jnsgd1na2vs0mg"},{"bike_id":"359b5fbf-b012-4449-aef5-d138b39fa27e","system_id":"levelo_inurba_marseille","lat":43.305994,"lon":5.393687,"is_reserved":false,"is_disabled":false,"rental_uris":{"android":"levelo://app?vid=359b5fbf-b012-4449-aef5-d138b39fa27e","ios":"levelo://app?vid=359b5fbf-b012-4449-aef5-d138b39fa27e"},"vehicle_type_id":"4","last_reported":1722985704,"current_range_meters":6400,"station_id":"ce4bh0p2rcd13ifvqd80","pricing_plan_id":"cebpf4jnsgd1na2vs0mg"},{"bike_id":"ec416c99-37fb-48f0-9271-4edb23c44efa","system_id":"levelo_inurba_marseille","lat":43.305994,"lon":5.393687,"is_reserved":false,"is_disabled":false,"rental_uris":{"android":"levelo://app?vid=ec416c99-37fb-48f0-9271-4edb23c44efa","ios":"levelo://app?vid=ec416c99-37fb-48f0-9271-4edb23c44efa"},"vehicle_type_id":"4","last_reported":1722985704,"current_range_meters":0,"station_id":"ce4bh0p2rcd13ifvqd80","pricing_plan_id":"cebpf4jnsgd1na2vs0mg"},{"bike_id":"5b87b788-d7d9-4c02-8926-b486c81ba536","system_id":"levelo_inurba_marseille","lat":43.305994,"lon":5.393687,"is_reserved":false,"is_disabled":false,"rental_uris":{"android":"levelo://app?vid=5b87b788-d7d9-4c02-8926-b486c81ba536","ios":"levelo://app?vid=5b87b788-d7d9-4c02-8926-b486c81ba536"},"vehicle_type_id":"4","last_reported":1722985704,"current_range_meters":19600,"station_id":"ce4bh0p2rcd13ifvqd80","pricing_plan_id":"cebpf4jnsgd1na2vs0mg"},{"bike_id":"8f67542b-2065-47ff-9d3a-656f131d0f20","system_id":"levelo_inurba_marseille","lat":43.305994,"lon":5.393687,"is_reserved":false,"is_disabled":false,"rental_uris":{"android":"levelo://app?vid=8f67542b-2065-47ff-9d3a-656f131d0f20","ios":"levelo://app?vid=8f67542b-2065-47ff-9d3a-656f131d0f20"},"vehicle_type_id":"4","last_reported":1722985704,"current_range_meters":17600,"station_id":"ce4bh0p2rcd13ifvqd80","pricing_plan_id":"cebpf4jnsgd1na2vs0mg"},{"bike_id":"22ada8d3-5f71-4cc5-b86d-deb6c9f8fad8","system_id":"levelo_inurba_marseille","lat":43.305994,"lon":5.393687,"is_reserved":false,"is_disabled":false,"rental_uris":{"android":"levelo://app?vid=22ada8d3-5f71-4cc5-b86d-deb6c9f8fad8","ios":"levelo://app?vid=22ada8d3-5f71-4cc5-b86d-deb6c9f8fad8"},"vehicle_type_id":"4","last_reported":1722985704,"current_range_meters":26400,"station_id":"ce4bh0p2rcd13ifvqd80","pricing_plan_id":"cebpf4jnsgd1na2vs0mg"},{"bike_id":"e31f997b-3268-466e-9204-0586d84b0ac0","system_id":"levelo_inurba_marseille","lat":43.305994,"lon":5.393687,"is_reserved":false,"is_disabled":false,"rental_uris":{"android":"levelo://app?vid=e31f997b-3268-466e-9204-0586d84b0ac0","ios":"levelo://app?vid=e31f997b-3268-466e-9204-0586d84b0ac0"},"vehicle_type_id":"4","last_reported":1722985704,"current_range_meters":31600,"station_id":"ce4bh0p2rcd13ifvqd80","pricing_plan_id":"cebpf4jnsgd1na2vs0mg"},{"bike_id":"7676f1c5-1665-47f0-91de-a00d5be9c071","system_id":"levelo_inurba_marseille","lat":43.302992,"lon":5.392136,"is_reserved":false,"is_disabled":false,"rental_uris":{"android":"levelo://app?vid=7676f1c5-1665-47f0-91de-a00d5be9c071","ios":"levelo://app?vid=7676f1c5-1665-47f0-91de-a00d5be9c071"},"vehicle_type_id":"4","last_reported":1722985704,"current_range_meters":20800,"station_id":"ce4bgkh2rcd13ifvqbk0","pricing_plan_id":"cebpf4jnsgd1na2vs0mg"},{"bike_id":"39a0da00-09be-4797-99fb-200ccbe7a528","system_id":"levelo_inurba_marseille","lat":43.29372,"lon":5.3786,"is_reserved":false,"is_disabled":false,"rental_uris":{"android":"levelo://app?vid=39a0da00-09be-4797-99fb-200ccbe7a528","ios":"levelo://app?vid=39a0da00-09be-4797-99fb-200ccbe7a528"},"vehicle_type_id":"4","last_reported":1722985704,"current_range_meters":0,"station_id":"ce4bgjh2rcd13ifvqbf0","pricing_plan_id":"cebpf4jnsgd1na2vs0mg"},{"bike_id":"3f1b0137-c3a1-44c5-8d1c-a1cb29e5186b","system_id":"levelo_inurba_marseille","lat":43.303002,"lon":5.392142,"is_reserved":false,"is_disabled":false,"rental_uris":{"android":"levelo://app?vid=3f1b0137-c3a1-44c5-8d1c-a1cb29e5186b","ios":"levelo://app?vid=3f1b0137-c3a1-44c5-8d1c-a1cb29e5186b"},"vehicle_type_id":"4","last_reported":1722985704,"current_range_meters":15600,"station_id":"ce4bgkh2rcd13ifvqbk0","pricing_plan_id":"cebpf4jnsgd1na2vs0mg"},{"bike_id":"9ac665cb-59e5-4eda-92d4-f2ddafc8e9c5","system_id":"levelo_inurba_marseille","lat":43.3313,"lon":5.38003,"is_reserved":false,"is_disabled":false,"rental_uris":{"android":"levelo://app?vid=9ac665cb-59e5-4eda-92d4-f2ddafc8e9c5","ios":"levelo://app?vid=9ac665cb-59e5-4eda-92d4-f2ddafc8e9c5"},"vehicle_type_id":"4","last_reported":1722985704,"current_range_meters":5200,"station_id":"","pricing_plan_id":"cebpf4jnsgd1na2vs0mg"},{"bike_id":"ad71abb5-6567-4ac9-b538-4d2701788cdd","system_id":"levelo_inurba_marseille","lat":43.2936,"lon":5.37835,"is_reserved":false,"is_disabled":false,"rental_uris":{"android":"levelo://app?vid=ad71abb5-6567-4ac9-b538-4d2701788cdd","ios":"levelo://app?vid=ad71abb5-6567-4ac9-b538-4d2701788cdd"},"vehicle_type_id":"4","last_reported":1722985704,"current_range_meters":0,"station_id":"ce4bgjh2rcd13ifvqbf0","pricing_plan_id":"cebpf4jnsgd1na2vs0mg"},{"bike_id":"c87533bf-096c-4715-be3f-bfccd88205f3","system_id":"levelo_inurba_marseille","lat":43.302992,"lon":5.392136,"is_reserved":false,"is_disabled":false,"rental_uris":{"android":"levelo://app?vid=c87533bf-096c-4715-be3f-bfccd88205f3","ios":"levelo://app?vid=c87533bf-096c-4715-be3f-bfccd88205f3"},"vehicle_type_id":"4","last_reported":1722985704,"current_range_meters":8000,"station_id":"ce4bgkh2rcd13ifvqbk0","pricing_plan_id":"cebpf4jnsgd1na2vs0mg"},{"bike_id":"ec9c6816-b04e-4f46-b846-9f98355947cc","system_id":"levelo_inurba_marseille","lat":43.2936,"lon":5.37835,"is_reserved":false,"is_disabled":false,"rental_uris":{"android":"levelo://app?vid=ec9c6816-b04e-4f46-b846-9f98355947cc","ios":"levelo://app?vid=ec9c6816-b04e-4f46-b846-9f98355947cc"},"vehicle_type_id":"4","last_reported":1722985704,"current_range_meters":0,"station_id":"ce4bgjh2rcd13ifvqbf0","pricing_plan_id":"cebpf4jnsgd1na2vs0mg"},{"bike_id":"0d05cd01-aed0-4157-b1ae-b0fb461c2c14","system_id":"levelo_inurba_marseille","lat":43.2936,"lon":5.37835,"is_reserved":false,"is_disabled":false,"rental_uris":{"android":"levelo://app?vid=0d05cd01-aed0-4157-b1ae-b0fb461c2c14","ios":"levelo://app?vid=0d05cd01-aed0-4157-b1ae-b0fb461c2c14"},"vehicle_type_id":"4","last_reported":1722985704,"current_range_meters":0,"station_id":"ce4bgjh2rcd13ifvqbf0","pricing_plan_id":"cebpf4jnsgd1na2vs0mg"},{"bike_id":"b784e57d-7c9d-4b42-b9d2-234a8be36556","system_id":"levelo_inurba_marseille","lat":43.32648,"lon":5.38876,"is_reserved":false,"is_disabled":false,"rental_uris":{"android":"levelo://app?vid=b784e57d-7c9d-4b42-b9d2-234a8be36556","ios":"levelo://app?vid=b784e57d-7c9d-4b42-b9d2-234a8be36556"},"vehicle_type_id":"4","last_reported":1722985704,"current_range_meters":24800,"station_id":"","pricing_plan_id":"cebpf4jnsgd1na2vs0mg"},{"bike_id":"db33d4a3-638d-4738-9855-db16009855ba","system_id":"levelo_inurba_marseille","lat":43.30085,"lon":5.390856,"is_reserved":false,"is_disabled":false,"rental_uris":{"android":"levelo://app?vid=db33d4a3-638d-4738-9855-db16009855ba","ios":"levelo://app?vid=db33d4a3-638d-4738-9855-db16009855ba"},"vehicle_type_id":"4","last_reported":1722985704,"current_range_meters":5200,"station_id":"ce4bh192rcd13ifvqdb0","pricing_plan_id":"cebpf4jnsgd1na2vs0mg"},{"bike_id":"0b330049-a930-4e1f-a50c-4efc082a1edc","system_id":"levelo_inurba_marseille","lat":43.313576,"lon":5.396027,"is_reserved":false,"is_disabled":false,"rental_uris":{"android":"levelo://app?vid=0b330049-a930-4e1f-a50c-4efc082a1edc","ios":"levelo://app?vid=0b330049-a930-4e1f-a50c-4efc082a1edc"},"vehicle_type_id":"4","last_reported":1722985704,"current_range_meters":27200,"station_id":"","pricing_plan_id":"cebpf4jnsgd1na2vs0mg"},{"bike_id":"ad7c2a07-d14f-404d-94e7-2a12432a84fb","system_id":"levelo_inurba_marseille","lat":43.332323,"lon":5.378193,"is_reserved":false,"is_disabled":false,"rental_uris":{"android":"levelo://app?vid=ad7c2a07-d14f-404d-94e7-2a12432a84fb","ios":"levelo://app?vid=ad7c2a07-d14f-404d-94e7-2a12432a84fb"},"vehicle_type_id":"4","last_reported":1722985704,"current_range_meters":0,"station_id":"","pricing_plan_id":"cebpf4jnsgd1na2vs0mg"},{"bike_id":"eb2dc85e-5094-496c-b6cd-9a4de59c90e7","system_id":"levelo_inurba_marseille","lat":43.291671,"lon":5.371575,"is_reserved":false,"is_disabled":false,"rental_uris":{"android":"levelo://app?vid=eb2dc85e-5094-496c-b6cd-9a4de59c90e7","ios":"levelo://app?vid=eb2dc85e-5094-496c-b6cd-9a4de59c90e7"},"vehicle_type_id":"4","last_reported":1722985704,"current_range_meters":18000,"station_id":"ce4bha92rcd13ifvqeh0","pricing_plan_id":"cebpf4jnsgd1na2vs0mg"},{"bike_id":"43cd3f11-2f6e-45fc-abc6-51b6881bb9b9","system_id":"levelo_inurba_marseille","lat":43.291675,"lon":5.371583,"is_reserved":false,"is_disabled":false,"rental_uris":{"android":"levelo://app?vid=43cd3f11-2f6e-45fc-abc6-51b6881bb9b9","ios":"levelo://app?vid=43cd3f11-2f6e-45fc-abc6-51b6881bb9b9"},"vehicle_type_id":"4","last_reported":1722985704,"current_range_meters":3200,"station_id":"ce4bha92rcd13ifvqeh0","pricing_plan_id":"cebpf4jnsgd1na2vs0mg"},{"bike_id":"fb90e73e-99ac-418f-af54-3a3a098945a6","system_id":"levelo_inurba_marseille","lat":43.29193,"lon":5.35921,"is_reserved":false,"is_disabled":false,"rental_uris":{"android":"levelo://app?vid=fb90e73e-99ac-418f-af54-3a3a098945a6","ios":"levelo://app?vid=fb90e73e-99ac-418f-af54-3a3a098945a6"},"vehicle_type_id":"4","last_reported":1722985704,"current_range_meters":0,"station_id":"","pricing_plan_id":"cebpf4jnsgd1na2vs0mg"},{"bike_id":"ad0d1afe-a762-4df1-b3f5-3c19f80026d6","system_id":"levelo_inurba_marseille","lat":43.309038,"lon":5.396546,"is_reserved":false,"is_disabled":false,"rental_uris":{"android":"levelo://app?vid=ad0d1afe-a762-4df1-b3f5-3c19f80026d6","ios":"levelo://app?vid=ad0d1afe-a762-4df1-b3f5-3c19f80026d6"},"vehicle_type_id":"4","last_reported":1722985704,"current_range_meters":20800,"station_id":"ce4bh012rcd13ifvqcv0","pricing_plan_id":"cebpf4jnsgd1na2vs0mg"},{"bike_id":"f40ca075-9a63-4e7b-a3ae-5bbe4aaf99fa","system_id":"levelo_inurba_marseille","lat":43.313291,"lon":5.396838,"is_reserved":false,"is_disabled":false,"rental_uris":{"android":"levelo://app?vid=f40ca075-9a63-4e7b-a3ae-5bbe4aaf99fa","ios":"levelo://app?vid=f40ca075-9a63-4e7b-a3ae-5bbe4aaf99fa"},"vehicle_type_id":"4","last_reported":1722985704,"current_range_meters":24800,"station_id":"ce4bgvp2rcd13ifvqcu0","pricing_plan_id":"cebpf4jnsgd1na2vs0mg"},{"bike_id":"26b3aecd-6147-499b-a78d-a11818f1ab36","system_id":"levelo_inurba_marseille","lat":43.29191,"lon":5.35801,"is_reserved":false,"is_disabled":false,"rental_uris":{"android":"levelo://app?vid=26b3aecd-6147-499b-a78d-a11818f1ab36","ios":"levelo://app?vid=26b3aecd-6147-499b-a78d-a11818f1ab36"},"vehicle_type_id":"4","last_reported":1722985704,"current_range_meters":6000,"station_id":"ce4bhb12rcd13ifvqel0","pricing_plan_id":"cebpf4jnsgd1na2vs0mg"},{"bike_id":"294e7066-5868-4399-8886-73f4cb2b1c36","system_id":"levelo_inurba_marseille","lat":43.313291,"lon":5.396838,"is_reserved":false,"is_disabled":false,"rental_uris":{"android":"levelo://app?vid=294e7066-5868-4399-8886-73f4cb2b1c36","ios":"levelo://app?vid=294e7066-5868-4399-8886-73f4cb2b1c36"},"vehicle_type_id":"4","last_reported":1722985704,"current_range_meters":12400,"station_id":"ce4bgvp2rcd13ifvqcu0","pricing_plan_id":"cebpf4jnsgd1na2vs0mg"},{"bike_id":"ecfa9d8a-26d7-46b3-8c14-ec7dde07197e","system_id":"levelo_inurba_marseille","lat":43.303242,"lon":5.393931,"is_reserved":false,"is_disabled":false,"rental_uris":{"android":"levelo://app?vid=ecfa9d8a-26d7-46b3-8c14-ec7dde07197e","ios":"levelo://app?vid=ecfa9d8a-26d7-46b3-8c14-ec7dde07197e"},"vehicle_type_id":"4","last_reported":1722985704,"current_range_meters":18400,"station_id":"ce4bh012rcd13ifvqd00","pricing_plan_id":"cebpf4jnsgd1na2vs0mg"},{"bike_id":"847cd1ac-965f-4e03-b999-00c3bead7437","system_id":"levelo_inurba_marseille","lat":43.291994,"lon":5.357886,"is_reserved":false,"is_disabled":false,"rental_uris":{"android":"levelo://app?vid=847cd1ac-965f-4e03-b999-00c3bead7437","ios":"levelo://app?vid=847cd1ac-965f-4e03-b999-00c3bead7437"},"vehicle_type_id":"4","last_reported":1722985704,"current_range_meters":24800,"station_id":"ce4bhb12rcd13ifvqel0","pricing_plan_id":"cebpf4jnsgd1na2vs0mg"},{"bike_id":"3562bf47-1995-4237-a7c2-2ed3c00b5301","system_id":"levelo_inurba_marseille","lat":43.308857,"lon":5.39646,"is_reserved":false,"is_disabled":false,"rental_uris":{"android":"levelo://app?vid=3562bf47-1995-4237-a7c2-2ed3c00b5301","ios":"levelo://app?vid=3562bf47-1995-4237-a7c2-2ed3c00b5301"},"vehicle_type_id":"4","last_reported":1722985704,"current_range_meters":31200,"station_id":"ce4bh012rcd13ifvqcv0","pricing_plan_id":"cebpf4jnsgd1na2vs0mg"},{"bike_id":"9288ba93-dda1-47ca-9411-523c72c8123e","system_id":"levelo_inurba_marseille","lat":43.313291,"lon":5.396838,"is_reserved":false,"is_disabled":false,"rental_uris":{"android":"levelo://app?vid=9288ba93-dda1-47ca-9411-523c72c8123e","ios":"levelo://app?vid=9288ba93-dda1-47ca-9411-523c72c8123e"},"vehicle_type_id":"4","last_reported":1722985704,"current_range_meters":4400,"station_id":"ce4bgvp2rcd13ifvqcu0","pricing_plan_id":"cebpf4jnsgd1na2vs0mg"},{"bike_id":"e01701e4-57e9-44d0-a6e1-894c4e761b9b","system_id":"levelo_inurba_marseille","lat":43.292005,"lon":5.357875,"is_reserved":false,"is_disabled":false,"rental_uris":{"android":"levelo://app?vid=e01701e4-57e9-44d0-a6e1-894c4e761b9b","ios":"levelo://app?vid=e01701e4-57e9-44d0-a6e1-894c4e761b9b"},"vehicle_type_id":"4","last_reported":1722985704,"current_range_meters":21600,"station_id":"ce4bhb12rcd13ifvqel0","pricing_plan_id":"cebpf4jnsgd1na2vs0mg"},{"bike_id":"cde25ac8-1b92-4a5c-8914-20281bb4e060","system_id":"levelo_inurba_marseille","lat":43.30889,"lon":5.396482,"is_reserved":false,"is_disabled":false,"rental_uris":{"android":"levelo://app?vid=cde25ac8-1b92-4a5c-8914-20281bb4e060","ios":"levelo://app?vid=cde25ac8-1b92-4a5c-8914-20281bb4e060"},"vehicle_type_id":"4","last_reported":1722985704,"current_range_meters":17600,"station_id":"ce4bh012rcd13ifvqcv0","pricing_plan_id":"cebpf4jnsgd1na2vs0mg"},{"bike_id":"4297aaf0-bd78-4b04-a71c-7c8b024756f2","system_id":"levelo_inurba_marseille","lat":43.29184,"lon":5.3581,"is_reserved":false,"is_disabled":false,"rental_uris":{"android":"levelo://app?vid=4297aaf0-bd78-4b04-a71c-7c8b024756f2","ios":"levelo://app?vid=4297aaf0-bd78-4b04-a71c-7c8b024756f2"},"vehicle_type_id":"4","last_reported":1722985704,"current_range_meters":15600,"station_id":"ce4bhb12rcd13ifvqel0","pricing_plan_id":"cebpf4jnsgd1na2vs0mg"},{"bike_id":"e71ff304-5ba0-4837-b46a-f1756e43d224","system_id":"levelo_inurba_marseille","lat":43.313291,"lon":5.396838,"is_reserved":false,"is_disabled":false,"rental_uris":{"android":"levelo://app?vid=e71ff304-5ba0-4837-b46a-f1756e43d224","ios":"levelo://app?vid=e71ff304-5ba0-4837-b46a-f1756e43d224"},"vehicle_type_id":"4","last_reported":1722985704,"current_range_meters":17600,"station_id":"ce4bgvp2rcd13ifvqcu0","pricing_plan_id":"cebpf4jnsgd1na2vs0mg"},{"bike_id":"274a4e7b-607f-4926-a386-ce9a68782f3d","system_id":"levelo_inurba_marseille","lat":43.313291,"lon":5.396838,"is_reserved":false,"is_disabled":false,"rental_uris":{"android":"levelo://app?vid=274a4e7b-607f-4926-a386-ce9a68782f3d","ios":"levelo://app?vid=274a4e7b-607f-4926-a386-ce9a68782f3d"},"vehicle_type_id":"4","last_reported":1722985704,"current_range_meters":20400,"station_id":"ce4bgvp2rcd13ifvqcu0","pricing_plan_id":"cebpf4jnsgd1na2vs0mg"},{"bike_id":"87d67bae-a700-4626-983c-1b6d17f32418","system_id":"levelo_inurba_marseille","lat":43.30897,"lon":5.396548,"is_reserved":false,"is_disabled":false,"rental_uris":{"android":"levelo://app?vid=87d67bae-a700-4626-983c-1b6d17f32418","ios":"levelo://app?vid=87d67bae-a700-4626-983c-1b6d17f32418"},"vehicle_type_id":"4","last_reported":1722985704,"current_range_meters":15600,"station_id":"ce4bh012rcd13ifvqcv0","pricing_plan_id":"cebpf4jnsgd1na2vs0mg"},{"bike_id":"af4f0503-edb1-420f-bce0-781c4284bd92","system_id":"levelo_inurba_marseille","lat":43.313291,"lon":5.396838,"is_reserved":false,"is_disabled":false,"rental_uris":{"android":"levelo://app?vid=af4f0503-edb1-420f-bce0-781c4284bd92","ios":"levelo://app?vid=af4f0503-edb1-420f-bce0-781c4284bd92"},"vehicle_type_id":"4","last_reported":1722985704,"current_range_meters":7600,"station_id":"ce4bgvp2rcd13ifvqcu0","pricing_plan_id":"cebpf4jnsgd1na2vs0mg"},{"bike_id":"7e7e1472-7b3b-4407-ae0b-1d853e8f3194","system_id":"levelo_inurba_marseille","lat":43.309047,"lon":5.396551,"is_reserved":false,"is_disabled":false,"rental_uris":{"android":"levelo://app?vid=7e7e1472-7b3b-4407-ae0b-1d853e8f3194","ios":"levelo://app?vid=7e7e1472-7b3b-4407-ae0b-1d853e8f3194"},"vehicle_type_id":"4","last_reported":1722985704,"current_range_meters":30400,"station_id":"ce4bh012rcd13ifvqcv0","pricing_plan_id":"cebpf4jnsgd1na2vs0mg"},{"bike_id":"bc9fdc63-dbdf-4261-aac5-aadfe614201b","system_id":"levelo_inurba_marseille","lat":43.313291,"lon":5.396838,"is_reserved":false,"is_disabled":false,"rental_uris":{"android":"levelo://app?vid=bc9fdc63-dbdf-4261-aac5-aadfe614201b","ios":"levelo://app?vid=bc9fdc63-dbdf-4261-aac5-aadfe614201b"},"vehicle_type_id":"4","last_reported":1722985704,"current_range_meters":4400,"station_id":"ce4bgvp2rcd13ifvqcu0","pricing_plan_id":"cebpf4jnsgd1na2vs0mg"},{"bike_id":"97af5a05-14d8-4892-b066-a7dd7fd01d9c","system_id":"levelo_inurba_marseille","lat":43.309038,"lon":5.396546,"is_reserved":false,"is_disabled":false,"rental_uris":{"android":"levelo://app?vid=97af5a05-14d8-4892-b066-a7dd7fd01d9c","ios":"levelo://app?vid=97af5a05-14d8-4892-b066-a7dd7fd01d9c"},"vehicle_type_id":"4","last_reported":1722985704,"current_range_meters":24800,"station_id":"ce4bh012rcd13ifvqcv0","pricing_plan_id":"cebpf4jnsgd1na2vs0mg"},{"bike_id":"da259b72-ebf8-4b0b-a55f-0f0f4716f6b4","system_id":"levelo_inurba_marseille","lat":43.3089,"lon":5.396573,"is_reserved":false,"is_disabled":false,"rental_uris":{"android":"levelo://app?vid=da259b72-ebf8-4b0b-a55f-0f0f4716f6b4","ios":"levelo://app?vid=da259b72-ebf8-4b0b-a55f-0f0f4716f6b4"},"vehicle_type_id":"4","last_reported":1722985704,"current_range_meters":31200,"station_id":"ce4bh012rcd13ifvqcv0","pricing_plan_id":"cebpf4jnsgd1na2vs0mg"},{"bike_id":"dd6db6ae-31e2-4ee6-92fe-541ff9162cc2","system_id":"levelo_inurba_marseille","lat":43.309047,"lon":5.396551,"is_reserved":false,"is_disabled":false,"rental_uris":{"android":"levelo://app?vid=dd6db6ae-31e2-4ee6-92fe-541ff9162cc2","ios":"levelo://app?vid=dd6db6ae-31e2-4ee6-92fe-541ff9162cc2"},"vehicle_type_id":"4","last_reported":1722985704,"current_range_meters":18000,"station_id":"ce4bh012rcd13ifvqcv0","pricing_plan_id":"cebpf4jnsgd1na2vs0mg"},{"bike_id":"bfe98473-859d-423e-b891-2fc6f1502235","system_id":"levelo_inurba_marseille","lat":43.308772,"lon":5.396614,"is_reserved":false,"is_disabled":false,"rental_uris":{"android":"levelo://app?vid=bfe98473-859d-423e-b891-2fc6f1502235","ios":"levelo://app?vid=bfe98473-859d-423e-b891-2fc6f1502235"},"vehicle_type_id":"4","last_reported":1722985704,"current_range_meters":2400,"station_id":"ce4bh012rcd13ifvqcv0","pricing_plan_id":"cebpf4jnsgd1na2vs0mg"},{"bike_id":"175b3dc7-4f96-46f6-9ec9-8fdce3b3eb59","system_id":"levelo_inurba_marseille","lat":43.290671,"lon":5.37154,"is_reserved":false,"is_disabled":false,"rental_uris":{"android":"levelo://app?vid=175b3dc7-4f96-46f6-9ec9-8fdce3b3eb59","ios":"levelo://app?vid=175b3dc7-4f96-46f6-9ec9-8fdce3b3eb59"},"vehicle_type_id":"4","last_reported":1722985704,"current_range_meters":0,"station_id":"ce4bh5p2rcd13ifvqe4g","pricing_plan_id":"cebpf4jnsgd1na2vs0mg"},{"bike_id":"b681dc18-f564-4574-b0d2-48de6ef7072a","system_id":"levelo_inurba_marseille","lat":43.290779,"lon":5.371482,"is_reserved":false,"is_disabled":false,"rental_uris":{"android":"levelo://app?vid=b681dc18-f564-4574-b0d2-48de6ef7072a","ios":"levelo://app?vid=b681dc18-f564-4574-b0d2-48de6ef7072a"},"vehicle_type_id":"4","last_reported":1722985704,"current_range_meters":5200,"station_id":"ce4bh5p2rcd13ifvqe4g","pricing_plan_id":"cebpf4jnsgd1na2vs0mg"},{"bike_id":"df95c2e9-6a30-43c1-8c28-64129848640c","system_id":"levelo_inurba_marseille","lat":43.29178,"lon":5.35585,"is_reserved":false,"is_disabled":false,"rental_uris":{"android":"levelo://app?vid=df95c2e9-6a30-43c1-8c28-64129848640c","ios":"levelo://app?vid=df95c2e9-6a30-43c1-8c28-64129848640c"},"vehicle_type_id":"4","last_reported":1722985704,"current_range_meters":12800,"station_id":"","pricing_plan_id":"cebpf4jnsgd1na2vs0mg"},{"bike_id":"df9576f1-05bf-453c-87bd-4d9ce893cd46","system_id":"levelo_inurba_marseille","lat":43.29942,"lon":5.39199,"is_reserved":false,"is_disabled":false,"rental_uris":{"android":"levelo://app?vid=df9576f1-05bf-453c-87bd-4d9ce893cd46","ios":"levelo://app?vid=df9576f1-05bf-453c-87bd-4d9ce893cd46"},"vehicle_type_id":"4","last_reported":1722985704,"current_range_meters":2400,"station_id":"","pricing_plan_id":"cebpf4jnsgd1na2vs0mg"},{"bike_id":"879c39b8-6e0c-487d-b51b-58c946cc0108","system_id":"levelo_inurba_marseille","lat":43.30209,"lon":5.39452,"is_reserved":false,"is_disabled":false,"rental_uris":{"android":"levelo://app?vid=879c39b8-6e0c-487d-b51b-58c946cc0108","ios":"levelo://app?vid=879c39b8-6e0c-487d-b51b-58c946cc0108"},"vehicle_type_id":"4","last_reported":1722985704,"current_range_meters":25600,"station_id":"ce4bh0p2rcd13ifvqd70","pricing_plan_id":"cebpf4jnsgd1na2vs0mg"},{"bike_id":"5fbf8245-de8b-48ec-ba2a-3681bdfdf7c4","system_id":"levelo_inurba_marseille","lat":43.302008,"lon":5.394694,"is_reserved":false,"is_disabled":false,"rental_uris":{"android":"levelo://app?vid=5fbf8245-de8b-48ec-ba2a-3681bdfdf7c4","ios":"levelo://app?vid=5fbf8245-de8b-48ec-ba2a-3681bdfdf7c4"},"vehicle_type_id":"4","last_reported":1722985704,"current_range_meters":18800,"station_id":"ce4bh0p2rcd13ifvqd70","pricing_plan_id":"cebpf4jnsgd1na2vs0mg"},{"bike_id":"7313b6fb-8994-4606-9205-44052f8cd309","system_id":"levelo_inurba_marseille","lat":43.302008,"lon":5.394694,"is_reserved":false,"is_disabled":false,"rental_uris":{"android":"levelo://app?vid=7313b6fb-8994-4606-9205-44052f8cd309","ios":"levelo://app?vid=7313b6fb-8994-4606-9205-44052f8cd309"},"vehicle_type_id":"4","last_reported":1722985704,"current_range_meters":25200,"station_id":"ce4bh0p2rcd13ifvqd70","pricing_plan_id":"cebpf4jnsgd1na2vs0mg"},{"bike_id":"e160f637-74d6-41ba-8ad8-2366f3fcc712","system_id":"levelo_inurba_marseille","lat":43.305914,"lon":5.396884,"is_reserved":false,"is_disabled":false,"rental_uris":{"android":"levelo://app?vid=e160f637-74d6-41ba-8ad8-2366f3fcc712","ios":"levelo://app?vid=e160f637-74d6-41ba-8ad8-2366f3fcc712"},"vehicle_type_id":"4","last_reported":1722985704,"current_range_meters":0,"station_id":"","pricing_plan_id":"cebpf4jnsgd1na2vs0mg"},{"bike_id":"16cde7b6-615d-497a-a776-57f669ab6b50","system_id":"levelo_inurba_marseille","lat":43.294162,"lon":5.386292,"is_reserved":false,"is_disabled":false,"rental_uris":{"android":"levelo://app?vid=16cde7b6-615d-497a-a776-57f669ab6b50","ios":"levelo://app?vid=16cde7b6-615d-497a-a776-57f669ab6b50"},"vehicle_type_id":"4","last_reported":1722985704,"current_range_meters":2800,"station_id":"ce4bh2h2rcd13ifvqdh0","pricing_plan_id":"cebpf4jnsgd1na2vs0mg"},{"bike_id":"652e26c4-9252-434f-b612-87ee1e71bf57","system_id":"levelo_inurba_marseille","lat":43.29418,"lon":5.38626,"is_reserved":false,"is_disabled":false,"rental_uris":{"android":"levelo://app?vid=652e26c4-9252-434f-b612-87ee1e71bf57","ios":"levelo://app?vid=652e26c4-9252-434f-b612-87ee1e71bf57"},"vehicle_type_id":"4","last_reported":1722985704,"current_range_meters":0,"station_id":"ce4bh2h2rcd13ifvqdh0","pricing_plan_id":"cebpf4jnsgd1na2vs0mg"},{"bike_id":"fa2f2e5d-2b47-41fe-9faa-1c98d86451ab","system_id":"levelo_inurba_marseille","lat":43.29416,"lon":5.3863,"is_reserved":false,"is_disabled":false,"rental_uris":{"android":"levelo://app?vid=fa2f2e5d-2b47-41fe-9faa-1c98d86451ab","ios":"levelo://app?vid=fa2f2e5d-2b47-41fe-9faa-1c98d86451ab"},"vehicle_type_id":"4","last_reported":1722985704,"current_range_meters":0,"station_id":"ce4bh2h2rcd13ifvqdh0","pricing_plan_id":"cebpf4jnsgd1na2vs0mg"},{"bike_id":"65da5ea8-2b0a-42f9-830e-6fdffe31e2a7","system_id":"levelo_inurba_marseille","lat":43.29413,"lon":5.3863,"is_reserved":false,"is_disabled":false,"rental_uris":{"android":"levelo://app?vid=65da5ea8-2b0a-42f9-830e-6fdffe31e2a7","ios":"levelo://app?vid=65da5ea8-2b0a-42f9-830e-6fdffe31e2a7"},"vehicle_type_id":"4","last_reported":1722985704,"current_range_meters":0,"station_id":"ce4bh2h2rcd13ifvqdh0","pricing_plan_id":"cebpf4jnsgd1na2vs0mg"},{"bike_id":"836a70b5-ea84-45b4-a07f-86c8a56bf24b","system_id":"levelo_inurba_marseille","lat":43.28934,"lon":5.36642,"is_reserved":false,"is_disabled":false,"rental_uris":{"android":"levelo://app?vid=836a70b5-ea84-45b4-a07f-86c8a56bf24b","ios":"levelo://app?vid=836a70b5-ea84-45b4-a07f-86c8a56bf24b"},"vehicle_type_id":"4","last_reported":1722985704,"current_range_meters":0,"station_id":"ce4bhap2rcd13ifvqek0","pricing_plan_id":"cebpf4jnsgd1na2vs0mg"},{"bike_id":"da94cb5e-22c5-4dfb-9505-00d7075328aa","system_id":"levelo_inurba_marseille","lat":43.289468,"lon":5.363719,"is_reserved":false,"is_disabled":false,"rental_uris":{"android":"levelo://app?vid=da94cb5e-22c5-4dfb-9505-00d7075328aa","ios":"levelo://app?vid=da94cb5e-22c5-4dfb-9505-00d7075328aa"},"vehicle_type_id":"4","last_reported":1722985704,"current_range_meters":19600,"station_id":"ce4bhc92rcd13ifvqetg","pricing_plan_id":"cebpf4jnsgd1na2vs0mg"},{"bike_id":"790d0c8f-bcc1-449a-84e8-46eb5f32852c","system_id":"levelo_inurba_marseille","lat":43.290103,"lon":5.356114,"is_reserved":false,"is_disabled":false,"rental_uris":{"android":"levelo://app?vid=790d0c8f-bcc1-449a-84e8-46eb5f32852c","ios":"levelo://app?vid=790d0c8f-bcc1-449a-84e8-46eb5f32852c"},"vehicle_type_id":"4","last_reported":1722985704,"current_range_meters":27200,"station_id":"ce4bhb92rcd13ifvqen0","pricing_plan_id":"cebpf4jnsgd1na2vs0mg"},{"bike_id":"53a7164f-ce5b-443c-8d72-0dcecd3e3f82","system_id":"levelo_inurba_marseille","lat":43.29004,"lon":5.35604,"is_reserved":false,"is_disabled":false,"rental_uris":{"android":"levelo://app?vid=53a7164f-ce5b-443c-8d72-0dcecd3e3f82","ios":"levelo://app?vid=53a7164f-ce5b-443c-8d72-0dcecd3e3f82"},"vehicle_type_id":"4","last_reported":1722985704,"current_range_meters":0,"station_id":"ce4bhb92rcd13ifvqen0","pricing_plan_id":"cebpf4jnsgd1na2vs0mg"},{"bike_id":"8d2ba14a-9de9-4251-a83f-a9cde439a4bf","system_id":"levelo_inurba_marseille","lat":43.290995,"lon":5.381361,"is_reserved":false,"is_disabled":false,"rental_uris":{"android":"levelo://app?vid=8d2ba14a-9de9-4251-a83f-a9cde439a4bf","ios":"levelo://app?vid=8d2ba14a-9de9-4251-a83f-a9cde439a4bf"},"vehicle_type_id":"4","last_reported":1722985704,"current_range_meters":25600,"station_id":"ce4bh512rcd13ifvqe2g","pricing_plan_id":"cebpf4jnsgd1na2vs0mg"},{"bike_id":"2fd96876-0f97-4149-9814-35e8df8190ab","system_id":"levelo_inurba_marseille","lat":43.290995,"lon":5.381361,"is_reserved":false,"is_disabled":false,"rental_uris":{"android":"levelo://app?vid=2fd96876-0f97-4149-9814-35e8df8190ab","ios":"levelo://app?vid=2fd96876-0f97-4149-9814-35e8df8190ab"},"vehicle_type_id":"4","last_reported":1722985704,"current_range_meters":1200,"station_id":"ce4bh512rcd13ifvqe2g","pricing_plan_id":"cebpf4jnsgd1na2vs0mg"},{"bike_id":"7a9548cb-5c9c-40d3-a8f8-7cf418d708c0","system_id":"levelo_inurba_marseille","lat":43.297807,"lon":5.393533,"is_reserved":false,"is_disabled":false,"rental_uris":{"android":"levelo://app?vid=7a9548cb-5c9c-40d3-a8f8-7cf418d708c0","ios":"levelo://app?vid=7a9548cb-5c9c-40d3-a8f8-7cf418d708c0"},"vehicle_type_id":"4","last_reported":1722985704,"current_range_meters":26800,"station_id":"chh1huq6cuj3fo74tm60","pricing_plan_id":"cebpf4jnsgd1na2vs0mg"},{"bike_id":"a27ae82f-8042-4070-af4c-6c151198be48","system_id":"levelo_inurba_marseille","lat":43.297807,"lon":5.393533,"is_reserved":false,"is_disabled":false,"rental_uris":{"android":"levelo://app?vid=a27ae82f-8042-4070-af4c-6c151198be48","ios":"levelo://app?vid=a27ae82f-8042-4070-af4c-6c151198be48"},"vehicle_type_id":"4","last_reported":1722985704,"current_range_meters":18800,"station_id":"chh1huq6cuj3fo74tm60","pricing_plan_id":"cebpf4jnsgd1na2vs0mg"},{"bike_id":"3afb9a48-48de-4a0a-8776-da5a46399495","system_id":"levelo_inurba_marseille","lat":43.29784,"lon":5.3934,"is_reserved":false,"is_disabled":false,"rental_uris":{"android":"levelo://app?vid=3afb9a48-48de-4a0a-8776-da5a46399495","ios":"levelo://app?vid=3afb9a48-48de-4a0a-8776-da5a46399495"},"vehicle_type_id":"4","last_reported":1722985704,"current_range_meters":29200,"station_id":"chh1huq6cuj3fo74tm60","pricing_plan_id":"cebpf4jnsgd1na2vs0mg"},{"bike_id":"9db48618-2454-4f44-84b9-1084496e8af3","system_id":"levelo_inurba_marseille","lat":43.297884,"lon":5.393475,"is_reserved":false,"is_disabled":false,"rental_uris":{"android":"levelo://app?vid=9db48618-2454-4f44-84b9-1084496e8af3","ios":"levelo://app?vid=9db48618-2454-4f44-84b9-1084496e8af3"},"vehicle_type_id":"4","last_reported":1722985704,"current_range_meters":6000,"station_id":"chh1huq6cuj3fo74tm60","pricing_plan_id":"cebpf4jnsgd1na2vs0mg"},{"bike_id":"cc436958-c28a-412f-94df-b53d3e3ebc6a","system_id":"levelo_inurba_marseille","lat":43.297815,"lon":5.393548,"is_reserved":false,"is_disabled":false,"rental_uris":{"android":"levelo://app?vid=cc436958-c28a-412f-94df-b53d3e3ebc6a","ios":"levelo://app?vid=cc436958-c28a-412f-94df-b53d3e3ebc6a"},"vehicle_type_id":"4","last_reported":1722985704,"current_range_meters":2400,"station_id":"chh1huq6cuj3fo74tm60","pricing_plan_id":"cebpf4jnsgd1na2vs0mg"},