{"last_updated":1726816161,"ttl":30,"version":"2.2","data":{"bikes":[{"bike_id":"4ec07f2b-7a04-4fdf-8217-bd293b3ca1a2","system_id":"levelo_inurba_marseille","lat":43.31343,"lon":5.36721,"is_reserved":false,"is_disabled":false,"rental_uris":{"android":"levelo://app?vid=4ec07f2b-7a04-4fdf-8217-bd293b3ca1a2","ios":"levelo://app?vid=4ec07f2b-7a04-4fdf-8217-bd293b3ca1a2"},"vehicle_type_id":"4","last_reported":1726816161,"current_range_meters":32400,"station_id":"ce4bgr92rcd13ifvqc6g","pricing_plan_id":"cebpf4jnsgd1na2vs0mg"},{"bike_id":"8ac6d82f-5b78-477d-a9cb-5c523e12158a","system_id":"levelo_inurba_marseille","lat":43.28349,"lon":5.38103,"is_reserved":false,"is_disabled":false,"rental_uris":{"android":"levelo://app?vid=8ac6d82f-5b78-477d-a9cb-5c523e12158a","ios":"levelo://app?vid=8ac6d82f-5b78-477d-a9cb-5c523e12158a"},"vehicle_type_id":"4","last_reported":1726816161,"current_range_meters":11200,"station_id":"ce4bh412rcd13ifvqdr0","pricing_plan_id":"cebpf4jnsgd1na2vs0mg"},{"bike_id":"201874de-6022-4553-8846-f97d1e70c54a","system_id":"levelo_inurba_marseille","lat":43.29559,"lon":5.42293,"is_reserved":false,"is_disabled":false,"rental_uris":{"android":"levelo://app?vid=201874de-6022-4553-8846-f97d1e70c54a","ios":"levelo://app?vid=201874de-6022-4553-8846-f97d1e70c54a"},"vehicle_type_id":"4","last_reported":1726816161,"current_range_meters":32800,"station_id":"ce4bhph2rcd13ifvqhdg","pricing_plan_id":"cebpf4jnsgd1na2vs0mg"},{"bike_id":"96fa43fd-bb07-4167-a26a-d2f7eb9692c1","system_id":"levelo_inurba_marseille","lat":43.305939,"lon":5.373342,"is_reserved":false,"is_disabled":false,"rental_uris":{"android":"levelo://app?vid=96fa43fd-bb07-4167-a26a-d2f7eb9692c1","ios":"levelo://app?vid=96fa43fd-bb07-4167-a26a-d2f7eb9692c1"},"vehicle_type_id":"4","last_reported":1726816161,"current_range_meters":2000,"station_id":"ce4bgt12rcd13ifvqcd0","pricing_plan_id":"cebpf4jnsgd1na2vs0mg"},{"bike_id":"dc873ccc-5283-4204-9440-97850e006bd7","system_id":"levelo_inurba_marseille","lat":43.31543,"lon":5.38011,"is_reserved":false,"is_disabled":false,"rental_uris":{"android":"levelo://app?vid=dc873ccc-5283-4204-9440-97850e006bd7","ios":"levelo://app?vid=dc873ccc-5283-4204-9440-97850e006bd7"},"vehicle_type_id":"4","last_reported":1726816161,"current_range_meters":28400,"station_id":"ce4bhsp2rcd13ifvqi50","pricing_plan_id":"cebpf4jnsgd1na2vs0mg"},{"bike_id":"8c306e71-a531-4b3f-9da3-bcb78c39978e","system_id":"levelo_inurba_marseille","lat":43.31493,"lon":5.37309,"is_reserved":false,"is_disabled":false,"rental_uris":{"android":"levelo://app?vid=8c306e71-a531-4b3f-9da3-bcb78c39978e","ios":"levelo://app?vid=8c306e71-a531-4b3f-9da3-bcb78c39978e"},"vehicle_type_id":"4","last_reported":1726816161,"current_range_meters":35200,"station_id":"ce4bgt12rcd13ifvqcd0","pricing_plan_id":"cebpf4jnsgd1na2vs0mg"},{"bike_id":"f882f190-1890-487b-837d-55f6d80e6a14","system_id":"levelo_inurba_marseille","lat":43.31342,"lon":5.36726,"is_reserved":false,"is_disabled":false,"rental_uris":{"android":"levelo://app?vid=f882f190-1890-487b-837d-55f6d80e6a14","ios":"levelo://app?vid=f882f190-1890-487b-837d-55f6d80e6a14"},"vehicle_type_id":"4","last_reported":1726816161,"current_range_meters":20800,"station_id":"ce4bgr92rcd13ifvqc6g","pricing_plan_id":"cebpf4jnsgd1na2vs0mg"},{"bike_id":"e532fd53-ad12-4848-82ea-70ac934c1c37","system_id":"levelo_inurba_marseille","lat":43.3375,"lon":5.37446,"is_reserved":false,"is_disabled":false,"rental_uris":{"android":"levelo://app?vid=e532fd53-ad12-4848-82ea-70ac934c1c37","ios":"levelo://app?vid=e532fd53-ad12-4848-82ea-70ac934c1c37"},"vehicle_type_id":"4","last_reported":1726816161,"current_range_meters":34000,"station_id":"","pricing_plan_id":"cebpf4jnsgd1na2vs0mg"},{"bike_id":"c7d4ab82-b4ba-46c9-9db0-e90f652728b9","system_id":"levelo_inurba_marseille","lat":43.26557,"lon":5.37284,"is_reserved":false,"is_disabled":false,"rental_uris":{"android":"levelo://app?vid=c7d4ab82-b4ba-46c9-9db0-e90f652728b9","ios":"levelo://app?vid=c7d4ab82-b4ba-46c9-9db0-e90f652728b9"},"vehicle_type_id":"4","last_reported":1726816161,"current_range_meters":38800,"station_id":"ce4bhg12rcd13ifvqf70","pricing_plan_id":"cebpf4jnsgd1na2vs0mg"},{"bike_id":"e40fd472-3df5-40bb-aa98-cf6b008b0611","system_id":"levelo_inurba_marseille","lat":43.28447,"lon":5.39211,"is_reserved":false,"is_disabled":false,"rental_uris":{"android":"levelo://app?vid=e40fd472-3df5-40bb-aa98-cf6b008b0611","ios":"levelo://app?vid=e40fd472-3df5-40bb-aa98-cf6b008b0611"},"vehicle_type_id":"4","last_reported":1726816161,"current_range_meters":26800,"station_id":"ce4bhoh2rcd13ifvqh5g","pricing_plan_id":"cebpf4jnsgd1na2vs0mg"},{"bike_id":"7ae54c23-d029-4df1-ac7f-dc61dfb3bf8f","system_id":"levelo_inurba_marseille","lat":43.32477,"lon":5.36544,"is_reserved":false,"is_disabled":false,"rental_uris":{"android":"levelo://app?vid=7ae54c23-d029-4df1-ac7f-dc61dfb3bf8f","ios":"levelo://app?vid=7ae54c23-d029-4df1-ac7f-dc61dfb3bf8f"},"vehicle_type_id":"4","last_reported":1726816161,"current_range_meters":14800,"station_id":"ce4bhs12rcd13ifvqhvg","pricing_plan_id":"cebpf4jnsgd1na2vs0mg"},{"bike_id":"f9898cab-cb36-4e00-83b8-7f729aaf5652","system_id":"levelo_inurba_marseille","lat":43.32654,"lon":5.40993,"is_reserved":false,"is_disabled":false,"rental_uris":{"android":"levelo://app?vid=f9898cab-cb36-4e00-83b8-7f729aaf5652","ios":"levelo://app?vid=f9898cab-cb36-4e00-83b8-7f729aaf5652"},"vehicle_type_id":"4","last_reported":1726816161,"current_range_meters":39200,"station_id":"ce4bhpp2rcd13ifvqhgg","pricing_plan_id":"cebpf4jnsgd1na2vs0mg"},{"bike_id":"5558f702-e90f-4a87-ba7d-b468bc3072be","system_id":"levelo_inurba_marseille","lat":43.3095,"lon":5.39049,"is_reserved":false,"is_disabled":false,"rental_uris":{"android":"levelo://app?vid=5558f702-e90f-4a87-ba7d-b468bc3072be","ios":"levelo://app?vid=5558f702-e90f-4a87-ba7d-b468bc3072be"},"vehicle_type_id":"4","last_reported":1726816161,"current_range_meters":30400,"station_id":"ce4bgup2rcd13ifvqco0","pricing_plan_id":"cebpf4jnsgd1na2vs0mg"},{"bike_id":"b9e1d6ef-037d-4e06-aad7-7d9852b429ed","system_id":"levelo_inurba_marseille","lat":43.25942,"lon":5.40893,"is_reserved":false,"is_disabled":false,"rental_uris":{"android":"levelo://app?vid=b9e1d6ef-037d-4e06-aad7-7d9852b429ed","ios":"levelo://app?vid=b9e1d6ef-037d-4e06-aad7-7d9852b429ed"},"vehicle_type_id":"4","last_reported":1726816161,"current_range_meters":28400,"station_id":"ce4bhm92rcd13ifvqglg","pricing_plan_id":"cebpf4jnsgd1na2vs0mg"},{"bike_id":"ac4570dc-1f12-4c2c-aeb8-bec5840e3c7d","system_id":"levelo_inurba_marseille","lat":43.27492,"lon":5.42459,"is_reserved":false,"is_disabled":false,"rental_uris":{"android":"levelo://app?vid=ac4570dc-1f12-4c2c-aeb8-bec5840e3c7d","ios":"levelo://app?vid=ac4570dc-1f12-4c2c-aeb8-bec5840e3c7d"},"vehicle_type_id":"4","last_reported":1726816161,"current_range_meters":22000,"station_id":"ce4bhn92rcd13ifvqgrg","pricing_plan_id":"cebpf4jnsgd1na2vs0mg"},{"bike_id":"00479890-5c7f-4820-8b84-7d690960759a","system_id":"levelo_inurba_marseille","lat":43.28156,"lon":5.42646,"is_reserved":false,"is_disabled":false,"rental_uris":{"android":"levelo://app?vid=00479890-5c7f-4820-8b84-7d690960759a","ios":"levelo://app?vid=00479890-5c7f-4820-8b84-7d690960759a"},"vehicle_type_id":"4","last_reported":1726816161,"current_range_meters":31200,"station_id":"ce4bhnh2rcd13ifvqgug","pricing_plan_id":"cebpf4jnsgd1na2vs0mg"},{"bike_id":"1c66f49b-4363-4cca-97a6-cfccf25e74c8","system_id":"levelo_inurba_marseille","lat":43.30274,"lon":5.37708,"is_reserved":false,"is_disabled":false,"rental_uris":{"android":"levelo://app?vid=1c66f49b-4363-4cca-97a6-cfccf25e74c8","ios":"levelo://app?vid=1c66f49b-4363-4cca-97a6-cfccf25e74c8"},"vehicle_type_id":"4","last_reported":1726816161,"current_range_meters":38400,"station_id":"ce4bguh2rcd13ifvqcj0","pricing_plan_id":"cebpf4jnsgd1na2vs0mg"},{"bike_id":"6a454a5f-f30a-4a25-9d92-bf74907f8eb8","system_id":"levelo_inurba_marseille","lat":43.2407,"lon":5.37762,"is_reserved":false,"is_disabled":false,"rental_uris":{"android":"levelo://app?vid=6a454a5f-f30a-4a25-9d92-bf74907f8eb8","ios":"levelo://app?vid=6a454a5f-f30a-4a25-9d92-bf74907f8eb8"},"vehicle_type_id":"4","last_reported":1726816161,"current_range_meters":17600,"station_id":"ce4bhnp2rcd13ifvqgvg","pricing_plan_id":"cebpf4jnsgd1na2vs0mg"},{"bike_id":"0d197c14-823a-4063-8ecb-b214e88b0f7d","system_id":"levelo_inurba_marseille","lat":43.28156,"lon":5.4264,"is_reserved":false,"is_disabled":false,"rental_uris":{"android":"levelo://app?vid=0d197c14-823a-4063-8ecb-b214e88b0f7d","ios":"levelo://app?vid=0d197c14-823a-4063-8ecb-b214e88b0f7d"},"vehicle_type_id":"4","last_reported":1726816161,"current_range_meters":35600,"station_id":"ce4bhnh2rcd13ifvqgug","pricing_plan_id":"cebpf4jnsgd1na2vs0mg"},{"bike_id":"838e99a9-3d23-4997-ab0d-600a12008281","system_id":"levelo_inurba_marseille","lat":43.27498,"lon":5.42455,"is_reserved":false,"is_disabled":false,"rental_uris":{"android":"levelo://app?vid=838e99a9-3d23-4997-ab0d-600a12008281","ios":"levelo://app?vid=838e99a9-3d23-4997-ab0d-600a12008281"},"vehicle_type_id":"4","last_reported":1726816161,"current_range_meters":22800,"station_id":"ce4bhn92rcd13ifvqgrg","pricing_plan_id":"cebpf4jnsgd1na2vs0mg"},{"bike_id":"06eef320-c2b1-42ca-bda3-e896022e4f06","system_id":"levelo_inurba_marseille","lat":43.27068,"lon":5.42277,"is_reserved":false,"is_disabled":false,"rental_uris":{"android":"levelo://app?vid=06eef320-c2b1-42ca-bda3-e896022e4f06","ios":"levelo://app?vid=06eef320-c2b1-42ca-bda3-e896022e4f06"},"vehicle_type_id":"4","last_reported":1726816161,"current_range_meters":14400,"station_id":"ce4bhk92rcd13ifvqgb0","pricing_plan_id":"cebpf4jnsgd1na2vs0mg"},{"bike_id":"788f2b06-dd12-46b4-92ff-fb459c4778d6","system_id":"levelo_inurba_marseille","lat":43.26789,"lon":5.39413,"is_reserved":false,"is_disabled":false,"rental_uris":{"android":"levelo://app?vid=788f2b06-dd12-46b4-92ff-fb459c4778d6","ios":"levelo://app?vid=788f2b06-dd12-46b4-92ff-fb459c4778d6"},"vehicle_type_id":"4","last_reported":1726816161,"current_range_meters":30000,"station_id":"ce4bhh12rcd13ifvqfg0","pricing_plan_id":"cebpf4jnsgd1na2vs0mg"},{"bike_id":"ffafc182-e1e3-466d-bf54-1539ad0fc712","system_id":"levelo_inurba_marseille","lat":43.23153,"lon":5.43711,"is_reserved":false,"is_disabled":false,"rental_uris":{"android":"levelo://app?vid=ffafc182-e1e3-466d-bf54-1539ad0fc712","ios":"levelo://app?vid=ffafc182-e1e3-466d-bf54-1539ad0fc712"},"vehicle_type_id":"4","last_reported":1726816161,"current_range_meters":24400,"station_id":"ce4bhmp2rcd13ifvqgog","pricing_plan_id":"cebpf4jnsgd1na2vs0mg"},{"bike_id":"b7b202bb-cc99-433a-83e7-993b4630daf4","system_id":"levelo_inurba_marseille","lat":43.32332,"lon":5.40635,"is_reserved":false,"is_disabled":false,"rental_uris":{"android":"levelo://app?vid=b7b202bb-cc99-433a-83e7-993b4630daf4","ios":"levelo://app?vid=b7b202bb-cc99-433a-83e7-993b4630daf4"},"vehicle_type_id":"4","last_reported":1726816161,"current_range_meters":1600,"station_id":"ce4bhq92rcd13ifvqhjg","pricing_plan_id":"cebpf4jnsgd1na2vs0mg"},{"bike_id":"5f2e4fae-bb33-4e4e-81dc-fbf1953aa152","system_id":"levelo_inurba_marseille","lat":43.30554,"lon":5.36538,"is_reserved":false,"is_disabled":false,"rental_uris":{"android":"levelo://app?vid=5f2e4fae-bb33-4e4e-81dc-fbf1953aa152","ios":"levelo://app?vid=5f2e4fae-bb33-4e4e-81dc-fbf1953aa152"},"vehicle_type_id":"4","last_reported":1726816161,"current_range_meters":20800,"station_id":"ce4bgs12rcd13ifvqcag","pricing_plan_id":"cebpf4jnsgd1na2vs0mg"},{"bike_id":"e8a43349-6e7a-4086-bc82-dc073f429ffd","system_id":"levelo_inurba_marseille","lat":43.29955,"lon":5.41314,"is_reserved":false,"is_disabled":false,"rental_uris":{"android":"levelo://app?vid=e8a43349-6e7a-4086-bc82-dc073f429ffd","ios":"levelo://app?vid=e8a43349-6e7a-4086-bc82-dc073f429ffd"},"vehicle_type_id":"4","last_reported":1726816161,"current_range_meters":38800,"station_id":"ce4bhp12rcd13ifvqh9g","pricing_plan_id":"cebpf4jnsgd1na2vs0mg"},{"bike_id":"522296b9-a8e3-4bc2-82ad-a3a2fe0dcce3","system_id":"levelo_inurba_marseille","lat":43.31712,"lon":5.37744,"is_reserved":false,"is_disabled":false,"rental_uris":{"android":"levelo://app?vid=522296b9-a8e3-4bc2-82ad-a3a2fe0dcce3","ios":"levelo://app?vid=522296b9-a8e3-4bc2-82ad-a3a2fe0dcce3"},"vehicle_type_id":"4","last_reported":1726816161,"current_range_meters":37600,"station_id":"ce4bgth2rcd13ifvqch0","pricing_plan_id":"cebpf4jnsgd1na2vs0mg"},{"bike_id":"d15f00db-e899-4f15-8ab4-a1f72b5956cb","system_id":"levelo_inurba_marseille","lat":43.30158,"lon":5.38072,"is_reserved":false,"is_disabled":false,"rental_uris":{"android":"levelo://app?vid=d15f00db-e899-4f15-8ab4-a1f72b5956cb","ios":"levelo://app?vid=d15f00db-e899-4f15-8ab4-a1f72b5956cb"},"vehicle_type_id":"4","last_reported":1726816161,"current_range_meters":26800,"station_id":"ce4bgjp2rcd13ifvqbh0","pricing_plan_id":"cebpf4jnsgd1na2vs0mg"},{"bike_id":"91f6c732-b748-4be1-8d43-5d4f18c7ecb9","system_id":"levelo_inurba_marseille","lat":43.28037,"lon":5.36948,"is_reserved":false,"is_disabled":false,"rental_uris":{"android":"levelo://app?vid=91f6c732-b748-4be1-8d43-5d4f18c7ecb9","ios":"levelo://app?vid=91f6c732-b748-4be1-8d43-5d4f18c7ecb9"},"vehicle_type_id":"4","last_reported":1726816161,"current_range_meters":38400,"station_id":"ce4bha12rcd13ifvqef0","pricing_plan_id":"cebpf4jnsgd1na2vs0mg"},{"bike_id":"29fd9139-b5d3-492f-843b-ba48a7ba5ea4","system_id":"levelo_inurba_marseille","lat":43.30922,"lon":5.36844,"is_reserved":false,"is_disabled":false,"rental_uris":{"android":"levelo://app?vid=29fd9139-b5d3-492f-843b-ba48a7ba5ea4","ios":"levelo://app?vid=29fd9139-b5d3-492f-843b-ba48a7ba5ea4"},"vehicle_type_id":"4","last_reported":1726816161,"current_range_meters":37600,"station_id":"ce4bgn92rcd13ifvqbvg","pricing_plan_id":"cebpf4jnsgd1na2vs0mg"},{"bike_id":"82a011ee-927c-4b1e-a350-b969affb7d65","system_id":"levelo_inurba_marseille","lat":43.3361,"lon":5.41022,"is_reserved":false,"is_disabled":false,"rental_uris":{"android":"levelo://app?vid=82a011ee-927c-4b1e-a350-b969affb7d65","ios":"levelo://app?vid=82a011ee-927c-4b1e-a350-b969affb7d65"},"vehicle_type_id":"4","last_reported":1726816161,"current_range_meters":37600,"station_id":"ce4bhqh2rcd13ifvqhmg","pricing_plan_id":"cebpf4jnsgd1na2vs0mg"},{"bike_id":"c3421f60-0391-4e1b-a261-f195600cf5b1","system_id":"levelo_inurba_marseille","lat":43.23155,"lon":5.43714,"is_reserved":false,"is_disabled":false,"rental_uris":{"android":"levelo://app?vid=c3421f60-0391-4e1b-a261-f195600cf5b1","ios":"levelo://app?vid=c3421f60-0391-4e1b-a261-f195600cf5b1"},"vehicle_type_id":"4","last_reported":1726816161,"current_range_meters":2000,"station_id":"ce4bhmp2rcd13ifvqgog","pricing_plan_id":"cebpf4jnsgd1na2vs0mg"},{"bike_id":"ce9d87f2-9941-4431-9f3a-b0e277f41807","system_id":"levelo_inurba_marseille","lat":43.31351,"lon":5.36722,"is_reserved":false,"is_disabled":false,"rental_uris":{"android":"levelo://app?vid=ce9d87f2-9941-4431-9f3a-b0e277f41807","ios":"levelo://app?vid=ce9d87f2-9941-4431-9f3a-b0e277f41807"},"vehicle_type_id":"4","last_reported":1726816161,"current_range_meters":39200,"station_id":"ce4bgr92rcd13ifvqc6g","pricing_plan_id":"cebpf4jnsgd1na2vs0mg"},{"bike_id":"516ce1b9-3538-4651-8f61-842ef27573ec","system_id":"levelo_inurba_marseille","lat":43.30955,"lon":5.39046,"is_reserved":false,"is_disabled":false,"rental_uris":{"android":"levelo://app?vid=516ce1b9-3538-4651-8f61-842ef27573ec","ios":"levelo://app?vid=516ce1b9-3538-4651-8f61-842ef27573ec"},"vehicle_type_id":"4","last_reported":1726816161,"current_range_meters":31200,"station_id":"ce4bgup2rcd13ifvqco0","pricing_plan_id":"cebpf4jnsgd1na2vs0mg"},{"bike_id":"1bcdb92b-8824-41cd-b6cf-d0ee92f5a1da","system_id":"levelo_inurba_marseille","lat":43.28046,"lon":5.36946,"is_reserved":false,"is_disabled":false,"rental_uris":{"android":"levelo://app?vid=1bcdb92b-8824-41cd-b6cf-d0ee92f5a1da","ios":"levelo://app?vid=1bcdb92b-8824-41cd-b6cf-d0ee92f5a1da"},"vehicle_type_id":"4","last_reported":1726816161,"current_range_meters":14400,"station_id":"ce4bha12rcd13ifvqef0","pricing_plan_id":"cebpf4jnsgd1na2vs0mg"},{"bike_id":"11d177bd-78df-4192-8b96-9ccc9ace4620","system_id":"levelo_inurba_marseille","lat":43.26571,"lon":5.39024,"is_reserved":false,"is_disabled":false,"rental_uris":{"android":"levelo://app?vid=11d177bd-78df-4192-8b96-9ccc9ace4620","ios":"levelo://app?vid=11d177bd-78df-4192-8b96-9ccc9ace4620"},"vehicle_type_id":"4","last_reported":1726816161,"current_range_meters":27200,"station_id":"ce4bhe12rcd13ifvqf30","pricing_plan_id":"cebpf4jnsgd1na2vs0mg"},{"bike_id":"036ab25f-0c34-4c45-8e88-1fc9200da6fd","system_id":"levelo_inurba_marseille","lat":43.27186,"lon":5.42711,"is_reserved":false,"is_disabled":false,"rental_uris":{"android":"levelo://app?vid=036ab25f-0c34-4c45-8e88-1fc9200da6fd","ios":"levelo://app?vid=036ab25f-0c34-4c45-8e88-1fc9200da6fd"},"vehicle_type_id":"4","last_reported":1726816161,"current_range_meters":26800,"station_id":"","pricing_plan_id":"cebpf4jnsgd1na2vs0mg"},{"bike_id":"40e5b403-5590-4098-a474-822a4163b2a7","system_id":"levelo_inurba_marseille","lat":43.24079,"lon":5.37747,"is_reserved":false,"is_disabled":false,"rental_uris":{"android":"levelo://app?vid=40e5b403-5590-4098-a474-822a4163b2a7","ios":"levelo://app?vid=40e5b403-5590-4098-a474-822a4163b2a7"},"vehicle_type_id":"4","last_reported":1726816161,"current_range_meters":24800,"station_id":"ce4bhnp2rcd13ifvqgvg","pricing_plan_id":"cebpf4jnsgd1na2vs0mg"},{"bike_id":"d5da14e3-1ea8-43d0-bd7a-f31c412770b3","system_id":"levelo_inurba_marseille","lat":43.29903,"lon":5.37468,"is_reserved":false,"is_disabled":false,"rental_uris":{"android":"levelo://app?vid=d5da14e3-1ea8-43d0-bd7a-f31c412770b3","ios":"levelo://app?vid=d5da14e3-1ea8-43d0-bd7a-f31c412770b3"},"vehicle_type_id":"4","last_reported":1726816161,"current_range_meters":32000,"station_id":"ce4bgjh2rcd13ifvqbg0","pricing_plan_id":"cebpf4jnsgd1na2vs0mg"},{"bike_id":"0b915b4c-f68b-4a7c-90ef-1f4e8752c5e0","system_id":"levelo_inurba_marseille","lat":43.26557,"lon":5.37284,"is_reserved":false,"is_disabled":false,"rental_uris":{"android":"levelo://app?vid=0b915b4c-f68b-4a7c-90ef-1f4e8752c5e0","ios":"levelo://app?vid=0b915b4c-f68b-4a7c-90ef-1f4e8752c5e0"},"vehicle_type_id":"4","last_reported":1726816161,"current_range_meters":38800,"station_id":"ce4bhg12rcd13ifvqf70","pricing_plan_id":"cebpf4jnsgd1na2vs0mg"},{"bike_id":"32134799-0a57-48fa-ab32-19dae5ddc815","system_id":"levelo_inurba_marseille","lat":43.29278,"lon":5.40132,"is_reserved":false,"is_disabled":false,"rental_uris":{"android":"levelo://app?vid=32134799-0a57-48fa-ab32-19dae5ddc815","ios":"levelo://app?vid=32134799-0a57-48fa-ab32-19dae5ddc815"},"vehicle_type_id":"4","last_reported":1726816161,"current_range_meters":30000,"station_id":"ce4bh312rcd13ifvqdk0","pricing_plan_id":"cebpf4jnsgd1na2vs0mg"},{"bike_id":"0fb42f67-e6d4-4b33-8619-af1b1d2a30e9","system_id":"levelo_inurba_marseille","lat":43.23152,"lon":5.43722,"is_reserved":false,"is_disabled":false,"rental_uris":{"android":"levelo://app?vid=0fb42f67-e6d4-4b33-8619-af1b1d2a30e9","ios":"levelo://app?vid=0fb42f67-e6d4-4b33-8619-af1b1d2a30e9"},"vehicle_type_id":"4","last_reported":1726816161,"current_range_meters":38800,"station_id":"ce4bhmp2rcd13ifvqgog","pricing_plan_id":"cebpf4jnsgd1na2vs0mg"},{"bike_id":"727c59dd-4a33-4404-90bc-3a4e59bd8948","system_id":"levelo_inurba_marseille","lat":43.32369,"lon":5.38886,"is_reserved":false,"is_disabled":false,"rental_uris":{"android":"levelo://app?vid=727c59dd-4a33-4404-90bc-3a4e59bd8948","ios":"levelo://app?vid=727c59dd-4a33-4404-90bc-3a4e59bd8948"},"vehicle_type_id":"4","last_reported":1726816161,"current_range_meters":22000,"station_id":"ce4bhqp2rcd13ifvqhog","pricing_plan_id":"cebpf4jnsgd1na2vs0mg"},{"bike_id":"1968a456-3c5e-4ce2-8ef4-1e4c031fda3d","system_id":"levelo_inurba_marseille","lat":43.301392,"lon":5.380925,"is_reserved":false,"is_disabled":false,"rental_uris":{"android":"levelo://app?vid=1968a456-3c5e-4ce2-8ef4-1e4c031fda3d","ios":"levelo://app?vid=1968a456-3c5e-4ce2-8ef4-1e4c031fda3d"},"vehicle_type_id":"4","last_reported":1726816161,"current_range_meters":36800,"station_id":"ce4bgup2rcd13ifvqcn0","pricing_plan_id":"cebpf4jnsgd1na2vs0mg"},{"bike_id":"e3157b7d-f63e-4215-9b0b-bec081b31a83","system_id":"levelo_inurba_marseille","lat":43.3247,"lon":5.36579,"is_reserved":false,"is_disabled":false,"rental_uris":{"android":"levelo://app?vid=e3157b7d-f63e-4215-9b0b-bec081b31a83","ios":"levelo://app?vid=e3157b7d-f63e-4215-9b0b-bec081b31a83"},"vehicle_type_id":"4","last_reported":1726816161,"current_range_meters":8000,"station_id":"ce4bhs12rcd13ifvqhvg","pricing_plan_id":"cebpf4jnsgd1na2vs0mg"},{"bike_id":"751f90c9-696d-43a3-abf5-68be55a262c9","system_id":"levelo_inurba_marseille","lat":43.33617,"lon":5.41024,"is_reserved":false,"is_disabled":false,"rental_uris":{"android":"levelo://app?vid=751f90c9-696d-43a3-abf5-68be55a262c9","ios":"levelo://app?vid=751f90c9-696d-43a3-abf5-68be55a262c9"},"vehicle_type_id":"4","last_reported":1726816161,"current_range_meters":16800,"station_id":"ce4bhqh2rcd13ifvqhmg","pricing_plan_id":"cebpf4jnsgd1na2vs0mg"},{"bike_id":"e25320fb-d3a0-4f0f-a9af-22f6ef9abdad","system_id":"levelo_inurba_marseille","lat":43.2749,"lon":5.42458,"is_reserved":false,"is_disabled":false,"rental_uris":{"android":"levelo://app?vid=e25320fb-d3a0-4f0f-a9af-22f6ef9abdad","ios":"levelo://app?vid=e25320fb-d3a0-4f0f-a9af-22f6ef9abdad"},"vehicle_type_id":"4","last_reported":1726816161,"current_range_meters":30400,"station_id":"ce4bhn92rcd13ifvqgrg","pricing_plan_id":"cebpf4jnsgd1na2vs0mg"},{"bike_id":"9899969d-4f8e-4fed-bc43-e675716ac04a","system_id":"levelo_inurba_marseille","lat":43.23153,"lon":5.43715,"is_reserved":false,"is_disabled":false,"rental_uris":{"android":"levelo://app?vid=9899969d-4f8e-4fed-bc43-e675716ac04a","ios":"levelo://app?vid=9899969d-4f8e-4fed-bc43-e675716ac04a"},"vehicle_type_id":"4","last_reported":1726816161,"current_range_meters":40000,"station_id":"ce4bhmp2rcd13ifvqgog","pricing_plan_id":"cebpf4jnsgd1na2vs0mg"},{"bike_id":"edfb1ff5-b81b-4225-8da9-100a9115b1e3","system_id":"levelo_inurba_marseille","lat":43.29735,"lon":5.36561,"is_reserved":false,"is_disabled":false,"rental_uris":{"android":"levelo://app?vid=edfb1ff5-b81b-4225-8da9-100a9115b1e3","ios":"levelo://app?vid=edfb1ff5-b81b-4225-8da9-100a9115b1e3"},"vehicle_type_id":"4","last_reported":1726816161,"current_range_meters":14000,"station_id":"","pricing_plan_id":"cebpf4jnsgd1na2vs0mg"},{"bike_id":"6a22c7df-ec4e-42ad-9f54-991d9e01e77e","system_id":"levelo_inurba_marseille","lat":43.28348,"lon":5.38105,"is_reserved":false,"is_disabled":false,"rental_uris":{"android":"levelo://app?vid=6a22c7df-ec4e-42ad-9f54-991d9e01e77e","ios":"levelo://app?vid=6a22c7df-ec4e-42ad-9f54-991d9e01e77e"},"vehicle_type_id":"4","last_reported":1726816161,"current_range_meters":14400,"station_id":"ce4bh412rcd13ifvqdr0","pricing_plan_id":"cebpf4jnsgd1na2vs0mg"},{"bike_id":"80db5814-b815-45d8-a9d5-709edd4ffc89","system_id":"levelo_inurba_marseille","lat":43.231883,"lon":5.400859,"is_reserved":false,"is_disabled":false,"rental_uris":{"android":"levelo://app?vid=80db5814-b815-45d8-a9d5-709edd4ffc89","ios":"levelo://app?vid=80db5814-b815-45d8-a9d5-709edd4ffc89"},"vehicle_type_id":"4","last_reported":1726816161,"current_range_meters":19600,"station_id":"ce4bhn12rcd13ifvqgqg","pricing_plan_id":"cebpf4jnsgd1na2vs0mg"},{"bike_id":"06fe3f74-6c9e-4f7d-a937-046de9d9c9e0","system_id":"levelo_inurba_marseille","lat":43.2868,"lon":5.38658,"is_reserved":false,"is_disabled":false,"rental_uris":{"android":"levelo://app?vid=06fe3f74-6c9e-4f7d-a937-046de9d9c9e0","ios":"levelo://app?vid=06fe3f74-6c9e-4f7d-a937-046de9d9c9e0"},"vehicle_type_id":"4","last_reported":1726816161,"current_range_meters":34000,"station_id":"ce4bh492rcd13ifvqdug","pricing_plan_id":"cebpf4jnsgd1na2vs0mg"},{"bike_id":"9c265d7b-b0a5-4799-b251-6fc39180cbcb","system_id":"levelo_inurba_marseille","lat":43.325388,"lon":5.414262,"is_reserved":false,"is_disabled":false,"rental_uris":{"android":"levelo://app?vid=9c265d7b-b0a5-4799-b251-6fc39180cbcb","ios":"levelo://app?vid=9c265d7b-b0a5-4799-b251-6fc39180cbcb"},"vehicle_type_id":"4","last_reported":1726816161,"current_range_meters":14000,"station_id":"ce4bhq12rcd13ifvqhhg","pricing_plan_id":"cebpf4jnsgd1na2vs0mg"},{"bike_id":"0945b090-e80e-402c-9b22-adbad6a0d5ae","system_id":"levelo_inurba_marseille","lat":43.31715,"lon":5.43703,"is_reserved":false,"is_disabled":false,"rental_uris":{"android":"levelo://app?vid=0945b090-e80e-402c-9b22-adbad6a0d5ae","ios":"levelo://app?vid=0945b090-e80e-402c-9b22-adbad6a0d5ae"},"vehicle_type_id":"4","last_reported":1726816161,"current_range_meters":3200,"station_id":"ce4bhp92rcd13ifvqhcg","pricing_plan_id":"cebpf4jnsgd1na2vs0mg"},{"bike_id":"bd9dc574-40ac-47dc-a3de-f8195b34f0de","system_id":"levelo_inurba_marseille","lat":43.33607,"lon":5.41035,"is_reserved":false,"is_disabled":false,"rental_uris":{"android":"levelo://app?vid=bd9dc574-40ac-47dc-a3de-f8195b34f0de","ios":"levelo://app?vid=bd9dc574-40ac-47dc-a3de-f8195b34f0de"},"vehicle_type_id":"4","last_reported":1726816161,"current_range_meters":16400,"station_id":"ce4bhqh2rcd13ifvqhmg","pricing_plan_id":"cebpf4jnsgd1na2vs0mg"},{"bike_id":"2b5bb553-3458-4540-9e5c-c53aa24f8da2","system_id":"levelo_inurba_marseille","lat":43.293633,"lon":5.385767,"is_reserved":false,"is_disabled":false,"rental_uris":{"android":"levelo://app?vid=2b5bb553-3458-4540-9e5c-c53aa24f8da2","ios":"levelo://app?vid=2b5bb553-3458-4540-9e5c-c53aa24f8da2"},"vehicle_type_id":"4","last_reported":1726816161,"current_range_meters":23200,"station_id":"ce4bh692rcd13ifvqea0","pricing_plan_id":"cebpf4jnsgd1na2vs0mg"},{"bike_id":"ff13ccc6-5f9f-47d0-a5ae-87d8650fc89a","system_id":"levelo_inurba_marseille","lat":43.2835,"lon":5.38107,"is_reserved":false,"is_disabled":false,"rental_uris":{"android":"levelo://app?vid=ff13ccc6-5f9f-47d0-a5ae-87d8650fc89a","ios":"levelo://app?vid=ff13ccc6-5f9f-47d0-a5ae-87d8650fc89a"},"vehicle_type_id":"4","last_reported":1726816161,"current_range_meters":24400,"station_id":"ce4bh412rcd13ifvqdr0","pricing_plan_id":"cebpf4jnsgd1na2vs0mg"},{"bike_id":"40f56391-bd86-469f-9a1d-364222ccd18c","system_id":"levelo_inurba_marseille","lat":43.30795,"lon":5.38156,"is_reserved":false,"is_disabled":false,"rental_uris":{"android":"levelo://app?vid=40f56391-bd86-469f-9a1d-364222ccd18c","ios":"levelo://app?vid=40f56391-bd86-469f-9a1d-364222ccd18c"},"vehicle_type_id":"4","last_reported":1726816161,"current_range_meters":36800,"station_id":"ce4bgt12rcd13ifvqce0","pricing_plan_id":"cebpf4jnsgd1na2vs0mg"},{"bike_id":"43356356-1ebf-41d4-a9de-4fa2973940ef","system_id":"levelo_inurba_marseille","lat":43.29961,"lon":5.41333,"is_reserved":false,"is_disabled":false,"rental_uris":{"android":"levelo://app?vid=43356356-1ebf-41d4-a9de-4fa2973940ef","ios":"levelo://app?vid=43356356-1ebf-41d4-a9de-4fa2973940ef"},"vehicle_type_id":"4","last_reported":1726816161,"current_range_meters":32800,"station_id":"ce4bhp12rcd13ifvqh9g","pricing_plan_id":"cebpf4jnsgd1na2vs0mg"},{"bike_id":"e2bdc4bb-8774-4981-a659-1b1998644639","system_id":"levelo_inurba_marseille","lat":43.30519,"lon":5.3653,"is_reserved":false,"is_disabled":false,"rental_uris":{"android":"levelo://app?vid=e2bdc4bb-8774-4981-a659-1b1998644639","ios":"levelo://app?vid=e2bdc4bb-8774-4981-a659-1b1998644639"},"vehicle_type_id":"4","last_reported":1726816161,"current_range_meters":33600,"station_id":"ce4bgs12rcd13ifvqcag","pricing_plan_id":"cebpf4jnsgd1na2vs0mg"},{"bike_id":"6bbab1e7-c46d-4bcc-afb5-894cf0ac646b","system_id":"levelo_inurba_marseille","lat":43.26686,"lon":5.38276,"is_reserved":false,"is_disabled":false,"rental_uris":{"android":"levelo://app?vid=6bbab1e7-c46d-4bcc-afb5-894cf0ac646b","ios":"levelo://app?vid=6bbab1e7-c46d-4bcc-afb5-894cf0ac646b"},"vehicle_type_id":"4","last_reported":1726816161,"current_range_meters":8400,"station_id":"ce4bhg92rcd13ifvqf90","pricing_plan_id":"cebpf4jnsgd1na2vs0mg"},{"bike_id":"b431aa11-7864-481f-af3a-c99c02ad287c","system_id":"levelo_inurba_marseille","lat":43.23965,"lon":5.36638,"is_reserved":false,"is_disabled":false,"rental_uris":{"android":"levelo://app?vid=b431aa11-7864-481f-af3a-c99c02ad287c","ios":"levelo://app?vid=b431aa11-7864-481f-af3a-c99c02ad287c"},"vehicle_type_id":"4","last_reported":1726816161,"current_range_meters":37600,"station_id":"ce4bhi12rcd13ifvqfp0","pricing_plan_id":"cebpf4jnsgd1na2vs0mg"},{"bike_id":"e21d0503-d758-4ec9-850d-d857697ee6d6","system_id":"levelo_inurba_marseille","lat":43.27203,"lon":5.39188,"is_reserved":false,"is_disabled":false,"rental_uris":{"android":"levelo://app?vid=e21d0503-d758-4ec9-850d-d857697ee6d6","ios":"levelo://app?vid=e21d0503-d758-4ec9-850d-d857697ee6d6"},"vehicle_type_id":"4","last_reported":1726816161,"current_range_meters":4400,"station_id":"ce4bhhp2rcd13ifvqfm0","pricing_plan_id":"cebpf4jnsgd1na2vs0mg"},{"bike_id":"f689521a-328c-4627-83e8-a25c4f32e99b","system_id":"levelo_inurba_marseille","lat":43.23193,"lon":5.35558,"is_reserved":false,"is_disabled":false,"rental_uris":{"android":"levelo://app?vid=f689521a-328c-4627-83e8-a25c4f32e99b","ios":"levelo://app?vid=f689521a-328c-4627-83e8-a25c4f32e99b"},"vehicle_type_id":"4","last_reported":1726816161,"current_range_meters":27600,"station_id":"ce4bhu92rcd13ifvqi70","pricing_plan_id":"cebpf4jnsgd1na2vs0mg"},{"bike_id":"0103eeda-09a7-4e2b-b881-e857ddcec39e","system_id":"levelo_inurba_marseille","lat":43.23184,"lon":5.39981,"is_reserved":false,"is_disabled":false,"rental_uris":{"android":"levelo://app?vid=0103eeda-09a7-4e2b-b881-e857ddcec39e","ios":"levelo://app?vid=0103eeda-09a7-4e2b-b881-e857ddcec39e"},"vehicle_type_id":"4","last_reported":1726816161,"current_range_meters":38400,"station_id":"ce4bhn12rcd13ifvqgqg","pricing_plan_id":"cebpf4jnsgd1na2vs0mg"},{"bike_id":"06db260b-56f3-4d24-914c-8282b53ae9c9","system_id":"levelo_inurba_marseille","lat":43.28974,"lon":5.37834,"is_reserved":false,"is_disabled":false,"rental_uris":{"android":"levelo://app?vid=06db260b-56f3-4d24-914c-8282b53ae9c9","ios":"levelo://app?vid=06db260b-56f3-4d24-914c-8282b53ae9c9"},"vehicle_type_id":"4","last_reported":1726816161,"current_range_meters":35600,"station_id":"ce4bh9p2rcd13ifvqed0","pricing_plan_id":"cebpf4jnsgd1na2vs0mg"},{"bike_id":"85d5201c-522f-4cbd-ae43-eaf7a287246f","system_id":"levelo_inurba_marseille","lat":43.2408,"lon":5.37754,"is_reserved":false,"is_disabled":false,"rental_uris":{"android":"levelo://app?vid=85d5201c-522f-4cbd-ae43-eaf7a287246f","ios":"levelo://app?vid=85d5201c-522f-4cbd-ae43-eaf7a287246f"},"vehicle_type_id":"4","last_reported":1726816161,"current_range_meters":35200,"station_id":"ce4bhnp2rcd13ifvqgvg","pricing_plan_id":"cebpf4jnsgd1na2vs0mg"},{"bike_id":"1192729f-1198-46cf-8c63-85e43de5743c","system_id":"levelo_inurba_marseille","lat":43.309449,"lon":5.390326,"is_reserved":false,"is_disabled":false,"rental_uris":{"android":"levelo://app?vid=1192729f-1198-46cf-8c63-85e43de5743c","ios":"levelo://app?vid=1192729f-1198-46cf-8c63-85e43de5743c"},"vehicle_type_id":"4","last_reported":1726816161,"current_range_meters":22800,"station_id":"ce4bgup2rcd13ifvqco0","pricing_plan_id":"cebpf4jnsgd1na2vs0mg"},{"bike_id":"06160354-60df-4cba-b7d5-441cbcd00837","system_id":"levelo_inurba_marseille","lat":43.30473,"lon":5.37907,"is_reserved":false,"is_disabled":false,"rental_uris":{"android":"levelo://app?vid=06160354-60df-4cba-b7d5-441cbcd00837","ios":"levelo://app?vid=06160354-60df-4cba-b7d5-441cbcd00837"},"vehicle_type_id":"4","last_reported":1726816161,"current_range_meters":38000,"station_id":"ce4bgup2rcd13ifvqcn0","pricing_plan_id":"cebpf4jnsgd1na2vs0mg"},{"bike_id":"306549f4-d300-4209-9498-1103ebfb72df","system_id":"levelo_inurba_marseille","lat":43.30537,"lon":5.36556,"is_reserved":false,"is_disabled":false,"rental_uris":{"android":"levelo://app?vid=306549f4-d300-4209-9498-1103ebfb72df","ios":"levelo://app?vid=306549f4-d300-4209-9498-1103ebfb72df"},"vehicle_type_id":"4","last_reported":1726816161,"current_range_meters":27200,"station_id":"ce4bgs12rcd13ifvqcag","pricing_plan_id":"cebpf4jnsgd1na2vs0mg"},{"bike_id":"896e6927-c5f6-4910-b508-b7785967479b","system_id":"levelo_inurba_marseille","lat":43.26204,"lon":5.37923,"is_reserved":false,"is_disabled":false,"rental_uris":{"android":"levelo://app?vid=896e6927-c5f6-4910-b508-b7785967479b","ios":"levelo://app?vid=896e6927-c5f6-4910-b508-b7785967479b"},"vehicle_type_id":"4","last_reported":1726816161,"current_range_meters":33200,"station_id":"ce4bhjp2rcd13ifvqg90","pricing_plan_id":"cebpf4jnsgd1na2vs0mg"},{"bike_id":"cf555b44-67b0-41d4-a5f9-65b67db51574","system_id":"levelo_inurba_marseille","lat":43.2408,"lon":5.37747,"is_reserved":false,"is_disabled":false,"rental_uris":{"android":"levelo://app?vid=cf555b44-67b0-41d4-a5f9-65b67db51574","ios":"levelo://app?vid=cf555b44-67b0-41d4-a5f9-65b67db51574"},"vehicle_type_id":"4","last_reported":1726816161,"current_range_meters":3200,"station_id":"ce4bhnp2rcd13ifvqgvg","pricing_plan_id":"cebpf4jnsgd1na2vs0mg"},{"bike_id":"4681716a-c27c-4347-868a-396eefab2922","system_id":"levelo_inurba_marseille","lat":43.30435,"lon":5.39748,"is_reserved":false,"is_disabled":false,"rental_uris":{"android":"levelo://app?vid=4681716a-c27c-4347-868a-396eefab2922","ios":"levelo://app?vid=4681716a-c27c-4347-868a-396eefab2922"},"vehicle_type_id":"4","last_reported":1726816161,"current_range_meters":6800,"station_id":"ce4bh092rcd13ifvqd20","pricing_plan_id":"cebpf4jnsgd1na2vs0mg"},{"bike_id":"58c17ee0-3c18-480a-b00e-6e495a2d85a9","system_id":"levelo_inurba_marseille","lat":43.293976,"lon":5.386524,"is_reserved":false,"is_disabled":false,"rental_uris":{"android":"levelo://app?vid=58c17ee0-3c18-480a-b00e-6e495a2d85a9","ios":"levelo://app?vid=58c17ee0-3c18-480a-b00e-6e495a2d85a9"},"vehicle_type_id":"4","last_reported":1726816161,"current_range_meters":36800,"station_id":"ce4bh312rcd13ifvqdk0","pricing_plan_id":"cebpf4jnsgd1na2vs0mg"},{"bike_id":"f104eaef-b3b0-4392-ad0b-884d81f7af7f","system_id":"levelo_inurba_marseille","lat":43.27494,"lon":5.42452,"is_reserved":false,"is_disabled":false,"rental_uris":{"android":"levelo://app?vid=f104eaef-b3b0-4392-ad0b-884d81f7af7f","ios":"levelo://app?vid=f104eaef-b3b0-4392-ad0b-884d81f7af7f"},"vehicle_type_id":"4","last_reported":1726816161,"current_range_meters":8000,"station_id":"ce4bhn92rcd13ifvqgrg","pricing_plan_id":"cebpf4jnsgd1na2vs0mg"},{"bike_id":"6305f7dd-88e5-4e74-8721-e6c5fd5be070","system_id":"levelo_inurba_marseille","lat":43.304654,"lon":5.379157,"is_reserved":false,"is_disabled":false,"rental_uris":{"android":"levelo://app?vid=6305f7dd-88e5-4e74-8721-e6c5fd5be070","ios":"levelo://app?vid=6305f7dd-88e5-4e74-8721-e6c5fd5be070"},"vehicle_type_id":"4","last_reported":1726816161,"current_range_meters":34000,"station_id":"ce4bgup2rcd13ifvqcn0","pricing_plan_id":"cebpf4jnsgd1na2vs0mg"},{"bike_id":"35fe1d27-ec35-4032-b9ea-4560d630985b","system_id":"levelo_inurba_marseille","lat":43.30537,"lon":5.38428,"is_reserved":false,"is_disabled":false,"rental_uris":{"android":"levelo://app?vid=35fe1d27-ec35-4032-b9ea-4560d630985b","ios":"levelo://app?vid=35fe1d27-ec35-4032-b9ea-4560d630985b"},"vehicle_type_id":"4","last_reported":1726816161,"current_range_meters":36800,"station_id":"ce4bgg92rcd13ifvqb30","pricing_plan_id":"cebpf4jnsgd1na2vs0mg"},{"bike_id":"2960f8b5-12d5-4e9b-b9f6-27b654b218c4","system_id":"levelo_inurba_marseille","lat":43.28981,"lon":5.37835,"is_reserved":false,"is_disabled":false,"rental_uris":{"android":"levelo://app?vid=2960f8b5-12d5-4e9b-b9f6-27b654b218c4","ios":"levelo://app?vid=2960f8b5-12d5-4e9b-b9f6-27b654b218c4"},"vehicle_type_id":"4","last_reported":1726816161,"current_range_meters":38000,"station_id":"ce4bh9p2rcd13ifvqed0","pricing_plan_id":"cebpf4jnsgd1na2vs0mg"},{"bike_id":"9733eb26-9e68-456c-b0c3-d7415e89c90e","system_id":"levelo_inurba_marseille","lat":43.296204,"lon":5.377261,"is_reserved":false,"is_disabled":false,"rental_uris":{"android":"levelo://app?vid=9733eb26-9e68-456c-b0c3-d7415e89c90e","ios":"levelo://app?vid=9733eb26-9e68-456c-b0c3-d7415e89c90e"},"vehicle_type_id":"4","last_reported":1726816161,"current_range_meters":29600,"station_id":"ce4bgrp2rcd13ifvqc9g","pricing_plan_id":"cebpf4jnsgd1na2vs0mg"},{"bike_id":"dd5d1dac-99f5-433a-85c0-ca7b958391ea","system_id":"levelo_inurba_marseille","lat":43.30465,"lon":5.37914,"is_reserved":false,"is_disabled":false,"rental_uris":{"android":"levelo://app?vid=dd5d1dac-99f5-433a-85c0-ca7b958391ea","ios":"levelo://app?vid=dd5d1dac-99f5-433a-85c0-ca7b958391ea"},"vehicle_type_id":"4","last_reported":1726816161,"current_range_meters":27600,"station_id":"ce4bgup2rcd13ifvqcn0","pricing_plan_id":"cebpf4jnsgd1na2vs0mg"},{"bike_id":"09450b7f-f6cd-42a7-803e-6c020016fe60","system_id":"levelo_inurba_marseille","lat":43.2728,"lon":5.39121,"is_reserved":false,"is_disabled":false,"rental_uris":{"android":"levelo://app?vid=09450b7f-f6cd-42a7-803e-6c020016fe60","ios":"levelo://app?vid=09450b7f-f6cd-42a7-803e-6c020016fe60"},"vehicle_type_id":"4","last_reported":1726816161,"current_range_meters":28000,"station_id":"","pricing_plan_id":"cebpf4jnsgd1na2vs0mg"},{"bike_id":"bfb281b7-2b3e-4603-87b6-1a4712263f26","system_id":"levelo_inurba_marseille","lat":43.28664,"lon":5.38657,"is_reserved":false,"is_disabled":false,"rental_uris":{"android":"levelo://app?vid=bfb281b7-2b3e-4603-87b6-1a4712263f26","ios":"levelo://app?vid=bfb281b7-2b3e-4603-87b6-1a4712263f26"},"vehicle_type_id":"4","last_reported":1726816161,"current_range_meters":6800,"station_id":"ce4bh492rcd13ifvqdug","pricing_plan_id":"cebpf4jnsgd1na2vs0mg"},{"bike_id":"7738401f-101a-4c61-86f8-1271ccec939a","system_id":"levelo_inurba_marseille","lat":43.28343,"lon":5.38112,"is_reserved":false,"is_disabled":false,"rental_uris":{"android":"levelo://app?vid=7738401f-101a-4c61-86f8-1271ccec939a","ios":"levelo://app?vid=7738401f-101a-4c61-86f8-1271ccec939a"},"vehicle_type_id":"4","last_reported":1726816161,"current_range_meters":38800,"station_id":"ce4bh412rcd13ifvqdr0","pricing_plan_id":"cebpf4jnsgd1na2vs0mg"},{"bike_id":"fddda46f-3770-430a-bd4b-01e0f31638c2","system_id":"levelo_inurba_marseille","lat":43.25941,"lon":5.40897,"is_reserved":false,"is_disabled":false,"rental_uris":{"android":"levelo://app?vid=fddda46f-3770-430a-bd4b-01e0f31638c2","ios":"levelo://app?vid=fddda46f-3770-430a-bd4b-01e0f31638c2"},"vehicle_type_id":"4","last_reported":1726816161,"current_range_meters":31200,"station_id":"ce4bhm92rcd13ifvqglg","pricing_plan_id":"cebpf4jnsgd1na2vs0mg"},{"bike_id":"8ee6d5db-cb8b-4219-a1d2-5a1a8206952f","system_id":"levelo_inurba_marseille","lat":43.29548,"lon":5.42279,"is_reserved":false,"is_disabled":false,"rental_uris":{"android":"levelo://app?vid=8ee6d5db-cb8b-4219-a1d2-5a1a8206952f","ios":"levelo://app?vid=8ee6d5db-cb8b-4219-a1d2-5a1a8206952f"},"vehicle_type_id":"4","last_reported":1726816161,"current_range_meters":38000,"station_id":"ce4bhph2rcd13ifvqhdg","pricing_plan_id":"cebpf4jnsgd1na2vs0mg"},{"bike_id":"10f12f49-4cb0-4006-af16-73843c3bf357","system_id":"levelo_inurba_marseille","lat":43.240757,"lon":5.377564,"is_reserved":false,"is_disabled":false,"rental_uris":{"android":"levelo://app?vid=10f12f49-4cb0-4006-af16-73843c3bf357","ios":"levelo://app?vid=10f12f49-4cb0-4006-af16-73843c3bf357"},"vehicle_type_id":"4","last_reported":1726816161,"current_range_meters":14000,"station_id":"ce4bhnp2rcd13ifvqgvg","pricing_plan_id":"cebpf4jnsgd1na2vs0mg"},{"bike_id":"0ff393b5-2680-4ab9-a61b-b35fece17fe2","system_id":"levelo_inurba_marseille","lat":43.34145,"lon":5.40899,"is_reserved":false,"is_disabled":false,"rental_uris":{"android":"levelo://app?vid=0ff393b5-2680-4ab9-a61b-b35fece17fe2","ios":"levelo://app?vid=0ff393b5-2680-4ab9-a61b-b35fece17fe2"},"vehicle_type_id":"4","last_reported":1726816161,"current_range_meters":38400,"station_id":"ce4bhqh2rcd13ifvqhlg","pricing_plan_id":"cebpf4jnsgd1na2vs0mg"},{"bike_id":"3048392a-9395-4998-80c0-039450d3cfa3","system_id":"levelo_inurba_marseille","lat":43.25932,"lon":5.40911,"is_reserved":false,"is_disabled":false,"rental_uris":{"android":"levelo://app?vid=3048392a-9395-4998-80c0-039450d3cfa3","ios":"levelo://app?vid=3048392a-9395-4998-80c0-039450d3cfa3"},"vehicle_type_id":"4","last_reported":1726816161,"current_range_meters":18000,"station_id":"ce4bhm92rcd13ifvqglg","pricing_plan_id":"cebpf4jnsgd1na2vs0mg"},{"bike_id":"b02c4222-612b-4c06-bc86-d4f2cfd5e477","system_id":"levelo_inurba_marseille","lat":43.24545,"lon":5.3953,"is_reserved":false,"is_disabled":false,"rental_uris":{"android":"levelo://app?vid=b02c4222-612b-4c06-bc86-d4f2cfd5e477","ios":"levelo://app?vid=b02c4222-612b-4c06-bc86-d4f2cfd5e477"},"vehicle_type_id":"4","last_reported":1726816161,"current_range_meters":24000,"station_id":"ce4bhlp2rcd13ifvqgjg","pricing_plan_id":"cebpf4jnsgd1na2vs0mg"},{"bike_id":"6cc57481-25b4-4654-8964-094a6c525f6d","system_id":"levelo_inurba_marseille","lat":43.275,"lon":5.42455,"is_reserved":false,"is_disabled":false,"rental_uris":{"android":"levelo://app?vid=6cc57481-25b4-4654-8964-094a6c525f6d","ios":"levelo://app?vid=6cc57481-25b4-4654-8964-094a6c525f6d"},"vehicle_type_id":"4","last_reported":1726816161,"current_range_meters":3600,"station_id":"ce4bhn92rcd13ifvqgrg","pricing_plan_id":"cebpf4jnsgd1na2vs0mg"},{"bike_id":"66bdbe49-6c87-4f80-b9c2-4a52c0ab5db0","system_id":"levelo_inurba_marseille","lat":43.30533,"lon":5.36705,"is_reserved":false,"is_disabled":false,"rental_uris":{"android":"levelo://app?vid=66bdbe49-6c87-4f80-b9c2-4a52c0ab5db0","ios":"levelo://app?vid=66bdbe49-6c87-4f80-b9c2-4a52c0ab5db0"},"vehicle_type_id":"4","last_reported":1726816161,"current_range_meters":4400,"station_id":"ce4bgrp2rcd13ifvqc9g","pricing_plan_id":"cebpf4jnsgd1na2vs0mg"},{"bike_id":"42c351f1-807e-46be-af39-143f81a06cd5","system_id":"levelo_inurba_marseille","lat":43.30909,"lon":5.36845,"is_reserved":false,"is_disabled":false,"rental_uris":{"android":"levelo://app?vid=42c351f1-807e-46be-af39-143f81a06cd5","ios":"levelo://app?vid=42c351f1-807e-46be-af39-143f81a06cd5"},"vehicle_type_id":"4","last_reported":1726816161,"current_range_meters":24000,"station_id":"ce4bgn92rcd13ifvqbvg","pricing_plan_id":"cebpf4jnsgd1na2vs0mg"},{"bike_id":"9e74ea13-2a2a-4f23-a734-e19bca5cb3b8","system_id":"levelo_inurba_marseille","lat":43.28983,"lon":5.3784,"is_reserved":false,"is_disabled":false,"rental_uris":{"android":"levelo://app?vid=9e74ea13-2a2a-4f23-a734-e19bca5cb3b8","ios":"levelo://app?vid=9e74ea13-2a2a-4f23-a734-e19bca5cb3b8"},"vehicle_type_id":"4","last_reported":1726816161,"current_range_meters":37600,"station_id":"ce4bh9p2rcd13ifvqed0","pricing_plan_id":"cebpf4jnsgd1na2vs0mg"},{"bike_id":"1a005b2d-be9a-4c50-a57b-73902b38f7e0","system_id":"levelo_inurba_marseille","lat":43.28711,"lon":5.37939,"is_reserved":false,"is_disabled":false,"rental_uris":{"android":"levelo://app?vid=1a005b2d-be9a-4c50-a57b-73902b38f7e0","ios":"levelo://app?vid=1a005b2d-be9a-4c50-a57b-73902b38f7e0"},"vehicle_type_id":"4","last_reported":1726816161,"current_range_meters":33200,"station_id":"ce4bh9p2rcd13ifvqec0","pricing_plan_id":"cebpf4jnsgd1na2vs0mg"},{"bike_id":"551c8255-bc02-4f16-9068-617dd63668b9","system_id":"levelo_inurba_marseille","lat":43.29962,"lon":5.37167,"is_reserved":false,"is_disabled":false,"rental_uris":{"android":"levelo://app?vid=551c8255-bc02-4f16-9068-617dd63668b9","ios":"levelo://app?vid=551c8255-bc02-4f16-9068-617dd63668b9"},"vehicle_type_id":"4","last_reported":1726816161,"current_range_meters":35600,"station_id":"ce4bgr92rcd13ifvqc7g","pricing_plan_id":"cebpf4jnsgd1na2vs0mg"},{"bike_id":"b153f585-91a7-4778-8e3b-fba7bd4d15f4","system_id":"levelo_inurba_marseille","lat":43.31347,"lon":5.36715,"is_reserved":false,"is_disabled":false,"rental_uris":{"android":"levelo://app?vid=b153f585-91a7-4778-8e3b-fba7bd4d15f4","ios":"levelo://app?vid=b153f585-91a7-4778-8e3b-fba7bd4d15f4"},"vehicle_type_id":"4","last_reported":1726816161,"current_range_meters":39200,"station_id":"ce4bgr92rcd13ifvqc6g","pricing_plan_id":"cebpf4jnsgd1na2vs0mg"},{"bike_id":"c6d49023-7249-4b0b-904f-e5f6b40a04db","system_id":"levelo_inurba_marseille","lat":43.28501,"lon":5.38569,"is_reserved":false,"is_disabled":false,"rental_uris":{"android":"levelo://app?vid=c6d49023-7249-4b0b-904f-e5f6b40a04db","ios":"levelo://app?vid=c6d49023-7249-4b0b-904f-e5f6b40a04db"},"vehicle_type_id":"4","last_reported":1726816161,"current_range_meters":19600,"station_id":"ce4bh8p2rcd13ifvqeb0","pricing_plan_id":"cebpf4jnsgd1na2vs0mg"},{"bike_id":"162400c4-7c8e-4e08-8e30-3872a8628f3a","system_id":"levelo_inurba_marseille","lat":43.26951,"lon":5.38631,"is_reserved":false,"is_disabled":false,"rental_uris":{"android":"levelo://app?vid=162400c4-7c8e-4e08-8e30-3872a8628f3a","ios":"levelo://app?vid=162400c4-7c8e-4e08-8e30-3872a8628f3a"},"vehicle_type_id":"4","last_reported":1726816161,"current_range_meters":10800,"station_id":"ce4bhh92rcd13ifvqfh0","pricing_plan_id":"cebpf4jnsgd1na2vs0mg"},{"bike_id":"aa8c723a-18e1-4191-a83a-484ae857f704","system_id":"levelo_inurba_marseille","lat":43.34142,"lon":5.40905,"is_reserved":false,"is_disabled":false,"rental_uris":{"android":"levelo://app?vid=aa8c723a-18e1-4191-a83a-484ae857f704","ios":"levelo://app?vid=aa8c723a-18e1-4191-a83a-484ae857f704"},"vehicle_type_id":"4","last_reported":1726816161,"current_range_meters":27600,"station_id":"ce4bhqh2rcd13ifvqhlg","pricing_plan_id":"cebpf4jnsgd1na2vs0mg"},{"bike_id":"a036a2a0-6219-461f-bb0b-f34736ab1d2c","system_id":"levelo_inurba_marseille","lat":43.3091,"lon":5.36837,"is_reserved":false,"is_disabled":false,"rental_uris":{"android":"levelo://app?vid=a036a2a0-6219-461f-bb0b-f34736ab1d2c","ios":"levelo://app?vid=a036a2a0-6219-461f-bb0b-f34736ab1d2c"},"vehicle_type_id":"4","last_reported":1726816161,"current_range_meters":4000,"station_id":"ce4bgn92rcd13ifvqbvg","pricing_plan_id":"cebpf4jnsgd1na2vs0mg"},{"bike_id":"9e17731e-35d9-4aa0-92b3-bc18bc20078c","system_id":"levelo_inurba_marseille","lat":43.30953,"lon":5.39047,"is_reserved":false,"is_disabled":false,"rental_uris":{"android":"levelo://app?vid=9e17731e-35d9-4aa0-92b3-bc18bc20078c","ios":"levelo://app?vid=9e17731e-35d9-4aa0-92b3-bc18bc20078c"},"vehicle_type_id":"4","last_reported":1726816161,"current_range_meters":12000,"station_id":"ce4bgup2rcd13ifvqco0","pricing_plan_id":"cebpf4jnsgd1na2vs0mg"},{"bike_id":"247f8924-d2ca-48e7-b639-f5097299ef61","system_id":"levelo_inurba_marseille","lat":43.24388,"lon":5.37051,"is_reserved":false,"is_disabled":false,"rental_uris":{"android":"levelo://app?vid=247f8924-d2ca-48e7-b639-f5097299ef61","ios":"levelo://app?vid=247f8924-d2ca-48e7-b639-f5097299ef61"},"vehicle_type_id":"4","last_reported":1726816161,"current_range_meters":39200,"station_id":"ce4bhhh2rcd13ifvqfk0","pricing_plan_id":"cebpf4jnsgd1na2vs0mg"},{"bike_id":"e3678fe5-cd97-41c2-92f5-c59b10e32309","system_id":"levelo_inurba_marseille","lat":43.31525,"lon":5.38027,"is_reserved":false,"is_disabled":false,"rental_uris":{"android":"levelo://app?vid=e3678fe5-cd97-41c2-92f5-c59b10e32309","ios":"levelo://app?vid=e3678fe5-cd97-41c2-92f5-c59b10e32309"},"vehicle_type_id":"4","last_reported":1726816161,"current_range_meters":35600,"station_id":"ce4bhsp2rcd13ifvqi50","pricing_plan_id":"cebpf4jnsgd1na2vs0mg"},{"bike_id":"6b0b777a-8312-49d9-bdfc-41a6c52e6b37","system_id":"levelo_inurba_marseille","lat":43.30471,"lon":5.37889,"is_reserved":false,"is_disabled":false,"rental_uris":{"android":"levelo://app?vid=6b0b777a-8312-49d9-bdfc-41a6c52e6b37","ios":"levelo://app?vid=6b0b777a-8312-49d9-bdfc-41a6c52e6b37"},"vehicle_type_id":"4","last_reported":1726816161,"current_range_meters":33600,"station_id":"ce4bgup2rcd13ifvqcn0","pricing_plan_id":"cebpf4jnsgd1na2vs0mg"},{"bike_id":"604c9531-be4f-4974-bfe2-bd7828d7386f","system_id":"levelo_inurba_marseille","lat":43.29901,"lon":5.43661,"is_reserved":false,"is_disabled":false,"rental_uris":{"android":"levelo://app?vid=604c9531-be4f-4974-bfe2-bd7828d7386f","ios":"levelo://app?vid=604c9531-be4f-4974-bfe2-bd7828d7386f"},"vehicle_type_id":"4","last_reported":1726816161,"current_range_meters":28800,"station_id":"ce4bhpp2rcd13ifvqhfg","pricing_plan_id":"cebpf4jnsgd1na2vs0mg"},{"bike_id":"44da3e59-dcf2-4354-910f-f3fece0ed467","system_id":"levelo_inurba_marseille","lat":43.27064,"lon":5.42275,"is_reserved":false,"is_disabled":false,"rental_uris":{"android":"levelo://app?vid=44da3e59-dcf2-4354-910f-f3fece0ed467","ios":"levelo://app?vid=44da3e59-dcf2-4354-910f-f3fece0ed467"},"vehicle_type_id":"4","last_reported":1726816161,"current_range_meters":37600,"station_id":"ce4bhk92rcd13ifvqgb0","pricing_plan_id":"cebpf4jnsgd1na2vs0mg"},{"bike_id":"eb2ef9af-e9bb-4b94-aee1-3fb33b5e66f9","system_id":"levelo_inurba_marseille","lat":43.2799,"lon":5.41654,"is_reserved":false,"is_disabled":false,"rental_uris":{"android":"levelo://app?vid=eb2ef9af-e9bb-4b94-aee1-3fb33b5e66f9","ios":"levelo://app?vid=eb2ef9af-e9bb-4b94-aee1-3fb33b5e66f9"},"vehicle_type_id":"4","last_reported":1726816161,"current_range_meters":37600,"station_id":"ce4bho12rcd13ifvqh1g","pricing_plan_id":"cebpf4jnsgd1na2vs0mg"},{"bike_id":"5cea981d-b657-480e-a220-5159c5967380","system_id":"levelo_inurba_marseille","lat":43.337444,"lon":5.374475,"is_reserved":false,"is_disabled":false,"rental_uris":{"android":"levelo://app?vid=5cea981d-b657-480e-a220-5159c5967380","ios":"levelo://app?vid=5cea981d-b657-480e-a220-5159c5967380"},"vehicle_type_id":"4","last_reported":1726816161,"current_range_meters":20000,"station_id":"","pricing_plan_id":"cebpf4jnsgd1na2vs0mg"},{"bike_id":"be365c2e-80e2-44c5-a20e-0144c10d6da3","system_id":"levelo_inurba_marseille","lat":43.26955,"lon":5.3864,"is_reserved":false,"is_disabled":false,"rental_uris":{"android":"levelo://app?vid=be365c2e-80e2-44c5-a20e-0144c10d6da3","ios":"levelo://app?vid=be365c2e-80e2-44c5-a20e-0144c10d6da3"},"vehicle_type_id":"4","last_reported":1726816161,"current_range_meters":39200,"station_id":"ce4bhh92rcd13ifvqfh0","pricing_plan_id":"cebpf4jnsgd1na2vs0mg"},{"bike_id":"bbabc812-5d4f-4dde-ac4b-6c59e8a40a27","system_id":"levelo_inurba_marseille","lat":43.27492,"lon":5.4245,"is_reserved":false,"is_disabled":false,"rental_uris":{"android":"levelo://app?vid=bbabc812-5d4f-4dde-ac4b-6c59e8a40a27","ios":"levelo://app?vid=bbabc812-5d4f-4dde-ac4b-6c59e8a40a27"},"vehicle_type_id":"4","last_reported":1726816161,"current_range_meters":38800,"station_id":"ce4bhn92rcd13ifvqgrg","pricing_plan_id":"cebpf4jnsgd1na2vs0mg"},{"bike_id":"15bbdbd8-fa35-4790-b472-706c4e2f4e69","system_id":"levelo_inurba_marseille","lat":43.3053,"lon":5.37272,"is_reserved":false,"is_disabled":false,"rental_uris":{"android":"levelo://app?vid=15bbdbd8-fa35-4790-b472-706c4e2f4e69","ios":"levelo://app?vid=15bbdbd8-fa35-4790-b472-706c4e2f4e69"},"vehicle_type_id":"4","last_reported":1726816161,"current_range_meters":6400,"station_id":"","pricing_plan_id":"cebpf4jnsgd1na2vs0mg"},{"bike_id":"ef6e8a6b-dbc8-497d-adeb-1b246e1a7dec","system_id":"levelo_inurba_marseille","lat":43.24179,"lon":5.39729,"is_reserved":false,"is_disabled":false,"rental_uris":{"android":"levelo://app?vid=ef6e8a6b-dbc8-497d-adeb-1b246e1a7dec","ios":"levelo://app?vid=ef6e8a6b-dbc8-497d-adeb-1b246e1a7dec"},"vehicle_type_id":"4","last_reported":1726816161,"current_range_meters":39200,"station_id":"ce4bhn12rcd13ifvqgpg","pricing_plan_id":"cebpf4jnsgd1na2vs0mg"},{"bike_id":"9f8649e2-75d2-4d09-94ee-538fd13f9680","system_id":"levelo_inurba_marseille","lat":43.33605,"lon":5.41021,"is_reserved":false,"is_disabled":false,"rental_uris":{"android":"levelo://app?vid=9f8649e2-75d2-4d09-94ee-538fd13f9680","ios":"levelo://app?vid=9f8649e2-75d2-4d09-94ee-538fd13f9680"},"vehicle_type_id":"4","last_reported":1726816161,"current_range_meters":38000,"station_id":"ce4bhqh2rcd13ifvqhmg","pricing_plan_id":"cebpf4jnsgd1na2vs0mg"},{"bike_id":"eba8614c-0914-4ce7-a706-4d43d12ff0e3","system_id":"levelo_inurba_marseille","lat":43.28152,"lon":5.4265,"is_reserved":false,"is_disabled":false,"rental_uris":{"android":"levelo://app?vid=eba8614c-0914-4ce7-a706-4d43d12ff0e3","ios":"levelo://app?vid=eba8614c-0914-4ce7-a706-4d43d12ff0e3"},"vehicle_type_id":"4","last_reported":1726816161,"current_range_meters":33200,"station_id":"ce4bhnh2rcd13ifvqgug","pricing_plan_id":"cebpf4jnsgd1na2vs0mg"},{"bike_id":"dbf2dcef-42e1-4c90-b72e-308cb8f923fa","system_id":"levelo_inurba_marseille","lat":43.29035,"lon":5.37586,"is_reserved":false,"is_disabled":false,"rental_uris":{"android":"levelo://app?vid=dbf2dcef-42e1-4c90-b72e-308cb8f923fa","ios":"levelo://app?vid=dbf2dcef-42e1-4c90-b72e-308cb8f923fa"},"vehicle_type_id":"4","last_reported":1726816161,"current_range_meters":10800,"station_id":"ce4bh692rcd13ifvqe90","pricing_plan_id":"cebpf4jnsgd1na2vs0mg"},{"bike_id":"51c60821-6baa-4f58-ae25-762c5061a38b","system_id":"levelo_inurba_marseille","lat":43.27311,"lon":5.39076,"is_reserved":false,"is_disabled":false,"rental_uris":{"android":"levelo://app?vid=51c60821-6baa-4f58-ae25-762c5061a38b","ios":"levelo://app?vid=51c60821-6baa-4f58-ae25-762c5061a38b"},"vehicle_type_id":"4","last_reported":1726816161,"current_range_meters":8800,"station_id":"ce4bhgp2rcd13ifvqfe0","pricing_plan_id":"cebpf4jnsgd1na2vs0mg"},{"bike_id":"0e79ea0e-3c75-4504-aa69-f6b1684c9434","system_id":"levelo_inurba_marseille","lat":43.30551,"lon":5.36561,"is_reserved":false,"is_disabled":false,"rental_uris":{"android":"levelo://app?vid=0e79ea0e-3c75-4504-aa69-f6b1684c9434","ios":"levelo://app?vid=0e79ea0e-3c75-4504-aa69-f6b1684c9434"},"vehicle_type_id":"4","last_reported":1726816161,"current_range_meters":24400,"station_id":"ce4bgs12rcd13ifvqcag","pricing_plan_id":"cebpf4jnsgd1na2vs0mg"},{"bike_id":"5910eaa6-f894-4b8f-9a20-79443111bee6","system_id":"levelo_inurba_marseille","lat":43.24058,"lon":5.37757,"is_reserved":false,"is_disabled":false,"rental_uris":{"android":"levelo://app?vid=5910eaa6-f894-4b8f-9a20-79443111bee6","ios":"levelo://app?vid=5910eaa6-f894-4b8f-9a20-79443111bee6"},"vehicle_type_id":"4","last_reported":1726816161,"current_range_meters":35600,"station_id":"ce4bhnp2rcd13ifvqgvg","pricing_plan_id":"cebpf4jnsgd1na2vs0mg"},{"bike_id":"62c9de98-2bbe-4aa3-8d3a-20478c787d1a","system_id":"levelo_inurba_marseille","lat":43.29593,"lon":5.38103,"is_reserved":false,"is_disabled":false,"rental_uris":{"android":"levelo://app?vid=62c9de98-2bbe-4aa3-8d3a-20478c787d1a","ios":"levelo://app?vid=62c9de98-2bbe-4aa3-8d3a-20478c787d1a"},"vehicle_type_id":"4","last_reported":1726816161,"current_range_meters":38800,"station_id":"ce4bgl12rcd13ifvqbo0","pricing_plan_id":"cebpf4jnsgd1na2vs0mg"},{"bike_id":"8bded9b1-4958-41a5-9529-392455536bc5","system_id":"levelo_inurba_marseille","lat":43.27489,"lon":5.42457,"is_reserved":false,"is_disabled":false,"rental_uris":{"android":"levelo://app?vid=8bded9b1-4958-41a5-9529-392455536bc5","ios":"levelo://app?vid=8bded9b1-4958-41a5-9529-392455536bc5"},"vehicle_type_id":"4","last_reported":1726816161,"current_range_meters":38800,"station_id":"ce4bhn92rcd13ifvqgrg","pricing_plan_id":"cebpf4jnsgd1na2vs0mg"},{"bike_id":"923be1b8-882a-445b-83fa-e72f0e039471","system_id":"levelo_inurba_marseille","lat":43.30541,"lon":5.3655,"is_reserved":false,"is_disabled":false,"rental_uris":{"android":"levelo://app?vid=923be1b8-882a-445b-83fa-e72f0e039471","ios":"levelo://app?vid=923be1b8-882a-445b-83fa-e72f0e039471"},"vehicle_type_id":"4","last_reported":1726816161,"current_range_meters":36400,"station_id":"ce4bgs12rcd13ifvqcag","pricing_plan_id":"cebpf4jnsgd1na2vs0mg"},{"bike_id":"7b17390f-affd-43ff-8df2-9cc5a8b586c2","system_id":"levelo_inurba_marseille","lat":43.27302,"lon":5.39233,"is_reserved":false,"is_disabled":false,"rental_uris":{"android":"levelo://app?vid=7b17390f-affd-43ff-8df2-9cc5a8b586c2","ios":"levelo://app?vid=7b17390f-affd-43ff-8df2-9cc5a8b586c2"},"vehicle_type_id":"4","last_reported":1726816161,"current_range_meters":26000,"station_id":"","pricing_plan_id":"cebpf4jnsgd1na2vs0mg"},{"bike_id":"4fa0ca0d-342c-4cd6-990b-f5e4ae40db2b","system_id":"levelo_inurba_marseille","lat":43.29962,"lon":5.41336,"is_reserved":false,"is_disabled":false,"rental_uris":{"android":"levelo://app?vid=4fa0ca0d-342c-4cd6-990b-f5e4ae40db2b","ios":"levelo://app?vid=4fa0ca0d-342c-4cd6-990b-f5e4ae40db2b"},"vehicle_type_id":"4","last_reported":1726816161,"current_range_meters":36800,"station_id":"ce4bhp12rcd13ifvqh9g","pricing_plan_id":"cebpf4jnsgd1na2vs0mg"},{"bike_id":"1b297945-7c8a-4e0e-b2c4-bc43a6c00be3","system_id":"levelo_inurba_marseille","lat":43.24652,"lon":5.38901,"is_reserved":false,"is_disabled":false,"rental_uris":{"android":"levelo://app?vid=1b297945-7c8a-4e0e-b2c4-bc43a6c00be3","ios":"levelo://app?vid=1b297945-7c8a-4e0e-b2c4-bc43a6c00be3"},"vehicle_type_id":"4","last_reported":1726816161,"current_range_meters":38800,"station_id":"ce4bhg12rcd13ifvqf60","pricing_plan_id":"cebpf4jnsgd1na2vs0mg"},{"bike_id":"5746cd36-45f4-4095-addb-8689978c3735","system_id":"levelo_inurba_marseille","lat":43.2834,"lon":5.38111,"is_reserved":false,"is_disabled":false,"rental_uris":{"android":"levelo://app?vid=5746cd36-45f4-4095-addb-8689978c3735","ios":"levelo://app?vid=5746cd36-45f4-4095-addb-8689978c3735"},"vehicle_type_id":"4","last_reported":1726816161,"current_range_meters":38800,"station_id":"ce4bh412rcd13ifvqdr0","pricing_plan_id":"cebpf4jnsgd1na2vs0mg"},{"bike_id":"8d005fff-f9d0-473f-a76b-3617816ddeea","system_id":"levelo_inurba_marseille","lat":43.292736,"lon":5.368537,"is_reserved":false,"is_disabled":false,"rental_uris":{"android":"levelo://app?vid=8d005fff-f9d0-473f-a76b-3617816ddeea","ios":"levelo://app?vid=8d005fff-f9d0-473f-a76b-3617816ddeea"},"vehicle_type_id":"4","last_reported":1726816161,"current_range_meters":34000,"station_id":"ce4bhbp2rcd13ifvqesg","pricing_plan_id":"cebpf4jnsgd1na2vs0mg"},{"bike_id":"f8571aad-5f92-4ec9-b9ed-faec8639629b","system_id":"levelo_inurba_marseille","lat":43.3362,"lon":5.41019,"is_reserved":false,"is_disabled":false,"rental_uris":{"android":"levelo://app?vid=f8571aad-5f92-4ec9-b9ed-faec8639629b","ios":"levelo://app?vid=f8571aad-5f92-4ec9-b9ed-faec8639629b"},"vehicle_type_id":"4","last_reported":1726816161,"current_range_meters":17200,"station_id":"ce4bhqh2rcd13ifvqhmg","pricing_plan_id":"cebpf4jnsgd1na2vs0mg"},{"bike_id":"9029c59f-5616-4636-a3a2-5d0cfac2c465","system_id":"levelo_inurba_marseille","lat":43.25827,"lon":5.39425,"is_reserved":false,"is_disabled":false,"rental_uris":{"android":"levelo://app?vid=9029c59f-5616-4636-a3a2-5d0cfac2c465","ios":"levelo://app?vid=9029c59f-5616-4636-a3a2-5d0cfac2c465"},"vehicle_type_id":"4","last_reported":1726816161,"current_range_meters":20400,"station_id":"ce4bhip2rcd13ifvqft0","pricing_plan_id":"cebpf4jnsgd1na2vs0mg"},{"bike_id":"8a12d865-b083-4883-b5aa-f97910a59200","system_id":"levelo_inurba_marseille","lat":43.30155,"lon":5.38078,"is_reserved":false,"is_disabled":false,"rental_uris":{"android":"levelo://app?vid=8a12d865-b083-4883-b5aa-f97910a59200","ios":"levelo://app?vid=8a12d865-b083-4883-b5aa-f97910a59200"},"vehicle_type_id":"4","last_reported":1726816161,"current_range_meters":32800,"station_id":"ce4bgjp2rcd13ifvqbh0","pricing_plan_id":"cebpf4jnsgd1na2vs0mg"},{"bike_id":"b8472931-e20b-407c-9734-eb6a09400b38","system_id":"levelo_inurba_marseille","lat":43.30947,"lon":5.39042,"is_reserved":false,"is_disabled":false,"rental_uris":{"android":"levelo://app?vid=b8472931-e20b-407c-9734-eb6a09400b38","ios":"levelo://app?vid=b8472931-e20b-407c-9734-eb6a09400b38"},"vehicle_type_id":"4","last_reported":1726816161,"current_range_meters":18000,"station_id":"ce4bgup2rcd13ifvqco0","pricing_plan_id":"cebpf4jnsgd1na2vs0mg"},{"bike_id":"283085bc-c3f6-4452-931b-d999c2f07c43","system_id":"levelo_inurba_marseille","lat":43.24079,"lon":5.37754,"is_reserved":false,"is_disabled":false,"rental_uris":{"android":"levelo://app?vid=283085bc-c3f6-4452-931b-d999c2f07c43","ios":"levelo://app?vid=283085bc-c3f6-4452-931b-d999c2f07c43"},"vehicle_type_id":"4","last_reported":1726816161,"current_range_meters":30000,"station_id":"ce4bhnp2rcd13ifvqgvg","pricing_plan_id":"cebpf4jnsgd1na2vs0mg"},{"bike_id":"4f9594be-eb89-451c-99e6-1d1b91e83878","system_id":"levelo_inurba_marseille","lat":43.28758,"lon":5.3784,"is_reserved":false,"is_disabled":false,"rental_uris":{"android":"levelo://app?vid=4f9594be-eb89-451c-99e6-1d1b91e83878","ios":"levelo://app?vid=4f9594be-eb89-451c-99e6-1d1b91e83878"},"vehicle_type_id":"4","last_reported":1726816161,"current_range_meters":9200,"station_id":"","pricing_plan_id":"cebpf4jnsgd1na2vs0mg"},{"bike_id":"5705acbc-d503-4f36-a9f5-13b5f18aa34d","system_id":"levelo_inurba_marseille","lat":43.23964,"lon":5.36654,"is_reserved":false,"is_disabled":false,"rental_uris":{"android":"levelo://app?vid=5705acbc-d503-4f36-a9f5-13b5f18aa34d","ios":"levelo://app?vid=5705acbc-d503-4f36-a9f5-13b5f18aa34d"},"vehicle_type_id":"4","last_reported":1726816161,"current_range_meters":36000,"station_id":"ce4bhi12rcd13ifvqfp0","pricing_plan_id":"cebpf4jnsgd1na2vs0mg"},{"bike_id":"14035d51-cdc0-4f13-ad86-348804ed1932","system_id":"levelo_inurba_marseille","lat":43.27498,"lon":5.42452,"is_reserved":false,"is_disabled":false,"rental_uris":{"android":"levelo://app?vid=14035d51-cdc0-4f13-ad86-348804ed1932","ios":"levelo://app?vid=14035d51-cdc0-4f13-ad86-348804ed1932"},"vehicle_type_id":"4","last_reported":1726816161,"current_range_meters":38400,"station_id":"ce4bhn92rcd13ifvqgrg","pricing_plan_id":"cebpf4jnsgd1na2vs0mg"},{"bike_id":"f3cf9103-1834-46e7-b289-cf440a45e85f","system_id":"levelo_inurba_marseille","lat":43.30527,"lon":5.36733,"is_reserved":false,"is_disabled":false,"rental_uris":{"android":"levelo://app?vid=f3cf9103-1834-46e7-b289-cf440a45e85f","ios":"levelo://app?vid=f3cf9103-1834-46e7-b289-cf440a45e85f"},"vehicle_type_id":"4","last_reported":1726816161,"current_range_meters":21600,"station_id":"ce4bgrp2rcd13ifvqc9g","pricing_plan_id":"cebpf4jnsgd1na2vs0mg"},{"bike_id":"4c8e4bd8-222b-4143-b14f-8dc5c48f8b03","system_id":"levelo_inurba_marseille","lat":43.30951,"lon":5.39053,"is_reserved":false,"is_disabled":false,"rental_uris":{"android":"levelo://app?vid=4c8e4bd8-222b-4143-b14f-8dc5c48f8b03","ios":"levelo://app?vid=4c8e4bd8-222b-4143-b14f-8dc5c48f8b03"},"vehicle_type_id":"4","last_reported":1726816161,"current_range_meters":36000,"station_id":"ce4bgup2rcd13ifvqco0","pricing_plan_id":"cebpf4jnsgd1na2vs0mg"},{"bike_id":"a2085725-340a-4bfe-b7c3-4b30b1611365","system_id":"levelo_inurba_marseille","lat":43.31076,"lon":5.383603,"is_reserved":false,"is_disabled":false,"rental_uris":{"android":"levelo://app?vid=a2085725-340a-4bfe-b7c3-4b30b1611365","ios":"levelo://app?vid=a2085725-340a-4bfe-b7c3-4b30b1611365"},"vehicle_type_id":"4","last_reported":1726816161,"current_range_meters":28400,"station_id":"ce4bgv92rcd13ifvqcr0","pricing_plan_id":"cebpf4jnsgd1na2vs0mg"},{"bike_id":"7b9dd459-340b-4978-bfb0-6c163a5263e8","system_id":"levelo_inurba_marseille","lat":43.23192,"lon":5.35547,"is_reserved":false,"is_disabled":false,"rental_uris":{"android":"levelo://app?vid=7b9dd459-340b-4978-bfb0-6c163a5263e8","ios":"levelo://app?vid=7b9dd459-340b-4978-bfb0-6c163a5263e8"},"vehicle_type_id":"4","last_reported":1726816161,"current_range_meters":39200,"station_id":"ce4bhu92rcd13ifvqi70","pricing_plan_id":"cebpf4jnsgd1na2vs0mg"},{"bike_id":"4f43dba0-3939-44ed-896a-3812c56c94e0","system_id":"levelo_inurba_marseille","lat":43.30158,"lon":5.38075,"is_reserved":false,"is_disabled":false,"rental_uris":{"android":"levelo://app?vid=4f43dba0-3939-44ed-896a-3812c56c94e0","ios":"levelo://app?vid=4f43dba0-3939-44ed-896a-3812c56c94e0"},"vehicle_type_id":"4","last_reported":1726816161,"current_range_meters":21600,"station_id":"ce4bgjp2rcd13ifvqbh0","pricing_plan_id":"cebpf4jnsgd1na2vs0mg"},{"bike_id":"d42a3ae0-96fd-483d-9a44-b14a73508c02","system_id":"levelo_inurba_marseille","lat":43.24073,"lon":5.37761,"is_reserved":false,"is_disabled":false,"rental_uris":{"android":"levelo://app?vid=d42a3ae0-96fd-483d-9a44-b14a73508c02","ios":"levelo://app?vid=d42a3ae0-96fd-483d-9a44-b14a73508c02"},"vehicle_type_id":"4","last_reported":1726816161,"current_range_meters":16400,"station_id":"ce4bhnp2rcd13ifvqgvg","pricing_plan_id":"cebpf4jnsgd1na2vs0mg"},{"bike_id":"30d03598-4584-4809-9303-434479df300e","system_id":"levelo_inurba_marseille","lat":43.32476,"lon":5.36564,"is_reserved":false,"is_disabled":false,"rental_uris":{"android":"levelo://app?vid=30d03598-4584-4809-9303-434479df300e","ios":"levelo://app?vid=30d03598-4584-4809-9303-434479df300e"},"vehicle_type_id":"4","last_reported":1726816161,"current_range_meters":31200,"station_id":"ce4bhs12rcd13ifvqhvg","pricing_plan_id":"cebpf4jnsgd1na2vs0mg"},{"bike_id":"d1966675-913e-4e48-a3ea-3890c8ff913e","system_id":"levelo_inurba_marseille","lat":43.30355,"lon":5.41872,"is_reserved":false,"is_disabled":false,"rental_uris":{"android":"levelo://app?vid=d1966675-913e-4e48-a3ea-3890c8ff913e","ios":"levelo://app?vid=d1966675-913e-4e48-a3ea-3890c8ff913e"},"vehicle_type_id":"4","last_reported":1726816161,"current_range_meters":36400,"station_id":"ce4bhop2rcd13ifvqh7g","pricing_plan_id":"cebpf4jnsgd1na2vs0mg"},{"bike_id":"59526314-6814-428f-9df0-ead1cf1c2777","system_id":"levelo_inurba_marseille","lat":43.25934,"lon":5.40917,"is_reserved":false,"is_disabled":false,"rental_uris":{"android":"levelo://app?vid=59526314-6814-428f-9df0-ead1cf1c2777","ios":"levelo://app?vid=59526314-6814-428f-9df0-ead1cf1c2777"},"vehicle_type_id":"4","last_reported":1726816161,"current_range_meters":35600,"station_id":"ce4bhm92rcd13ifvqglg","pricing_plan_id":"cebpf4jnsgd1na2vs0mg"},{"bike_id":"32d4a5c9-769a-4251-b032-0492dfb4b942","system_id":"levelo_inurba_marseille","lat":43.27486,"lon":5.42457,"is_reserved":false,"is_disabled":false,"rental_uris":{"android":"levelo://app?vid=32d4a5c9-769a-4251-b032-0492dfb4b942","ios":"levelo://app?vid=32d4a5c9-769a-4251-b032-0492dfb4b942"},"vehicle_type_id":"4","last_reported":1726816161,"current_range_meters":32800,"station_id":"ce4bhn92rcd13ifvqgrg","pricing_plan_id":"cebpf4jnsgd1na2vs0mg"},{"bike_id":"5adc69d9-85ed-4c02-a435-3a325fb2125c","system_id":"levelo_inurba_marseille","lat":43.31689,"lon":5.40474,"is_reserved":false,"is_disabled":false,"rental_uris":{"android":"levelo://app?vid=5adc69d9-85ed-4c02-a435-3a325fb2125c","ios":"levelo://app?vid=5adc69d9-85ed-4c02-a435-3a325fb2125c"},"vehicle_type_id":"4","last_reported":1726816161,"current_range_meters":8800,"station_id":"ce4bh012rcd13ifvqd00","pricing_plan_id":"cebpf4jnsgd1na2vs0mg"},{"bike_id":"69bbfd59-fc16-411e-a1f5-96425a817f6c","system_id":"levelo_inurba_marseille","lat":43.26948,"lon":5.38634,"is_reserved":false,"is_disabled":false,"rental_uris":{"android":"levelo://app?vid=69bbfd59-fc16-411e-a1f5-96425a817f6c","ios":"levelo://app?vid=69bbfd59-fc16-411e-a1f5-96425a817f6c"},"vehicle_type_id":"4","last_reported":1726816161,"current_range_meters":32000,"station_id":"ce4bhh92rcd13ifvqfh0","pricing_plan_id":"cebpf4jnsgd1na2vs0mg"},{"bike_id":"75308ddd-64cf-4f19-8197-d8de2afe069c","system_id":"levelo_inurba_marseille","lat":43.28346,"lon":5.38097,"is_reserved":false,"is_disabled":false,"rental_uris":{"android":"levelo://app?vid=75308ddd-64cf-4f19-8197-d8de2afe069c","ios":"levelo://app?vid=75308ddd-64cf-4f19-8197-d8de2afe069c"},"vehicle_type_id":"4","last_reported":1726816161,"current_range_meters":11200,"station_id":"ce4bh412rcd13ifvqdr0","pricing_plan_id":"cebpf4jnsgd1na2vs0mg"},{"bike_id":"b3d39a3c-0271-40ca-9144-acc31cfc237a","system_id":"levelo_inurba_marseille","lat":43.25938,"lon":5.40906,"is_reserved":false,"is_disabled":false,"rental_uris":{"android":"levelo://app?vid=b3d39a3c-0271-40ca-9144-acc31cfc237a","ios":"levelo://app?vid=b3d39a3c-0271-40ca-9144-acc31cfc237a"},"vehicle_type_id":"4","last_reported":1726816161,"current_range_meters":13600,"station_id":"ce4bhm92rcd13ifvqglg","pricing_plan_id":"cebpf4jnsgd1na2vs0mg"},{"bike_id":"d636933a-0386-46c4-8474-d6c03f177db9","system_id":"levelo_inurba_marseille","lat":43.265611,"lon":5.390084,"is_reserved":false,"is_disabled":false,"rental_uris":{"android":"levelo://app?vid=d636933a-0386-46c4-8474-d6c03f177db9","ios":"levelo://app?vid=d636933a-0386-46c4-8474-d6c03f177db9"},"vehicle_type_id":"4","last_reported":1726816161,"current_range_meters":20800,"station_id":"","pricing_plan_id":"cebpf4jnsgd1na2vs0mg"},{"bike_id":"a6138b45-7e28-438c-b576-0f9f8832e4f6","system_id":"levelo_inurba_marseille","lat":43.32655,"lon":5.40996,"is_reserved":false,"is_disabled":false,"rental_uris":{"android":"levelo://app?vid=a6138b45-7e28-438c-b576-0f9f8832e4f6","ios":"levelo://app?vid=a6138b45-7e28-438c-b576-0f9f8832e4f6"},"vehicle_type_id":"4","last_reported":1726816161,"current_range_meters":7200,"station_id":"ce4bhpp2rcd13ifvqhgg","pricing_plan_id":"cebpf4jnsgd1na2vs0mg"},{"bike_id":"ffddd2d0-239b-4ad9-bf5e-964f010aa097","system_id":"levelo_inurba_marseille","lat":43.24079,"lon":5.37752,"is_reserved":false,"is_disabled":false,"rental_uris":{"android":"levelo://app?vid=ffddd2d0-239b-4ad9-bf5e-964f010aa097","ios":"levelo://app?vid=ffddd2d0-239b-4ad9-bf5e-964f010aa097"},"vehicle_type_id":"4","last_reported":1726816161,"current_range_meters":26000,"station_id":"ce4bhnp2rcd13ifvqgvg","pricing_plan_id":"cebpf4jnsgd1na2vs0mg"},{"bike_id":"e8838fc0-3cd4-4213-84e3-c33f37fcda59","system_id":"levelo_inurba_marseille","lat":43.25819,"lon":5.39425,"is_reserved":false,"is_disabled":false,"rental_uris":{"android":"levelo://app?vid=e8838fc0-3cd4-4213-84e3-c33f37fcda59","ios":"levelo://app?vid=e8838fc0-3cd4-4213-84e3-c33f37fcda59"},"vehicle_type_id":"4","last_reported":1726816161,"current_range_meters":38800,"station_id":"ce4bhip2rcd13ifvqft0","pricing_plan_id":"cebpf4jnsgd1na2vs0mg"},{"bike_id":"9f41393a-138e-4e65-a1a2-1a0526a4555e","system_id":"levelo_inurba_marseille","lat":43.27497,"lon":5.42446,"is_reserved":false,"is_disabled":false,"rental_uris":{"android":"levelo://app?vid=9f41393a-138e-4e65-a1a2-1a0526a4555e","ios":"levelo://app?vid=9f41393a-138e-4e65-a1a2-1a0526a4555e"},"vehicle_type_id":"4","last_reported":1726816161,"current_range_meters":20400,"station_id":"ce4bhn92rcd13ifvqgrg","pricing_plan_id":"cebpf4jnsgd1na2vs0mg"},{"bike_id":"a8d340a6-4496-4f7b-a1b5-42bdd2d69510","system_id":"levelo_inurba_marseille","lat":43.27905,"lon":5.38013,"is_reserved":false,"is_disabled":false,"rental_uris":{"android":"levelo://app?vid=a8d340a6-4496-4f7b-a1b5-42bdd2d69510","ios":"levelo://app?vid=a8d340a6-4496-4f7b-a1b5-42bdd2d69510"},"vehicle_type_id":"4","last_reported":1726816161,"current_range_meters":32000,"station_id":"ce4bhf92rcd13ifvqf50","pricing_plan_id":"cebpf4jnsgd1na2vs0mg"},{"bike_id":"e867b2f1-483d-43f1-8393-388c5bc68b9c","system_id":"levelo_inurba_marseille","lat":43.31685,"lon":5.40478,"is_reserved":false,"is_disabled":false,"rental_uris":{"android":"levelo://app?vid=e867b2f1-483d-43f1-8393-388c5bc68b9c","ios":"levelo://app?vid=e867b2f1-483d-43f1-8393-388c5bc68b9c"},"vehicle_type_id":"4","last_reported":1726816161,"current_range_meters":39200,"station_id":"ce4bh012rcd13ifvqd00","pricing_plan_id":"cebpf4jnsgd1na2vs0mg"},{"bike_id":"625efc9f-ff46-4ca3-aaac-13f8f46af8bc","system_id":"levelo_inurba_marseille","lat":43.30962,"lon":5.3903,"is_reserved":false,"is_disabled":false,"rental_uris":{"android":"levelo://app?vid=625efc9f-ff46-4ca3-aaac-13f8f46af8bc","ios":"levelo://app?vid=625efc9f-ff46-4ca3-aaac-13f8f46af8bc"},"vehicle_type_id":"4","last_reported":1726816161,"current_range_meters":32800,"station_id":"ce4bgup2rcd13ifvqco0","pricing_plan_id":"cebpf4jnsgd1na2vs0mg"},{"bike_id":"eb2bede7-1cfc-481d-95f0-4175f9ef21df","system_id":"levelo_inurba_marseille","lat":43.25939,"lon":5.40899,"is_reserved":false,"is_disabled":false,"rental_uris":{"android":"levelo://app?vid=eb2bede7-1cfc-481d-95f0-4175f9ef21df","ios":"levelo://app?vid=eb2bede7-1cfc-481d-95f0-4175f9ef21df"},"vehicle_type_id":"4","last_reported":1726816161,"current_range_meters":17200,"station_id":"ce4bhm92rcd13ifvqglg","pricing_plan_id":"cebpf4jnsgd1na2vs0mg"},{"bike_id":"8347aabf-f906-4ce9-80b0-8519c87250ac","system_id":"levelo_inurba_marseille","lat":43.24808,"lon":5.37454,"is_reserved":false,"is_disabled":false,"rental_uris":{"android":"levelo://app?vid=8347aabf-f906-4ce9-80b0-8519c87250ac","ios":"levelo://app?vid=8347aabf-f906-4ce9-80b0-8519c87250ac"},"vehicle_type_id":"4","last_reported":1726816161,"current_range_meters":37600,"station_id":"ce4bhgh2rcd13ifvqfb0","pricing_plan_id":"cebpf4jnsgd1na2vs0mg"},{"bike_id":"3cd7b213-8f13-4c2a-a7c0-a806c24f18b0","system_id":"levelo_inurba_marseille","lat":43.29984,"lon":5.37181,"is_reserved":false,"is_disabled":false,"rental_uris":{"android":"levelo://app?vid=3cd7b213-8f13-4c2a-a7c0-a806c24f18b0","ios":"levelo://app?vid=3cd7b213-8f13-4c2a-a7c0-a806c24f18b0"},"vehicle_type_id":"4","last_reported":1726816161,"current_range_meters":32800,"station_id":"ce4bgr92rcd13ifvqc7g","pricing_plan_id":"cebpf4jnsgd1na2vs0mg"},{"bike_id":"c429db1f-c350-44d6-9c19-9bb096a9f140","system_id":"levelo_inurba_marseille","lat":43.28352,"lon":5.3811,"is_reserved":false,"is_disabled":false,"rental_uris":{"android":"levelo://app?vid=c429db1f-c350-44d6-9c19-9bb096a9f140","ios":"levelo://app?vid=c429db1f-c350-44d6-9c19-9bb096a9f140"},"vehicle_type_id":"4","last_reported":1726816161,"current_range_meters":22800,"station_id":"ce4bh412rcd13ifvqdr0","pricing_plan_id":"cebpf4jnsgd1na2vs0mg"},{"bike_id":"93e94795-a222-4c33-8338-9093dd96735b","system_id":"levelo_inurba_marseille","lat":43.32543,"lon":5.4143,"is_reserved":false,"is_disabled":false,"rental_uris":{"android":"levelo://app?vid=93e94795-a222-4c33-8338-9093dd96735b","ios":"levelo://app?vid=93e94795-a222-4c33-8338-9093dd96735b"},"vehicle_type_id":"4","last_reported":1726816161,"current_range_meters":38800,"station_id":"ce4bhq12rcd13ifvqhhg","pricing_plan_id":"cebpf4jnsgd1na2vs0mg"},{"bike_id":"a249169c-a9e8-48a7-9d54-c19f3ef26ca6","system_id":"levelo_inurba_marseille","lat":43.29569,"lon":5.3997,"is_reserved":false,"is_disabled":false,"rental_uris":{"android":"levelo://app?vid=a249169c-a9e8-48a7-9d54-c19f3ef26ca6","ios":"levelo://app?vid=a249169c-a9e8-48a7-9d54-c19f3ef26ca6"},"vehicle_type_id":"4","last_reported":1726816161,"current_range_meters":12800,"station_id":"ce4bh312rcd13ifvqdj0","pricing_plan_id":"cebpf4jnsgd1na2vs0mg"},{"bike_id":"a5a67952-2271-4fa5-84ac-95efe4f65ff4","system_id":"levelo_inurba_marseille","lat":43.239838,"lon":5.366257,"is_reserved":false,"is_disabled":false,"rental_uris":{"android":"levelo://app?vid=a5a67952-2271-4fa5-84ac-95efe4f65ff4","ios":"levelo://app?vid=a5a67952-2271-4fa5-84ac-95efe4f65ff4"},"vehicle_type_id":"4","last_reported":1726816161,"current_range_meters":8000,"station_id":"ce4bhi12rcd13ifvqfp0","pricing_plan_id":"cebpf4jnsgd1na2vs0mg"},{"bike_id":"3f92bbb0-67da-49b7-a380-d3e998be8116","system_id":"levelo_inurba_marseille","lat":43.30536,"lon":5.3671,"is_reserved":false,"is_disabled":false,"rental_uris":{"android":"levelo://app?vid=3f92bbb0-67da-49b7-a380-d3e998be8116","ios":"levelo://app?vid=3f92bbb0-67da-49b7-a380-d3e998be8116"},"vehicle_type_id":"4","last_reported":1726816161,"current_range_meters":7200,"station_id":"ce4bgrp2rcd13ifvqc9g","pricing_plan_id":"cebpf4jnsgd1na2vs0mg"},{"bike_id":"8741d283-b35f-4f31-b80d-f87cb702270f","system_id":"levelo_inurba_marseille","lat":43.295789,"lon":5.375206,"is_reserved":false,"is_disabled":false,"rental_uris":{"android":"levelo://app?vid=8741d283-b35f-4f31-b80d-f87cb702270f","ios":"levelo://app?vid=8741d283-b35f-4f31-b80d-f87cb702270f"},"vehicle_type_id":"4","last_reported":1726816161,"current_range_meters":20000,"station_id":"","pricing_plan_id":"cebpf4jnsgd1na2vs0mg"},{"bike_id":"45d20366-1b15-4e40-971b-c08e2c243855","system_id":"levelo_inurba_marseille","lat":43.29965,"lon":5.37178,"is_reserved":false,"is_disabled":false,"rental_uris":{"android":"levelo://app?vid=45d20366-1b15-4e40-971b-c08e2c243855","ios":"levelo://app?vid=45d20366-1b15-4e40-971b-c08e2c243855"},"vehicle_type_id":"4","last_reported":1726816161,"current_range_meters":32000,"station_id":"ce4bgr92rcd13ifvqc7g","pricing_plan_id":"cebpf4jnsgd1na2vs0mg"},{"bike_id":"90392eac-ccd8-471a-8943-682a4a201fdb","system_id":"levelo_inurba_marseille","lat":43.27077,"lon":5.42277,"is_reserved":false,"is_disabled":false,"rental_uris":{"android":"levelo://app?vid=90392eac-ccd8-471a-8943-682a4a201fdb","ios":"levelo://app?vid=90392eac-ccd8-471a-8943-682a4a201fdb"},"vehicle_type_id":"4","last_reported":1726816161,"current_range_meters":20400,"station_id":"ce4bhk92rcd13ifvqgb0","pricing_plan_id":"cebpf4jnsgd1na2vs0mg"},{"bike_id":"82ea35eb-356c-435a-af7e-f3943eee0033","system_id":"levelo_inurba_marseille","lat":43.31532,"lon":5.38027,"is_reserved":false,"is_disabled":false,"rental_uris":{"android":"levelo://app?vid=82ea35eb-356c-435a-af7e-f3943eee0033","ios":"levelo://app?vid=82ea35eb-356c-435a-af7e-f3943eee0033"},"vehicle_type_id":"4","last_reported":1726816161,"current_range_meters":39200,"station_id":"ce4bhsp2rcd13ifvqi50","pricing_plan_id":"cebpf4jnsgd1na2vs0mg"},{"bike_id":"787016c0-3af2-4dc1-8aeb-8fd1d9648c80","system_id":"levelo_inurba_marseille","lat":43.27494,"lon":5.42456,"is_reserved":false,"is_disabled":false,"rental_uris":{"android":"levelo://app?vid=787016c0-3af2-4dc1-8aeb-8fd1d9648c80","ios":"levelo://app?vid=787016c0-3af2-4dc1-8aeb-8fd1d9648c80"},"vehicle_type_id":"4","last_reported":1726816161,"current_range_meters":28800,"station_id":"ce4bhn92rcd13ifvqgrg","pricing_plan_id":"cebpf4jnsgd1na2vs0mg"},{"bike_id":"59bcf95b-4fb4-4ef5-bbe9-00138aa77003","system_id":"levelo_inurba_marseille","lat":43.2418,"lon":5.39735,"is_reserved":false,"is_disabled":false,"rental_uris":{"android":"levelo://app?vid=59bcf95b-4fb4-4ef5-bbe9-00138aa77003","ios":"levelo://app?vid=59bcf95b-4fb4-4ef5-bbe9-00138aa77003"},"vehicle_type_id":"4","last_reported":1726816161,"current_range_meters":18000,"station_id":"ce4bhn12rcd13ifvqgpg","pricing_plan_id":"cebpf4jnsgd1na2vs0mg"},{"bike_id":"ffe054b3-44bf-4c54-b418-d07f10908d45","system_id":"levelo_inurba_marseille","lat":43.279982,"lon":5.400126,"is_reserved":false,"is_disabled":false,"rental_uris":{"android":"levelo://app?vid=ffe054b3-44bf-4c54-b418-d07f10908d45","ios":"levelo://app?vid=ffe054b3-44bf-4c54-b418-d07f10908d45"},"vehicle_type_id":"4","last_reported":1726816161,"current_range_meters":25600,"station_id":"ce4bho92rcd13ifvqh4g","pricing_plan_id":"cebpf4jnsgd1na2vs0mg"},{"bike_id":"b784a991-2ca0-436e-99dc-b511af05b660","system_id":"levelo_inurba_marseille","lat":43.2904,"lon":5.39968,"is_reserved":false,"is_disabled":false,"rental_uris":{"android":"levelo://app?vid=b784a991-2ca0-436e-99dc-b511af05b660","ios":"levelo://app?vid=b784a991-2ca0-436e-99dc-b511af05b660"},"vehicle_type_id":"4","last_reported":1726816161,"current_range_meters":10000,"station_id":"ce4bh392rcd13ifvqdm0","pricing_plan_id":"cebpf4jnsgd1na2vs0mg"},{"bike_id":"59d6bf39-1c0d-41a1-8cc2-0e0fdf67d09d","system_id":"levelo_inurba_marseille","lat":43.302155,"lon":5.394625,"is_reserved":false,"is_disabled":false,"rental_uris":{"android":"levelo://app?vid=59d6bf39-1c0d-41a1-8cc2-0e0fdf67d09d","ios":"levelo://app?vid=59d6bf39-1c0d-41a1-8cc2-0e0fdf67d09d"},"vehicle_type_id":"4","last_reported":1726816161,"current_range_meters":35600,"station_id":"ce4bhoh2rcd13ifvqh5g","pricing_plan_id":"cebpf4jnsgd1na2vs0mg"},{"bike_id":"346e8fea-955d-4950-8c2d-9b8b8eacddfd","system_id":"levelo_inurba_marseille","lat":43.30904,"lon":5.3684,"is_reserved":false,"is_disabled":false,"rental_uris":{"android":"levelo://app?vid=346e8fea-955d-4950-8c2d-9b8b8eacddfd","ios":"levelo://app?vid=346e8fea-955d-4950-8c2d-9b8b8eacddfd"},"vehicle_type_id":"4","last_reported":1726816161,"current_range_meters":34800,"station_id":"ce4bgn92rcd13ifvqbvg","pricing_plan_id":"cebpf4jnsgd1na2vs0mg"},{"bike_id":"84f68348-b1f8-40b8-a55d-82c254a1a023","system_id":"levelo_inurba_marseille","lat":43.244087,"lon":5.37027,"is_reserved":false,"is_disabled":false,"rental_uris":{"android":"levelo://app?vid=84f68348-b1f8-40b8-a55d-82c254a1a023","ios":"levelo://app?vid=84f68348-b1f8-40b8-a55d-82c254a1a023"},"vehicle_type_id":"4","last_reported":1726816161,"current_range_meters":28800,"station_id":"ce4bhhh2rcd13ifvqfk0","pricing_plan_id":"cebpf4jnsgd1na2vs0mg"},{"bike_id":"db5bed51-afb9-4548-98e9-7b7ae226c501","system_id":"levelo_inurba_marseille","lat":43.33756,"lon":5.37453,"is_reserved":false,"is_disabled":false,"rental_uris":{"android":"levelo://app?vid=db5bed51-afb9-4548-98e9-7b7ae226c501","ios":"levelo://app?vid=db5bed51-afb9-4548-98e9-7b7ae226c501"},"vehicle_type_id":"4","last_reported":1726816161,"current_range_meters":19600,"station_id":"","pricing_plan_id":"cebpf4jnsgd1na2vs0mg"},{"bike_id":"9dad5afe-5050-419e-83a1-b8b898ac539b","system_id":"levelo_inurba_marseille","lat":43.30149,"lon":5.38086,"is_reserved":false,"is_disabled":false,"rental_uris":{"android":"levelo://app?vid=9dad5afe-5050-419e-83a1-b8b898ac539b","ios":"levelo://app?vid=9dad5afe-5050-419e-83a1-b8b898ac539b"},"vehicle_type_id":"4","last_reported":1726816161,"current_range_meters":8800,"station_id":"ce4bgjp2rcd13ifvqbh0","pricing_plan_id":"cebpf4jnsgd1na2vs0mg"},{"bike_id":"e743b8fd-2787-455f-a757-c1fe245cabb1","system_id":"levelo_inurba_marseille","lat":43.279938,"lon":5.416662,"is_reserved":false,"is_disabled":false,"rental_uris":{"android":"levelo://app?vid=e743b8fd-2787-455f-a757-c1fe245cabb1","ios":"levelo://app?vid=e743b8fd-2787-455f-a757-c1fe245cabb1"},"vehicle_type_id":"4","last_reported":1726816161,"current_range_meters":38400,"station_id":"ce4bho12rcd13ifvqh1g","pricing_plan_id":"cebpf4jnsgd1na2vs0mg"},{"bike_id":"d28e3d24-b1f0-4c7f-82a9-ad03dee8c7d5","system_id":"levelo_inurba_marseille","lat":43.32292,"lon":5.38265,"is_reserved":false,"is_disabled":false,"rental_uris":{"android":"levelo://app?vid=d28e3d24-b1f0-4c7f-82a9-ad03dee8c7d5","ios":"levelo://app?vid=d28e3d24-b1f0-4c7f-82a9-ad03dee8c7d5"},"vehicle_type_id":"4","last_reported":1726816161,"current_range_meters":27200,"station_id":"ce4bhr12rcd13ifvqhqg","pricing_plan_id":"cebpf4jnsgd1na2vs0mg"},{"bike_id":"11b90301-defc-4cc8-b9ae-bca066197ea8","system_id":"levelo_inurba_marseille","lat":43.308841,"lon":5.36848,"is_reserved":false,"is_disabled":false,"rental_uris":{"android":"levelo://app?vid=11b90301-defc-4cc8-b9ae-bca066197ea8","ios":"levelo://app?vid=11b90301-defc-4cc8-b9ae-bca066197ea8"},"vehicle_type_id":"4","last_reported":1726816161,"current_range_meters":19600,"station_id":"ce4bgn92rcd13ifvqbvg","pricing_plan_id":"cebpf4jnsgd1na2vs0mg"},{"bike_id":"8b477e20-3ae9-4f41-9669-ed6c08dff189","system_id":"levelo_inurba_marseille","lat":43.29287,"lon":5.36844,"is_reserved":false,"is_disabled":false,"rental_uris":{"android":"levelo://app?vid=8b477e20-3ae9-4f41-9669-ed6c08dff189","ios":"levelo://app?vid=8b477e20-3ae9-4f41-9669-ed6c08dff189"},"vehicle_type_id":"4","last_reported":1726816161,"current_range_meters":20800,"station_id":"ce4bhbp2rcd13ifvqesg","pricing_plan_id":"cebpf4jnsgd1na2vs0mg"},{"bike_id":"91a8417e-1594-4797-8051-7046abb38c00","system_id":"levelo_inurba_marseille","lat":43.28345,"lon":5.38111,"is_reserved":false,"is_disabled":false,"rental_uris":{"android":"levelo://app?vid=91a8417e-1594-4797-8051-7046abb38c00","ios":"levelo://app?vid=91a8417e-1594-4797-8051-7046abb38c00"},"vehicle_type_id":"4","last_reported":1726816161,"current_range_meters":37600,"station_id":"ce4bh412rcd13ifvqdr0","pricing_plan_id":"cebpf4jnsgd1na2vs0mg"},{"bike_id":"509f9ae3-b8f2-48d0-aebc-d5ba2b423f9c","system_id":"levelo_inurba_marseille","lat":43.30469,"lon":5.37898,"is_reserved":false,"is_disabled":false,"rental_uris":{"android":"levelo://app?vid=509f9ae3-b8f2-48d0-aebc-d5ba2b423f9c","ios":"levelo://app?vid=509f9ae3-b8f2-48d0-aebc-d5ba2b423f9c"},"vehicle_type_id":"4","last_reported":1726816161,"current_range_meters":22000,"station_id":"ce4bgup2rcd13ifvqcn0","pricing_plan_id":"cebpf4jnsgd1na2vs0mg"},{"bike_id":"ffa23234-c1ea-4d00-b640-cd73b1915784","system_id":"levelo_inurba_marseille","lat":43.31998,"lon":5.38149,"is_reserved":false,"is_disabled":false,"rental_uris":{"android":"levelo://app?vid=ffa23234-c1ea-4d00-b640-cd73b1915784","ios":"levelo://app?vid=ffa23234-c1ea-4d00-b640-cd73b1915784"},"vehicle_type_id":"4","last_reported":1726816161,"current_range_meters":9200,"station_id":"ce4bhr12rcd13ifvqhpg","pricing_plan_id":"cebpf4jnsgd1na2vs0mg"},{"bike_id":"b85ab7ea-1ddf-4476-a6e6-3d5a1069c8cd","system_id":"levelo_inurba_marseille","lat":43.27923,"lon":5.39588,"is_reserved":false,"is_disabled":false,"rental_uris":{"android":"levelo://app?vid=b85ab7ea-1ddf-4476-a6e6-3d5a1069c8cd","ios":"levelo://app?vid=b85ab7ea-1ddf-4476-a6e6-3d5a1069c8cd"},"vehicle_type_id":"4","last_reported":1726816161,"current_range_meters":5600,"station_id":"ce4bhf92rcd13ifvqf40","pricing_plan_id":"cebpf4jnsgd1na2vs0mg"},{"bike_id":"b87c8417-c59f-418d-bd60-25eb8e63567c","system_id":"levelo_inurba_marseille","lat":43.30522,"lon":5.36725,"is_reserved":false,"is_disabled":false,"rental_uris":{"android":"levelo://app?vid=b87c8417-c59f-418d-bd60-25eb8e63567c","ios":"levelo://app?vid=b87c8417-c59f-418d-bd60-25eb8e63567c"},"vehicle_type_id":"4","last_reported":1726816161,"current_range_meters":26800,"station_id":"ce4bgrp2rcd13ifvqc9g","pricing_plan_id":"cebpf4jnsgd1na2vs0mg"},{"bike_id":"e9edba0d-dce8-4838-8195-0787af9f7552","system_id":"levelo_inurba_marseille","lat":43.28717,"lon":5.37948,"is_reserved":false,"is_disabled":false,"rental_uris":{"android":"levelo://app?vid=e9edba0d-dce8-4838-8195-0787af9f7552","ios":"levelo://app?vid=e9edba0d-dce8-4838-8195-0787af9f7552"},"vehicle_type_id":"4","last_reported":1726816161,"current_range_meters":35200,"station_id":"ce4bh9p2rcd13ifvqec0","pricing_plan_id":"cebpf4jnsgd1na2vs0mg"},{"bike_id":"dfa25865-d491-4319-ac0d-4a43b0719215","system_id":"levelo_inurba_marseille","lat":43.32473,"lon":5.36565,"is_reserved":false,"is_disabled":false,"rental_uris":{"android":"levelo://app?vid=dfa25865-d491-4319-ac0d-4a43b0719215","ios":"levelo://app?vid=dfa25865-d491-4319-ac0d-4a43b0719215"},"vehicle_type_id":"4","last_reported":1726816161,"current_range_meters":8000,"station_id":"ce4bhs12rcd13ifvqhvg","pricing_plan_id":"cebpf4jnsgd1na2vs0mg"},{"bike_id":"58014cc6-4f39-4119-a8a0-cdc0e2507820","system_id":"levelo_inurba_marseille","lat":43.32284,"lon":5.38271,"is_reserved":false,"is_disabled":false,"rental_uris":{"android":"levelo://app?vid=58014cc6-4f39-4119-a8a0-cdc0e2507820","ios":"levelo://app?vid=58014cc6-4f39-4119-a8a0-cdc0e2507820"},"vehicle_type_id":"4","last_reported":1726816161,"current_range_meters":38800,"station_id":"ce4bhr12rcd13ifvqhqg","pricing_plan_id":"cebpf4jnsgd1na2vs0mg"},{"bike_id":"f1555dfa-16c9-47d6-9ea5-cbb89bcbec3e","system_id":"levelo_inurba_marseille","lat":43.2894,"lon":5.39623,"is_reserved":false,"is_disabled":false,"rental_uris":{"android":"levelo://app?vid=f1555dfa-16c9-47d6-9ea5-cbb89bcbec3e","ios":"levelo://app?vid=f1555dfa-16c9-47d6-9ea5-cbb89bcbec3e"},"vehicle_type_id":"4","last_reported":1726816161,"current_range_meters":38800,"station_id":"ce4bh3h2rcd13ifvqdn0","pricing_plan_id":"cebpf4jnsgd1na2vs0mg"},{"bike_id":"cc56eee6-18b5-4e37-93b9-aa90e00f539e","system_id":"levelo_inurba_marseille","lat":43.263399,"lon":5.379396,"is_reserved":false,"is_disabled":false,"rental_uris":{"android":"levelo://app?vid=cc56eee6-18b5-4e37-93b9-aa90e00f539e","ios":"levelo://app?vid=cc56eee6-18b5-4e37-93b9-aa90e00f539e"},"vehicle_type_id":"4","last_reported":1726816161,"current_range_meters":38800,"station_id":"ce4bhjp2rcd13ifvqg90","pricing_plan_id":"cebpf4jnsgd1na2vs0mg"},{"bike_id":"2c805b3b-a495-4180-86b7-d5d239ddc3de","system_id":"levelo_inurba_marseille","lat":43.27494,"lon":5.42458,"is_reserved":false,"is_disabled":false,"rental_uris":{"android":"levelo://app?vid=2c805b3b-a495-4180-86b7-d5d239ddc3de","ios":"levelo://app?vid=2c805b3b-a495-4180-86b7-d5d239ddc3de"},"vehicle_type_id":"4","last_reported":1726816161,"current_range_meters":28000,"station_id":"ce4bhn92rcd13ifvqgrg","pricing_plan_id":"cebpf4jnsgd1na2vs0mg"},{"bike_id":"9cb8b98a-f4fa-4074-9926-eea1d49957bb","system_id":"levelo_inurba_marseille","lat":43.29276,"lon":5.36849,"is_reserved":false,"is_disabled":false,"rental_uris":{"android":"levelo://app?vid=9cb8b98a-f4fa-4074-9926-eea1d49957bb","ios":"levelo://app?vid=9cb8b98a-f4fa-4074-9926-eea1d49957bb"},"vehicle_type_id":"4","last_reported":1726816161,"current_range_meters":17200,"station_id":"ce4bhbp2rcd13ifvqesg","pricing_plan_id":"cebpf4jnsgd1na2vs0mg"},{"bike_id":"bce83964-771d-421d-a795-c2b376c5b9dc","system_id":"levelo_inurba_marseille","lat":43.23194,"lon":5.35548,"is_reserved":false,"is_disabled":false,"rental_uris":{"android":"levelo://app?vid=bce83964-771d-421d-a795-c2b376c5b9dc","ios":"levelo://app?vid=bce83964-771d-421d-a795-c2b376c5b9dc"},"vehicle_type_id":"4","last_reported":1726816161,"current_range_meters":18800,"station_id":"ce4bhu92rcd13ifvqi70","pricing_plan_id":"cebpf4jnsgd1na2vs0mg"},{"bike_id":"1cc429cf-9df4-43d8-81c0-a9ea9e79d2c2","system_id":"levelo_inurba_marseille","lat":43.30905,"lon":5.36848,"is_reserved":false,"is_disabled":false,"rental_uris":{"android":"levelo://app?vid=1cc429cf-9df4-43d8-81c0-a9ea9e79d2c2","ios":"levelo://app?vid=1cc429cf-9df4-43d8-81c0-a9ea9e79d2c2"},"vehicle_type_id":"4","last_reported":1726816161,"current_range_meters":38800,"station_id":"ce4bgn92rcd13ifvqbvg","pricing_plan_id":"cebpf4jnsgd1na2vs0mg"},{"bike_id":"9bba0bdb-519a-47bb-9389-0381a77c1731","system_id":"levelo_inurba_marseille","lat":43.28567,"lon":5.39498,"is_reserved":false,"is_disabled":false,"rental_uris":{"android":"levelo://app?vid=9bba0bdb-519a-47bb-9389-0381a77c1731","ios":"levelo://app?vid=9bba0bdb-519a-47bb-9389-0381a77c1731"},"vehicle_type_id":"4","last_reported":1726816161,"current_range_meters":21600,"station_id":"ce4bh292rcd13ifvqdg0","pricing_plan_id":"cebpf4jnsgd1na2vs0mg"},{"bike_id":"5a96b346-4bdb-41cb-8aa8-a96b50b63166","system_id":"levelo_inurba_marseille","lat":43.24074,"lon":5.37758,"is_reserved":false,"is_disabled":false,"rental_uris":{"android":"levelo://app?vid=5a96b346-4bdb-41cb-8aa8-a96b50b63166","ios":"levelo://app?vid=5a96b346-4bdb-41cb-8aa8-a96b50b63166"},"vehicle_type_id":"4","last_reported":1726816161,"current_range_meters":31200,"station_id":"ce4bhnp2rcd13ifvqgvg","pricing_plan_id":"cebpf4jnsgd1na2vs0mg"},{"bike_id":"5c643d73-df91-4773-be66-12c4b540fa63","system_id":"levelo_inurba_marseille","lat":43.32361,"lon":5.38896,"is_reserved":false,"is_disabled":false,"rental_uris":{"android":"levelo://app?vid=5c643d73-df91-4773-be66-12c4b540fa63","ios":"levelo://app?vid=5c643d73-df91-4773-be66-12c4b540fa63"},"vehicle_type_id":"4","last_reported":1726816161,"current_range_meters":30000,"station_id":"ce4bhqp2rcd13ifvqhog","pricing_plan_id":"cebpf4jnsgd1na2vs0mg"},{"bike_id":"3a5970ee-b014-47da-8eb7-fc0257a68477","system_id":"levelo_inurba_marseille","lat":43.33612,"lon":5.41036,"is_reserved":false,"is_disabled":false,"rental_uris":{"android":"levelo://app?vid=3a5970ee-b014-47da-8eb7-fc0257a68477","ios":"levelo://app?vid=3a5970ee-b014-47da-8eb7-fc0257a68477"},"vehicle_type_id":"4","last_reported":1726816161,"current_range_meters":24800,"station_id":"ce4bhqh2rcd13ifvqhmg","pricing_plan_id":"cebpf4jnsgd1na2vs0mg"},{"bike_id":"ec29d62d-5ae9-437a-b766-df37d25daa06","system_id":"levelo_inurba_marseille","lat":43.25435,"lon":5.41288,"is_reserved":false,"is_disabled":false,"rental_uris":{"android":"levelo://app?vid=ec29d62d-5ae9-437a-b766-df37d25daa06","ios":"levelo://app?vid=ec29d62d-5ae9-437a-b766-df37d25daa06"},"vehicle_type_id":"4","last_reported":1726816161,"current_range_meters":16000,"station_id":"","pricing_plan_id":"cebpf4jnsgd1na2vs0mg"},{"bike_id":"b8097568-2e63-46a5-b815-c7af9bfd8a42","system_id":"levelo_inurba_marseille","lat":43.30297,"lon":5.36888,"is_reserved":false,"is_disabled":false,"rental_uris":{"android":"levelo://app?vid=b8097568-2e63-46a5-b815-c7af9bfd8a42","ios":"levelo://app?vid=b8097568-2e63-46a5-b815-c7af9bfd8a42"},"vehicle_type_id":"4","last_reported":1726816161,"current_range_meters":38400,"station_id":"ce4bgqh2rcd13ifvqc5g","pricing_plan_id":"cebpf4jnsgd1na2vs0mg"},{"bike_id":"e2f9e96a-0311-4094-b4cb-b33bddc425df","system_id":"levelo_inurba_marseille","lat":43.31357,"lon":5.367063,"is_reserved":false,"is_disabled":false,"rental_uris":{"android":"levelo://app?vid=e2f9e96a-0311-4094-b4cb-b33bddc425df","ios":"levelo://app?vid=e2f9e96a-0311-4094-b4cb-b33bddc425df"},"vehicle_type_id":"4","last_reported":1726816161,"current_range_meters":30400,"station_id":"ce4bgr92rcd13ifvqc6g","pricing_plan_id":"cebpf4jnsgd1na2vs0mg"},{"bike_id":"5cf32e1a-795f-47de-83e9-ef5abbdaf90f","system_id":"levelo_inurba_marseille","lat":43.26573,"lon":5.39018,"is_reserved":false,"is_disabled":false,"rental_uris":{"android":"levelo://app?vid=5cf32e1a-795f-47de-83e9-ef5abbdaf90f","ios":"levelo://app?vid=5cf32e1a-795f-47de-83e9-ef5abbdaf90f"},"vehicle_type_id":"4","last_reported":1726816161,"current_range_meters":8800,"station_id":"ce4bhe12rcd13ifvqf30","pricing_plan_id":"cebpf4jnsgd1na2vs0mg"},{"bike_id":"037462f0-8a54-4672-85b4-30384dfcc800","system_id":"levelo_inurba_marseille","lat":43.28359,"lon":5.38109,"is_reserved":false,"is_disabled":false,"rental_uris":{"android":"levelo://app?vid=037462f0-8a54-4672-85b4-30384dfcc800","ios":"levelo://app?vid=037462f0-8a54-4672-85b4-30384dfcc800"},"vehicle_type_id":"4","last_reported":1726816161,"current_range_meters":29600,"station_id":"ce4bh412rcd13ifvqdr0","pricing_plan_id":"cebpf4jnsgd1na2vs0mg"},{"bike_id":"83df875a-5d3f-4c35-9ab9-74ee899a6fd0","system_id":"levelo_inurba_marseille","lat":43.30144,"lon":5.38081,"is_reserved":false,"is_disabled":false,"rental_uris":{"android":"levelo://app?vid=83df875a-5d3f-4c35-9ab9-74ee899a6fd0","ios":"levelo://app?vid=83df875a-5d3f-4c35-9ab9-74ee899a6fd0"},"vehicle_type_id":"4","last_reported":1726816161,"current_range_meters":36400,"station_id":"ce4bgjp2rcd13ifvqbh0","pricing_plan_id":"cebpf4jnsgd1na2vs0mg"},{"bike_id":"183bb22c-3fd6-4864-8774-98e63170d171","system_id":"levelo_inurba_marseille","lat":43.337407,"lon":5.374548,"is_reserved":false,"is_disabled":false,"rental_uris":{"android":"levelo://app?vid=183bb22c-3fd6-4864-8774-98e63170d171","ios":"levelo://app?vid=183bb22c-3fd6-4864-8774-98e63170d171"},"vehicle_type_id":"4","last_reported":1726816161,"current_range_meters":37600,"station_id":"ce4bgr92rcd13ifvqc6g","pricing_plan_id":"cebpf4jnsgd1na2vs0mg"},{"bike_id":"558c82b6-eaf2-4c6c-b82b-04a3f4a146f6","system_id":"levelo_inurba_marseille","lat":43.31689,"lon":5.40468,"is_reserved":false,"is_disabled":false,"rental_uris":{"android":"levelo://app?vid=558c82b6-eaf2-4c6c-b82b-04a3f4a146f6","ios":"levelo://app?vid=558c82b6-eaf2-4c6c-b82b-04a3f4a146f6"},"vehicle_type_id":"4","last_reported":1726816161,"current_range_meters":30800,"station_id":"ce4bh012rcd13ifvqd00","pricing_plan_id":"cebpf4jnsgd1na2vs0mg"},{"bike_id":"ef0d6c38-810c-4da4-8212-ddd34b972078","system_id":"levelo_inurba_marseille","lat":43.29336,"lon":5.40138,"is_reserved":false,"is_disabled":false,"rental_uris":{"android":"levelo://app?vid=ef0d6c38-810c-4da4-8212-ddd34b972078","ios":"levelo://app?vid=ef0d6c38-810c-4da4-8212-ddd34b972078"},"vehicle_type_id":"4","last_reported":1726816161,"current_range_meters":30800,"station_id":"","pricing_plan_id":"cebpf4jnsgd1na2vs0mg"},{"bike_id":"49641b67-2110-4fdb-b43e-23e54f250a94","system_id":"levelo_inurba_marseille","lat":43.28349,"lon":5.38103,"is_reserved":false,"is_disabled":false,"rental_uris":{"android":"levelo://app?vid=49641b67-2110-4fdb-b43e-23e54f250a94","ios":"levelo://app?vid=49641b67-2110-4fdb-b43e-23e54f250a94"},"vehicle_type_id":"4","last_reported":1726816161,"current_range_meters":24000,"station_id":"ce4bh412rcd13ifvqdr0","pricing_plan_id":"cebpf4jnsgd1na2vs0mg"},{"bike_id":"fa2e946d-01fe-4bb4-a2b0-55af60a0bcec","system_id":"levelo_inurba_marseille","lat":43.3372,"lon":5.39188,"is_reserved":false,"is_disabled":false,"rental_uris":{"android":"levelo://app?vid=fa2e946d-01fe-4bb4-a2b0-55af60a0bcec","ios":"levelo://app?vid=fa2e946d-01fe-4bb4-a2b0-55af60a0bcec"},"vehicle_type_id":"4","last_reported":1726816161,"current_range_meters":37600,"station_id":"ce4bhr92rcd13ifvqhsg","pricing_plan_id":"cebpf4jnsgd1na2vs0mg"},{"bike_id":"c33add25-123c-4b36-8cf5-b7923beb3261","system_id":"levelo_inurba_marseille","lat":43.32482,"lon":5.3657,"is_reserved":false,"is_disabled":false,"rental_uris":{"android":"levelo://app?vid=c33add25-123c-4b36-8cf5-b7923beb3261","ios":"levelo://app?vid=c33add25-123c-4b36-8cf5-b7923beb3261"},"vehicle_type_id":"4","last_reported":1726816161,"current_range_meters":22400,"station_id":"ce4bhs12rcd13ifvqhvg","pricing_plan_id":"cebpf4jnsgd1na2vs0mg"},{"bike_id":"11d9698c-d3bf-48ca-a9ce-d5ad0d09c0f7","system_id":"levelo_inurba_marseille","lat":43.32543,"lon":5.41439,"is_reserved":false,"is_disabled":false,"rental_uris":{"android":"levelo://app?vid=11d9698c-d3bf-48ca-a9ce-d5ad0d09c0f7","ios":"levelo://app?vid=11d9698c-d3bf-48ca-a9ce-d5ad0d09c0f7"},"vehicle_type_id":"4","last_reported":1726816161,"current_range_meters":37600,"station_id":"ce4bhq12rcd13ifvqhhg","pricing_plan_id":"cebpf4jnsgd1na2vs0mg"},{"bike_id":"df6e536a-eeb8-410d-a999-befb2f7b5b51","system_id":"levelo_inurba_marseille","lat":43.26063,"lon":5.39402,"is_reserved":false,"is_disabled":false,"rental_uris":{"android":"levelo://app?vid=df6e536a-eeb8-410d-a999-befb2f7b5b51","ios":"levelo://app?vid=df6e536a-eeb8-410d-a999-befb2f7b5b51"},"vehicle_type_id":"4","last_reported":1726816161,"current_range_meters":34000,"station_id":"ce4bhh92rcd13ifvqfj0","pricing_plan_id":"cebpf4jnsgd1na2vs0mg"},{"bike_id":"22a256c3-5d9f-4453-9d2c-097196a19b3e","system_id":"levelo_inurba_marseille","lat":43.316804,"lon":5.404746,"is_reserved":false,"is_disabled":false,"rental_uris":{"android":"levelo://app?vid=22a256c3-5d9f-4453-9d2c-097196a19b3e","ios":"levelo://app?vid=22a256c3-5d9f-4453-9d2c-097196a19b3e"},"vehicle_type_id":"4","last_reported":1726816161,"current_range_meters":12400,"station_id":"ce4bh012rcd13ifvqd00","pricing_plan_id":"cebpf4jnsgd1na2vs0mg"},{"bike_id":"9da6d2b5-5f08-48ad-803f-fd5005db9741","system_id":"levelo_inurba_marseille","lat":43.30465,"lon":5.37915,"is_reserved":false,"is_disabled":false,"rental_uris":{"android":"levelo://app?vid=9da6d2b5-5f08-48ad-803f-fd5005db9741","ios":"levelo://app?vid=9da6d2b5-5f08-48ad-803f-fd5005db9741"},"vehicle_type_id":"4","last_reported":1726816161,"current_range_meters":37600,"station_id":"ce4bgup2rcd13ifvqcn0","pricing_plan_id":"cebpf4jnsgd1na2vs0mg"},{"bike_id":"9b7f6018-d4d1-4410-9c48-ad53a833e487","system_id":"levelo_inurba_marseille","lat":43.29356,"lon":5.37841,"is_reserved":false,"is_disabled":false,"rental_uris":{"android":"levelo://app?vid=9b7f6018-d4d1-4410-9c48-ad53a833e487","ios":"levelo://app?vid=9b7f6018-d4d1-4410-9c48-ad53a833e487"},"vehicle_type_id":"4","last_reported":1726816161,"current_range_meters":28400,"station_id":"ce4bgjh2rcd13ifvqbf0","pricing_plan_id":"cebpf4jnsgd1na2vs0mg"},{"bike_id":"9c810d89-707a-4030-b256-1faa40836780","system_id":"levelo_inurba_marseille","lat":43.30953,"lon":5.39029,"is_reserved":false,"is_disabled":false,"rental_uris":{"android":"levelo://app?vid=9c810d89-707a-4030-b256-1faa40836780","ios":"levelo://app?vid=9c810d89-707a-4030-b256-1faa40836780"},"vehicle_type_id":"4","last_reported":1726816161,"current_range_meters":25600,"station_id":"ce4bgup2rcd13ifvqco0","pricing_plan_id":"cebpf4jnsgd1na2vs0mg"},{"bike_id":"0271e760-394a-46af-97f8-ff6577a27277","system_id":"levelo_inurba_marseille","lat":43.304257,"lon":5.365298,"is_reserved":false,"is_disabled":false,"rental_uris":{"android":"levelo://app?vid=0271e760-394a-46af-97f8-ff6577a27277","ios":"levelo://app?vid=0271e760-394a-46af-97f8-ff6577a27277"},"vehicle_type_id":"4","last_reported":1726816161,"current_range_meters":25600,"station_id":"","pricing_plan_id":"cebpf4jnsgd1na2vs0mg"},{"bike_id":"517aabc5-f8a6-4fe2-bcfc-9786db0d86c0","system_id":"levelo_inurba_marseille","lat":43.24081,"lon":5.3775,"is_reserved":false,"is_disabled":false,"rental_uris":{"android":"levelo://app?vid=517aabc5-f8a6-4fe2-bcfc-9786db0d86c0","ios":"levelo://app?vid=517aabc5-f8a6-4fe2-bcfc-9786db0d86c0"},"vehicle_type_id":"4","last_reported":1726816161,"current_range_meters":32000,"station_id":"ce4bhnp2rcd13ifvqgvg","pricing_plan_id":"cebpf4jnsgd1na2vs0mg"},