{"last_updated":1738829554,"ttl":60,"version":"2.2","data":{"bikes":[{"bike_id":"9b310c92-efeb-4765-8a96-172429f0f07e","system_id":"levelo_inurba_marseille","lat":43.28849,"lon":5.35855,"is_reserved":false,"is_disabled":false,"rental_uris":{"android":"levelo://app?vid=9b310c92-efeb-4765-8a96-172429f0f07e","ios":"levelo://app?vid=9b310c92-efeb-4765-8a96-172429f0f07e"},"vehicle_type_id":"4","last_reported":1738829554,"current_range_meters":32000,"station_id":"ce4bhb12rcd13ifvqem0","pricing_plan_id":"cebpf4jnsgd1na2vs0mg"},{"bike_id":"610fb8b2-ef24-429f-8026-ba3e2d414d35","system_id":"levelo_inurba_marseille","lat":43.3361,"lon":5.41044,"is_reserved":false,"is_disabled":false,"rental_uris":{"android":"levelo://app?vid=610fb8b2-ef24-429f-8026-ba3e2d414d35","ios":"levelo://app?vid=610fb8b2-ef24-429f-8026-ba3e2d414d35"},"vehicle_type_id":"4","last_reported":1738829554,"current_range_meters":39200,"station_id":"ce4bhqh2rcd13ifvqhmg","pricing_plan_id":"cebpf4jnsgd1na2vs0mg"},{"bike_id":"ed4ccea7-0f60-4837-9838-ad504138a8f4","system_id":"levelo_inurba_marseille","lat":43.30476,"lon":5.379,"is_reserved":false,"is_disabled":false,"rental_uris":{"android":"levelo://app?vid=ed4ccea7-0f60-4837-9838-ad504138a8f4","ios":"levelo://app?vid=ed4ccea7-0f60-4837-9838-ad504138a8f4"},"vehicle_type_id":"4","last_reported":1738829554,"current_range_meters":32000,"station_id":"ce4bgup2rcd13ifvqcn0","pricing_plan_id":"cebpf4jnsgd1na2vs0mg"},{"bike_id":"7bb56172-3dac-4011-8d70-51b1d52cd8eb","system_id":"levelo_inurba_marseille","lat":43.24668,"lon":5.38173,"is_reserved":false,"is_disabled":false,"rental_uris":{"android":"levelo://app?vid=7bb56172-3dac-4011-8d70-51b1d52cd8eb","ios":"levelo://app?vid=7bb56172-3dac-4011-8d70-51b1d52cd8eb"},"vehicle_type_id":"4","last_reported":1738829554,"current_range_meters":4800,"station_id":"ce4bhih2rcd13ifvqfr0","pricing_plan_id":"cebpf4jnsgd1na2vs0mg"},{"bike_id":"2d7f9513-ca4c-497c-b33a-44fa19bf5f1f","system_id":"levelo_inurba_marseille","lat":43.2971,"lon":5.37691,"is_reserved":false,"is_disabled":true,"rental_uris":{"android":"levelo://app?vid=2d7f9513-ca4c-497c-b33a-44fa19bf5f1f","ios":"levelo://app?vid=2d7f9513-ca4c-497c-b33a-44fa19bf5f1f"},"vehicle_type_id":"4","last_reported":1738829554,"current_range_meters":400,"station_id":"ce4bgkh2rcd13ifvqbl0","pricing_plan_id":"cebpf4jnsgd1na2vs0mg"},{"bike_id":"d00cdb85-10d5-4b9c-90cf-8c66446d2f13","system_id":"levelo_inurba_marseille","lat":43.26776,"lon":5.39418,"is_reserved":false,"is_disabled":false,"rental_uris":{"android":"levelo://app?vid=d00cdb85-10d5-4b9c-90cf-8c66446d2f13","ios":"levelo://app?vid=d00cdb85-10d5-4b9c-90cf-8c66446d2f13"},"vehicle_type_id":"4","last_reported":1738829554,"current_range_meters":28000,"station_id":"ce4bhh12rcd13ifvqfg0","pricing_plan_id":"cebpf4jnsgd1na2vs0mg"},{"bike_id":"9e6fb559-22cf-4443-b315-0398ecccac11","system_id":"levelo_inurba_marseille","lat":43.29036,"lon":5.37568,"is_reserved":false,"is_disabled":false,"rental_uris":{"android":"levelo://app?vid=9e6fb559-22cf-4443-b315-0398ecccac11","ios":"levelo://app?vid=9e6fb559-22cf-4443-b315-0398ecccac11"},"vehicle_type_id":"4","last_reported":1738829554,"current_range_meters":26800,"station_id":"ce4bh692rcd13ifvqe90","pricing_plan_id":"cebpf4jnsgd1na2vs0mg"},{"bike_id":"98fd826c-0bf1-4b38-a3d1-66676766ed4b","system_id":"levelo_inurba_marseille","lat":43.30523,"lon":5.36735,"is_reserved":false,"is_disabled":false,"rental_uris":{"android":"levelo://app?vid=98fd826c-0bf1-4b38-a3d1-66676766ed4b","ios":"levelo://app?vid=98fd826c-0bf1-4b38-a3d1-66676766ed4b"},"vehicle_type_id":"4","last_reported":1738829554,"current_range_meters":38800,"station_id":"ce4bgrp2rcd13ifvqc9g","pricing_plan_id":"cebpf4jnsgd1na2vs0mg"},{"bike_id":"b2bd4902-85ec-4863-a262-d4d076a04dc2","system_id":"levelo_inurba_marseille","lat":43.27494,"lon":5.42459,"is_reserved":false,"is_disabled":false,"rental_uris":{"android":"levelo://app?vid=b2bd4902-85ec-4863-a262-d4d076a04dc2","ios":"levelo://app?vid=b2bd4902-85ec-4863-a262-d4d076a04dc2"},"vehicle_type_id":"4","last_reported":1738829554,"current_range_meters":4000,"station_id":"ce4bhn92rcd13ifvqgrg","pricing_plan_id":"cebpf4jnsgd1na2vs0mg"},{"bike_id":"60efba71-1f79-4331-8e03-d1cbb62a05fd","system_id":"levelo_inurba_marseille","lat":43.23181,"lon":5.39987,"is_reserved":false,"is_disabled":false,"rental_uris":{"android":"levelo://app?vid=60efba71-1f79-4331-8e03-d1cbb62a05fd","ios":"levelo://app?vid=60efba71-1f79-4331-8e03-d1cbb62a05fd"},"vehicle_type_id":"4","last_reported":1738829554,"current_range_meters":18000,"station_id":"ce4bhn12rcd13ifvqgqg","pricing_plan_id":"cebpf4jnsgd1na2vs0mg"},{"bike_id":"7d34c48a-7d5c-4fdb-b436-254657a5812d","system_id":"levelo_inurba_marseille","lat":43.30471,"lon":5.37911,"is_reserved":false,"is_disabled":false,"rental_uris":{"android":"levelo://app?vid=7d34c48a-7d5c-4fdb-b436-254657a5812d","ios":"levelo://app?vid=7d34c48a-7d5c-4fdb-b436-254657a5812d"},"vehicle_type_id":"4","last_reported":1738829554,"current_range_meters":37600,"station_id":"ce4bgup2rcd13ifvqcn0","pricing_plan_id":"cebpf4jnsgd1na2vs0mg"},{"bike_id":"1d4792bd-54a6-4134-b31a-771041f11a04","system_id":"levelo_inurba_marseille","lat":43.27496,"lon":5.42472,"is_reserved":false,"is_disabled":false,"rental_uris":{"android":"levelo://app?vid=1d4792bd-54a6-4134-b31a-771041f11a04","ios":"levelo://app?vid=1d4792bd-54a6-4134-b31a-771041f11a04"},"vehicle_type_id":"4","last_reported":1738829554,"current_range_meters":27200,"station_id":"ce4bhn92rcd13ifvqgrg","pricing_plan_id":"cebpf4jnsgd1na2vs0mg"},{"bike_id":"dac92766-1e3a-4b5f-a77d-7ea8b230f5d8","system_id":"levelo_inurba_marseille","lat":43.30939,"lon":5.39044,"is_reserved":false,"is_disabled":false,"rental_uris":{"android":"levelo://app?vid=dac92766-1e3a-4b5f-a77d-7ea8b230f5d8","ios":"levelo://app?vid=dac92766-1e3a-4b5f-a77d-7ea8b230f5d8"},"vehicle_type_id":"4","last_reported":1738829554,"current_range_meters":35600,"station_id":"ce4bgup2rcd13ifvqco0","pricing_plan_id":"cebpf4jnsgd1na2vs0mg"},{"bike_id":"2e2103ea-1862-4a7c-aebb-70a8bcb44f35","system_id":"levelo_inurba_marseille","lat":43.30547,"lon":5.36685,"is_reserved":false,"is_disabled":false,"rental_uris":{"android":"levelo://app?vid=2e2103ea-1862-4a7c-aebb-70a8bcb44f35","ios":"levelo://app?vid=2e2103ea-1862-4a7c-aebb-70a8bcb44f35"},"vehicle_type_id":"4","last_reported":1738829554,"current_range_meters":28800,"station_id":"ce4bgrp2rcd13ifvqc9g","pricing_plan_id":"cebpf4jnsgd1na2vs0mg"},{"bike_id":"c47151b7-6300-4d10-af3b-e7f427fdce45","system_id":"levelo_inurba_marseille","lat":43.29715,"lon":5.37697,"is_reserved":false,"is_disabled":true,"rental_uris":{"android":"levelo://app?vid=c47151b7-6300-4d10-af3b-e7f427fdce45","ios":"levelo://app?vid=c47151b7-6300-4d10-af3b-e7f427fdce45"},"vehicle_type_id":"4","last_reported":1738829554,"current_range_meters":20000,"station_id":"ce4bgkh2rcd13ifvqbl0","pricing_plan_id":"cebpf4jnsgd1na2vs0mg"},{"bike_id":"824cbd66-f15f-4d94-9a57-5cc66d325a14","system_id":"levelo_inurba_marseille","lat":43.30521,"lon":5.36563,"is_reserved":false,"is_disabled":false,"rental_uris":{"android":"levelo://app?vid=824cbd66-f15f-4d94-9a57-5cc66d325a14","ios":"levelo://app?vid=824cbd66-f15f-4d94-9a57-5cc66d325a14"},"vehicle_type_id":"4","last_reported":1738829554,"current_range_meters":38800,"station_id":"ce4bgs12rcd13ifvqcag","pricing_plan_id":"cebpf4jnsgd1na2vs0mg"},{"bike_id":"675de847-f8f5-4cef-a33a-ce7228341298","system_id":"levelo_inurba_marseille","lat":43.2846,"lon":5.38422,"is_reserved":false,"is_disabled":false,"rental_uris":{"android":"levelo://app?vid=675de847-f8f5-4cef-a33a-ce7228341298","ios":"levelo://app?vid=675de847-f8f5-4cef-a33a-ce7228341298"},"vehicle_type_id":"4","last_reported":1738829554,"current_range_meters":10000,"station_id":"ce4bh512rcd13ifvqe3g","pricing_plan_id":"cebpf4jnsgd1na2vs0mg"},{"bike_id":"48c3441c-11db-44cf-b627-fa15456f0152","system_id":"levelo_inurba_marseille","lat":43.34163,"lon":5.40893,"is_reserved":false,"is_disabled":false,"rental_uris":{"android":"levelo://app?vid=48c3441c-11db-44cf-b627-fa15456f0152","ios":"levelo://app?vid=48c3441c-11db-44cf-b627-fa15456f0152"},"vehicle_type_id":"4","last_reported":1738829554,"current_range_meters":24400,"station_id":"ce4bhqh2rcd13ifvqhlg","pricing_plan_id":"cebpf4jnsgd1na2vs0mg"},{"bike_id":"4018d4b0-cb27-4e78-92e2-4458faa993cd","system_id":"levelo_inurba_marseille","lat":43.2957,"lon":5.37533,"is_reserved":false,"is_disabled":true,"rental_uris":{"android":"levelo://app?vid=4018d4b0-cb27-4e78-92e2-4458faa993cd","ios":"levelo://app?vid=4018d4b0-cb27-4e78-92e2-4458faa993cd"},"vehicle_type_id":"4","last_reported":1738829554,"current_range_meters":1200,"station_id":"ce4bgh92rcd13ifvqb50","pricing_plan_id":"cebpf4jnsgd1na2vs0mg"},{"bike_id":"dabda0f4-b7bc-4081-811a-b8b88e9d50be","system_id":"levelo_inurba_marseille","lat":43.26186,"lon":5.37448,"is_reserved":false,"is_disabled":false,"rental_uris":{"android":"levelo://app?vid=dabda0f4-b7bc-4081-811a-b8b88e9d50be","ios":"levelo://app?vid=dabda0f4-b7bc-4081-811a-b8b88e9d50be"},"vehicle_type_id":"4","last_reported":1738829554,"current_range_meters":38800,"station_id":"ce4bhgp2rcd13ifvqfc0","pricing_plan_id":"cebpf4jnsgd1na2vs0mg"},{"bike_id":"7eaacd34-10f9-4246-8aa1-4a22e07a7c06","system_id":"levelo_inurba_marseille","lat":43.31608,"lon":5.3736,"is_reserved":false,"is_disabled":false,"rental_uris":{"android":"levelo://app?vid=7eaacd34-10f9-4246-8aa1-4a22e07a7c06","ios":"levelo://app?vid=7eaacd34-10f9-4246-8aa1-4a22e07a7c06"},"vehicle_type_id":"4","last_reported":1738829554,"current_range_meters":24000,"station_id":"","pricing_plan_id":"cebpf4jnsgd1na2vs0mg"},{"bike_id":"b85d0f36-4ceb-47ae-b932-72d8372ef081","system_id":"levelo_inurba_marseille","lat":43.23184,"lon":5.40004,"is_reserved":false,"is_disabled":false,"rental_uris":{"android":"levelo://app?vid=b85d0f36-4ceb-47ae-b932-72d8372ef081","ios":"levelo://app?vid=b85d0f36-4ceb-47ae-b932-72d8372ef081"},"vehicle_type_id":"4","last_reported":1738829554,"current_range_meters":38000,"station_id":"ce4bhn12rcd13ifvqgqg","pricing_plan_id":"cebpf4jnsgd1na2vs0mg"},{"bike_id":"19cfb078-9854-4658-91b7-e1746e55420c","system_id":"levelo_inurba_marseille","lat":43.3152,"lon":5.38069,"is_reserved":false,"is_disabled":false,"rental_uris":{"android":"levelo://app?vid=19cfb078-9854-4658-91b7-e1746e55420c","ios":"levelo://app?vid=19cfb078-9854-4658-91b7-e1746e55420c"},"vehicle_type_id":"4","last_reported":1738829554,"current_range_meters":38800,"station_id":"ce4bhsp2rcd13ifvqi50","pricing_plan_id":"cebpf4jnsgd1na2vs0mg"},{"bike_id":"11c556d6-c6b7-4156-aeb0-e99ce30fdcd7","system_id":"levelo_inurba_marseille","lat":43.2478,"lon":5.37501,"is_reserved":false,"is_disabled":false,"rental_uris":{"android":"levelo://app?vid=11c556d6-c6b7-4156-aeb0-e99ce30fdcd7","ios":"levelo://app?vid=11c556d6-c6b7-4156-aeb0-e99ce30fdcd7"},"vehicle_type_id":"4","last_reported":1738829554,"current_range_meters":18800,"station_id":"ce4bhgh2rcd13ifvqfb0","pricing_plan_id":"cebpf4jnsgd1na2vs0mg"},{"bike_id":"bd42563d-6ded-4a27-8446-f13fff32889d","system_id":"levelo_inurba_marseille","lat":43.317623,"lon":5.390158,"is_reserved":false,"is_disabled":false,"rental_uris":{"android":"levelo://app?vid=bd42563d-6ded-4a27-8446-f13fff32889d","ios":"levelo://app?vid=bd42563d-6ded-4a27-8446-f13fff32889d"},"vehicle_type_id":"4","last_reported":1738829554,"current_range_meters":39200,"station_id":"ce4bhqp2rcd13ifvqhng","pricing_plan_id":"cebpf4jnsgd1na2vs0mg"},{"bike_id":"b7eb1d29-c5ee-4080-8f84-5619ceb2add1","system_id":"levelo_inurba_marseille","lat":43.31345,"lon":5.36729,"is_reserved":false,"is_disabled":false,"rental_uris":{"android":"levelo://app?vid=b7eb1d29-c5ee-4080-8f84-5619ceb2add1","ios":"levelo://app?vid=b7eb1d29-c5ee-4080-8f84-5619ceb2add1"},"vehicle_type_id":"4","last_reported":1738829554,"current_range_meters":34800,"station_id":"ce4bgr92rcd13ifvqc6g","pricing_plan_id":"cebpf4jnsgd1na2vs0mg"},{"bike_id":"6503a5b9-92af-46ab-bea0-1c042275c3a3","system_id":"levelo_inurba_marseille","lat":43.31697,"lon":5.37752,"is_reserved":false,"is_disabled":true,"rental_uris":{"android":"levelo://app?vid=6503a5b9-92af-46ab-bea0-1c042275c3a3","ios":"levelo://app?vid=6503a5b9-92af-46ab-bea0-1c042275c3a3"},"vehicle_type_id":"4","last_reported":1738829554,"current_range_meters":0,"station_id":"ce4bgth2rcd13ifvqch0","pricing_plan_id":"cebpf4jnsgd1na2vs0mg"},{"bike_id":"a6ba5ef6-5b99-47d9-acea-ad62a4cd0a59","system_id":"levelo_inurba_marseille","lat":43.26548,"lon":5.39214,"is_reserved":false,"is_disabled":false,"rental_uris":{"android":"levelo://app?vid=a6ba5ef6-5b99-47d9-acea-ad62a4cd0a59","ios":"levelo://app?vid=a6ba5ef6-5b99-47d9-acea-ad62a4cd0a59"},"vehicle_type_id":"4","last_reported":1738829554,"current_range_meters":36000,"station_id":"","pricing_plan_id":"cebpf4jnsgd1na2vs0mg"},{"bike_id":"85506d97-0f87-4df9-ad07-8dd2dedad0b3","system_id":"levelo_inurba_marseille","lat":43.272089,"lon":5.392021,"is_reserved":false,"is_disabled":true,"rental_uris":{"android":"levelo://app?vid=85506d97-0f87-4df9-ad07-8dd2dedad0b3","ios":"levelo://app?vid=85506d97-0f87-4df9-ad07-8dd2dedad0b3"},"vehicle_type_id":"4","last_reported":1738829554,"current_range_meters":34000,"station_id":"ce4bhhp2rcd13ifvqfm0","pricing_plan_id":"cebpf4jnsgd1na2vs0mg"},{"bike_id":"a1a7079b-68b5-45ca-9af8-b6bc9f7cd559","system_id":"levelo_inurba_marseille","lat":43.22927,"lon":5.35383,"is_reserved":false,"is_disabled":false,"rental_uris":{"android":"levelo://app?vid=a1a7079b-68b5-45ca-9af8-b6bc9f7cd559","ios":"levelo://app?vid=a1a7079b-68b5-45ca-9af8-b6bc9f7cd559"},"vehicle_type_id":"4","last_reported":1738829554,"current_range_meters":38800,"station_id":"cpo3532slgdg3j2ikp40","pricing_plan_id":"cebpf4jnsgd1na2vs0mg"},{"bike_id":"b3e15123-f412-47a1-bf1f-9c73196cafab","system_id":"levelo_inurba_marseille","lat":43.2583,"lon":5.39441,"is_reserved":false,"is_disabled":true,"rental_uris":{"android":"levelo://app?vid=b3e15123-f412-47a1-bf1f-9c73196cafab","ios":"levelo://app?vid=b3e15123-f412-47a1-bf1f-9c73196cafab"},"vehicle_type_id":"4","last_reported":1738829554,"current_range_meters":400,"station_id":"ce4bhip2rcd13ifvqft0","pricing_plan_id":"cebpf4jnsgd1na2vs0mg"},{"bike_id":"99e6c8e3-5c86-415c-b3f7-c87c1418cb77","system_id":"levelo_inurba_marseille","lat":43.30482,"lon":5.37909,"is_reserved":false,"is_disabled":false,"rental_uris":{"android":"levelo://app?vid=99e6c8e3-5c86-415c-b3f7-c87c1418cb77","ios":"levelo://app?vid=99e6c8e3-5c86-415c-b3f7-c87c1418cb77"},"vehicle_type_id":"4","last_reported":1738829554,"current_range_meters":38800,"station_id":"ce4bgup2rcd13ifvqcn0","pricing_plan_id":"cebpf4jnsgd1na2vs0mg"},{"bike_id":"9bed730f-1adf-4444-a5ac-fa2d282ef048","system_id":"levelo_inurba_marseille","lat":43.30796,"lon":5.43536,"is_reserved":false,"is_disabled":false,"rental_uris":{"android":"levelo://app?vid=9bed730f-1adf-4444-a5ac-fa2d282ef048","ios":"levelo://app?vid=9bed730f-1adf-4444-a5ac-fa2d282ef048"},"vehicle_type_id":"4","last_reported":1738829554,"current_range_meters":38800,"station_id":"ce4bhph2rcd13ifvqheg","pricing_plan_id":"cebpf4jnsgd1na2vs0mg"},{"bike_id":"90c4c78b-e4a7-4853-a5ee-228a6bb5a7ce","system_id":"levelo_inurba_marseille","lat":43.29034,"lon":5.37576,"is_reserved":false,"is_disabled":false,"rental_uris":{"android":"levelo://app?vid=90c4c78b-e4a7-4853-a5ee-228a6bb5a7ce","ios":"levelo://app?vid=90c4c78b-e4a7-4853-a5ee-228a6bb5a7ce"},"vehicle_type_id":"4","last_reported":1738829554,"current_range_meters":38800,"station_id":"ce4bh692rcd13ifvqe90","pricing_plan_id":"cebpf4jnsgd1na2vs0mg"},{"bike_id":"b0b70dbd-bdde-4326-96ee-f00c6aa1d2d8","system_id":"levelo_inurba_marseille","lat":43.33598,"lon":5.41036,"is_reserved":false,"is_disabled":false,"rental_uris":{"android":"levelo://app?vid=b0b70dbd-bdde-4326-96ee-f00c6aa1d2d8","ios":"levelo://app?vid=b0b70dbd-bdde-4326-96ee-f00c6aa1d2d8"},"vehicle_type_id":"4","last_reported":1738829554,"current_range_meters":25200,"station_id":"ce4bhqh2rcd13ifvqhmg","pricing_plan_id":"cebpf4jnsgd1na2vs0mg"},{"bike_id":"f423adf0-93aa-4c47-9d8a-b1e2e7e85005","system_id":"levelo_inurba_marseille","lat":43.28409,"lon":5.35015,"is_reserved":false,"is_disabled":true,"rental_uris":{"android":"levelo://app?vid=f423adf0-93aa-4c47-9d8a-b1e2e7e85005","ios":"levelo://app?vid=f423adf0-93aa-4c47-9d8a-b1e2e7e85005"},"vehicle_type_id":"4","last_reported":1738829554,"current_range_meters":8000,"station_id":"ce4bhbh2rcd13ifvqepg","pricing_plan_id":"cebpf4jnsgd1na2vs0mg"},{"bike_id":"eda4d722-bdb9-4040-a223-1024d7f41486","system_id":"levelo_inurba_marseille","lat":43.3051,"lon":5.36792,"is_reserved":false,"is_disabled":false,"rental_uris":{"android":"levelo://app?vid=eda4d722-bdb9-4040-a223-1024d7f41486","ios":"levelo://app?vid=eda4d722-bdb9-4040-a223-1024d7f41486"},"vehicle_type_id":"4","last_reported":1738829554,"current_range_meters":32000,"station_id":"ce4bgrp2rcd13ifvqc9g","pricing_plan_id":"cebpf4jnsgd1na2vs0mg"},{"bike_id":"28e814d5-4407-4077-a3f3-b04d77aefc7f","system_id":"levelo_inurba_marseille","lat":43.28622,"lon":5.35126,"is_reserved":false,"is_disabled":false,"rental_uris":{"android":"levelo://app?vid=28e814d5-4407-4077-a3f3-b04d77aefc7f","ios":"levelo://app?vid=28e814d5-4407-4077-a3f3-b04d77aefc7f"},"vehicle_type_id":"4","last_reported":1738829554,"current_range_meters":12000,"station_id":"ce4bhch2rcd13ifvqeug","pricing_plan_id":"cebpf4jnsgd1na2vs0mg"},{"bike_id":"31da273c-2d88-464d-8eff-b87d306a408c","system_id":"levelo_inurba_marseille","lat":43.29967,"lon":5.41346,"is_reserved":false,"is_disabled":false,"rental_uris":{"android":"levelo://app?vid=31da273c-2d88-464d-8eff-b87d306a408c","ios":"levelo://app?vid=31da273c-2d88-464d-8eff-b87d306a408c"},"vehicle_type_id":"4","last_reported":1738829554,"current_range_meters":38800,"station_id":"ce4bhp12rcd13ifvqh9g","pricing_plan_id":"cebpf4jnsgd1na2vs0mg"},{"bike_id":"952afd09-03d4-4848-8861-01247835edfd","system_id":"levelo_inurba_marseille","lat":43.25933,"lon":5.40914,"is_reserved":false,"is_disabled":false,"rental_uris":{"android":"levelo://app?vid=952afd09-03d4-4848-8861-01247835edfd","ios":"levelo://app?vid=952afd09-03d4-4848-8861-01247835edfd"},"vehicle_type_id":"4","last_reported":1738829554,"current_range_meters":17200,"station_id":"ce4bhm92rcd13ifvqglg","pricing_plan_id":"cebpf4jnsgd1na2vs0mg"},{"bike_id":"76c3a5ce-1f74-4aac-866f-387e1b5ddfc0","system_id":"levelo_inurba_marseille","lat":43.24173,"lon":5.39715,"is_reserved":false,"is_disabled":false,"rental_uris":{"android":"levelo://app?vid=76c3a5ce-1f74-4aac-866f-387e1b5ddfc0","ios":"levelo://app?vid=76c3a5ce-1f74-4aac-866f-387e1b5ddfc0"},"vehicle_type_id":"4","last_reported":1738829554,"current_range_meters":18000,"station_id":"ce4bhn12rcd13ifvqgpg","pricing_plan_id":"cebpf4jnsgd1na2vs0mg"},{"bike_id":"859537e0-4cf9-4ee3-8f90-de5b287589dd","system_id":"levelo_inurba_marseille","lat":43.30909,"lon":5.36856,"is_reserved":false,"is_disabled":false,"rental_uris":{"android":"levelo://app?vid=859537e0-4cf9-4ee3-8f90-de5b287589dd","ios":"levelo://app?vid=859537e0-4cf9-4ee3-8f90-de5b287589dd"},"vehicle_type_id":"4","last_reported":1738829554,"current_range_meters":36800,"station_id":"ce4bgn92rcd13ifvqbvg","pricing_plan_id":"cebpf4jnsgd1na2vs0mg"},{"bike_id":"eb7fff4c-f402-463b-92e2-75a42b52f84d","system_id":"levelo_inurba_marseille","lat":43.29295,"lon":5.37474,"is_reserved":false,"is_disabled":false,"rental_uris":{"android":"levelo://app?vid=eb7fff4c-f402-463b-92e2-75a42b52f84d","ios":"levelo://app?vid=eb7fff4c-f402-463b-92e2-75a42b52f84d"},"vehicle_type_id":"4","last_reported":1738829554,"current_range_meters":36000,"station_id":"ce4bgi12rcd13ifvqb70","pricing_plan_id":"cebpf4jnsgd1na2vs0mg"},{"bike_id":"6bba36c7-75a6-4b1b-96cb-c03d219a6faa","system_id":"levelo_inurba_marseille","lat":43.33036,"lon":5.39055,"is_reserved":false,"is_disabled":false,"rental_uris":{"android":"levelo://app?vid=6bba36c7-75a6-4b1b-96cb-c03d219a6faa","ios":"levelo://app?vid=6bba36c7-75a6-4b1b-96cb-c03d219a6faa"},"vehicle_type_id":"4","last_reported":1738829554,"current_range_meters":34800,"station_id":"ce4bhr92rcd13ifvqhrg","pricing_plan_id":"cebpf4jnsgd1na2vs0mg"},{"bike_id":"7526cc21-cd00-4b94-8714-c7a999fc2127","system_id":"levelo_inurba_marseille","lat":43.25821,"lon":5.39439,"is_reserved":false,"is_disabled":false,"rental_uris":{"android":"levelo://app?vid=7526cc21-cd00-4b94-8714-c7a999fc2127","ios":"levelo://app?vid=7526cc21-cd00-4b94-8714-c7a999fc2127"},"vehicle_type_id":"4","last_reported":1738829554,"current_range_meters":27600,"station_id":"ce4bhip2rcd13ifvqft0","pricing_plan_id":"cebpf4jnsgd1na2vs0mg"},{"bike_id":"52f59ecd-53a8-4fc7-887f-6b66a1b841c6","system_id":"levelo_inurba_marseille","lat":43.30596,"lon":5.39364,"is_reserved":false,"is_disabled":false,"rental_uris":{"android":"levelo://app?vid=52f59ecd-53a8-4fc7-887f-6b66a1b841c6","ios":"levelo://app?vid=52f59ecd-53a8-4fc7-887f-6b66a1b841c6"},"vehicle_type_id":"4","last_reported":1738829554,"current_range_meters":23200,"station_id":"ce4bh0p2rcd13ifvqd80","pricing_plan_id":"cebpf4jnsgd1na2vs0mg"},{"bike_id":"5786637f-7aa3-4c94-860d-27f2b053d260","system_id":"levelo_inurba_marseille","lat":43.27678,"lon":5.38915,"is_reserved":false,"is_disabled":false,"rental_uris":{"android":"levelo://app?vid=5786637f-7aa3-4c94-860d-27f2b053d260","ios":"levelo://app?vid=5786637f-7aa3-4c94-860d-27f2b053d260"},"vehicle_type_id":"4","last_reported":1738829554,"current_range_meters":30400,"station_id":"ce4bhi12rcd13ifvqfo0","pricing_plan_id":"cebpf4jnsgd1na2vs0mg"},{"bike_id":"10e50f59-c87a-42f4-8fbb-d01f7149660f","system_id":"levelo_inurba_marseille","lat":43.30943,"lon":5.39053,"is_reserved":false,"is_disabled":false,"rental_uris":{"android":"levelo://app?vid=10e50f59-c87a-42f4-8fbb-d01f7149660f","ios":"levelo://app?vid=10e50f59-c87a-42f4-8fbb-d01f7149660f"},"vehicle_type_id":"4","last_reported":1738829554,"current_range_meters":22800,"station_id":"ce4bgup2rcd13ifvqco0","pricing_plan_id":"cebpf4jnsgd1na2vs0mg"},{"bike_id":"c90bee22-93e6-4769-a402-7c2dd626c38f","system_id":"levelo_inurba_marseille","lat":43.27625,"lon":5.36137,"is_reserved":false,"is_disabled":false,"rental_uris":{"android":"levelo://app?vid=c90bee22-93e6-4769-a402-7c2dd626c38f","ios":"levelo://app?vid=c90bee22-93e6-4769-a402-7c2dd626c38f"},"vehicle_type_id":"4","last_reported":1738829554,"current_range_meters":33600,"station_id":"ce4bgj92rcd13ifvqbe0","pricing_plan_id":"cebpf4jnsgd1na2vs0mg"},{"bike_id":"8a3d1279-b585-4015-a7be-c0f5483f4a37","system_id":"levelo_inurba_marseille","lat":43.27489,"lon":5.42478,"is_reserved":false,"is_disabled":false,"rental_uris":{"android":"levelo://app?vid=8a3d1279-b585-4015-a7be-c0f5483f4a37","ios":"levelo://app?vid=8a3d1279-b585-4015-a7be-c0f5483f4a37"},"vehicle_type_id":"4","last_reported":1738829554,"current_range_meters":10800,"station_id":"ce4bhn92rcd13ifvqgrg","pricing_plan_id":"cebpf4jnsgd1na2vs0mg"},{"bike_id":"edaef6b9-476c-48d2-8ed7-0ba5d7da7526","system_id":"levelo_inurba_marseille","lat":43.29774,"lon":5.371021,"is_reserved":false,"is_disabled":false,"rental_uris":{"android":"levelo://app?vid=edaef6b9-476c-48d2-8ed7-0ba5d7da7526","ios":"levelo://app?vid=edaef6b9-476c-48d2-8ed7-0ba5d7da7526"},"vehicle_type_id":"4","last_reported":1738829554,"current_range_meters":33600,"station_id":"ce4bgop2rcd13ifvqc1g","pricing_plan_id":"cebpf4jnsgd1na2vs0mg"},{"bike_id":"651ebf46-6aa2-422d-8f3d-0792cee566cd","system_id":"levelo_inurba_marseille","lat":43.27482,"lon":5.42459,"is_reserved":false,"is_disabled":false,"rental_uris":{"android":"levelo://app?vid=651ebf46-6aa2-422d-8f3d-0792cee566cd","ios":"levelo://app?vid=651ebf46-6aa2-422d-8f3d-0792cee566cd"},"vehicle_type_id":"4","last_reported":1738829554,"current_range_meters":19600,"station_id":"ce4bhn92rcd13ifvqgrg","pricing_plan_id":"cebpf4jnsgd1na2vs0mg"},{"bike_id":"7f657d43-65c7-468d-ad0e-f606466b52ae","system_id":"levelo_inurba_marseille","lat":43.32474,"lon":5.36601,"is_reserved":false,"is_disabled":false,"rental_uris":{"android":"levelo://app?vid=7f657d43-65c7-468d-ad0e-f606466b52ae","ios":"levelo://app?vid=7f657d43-65c7-468d-ad0e-f606466b52ae"},"vehicle_type_id":"4","last_reported":1738829554,"current_range_meters":14800,"station_id":"ce4bhs12rcd13ifvqhvg","pricing_plan_id":"cebpf4jnsgd1na2vs0mg"},{"bike_id":"8361d931-ae94-4712-87c5-c5609c422dff","system_id":"levelo_inurba_marseille","lat":43.3121,"lon":5.36795,"is_reserved":false,"is_disabled":false,"rental_uris":{"android":"levelo://app?vid=8361d931-ae94-4712-87c5-c5609c422dff","ios":"levelo://app?vid=8361d931-ae94-4712-87c5-c5609c422dff"},"vehicle_type_id":"4","last_reported":1738829554,"current_range_meters":18800,"station_id":"","pricing_plan_id":"cebpf4jnsgd1na2vs0mg"},{"bike_id":"585829b3-6401-45a0-8835-1ef0bbd3a57c","system_id":"levelo_inurba_marseille","lat":43.28136,"lon":5.42642,"is_reserved":false,"is_disabled":false,"rental_uris":{"android":"levelo://app?vid=585829b3-6401-45a0-8835-1ef0bbd3a57c","ios":"levelo://app?vid=585829b3-6401-45a0-8835-1ef0bbd3a57c"},"vehicle_type_id":"4","last_reported":1738829554,"current_range_meters":25200,"station_id":"ce4bhnh2rcd13ifvqgug","pricing_plan_id":"cebpf4jnsgd1na2vs0mg"},{"bike_id":"e4765395-fd79-4a17-93be-d3d3d75f5429","system_id":"levelo_inurba_marseille","lat":43.29033,"lon":5.39963,"is_reserved":false,"is_disabled":false,"rental_uris":{"android":"levelo://app?vid=e4765395-fd79-4a17-93be-d3d3d75f5429","ios":"levelo://app?vid=e4765395-fd79-4a17-93be-d3d3d75f5429"},"vehicle_type_id":"4","last_reported":1738829554,"current_range_meters":13600,"station_id":"ce4bh392rcd13ifvqdm0","pricing_plan_id":"cebpf4jnsgd1na2vs0mg"},{"bike_id":"88c1f5c5-bb0b-42bc-8019-2c4b7e1fc378","system_id":"levelo_inurba_marseille","lat":43.30941,"lon":5.39031,"is_reserved":false,"is_disabled":false,"rental_uris":{"android":"levelo://app?vid=88c1f5c5-bb0b-42bc-8019-2c4b7e1fc378","ios":"levelo://app?vid=88c1f5c5-bb0b-42bc-8019-2c4b7e1fc378"},"vehicle_type_id":"4","last_reported":1738829554,"current_range_meters":27600,"station_id":"ce4bgup2rcd13ifvqco0","pricing_plan_id":"cebpf4jnsgd1na2vs0mg"},{"bike_id":"c9ebdd2d-fe07-41ca-b670-8702fd2c73e6","system_id":"levelo_inurba_marseille","lat":43.303,"lon":5.3688,"is_reserved":false,"is_disabled":false,"rental_uris":{"android":"levelo://app?vid=c9ebdd2d-fe07-41ca-b670-8702fd2c73e6","ios":"levelo://app?vid=c9ebdd2d-fe07-41ca-b670-8702fd2c73e6"},"vehicle_type_id":"4","last_reported":1738829554,"current_range_meters":24000,"station_id":"ce4bgqh2rcd13ifvqc5g","pricing_plan_id":"cebpf4jnsgd1na2vs0mg"},{"bike_id":"6712f04b-f35d-4e3a-a70d-c89aec85d9b2","system_id":"levelo_inurba_marseille","lat":43.22928,"lon":5.35393,"is_reserved":false,"is_disabled":false,"rental_uris":{"android":"levelo://app?vid=6712f04b-f35d-4e3a-a70d-c89aec85d9b2","ios":"levelo://app?vid=6712f04b-f35d-4e3a-a70d-c89aec85d9b2"},"vehicle_type_id":"4","last_reported":1738829554,"current_range_meters":38000,"station_id":"cpo3532slgdg3j2ikp40","pricing_plan_id":"cebpf4jnsgd1na2vs0mg"},{"bike_id":"9470dd73-7393-47ca-8f05-fd76cdac2879","system_id":"levelo_inurba_marseille","lat":43.24035,"lon":5.37767,"is_reserved":false,"is_disabled":false,"rental_uris":{"android":"levelo://app?vid=9470dd73-7393-47ca-8f05-fd76cdac2879","ios":"levelo://app?vid=9470dd73-7393-47ca-8f05-fd76cdac2879"},"vehicle_type_id":"4","last_reported":1738829554,"current_range_meters":38800,"station_id":"ce4bhnp2rcd13ifvqgvg","pricing_plan_id":"cebpf4jnsgd1na2vs0mg"},{"bike_id":"90278dbb-8419-413d-98c2-5665a51ece2d","system_id":"levelo_inurba_marseille","lat":43.30532,"lon":5.36726,"is_reserved":false,"is_disabled":false,"rental_uris":{"android":"levelo://app?vid=90278dbb-8419-413d-98c2-5665a51ece2d","ios":"levelo://app?vid=90278dbb-8419-413d-98c2-5665a51ece2d"},"vehicle_type_id":"4","last_reported":1738829554,"current_range_meters":24800,"station_id":"ce4bgrp2rcd13ifvqc9g","pricing_plan_id":"cebpf4jnsgd1na2vs0mg"},{"bike_id":"5169f958-fc07-489b-b19b-5b31b5506996","system_id":"levelo_inurba_marseille","lat":43.30152,"lon":5.38092,"is_reserved":false,"is_disabled":false,"rental_uris":{"android":"levelo://app?vid=5169f958-fc07-489b-b19b-5b31b5506996","ios":"levelo://app?vid=5169f958-fc07-489b-b19b-5b31b5506996"},"vehicle_type_id":"4","last_reported":1738829554,"current_range_meters":25600,"station_id":"ce4bgjp2rcd13ifvqbh0","pricing_plan_id":"cebpf4jnsgd1na2vs0mg"},{"bike_id":"cb2e142b-8956-4e08-816f-7dc7ab66ecae","system_id":"levelo_inurba_marseille","lat":43.31706,"lon":5.3777,"is_reserved":false,"is_disabled":false,"rental_uris":{"android":"levelo://app?vid=cb2e142b-8956-4e08-816f-7dc7ab66ecae","ios":"levelo://app?vid=cb2e142b-8956-4e08-816f-7dc7ab66ecae"},"vehicle_type_id":"4","last_reported":1738829554,"current_range_meters":38800,"station_id":"ce4bgth2rcd13ifvqch0","pricing_plan_id":"cebpf4jnsgd1na2vs0mg"},{"bike_id":"69e03564-17f5-44a1-8879-5030df3f7e46","system_id":"levelo_inurba_marseille","lat":43.30146,"lon":5.37423,"is_reserved":false,"is_disabled":false,"rental_uris":{"android":"levelo://app?vid=69e03564-17f5-44a1-8879-5030df3f7e46","ios":"levelo://app?vid=69e03564-17f5-44a1-8879-5030df3f7e46"},"vehicle_type_id":"4","last_reported":1738829554,"current_range_meters":28400,"station_id":"ce4bgs92rcd13ifvqcc0","pricing_plan_id":"cebpf4jnsgd1na2vs0mg"},{"bike_id":"65ba0a5d-7185-49a0-ac1c-710fa5b31319","system_id":"levelo_inurba_marseille","lat":43.29223,"lon":5.36061,"is_reserved":false,"is_disabled":false,"rental_uris":{"android":"levelo://app?vid=65ba0a5d-7185-49a0-ac1c-710fa5b31319","ios":"levelo://app?vid=65ba0a5d-7185-49a0-ac1c-710fa5b31319"},"vehicle_type_id":"4","last_reported":1738829554,"current_range_meters":36800,"station_id":"ce4bhbh2rcd13ifvqeqg","pricing_plan_id":"cebpf4jnsgd1na2vs0mg"},{"bike_id":"b0abb723-72c6-43cf-9217-df332ce37e33","system_id":"levelo_inurba_marseille","lat":43.29959,"lon":5.3652,"is_reserved":false,"is_disabled":true,"rental_uris":{"android":"levelo://app?vid=b0abb723-72c6-43cf-9217-df332ce37e33","ios":"levelo://app?vid=b0abb723-72c6-43cf-9217-df332ce37e33"},"vehicle_type_id":"4","last_reported":1738829554,"current_range_meters":24000,"station_id":"","pricing_plan_id":"cebpf4jnsgd1na2vs0mg"},{"bike_id":"c1c75084-6fe2-45e8-8aa7-83f2021a6f51","system_id":"levelo_inurba_marseille","lat":43.27964,"lon":5.38751,"is_reserved":false,"is_disabled":false,"rental_uris":{"android":"levelo://app?vid=c1c75084-6fe2-45e8-8aa7-83f2021a6f51","ios":"levelo://app?vid=c1c75084-6fe2-45e8-8aa7-83f2021a6f51"},"vehicle_type_id":"4","last_reported":1738829554,"current_range_meters":38000,"station_id":"ce4bhg12rcd13ifvqf80","pricing_plan_id":"cebpf4jnsgd1na2vs0mg"},{"bike_id":"12be4a65-e7b3-4220-9442-37e04da9989a","system_id":"levelo_inurba_marseille","lat":43.27155,"lon":5.40983,"is_reserved":false,"is_disabled":false,"rental_uris":{"android":"levelo://app?vid=12be4a65-e7b3-4220-9442-37e04da9989a","ios":"levelo://app?vid=12be4a65-e7b3-4220-9442-37e04da9989a"},"vehicle_type_id":"4","last_reported":1738829554,"current_range_meters":38800,"station_id":"ce4bhl12rcd13ifvqgf0","pricing_plan_id":"cebpf4jnsgd1na2vs0mg"},{"bike_id":"8604271a-1856-49cc-98e1-13f33c6adfc2","system_id":"levelo_inurba_marseille","lat":43.31386,"lon":5.36755,"is_reserved":false,"is_disabled":false,"rental_uris":{"android":"levelo://app?vid=8604271a-1856-49cc-98e1-13f33c6adfc2","ios":"levelo://app?vid=8604271a-1856-49cc-98e1-13f33c6adfc2"},"vehicle_type_id":"4","last_reported":1738829554,"current_range_meters":39200,"station_id":"ce4bgr92rcd13ifvqc6g","pricing_plan_id":"cebpf4jnsgd1na2vs0mg"},{"bike_id":"091d41d7-c1d3-4cdf-9b5c-052439e6b669","system_id":"levelo_inurba_marseille","lat":43.304887,"lon":5.366706,"is_reserved":false,"is_disabled":true,"rental_uris":{"android":"levelo://app?vid=091d41d7-c1d3-4cdf-9b5c-052439e6b669","ios":"levelo://app?vid=091d41d7-c1d3-4cdf-9b5c-052439e6b669"},"vehicle_type_id":"4","last_reported":1738829554,"current_range_meters":24000,"station_id":"","pricing_plan_id":"cebpf4jnsgd1na2vs0mg"},{"bike_id":"97658022-11d9-44b3-8e7f-2eacbc9ac49d","system_id":"levelo_inurba_marseille","lat":43.30915,"lon":5.3686,"is_reserved":false,"is_disabled":false,"rental_uris":{"android":"levelo://app?vid=97658022-11d9-44b3-8e7f-2eacbc9ac49d","ios":"levelo://app?vid=97658022-11d9-44b3-8e7f-2eacbc9ac49d"},"vehicle_type_id":"4","last_reported":1738829554,"current_range_meters":37600,"station_id":"ce4bgn92rcd13ifvqbvg","pricing_plan_id":"cebpf4jnsgd1na2vs0mg"},{"bike_id":"6c1be009-7c38-4b72-804d-6faea019a649","system_id":"levelo_inurba_marseille","lat":43.27421,"lon":5.39421,"is_reserved":false,"is_disabled":false,"rental_uris":{"android":"levelo://app?vid=6c1be009-7c38-4b72-804d-6faea019a649","ios":"levelo://app?vid=6c1be009-7c38-4b72-804d-6faea019a649"},"vehicle_type_id":"4","last_reported":1738829554,"current_range_meters":31200,"station_id":"ce4bhdp2rcd13ifvqf20","pricing_plan_id":"cebpf4jnsgd1na2vs0mg"},{"bike_id":"84ceea3f-2acb-4726-a314-8e50db407007","system_id":"levelo_inurba_marseille","lat":43.26682,"lon":5.38275,"is_reserved":false,"is_disabled":false,"rental_uris":{"android":"levelo://app?vid=84ceea3f-2acb-4726-a314-8e50db407007","ios":"levelo://app?vid=84ceea3f-2acb-4726-a314-8e50db407007"},"vehicle_type_id":"4","last_reported":1738829554,"current_range_meters":24000,"station_id":"ce4bhg92rcd13ifvqf90","pricing_plan_id":"cebpf4jnsgd1na2vs0mg"},{"bike_id":"a6b2428a-7d23-4892-a3bf-86cc25978b7a","system_id":"levelo_inurba_marseille","lat":43.25507,"lon":5.37657,"is_reserved":false,"is_disabled":true,"rental_uris":{"android":"levelo://app?vid=a6b2428a-7d23-4892-a3bf-86cc25978b7a","ios":"levelo://app?vid=a6b2428a-7d23-4892-a3bf-86cc25978b7a"},"vehicle_type_id":"4","last_reported":1738829554,"current_range_meters":23200,"station_id":"ce4bhh12rcd13ifvqff0","pricing_plan_id":"cebpf4jnsgd1na2vs0mg"},{"bike_id":"f8e45fac-cea0-4f81-a2ff-e6cbfd77d475","system_id":"levelo_inurba_marseille","lat":43.26792,"lon":5.39413,"is_reserved":false,"is_disabled":false,"rental_uris":{"android":"levelo://app?vid=f8e45fac-cea0-4f81-a2ff-e6cbfd77d475","ios":"levelo://app?vid=f8e45fac-cea0-4f81-a2ff-e6cbfd77d475"},"vehicle_type_id":"4","last_reported":1738829554,"current_range_meters":37600,"station_id":"ce4bhh12rcd13ifvqfg0","pricing_plan_id":"cebpf4jnsgd1na2vs0mg"},{"bike_id":"ea51b30d-1640-4c8f-b921-076520204eb4","system_id":"levelo_inurba_marseille","lat":43.27317,"lon":5.39096,"is_reserved":false,"is_disabled":false,"rental_uris":{"android":"levelo://app?vid=ea51b30d-1640-4c8f-b921-076520204eb4","ios":"levelo://app?vid=ea51b30d-1640-4c8f-b921-076520204eb4"},"vehicle_type_id":"4","last_reported":1738829554,"current_range_meters":38800,"station_id":"ce4bhgp2rcd13ifvqfe0","pricing_plan_id":"cebpf4jnsgd1na2vs0mg"},{"bike_id":"c85a26e1-f53e-4ec1-b1ea-8b32d23f1f4d","system_id":"levelo_inurba_marseille","lat":43.23046,"lon":5.35531,"is_reserved":false,"is_disabled":false,"rental_uris":{"android":"levelo://app?vid=c85a26e1-f53e-4ec1-b1ea-8b32d23f1f4d","ios":"levelo://app?vid=c85a26e1-f53e-4ec1-b1ea-8b32d23f1f4d"},"vehicle_type_id":"4","last_reported":1738829554,"current_range_meters":18000,"station_id":"cpo3342slgdg3j2ifvpg","pricing_plan_id":"cebpf4jnsgd1na2vs0mg"},{"bike_id":"d529e8da-992a-4d2b-8995-e05a20345234","system_id":"levelo_inurba_marseille","lat":43.25662,"lon":5.41043,"is_reserved":false,"is_disabled":false,"rental_uris":{"android":"levelo://app?vid=d529e8da-992a-4d2b-8995-e05a20345234","ios":"levelo://app?vid=d529e8da-992a-4d2b-8995-e05a20345234"},"vehicle_type_id":"4","last_reported":1738829554,"current_range_meters":29600,"station_id":"ce4bhkp2rcd13ifvqgd0","pricing_plan_id":"cebpf4jnsgd1na2vs0mg"},{"bike_id":"dec579f0-be88-4c68-b30c-c742337fdb89","system_id":"levelo_inurba_marseille","lat":43.30538,"lon":5.38445,"is_reserved":false,"is_disabled":false,"rental_uris":{"android":"levelo://app?vid=dec579f0-be88-4c68-b30c-c742337fdb89","ios":"levelo://app?vid=dec579f0-be88-4c68-b30c-c742337fdb89"},"vehicle_type_id":"4","last_reported":1738829554,"current_range_meters":8400,"station_id":"ce4bgg92rcd13ifvqb30","pricing_plan_id":"cebpf4jnsgd1na2vs0mg"},{"bike_id":"a8837511-3c1c-48c7-8520-f2dcc3a4ef65","system_id":"levelo_inurba_marseille","lat":43.30299,"lon":5.3688,"is_reserved":false,"is_disabled":false,"rental_uris":{"android":"levelo://app?vid=a8837511-3c1c-48c7-8520-f2dcc3a4ef65","ios":"levelo://app?vid=a8837511-3c1c-48c7-8520-f2dcc3a4ef65"},"vehicle_type_id":"4","last_reported":1738829554,"current_range_meters":18800,"station_id":"ce4bgqh2rcd13ifvqc5g","pricing_plan_id":"cebpf4jnsgd1na2vs0mg"},{"bike_id":"b543782a-16f3-4e79-82e1-af003f0f77db","system_id":"levelo_inurba_marseille","lat":43.32537,"lon":5.41432,"is_reserved":false,"is_disabled":false,"rental_uris":{"android":"levelo://app?vid=b543782a-16f3-4e79-82e1-af003f0f77db","ios":"levelo://app?vid=b543782a-16f3-4e79-82e1-af003f0f77db"},"vehicle_type_id":"4","last_reported":1738829554,"current_range_meters":14800,"station_id":"ce4bhq12rcd13ifvqhhg","pricing_plan_id":"cebpf4jnsgd1na2vs0mg"},{"bike_id":"b53fa945-e9cc-4182-a468-22d651fe530e","system_id":"levelo_inurba_marseille","lat":43.24655,"lon":5.38901,"is_reserved":false,"is_disabled":false,"rental_uris":{"android":"levelo://app?vid=b53fa945-e9cc-4182-a468-22d651fe530e","ios":"levelo://app?vid=b53fa945-e9cc-4182-a468-22d651fe530e"},"vehicle_type_id":"4","last_reported":1738829554,"current_range_meters":17200,"station_id":"ce4bhg12rcd13ifvqf60","pricing_plan_id":"cebpf4jnsgd1na2vs0mg"},{"bike_id":"565d6fca-10b7-4b88-8101-89e4cbc6df92","system_id":"levelo_inurba_marseille","lat":43.28857,"lon":5.35846,"is_reserved":false,"is_disabled":false,"rental_uris":{"android":"levelo://app?vid=565d6fca-10b7-4b88-8101-89e4cbc6df92","ios":"levelo://app?vid=565d6fca-10b7-4b88-8101-89e4cbc6df92"},"vehicle_type_id":"4","last_reported":1738829554,"current_range_meters":36000,"station_id":"ce4bhb12rcd13ifvqem0","pricing_plan_id":"cebpf4jnsgd1na2vs0mg"},{"bike_id":"7dd8aeab-b368-4eed-8f5c-e55a16e8353d","system_id":"levelo_inurba_marseille","lat":43.29909,"lon":5.37459,"is_reserved":false,"is_disabled":false,"rental_uris":{"android":"levelo://app?vid=7dd8aeab-b368-4eed-8f5c-e55a16e8353d","ios":"levelo://app?vid=7dd8aeab-b368-4eed-8f5c-e55a16e8353d"},"vehicle_type_id":"4","last_reported":1738829554,"current_range_meters":26800,"station_id":"ce4bgjh2rcd13ifvqbg0","pricing_plan_id":"cebpf4jnsgd1na2vs0mg"},{"bike_id":"f6abcce2-0993-4345-8889-2e5c8bb1bf44","system_id":"levelo_inurba_marseille","lat":43.23153,"lon":5.4371,"is_reserved":false,"is_disabled":false,"rental_uris":{"android":"levelo://app?vid=f6abcce2-0993-4345-8889-2e5c8bb1bf44","ios":"levelo://app?vid=f6abcce2-0993-4345-8889-2e5c8bb1bf44"},"vehicle_type_id":"4","last_reported":1738829554,"current_range_meters":17600,"station_id":"ce4bhmp2rcd13ifvqgog","pricing_plan_id":"cebpf4jnsgd1na2vs0mg"},{"bike_id":"bfec391f-a951-48b3-8a91-fa55aac51292","system_id":"levelo_inurba_marseille","lat":43.28465,"lon":5.38569,"is_reserved":false,"is_disabled":false,"rental_uris":{"android":"levelo://app?vid=bfec391f-a951-48b3-8a91-fa55aac51292","ios":"levelo://app?vid=bfec391f-a951-48b3-8a91-fa55aac51292"},"vehicle_type_id":"4","last_reported":1738829554,"current_range_meters":30000,"station_id":"ce4bh8p2rcd13ifvqeb0","pricing_plan_id":"cebpf4jnsgd1na2vs0mg"},{"bike_id":"c7c1ae6e-8556-4b65-b8b1-b4fd8e7d90a5","system_id":"levelo_inurba_marseille","lat":43.28417,"lon":5.34977,"is_reserved":false,"is_disabled":false,"rental_uris":{"android":"levelo://app?vid=c7c1ae6e-8556-4b65-b8b1-b4fd8e7d90a5","ios":"levelo://app?vid=c7c1ae6e-8556-4b65-b8b1-b4fd8e7d90a5"},"vehicle_type_id":"4","last_reported":1738829554,"current_range_meters":28000,"station_id":"ce4bhbh2rcd13ifvqepg","pricing_plan_id":"cebpf4jnsgd1na2vs0mg"},{"bike_id":"6a3f47a3-8f7a-4dd2-a856-450fdd8291f6","system_id":"levelo_inurba_marseille","lat":43.30545,"lon":5.36705,"is_reserved":false,"is_disabled":false,"rental_uris":{"android":"levelo://app?vid=6a3f47a3-8f7a-4dd2-a856-450fdd8291f6","ios":"levelo://app?vid=6a3f47a3-8f7a-4dd2-a856-450fdd8291f6"},"vehicle_type_id":"4","last_reported":1738829554,"current_range_meters":30000,"station_id":"ce4bgrp2rcd13ifvqc9g","pricing_plan_id":"cebpf4jnsgd1na2vs0mg"},{"bike_id":"e68d3488-b6e9-4d42-a673-21e601a75114","system_id":"levelo_inurba_marseille","lat":43.25817,"lon":5.39425,"is_reserved":false,"is_disabled":false,"rental_uris":{"android":"levelo://app?vid=e68d3488-b6e9-4d42-a673-21e601a75114","ios":"levelo://app?vid=e68d3488-b6e9-4d42-a673-21e601a75114"},"vehicle_type_id":"4","last_reported":1738829554,"current_range_meters":8400,"station_id":"ce4bhip2rcd13ifvqft0","pricing_plan_id":"cebpf4jnsgd1na2vs0mg"},{"bike_id":"1f60af65-67e4-4506-92ce-b099d71368bc","system_id":"levelo_inurba_marseille","lat":43.27364,"lon":5.36264,"is_reserved":false,"is_disabled":false,"rental_uris":{"android":"levelo://app?vid=1f60af65-67e4-4506-92ce-b099d71368bc","ios":"levelo://app?vid=1f60af65-67e4-4506-92ce-b099d71368bc"},"vehicle_type_id":"4","last_reported":1738829554,"current_range_meters":38000,"station_id":"ce4bhbh2rcd13ifvqeo0","pricing_plan_id":"cebpf4jnsgd1na2vs0mg"},{"bike_id":"7e8a0b28-3f8b-4de5-a3dd-c9e16385764f","system_id":"levelo_inurba_marseille","lat":43.26053,"lon":5.39389,"is_reserved":false,"is_disabled":false,"rental_uris":{"android":"levelo://app?vid=7e8a0b28-3f8b-4de5-a3dd-c9e16385764f","ios":"levelo://app?vid=7e8a0b28-3f8b-4de5-a3dd-c9e16385764f"},"vehicle_type_id":"4","last_reported":1738829554,"current_range_meters":39200,"station_id":"ce4bhh92rcd13ifvqfj0","pricing_plan_id":"cebpf4jnsgd1na2vs0mg"},{"bike_id":"24014241-5b95-4a31-94b3-518cf14b5577","system_id":"levelo_inurba_marseille","lat":43.30784,"lon":5.37659,"is_reserved":false,"is_disabled":false,"rental_uris":{"android":"levelo://app?vid=24014241-5b95-4a31-94b3-518cf14b5577","ios":"levelo://app?vid=24014241-5b95-4a31-94b3-518cf14b5577"},"vehicle_type_id":"4","last_reported":1738829554,"current_range_meters":26800,"station_id":"ce4bgv92rcd13ifvqcq0","pricing_plan_id":"cebpf4jnsgd1na2vs0mg"},{"bike_id":"a9d2cdd8-e8cc-40c9-87d7-d5a1d12197b1","system_id":"levelo_inurba_marseille","lat":43.27489,"lon":5.42476,"is_reserved":false,"is_disabled":false,"rental_uris":{"android":"levelo://app?vid=a9d2cdd8-e8cc-40c9-87d7-d5a1d12197b1","ios":"levelo://app?vid=a9d2cdd8-e8cc-40c9-87d7-d5a1d12197b1"},"vehicle_type_id":"4","last_reported":1738829554,"current_range_meters":38400,"station_id":"ce4bhn92rcd13ifvqgrg","pricing_plan_id":"cebpf4jnsgd1na2vs0mg"},{"bike_id":"02c10881-a574-4412-870d-a8a1969c9255","system_id":"levelo_inurba_marseille","lat":43.29036,"lon":5.39952,"is_reserved":false,"is_disabled":false,"rental_uris":{"android":"levelo://app?vid=02c10881-a574-4412-870d-a8a1969c9255","ios":"levelo://app?vid=02c10881-a574-4412-870d-a8a1969c9255"},"vehicle_type_id":"4","last_reported":1738829554,"current_range_meters":38800,"station_id":"ce4bh392rcd13ifvqdm0","pricing_plan_id":"cebpf4jnsgd1na2vs0mg"},{"bike_id":"9193840a-a4d3-45d8-a9f7-dfd661a76b64","system_id":"levelo_inurba_marseille","lat":43.31332,"lon":5.36726,"is_reserved":false,"is_disabled":false,"rental_uris":{"android":"levelo://app?vid=9193840a-a4d3-45d8-a9f7-dfd661a76b64","ios":"levelo://app?vid=9193840a-a4d3-45d8-a9f7-dfd661a76b64"},"vehicle_type_id":"4","last_reported":1738829554,"current_range_meters":38800,"station_id":"ce4bgr92rcd13ifvqc6g","pricing_plan_id":"cebpf4jnsgd1na2vs0mg"},{"bike_id":"4192ff53-a065-47b9-9c91-03ac6066ceaf","system_id":"levelo_inurba_marseille","lat":43.27073,"lon":5.4228,"is_reserved":false,"is_disabled":false,"rental_uris":{"android":"levelo://app?vid=4192ff53-a065-47b9-9c91-03ac6066ceaf","ios":"levelo://app?vid=4192ff53-a065-47b9-9c91-03ac6066ceaf"},"vehicle_type_id":"4","last_reported":1738829554,"current_range_meters":18000,"station_id":"ce4bhk92rcd13ifvqgb0","pricing_plan_id":"cebpf4jnsgd1na2vs0mg"},{"bike_id":"35b0fbe6-22db-46fb-a54a-76af362a8729","system_id":"levelo_inurba_marseille","lat":43.29965,"lon":5.41358,"is_reserved":false,"is_disabled":false,"rental_uris":{"android":"levelo://app?vid=35b0fbe6-22db-46fb-a54a-76af362a8729","ios":"levelo://app?vid=35b0fbe6-22db-46fb-a54a-76af362a8729"},"vehicle_type_id":"4","last_reported":1738829554,"current_range_meters":34800,"station_id":"ce4bhp12rcd13ifvqh9g","pricing_plan_id":"cebpf4jnsgd1na2vs0mg"},{"bike_id":"88ce7e1b-d6f8-4620-beef-be982f304f3e","system_id":"levelo_inurba_marseille","lat":43.32102,"lon":5.36795,"is_reserved":false,"is_disabled":false,"rental_uris":{"android":"levelo://app?vid=88ce7e1b-d6f8-4620-beef-be982f304f3e","ios":"levelo://app?vid=88ce7e1b-d6f8-4620-beef-be982f304f3e"},"vehicle_type_id":"4","last_reported":1738829554,"current_range_meters":38000,"station_id":"ce4bhrh2rcd13ifvqhug","pricing_plan_id":"cebpf4jnsgd1na2vs0mg"},{"bike_id":"344d1955-5263-40eb-a201-ab603aa02c10","system_id":"levelo_inurba_marseille","lat":43.23967,"lon":5.366303,"is_reserved":false,"is_disabled":false,"rental_uris":{"android":"levelo://app?vid=344d1955-5263-40eb-a201-ab603aa02c10","ios":"levelo://app?vid=344d1955-5263-40eb-a201-ab603aa02c10"},"vehicle_type_id":"4","last_reported":1738829554,"current_range_meters":38000,"station_id":"ce4bhi12rcd13ifvqfp0","pricing_plan_id":"cebpf4jnsgd1na2vs0mg"},{"bike_id":"0083c554-f72b-4dec-a9ea-993a6d3d9431","system_id":"levelo_inurba_marseille","lat":43.27054,"lon":5.40262,"is_reserved":false,"is_disabled":false,"rental_uris":{"android":"levelo://app?vid=0083c554-f72b-4dec-a9ea-993a6d3d9431","ios":"levelo://app?vid=0083c554-f72b-4dec-a9ea-993a6d3d9431"},"vehicle_type_id":"4","last_reported":1738829554,"current_range_meters":6400,"station_id":"ce4bhk92rcd13ifvqgc0","pricing_plan_id":"cebpf4jnsgd1na2vs0mg"},{"bike_id":"41a7c36a-2ba7-456e-9776-92a30f133957","system_id":"levelo_inurba_marseille","lat":43.27211,"lon":5.39185,"is_reserved":false,"is_disabled":false,"rental_uris":{"android":"levelo://app?vid=41a7c36a-2ba7-456e-9776-92a30f133957","ios":"levelo://app?vid=41a7c36a-2ba7-456e-9776-92a30f133957"},"vehicle_type_id":"4","last_reported":1738829554,"current_range_meters":36800,"station_id":"ce4bhhp2rcd13ifvqfm0","pricing_plan_id":"cebpf4jnsgd1na2vs0mg"},{"bike_id":"2f9a6647-bfb0-4c5f-b2d5-6b23d0794b76","system_id":"levelo_inurba_marseille","lat":43.25572,"lon":5.38247,"is_reserved":false,"is_disabled":true,"rental_uris":{"android":"levelo://app?vid=2f9a6647-bfb0-4c5f-b2d5-6b23d0794b76","ios":"levelo://app?vid=2f9a6647-bfb0-4c5f-b2d5-6b23d0794b76"},"vehicle_type_id":"4","last_reported":1738829554,"current_range_meters":35600,"station_id":"ce4bhih2rcd13ifvqfs0","pricing_plan_id":"cebpf4jnsgd1na2vs0mg"},{"bike_id":"d25a4504-17d4-4308-88f8-6085b6b06f28","system_id":"levelo_inurba_marseille","lat":43.28942,"lon":5.36397,"is_reserved":false,"is_disabled":true,"rental_uris":{"android":"levelo://app?vid=d25a4504-17d4-4308-88f8-6085b6b06f28","ios":"levelo://app?vid=d25a4504-17d4-4308-88f8-6085b6b06f28"},"vehicle_type_id":"4","last_reported":1738829554,"current_range_meters":17600,"station_id":"ce4bhc92rcd13ifvqetg","pricing_plan_id":"cebpf4jnsgd1na2vs0mg"},{"bike_id":"be98d1a4-25d6-4e7e-ac77-f18d78a92b9d","system_id":"levelo_inurba_marseille","lat":43.28159,"lon":5.42647,"is_reserved":false,"is_disabled":false,"rental_uris":{"android":"levelo://app?vid=be98d1a4-25d6-4e7e-ac77-f18d78a92b9d","ios":"levelo://app?vid=be98d1a4-25d6-4e7e-ac77-f18d78a92b9d"},"vehicle_type_id":"4","last_reported":1738829554,"current_range_meters":8000,"station_id":"ce4bhnh2rcd13ifvqgug","pricing_plan_id":"cebpf4jnsgd1na2vs0mg"},{"bike_id":"786af5a6-7181-4746-8e7c-5055a97f6274","system_id":"levelo_inurba_marseille","lat":43.28147,"lon":5.42659,"is_reserved":false,"is_disabled":true,"rental_uris":{"android":"levelo://app?vid=786af5a6-7181-4746-8e7c-5055a97f6274","ios":"levelo://app?vid=786af5a6-7181-4746-8e7c-5055a97f6274"},"vehicle_type_id":"4","last_reported":1738829554,"current_range_meters":28800,"station_id":"ce4bhnh2rcd13ifvqgug","pricing_plan_id":"cebpf4jnsgd1na2vs0mg"},{"bike_id":"27f7072b-8496-4097-bb5a-57ff35102e4f","system_id":"levelo_inurba_marseille","lat":43.30905,"lon":5.36846,"is_reserved":false,"is_disabled":false,"rental_uris":{"android":"levelo://app?vid=27f7072b-8496-4097-bb5a-57ff35102e4f","ios":"levelo://app?vid=27f7072b-8496-4097-bb5a-57ff35102e4f"},"vehicle_type_id":"4","last_reported":1738829554,"current_range_meters":6400,"station_id":"ce4bgn92rcd13ifvqbvg","pricing_plan_id":"cebpf4jnsgd1na2vs0mg"},{"bike_id":"e15065a6-8250-416b-8039-693e48ff6eed","system_id":"levelo_inurba_marseille","lat":43.2417,"lon":5.39726,"is_reserved":false,"is_disabled":false,"rental_uris":{"android":"levelo://app?vid=e15065a6-8250-416b-8039-693e48ff6eed","ios":"levelo://app?vid=e15065a6-8250-416b-8039-693e48ff6eed"},"vehicle_type_id":"4","last_reported":1738829554,"current_range_meters":38800,"station_id":"ce4bhn12rcd13ifvqgpg","pricing_plan_id":"cebpf4jnsgd1na2vs0mg"},{"bike_id":"50b15991-9296-4df6-b1a6-725aba7e366c","system_id":"levelo_inurba_marseille","lat":43.2586,"lon":5.39898,"is_reserved":false,"is_disabled":false,"rental_uris":{"android":"levelo://app?vid=50b15991-9296-4df6-b1a6-725aba7e366c","ios":"levelo://app?vid=50b15991-9296-4df6-b1a6-725aba7e366c"},"vehicle_type_id":"4","last_reported":1738829554,"current_range_meters":36800,"station_id":"ce4bhl92rcd13ifvqghg","pricing_plan_id":"cebpf4jnsgd1na2vs0mg"},{"bike_id":"4c76cb7e-eca9-438f-a4b3-b0ceeafe88c7","system_id":"levelo_inurba_marseille","lat":43.30903,"lon":5.36904,"is_reserved":false,"is_disabled":false,"rental_uris":{"android":"levelo://app?vid=4c76cb7e-eca9-438f-a4b3-b0ceeafe88c7","ios":"levelo://app?vid=4c76cb7e-eca9-438f-a4b3-b0ceeafe88c7"},"vehicle_type_id":"4","last_reported":1738829554,"current_range_meters":6800,"station_id":"ce4bgn92rcd13ifvqbvg","pricing_plan_id":"cebpf4jnsgd1na2vs0mg"},{"bike_id":"dea3caf3-4372-452d-a8b7-101a967d7129","system_id":"levelo_inurba_marseille","lat":43.24176,"lon":5.39731,"is_reserved":false,"is_disabled":false,"rental_uris":{"android":"levelo://app?vid=dea3caf3-4372-452d-a8b7-101a967d7129","ios":"levelo://app?vid=dea3caf3-4372-452d-a8b7-101a967d7129"},"vehicle_type_id":"4","last_reported":1738829554,"current_range_meters":16800,"station_id":"ce4bhn12rcd13ifvqgpg","pricing_plan_id":"cebpf4jnsgd1na2vs0mg"},{"bike_id":"43dbcacd-347c-4beb-a600-5c3d96b4b244","system_id":"levelo_inurba_marseille","lat":43.23186,"lon":5.39996,"is_reserved":false,"is_disabled":false,"rental_uris":{"android":"levelo://app?vid=43dbcacd-347c-4beb-a600-5c3d96b4b244","ios":"levelo://app?vid=43dbcacd-347c-4beb-a600-5c3d96b4b244"},"vehicle_type_id":"4","last_reported":1738829554,"current_range_meters":38800,"station_id":"ce4bhn12rcd13ifvqgqg","pricing_plan_id":"cebpf4jnsgd1na2vs0mg"},{"bike_id":"1c546c5a-4fff-4f8b-bd8b-8f4fe9cbba43","system_id":"levelo_inurba_marseille","lat":43.28945,"lon":5.36644,"is_reserved":false,"is_disabled":false,"rental_uris":{"android":"levelo://app?vid=1c546c5a-4fff-4f8b-bd8b-8f4fe9cbba43","ios":"levelo://app?vid=1c546c5a-4fff-4f8b-bd8b-8f4fe9cbba43"},"vehicle_type_id":"4","last_reported":1738829554,"current_range_meters":38800,"station_id":"ce4bhap2rcd13ifvqek0","pricing_plan_id":"cebpf4jnsgd1na2vs0mg"},{"bike_id":"9b7355dc-7165-40f0-8cd2-81f22484ab5d","system_id":"levelo_inurba_marseille","lat":43.23954,"lon":5.36653,"is_reserved":false,"is_disabled":false,"rental_uris":{"android":"levelo://app?vid=9b7355dc-7165-40f0-8cd2-81f22484ab5d","ios":"levelo://app?vid=9b7355dc-7165-40f0-8cd2-81f22484ab5d"},"vehicle_type_id":"4","last_reported":1738829554,"current_range_meters":32800,"station_id":"ce4bhi12rcd13ifvqfp0","pricing_plan_id":"cebpf4jnsgd1na2vs0mg"},{"bike_id":"9b19789b-537f-4ed5-92aa-6fda84d65c3e","system_id":"levelo_inurba_marseille","lat":43.30909,"lon":5.3685,"is_reserved":false,"is_disabled":false,"rental_uris":{"android":"levelo://app?vid=9b19789b-537f-4ed5-92aa-6fda84d65c3e","ios":"levelo://app?vid=9b19789b-537f-4ed5-92aa-6fda84d65c3e"},"vehicle_type_id":"4","last_reported":1738829554,"current_range_meters":18800,"station_id":"ce4bgn92rcd13ifvqbvg","pricing_plan_id":"cebpf4jnsgd1na2vs0mg"},{"bike_id":"5faf1ae7-8dab-473f-a1d4-d668766e2b45","system_id":"levelo_inurba_marseille","lat":43.26678,"lon":5.38272,"is_reserved":false,"is_disabled":false,"rental_uris":{"android":"levelo://app?vid=5faf1ae7-8dab-473f-a1d4-d668766e2b45","ios":"levelo://app?vid=5faf1ae7-8dab-473f-a1d4-d668766e2b45"},"vehicle_type_id":"4","last_reported":1738829554,"current_range_meters":27600,"station_id":"ce4bhg92rcd13ifvqf90","pricing_plan_id":"cebpf4jnsgd1na2vs0mg"},{"bike_id":"931c3b97-cce1-4ebe-a291-6c50a6f2810e","system_id":"levelo_inurba_marseille","lat":43.31808,"lon":5.37416,"is_reserved":false,"is_disabled":true,"rental_uris":{"android":"levelo://app?vid=931c3b97-cce1-4ebe-a291-6c50a6f2810e","ios":"levelo://app?vid=931c3b97-cce1-4ebe-a291-6c50a6f2810e"},"vehicle_type_id":"4","last_reported":1738829554,"current_range_meters":2000,"station_id":"","pricing_plan_id":"cebpf4jnsgd1na2vs0mg"},{"bike_id":"b9452b32-8f5d-4c98-bc11-fee58cf523e3","system_id":"levelo_inurba_marseille","lat":43.299023,"lon":5.436606,"is_reserved":false,"is_disabled":false,"rental_uris":{"android":"levelo://app?vid=b9452b32-8f5d-4c98-bc11-fee58cf523e3","ios":"levelo://app?vid=b9452b32-8f5d-4c98-bc11-fee58cf523e3"},"vehicle_type_id":"4","last_reported":1738829554,"current_range_meters":20800,"station_id":"ce4bhpp2rcd13ifvqhfg","pricing_plan_id":"cebpf4jnsgd1na2vs0mg"},{"bike_id":"b553fb90-bc31-4d0d-b0ad-01b7ba79c22e","system_id":"levelo_inurba_marseille","lat":43.24997,"lon":5.38945,"is_reserved":false,"is_disabled":false,"rental_uris":{"android":"levelo://app?vid=b553fb90-bc31-4d0d-b0ad-01b7ba79c22e","ios":"levelo://app?vid=b553fb90-bc31-4d0d-b0ad-01b7ba79c22e"},"vehicle_type_id":"4","last_reported":1738829554,"current_range_meters":19200,"station_id":"ce4bhgp2rcd13ifvqfd0","pricing_plan_id":"cebpf4jnsgd1na2vs0mg"},{"bike_id":"13b3b6a1-f920-47ec-ad77-f4e3fb2eb0d2","system_id":"levelo_inurba_marseille","lat":43.25818,"lon":5.39435,"is_reserved":false,"is_disabled":false,"rental_uris":{"android":"levelo://app?vid=13b3b6a1-f920-47ec-ad77-f4e3fb2eb0d2","ios":"levelo://app?vid=13b3b6a1-f920-47ec-ad77-f4e3fb2eb0d2"},"vehicle_type_id":"4","last_reported":1738829554,"current_range_meters":39200,"station_id":"ce4bhip2rcd13ifvqft0","pricing_plan_id":"cebpf4jnsgd1na2vs0mg"},{"bike_id":"606a8f1d-223e-46f0-94eb-58a27a8d8c60","system_id":"levelo_inurba_marseille","lat":43.25937,"lon":5.40903,"is_reserved":false,"is_disabled":false,"rental_uris":{"android":"levelo://app?vid=606a8f1d-223e-46f0-94eb-58a27a8d8c60","ios":"levelo://app?vid=606a8f1d-223e-46f0-94eb-58a27a8d8c60"},"vehicle_type_id":"4","last_reported":1738829554,"current_range_meters":28400,"station_id":"ce4bhm92rcd13ifvqglg","pricing_plan_id":"cebpf4jnsgd1na2vs0mg"},{"bike_id":"bdbb2f1a-3b99-46da-aad3-ace10a502c3d","system_id":"levelo_inurba_marseille","lat":43.29032,"lon":5.39989,"is_reserved":false,"is_disabled":false,"rental_uris":{"android":"levelo://app?vid=bdbb2f1a-3b99-46da-aad3-ace10a502c3d","ios":"levelo://app?vid=bdbb2f1a-3b99-46da-aad3-ace10a502c3d"},"vehicle_type_id":"4","last_reported":1738829554,"current_range_meters":30400,"station_id":"ce4bh392rcd13ifvqdm0","pricing_plan_id":"cebpf4jnsgd1na2vs0mg"},{"bike_id":"6100990f-c4b7-4419-ab12-3d9c2a9f7c81","system_id":"levelo_inurba_marseille","lat":43.28269,"lon":5.3508,"is_reserved":false,"is_disabled":false,"rental_uris":{"android":"levelo://app?vid=6100990f-c4b7-4419-ab12-3d9c2a9f7c81","ios":"levelo://app?vid=6100990f-c4b7-4419-ab12-3d9c2a9f7c81"},"vehicle_type_id":"4","last_reported":1738829554,"current_range_meters":35600,"station_id":"ce4bhbp2rcd13ifvqerg","pricing_plan_id":"cebpf4jnsgd1na2vs0mg"},{"bike_id":"882e8fc1-37ea-47a3-bd20-59a91b80d30f","system_id":"levelo_inurba_marseille","lat":43.29807,"lon":5.38089,"is_reserved":false,"is_disabled":false,"rental_uris":{"android":"levelo://app?vid=882e8fc1-37ea-47a3-bd20-59a91b80d30f","ios":"levelo://app?vid=882e8fc1-37ea-47a3-bd20-59a91b80d30f"},"vehicle_type_id":"4","last_reported":1738829554,"current_range_meters":38800,"station_id":"ce4bgip2rcd13ifvqbb0","pricing_plan_id":"cebpf4jnsgd1na2vs0mg"},{"bike_id":"b4dd11d9-f5c3-4a76-8fd4-886358e2197a","system_id":"levelo_inurba_marseille","lat":43.28431,"lon":5.39196,"is_reserved":false,"is_disabled":false,"rental_uris":{"android":"levelo://app?vid=b4dd11d9-f5c3-4a76-8fd4-886358e2197a","ios":"levelo://app?vid=b4dd11d9-f5c3-4a76-8fd4-886358e2197a"},"vehicle_type_id":"4","last_reported":1738829554,"current_range_meters":38000,"station_id":"ce4bhoh2rcd13ifvqh5g","pricing_plan_id":"cebpf4jnsgd1na2vs0mg"},{"bike_id":"911f4bca-2035-4b31-a700-e992630ca766","system_id":"levelo_inurba_marseille","lat":43.26058,"lon":5.39406,"is_reserved":false,"is_disabled":false,"rental_uris":{"android":"levelo://app?vid=911f4bca-2035-4b31-a700-e992630ca766","ios":"levelo://app?vid=911f4bca-2035-4b31-a700-e992630ca766"},"vehicle_type_id":"4","last_reported":1738829554,"current_range_meters":27600,"station_id":"ce4bhh92rcd13ifvqfj0","pricing_plan_id":"cebpf4jnsgd1na2vs0mg"},{"bike_id":"0573d8db-ba52-4804-8faa-a5b4241c13e3","system_id":"levelo_inurba_marseille","lat":43.30941,"lon":5.39048,"is_reserved":false,"is_disabled":false,"rental_uris":{"android":"levelo://app?vid=0573d8db-ba52-4804-8faa-a5b4241c13e3","ios":"levelo://app?vid=0573d8db-ba52-4804-8faa-a5b4241c13e3"},"vehicle_type_id":"4","last_reported":1738829554,"current_range_meters":38400,"station_id":"ce4bgup2rcd13ifvqco0","pricing_plan_id":"cebpf4jnsgd1na2vs0mg"},{"bike_id":"0022f75c-ba13-4ecf-bcf1-cd2d261a34ce","system_id":"levelo_inurba_marseille","lat":43.24667,"lon":5.38166,"is_reserved":false,"is_disabled":false,"rental_uris":{"android":"levelo://app?vid=0022f75c-ba13-4ecf-bcf1-cd2d261a34ce","ios":"levelo://app?vid=0022f75c-ba13-4ecf-bcf1-cd2d261a34ce"},"vehicle_type_id":"4","last_reported":1738829554,"current_range_meters":37600,"station_id":"ce4bhih2rcd13ifvqfr0","pricing_plan_id":"cebpf4jnsgd1na2vs0mg"},{"bike_id":"21d1a37a-03a1-4e74-816d-c387c321d954","system_id":"levelo_inurba_marseille","lat":43.29575,"lon":5.37513,"is_reserved":false,"is_disabled":false,"rental_uris":{"android":"levelo://app?vid=21d1a37a-03a1-4e74-816d-c387c321d954","ios":"levelo://app?vid=21d1a37a-03a1-4e74-816d-c387c321d954"},"vehicle_type_id":"4","last_reported":1738829554,"current_range_meters":26000,"station_id":"ce4bgh92rcd13ifvqb50","pricing_plan_id":"cebpf4jnsgd1na2vs0mg"},{"bike_id":"3112f45f-0119-4c79-97f5-b10928fae186","system_id":"levelo_inurba_marseille","lat":43.28603,"lon":5.37044,"is_reserved":false,"is_disabled":false,"rental_uris":{"android":"levelo://app?vid=3112f45f-0119-4c79-97f5-b10928fae186","ios":"levelo://app?vid=3112f45f-0119-4c79-97f5-b10928fae186"},"vehicle_type_id":"4","last_reported":1738829554,"current_range_meters":26000,"station_id":"ce4bht12rcd13ifvqi60","pricing_plan_id":"cebpf4jnsgd1na2vs0mg"},{"bike_id":"f66bb5d9-3da6-4930-bf55-0906bcacbe5b","system_id":"levelo_inurba_marseille","lat":43.2836,"lon":5.3812,"is_reserved":false,"is_disabled":false,"rental_uris":{"android":"levelo://app?vid=f66bb5d9-3da6-4930-bf55-0906bcacbe5b","ios":"levelo://app?vid=f66bb5d9-3da6-4930-bf55-0906bcacbe5b"},"vehicle_type_id":"4","last_reported":1738829554,"current_range_meters":35200,"station_id":"ce4bh412rcd13ifvqdr0","pricing_plan_id":"cebpf4jnsgd1na2vs0mg"},{"bike_id":"504767d4-8796-46e2-bb94-19fcbc3f75db","system_id":"levelo_inurba_marseille","lat":43.27487,"lon":5.42443,"is_reserved":false,"is_disabled":false,"rental_uris":{"android":"levelo://app?vid=504767d4-8796-46e2-bb94-19fcbc3f75db","ios":"levelo://app?vid=504767d4-8796-46e2-bb94-19fcbc3f75db"},"vehicle_type_id":"4","last_reported":1738829554,"current_range_meters":19200,"station_id":"ce4bhn92rcd13ifvqgrg","pricing_plan_id":"cebpf4jnsgd1na2vs0mg"},{"bike_id":"bc4186b3-1073-492b-ab95-0326a7b12d0e","system_id":"levelo_inurba_marseille","lat":43.28408,"lon":5.35011,"is_reserved":false,"is_disabled":false,"rental_uris":{"android":"levelo://app?vid=bc4186b3-1073-492b-ab95-0326a7b12d0e","ios":"levelo://app?vid=bc4186b3-1073-492b-ab95-0326a7b12d0e"},"vehicle_type_id":"4","last_reported":1738829554,"current_range_meters":32400,"station_id":"ce4bhbh2rcd13ifvqepg","pricing_plan_id":"cebpf4jnsgd1na2vs0mg"},{"bike_id":"70fbe035-321d-404d-abb5-90c57c24fee3","system_id":"levelo_inurba_marseille","lat":43.299053,"lon":5.381293,"is_reserved":false,"is_disabled":true,"rental_uris":{"android":"levelo://app?vid=70fbe035-321d-404d-abb5-90c57c24fee3","ios":"levelo://app?vid=70fbe035-321d-404d-abb5-90c57c24fee3"},"vehicle_type_id":"4","last_reported":1738829554,"current_range_meters":0,"station_id":"ce4bgj12rcd13ifvqbc0","pricing_plan_id":"cebpf4jnsgd1na2vs0mg"},{"bike_id":"6d761807-90b5-4ec6-8237-30bc7ca7f4c0","system_id":"levelo_inurba_marseille","lat":43.25819,"lon":5.39444,"is_reserved":false,"is_disabled":false,"rental_uris":{"android":"levelo://app?vid=6d761807-90b5-4ec6-8237-30bc7ca7f4c0","ios":"levelo://app?vid=6d761807-90b5-4ec6-8237-30bc7ca7f4c0"},"vehicle_type_id":"4","last_reported":1738829554,"current_range_meters":38400,"station_id":"ce4bhip2rcd13ifvqft0","pricing_plan_id":"cebpf4jnsgd1na2vs0mg"},{"bike_id":"eeeb7a04-0f26-41a9-88a1-9d9a641daae7","system_id":"levelo_inurba_marseille","lat":43.27472,"lon":5.42451,"is_reserved":false,"is_disabled":false,"rental_uris":{"android":"levelo://app?vid=eeeb7a04-0f26-41a9-88a1-9d9a641daae7","ios":"levelo://app?vid=eeeb7a04-0f26-41a9-88a1-9d9a641daae7"},"vehicle_type_id":"4","last_reported":1738829554,"current_range_meters":28800,"station_id":"ce4bhn92rcd13ifvqgrg","pricing_plan_id":"cebpf4jnsgd1na2vs0mg"},{"bike_id":"95823b3e-f00f-4f48-8ff1-d3edc43e838e","system_id":"levelo_inurba_marseille","lat":43.24805,"lon":5.37472,"is_reserved":false,"is_disabled":false,"rental_uris":{"android":"levelo://app?vid=95823b3e-f00f-4f48-8ff1-d3edc43e838e","ios":"levelo://app?vid=95823b3e-f00f-4f48-8ff1-d3edc43e838e"},"vehicle_type_id":"4","last_reported":1738829554,"current_range_meters":28400,"station_id":"ce4bhgh2rcd13ifvqfb0","pricing_plan_id":"cebpf4jnsgd1na2vs0mg"},{"bike_id":"f2f5faee-8807-4570-acdb-9ab56ad43b0b","system_id":"levelo_inurba_marseille","lat":43.31341,"lon":5.36719,"is_reserved":false,"is_disabled":false,"rental_uris":{"android":"levelo://app?vid=f2f5faee-8807-4570-acdb-9ab56ad43b0b","ios":"levelo://app?vid=f2f5faee-8807-4570-acdb-9ab56ad43b0b"},"vehicle_type_id":"4","last_reported":1738829554,"current_range_meters":27600,"station_id":"ce4bgr92rcd13ifvqc6g","pricing_plan_id":"cebpf4jnsgd1na2vs0mg"},{"bike_id":"2b52254f-933d-4903-ac07-21eb27a1e798","system_id":"levelo_inurba_marseille","lat":43.27185,"lon":5.41002,"is_reserved":false,"is_disabled":false,"rental_uris":{"android":"levelo://app?vid=2b52254f-933d-4903-ac07-21eb27a1e798","ios":"levelo://app?vid=2b52254f-933d-4903-ac07-21eb27a1e798"},"vehicle_type_id":"4","last_reported":1738829554,"current_range_meters":36800,"station_id":"ce4bhl12rcd13ifvqgf0","pricing_plan_id":"cebpf4jnsgd1na2vs0mg"},{"bike_id":"5181dc82-4f4d-45a5-b17e-fb03d054d9d9","system_id":"levelo_inurba_marseille","lat":43.28852,"lon":5.35862,"is_reserved":false,"is_disabled":false,"rental_uris":{"android":"levelo://app?vid=5181dc82-4f4d-45a5-b17e-fb03d054d9d9","ios":"levelo://app?vid=5181dc82-4f4d-45a5-b17e-fb03d054d9d9"},"vehicle_type_id":"4","last_reported":1738829554,"current_range_meters":14400,"station_id":"ce4bhb12rcd13ifvqem0","pricing_plan_id":"cebpf4jnsgd1na2vs0mg"},{"bike_id":"599cece5-0d29-4e11-b46b-81ed71253738","system_id":"levelo_inurba_marseille","lat":43.27997,"lon":5.41672,"is_reserved":false,"is_disabled":false,"rental_uris":{"android":"levelo://app?vid=599cece5-0d29-4e11-b46b-81ed71253738","ios":"levelo://app?vid=599cece5-0d29-4e11-b46b-81ed71253738"},"vehicle_type_id":"4","last_reported":1738829554,"current_range_meters":30400,"station_id":"ce4bho12rcd13ifvqh1g","pricing_plan_id":"cebpf4jnsgd1na2vs0mg"},{"bike_id":"6d3ec936-088f-4802-ba95-2c0493d6c98e","system_id":"levelo_inurba_marseille","lat":43.27494,"lon":5.42458,"is_reserved":false,"is_disabled":false,"rental_uris":{"android":"levelo://app?vid=6d3ec936-088f-4802-ba95-2c0493d6c98e","ios":"levelo://app?vid=6d3ec936-088f-4802-ba95-2c0493d6c98e"},"vehicle_type_id":"4","last_reported":1738829554,"current_range_meters":11200,"station_id":"ce4bhn92rcd13ifvqgrg","pricing_plan_id":"cebpf4jnsgd1na2vs0mg"},{"bike_id":"52990ad3-a46b-4f6e-b6b0-37c9c50197a1","system_id":"levelo_inurba_marseille","lat":43.3175,"lon":5.39037,"is_reserved":false,"is_disabled":false,"rental_uris":{"android":"levelo://app?vid=52990ad3-a46b-4f6e-b6b0-37c9c50197a1","ios":"levelo://app?vid=52990ad3-a46b-4f6e-b6b0-37c9c50197a1"},"vehicle_type_id":"4","last_reported":1738829554,"current_range_meters":38800,"station_id":"ce4bhqp2rcd13ifvqhng","pricing_plan_id":"cebpf4jnsgd1na2vs0mg"},{"bike_id":"407915f2-41ff-4297-882f-2cad73cc62b4","system_id":"levelo_inurba_marseille","lat":43.30903,"lon":5.36847,"is_reserved":false,"is_disabled":false,"rental_uris":{"android":"levelo://app?vid=407915f2-41ff-4297-882f-2cad73cc62b4","ios":"levelo://app?vid=407915f2-41ff-4297-882f-2cad73cc62b4"},"vehicle_type_id":"4","last_reported":1738829554,"current_range_meters":27600,"station_id":"ce4bgn92rcd13ifvqbvg","pricing_plan_id":"cebpf4jnsgd1na2vs0mg"},{"bike_id":"0da13c80-55fb-483d-bc78-309d72f0175e","system_id":"levelo_inurba_marseille","lat":43.29061,"lon":5.3718,"is_reserved":false,"is_disabled":false,"rental_uris":{"android":"levelo://app?vid=0da13c80-55fb-483d-bc78-309d72f0175e","ios":"levelo://app?vid=0da13c80-55fb-483d-bc78-309d72f0175e"},"vehicle_type_id":"4","last_reported":1738829554,"current_range_meters":16000,"station_id":"ce4bh5p2rcd13ifvqe4g","pricing_plan_id":"cebpf4jnsgd1na2vs0mg"},{"bike_id":"bc3a20aa-daf6-4c5e-ac1c-17a251997803","system_id":"levelo_inurba_marseille","lat":43.2455,"lon":5.39536,"is_reserved":false,"is_disabled":false,"rental_uris":{"android":"levelo://app?vid=bc3a20aa-daf6-4c5e-ac1c-17a251997803","ios":"levelo://app?vid=bc3a20aa-daf6-4c5e-ac1c-17a251997803"},"vehicle_type_id":"4","last_reported":1738829554,"current_range_meters":38000,"station_id":"ce4bhlp2rcd13ifvqgjg","pricing_plan_id":"cebpf4jnsgd1na2vs0mg"},{"bike_id":"835814d5-bb87-4a97-b682-d56e361a27f1","system_id":"levelo_inurba_marseille","lat":43.29557,"lon":5.42296,"is_reserved":false,"is_disabled":false,"rental_uris":{"android":"levelo://app?vid=835814d5-bb87-4a97-b682-d56e361a27f1","ios":"levelo://app?vid=835814d5-bb87-4a97-b682-d56e361a27f1"},"vehicle_type_id":"4","last_reported":1738829554,"current_range_meters":30800,"station_id":"ce4bhph2rcd13ifvqhdg","pricing_plan_id":"cebpf4jnsgd1na2vs0mg"},{"bike_id":"9eb01c18-d575-49b0-b335-bff70127852a","system_id":"levelo_inurba_marseille","lat":43.29254,"lon":5.384416,"is_reserved":false,"is_disabled":true,"rental_uris":{"android":"levelo://app?vid=9eb01c18-d575-49b0-b335-bff70127852a","ios":"levelo://app?vid=9eb01c18-d575-49b0-b335-bff70127852a"},"vehicle_type_id":"4","last_reported":1738829554,"current_range_meters":38800,"station_id":"ce4bh692rcd13ifvqea0","pricing_plan_id":"cebpf4jnsgd1na2vs0mg"},{"bike_id":"1fad5e11-5bb7-4d16-a52e-0d50abf8734c","system_id":"levelo_inurba_marseille","lat":43.30154,"lon":5.38088,"is_reserved":false,"is_disabled":false,"rental_uris":{"android":"levelo://app?vid=1fad5e11-5bb7-4d16-a52e-0d50abf8734c","ios":"levelo://app?vid=1fad5e11-5bb7-4d16-a52e-0d50abf8734c"},"vehicle_type_id":"4","last_reported":1738829554,"current_range_meters":16400,"station_id":"ce4bgjp2rcd13ifvqbh0","pricing_plan_id":"cebpf4jnsgd1na2vs0mg"},{"bike_id":"09963baf-f270-43fd-8845-1d0fc8b80973","system_id":"levelo_inurba_marseille","lat":43.2908,"lon":5.38184,"is_reserved":false,"is_disabled":true,"rental_uris":{"android":"levelo://app?vid=09963baf-f270-43fd-8845-1d0fc8b80973","ios":"levelo://app?vid=09963baf-f270-43fd-8845-1d0fc8b80973"},"vehicle_type_id":"4","last_reported":1738829554,"current_range_meters":400,"station_id":"ce4bh512rcd13ifvqe2g","pricing_plan_id":"cebpf4jnsgd1na2vs0mg"},{"bike_id":"4646af66-0dd4-47cf-83cb-4f3f70a6c2f5","system_id":"levelo_inurba_marseille","lat":43.2669,"lon":5.3825,"is_reserved":false,"is_disabled":false,"rental_uris":{"android":"levelo://app?vid=4646af66-0dd4-47cf-83cb-4f3f70a6c2f5","ios":"levelo://app?vid=4646af66-0dd4-47cf-83cb-4f3f70a6c2f5"},"vehicle_type_id":"4","last_reported":1738829554,"current_range_meters":38800,"station_id":"ce4bhg92rcd13ifvqf90","pricing_plan_id":"cebpf4jnsgd1na2vs0mg"},{"bike_id":"9e1f3f21-cac8-4032-8cc5-7619214da968","system_id":"levelo_inurba_marseille","lat":43.28481,"lon":5.38575,"is_reserved":false,"is_disabled":false,"rental_uris":{"android":"levelo://app?vid=9e1f3f21-cac8-4032-8cc5-7619214da968","ios":"levelo://app?vid=9e1f3f21-cac8-4032-8cc5-7619214da968"},"vehicle_type_id":"4","last_reported":1738829554,"current_range_meters":38800,"station_id":"ce4bh8p2rcd13ifvqeb0","pricing_plan_id":"cebpf4jnsgd1na2vs0mg"},{"bike_id":"10cbb81b-7ce9-46ce-9636-ee20985a3ab9","system_id":"levelo_inurba_marseille","lat":43.30537,"lon":5.3843,"is_reserved":false,"is_disabled":false,"rental_uris":{"android":"levelo://app?vid=10cbb81b-7ce9-46ce-9636-ee20985a3ab9","ios":"levelo://app?vid=10cbb81b-7ce9-46ce-9636-ee20985a3ab9"},"vehicle_type_id":"4","last_reported":1738829554,"current_range_meters":36800,"station_id":"ce4bgg92rcd13ifvqb30","pricing_plan_id":"cebpf4jnsgd1na2vs0mg"},{"bike_id":"3d13a1bd-14fb-4bcd-abcd-ded034c2c5a1","system_id":"levelo_inurba_marseille","lat":43.27807,"lon":5.40711,"is_reserved":false,"is_disabled":false,"rental_uris":{"android":"levelo://app?vid=3d13a1bd-14fb-4bcd-abcd-ded034c2c5a1","ios":"levelo://app?vid=3d13a1bd-14fb-4bcd-abcd-ded034c2c5a1"},"vehicle_type_id":"4","last_reported":1738829554,"current_range_meters":37600,"station_id":"ce4bhnh2rcd13ifvqgtg","pricing_plan_id":"cebpf4jnsgd1na2vs0mg"},{"bike_id":"16c08f4f-5078-4227-884d-a77ebbaaee0c","system_id":"levelo_inurba_marseille","lat":43.28151,"lon":5.4266,"is_reserved":false,"is_disabled":false,"rental_uris":{"android":"levelo://app?vid=16c08f4f-5078-4227-884d-a77ebbaaee0c","ios":"levelo://app?vid=16c08f4f-5078-4227-884d-a77ebbaaee0c"},"vehicle_type_id":"4","last_reported":1738829554,"current_range_meters":38800,"station_id":"ce4bhnh2rcd13ifvqgug","pricing_plan_id":"cebpf4jnsgd1na2vs0mg"},{"bike_id":"9c81c1b8-1b89-413e-855b-6a07871bc1e0","system_id":"levelo_inurba_marseille","lat":43.23968,"lon":5.36637,"is_reserved":false,"is_disabled":false,"rental_uris":{"android":"levelo://app?vid=9c81c1b8-1b89-413e-855b-6a07871bc1e0","ios":"levelo://app?vid=9c81c1b8-1b89-413e-855b-6a07871bc1e0"},"vehicle_type_id":"4","last_reported":1738829554,"current_range_meters":21600,"station_id":"ce4bhi12rcd13ifvqfp0","pricing_plan_id":"cebpf4jnsgd1na2vs0mg"},{"bike_id":"ff3d9c62-eb2a-492c-a8a9-5a5ad5f9a381","system_id":"levelo_inurba_marseille","lat":43.29322,"lon":5.37099,"is_reserved":false,"is_disabled":false,"rental_uris":{"android":"levelo://app?vid=ff3d9c62-eb2a-492c-a8a9-5a5ad5f9a381","ios":"levelo://app?vid=ff3d9c62-eb2a-492c-a8a9-5a5ad5f9a381"},"vehicle_type_id":"4","last_reported":1738829554,"current_range_meters":22400,"station_id":"ce4bgh92rcd13ifvqb40","pricing_plan_id":"cebpf4jnsgd1na2vs0mg"},{"bike_id":"66c91f0e-d404-4399-99c9-77276ceb134d","system_id":"levelo_inurba_marseille","lat":43.30546,"lon":5.36532,"is_reserved":false,"is_disabled":true,"rental_uris":{"android":"levelo://app?vid=66c91f0e-d404-4399-99c9-77276ceb134d","ios":"levelo://app?vid=66c91f0e-d404-4399-99c9-77276ceb134d"},"vehicle_type_id":"4","last_reported":1738829554,"current_range_meters":35600,"station_id":"ce4bgs12rcd13ifvqcag","pricing_plan_id":"cebpf4jnsgd1na2vs0mg"},{"bike_id":"bab07d03-5352-4a1b-80e4-e1f9df8edacd","system_id":"levelo_inurba_marseille","lat":43.23187,"lon":5.3557,"is_reserved":false,"is_disabled":false,"rental_uris":{"android":"levelo://app?vid=bab07d03-5352-4a1b-80e4-e1f9df8edacd","ios":"levelo://app?vid=bab07d03-5352-4a1b-80e4-e1f9df8edacd"},"vehicle_type_id":"4","last_reported":1738829554,"current_range_meters":34800,"station_id":"ce4bhu92rcd13ifvqi70","pricing_plan_id":"cebpf4jnsgd1na2vs0mg"},{"bike_id":"d7c2a423-761b-4620-b55b-0ccc95d18eff","system_id":"levelo_inurba_marseille","lat":43.29033,"lon":5.39994,"is_reserved":false,"is_disabled":false,"rental_uris":{"android":"levelo://app?vid=d7c2a423-761b-4620-b55b-0ccc95d18eff","ios":"levelo://app?vid=d7c2a423-761b-4620-b55b-0ccc95d18eff"},"vehicle_type_id":"4","last_reported":1738829554,"current_range_meters":36000,"station_id":"ce4bh392rcd13ifvqdm0","pricing_plan_id":"cebpf4jnsgd1na2vs0mg"},{"bike_id":"660088bb-d824-4f8e-a790-2fbf6c160ceb","system_id":"levelo_inurba_marseille","lat":43.26782,"lon":5.39428,"is_reserved":false,"is_disabled":false,"rental_uris":{"android":"levelo://app?vid=660088bb-d824-4f8e-a790-2fbf6c160ceb","ios":"levelo://app?vid=660088bb-d824-4f8e-a790-2fbf6c160ceb"},"vehicle_type_id":"4","last_reported":1738829554,"current_range_meters":38400,"station_id":"ce4bhh12rcd13ifvqfg0","pricing_plan_id":"cebpf4jnsgd1na2vs0mg"},{"bike_id":"fb5a6f06-1ce9-413d-9a6f-e4570a9b7144","system_id":"levelo_inurba_marseille","lat":43.27809,"lon":5.4071,"is_reserved":false,"is_disabled":false,"rental_uris":{"android":"levelo://app?vid=fb5a6f06-1ce9-413d-9a6f-e4570a9b7144","ios":"levelo://app?vid=fb5a6f06-1ce9-413d-9a6f-e4570a9b7144"},"vehicle_type_id":"4","last_reported":1738829554,"current_range_meters":11200,"station_id":"ce4bhnh2rcd13ifvqgtg","pricing_plan_id":"cebpf4jnsgd1na2vs0mg"},{"bike_id":"fe6af45d-16c8-46c2-8c40-0e7d876a3309","system_id":"levelo_inurba_marseille","lat":43.29035,"lon":5.39982,"is_reserved":false,"is_disabled":true,"rental_uris":{"android":"levelo://app?vid=fe6af45d-16c8-46c2-8c40-0e7d876a3309","ios":"levelo://app?vid=fe6af45d-16c8-46c2-8c40-0e7d876a3309"},"vehicle_type_id":"4","last_reported":1738829554,"current_range_meters":0,"station_id":"ce4bh392rcd13ifvqdm0","pricing_plan_id":"cebpf4jnsgd1na2vs0mg"},{"bike_id":"e754019e-7c8b-4672-9a61-98573c199dda","system_id":"levelo_inurba_marseille","lat":43.32544,"lon":5.41438,"is_reserved":false,"is_disabled":false,"rental_uris":{"android":"levelo://app?vid=e754019e-7c8b-4672-9a61-98573c199dda","ios":"levelo://app?vid=e754019e-7c8b-4672-9a61-98573c199dda"},"vehicle_type_id":"4","last_reported":1738829554,"current_range_meters":38800,"station_id":"ce4bhq12rcd13ifvqhhg","pricing_plan_id":"cebpf4jnsgd1na2vs0mg"},{"bike_id":"595588ff-42cd-4170-8c75-046e92bfb34d","system_id":"levelo_inurba_marseille","lat":43.30472,"lon":5.37904,"is_reserved":false,"is_disabled":false,"rental_uris":{"android":"levelo://app?vid=595588ff-42cd-4170-8c75-046e92bfb34d","ios":"levelo://app?vid=595588ff-42cd-4170-8c75-046e92bfb34d"},"vehicle_type_id":"4","last_reported":1738829554,"current_range_meters":14800,"station_id":"ce4bho92rcd13ifvqh3g","pricing_plan_id":"cebpf4jnsgd1na2vs0mg"},{"bike_id":"ddb48a2e-0e7a-4db9-bb08-d15c6b7ecf4a","system_id":"levelo_inurba_marseille","lat":43.27621,"lon":5.36114,"is_reserved":false,"is_disabled":false,"rental_uris":{"android":"levelo://app?vid=ddb48a2e-0e7a-4db9-bb08-d15c6b7ecf4a","ios":"levelo://app?vid=ddb48a2e-0e7a-4db9-bb08-d15c6b7ecf4a"},"vehicle_type_id":"4","last_reported":1738829554,"current_range_meters":37600,"station_id":"ce4bgj92rcd13ifvqbe0","pricing_plan_id":"cebpf4jnsgd1na2vs0mg"},{"bike_id":"934710cf-9010-4a78-81b6-34b30dbe6d5c","system_id":"levelo_inurba_marseille","lat":43.26196,"lon":5.37929,"is_reserved":false,"is_disabled":false,"rental_uris":{"android":"levelo://app?vid=934710cf-9010-4a78-81b6-34b30dbe6d5c","ios":"levelo://app?vid=934710cf-9010-4a78-81b6-34b30dbe6d5c"},"vehicle_type_id":"4","last_reported":1738829554,"current_range_meters":38000,"station_id":"ce4bhjp2rcd13ifvqg90","pricing_plan_id":"cebpf4jnsgd1na2vs0mg"},{"bike_id":"7f3b0b41-d2d2-48b2-a457-b4bbfe667837","system_id":"levelo_inurba_marseille","lat":43.2957,"lon":5.37531,"is_reserved":false,"is_disabled":false,"rental_uris":{"android":"levelo://app?vid=7f3b0b41-d2d2-48b2-a457-b4bbfe667837","ios":"levelo://app?vid=7f3b0b41-d2d2-48b2-a457-b4bbfe667837"},"vehicle_type_id":"4","last_reported":1738829554,"current_range_meters":28400,"station_id":"ce4bgh92rcd13ifvqb50","pricing_plan_id":"cebpf4jnsgd1na2vs0mg"},{"bike_id":"313dbd14-c22c-42ec-9360-7ecda909f560","system_id":"levelo_inurba_marseille","lat":43.24999,"lon":5.38929,"is_reserved":false,"is_disabled":false,"rental_uris":{"android":"levelo://app?vid=313dbd14-c22c-42ec-9360-7ecda909f560","ios":"levelo://app?vid=313dbd14-c22c-42ec-9360-7ecda909f560"},"vehicle_type_id":"4","last_reported":1738829554,"current_range_meters":26000,"station_id":"ce4bhgp2rcd13ifvqfd0","pricing_plan_id":"cebpf4jnsgd1na2vs0mg"},{"bike_id":"554d4d34-db2a-43ff-b073-f167bc955577","system_id":"levelo_inurba_marseille","lat":43.27487,"lon":5.42461,"is_reserved":false,"is_disabled":false,"rental_uris":{"android":"levelo://app?vid=554d4d34-db2a-43ff-b073-f167bc955577","ios":"levelo://app?vid=554d4d34-db2a-43ff-b073-f167bc955577"},"vehicle_type_id":"4","last_reported":1738829554,"current_range_meters":29600,"station_id":"ce4bhn92rcd13ifvqgrg","pricing_plan_id":"cebpf4jnsgd1na2vs0mg"},{"bike_id":"87ea7a2e-3367-4617-b793-d6e97e762c1f","system_id":"levelo_inurba_marseille","lat":43.27424,"lon":5.39428,"is_reserved":false,"is_disabled":false,"rental_uris":{"android":"levelo://app?vid=87ea7a2e-3367-4617-b793-d6e97e762c1f","ios":"levelo://app?vid=87ea7a2e-3367-4617-b793-d6e97e762c1f"},"vehicle_type_id":"4","last_reported":1738829554,"current_range_meters":6400,"station_id":"ce4bhdp2rcd13ifvqf20","pricing_plan_id":"cebpf4jnsgd1na2vs0mg"},{"bike_id":"6522239a-3688-4f94-bb02-adaf4a055ea5","system_id":"levelo_inurba_marseille","lat":43.23186,"lon":5.35558,"is_reserved":false,"is_disabled":false,"rental_uris":{"android":"levelo://app?vid=6522239a-3688-4f94-bb02-adaf4a055ea5","ios":"levelo://app?vid=6522239a-3688-4f94-bb02-adaf4a055ea5"},"vehicle_type_id":"4","last_reported":1738829554,"current_range_meters":38800,"station_id":"ce4bhu92rcd13ifvqi70","pricing_plan_id":"cebpf4jnsgd1na2vs0mg"},{"bike_id":"aee3719b-ff75-435e-aa1c-24b4bddf333e","system_id":"levelo_inurba_marseille","lat":43.24049,"lon":5.37773,"is_reserved":false,"is_disabled":false,"rental_uris":{"android":"levelo://app?vid=aee3719b-ff75-435e-aa1c-24b4bddf333e","ios":"levelo://app?vid=aee3719b-ff75-435e-aa1c-24b4bddf333e"},"vehicle_type_id":"4","last_reported":1738829554,"current_range_meters":16400,"station_id":"ce4bhnp2rcd13ifvqgvg","pricing_plan_id":"cebpf4jnsgd1na2vs0mg"},{"bike_id":"6fd0c732-3a1a-4c3f-8237-1cac68335031","system_id":"levelo_inurba_marseille","lat":43.27505,"lon":5.42465,"is_reserved":false,"is_disabled":false,"rental_uris":{"android":"levelo://app?vid=6fd0c732-3a1a-4c3f-8237-1cac68335031","ios":"levelo://app?vid=6fd0c732-3a1a-4c3f-8237-1cac68335031"},"vehicle_type_id":"4","last_reported":1738829554,"current_range_meters":18800,"station_id":"ce4bhn92rcd13ifvqgrg","pricing_plan_id":"cebpf4jnsgd1na2vs0mg"},{"bike_id":"2067b896-33e2-45f5-86d8-d65552e3842f","system_id":"levelo_inurba_marseille","lat":43.30143,"lon":5.3743,"is_reserved":false,"is_disabled":false,"rental_uris":{"android":"levelo://app?vid=2067b896-33e2-45f5-86d8-d65552e3842f","ios":"levelo://app?vid=2067b896-33e2-45f5-86d8-d65552e3842f"},"vehicle_type_id":"4","last_reported":1738829554,"current_range_meters":38800,"station_id":"ce4bgs92rcd13ifvqcc0","pricing_plan_id":"cebpf4jnsgd1na2vs0mg"},{"bike_id":"9cfd90cc-a418-45e2-80e1-1ecb6e944821","system_id":"levelo_inurba_marseille","lat":43.26562,"lon":5.39011,"is_reserved":false,"is_disabled":false,"rental_uris":{"android":"levelo://app?vid=9cfd90cc-a418-45e2-80e1-1ecb6e944821","ios":"levelo://app?vid=9cfd90cc-a418-45e2-80e1-1ecb6e944821"},"vehicle_type_id":"4","last_reported":1738829554,"current_range_meters":29600,"station_id":"ce4bhe12rcd13ifvqf30","pricing_plan_id":"cebpf4jnsgd1na2vs0mg"},{"bike_id":"cd07e062-2af1-406e-bcb9-5f1ec4730937","system_id":"levelo_inurba_marseille","lat":43.23064,"lon":5.35497,"is_reserved":false,"is_disabled":false,"rental_uris":{"android":"levelo://app?vid=cd07e062-2af1-406e-bcb9-5f1ec4730937","ios":"levelo://app?vid=cd07e062-2af1-406e-bcb9-5f1ec4730937"},"vehicle_type_id":"4","last_reported":1738829554,"current_range_meters":36800,"station_id":"cpo3342slgdg3j2ifvpg","pricing_plan_id":"cebpf4jnsgd1na2vs0mg"},{"bike_id":"c3644d12-8427-4602-9945-9ef42c46feca","system_id":"levelo_inurba_marseille","lat":43.241645,"lon":5.364006,"is_reserved":false,"is_disabled":false,"rental_uris":{"android":"levelo://app?vid=c3644d12-8427-4602-9945-9ef42c46feca","ios":"levelo://app?vid=c3644d12-8427-4602-9945-9ef42c46feca"},"vehicle_type_id":"4","last_reported":1738829554,"current_range_meters":36400,"station_id":"cpo36qri1sfpv3e86is0","pricing_plan_id":"cebpf4jnsgd1na2vs0mg"},{"bike_id":"01b41886-2ed6-4662-b87a-6ee149db700f","system_id":"levelo_inurba_marseille","lat":43.29271,"lon":5.36856,"is_reserved":false,"is_disabled":false,"rental_uris":{"android":"levelo://app?vid=01b41886-2ed6-4662-b87a-6ee149db700f","ios":"levelo://app?vid=01b41886-2ed6-4662-b87a-6ee149db700f"},"vehicle_type_id":"4","last_reported":1738829554,"current_range_meters":28400,"station_id":"ce4bhbp2rcd13ifvqesg","pricing_plan_id":"cebpf4jnsgd1na2vs0mg"},{"bike_id":"20815bf0-f955-435e-a63e-482bd619f1c6","system_id":"levelo_inurba_marseille","lat":43.24164,"lon":5.3972,"is_reserved":false,"is_disabled":false,"rental_uris":{"android":"levelo://app?vid=20815bf0-f955-435e-a63e-482bd619f1c6","ios":"levelo://app?vid=20815bf0-f955-435e-a63e-482bd619f1c6"},"vehicle_type_id":"4","last_reported":1738829554,"current_range_meters":36800,"station_id":"ce4bhn12rcd13ifvqgpg","pricing_plan_id":"cebpf4jnsgd1na2vs0mg"},{"bike_id":"1e7bde43-ab8f-4755-b59a-acd0a53ae759","system_id":"levelo_inurba_marseille","lat":43.317126,"lon":5.424108,"is_reserved":false,"is_disabled":true,"rental_uris":{"android":"levelo://app?vid=1e7bde43-ab8f-4755-b59a-acd0a53ae759","ios":"levelo://app?vid=1e7bde43-ab8f-4755-b59a-acd0a53ae759"},"vehicle_type_id":"4","last_reported":1738829554,"current_range_meters":0,"station_id":"ce4bhp92rcd13ifvqhbg","pricing_plan_id":"cebpf4jnsgd1na2vs0mg"},{"bike_id":"53e1d245-2fa1-49d1-bd1b-b723202b5a85","system_id":"levelo_inurba_marseille","lat":43.33611,"lon":5.41037,"is_reserved":false,"is_disabled":false,"rental_uris":{"android":"levelo://app?vid=53e1d245-2fa1-49d1-bd1b-b723202b5a85","ios":"levelo://app?vid=53e1d245-2fa1-49d1-bd1b-b723202b5a85"},"vehicle_type_id":"4","last_reported":1738829554,"current_range_meters":30400,"station_id":"ce4bhqh2rcd13ifvqhmg","pricing_plan_id":"cebpf4jnsgd1na2vs0mg"},{"bike_id":"bd944b22-bdc4-45a8-9a31-0c38734abd7e","system_id":"levelo_inurba_marseille","lat":43.2893,"lon":5.36412,"is_reserved":false,"is_disabled":true,"rental_uris":{"android":"levelo://app?vid=bd944b22-bdc4-45a8-9a31-0c38734abd7e","ios":"levelo://app?vid=bd944b22-bdc4-45a8-9a31-0c38734abd7e"},"vehicle_type_id":"4","last_reported":1738829554,"current_range_meters":800,"station_id":"ce4bhc92rcd13ifvqetg","pricing_plan_id":"cebpf4jnsgd1na2vs0mg"},{"bike_id":"323fd1fd-6fc6-4abf-8c9c-e67f624cbd31","system_id":"levelo_inurba_marseille","lat":43.33767,"lon":5.3746,"is_reserved":false,"is_disabled":false,"rental_uris":{"android":"levelo://app?vid=323fd1fd-6fc6-4abf-8c9c-e67f624cbd31","ios":"levelo://app?vid=323fd1fd-6fc6-4abf-8c9c-e67f624cbd31"},"vehicle_type_id":"4","last_reported":1738829554,"current_range_meters":32000,"station_id":"","pricing_plan_id":"cebpf4jnsgd1na2vs0mg"},{"bike_id":"78a4c83f-4d73-437d-9527-15d2cb2bd443","system_id":"levelo_inurba_marseille","lat":43.28143,"lon":5.42665,"is_reserved":false,"is_disabled":false,"rental_uris":{"android":"levelo://app?vid=78a4c83f-4d73-437d-9527-15d2cb2bd443","ios":"levelo://app?vid=78a4c83f-4d73-437d-9527-15d2cb2bd443"},"vehicle_type_id":"4","last_reported":1738829554,"current_range_meters":39200,"station_id":"ce4bhnh2rcd13ifvqgug","pricing_plan_id":"cebpf4jnsgd1na2vs0mg"},{"bike_id":"4e96e631-9c62-4e72-a118-064b79593846","system_id":"levelo_inurba_marseille","lat":43.320988,"lon":5.415122,"is_reserved":false,"is_disabled":false,"rental_uris":{"android":"levelo://app?vid=4e96e631-9c62-4e72-a118-064b79593846","ios":"levelo://app?vid=4e96e631-9c62-4e72-a118-064b79593846"},"vehicle_type_id":"4","last_reported":1738829554,"current_range_meters":28000,"station_id":"ce4bhq92rcd13ifvqhkg","pricing_plan_id":"cebpf4jnsgd1na2vs0mg"},{"bike_id":"45a7daa2-2a2e-4454-90c3-1009aaecc5bd","system_id":"levelo_inurba_marseille","lat":43.232,"lon":5.35567,"is_reserved":false,"is_disabled":false,"rental_uris":{"android":"levelo://app?vid=45a7daa2-2a2e-4454-90c3-1009aaecc5bd","ios":"levelo://app?vid=45a7daa2-2a2e-4454-90c3-1009aaecc5bd"},"vehicle_type_id":"4","last_reported":1738829554,"current_range_meters":38800,"station_id":"ce4bhu92rcd13ifvqi70","pricing_plan_id":"cebpf4jnsgd1na2vs0mg"},{"bike_id":"3d6934ee-e117-4b0b-b53b-7720318163f8","system_id":"levelo_inurba_marseille","lat":43.29302,"lon":5.37465,"is_reserved":false,"is_disabled":true,"rental_uris":{"android":"levelo://app?vid=3d6934ee-e117-4b0b-b53b-7720318163f8","ios":"levelo://app?vid=3d6934ee-e117-4b0b-b53b-7720318163f8"},"vehicle_type_id":"4","last_reported":1738829554,"current_range_meters":1600,"station_id":"ce4bgi12rcd13ifvqb70","pricing_plan_id":"cebpf4jnsgd1na2vs0mg"},{"bike_id":"aece1634-918f-4f68-8bc7-9a7b7abafc1f","system_id":"levelo_inurba_marseille","lat":43.28158,"lon":5.42635,"is_reserved":false,"is_disabled":true,"rental_uris":{"android":"levelo://app?vid=aece1634-918f-4f68-8bc7-9a7b7abafc1f","ios":"levelo://app?vid=aece1634-918f-4f68-8bc7-9a7b7abafc1f"},"vehicle_type_id":"4","last_reported":1738829554,"current_range_meters":27200,"station_id":"ce4bhnh2rcd13ifvqgug","pricing_plan_id":"cebpf4jnsgd1na2vs0mg"},{"bike_id":"aed95c19-b94a-4cd1-bdd0-71dcebbed92e","system_id":"levelo_inurba_marseille","lat":43.32545,"lon":5.41457,"is_reserved":false,"is_disabled":false,"rental_uris":{"android":"levelo://app?vid=aed95c19-b94a-4cd1-bdd0-71dcebbed92e","ios":"levelo://app?vid=aed95c19-b94a-4cd1-bdd0-71dcebbed92e"},"vehicle_type_id":"4","last_reported":1738829554,"current_range_meters":37600,"station_id":"ce4bhq12rcd13ifvqhhg","pricing_plan_id":"cebpf4jnsgd1na2vs0mg"},{"bike_id":"e4fbacd2-2c44-4b78-b9fc-d346dc2a77d1","system_id":"levelo_inurba_marseille","lat":43.323645,"lon":5.388878,"is_reserved":false,"is_disabled":false,"rental_uris":{"android":"levelo://app?vid=e4fbacd2-2c44-4b78-b9fc-d346dc2a77d1","ios":"levelo://app?vid=e4fbacd2-2c44-4b78-b9fc-d346dc2a77d1"},"vehicle_type_id":"4","last_reported":1738829554,"current_range_meters":36800,"station_id":"ce4bhqp2rcd13ifvqhog","pricing_plan_id":"cebpf4jnsgd1na2vs0mg"},{"bike_id":"3b1d5f28-8e2f-4cd2-84ee-32e60c8bc1d4","system_id":"levelo_inurba_marseille","lat":43.2791,"lon":5.38688,"is_reserved":false,"is_disabled":false,"rental_uris":{"android":"levelo://app?vid=3b1d5f28-8e2f-4cd2-84ee-32e60c8bc1d4","ios":"levelo://app?vid=3b1d5f28-8e2f-4cd2-84ee-32e60c8bc1d4"},"vehicle_type_id":"4","last_reported":1738829554,"current_range_meters":38000,"station_id":"","pricing_plan_id":"cebpf4jnsgd1na2vs0mg"},{"bike_id":"b627ab1e-771f-4082-9213-245afa043cb2","system_id":"levelo_inurba_marseille","lat":43.29227,"lon":5.36074,"is_reserved":false,"is_disabled":false,"rental_uris":{"android":"levelo://app?vid=b627ab1e-771f-4082-9213-245afa043cb2","ios":"levelo://app?vid=b627ab1e-771f-4082-9213-245afa043cb2"},"vehicle_type_id":"4","last_reported":1738829554,"current_range_meters":18800,"station_id":"ce4bhbh2rcd13ifvqeqg","pricing_plan_id":"cebpf4jnsgd1na2vs0mg"},{"bike_id":"dd71d97f-8b4b-4a1b-a8d7-a09a3041be67","system_id":"levelo_inurba_marseille","lat":43.28151,"lon":5.4267,"is_reserved":false,"is_disabled":false,"rental_uris":{"android":"levelo://app?vid=dd71d97f-8b4b-4a1b-a8d7-a09a3041be67","ios":"levelo://app?vid=dd71d97f-8b4b-4a1b-a8d7-a09a3041be67"},"vehicle_type_id":"4","last_reported":1738829554,"current_range_meters":38000,"station_id":"ce4bhnh2rcd13ifvqgug","pricing_plan_id":"cebpf4jnsgd1na2vs0mg"},{"bike_id":"a17b902b-bafc-49d0-9389-2ce74253b3a1","system_id":"levelo_inurba_marseille","lat":43.27183,"lon":5.41,"is_reserved":false,"is_disabled":false,"rental_uris":{"android":"levelo://app?vid=a17b902b-bafc-49d0-9389-2ce74253b3a1","ios":"levelo://app?vid=a17b902b-bafc-49d0-9389-2ce74253b3a1"},"vehicle_type_id":"4","last_reported":1738829554,"current_range_meters":39200,"station_id":"ce4bhl12rcd13ifvqgf0","pricing_plan_id":"cebpf4jnsgd1na2vs0mg"},{"bike_id":"82928581-7cae-4db3-9a68-a5b9ec34a9ee","system_id":"levelo_inurba_marseille","lat":43.318912,"lon":5.433657,"is_reserved":false,"is_disabled":true,"rental_uris":{"android":"levelo://app?vid=82928581-7cae-4db3-9a68-a5b9ec34a9ee","ios":"levelo://app?vid=82928581-7cae-4db3-9a68-a5b9ec34a9ee"},"vehicle_type_id":"4","last_reported":1738829554,"current_range_meters":0,"station_id":"","pricing_plan_id":"cebpf4jnsgd1na2vs0mg"},{"bike_id":"9d71d304-2002-4ef9-bd23-de48bc17ac77","system_id":"levelo_inurba_marseille","lat":43.2409,"lon":5.37783,"is_reserved":false,"is_disabled":true,"rental_uris":{"android":"levelo://app?vid=9d71d304-2002-4ef9-bd23-de48bc17ac77","ios":"levelo://app?vid=9d71d304-2002-4ef9-bd23-de48bc17ac77"},"vehicle_type_id":"4","last_reported":1738829554,"current_range_meters":4400,"station_id":"ce4bhnp2rcd13ifvqgvg","pricing_plan_id":"cebpf4jnsgd1na2vs0mg"},{"bike_id":"1cb82a12-4651-45cd-905c-fadd81efe609","system_id":"levelo_inurba_marseille","lat":43.26681,"lon":5.38276,"is_reserved":false,"is_disabled":false,"rental_uris":{"android":"levelo://app?vid=1cb82a12-4651-45cd-905c-fadd81efe609","ios":"levelo://app?vid=1cb82a12-4651-45cd-905c-fadd81efe609"},"vehicle_type_id":"4","last_reported":1738829554,"current_range_meters":30000,"station_id":"ce4bhg92rcd13ifvqf90","pricing_plan_id":"cebpf4jnsgd1na2vs0mg"},{"bike_id":"39e48cdd-1e81-47f1-8caa-7197be9aaab1","system_id":"levelo_inurba_marseille","lat":43.317596,"lon":5.390166,"is_reserved":false,"is_disabled":false,"rental_uris":{"android":"levelo://app?vid=39e48cdd-1e81-47f1-8caa-7197be9aaab1","ios":"levelo://app?vid=39e48cdd-1e81-47f1-8caa-7197be9aaab1"},"vehicle_type_id":"4","last_reported":1738829554,"current_range_meters":39200,"station_id":"ce4bhqp2rcd13ifvqhng","pricing_plan_id":"cebpf4jnsgd1na2vs0mg"},{"bike_id":"706c206d-6bef-42bf-8154-584489e32a30","system_id":"levelo_inurba_marseille","lat":43.29003,"lon":5.35614,"is_reserved":false,"is_disabled":false,"rental_uris":{"android":"levelo://app?vid=706c206d-6bef-42bf-8154-584489e32a30","ios":"levelo://app?vid=706c206d-6bef-42bf-8154-584489e32a30"},"vehicle_type_id":"4","last_reported":1738829554,"current_range_meters":24800,"station_id":"ce4bhb92rcd13ifvqen0","pricing_plan_id":"cebpf4jnsgd1na2vs0mg"},{"bike_id":"8a3b1adc-e338-472b-9199-ede1c4fce4fb","system_id":"levelo_inurba_marseille","lat":43.30479,"lon":5.37911,"is_reserved":false,"is_disabled":false,"rental_uris":{"android":"levelo://app?vid=8a3b1adc-e338-472b-9199-ede1c4fce4fb","ios":"levelo://app?vid=8a3b1adc-e338-472b-9199-ede1c4fce4fb"},"vehicle_type_id":"4","last_reported":1738829554,"current_range_meters":28400,"station_id":"ce4bgup2rcd13ifvqcn0","pricing_plan_id":"cebpf4jnsgd1na2vs0mg"},{"bike_id":"96640a5d-a724-47aa-a964-25b29748e9bd","system_id":"levelo_inurba_marseille","lat":43.25933,"lon":5.40919,"is_reserved":false,"is_disabled":false,"rental_uris":{"android":"levelo://app?vid=96640a5d-a724-47aa-a964-25b29748e9bd","ios":"levelo://app?vid=96640a5d-a724-47aa-a964-25b29748e9bd"},"vehicle_type_id":"4","last_reported":1738829554,"current_range_meters":21600,"station_id":"ce4bhm92rcd13ifvqglg","pricing_plan_id":"cebpf4jnsgd1na2vs0mg"},{"bike_id":"f8226996-1eec-4556-8bed-27586f4af58b","system_id":"levelo_inurba_marseille","lat":43.30594,"lon":5.39365,"is_reserved":false,"is_disabled":false,"rental_uris":{"android":"levelo://app?vid=f8226996-1eec-4556-8bed-27586f4af58b","ios":"levelo://app?vid=f8226996-1eec-4556-8bed-27586f4af58b"},"vehicle_type_id":"4","last_reported":1738829554,"current_range_meters":36400,"station_id":"ce4bh0p2rcd13ifvqd80","pricing_plan_id":"cebpf4jnsgd1na2vs0mg"},{"bike_id":"0a1d80a5-8567-473e-862c-e2d2e710157a","system_id":"levelo_inurba_marseille","lat":43.28446,"lon":5.34997,"is_reserved":false,"is_disabled":false,"rental_uris":{"android":"levelo://app?vid=0a1d80a5-8567-473e-862c-e2d2e710157a","ios":"levelo://app?vid=0a1d80a5-8567-473e-862c-e2d2e710157a"},"vehicle_type_id":"4","last_reported":1738829554,"current_range_meters":30400,"station_id":"ce4bhbh2rcd13ifvqepg","pricing_plan_id":"cebpf4jnsgd1na2vs0mg"},{"bike_id":"06f57d1b-ff90-4aff-b84d-7b37401683a1","system_id":"levelo_inurba_marseille","lat":43.274427,"lon":5.389923,"is_reserved":false,"is_disabled":false,"rental_uris":{"android":"levelo://app?vid=06f57d1b-ff90-4aff-b84d-7b37401683a1","ios":"levelo://app?vid=06f57d1b-ff90-4aff-b84d-7b37401683a1"},"vehicle_type_id":"4","last_reported":1738829554,"current_range_meters":18800,"station_id":"ce4bhi12rcd13ifvqfq0","pricing_plan_id":"cebpf4jnsgd1na2vs0mg"},{"bike_id":"dc500216-338e-48ed-8e31-8e4a1f96f78e","system_id":"levelo_inurba_marseille","lat":43.27184,"lon":5.40997,"is_reserved":false,"is_disabled":false,"rental_uris":{"android":"levelo://app?vid=dc500216-338e-48ed-8e31-8e4a1f96f78e","ios":"levelo://app?vid=dc500216-338e-48ed-8e31-8e4a1f96f78e"},"vehicle_type_id":"4","last_reported":1738829554,"current_range_meters":26000,"station_id":"ce4bhl12rcd13ifvqgf0","pricing_plan_id":"cebpf4jnsgd1na2vs0mg"},{"bike_id":"efc75f68-c0e7-4c38-a126-0f2ae1afe39d","system_id":"levelo_inurba_marseille","lat":43.27172,"lon":5.41028,"is_reserved":false,"is_disabled":false,"rental_uris":{"android":"levelo://app?vid=efc75f68-c0e7-4c38-a126-0f2ae1afe39d","ios":"levelo://app?vid=efc75f68-c0e7-4c38-a126-0f2ae1afe39d"},"vehicle_type_id":"4","last_reported":1738829554,"current_range_meters":39200,"station_id":"ce4bhl12rcd13ifvqgf0","pricing_plan_id":"cebpf4jnsgd1na2vs0mg"},{"bike_id":"c8867084-73b3-4ef6-939b-90719c3af5d4","system_id":"levelo_inurba_marseille","lat":43.241628,"lon":5.364001,"is_reserved":false,"is_disabled":true,"rental_uris":{"android":"levelo://app?vid=c8867084-73b3-4ef6-939b-90719c3af5d4","ios":"levelo://app?vid=c8867084-73b3-4ef6-939b-90719c3af5d4"},"vehicle_type_id":"4","last_reported":1738829554,"current_range_meters":1200,"station_id":"cpo36qri1sfpv3e86is0","pricing_plan_id":"cebpf4jnsgd1na2vs0mg"},{"bike_id":"0dc28690-d1fc-4c68-886e-a1e203ae5896","system_id":"levelo_inurba_marseille","lat":43.31353,"lon":5.36703,"is_reserved":false,"is_disabled":false,"rental_uris":{"android":"levelo://app?vid=0dc28690-d1fc-4c68-886e-a1e203ae5896","ios":"levelo://app?vid=0dc28690-d1fc-4c68-886e-a1e203ae5896"},"vehicle_type_id":"4","last_reported":1738829554,"current_range_meters":38800,"station_id":"ce4bgr92rcd13ifvqc6g","pricing_plan_id":"cebpf4jnsgd1na2vs0mg"},{"bike_id":"e815bea6-a15d-4e98-b368-59ecfebf95c5","system_id":"levelo_inurba_marseille","lat":43.30908,"lon":5.36849,"is_reserved":false,"is_disabled":false,"rental_uris":{"android":"levelo://app?vid=e815bea6-a15d-4e98-b368-59ecfebf95c5","ios":"levelo://app?vid=e815bea6-a15d-4e98-b368-59ecfebf95c5"},"vehicle_type_id":"4","last_reported":1738829554,"current_range_meters":38800,"station_id":"ce4bgn92rcd13ifvqbvg","pricing_plan_id":"cebpf4jnsgd1na2vs0mg"},{"bike_id":"25d556ce-3f32-408f-bbd6-29b976ef448a","system_id":"levelo_inurba_marseille","lat":43.23191,"lon":5.39988,"is_reserved":false,"is_disabled":false,"rental_uris":{"android":"levelo://app?vid=25d556ce-3f32-408f-bbd6-29b976ef448a","ios":"levelo://app?vid=25d556ce-3f32-408f-bbd6-29b976ef448a"},"vehicle_type_id":"4","last_reported":1738829554,"current_range_meters":8800,"station_id":"ce4bhn12rcd13ifvqgqg","pricing_plan_id":"cebpf4jnsgd1na2vs0mg"},{"bike_id":"c6a64351-9db3-4bb5-be12-a507bb068d20","system_id":"levelo_inurba_marseille","lat":43.30282,"lon":5.37715,"is_reserved":false,"is_disabled":false,"rental_uris":{"android":"levelo://app?vid=c6a64351-9db3-4bb5-be12-a507bb068d20","ios":"levelo://app?vid=c6a64351-9db3-4bb5-be12-a507bb068d20"},"vehicle_type_id":"4","last_reported":1738829554,"current_range_meters":30000,"station_id":"ce4bguh2rcd13ifvqcj0","pricing_plan_id":"cebpf4jnsgd1na2vs0mg"},{"bike_id":"67885dff-6810-46e8-841c-21842ad31ef4","system_id":"levelo_inurba_marseille","lat":43.2997,"lon":5.37186,"is_reserved":false,"is_disabled":false,"rental_uris":{"android":"levelo://app?vid=67885dff-6810-46e8-841c-21842ad31ef4","ios":"levelo://app?vid=67885dff-6810-46e8-841c-21842ad31ef4"},"vehicle_type_id":"4","last_reported":1738829554,"current_range_meters":27600,"station_id":"ce4bgr92rcd13ifvqc7g","pricing_plan_id":"cebpf4jnsgd1na2vs0mg"},{"bike_id":"97e3f16d-c680-499c-b7df-c4ab9d43861c","system_id":"levelo_inurba_marseille","lat":43.2318,"lon":5.3999,"is_reserved":false,"is_disabled":false,"rental_uris":{"android":"levelo://app?vid=97e3f16d-c680-499c-b7df-c4ab9d43861c","ios":"levelo://app?vid=97e3f16d-c680-499c-b7df-c4ab9d43861c"},"vehicle_type_id":"4","last_reported":1738829554,"current_range_meters":19200,"station_id":"ce4bhn12rcd13ifvqgqg","pricing_plan_id":"cebpf4jnsgd1na2vs0mg"},{"bike_id":"12ac9439-69f3-4408-86f8-658d1b22a781","system_id":"levelo_inurba_marseille","lat":43.27055,"lon":5.40268,"is_reserved":false,"is_disabled":false,"rental_uris":{"android":"levelo://app?vid=12ac9439-69f3-4408-86f8-658d1b22a781","ios":"levelo://app?vid=12ac9439-69f3-4408-86f8-658d1b22a781"},"vehicle_type_id":"4","last_reported":1738829554,"current_range_meters":35600,"station_id":"ce4bhk92rcd13ifvqgc0","pricing_plan_id":"cebpf4jnsgd1na2vs0mg"},{"bike_id":"1d39db26-f63e-47ca-96af-759972ec17a4","system_id":"levelo_inurba_marseille","lat":43.27371,"lon":5.36257,"is_reserved":false,"is_disabled":false,"rental_uris":{"android":"levelo://app?vid=1d39db26-f63e-47ca-96af-759972ec17a4","ios":"levelo://app?vid=1d39db26-f63e-47ca-96af-759972ec17a4"},"vehicle_type_id":"4","last_reported":1738829554,"current_range_meters":38800,"station_id":"ce4bhbh2rcd13ifvqeo0","pricing_plan_id":"cebpf4jnsgd1na2vs0mg"},{"bike_id":"8c19e63a-8e6c-4a82-beba-0e1962f87bd3","system_id":"levelo_inurba_marseille","lat":43.28716,"lon":5.37942,"is_reserved":false,"is_disabled":true,"rental_uris":{"android":"levelo://app?vid=8c19e63a-8e6c-4a82-beba-0e1962f87bd3","ios":"levelo://app?vid=8c19e63a-8e6c-4a82-beba-0e1962f87bd3"},"vehicle_type_id":"4","last_reported":1738829554,"current_range_meters":35200,"station_id":"ce4bh9p2rcd13ifvqec0","pricing_plan_id":"cebpf4jnsgd1na2vs0mg"},{"bike_id":"023f65ff-462a-4a08-ba76-5409dc2ce057","system_id":"levelo_inurba_marseille","lat":43.24075,"lon":5.37757,"is_reserved":false,"is_disabled":false,"rental_uris":{"android":"levelo://app?vid=023f65ff-462a-4a08-ba76-5409dc2ce057","ios":"levelo://app?vid=023f65ff-462a-4a08-ba76-5409dc2ce057"},"vehicle_type_id":"4","last_reported":1738829554,"current_range_meters":36400,"station_id":"ce4bhnp2rcd13ifvqgvg","pricing_plan_id":"cebpf4jnsgd1na2vs0mg"},{"bike_id":"09b6cb25-2a49-4fab-afe0-5ad8d63a05a0","system_id":"levelo_inurba_marseille","lat":43.29368,"lon":5.37851,"is_reserved":false,"is_disabled":false,"rental_uris":{"android":"levelo://app?vid=09b6cb25-2a49-4fab-afe0-5ad8d63a05a0","ios":"levelo://app?vid=09b6cb25-2a49-4fab-afe0-5ad8d63a05a0"},"vehicle_type_id":"4","last_reported":1738829554,"current_range_meters":14000,"station_id":"ce4bgjh2rcd13ifvqbf0","pricing_plan_id":"cebpf4jnsgd1na2vs0mg"},{"bike_id":"19786159-ea4b-4b0e-ae0f-123a3305e398","system_id":"levelo_inurba_marseille","lat":43.27208,"lon":5.39187,"is_reserved":false,"is_disabled":false,"rental_uris":{"android":"levelo://app?vid=19786159-ea4b-4b0e-ae0f-123a3305e398","ios":"levelo://app?vid=19786159-ea4b-4b0e-ae0f-123a3305e398"},"vehicle_type_id":"4","last_reported":1738829554,"current_range_meters":32800,"station_id":"ce4bhhp2rcd13ifvqfm0","pricing_plan_id":"cebpf4jnsgd1na2vs0mg"},