{"last_updated":1693073245,"ttl":30,"version":"2.2","data":{"bikes":[{"bike_id":"f22ca441-4e4e-4660-b824-b2f46943e54d","system_id":"levelo_inurba_marseille","lat":43.312239,"lon":5.368562,"is_reserved":false,"is_disabled":false,"rental_uris":{"android":"levelo://app?vid=f22ca441-4e4e-4660-b824-b2f46943e54d","ios":"levelo://app?vid=f22ca441-4e4e-4660-b824-b2f46943e54d"},"vehicle_type_id":"4","last_reported":1693073245,"current_range_meters":31200,"station_id":"ce4bgl92rcd13ifvqbq0","pricing_plan_id":"free"},{"bike_id":"65674239-bfb7-4928-84de-b7277febf7c2","system_id":"levelo_inurba_marseille","lat":43.312239,"lon":5.368562,"is_reserved":false,"is_disabled":false,"rental_uris":{"android":"levelo://app?vid=65674239-bfb7-4928-84de-b7277febf7c2","ios":"levelo://app?vid=65674239-bfb7-4928-84de-b7277febf7c2"},"vehicle_type_id":"4","last_reported":1693073245,"current_range_meters":31200,"station_id":"ce4bgl92rcd13ifvqbq0","pricing_plan_id":"free"},{"bike_id":"ca2b0710-48db-41b7-811a-1d461a26e390","system_id":"levelo_inurba_marseille","lat":43.309076,"lon":5.368465,"is_reserved":false,"is_disabled":false,"rental_uris":{"android":"levelo://app?vid=ca2b0710-48db-41b7-811a-1d461a26e390","ios":"levelo://app?vid=ca2b0710-48db-41b7-811a-1d461a26e390"},"vehicle_type_id":"4","last_reported":1693073245,"current_range_meters":28800,"station_id":"ce4bgn92rcd13ifvqbvg","pricing_plan_id":"free"},{"bike_id":"e3c4aad0-7b99-4a09-ad94-863437ff0df5","system_id":"levelo_inurba_marseille","lat":43.31402,"lon":5.37255,"is_reserved":false,"is_disabled":false,"rental_uris":{"android":"levelo://app?vid=e3c4aad0-7b99-4a09-ad94-863437ff0df5","ios":"levelo://app?vid=e3c4aad0-7b99-4a09-ad94-863437ff0df5"},"vehicle_type_id":"4","last_reported":1693073245,"current_range_meters":8000,"station_id":"","pricing_plan_id":"free"},{"bike_id":"d2be997d-44d2-40a5-bb20-02aeaaf65fa5","system_id":"levelo_inurba_marseille","lat":43.314811,"lon":5.373103,"is_reserved":false,"is_disabled":false,"rental_uris":{"android":"levelo://app?vid=d2be997d-44d2-40a5-bb20-02aeaaf65fa5","ios":"levelo://app?vid=d2be997d-44d2-40a5-bb20-02aeaaf65fa5"},"vehicle_type_id":"4","last_reported":1693073245,"current_range_meters":31200,"station_id":"ce4bgt12rcd13ifvqcd0","pricing_plan_id":"free"},{"bike_id":"31706b65-d60e-46d4-aa55-daaedcb23a86","system_id":"levelo_inurba_marseille","lat":43.30584,"lon":5.36539,"is_reserved":false,"is_disabled":false,"rental_uris":{"android":"levelo://app?vid=31706b65-d60e-46d4-aa55-daaedcb23a86","ios":"levelo://app?vid=31706b65-d60e-46d4-aa55-daaedcb23a86"},"vehicle_type_id":"4","last_reported":1693073245,"current_range_meters":23200,"station_id":"","pricing_plan_id":"free"},{"bike_id":"a49aa17c-ad5a-423f-a2e2-673b6f6c1ebc","system_id":"levelo_inurba_marseille","lat":43.305714,"lon":5.365633,"is_reserved":false,"is_disabled":false,"rental_uris":{"android":"levelo://app?vid=a49aa17c-ad5a-423f-a2e2-673b6f6c1ebc","ios":"levelo://app?vid=a49aa17c-ad5a-423f-a2e2-673b6f6c1ebc"},"vehicle_type_id":"4","last_reported":1693073245,"current_range_meters":30400,"station_id":"ce4bgs12rcd13ifvqcag","pricing_plan_id":"free"},{"bike_id":"2a363013-5c90-49f4-bbca-169089654329","system_id":"levelo_inurba_marseille","lat":43.305989,"lon":5.37225,"is_reserved":false,"is_disabled":false,"rental_uris":{"android":"levelo://app?vid=2a363013-5c90-49f4-bbca-169089654329","ios":"levelo://app?vid=2a363013-5c90-49f4-bbca-169089654329"},"vehicle_type_id":"4","last_reported":1693073245,"current_range_meters":12400,"station_id":"ce4bgqh2rcd13ifvqc4g","pricing_plan_id":"free"},{"bike_id":"acff5013-6581-45fd-99e3-c91b544b0700","system_id":"levelo_inurba_marseille","lat":43.306131,"lon":5.372365,"is_reserved":false,"is_disabled":false,"rental_uris":{"android":"levelo://app?vid=acff5013-6581-45fd-99e3-c91b544b0700","ios":"levelo://app?vid=acff5013-6581-45fd-99e3-c91b544b0700"},"vehicle_type_id":"4","last_reported":1693073245,"current_range_meters":25600,"station_id":"ce4bgqh2rcd13ifvqc4g","pricing_plan_id":"free"},{"bike_id":"6e159ada-34c7-4e4b-a2be-6e2571709143","system_id":"levelo_inurba_marseille","lat":43.311131,"lon":5.377651,"is_reserved":false,"is_disabled":false,"rental_uris":{"android":"levelo://app?vid=6e159ada-34c7-4e4b-a2be-6e2571709143","ios":"levelo://app?vid=6e159ada-34c7-4e4b-a2be-6e2571709143"},"vehicle_type_id":"4","last_reported":1693073245,"current_range_meters":9200,"station_id":"ce4bgt92rcd13ifvqcg0","pricing_plan_id":"free"},{"bike_id":"b1a69344-acd0-41d6-96be-52fde7539d53","system_id":"levelo_inurba_marseille","lat":43.307945,"lon":5.376487,"is_reserved":false,"is_disabled":false,"rental_uris":{"android":"levelo://app?vid=b1a69344-acd0-41d6-96be-52fde7539d53","ios":"levelo://app?vid=b1a69344-acd0-41d6-96be-52fde7539d53"},"vehicle_type_id":"4","last_reported":1693073245,"current_range_meters":17200,"station_id":"ce4bgv92rcd13ifvqcq0","pricing_plan_id":"free"},{"bike_id":"d5b636a4-882a-4e60-92c5-2c1c88787bd9","system_id":"levelo_inurba_marseille","lat":43.3079,"lon":5.37646,"is_reserved":false,"is_disabled":false,"rental_uris":{"android":"levelo://app?vid=d5b636a4-882a-4e60-92c5-2c1c88787bd9","ios":"levelo://app?vid=d5b636a4-882a-4e60-92c5-2c1c88787bd9"},"vehicle_type_id":"4","last_reported":1693073245,"current_range_meters":8800,"station_id":"ce4bgv92rcd13ifvqcq0","pricing_plan_id":"free"},{"bike_id":"29fdba62-e559-48e8-bf14-0a3b391658a6","system_id":"levelo_inurba_marseille","lat":43.307945,"lon":5.376487,"is_reserved":false,"is_disabled":false,"rental_uris":{"android":"levelo://app?vid=29fdba62-e559-48e8-bf14-0a3b391658a6","ios":"levelo://app?vid=29fdba62-e559-48e8-bf14-0a3b391658a6"},"vehicle_type_id":"4","last_reported":1693073245,"current_range_meters":1600,"station_id":"ce4bgv92rcd13ifvqcq0","pricing_plan_id":"free"},{"bike_id":"7aed7dd7-64c1-4f32-9021-f1e41eefb4fe","system_id":"levelo_inurba_marseille","lat":43.3105,"lon":5.37888,"is_reserved":false,"is_disabled":false,"rental_uris":{"android":"levelo://app?vid=7aed7dd7-64c1-4f32-9021-f1e41eefb4fe","ios":"levelo://app?vid=7aed7dd7-64c1-4f32-9021-f1e41eefb4fe"},"vehicle_type_id":"4","last_reported":1693073245,"current_range_meters":13200,"station_id":"","pricing_plan_id":"free"},{"bike_id":"0b3fcb38-71a1-4fd7-abb7-d03749b19783","system_id":"levelo_inurba_marseille","lat":43.31532,"lon":5.38035,"is_reserved":false,"is_disabled":false,"rental_uris":{"android":"levelo://app?vid=0b3fcb38-71a1-4fd7-abb7-d03749b19783","ios":"levelo://app?vid=0b3fcb38-71a1-4fd7-abb7-d03749b19783"},"vehicle_type_id":"4","last_reported":1693073245,"current_range_meters":3600,"station_id":"ce4bhsp2rcd13ifvqi50","pricing_plan_id":"free"},{"bike_id":"ff22e6be-f687-40e9-aeee-51129bb540d2","system_id":"levelo_inurba_marseille","lat":43.30206,"lon":5.36626,"is_reserved":false,"is_disabled":false,"rental_uris":{"android":"levelo://app?vid=ff22e6be-f687-40e9-aeee-51129bb540d2","ios":"levelo://app?vid=ff22e6be-f687-40e9-aeee-51129bb540d2"},"vehicle_type_id":"4","last_reported":1693073245,"current_range_meters":24800,"station_id":"ce4bgrh2rcd13ifvqc8g","pricing_plan_id":"free"},{"bike_id":"cb10223b-ce3f-4c60-8bdf-1eec342f52f8","system_id":"levelo_inurba_marseille","lat":43.301939,"lon":5.366286,"is_reserved":false,"is_disabled":false,"rental_uris":{"android":"levelo://app?vid=cb10223b-ce3f-4c60-8bdf-1eec342f52f8","ios":"levelo://app?vid=cb10223b-ce3f-4c60-8bdf-1eec342f52f8"},"vehicle_type_id":"4","last_reported":1693073245,"current_range_meters":0,"station_id":"ce4bgrh2rcd13ifvqc8g","pricing_plan_id":"free"},{"bike_id":"cd446b24-0605-47e8-a42c-868f9f929a8b","system_id":"levelo_inurba_marseille","lat":43.32422,"lon":5.36739,"is_reserved":false,"is_disabled":false,"rental_uris":{"android":"levelo://app?vid=cd446b24-0605-47e8-a42c-868f9f929a8b","ios":"levelo://app?vid=cd446b24-0605-47e8-a42c-868f9f929a8b"},"vehicle_type_id":"4","last_reported":1693073245,"current_range_meters":29600,"station_id":"ce4bhs92rcd13ifvqi0g","pricing_plan_id":"free"},{"bike_id":"5247ba31-1c15-4a04-83f4-a8eedaaf6152","system_id":"levelo_inurba_marseille","lat":43.308012,"lon":5.381511,"is_reserved":false,"is_disabled":false,"rental_uris":{"android":"levelo://app?vid=5247ba31-1c15-4a04-83f4-a8eedaaf6152","ios":"levelo://app?vid=5247ba31-1c15-4a04-83f4-a8eedaaf6152"},"vehicle_type_id":"4","last_reported":1693073245,"current_range_meters":28000,"station_id":"ce4bgt12rcd13ifvqce0","pricing_plan_id":"free"},{"bike_id":"3f81c7a6-2d47-4af8-86e8-c6771d5f8763","system_id":"levelo_inurba_marseille","lat":43.308012,"lon":5.381511,"is_reserved":false,"is_disabled":false,"rental_uris":{"android":"levelo://app?vid=3f81c7a6-2d47-4af8-86e8-c6771d5f8763","ios":"levelo://app?vid=3f81c7a6-2d47-4af8-86e8-c6771d5f8763"},"vehicle_type_id":"4","last_reported":1693073245,"current_range_meters":18400,"station_id":"ce4bgt12rcd13ifvqce0","pricing_plan_id":"free"},{"bike_id":"6bbd08c1-2369-41f9-8aa0-da45b8b05274","system_id":"levelo_inurba_marseille","lat":43.30798,"lon":5.38149,"is_reserved":false,"is_disabled":false,"rental_uris":{"android":"levelo://app?vid=6bbd08c1-2369-41f9-8aa0-da45b8b05274","ios":"levelo://app?vid=6bbd08c1-2369-41f9-8aa0-da45b8b05274"},"vehicle_type_id":"4","last_reported":1693073245,"current_range_meters":11200,"station_id":"ce4bgt12rcd13ifvqce0","pricing_plan_id":"free"},{"bike_id":"d2b4a0f0-fc55-4e38-aaf6-365eb1cf6eec","system_id":"levelo_inurba_marseille","lat":43.30792,"lon":5.3815,"is_reserved":false,"is_disabled":false,"rental_uris":{"android":"levelo://app?vid=d2b4a0f0-fc55-4e38-aaf6-365eb1cf6eec","ios":"levelo://app?vid=d2b4a0f0-fc55-4e38-aaf6-365eb1cf6eec"},"vehicle_type_id":"4","last_reported":1693073245,"current_range_meters":3200,"station_id":"ce4bgt12rcd13ifvqce0","pricing_plan_id":"free"},{"bike_id":"c23821ab-ad41-46b6-8c18-2cf157994e81","system_id":"levelo_inurba_marseille","lat":43.308012,"lon":5.381511,"is_reserved":false,"is_disabled":false,"rental_uris":{"android":"levelo://app?vid=c23821ab-ad41-46b6-8c18-2cf157994e81","ios":"levelo://app?vid=c23821ab-ad41-46b6-8c18-2cf157994e81"},"vehicle_type_id":"4","last_reported":1693073245,"current_range_meters":25200,"station_id":"ce4bgt12rcd13ifvqce0","pricing_plan_id":"free"},{"bike_id":"74541b68-8cfb-455f-a858-305b352dc4a0","system_id":"levelo_inurba_marseille","lat":43.308012,"lon":5.381511,"is_reserved":false,"is_disabled":false,"rental_uris":{"android":"levelo://app?vid=74541b68-8cfb-455f-a858-305b352dc4a0","ios":"levelo://app?vid=74541b68-8cfb-455f-a858-305b352dc4a0"},"vehicle_type_id":"4","last_reported":1693073245,"current_range_meters":27600,"station_id":"ce4bgt12rcd13ifvqce0","pricing_plan_id":"free"},{"bike_id":"47f12ad7-8c41-4eaa-9bae-0fd55fbf90be","system_id":"levelo_inurba_marseille","lat":43.304606,"lon":5.379026,"is_reserved":false,"is_disabled":false,"rental_uris":{"android":"levelo://app?vid=47f12ad7-8c41-4eaa-9bae-0fd55fbf90be","ios":"levelo://app?vid=47f12ad7-8c41-4eaa-9bae-0fd55fbf90be"},"vehicle_type_id":"4","last_reported":1693073245,"current_range_meters":30000,"station_id":"ce4bgup2rcd13ifvqcn0","pricing_plan_id":"free"},{"bike_id":"a707963a-e29d-4d81-8271-bf5a93d0ee07","system_id":"levelo_inurba_marseille","lat":43.302784,"lon":5.377158,"is_reserved":false,"is_disabled":false,"rental_uris":{"android":"levelo://app?vid=a707963a-e29d-4d81-8271-bf5a93d0ee07","ios":"levelo://app?vid=a707963a-e29d-4d81-8271-bf5a93d0ee07"},"vehicle_type_id":"4","last_reported":1693073245,"current_range_meters":23600,"station_id":"ce4bguh2rcd13ifvqcj0","pricing_plan_id":"free"},{"bike_id":"42df5a7d-9703-4651-9a8d-c8af7284ccc3","system_id":"levelo_inurba_marseille","lat":43.302784,"lon":5.377158,"is_reserved":false,"is_disabled":false,"rental_uris":{"android":"levelo://app?vid=42df5a7d-9703-4651-9a8d-c8af7284ccc3","ios":"levelo://app?vid=42df5a7d-9703-4651-9a8d-c8af7284ccc3"},"vehicle_type_id":"4","last_reported":1693073245,"current_range_meters":28800,"station_id":"ce4bguh2rcd13ifvqcj0","pricing_plan_id":"free"},{"bike_id":"c7a72889-083e-4b93-b5ea-24760adc43c4","system_id":"levelo_inurba_marseille","lat":43.319935,"lon":5.381699,"is_reserved":false,"is_disabled":false,"rental_uris":{"android":"levelo://app?vid=c7a72889-083e-4b93-b5ea-24760adc43c4","ios":"levelo://app?vid=c7a72889-083e-4b93-b5ea-24760adc43c4"},"vehicle_type_id":"4","last_reported":1693073245,"current_range_meters":7600,"station_id":"ce4bhr12rcd13ifvqhpg","pricing_plan_id":"free"},{"bike_id":"fb942c8d-a032-4a47-a636-553c9c5263ce","system_id":"levelo_inurba_marseille","lat":43.319935,"lon":5.381699,"is_reserved":false,"is_disabled":false,"rental_uris":{"android":"levelo://app?vid=fb942c8d-a032-4a47-a636-553c9c5263ce","ios":"levelo://app?vid=fb942c8d-a032-4a47-a636-553c9c5263ce"},"vehicle_type_id":"4","last_reported":1693073245,"current_range_meters":22000,"station_id":"ce4bhr12rcd13ifvqhpg","pricing_plan_id":"free"},{"bike_id":"e217bc3b-ef0d-49a8-bf15-6224cb81584b","system_id":"levelo_inurba_marseille","lat":43.319935,"lon":5.381699,"is_reserved":false,"is_disabled":false,"rental_uris":{"android":"levelo://app?vid=e217bc3b-ef0d-49a8-bf15-6224cb81584b","ios":"levelo://app?vid=e217bc3b-ef0d-49a8-bf15-6224cb81584b"},"vehicle_type_id":"4","last_reported":1693073245,"current_range_meters":16800,"station_id":"ce4bhr12rcd13ifvqhpg","pricing_plan_id":"free"},{"bike_id":"5115edf8-f7de-47e7-b191-f8839d4d91be","system_id":"levelo_inurba_marseille","lat":43.3199,"lon":5.38145,"is_reserved":false,"is_disabled":false,"rental_uris":{"android":"levelo://app?vid=5115edf8-f7de-47e7-b191-f8839d4d91be","ios":"levelo://app?vid=5115edf8-f7de-47e7-b191-f8839d4d91be"},"vehicle_type_id":"4","last_reported":1693073245,"current_range_meters":31200,"station_id":"ce4bhr12rcd13ifvqhpg","pricing_plan_id":"free"},{"bike_id":"8b3f047d-d5e9-49c6-836f-33da29f62b33","system_id":"levelo_inurba_marseille","lat":43.31994,"lon":5.38145,"is_reserved":false,"is_disabled":false,"rental_uris":{"android":"levelo://app?vid=8b3f047d-d5e9-49c6-836f-33da29f62b33","ios":"levelo://app?vid=8b3f047d-d5e9-49c6-836f-33da29f62b33"},"vehicle_type_id":"4","last_reported":1693073245,"current_range_meters":30400,"station_id":"ce4bhr12rcd13ifvqhpg","pricing_plan_id":"free"},{"bike_id":"d7f586a0-e69a-4f5b-98e6-f1752ef0846e","system_id":"levelo_inurba_marseille","lat":43.31992,"lon":5.38147,"is_reserved":false,"is_disabled":false,"rental_uris":{"android":"levelo://app?vid=d7f586a0-e69a-4f5b-98e6-f1752ef0846e","ios":"levelo://app?vid=d7f586a0-e69a-4f5b-98e6-f1752ef0846e"},"vehicle_type_id":"4","last_reported":1693073245,"current_range_meters":14000,"station_id":"ce4bhr12rcd13ifvqhpg","pricing_plan_id":"free"},{"bike_id":"93ce3b9b-5429-4bbe-8645-19396298a0a2","system_id":"levelo_inurba_marseille","lat":43.313571,"lon":5.384829,"is_reserved":false,"is_disabled":false,"rental_uris":{"android":"levelo://app?vid=93ce3b9b-5429-4bbe-8645-19396298a0a2","ios":"levelo://app?vid=93ce3b9b-5429-4bbe-8645-19396298a0a2"},"vehicle_type_id":"4","last_reported":1693073245,"current_range_meters":11600,"station_id":"ce4bgt92rcd13ifvqcf0","pricing_plan_id":"free"},{"bike_id":"9a0185ce-6a15-47b8-88b4-a28d4447033f","system_id":"levelo_inurba_marseille","lat":43.313571,"lon":5.384829,"is_reserved":false,"is_disabled":false,"rental_uris":{"android":"levelo://app?vid=9a0185ce-6a15-47b8-88b4-a28d4447033f","ios":"levelo://app?vid=9a0185ce-6a15-47b8-88b4-a28d4447033f"},"vehicle_type_id":"4","last_reported":1693073245,"current_range_meters":28400,"station_id":"ce4bgt92rcd13ifvqcf0","pricing_plan_id":"free"},{"bike_id":"ea5169f9-a759-47ee-b574-91e4af02d44e","system_id":"levelo_inurba_marseille","lat":43.313571,"lon":5.384829,"is_reserved":false,"is_disabled":false,"rental_uris":{"android":"levelo://app?vid=ea5169f9-a759-47ee-b574-91e4af02d44e","ios":"levelo://app?vid=ea5169f9-a759-47ee-b574-91e4af02d44e"},"vehicle_type_id":"4","last_reported":1693073245,"current_range_meters":18000,"station_id":"ce4bgt92rcd13ifvqcf0","pricing_plan_id":"free"},{"bike_id":"4b21a5d9-8335-43a4-b1e6-09c64a2b379c","system_id":"levelo_inurba_marseille","lat":43.313571,"lon":5.384829,"is_reserved":false,"is_disabled":false,"rental_uris":{"android":"levelo://app?vid=4b21a5d9-8335-43a4-b1e6-09c64a2b379c","ios":"levelo://app?vid=4b21a5d9-8335-43a4-b1e6-09c64a2b379c"},"vehicle_type_id":"4","last_reported":1693073245,"current_range_meters":30800,"station_id":"ce4bgt92rcd13ifvqcf0","pricing_plan_id":"free"},{"bike_id":"a738e6b5-395e-4351-bebf-a6a9389dff73","system_id":"levelo_inurba_marseille","lat":43.3135,"lon":5.38493,"is_reserved":false,"is_disabled":false,"rental_uris":{"android":"levelo://app?vid=a738e6b5-395e-4351-bebf-a6a9389dff73","ios":"levelo://app?vid=a738e6b5-395e-4351-bebf-a6a9389dff73"},"vehicle_type_id":"4","last_reported":1693073245,"current_range_meters":4800,"station_id":"ce4bgt92rcd13ifvqcf0","pricing_plan_id":"free"},{"bike_id":"d1f3e524-1f68-4fc6-bd7c-4e014edd3b14","system_id":"levelo_inurba_marseille","lat":43.299411,"lon":5.365614,"is_reserved":false,"is_disabled":false,"rental_uris":{"android":"levelo://app?vid=d1f3e524-1f68-4fc6-bd7c-4e014edd3b14","ios":"levelo://app?vid=d1f3e524-1f68-4fc6-bd7c-4e014edd3b14"},"vehicle_type_id":"4","last_reported":1693073245,"current_range_meters":14800,"station_id":"","pricing_plan_id":"free"},{"bike_id":"89e8d102-974a-46dc-b275-75f0f58bff91","system_id":"levelo_inurba_marseille","lat":43.29929,"lon":5.36542,"is_reserved":false,"is_disabled":false,"rental_uris":{"android":"levelo://app?vid=89e8d102-974a-46dc-b275-75f0f58bff91","ios":"levelo://app?vid=89e8d102-974a-46dc-b275-75f0f58bff91"},"vehicle_type_id":"4","last_reported":1693073245,"current_range_meters":3600,"station_id":"ce4bgm92rcd13ifvqbr0","pricing_plan_id":"free"},{"bike_id":"ca97f04d-96c4-47a2-b46c-9bfc67441381","system_id":"levelo_inurba_marseille","lat":43.29885,"lon":5.3719,"is_reserved":false,"is_disabled":false,"rental_uris":{"android":"levelo://app?vid=ca97f04d-96c4-47a2-b46c-9bfc67441381","ios":"levelo://app?vid=ca97f04d-96c4-47a2-b46c-9bfc67441381"},"vehicle_type_id":"4","last_reported":1693073245,"current_range_meters":0,"station_id":"","pricing_plan_id":"free"},{"bike_id":"cd93f581-cac1-4fa7-a1ee-9cd2a5bc7cf9","system_id":"levelo_inurba_marseille","lat":43.305364,"lon":5.384119,"is_reserved":false,"is_disabled":false,"rental_uris":{"android":"levelo://app?vid=cd93f581-cac1-4fa7-a1ee-9cd2a5bc7cf9","ios":"levelo://app?vid=cd93f581-cac1-4fa7-a1ee-9cd2a5bc7cf9"},"vehicle_type_id":"4","last_reported":1693073245,"current_range_meters":20800,"station_id":"ce4bgg92rcd13ifvqb30","pricing_plan_id":"free"},{"bike_id":"ea628102-f413-4421-a451-01c3055a1ca3","system_id":"levelo_inurba_marseille","lat":43.3053,"lon":5.38426,"is_reserved":false,"is_disabled":false,"rental_uris":{"android":"levelo://app?vid=ea628102-f413-4421-a451-01c3055a1ca3","ios":"levelo://app?vid=ea628102-f413-4421-a451-01c3055a1ca3"},"vehicle_type_id":"4","last_reported":1693073245,"current_range_meters":22000,"station_id":"ce4bgg92rcd13ifvqb30","pricing_plan_id":"free"},{"bike_id":"35eec3a1-aa54-4990-8eb4-78e6c0dd24d0","system_id":"levelo_inurba_marseille","lat":43.299243,"lon":5.374807,"is_reserved":false,"is_disabled":false,"rental_uris":{"android":"levelo://app?vid=35eec3a1-aa54-4990-8eb4-78e6c0dd24d0","ios":"levelo://app?vid=35eec3a1-aa54-4990-8eb4-78e6c0dd24d0"},"vehicle_type_id":"4","last_reported":1693073245,"current_range_meters":29200,"station_id":"ce4bgjh2rcd13ifvqbg0","pricing_plan_id":"free"},{"bike_id":"2e12127f-2321-410d-b295-27ec33ede6d0","system_id":"levelo_inurba_marseille","lat":43.311722,"lon":5.387247,"is_reserved":false,"is_disabled":false,"rental_uris":{"android":"levelo://app?vid=2e12127f-2321-410d-b295-27ec33ede6d0","ios":"levelo://app?vid=2e12127f-2321-410d-b295-27ec33ede6d0"},"vehicle_type_id":"4","last_reported":1693073245,"current_range_meters":19200,"station_id":"ce4bgv12rcd13ifvqcp0","pricing_plan_id":"free"},{"bike_id":"b8426615-75e5-4615-bd4c-bef8f4254189","system_id":"levelo_inurba_marseille","lat":43.311722,"lon":5.387247,"is_reserved":false,"is_disabled":false,"rental_uris":{"android":"levelo://app?vid=b8426615-75e5-4615-bd4c-bef8f4254189","ios":"levelo://app?vid=b8426615-75e5-4615-bd4c-bef8f4254189"},"vehicle_type_id":"4","last_reported":1693073245,"current_range_meters":22000,"station_id":"ce4bgv12rcd13ifvqcp0","pricing_plan_id":"free"},{"bike_id":"2f9e2def-2173-4eb4-a460-9a385f59debe","system_id":"levelo_inurba_marseille","lat":43.299243,"lon":5.37481,"is_reserved":false,"is_disabled":false,"rental_uris":{"android":"levelo://app?vid=2f9e2def-2173-4eb4-a460-9a385f59debe","ios":"levelo://app?vid=2f9e2def-2173-4eb4-a460-9a385f59debe"},"vehicle_type_id":"4","last_reported":1693073245,"current_range_meters":31200,"station_id":"ce4bgjh2rcd13ifvqbg0","pricing_plan_id":"free"},{"bike_id":"74bb8e6c-4d66-4dad-992e-bd7bea15b2f1","system_id":"levelo_inurba_marseille","lat":43.311648,"lon":5.387257,"is_reserved":false,"is_disabled":false,"rental_uris":{"android":"levelo://app?vid=74bb8e6c-4d66-4dad-992e-bd7bea15b2f1","ios":"levelo://app?vid=74bb8e6c-4d66-4dad-992e-bd7bea15b2f1"},"vehicle_type_id":"4","last_reported":1693073245,"current_range_meters":0,"station_id":"ce4bgv12rcd13ifvqcp0","pricing_plan_id":"free"},{"bike_id":"d33833fc-1832-4a43-8c70-5bbddc275d7d","system_id":"levelo_inurba_marseille","lat":43.29903,"lon":5.37472,"is_reserved":false,"is_disabled":false,"rental_uris":{"android":"levelo://app?vid=d33833fc-1832-4a43-8c70-5bbddc275d7d","ios":"levelo://app?vid=d33833fc-1832-4a43-8c70-5bbddc275d7d"},"vehicle_type_id":"4","last_reported":1693073245,"current_range_meters":31200,"station_id":"ce4bgjh2rcd13ifvqbg0","pricing_plan_id":"free"},{"bike_id":"05fc681e-15a8-49b7-90dc-f51193890685","system_id":"levelo_inurba_marseille","lat":43.322872,"lon":5.382756,"is_reserved":false,"is_disabled":false,"rental_uris":{"android":"levelo://app?vid=05fc681e-15a8-49b7-90dc-f51193890685","ios":"levelo://app?vid=05fc681e-15a8-49b7-90dc-f51193890685"},"vehicle_type_id":"4","last_reported":1693073245,"current_range_meters":800,"station_id":"ce4bhr12rcd13ifvqhqg","pricing_plan_id":"free"},{"bike_id":"07d4fd20-6b48-4e12-b9fd-b3d2fcefc6bc","system_id":"levelo_inurba_marseille","lat":43.32813,"lon":5.36688,"is_reserved":false,"is_disabled":false,"rental_uris":{"android":"levelo://app?vid=07d4fd20-6b48-4e12-b9fd-b3d2fcefc6bc","ios":"levelo://app?vid=07d4fd20-6b48-4e12-b9fd-b3d2fcefc6bc"},"vehicle_type_id":"4","last_reported":1693073245,"current_range_meters":8800,"station_id":"ce4bhs92rcd13ifvqi0g","pricing_plan_id":"free"},{"bike_id":"2ddc5d1c-4a62-4d0b-b125-a6c57642f6bb","system_id":"levelo_inurba_marseille","lat":43.32825,"lon":5.36692,"is_reserved":false,"is_disabled":false,"rental_uris":{"android":"levelo://app?vid=2ddc5d1c-4a62-4d0b-b125-a6c57642f6bb","ios":"levelo://app?vid=2ddc5d1c-4a62-4d0b-b125-a6c57642f6bb"},"vehicle_type_id":"4","last_reported":1693073245,"current_range_meters":25200,"station_id":"ce4bhs92rcd13ifvqi0g","pricing_plan_id":"free"},{"bike_id":"8057ac88-8d25-428e-84e9-d8292b70b67a","system_id":"levelo_inurba_marseille","lat":43.32827,"lon":5.36687,"is_reserved":false,"is_disabled":false,"rental_uris":{"android":"levelo://app?vid=8057ac88-8d25-428e-84e9-d8292b70b67a","ios":"levelo://app?vid=8057ac88-8d25-428e-84e9-d8292b70b67a"},"vehicle_type_id":"4","last_reported":1693073245,"current_range_meters":31200,"station_id":"ce4bhs92rcd13ifvqi0g","pricing_plan_id":"free"},{"bike_id":"b2a6fc0b-fe04-43b7-8835-223f314ba282","system_id":"levelo_inurba_marseille","lat":43.32829,"lon":5.366933,"is_reserved":false,"is_disabled":false,"rental_uris":{"android":"levelo://app?vid=b2a6fc0b-fe04-43b7-8835-223f314ba282","ios":"levelo://app?vid=b2a6fc0b-fe04-43b7-8835-223f314ba282"},"vehicle_type_id":"4","last_reported":1693073245,"current_range_meters":22400,"station_id":"ce4bhs92rcd13ifvqi0g","pricing_plan_id":"free"},{"bike_id":"704c0286-52b4-4880-abba-175a138f0784","system_id":"levelo_inurba_marseille","lat":43.3283,"lon":5.36687,"is_reserved":false,"is_disabled":false,"rental_uris":{"android":"levelo://app?vid=704c0286-52b4-4880-abba-175a138f0784","ios":"levelo://app?vid=704c0286-52b4-4880-abba-175a138f0784"},"vehicle_type_id":"4","last_reported":1693073245,"current_range_meters":22400,"station_id":"ce4bhs92rcd13ifvqi0g","pricing_plan_id":"free"},{"bike_id":"7713fce6-61f5-48dd-a139-0a91fcbcc973","system_id":"levelo_inurba_marseille","lat":43.3283,"lon":5.36683,"is_reserved":false,"is_disabled":false,"rental_uris":{"android":"levelo://app?vid=7713fce6-61f5-48dd-a139-0a91fcbcc973","ios":"levelo://app?vid=7713fce6-61f5-48dd-a139-0a91fcbcc973"},"vehicle_type_id":"4","last_reported":1693073245,"current_range_meters":31200,"station_id":"ce4bhs92rcd13ifvqi0g","pricing_plan_id":"free"},{"bike_id":"e14011d4-70c8-482b-a069-d20f8cb9b36a","system_id":"levelo_inurba_marseille","lat":43.32833,"lon":5.36687,"is_reserved":false,"is_disabled":false,"rental_uris":{"android":"levelo://app?vid=e14011d4-70c8-482b-a069-d20f8cb9b36a","ios":"levelo://app?vid=e14011d4-70c8-482b-a069-d20f8cb9b36a"},"vehicle_type_id":"4","last_reported":1693073245,"current_range_meters":8400,"station_id":"ce4bhs92rcd13ifvqi0g","pricing_plan_id":"free"},{"bike_id":"bd0bd295-6ecc-40c4-a4d0-89f645593756","system_id":"levelo_inurba_marseille","lat":43.297163,"lon":5.365866,"is_reserved":false,"is_disabled":false,"rental_uris":{"android":"levelo://app?vid=bd0bd295-6ecc-40c4-a4d0-89f645593756","ios":"levelo://app?vid=bd0bd295-6ecc-40c4-a4d0-89f645593756"},"vehicle_type_id":"4","last_reported":1693073245,"current_range_meters":22800,"station_id":"ce4bgn12rcd13ifvqbt0","pricing_plan_id":"free"},{"bike_id":"dd789220-e7b5-42c1-b9dc-dc4243148021","system_id":"levelo_inurba_marseille","lat":43.297163,"lon":5.365866,"is_reserved":false,"is_disabled":false,"rental_uris":{"android":"levelo://app?vid=dd789220-e7b5-42c1-b9dc-dc4243148021","ios":"levelo://app?vid=dd789220-e7b5-42c1-b9dc-dc4243148021"},"vehicle_type_id":"4","last_reported":1693073245,"current_range_meters":31200,"station_id":"ce4bgn12rcd13ifvqbt0","pricing_plan_id":"free"},{"bike_id":"65d934c8-ea94-404c-b991-a012f59c0b64","system_id":"levelo_inurba_marseille","lat":43.29619,"lon":5.37162,"is_reserved":false,"is_disabled":false,"rental_uris":{"android":"levelo://app?vid=65d934c8-ea94-404c-b991-a012f59c0b64","ios":"levelo://app?vid=65d934c8-ea94-404c-b991-a012f59c0b64"},"vehicle_type_id":"4","last_reported":1693073245,"current_range_meters":28000,"station_id":"","pricing_plan_id":"free"},{"bike_id":"d3139180-8ba9-4c91-b6e4-8baae3c22113","system_id":"levelo_inurba_marseille","lat":43.296129,"lon":5.370777,"is_reserved":false,"is_disabled":false,"rental_uris":{"android":"levelo://app?vid=d3139180-8ba9-4c91-b6e4-8baae3c22113","ios":"levelo://app?vid=d3139180-8ba9-4c91-b6e4-8baae3c22113"},"vehicle_type_id":"4","last_reported":1693073245,"current_range_meters":31200,"station_id":"ce4bgnh2rcd13ifvqc0g","pricing_plan_id":"free"},{"bike_id":"6082c8ad-deaa-4635-8ba3-4f55c0b91b90","system_id":"levelo_inurba_marseille","lat":43.296935,"lon":5.376544,"is_reserved":false,"is_disabled":false,"rental_uris":{"android":"levelo://app?vid=6082c8ad-deaa-4635-8ba3-4f55c0b91b90","ios":"levelo://app?vid=6082c8ad-deaa-4635-8ba3-4f55c0b91b90"},"vehicle_type_id":"4","last_reported":1693073245,"current_range_meters":2400,"station_id":"ce4bgkh2rcd13ifvqbl0","pricing_plan_id":"free"},{"bike_id":"64ecbfc8-ff67-4eb0-b8ff-1234008507fa","system_id":"levelo_inurba_marseille","lat":43.317557,"lon":5.390173,"is_reserved":false,"is_disabled":false,"rental_uris":{"android":"levelo://app?vid=64ecbfc8-ff67-4eb0-b8ff-1234008507fa","ios":"levelo://app?vid=64ecbfc8-ff67-4eb0-b8ff-1234008507fa"},"vehicle_type_id":"4","last_reported":1693073245,"current_range_meters":29200,"station_id":"ce4bhqp2rcd13ifvqhng","pricing_plan_id":"free"},{"bike_id":"89f7f089-ec62-4cd7-aee5-a20760195e67","system_id":"levelo_inurba_marseille","lat":43.317557,"lon":5.390173,"is_reserved":false,"is_disabled":false,"rental_uris":{"android":"levelo://app?vid=89f7f089-ec62-4cd7-aee5-a20760195e67","ios":"levelo://app?vid=89f7f089-ec62-4cd7-aee5-a20760195e67"},"vehicle_type_id":"4","last_reported":1693073245,"current_range_meters":15600,"station_id":"ce4bhqp2rcd13ifvqhng","pricing_plan_id":"free"},{"bike_id":"d2612f93-4d67-4063-bece-84f523bf8653","system_id":"levelo_inurba_marseille","lat":43.317557,"lon":5.390173,"is_reserved":false,"is_disabled":false,"rental_uris":{"android":"levelo://app?vid=d2612f93-4d67-4063-bece-84f523bf8653","ios":"levelo://app?vid=d2612f93-4d67-4063-bece-84f523bf8653"},"vehicle_type_id":"4","last_reported":1693073245,"current_range_meters":31600,"station_id":"ce4bhqp2rcd13ifvqhng","pricing_plan_id":"free"},{"bike_id":"c9cda5a6-10c5-4b8c-bbc9-e6d2d5325efb","system_id":"levelo_inurba_marseille","lat":43.317557,"lon":5.390173,"is_reserved":false,"is_disabled":false,"rental_uris":{"android":"levelo://app?vid=c9cda5a6-10c5-4b8c-bbc9-e6d2d5325efb","ios":"levelo://app?vid=c9cda5a6-10c5-4b8c-bbc9-e6d2d5325efb"},"vehicle_type_id":"4","last_reported":1693073245,"current_range_meters":27200,"station_id":"ce4bhqp2rcd13ifvqhng","pricing_plan_id":"free"},{"bike_id":"f5e2e49a-ce99-4c54-a648-614acf43f3a7","system_id":"levelo_inurba_marseille","lat":43.317557,"lon":5.390173,"is_reserved":false,"is_disabled":false,"rental_uris":{"android":"levelo://app?vid=f5e2e49a-ce99-4c54-a648-614acf43f3a7","ios":"levelo://app?vid=f5e2e49a-ce99-4c54-a648-614acf43f3a7"},"vehicle_type_id":"4","last_reported":1693073245,"current_range_meters":27600,"station_id":"ce4bhqp2rcd13ifvqhng","pricing_plan_id":"free"},{"bike_id":"2c93ce6f-c5e1-4ec9-9941-ebb7469bb8f2","system_id":"levelo_inurba_marseille","lat":43.317557,"lon":5.390173,"is_reserved":false,"is_disabled":false,"rental_uris":{"android":"levelo://app?vid=2c93ce6f-c5e1-4ec9-9941-ebb7469bb8f2","ios":"levelo://app?vid=2c93ce6f-c5e1-4ec9-9941-ebb7469bb8f2"},"vehicle_type_id":"4","last_reported":1693073245,"current_range_meters":31600,"station_id":"ce4bhqp2rcd13ifvqhng","pricing_plan_id":"free"},{"bike_id":"c67ad637-1c26-47b7-934d-bb491bfbb909","system_id":"levelo_inurba_marseille","lat":43.298037,"lon":5.381066,"is_reserved":false,"is_disabled":false,"rental_uris":{"android":"levelo://app?vid=c67ad637-1c26-47b7-934d-bb491bfbb909","ios":"levelo://app?vid=c67ad637-1c26-47b7-934d-bb491bfbb909"},"vehicle_type_id":"4","last_reported":1693073245,"current_range_meters":18000,"station_id":"ce4bgip2rcd13ifvqbb0","pricing_plan_id":"free"},{"bike_id":"836476fc-9449-40ca-9e17-7407f84f8749","system_id":"levelo_inurba_marseille","lat":43.304278,"lon":5.388868,"is_reserved":false,"is_disabled":false,"rental_uris":{"android":"levelo://app?vid=836476fc-9449-40ca-9e17-7407f84f8749","ios":"levelo://app?vid=836476fc-9449-40ca-9e17-7407f84f8749"},"vehicle_type_id":"4","last_reported":1693073245,"current_range_meters":11200,"station_id":"ce4bgk12rcd13ifvqbi0","pricing_plan_id":"free"},{"bike_id":"6f5e072f-f4fa-48dc-894d-faec43fb8f2d","system_id":"levelo_inurba_marseille","lat":43.30442,"lon":5.38888,"is_reserved":false,"is_disabled":false,"rental_uris":{"android":"levelo://app?vid=6f5e072f-f4fa-48dc-894d-faec43fb8f2d","ios":"levelo://app?vid=6f5e072f-f4fa-48dc-894d-faec43fb8f2d"},"vehicle_type_id":"4","last_reported":1693073245,"current_range_meters":0,"station_id":"ce4bgk12rcd13ifvqbi0","pricing_plan_id":"free"},{"bike_id":"7efcd889-1460-4e2c-a0dc-9ba14be8c64e","system_id":"levelo_inurba_marseille","lat":43.30424,"lon":5.38882,"is_reserved":false,"is_disabled":false,"rental_uris":{"android":"levelo://app?vid=7efcd889-1460-4e2c-a0dc-9ba14be8c64e","ios":"levelo://app?vid=7efcd889-1460-4e2c-a0dc-9ba14be8c64e"},"vehicle_type_id":"4","last_reported":1693073245,"current_range_meters":3200,"station_id":"ce4bgk12rcd13ifvqbi0","pricing_plan_id":"free"},{"bike_id":"952a19e7-6602-41c3-942f-79cfb514366f","system_id":"levelo_inurba_marseille","lat":43.296277,"lon":5.377108,"is_reserved":false,"is_disabled":false,"rental_uris":{"android":"levelo://app?vid=952a19e7-6602-41c3-942f-79cfb514366f","ios":"levelo://app?vid=952a19e7-6602-41c3-942f-79cfb514366f"},"vehicle_type_id":"4","last_reported":1693073245,"current_range_meters":30000,"station_id":"ce4bgi92rcd13ifvqb90","pricing_plan_id":"free"},{"bike_id":"329b52da-6179-4119-8885-76b50cbdc2a9","system_id":"levelo_inurba_marseille","lat":43.30059,"lon":5.38669,"is_reserved":false,"is_disabled":false,"rental_uris":{"android":"levelo://app?vid=329b52da-6179-4119-8885-76b50cbdc2a9","ios":"levelo://app?vid=329b52da-6179-4119-8885-76b50cbdc2a9"},"vehicle_type_id":"4","last_reported":1693073245,"current_range_meters":22400,"station_id":"","pricing_plan_id":"free"},{"bike_id":"00883cd9-a56a-4720-bb55-237d0136a4a1","system_id":"levelo_inurba_marseille","lat":43.32367,"lon":5.388836,"is_reserved":false,"is_disabled":false,"rental_uris":{"android":"levelo://app?vid=00883cd9-a56a-4720-bb55-237d0136a4a1","ios":"levelo://app?vid=00883cd9-a56a-4720-bb55-237d0136a4a1"},"vehicle_type_id":"4","last_reported":1693073245,"current_range_meters":15600,"station_id":"ce4bhqp2rcd13ifvqhog","pricing_plan_id":"free"},{"bike_id":"a60f3a66-6cff-4fd2-b07d-9ae73cbcfda9","system_id":"levelo_inurba_marseille","lat":43.32365,"lon":5.38882,"is_reserved":false,"is_disabled":false,"rental_uris":{"android":"levelo://app?vid=a60f3a66-6cff-4fd2-b07d-9ae73cbcfda9","ios":"levelo://app?vid=a60f3a66-6cff-4fd2-b07d-9ae73cbcfda9"},"vehicle_type_id":"4","last_reported":1693073245,"current_range_meters":17200,"station_id":"ce4bhqp2rcd13ifvqhog","pricing_plan_id":"free"},{"bike_id":"ab25e435-1bfc-48be-9e8d-b475a2abf5a1","system_id":"levelo_inurba_marseille","lat":43.32367,"lon":5.388836,"is_reserved":false,"is_disabled":false,"rental_uris":{"android":"levelo://app?vid=ab25e435-1bfc-48be-9e8d-b475a2abf5a1","ios":"levelo://app?vid=ab25e435-1bfc-48be-9e8d-b475a2abf5a1"},"vehicle_type_id":"4","last_reported":1693073245,"current_range_meters":7200,"station_id":"ce4bhqp2rcd13ifvqhog","pricing_plan_id":"free"},{"bike_id":"e1417aa2-95cd-4ec4-b056-78321d8237ce","system_id":"levelo_inurba_marseille","lat":43.32364,"lon":5.38901,"is_reserved":false,"is_disabled":false,"rental_uris":{"android":"levelo://app?vid=e1417aa2-95cd-4ec4-b056-78321d8237ce","ios":"levelo://app?vid=e1417aa2-95cd-4ec4-b056-78321d8237ce"},"vehicle_type_id":"4","last_reported":1693073245,"current_range_meters":24800,"station_id":"ce4bhqp2rcd13ifvqhog","pricing_plan_id":"free"},{"bike_id":"f0e82d31-d860-482f-bd5b-419c07c26d2c","system_id":"levelo_inurba_marseille","lat":43.29601,"lon":5.381084,"is_reserved":false,"is_disabled":false,"rental_uris":{"android":"levelo://app?vid=f0e82d31-d860-482f-bd5b-419c07c26d2c","ios":"levelo://app?vid=f0e82d31-d860-482f-bd5b-419c07c26d2c"},"vehicle_type_id":"4","last_reported":1693073245,"current_range_meters":26400,"station_id":"ce4bgl12rcd13ifvqbo0","pricing_plan_id":"free"},{"bike_id":"a427fef7-bad6-4b27-a3cc-00419da4bc87","system_id":"levelo_inurba_marseille","lat":43.29596,"lon":5.38111,"is_reserved":false,"is_disabled":false,"rental_uris":{"android":"levelo://app?vid=a427fef7-bad6-4b27-a3cc-00419da4bc87","ios":"levelo://app?vid=a427fef7-bad6-4b27-a3cc-00419da4bc87"},"vehicle_type_id":"4","last_reported":1693073245,"current_range_meters":20400,"station_id":"ce4bgl12rcd13ifvqbo0","pricing_plan_id":"free"},{"bike_id":"38fef587-7cc5-4800-b069-87b8f296a10a","system_id":"levelo_inurba_marseille","lat":43.293009,"lon":5.374584,"is_reserved":false,"is_disabled":false,"rental_uris":{"android":"levelo://app?vid=38fef587-7cc5-4800-b069-87b8f296a10a","ios":"levelo://app?vid=38fef587-7cc5-4800-b069-87b8f296a10a"},"vehicle_type_id":"4","last_reported":1693073245,"current_range_meters":31200,"station_id":"ce4bgi12rcd13ifvqb70","pricing_plan_id":"free"},{"bike_id":"6533c646-1091-4458-9ef2-bc9d36dce22d","system_id":"levelo_inurba_marseille","lat":43.29291,"lon":5.37442,"is_reserved":false,"is_disabled":false,"rental_uris":{"android":"levelo://app?vid=6533c646-1091-4458-9ef2-bc9d36dce22d","ios":"levelo://app?vid=6533c646-1091-4458-9ef2-bc9d36dce22d"},"vehicle_type_id":"4","last_reported":1693073245,"current_range_meters":28400,"station_id":"ce4bgi12rcd13ifvqb70","pricing_plan_id":"free"},{"bike_id":"0724f352-a262-45b7-9b71-9a09ff17d945","system_id":"levelo_inurba_marseille","lat":43.30302,"lon":5.39201,"is_reserved":false,"is_disabled":false,"rental_uris":{"android":"levelo://app?vid=0724f352-a262-45b7-9b71-9a09ff17d945","ios":"levelo://app?vid=0724f352-a262-45b7-9b71-9a09ff17d945"},"vehicle_type_id":"4","last_reported":1693073245,"current_range_meters":11600,"station_id":"ce4bgkh2rcd13ifvqbk0","pricing_plan_id":"free"},{"bike_id":"5d33a6d9-3c5e-481e-b182-433985274fbe","system_id":"levelo_inurba_marseille","lat":43.30299,"lon":5.39207,"is_reserved":false,"is_disabled":false,"rental_uris":{"android":"levelo://app?vid=5d33a6d9-3c5e-481e-b182-433985274fbe","ios":"levelo://app?vid=5d33a6d9-3c5e-481e-b182-433985274fbe"},"vehicle_type_id":"4","last_reported":1693073245,"current_range_meters":15200,"station_id":"ce4bgkh2rcd13ifvqbk0","pricing_plan_id":"free"},{"bike_id":"59d4a7cc-c4d8-47e1-a63f-2e26b5d209c3","system_id":"levelo_inurba_marseille","lat":43.2936,"lon":5.37835,"is_reserved":false,"is_disabled":false,"rental_uris":{"android":"levelo://app?vid=59d4a7cc-c4d8-47e1-a63f-2e26b5d209c3","ios":"levelo://app?vid=59d4a7cc-c4d8-47e1-a63f-2e26b5d209c3"},"vehicle_type_id":"4","last_reported":1693073245,"current_range_meters":31200,"station_id":"ce4bgjh2rcd13ifvqbf0","pricing_plan_id":"free"},{"bike_id":"7f36bc69-b5b4-4d2e-a083-d954c09e773b","system_id":"levelo_inurba_marseille","lat":43.30085,"lon":5.390856,"is_reserved":false,"is_disabled":false,"rental_uris":{"android":"levelo://app?vid=7f36bc69-b5b4-4d2e-a083-d954c09e773b","ios":"levelo://app?vid=7f36bc69-b5b4-4d2e-a083-d954c09e773b"},"vehicle_type_id":"4","last_reported":1693073245,"current_range_meters":30000,"station_id":"ce4bh192rcd13ifvqdb0","pricing_plan_id":"free"},{"bike_id":"5e5d43fa-fe9d-4577-b57f-b8fe03f77e2e","system_id":"levelo_inurba_marseille","lat":43.292311,"lon":5.360731,"is_reserved":false,"is_disabled":false,"rental_uris":{"android":"levelo://app?vid=5e5d43fa-fe9d-4577-b57f-b8fe03f77e2e","ios":"levelo://app?vid=5e5d43fa-fe9d-4577-b57f-b8fe03f77e2e"},"vehicle_type_id":"4","last_reported":1693073245,"current_range_meters":7200,"station_id":"ce4bhbh2rcd13ifvqeqg","pricing_plan_id":"free"},{"bike_id":"fd634a67-d466-4966-9e65-d7936b35762e","system_id":"levelo_inurba_marseille","lat":43.300852,"lon":5.390859,"is_reserved":false,"is_disabled":false,"rental_uris":{"android":"levelo://app?vid=fd634a67-d466-4966-9e65-d7936b35762e","ios":"levelo://app?vid=fd634a67-d466-4966-9e65-d7936b35762e"},"vehicle_type_id":"4","last_reported":1693073245,"current_range_meters":7600,"station_id":"ce4bh192rcd13ifvqdb0","pricing_plan_id":"free"},{"bike_id":"e44d20f1-b50d-4ec5-9358-ae98bfda74ec","system_id":"levelo_inurba_marseille","lat":43.29211,"lon":5.36058,"is_reserved":false,"is_disabled":false,"rental_uris":{"android":"levelo://app?vid=e44d20f1-b50d-4ec5-9358-ae98bfda74ec","ios":"levelo://app?vid=e44d20f1-b50d-4ec5-9358-ae98bfda74ec"},"vehicle_type_id":"4","last_reported":1693073245,"current_range_meters":25200,"station_id":"ce4bhbh2rcd13ifvqeqg","pricing_plan_id":"free"},{"bike_id":"c19ab84a-3136-4e34-8bbc-57dfa3d39b09","system_id":"levelo_inurba_marseille","lat":43.29255,"lon":5.37623,"is_reserved":false,"is_disabled":false,"rental_uris":{"android":"levelo://app?vid=c19ab84a-3136-4e34-8bbc-57dfa3d39b09","ios":"levelo://app?vid=c19ab84a-3136-4e34-8bbc-57dfa3d39b09"},"vehicle_type_id":"4","last_reported":1693073245,"current_range_meters":2000,"station_id":"ce4bgi12rcd13ifvqb80","pricing_plan_id":"free"},{"bike_id":"716d6b1b-66e7-4fc9-8bb8-61f3875cbd5b","system_id":"levelo_inurba_marseille","lat":43.30887,"lon":5.3963,"is_reserved":false,"is_disabled":false,"rental_uris":{"android":"levelo://app?vid=716d6b1b-66e7-4fc9-8bb8-61f3875cbd5b","ios":"levelo://app?vid=716d6b1b-66e7-4fc9-8bb8-61f3875cbd5b"},"vehicle_type_id":"4","last_reported":1693073245,"current_range_meters":9600,"station_id":"ce4bh012rcd13ifvqcv0","pricing_plan_id":"free"},{"bike_id":"7a507604-3f70-4cfb-ae37-787d5a1598e4","system_id":"levelo_inurba_marseille","lat":43.309038,"lon":5.396546,"is_reserved":false,"is_disabled":false,"rental_uris":{"android":"levelo://app?vid=7a507604-3f70-4cfb-ae37-787d5a1598e4","ios":"levelo://app?vid=7a507604-3f70-4cfb-ae37-787d5a1598e4"},"vehicle_type_id":"4","last_reported":1693073245,"current_range_meters":29600,"station_id":"ce4bh012rcd13ifvqcv0","pricing_plan_id":"free"},{"bike_id":"3144a3aa-a47a-471c-b70b-a2b2e2097bfd","system_id":"levelo_inurba_marseille","lat":43.309038,"lon":5.396546,"is_reserved":false,"is_disabled":false,"rental_uris":{"android":"levelo://app?vid=3144a3aa-a47a-471c-b70b-a2b2e2097bfd","ios":"levelo://app?vid=3144a3aa-a47a-471c-b70b-a2b2e2097bfd"},"vehicle_type_id":"4","last_reported":1693073245,"current_range_meters":26000,"station_id":"ce4bh012rcd13ifvqcv0","pricing_plan_id":"free"},{"bike_id":"3f19ff33-c8d8-4257-914f-3cc20db85684","system_id":"levelo_inurba_marseille","lat":43.31331,"lon":5.39688,"is_reserved":false,"is_disabled":false,"rental_uris":{"android":"levelo://app?vid=3f19ff33-c8d8-4257-914f-3cc20db85684","ios":"levelo://app?vid=3f19ff33-c8d8-4257-914f-3cc20db85684"},"vehicle_type_id":"4","last_reported":1693073245,"current_range_meters":7200,"station_id":"ce4bgvp2rcd13ifvqcu0","pricing_plan_id":"free"},{"bike_id":"75139e2c-0091-43cd-bf50-3544f81b5fcc","system_id":"levelo_inurba_marseille","lat":43.31325,"lon":5.39694,"is_reserved":false,"is_disabled":false,"rental_uris":{"android":"levelo://app?vid=75139e2c-0091-43cd-bf50-3544f81b5fcc","ios":"levelo://app?vid=75139e2c-0091-43cd-bf50-3544f81b5fcc"},"vehicle_type_id":"4","last_reported":1693073245,"current_range_meters":2800,"station_id":"ce4bgvp2rcd13ifvqcu0","pricing_plan_id":"free"},{"bike_id":"654be7d2-1180-45ff-9d09-e7449084c6ef","system_id":"levelo_inurba_marseille","lat":43.3088,"lon":5.39652,"is_reserved":false,"is_disabled":false,"rental_uris":{"android":"levelo://app?vid=654be7d2-1180-45ff-9d09-e7449084c6ef","ios":"levelo://app?vid=654be7d2-1180-45ff-9d09-e7449084c6ef"},"vehicle_type_id":"4","last_reported":1693073245,"current_range_meters":4000,"station_id":"ce4bh012rcd13ifvqcv0","pricing_plan_id":"free"},{"bike_id":"487e0538-28ed-4595-864d-2083f8b6aa8f","system_id":"levelo_inurba_marseille","lat":43.309038,"lon":5.396546,"is_reserved":false,"is_disabled":false,"rental_uris":{"android":"levelo://app?vid=487e0538-28ed-4595-864d-2083f8b6aa8f","ios":"levelo://app?vid=487e0538-28ed-4595-864d-2083f8b6aa8f"},"vehicle_type_id":"4","last_reported":1693073245,"current_range_meters":14000,"station_id":"ce4bh012rcd13ifvqcv0","pricing_plan_id":"free"},{"bike_id":"9596d6a7-d87c-420e-9f03-7db8fc09de15","system_id":"levelo_inurba_marseille","lat":43.309038,"lon":5.396546,"is_reserved":false,"is_disabled":false,"rental_uris":{"android":"levelo://app?vid=9596d6a7-d87c-420e-9f03-7db8fc09de15","ios":"levelo://app?vid=9596d6a7-d87c-420e-9f03-7db8fc09de15"},"vehicle_type_id":"4","last_reported":1693073245,"current_range_meters":13200,"station_id":"ce4bh012rcd13ifvqcv0","pricing_plan_id":"free"},{"bike_id":"0d526de8-01fa-49ef-9ac4-34d822e5463a","system_id":"levelo_inurba_marseille","lat":43.29529,"lon":5.385581,"is_reserved":false,"is_disabled":false,"rental_uris":{"android":"levelo://app?vid=0d526de8-01fa-49ef-9ac4-34d822e5463a","ios":"levelo://app?vid=0d526de8-01fa-49ef-9ac4-34d822e5463a"},"vehicle_type_id":"4","last_reported":1693073245,"current_range_meters":7600,"station_id":"ce4bgih2rcd13ifvqba0","pricing_plan_id":"free"},{"bike_id":"5de2702d-6f6d-47dc-9d5a-0e407dbb6d19","system_id":"levelo_inurba_marseille","lat":43.29529,"lon":5.385581,"is_reserved":false,"is_disabled":false,"rental_uris":{"android":"levelo://app?vid=5de2702d-6f6d-47dc-9d5a-0e407dbb6d19","ios":"levelo://app?vid=5de2702d-6f6d-47dc-9d5a-0e407dbb6d19"},"vehicle_type_id":"4","last_reported":1693073245,"current_range_meters":20800,"station_id":"ce4bgih2rcd13ifvqba0","pricing_plan_id":"free"},{"bike_id":"a84e5bf7-84fc-4cf0-83f2-5bc518b27089","system_id":"levelo_inurba_marseille","lat":43.29527,"lon":5.38534,"is_reserved":false,"is_disabled":false,"rental_uris":{"android":"levelo://app?vid=a84e5bf7-84fc-4cf0-83f2-5bc518b27089","ios":"levelo://app?vid=a84e5bf7-84fc-4cf0-83f2-5bc518b27089"},"vehicle_type_id":"4","last_reported":1693073245,"current_range_meters":22400,"station_id":"","pricing_plan_id":"free"},{"bike_id":"bb257e67-2fd4-4efa-8283-76181484263d","system_id":"levelo_inurba_marseille","lat":43.29529,"lon":5.385581,"is_reserved":false,"is_disabled":false,"rental_uris":{"android":"levelo://app?vid=bb257e67-2fd4-4efa-8283-76181484263d","ios":"levelo://app?vid=bb257e67-2fd4-4efa-8283-76181484263d"},"vehicle_type_id":"4","last_reported":1693073245,"current_range_meters":25600,"station_id":"ce4bgih2rcd13ifvqba0","pricing_plan_id":"free"},{"bike_id":"68570ffe-ecd5-4792-bc64-608a56ec69b8","system_id":"levelo_inurba_marseille","lat":43.29529,"lon":5.385581,"is_reserved":false,"is_disabled":false,"rental_uris":{"android":"levelo://app?vid=68570ffe-ecd5-4792-bc64-608a56ec69b8","ios":"levelo://app?vid=68570ffe-ecd5-4792-bc64-608a56ec69b8"},"vehicle_type_id":"4","last_reported":1693073245,"current_range_meters":4000,"station_id":"ce4bgih2rcd13ifvqba0","pricing_plan_id":"free"},{"bike_id":"49e525b2-912c-45e6-a77e-9e70367baecd","system_id":"levelo_inurba_marseille","lat":43.29529,"lon":5.385581,"is_reserved":false,"is_disabled":false,"rental_uris":{"android":"levelo://app?vid=49e525b2-912c-45e6-a77e-9e70367baecd","ios":"levelo://app?vid=49e525b2-912c-45e6-a77e-9e70367baecd"},"vehicle_type_id":"4","last_reported":1693073245,"current_range_meters":0,"station_id":"ce4bgih2rcd13ifvqba0","pricing_plan_id":"free"},{"bike_id":"259f8736-be23-4f4b-b878-32a943574d40","system_id":"levelo_inurba_marseille","lat":43.29529,"lon":5.385581,"is_reserved":false,"is_disabled":false,"rental_uris":{"android":"levelo://app?vid=259f8736-be23-4f4b-b878-32a943574d40","ios":"levelo://app?vid=259f8736-be23-4f4b-b878-32a943574d40"},"vehicle_type_id":"4","last_reported":1693073245,"current_range_meters":25200,"station_id":"ce4bgih2rcd13ifvqba0","pricing_plan_id":"free"},{"bike_id":"2f7feab0-6f0a-40ae-a7da-71ffdd840a00","system_id":"levelo_inurba_marseille","lat":43.302008,"lon":5.394694,"is_reserved":false,"is_disabled":false,"rental_uris":{"android":"levelo://app?vid=2f7feab0-6f0a-40ae-a7da-71ffdd840a00","ios":"levelo://app?vid=2f7feab0-6f0a-40ae-a7da-71ffdd840a00"},"vehicle_type_id":"4","last_reported":1693073245,"current_range_meters":7200,"station_id":"ce4bh0p2rcd13ifvqd70","pricing_plan_id":"free"},{"bike_id":"f40c7e48-ed3e-45b8-949f-7e5a2efbcfca","system_id":"levelo_inurba_marseille","lat":43.290624,"lon":5.359245,"is_reserved":false,"is_disabled":false,"rental_uris":{"android":"levelo://app?vid=f40c7e48-ed3e-45b8-949f-7e5a2efbcfca","ios":"levelo://app?vid=f40c7e48-ed3e-45b8-949f-7e5a2efbcfca"},"vehicle_type_id":"4","last_reported":1693073245,"current_range_meters":16000,"station_id":"ce4bha92rcd13ifvqeg0","pricing_plan_id":"free"},{"bike_id":"07225984-1e0a-4205-9132-88b9009a00d2","system_id":"levelo_inurba_marseille","lat":43.290327,"lon":5.375711,"is_reserved":false,"is_disabled":false,"rental_uris":{"android":"levelo://app?vid=07225984-1e0a-4205-9132-88b9009a00d2","ios":"levelo://app?vid=07225984-1e0a-4205-9132-88b9009a00d2"},"vehicle_type_id":"4","last_reported":1693073245,"current_range_meters":3600,"station_id":"ce4bh692rcd13ifvqe90","pricing_plan_id":"free"},{"bike_id":"2146b383-4741-467e-97de-bf202411d0b5","system_id":"levelo_inurba_marseille","lat":43.294153,"lon":5.386305,"is_reserved":false,"is_disabled":false,"rental_uris":{"android":"levelo://app?vid=2146b383-4741-467e-97de-bf202411d0b5","ios":"levelo://app?vid=2146b383-4741-467e-97de-bf202411d0b5"},"vehicle_type_id":"4","last_reported":1693073245,"current_range_meters":12000,"station_id":"ce4bh2h2rcd13ifvqdh0","pricing_plan_id":"free"},{"bike_id":"84ca0ac4-df3f-4bb7-ad96-eee465a070d2","system_id":"levelo_inurba_marseille","lat":43.294162,"lon":5.386292,"is_reserved":false,"is_disabled":false,"rental_uris":{"android":"levelo://app?vid=84ca0ac4-df3f-4bb7-ad96-eee465a070d2","ios":"levelo://app?vid=84ca0ac4-df3f-4bb7-ad96-eee465a070d2"},"vehicle_type_id":"4","last_reported":1693073245,"current_range_meters":21600,"station_id":"ce4bh2h2rcd13ifvqdh0","pricing_plan_id":"free"},{"bike_id":"4ef8e13f-cce8-4f38-ae50-c1a7ee3ea6bf","system_id":"levelo_inurba_marseille","lat":43.294162,"lon":5.386292,"is_reserved":false,"is_disabled":false,"rental_uris":{"android":"levelo://app?vid=4ef8e13f-cce8-4f38-ae50-c1a7ee3ea6bf","ios":"levelo://app?vid=4ef8e13f-cce8-4f38-ae50-c1a7ee3ea6bf"},"vehicle_type_id":"4","last_reported":1693073245,"current_range_meters":1600,"station_id":"ce4bh2h2rcd13ifvqdh0","pricing_plan_id":"free"},{"bike_id":"a30d7c30-8181-4ce5-a755-f1cf78e1d027","system_id":"levelo_inurba_marseille","lat":43.294153,"lon":5.386305,"is_reserved":false,"is_disabled":false,"rental_uris":{"android":"levelo://app?vid=a30d7c30-8181-4ce5-a755-f1cf78e1d027","ios":"levelo://app?vid=a30d7c30-8181-4ce5-a755-f1cf78e1d027"},"vehicle_type_id":"4","last_reported":1693073245,"current_range_meters":12800,"station_id":"ce4bh2h2rcd13ifvqdh0","pricing_plan_id":"free"},{"bike_id":"59b03657-ae58-4190-aa86-8652fe287d72","system_id":"levelo_inurba_marseille","lat":43.294162,"lon":5.386292,"is_reserved":false,"is_disabled":false,"rental_uris":{"android":"levelo://app?vid=59b03657-ae58-4190-aa86-8652fe287d72","ios":"levelo://app?vid=59b03657-ae58-4190-aa86-8652fe287d72"},"vehicle_type_id":"4","last_reported":1693073245,"current_range_meters":5200,"station_id":"ce4bh2h2rcd13ifvqdh0","pricing_plan_id":"free"},{"bike_id":"79a8e9dd-1ddf-4c5f-879d-ffca6e830eeb","system_id":"levelo_inurba_marseille","lat":43.290327,"lon":5.375711,"is_reserved":false,"is_disabled":false,"rental_uris":{"android":"levelo://app?vid=79a8e9dd-1ddf-4c5f-879d-ffca6e830eeb","ios":"levelo://app?vid=79a8e9dd-1ddf-4c5f-879d-ffca6e830eeb"},"vehicle_type_id":"4","last_reported":1693073245,"current_range_meters":28800,"station_id":"ce4bh692rcd13ifvqe90","pricing_plan_id":"free"},{"bike_id":"2f93318d-a393-4e93-88c9-60d3ec241b0e","system_id":"levelo_inurba_marseille","lat":43.289184,"lon":5.366408,"is_reserved":false,"is_disabled":false,"rental_uris":{"android":"levelo://app?vid=2f93318d-a393-4e93-88c9-60d3ec241b0e","ios":"levelo://app?vid=2f93318d-a393-4e93-88c9-60d3ec241b0e"},"vehicle_type_id":"4","last_reported":1693073245,"current_range_meters":31200,"station_id":"ce4bhap2rcd13ifvqek0","pricing_plan_id":"free"},{"bike_id":"56958026-4aaa-43c9-881e-c182e1f7f6b3","system_id":"levelo_inurba_marseille","lat":43.292642,"lon":5.384254,"is_reserved":false,"is_disabled":false,"rental_uris":{"android":"levelo://app?vid=56958026-4aaa-43c9-881e-c182e1f7f6b3","ios":"levelo://app?vid=56958026-4aaa-43c9-881e-c182e1f7f6b3"},"vehicle_type_id":"4","last_reported":1693073245,"current_range_meters":20000,"station_id":"ce4bh692rcd13ifvqea0","pricing_plan_id":"free"},{"bike_id":"79712525-86a6-4069-bbe2-32e29a958413","system_id":"levelo_inurba_marseille","lat":43.304274,"lon":5.397513,"is_reserved":false,"is_disabled":false,"rental_uris":{"android":"levelo://app?vid=79712525-86a6-4069-bbe2-32e29a958413","ios":"levelo://app?vid=79712525-86a6-4069-bbe2-32e29a958413"},"vehicle_type_id":"4","last_reported":1693073245,"current_range_meters":19600,"station_id":"ce4bh092rcd13ifvqd20","pricing_plan_id":"free"},{"bike_id":"bba1c1af-cbe1-46a7-93d4-fdd7e5213e2d","system_id":"levelo_inurba_marseille","lat":43.292644,"lon":5.384257,"is_reserved":false,"is_disabled":false,"rental_uris":{"android":"levelo://app?vid=bba1c1af-cbe1-46a7-93d4-fdd7e5213e2d","ios":"levelo://app?vid=bba1c1af-cbe1-46a7-93d4-fdd7e5213e2d"},"vehicle_type_id":"4","last_reported":1693073245,"current_range_meters":27200,"station_id":"ce4bh692rcd13ifvqea0","pricing_plan_id":"free"},{"bike_id":"d91df1e8-5f9a-47d8-92ab-8e70eaca2123","system_id":"levelo_inurba_marseille","lat":43.292644,"lon":5.384257,"is_reserved":false,"is_disabled":false,"rental_uris":{"android":"levelo://app?vid=d91df1e8-5f9a-47d8-92ab-8e70eaca2123","ios":"levelo://app?vid=d91df1e8-5f9a-47d8-92ab-8e70eaca2123"},"vehicle_type_id":"4","last_reported":1693073245,"current_range_meters":28000,"station_id":"ce4bh692rcd13ifvqea0","pricing_plan_id":"free"},{"bike_id":"74f22ddc-99be-48a2-9f38-b0013e8647e5","system_id":"levelo_inurba_marseille","lat":43.292642,"lon":5.384254,"is_reserved":false,"is_disabled":false,"rental_uris":{"android":"levelo://app?vid=74f22ddc-99be-48a2-9f38-b0013e8647e5","ios":"levelo://app?vid=74f22ddc-99be-48a2-9f38-b0013e8647e5"},"vehicle_type_id":"4","last_reported":1693073245,"current_range_meters":26400,"station_id":"ce4bh692rcd13ifvqea0","pricing_plan_id":"free"},{"bike_id":"44289dff-bf28-4f53-b08b-28eb414fd201","system_id":"levelo_inurba_marseille","lat":43.292644,"lon":5.384257,"is_reserved":false,"is_disabled":false,"rental_uris":{"android":"levelo://app?vid=44289dff-bf28-4f53-b08b-28eb414fd201","ios":"levelo://app?vid=44289dff-bf28-4f53-b08b-28eb414fd201"},"vehicle_type_id":"4","last_reported":1693073245,"current_range_meters":23200,"station_id":"ce4bh692rcd13ifvqea0","pricing_plan_id":"free"},{"bike_id":"735851ed-2cd0-40ff-9535-c9613970f89e","system_id":"levelo_inurba_marseille","lat":43.292644,"lon":5.384257,"is_reserved":false,"is_disabled":false,"rental_uris":{"android":"levelo://app?vid=735851ed-2cd0-40ff-9535-c9613970f89e","ios":"levelo://app?vid=735851ed-2cd0-40ff-9535-c9613970f89e"},"vehicle_type_id":"4","last_reported":1693073245,"current_range_meters":24000,"station_id":"ce4bh692rcd13ifvqea0","pricing_plan_id":"free"},{"bike_id":"1c07e25f-84db-4513-bedb-11b97c6ec9b6","system_id":"levelo_inurba_marseille","lat":43.330442,"lon":5.389148,"is_reserved":false,"is_disabled":false,"rental_uris":{"android":"levelo://app?vid=1c07e25f-84db-4513-bedb-11b97c6ec9b6","ios":"levelo://app?vid=1c07e25f-84db-4513-bedb-11b97c6ec9b6"},"vehicle_type_id":"4","last_reported":1693073245,"current_range_meters":23600,"station_id":"ce4bhr92rcd13ifvqhrg","pricing_plan_id":"free"},{"bike_id":"ccdea3dc-1218-4944-b0ab-ad325c666c9f","system_id":"levelo_inurba_marseille","lat":43.290104,"lon":5.356111,"is_reserved":false,"is_disabled":false,"rental_uris":{"android":"levelo://app?vid=ccdea3dc-1218-4944-b0ab-ad325c666c9f","ios":"levelo://app?vid=ccdea3dc-1218-4944-b0ab-ad325c666c9f"},"vehicle_type_id":"4","last_reported":1693073245,"current_range_meters":24800,"station_id":"ce4bhb92rcd13ifvqen0","pricing_plan_id":"free"},{"bike_id":"6093d433-f9d6-48fe-897b-a1be7c29ef34","system_id":"levelo_inurba_marseille","lat":43.29,"lon":5.35617,"is_reserved":false,"is_disabled":false,"rental_uris":{"android":"levelo://app?vid=6093d433-f9d6-48fe-897b-a1be7c29ef34","ios":"levelo://app?vid=6093d433-f9d6-48fe-897b-a1be7c29ef34"},"vehicle_type_id":"4","last_reported":1693073245,"current_range_meters":31200,"station_id":"ce4bhb92rcd13ifvqen0","pricing_plan_id":"free"},{"bike_id":"1895038e-acdb-4d35-aa35-e1291f23a30a","system_id":"levelo_inurba_marseille","lat":43.290104,"lon":5.356111,"is_reserved":false,"is_disabled":false,"rental_uris":{"android":"levelo://app?vid=1895038e-acdb-4d35-aa35-e1291f23a30a","ios":"levelo://app?vid=1895038e-acdb-4d35-aa35-e1291f23a30a"},"vehicle_type_id":"4","last_reported":1693073245,"current_range_meters":31200,"station_id":"ce4bhb92rcd13ifvqen0","pricing_plan_id":"free"},{"bike_id":"a4df99ce-0488-49dd-a888-94686f562e88","system_id":"levelo_inurba_marseille","lat":43.290103,"lon":5.356114,"is_reserved":false,"is_disabled":false,"rental_uris":{"android":"levelo://app?vid=a4df99ce-0488-49dd-a888-94686f562e88","ios":"levelo://app?vid=a4df99ce-0488-49dd-a888-94686f562e88"},"vehicle_type_id":"4","last_reported":1693073245,"current_range_meters":29600,"station_id":"ce4bhb92rcd13ifvqen0","pricing_plan_id":"free"},{"bike_id":"f012167f-985f-4909-a722-7ec823ea4c4c","system_id":"levelo_inurba_marseille","lat":43.295169,"lon":5.390426,"is_reserved":false,"is_disabled":false,"rental_uris":{"android":"levelo://app?vid=f012167f-985f-4909-a722-7ec823ea4c4c","ios":"levelo://app?vid=f012167f-985f-4909-a722-7ec823ea4c4c"},"vehicle_type_id":"4","last_reported":1693073245,"current_range_meters":15200,"station_id":"ce4bh3p2rcd13ifvqdp0","pricing_plan_id":"free"},{"bike_id":"56b9f722-8682-4ac1-97b9-9e65f0d2f60f","system_id":"levelo_inurba_marseille","lat":43.295169,"lon":5.390426,"is_reserved":false,"is_disabled":false,"rental_uris":{"android":"levelo://app?vid=56b9f722-8682-4ac1-97b9-9e65f0d2f60f","ios":"levelo://app?vid=56b9f722-8682-4ac1-97b9-9e65f0d2f60f"},"vehicle_type_id":"4","last_reported":1693073245,"current_range_meters":29200,"station_id":"ce4bh3p2rcd13ifvqdp0","pricing_plan_id":"free"},{"bike_id":"21b0e3fb-12da-4f1b-9676-3ccdf41e7914","system_id":"levelo_inurba_marseille","lat":43.295169,"lon":5.390426,"is_reserved":false,"is_disabled":false,"rental_uris":{"android":"levelo://app?vid=21b0e3fb-12da-4f1b-9676-3ccdf41e7914","ios":"levelo://app?vid=21b0e3fb-12da-4f1b-9676-3ccdf41e7914"},"vehicle_type_id":"4","last_reported":1693073245,"current_range_meters":12800,"station_id":"ce4bh3p2rcd13ifvqdp0","pricing_plan_id":"free"},{"bike_id":"b2016482-648f-400d-8321-ef0d7a61fa23","system_id":"levelo_inurba_marseille","lat":43.29021,"lon":5.38131,"is_reserved":false,"is_disabled":false,"rental_uris":{"android":"levelo://app?vid=b2016482-648f-400d-8321-ef0d7a61fa23","ios":"levelo://app?vid=b2016482-648f-400d-8321-ef0d7a61fa23"},"vehicle_type_id":"4","last_reported":1693073245,"current_range_meters":0,"station_id":"ce4bh4p2rcd13ifvqe1g","pricing_plan_id":"free"},{"bike_id":"326a75a0-bd1a-4843-b465-85c955b25713","system_id":"levelo_inurba_marseille","lat":43.2884,"lon":5.35841,"is_reserved":false,"is_disabled":false,"rental_uris":{"android":"levelo://app?vid=326a75a0-bd1a-4843-b465-85c955b25713","ios":"levelo://app?vid=326a75a0-bd1a-4843-b465-85c955b25713"},"vehicle_type_id":"4","last_reported":1693073245,"current_range_meters":0,"station_id":"ce4bhb12rcd13ifvqem0","pricing_plan_id":"free"},{"bike_id":"093db93b-5453-41f0-b235-e32d752da502","system_id":"levelo_inurba_marseille","lat":43.30929,"lon":5.40132,"is_reserved":false,"is_disabled":false,"rental_uris":{"android":"levelo://app?vid=093db93b-5453-41f0-b235-e32d752da502","ios":"levelo://app?vid=093db93b-5453-41f0-b235-e32d752da502"},"vehicle_type_id":"4","last_reported":1693073245,"current_range_meters":14400,"station_id":"ce4bgvp2rcd13ifvqct0","pricing_plan_id":"free"},{"bike_id":"f29fc6df-c158-4efc-a0fe-9921e571a45b","system_id":"levelo_inurba_marseille","lat":43.31281,"lon":5.40165,"is_reserved":false,"is_disabled":false,"rental_uris":{"android":"levelo://app?vid=f29fc6df-c158-4efc-a0fe-9921e571a45b","ios":"levelo://app?vid=f29fc6df-c158-4efc-a0fe-9921e571a45b"},"vehicle_type_id":"4","last_reported":1693073245,"current_range_meters":30800,"station_id":"ce4bh092rcd13ifvqd30","pricing_plan_id":"free"},{"bike_id":"787189f9-2482-4fe9-81a1-1790c4a1072a","system_id":"levelo_inurba_marseille","lat":43.30927,"lon":5.40133,"is_reserved":false,"is_disabled":false,"rental_uris":{"android":"levelo://app?vid=787189f9-2482-4fe9-81a1-1790c4a1072a","ios":"levelo://app?vid=787189f9-2482-4fe9-81a1-1790c4a1072a"},"vehicle_type_id":"4","last_reported":1693073245,"current_range_meters":25600,"station_id":"ce4bgvp2rcd13ifvqct0","pricing_plan_id":"free"},{"bike_id":"cafc9791-3ee4-489b-a437-2c102ae99916","system_id":"levelo_inurba_marseille","lat":43.30929,"lon":5.40137,"is_reserved":false,"is_disabled":false,"rental_uris":{"android":"levelo://app?vid=cafc9791-3ee4-489b-a437-2c102ae99916","ios":"levelo://app?vid=cafc9791-3ee4-489b-a437-2c102ae99916"},"vehicle_type_id":"4","last_reported":1693073245,"current_range_meters":17200,"station_id":"ce4bgvp2rcd13ifvqct0","pricing_plan_id":"free"},{"bike_id":"44c94ac5-8aae-4f75-a873-ce22e67e5074","system_id":"levelo_inurba_marseille","lat":43.306482,"lon":5.400889,"is_reserved":false,"is_disabled":false,"rental_uris":{"android":"levelo://app?vid=44c94ac5-8aae-4f75-a873-ce22e67e5074","ios":"levelo://app?vid=44c94ac5-8aae-4f75-a873-ce22e67e5074"},"vehicle_type_id":"4","last_reported":1693073245,"current_range_meters":14400,"station_id":"ce4bh112rcd13ifvqda0","pricing_plan_id":"free"},{"bike_id":"cd308fc0-7e58-44a7-9fcb-9280729ae588","system_id":"levelo_inurba_marseille","lat":43.30635,"lon":5.40093,"is_reserved":false,"is_disabled":false,"rental_uris":{"android":"levelo://app?vid=cd308fc0-7e58-44a7-9fcb-9280729ae588","ios":"levelo://app?vid=cd308fc0-7e58-44a7-9fcb-9280729ae588"},"vehicle_type_id":"4","last_reported":1693073245,"current_range_meters":23200,"station_id":"ce4bh112rcd13ifvqda0","pricing_plan_id":"free"},{"bike_id":"0c3fe754-7f33-4abd-bf78-51a9b801cc34","system_id":"levelo_inurba_marseille","lat":43.33776,"lon":5.37429,"is_reserved":false,"is_disabled":false,"rental_uris":{"android":"levelo://app?vid=0c3fe754-7f33-4abd-bf78-51a9b801cc34","ios":"levelo://app?vid=0c3fe754-7f33-4abd-bf78-51a9b801cc34"},"vehicle_type_id":"4","last_reported":1693073245,"current_range_meters":14400,"station_id":"","pricing_plan_id":"free"},{"bike_id":"f17273fb-f8ed-444b-abe5-878951ea7391","system_id":"levelo_inurba_marseille","lat":43.301117,"lon":5.398795,"is_reserved":false,"is_disabled":false,"rental_uris":{"android":"levelo://app?vid=f17273fb-f8ed-444b-abe5-878951ea7391","ios":"levelo://app?vid=f17273fb-f8ed-444b-abe5-878951ea7391"},"vehicle_type_id":"4","last_reported":1693073245,"current_range_meters":9200,"station_id":"ce4bh0h2rcd13ifvqd40","pricing_plan_id":"free"},{"bike_id":"fa4759f2-2acc-474d-a8d4-520305fec03d","system_id":"levelo_inurba_marseille","lat":43.30648,"lon":5.40105,"is_reserved":false,"is_disabled":false,"rental_uris":{"android":"levelo://app?vid=fa4759f2-2acc-474d-a8d4-520305fec03d","ios":"levelo://app?vid=fa4759f2-2acc-474d-a8d4-520305fec03d"},"vehicle_type_id":"4","last_reported":1693073245,"current_range_meters":11600,"station_id":"ce4bh112rcd13ifvqda0","pricing_plan_id":"free"},{"bike_id":"eead4658-8656-4dbc-9716-aabfcf750760","system_id":"levelo_inurba_marseille","lat":43.30643,"lon":5.40106,"is_reserved":false,"is_disabled":false,"rental_uris":{"android":"levelo://app?vid=eead4658-8656-4dbc-9716-aabfcf750760","ios":"levelo://app?vid=eead4658-8656-4dbc-9716-aabfcf750760"},"vehicle_type_id":"4","last_reported":1693073245,"current_range_meters":4800,"station_id":"ce4bh112rcd13ifvqda0","pricing_plan_id":"free"},{"bike_id":"8da78bf6-6fb2-4014-8f1c-3041d7ca8ee9","system_id":"levelo_inurba_marseille","lat":43.301117,"lon":5.398795,"is_reserved":false,"is_disabled":false,"rental_uris":{"android":"levelo://app?vid=8da78bf6-6fb2-4014-8f1c-3041d7ca8ee9","ios":"levelo://app?vid=8da78bf6-6fb2-4014-8f1c-3041d7ca8ee9"},"vehicle_type_id":"4","last_reported":1693073245,"current_range_meters":400,"station_id":"ce4bh0h2rcd13ifvqd40","pricing_plan_id":"free"},{"bike_id":"bb82acb5-1465-42be-a0b0-7dd1b4a2ee68","system_id":"levelo_inurba_marseille","lat":43.298681,"lon":5.397225,"is_reserved":false,"is_disabled":false,"rental_uris":{"android":"levelo://app?vid=bb82acb5-1465-42be-a0b0-7dd1b4a2ee68","ios":"levelo://app?vid=bb82acb5-1465-42be-a0b0-7dd1b4a2ee68"},"vehicle_type_id":"4","last_reported":1693073245,"current_range_meters":26400,"station_id":"ce4bh0h2rcd13ifvqd50","pricing_plan_id":"free"},{"bike_id":"5fd8d8d7-4c69-48b3-a716-3af835bed5e3","system_id":"levelo_inurba_marseille","lat":43.298681,"lon":5.397225,"is_reserved":false,"is_disabled":false,"rental_uris":{"android":"levelo://app?vid=5fd8d8d7-4c69-48b3-a716-3af835bed5e3","ios":"levelo://app?vid=5fd8d8d7-4c69-48b3-a716-3af835bed5e3"},"vehicle_type_id":"4","last_reported":1693073245,"current_range_meters":14000,"station_id":"ce4bh0h2rcd13ifvqd50","pricing_plan_id":"free"},{"bike_id":"2365150f-73ab-4507-aea4-76016e6109c8","system_id":"levelo_inurba_marseille","lat":43.286593,"lon":5.363346,"is_reserved":false,"is_disabled":false,"rental_uris":{"android":"levelo://app?vid=2365150f-73ab-4507-aea4-76016e6109c8","ios":"levelo://app?vid=2365150f-73ab-4507-aea4-76016e6109c8"},"vehicle_type_id":"4","last_reported":1693073245,"current_range_meters":31200,"station_id":"ce4bhah2rcd13ifvqej0","pricing_plan_id":"free"},{"bike_id":"a836c9b6-9050-48eb-885d-e07afb37eb7a","system_id":"levelo_inurba_marseille","lat":43.298681,"lon":5.397225,"is_reserved":false,"is_disabled":false,"rental_uris":{"android":"levelo://app?vid=a836c9b6-9050-48eb-885d-e07afb37eb7a","ios":"levelo://app?vid=a836c9b6-9050-48eb-885d-e07afb37eb7a"},"vehicle_type_id":"4","last_reported":1693073245,"current_range_meters":12000,"station_id":"ce4bh0h2rcd13ifvqd50","pricing_plan_id":"free"},{"bike_id":"939b235e-d06d-4751-8b59-dc278a37dcae","system_id":"levelo_inurba_marseille","lat":43.290336,"lon":5.386425,"is_reserved":false,"is_disabled":false,"rental_uris":{"android":"levelo://app?vid=939b235e-d06d-4751-8b59-dc278a37dcae","ios":"levelo://app?vid=939b235e-d06d-4751-8b59-dc278a37dcae"},"vehicle_type_id":"4","last_reported":1693073245,"current_range_meters":14400,"station_id":"ce4bh4p2rcd13ifvqe0g","pricing_plan_id":"free"},{"bike_id":"75199276-b705-4ad7-b6a9-49aeaa84628a","system_id":"levelo_inurba_marseille","lat":43.286591,"lon":5.363346,"is_reserved":false,"is_disabled":false,"rental_uris":{"android":"levelo://app?vid=75199276-b705-4ad7-b6a9-49aeaa84628a","ios":"levelo://app?vid=75199276-b705-4ad7-b6a9-49aeaa84628a"},"vehicle_type_id":"4","last_reported":1693073245,"current_range_meters":30400,"station_id":"ce4bhah2rcd13ifvqej0","pricing_plan_id":"free"},{"bike_id":"1c34b521-b225-4343-82b7-e0cae17f452d","system_id":"levelo_inurba_marseille","lat":43.298681,"lon":5.397225,"is_reserved":false,"is_disabled":false,"rental_uris":{"android":"levelo://app?vid=1c34b521-b225-4343-82b7-e0cae17f452d","ios":"levelo://app?vid=1c34b521-b225-4343-82b7-e0cae17f452d"},"vehicle_type_id":"4","last_reported":1693073245,"current_range_meters":14800,"station_id":"ce4bh0h2rcd13ifvqd50","pricing_plan_id":"free"},{"bike_id":"d5d53a53-e61a-4caa-a0b4-2571b70ee579","system_id":"levelo_inurba_marseille","lat":43.290345,"lon":5.38646,"is_reserved":false,"is_disabled":false,"rental_uris":{"android":"levelo://app?vid=d5d53a53-e61a-4caa-a0b4-2571b70ee579","ios":"levelo://app?vid=d5d53a53-e61a-4caa-a0b4-2571b70ee579"},"vehicle_type_id":"4","last_reported":1693073245,"current_range_meters":5600,"station_id":"ce4bh4p2rcd13ifvqe0g","pricing_plan_id":"free"},{"bike_id":"52bf8bfe-a421-41e4-b62a-fa236a5236d4","system_id":"levelo_inurba_marseille","lat":43.290336,"lon":5.386425,"is_reserved":false,"is_disabled":false,"rental_uris":{"android":"levelo://app?vid=52bf8bfe-a421-41e4-b62a-fa236a5236d4","ios":"levelo://app?vid=52bf8bfe-a421-41e4-b62a-fa236a5236d4"},"vehicle_type_id":"4","last_reported":1693073245,"current_range_meters":6400,"station_id":"ce4bh4p2rcd13ifvqe0g","pricing_plan_id":"free"},{"bike_id":"c6383863-2c04-4511-9a4b-a00a12397e80","system_id":"levelo_inurba_marseille","lat":43.286039,"lon":5.370679,"is_reserved":false,"is_disabled":false,"rental_uris":{"android":"levelo://app?vid=c6383863-2c04-4511-9a4b-a00a12397e80","ios":"levelo://app?vid=c6383863-2c04-4511-9a4b-a00a12397e80"},"vehicle_type_id":"4","last_reported":1693073245,"current_range_meters":29200,"station_id":"ce4bht12rcd13ifvqi60","pricing_plan_id":"free"},{"bike_id":"83e5270c-6e46-4da4-bee9-09a873efdb5a","system_id":"levelo_inurba_marseille","lat":43.286039,"lon":5.370679,"is_reserved":false,"is_disabled":false,"rental_uris":{"android":"levelo://app?vid=83e5270c-6e46-4da4-bee9-09a873efdb5a","ios":"levelo://app?vid=83e5270c-6e46-4da4-bee9-09a873efdb5a"},"vehicle_type_id":"4","last_reported":1693073245,"current_range_meters":29200,"station_id":"ce4bht12rcd13ifvqi60","pricing_plan_id":"free"},{"bike_id":"b08a2d18-0bad-4055-affd-5e548bf3f3da","system_id":"levelo_inurba_marseille","lat":43.31638,"lon":5.40432,"is_reserved":false,"is_disabled":false,"rental_uris":{"android":"levelo://app?vid=b08a2d18-0bad-4055-affd-5e548bf3f3da","ios":"levelo://app?vid=b08a2d18-0bad-4055-affd-5e548bf3f3da"},"vehicle_type_id":"4","last_reported":1693073245,"current_range_meters":3600,"station_id":"ce4bh012rcd13ifvqd00","pricing_plan_id":"free"},{"bike_id":"7da9e437-1e79-4b5f-9ab0-65254ac17dd7","system_id":"levelo_inurba_marseille","lat":43.31649,"lon":5.40438,"is_reserved":false,"is_disabled":false,"rental_uris":{"android":"levelo://app?vid=7da9e437-1e79-4b5f-9ab0-65254ac17dd7","ios":"levelo://app?vid=7da9e437-1e79-4b5f-9ab0-65254ac17dd7"},"vehicle_type_id":"4","last_reported":1693073245,"current_range_meters":12400,"station_id":"ce4bh012rcd13ifvqd00","pricing_plan_id":"free"},{"bike_id":"a1728826-60cd-4ced-8e89-479f7aa979ac","system_id":"levelo_inurba_marseille","lat":43.291994,"lon":5.392907,"is_reserved":false,"is_disabled":false,"rental_uris":{"android":"levelo://app?vid=a1728826-60cd-4ced-8e89-479f7aa979ac","ios":"levelo://app?vid=a1728826-60cd-4ced-8e89-479f7aa979ac"},"vehicle_type_id":"4","last_reported":1693073245,"current_range_meters":4000,"station_id":"ce4bh192rcd13ifvqdd0","pricing_plan_id":"free"},{"bike_id":"85141003-98e3-423a-97b3-34d945ad8eec","system_id":"levelo_inurba_marseille","lat":43.284538,"lon":5.358657,"is_reserved":false,"is_disabled":false,"rental_uris":{"android":"levelo://app?vid=85141003-98e3-423a-97b3-34d945ad8eec","ios":"levelo://app?vid=85141003-98e3-423a-97b3-34d945ad8eec"},"vehicle_type_id":"4","last_reported":1693073245,"current_range_meters":14400,"station_id":"ce4bhah2rcd13ifvqei0","pricing_plan_id":"free"},{"bike_id":"e39eb39d-00f8-4a55-9dd7-66a028357ed1","system_id":"levelo_inurba_marseille","lat":43.284538,"lon":5.358657,"is_reserved":false,"is_disabled":false,"rental_uris":{"android":"levelo://app?vid=e39eb39d-00f8-4a55-9dd7-66a028357ed1","ios":"levelo://app?vid=e39eb39d-00f8-4a55-9dd7-66a028357ed1"},"vehicle_type_id":"4","last_reported":1693073245,"current_range_meters":29200,"station_id":"ce4bhah2rcd13ifvqei0","pricing_plan_id":"free"},{"bike_id":"2a9e1b11-dc3a-4ba7-905a-84ce55d4797a","system_id":"levelo_inurba_marseille","lat":43.284538,"lon":5.358657,"is_reserved":false,"is_disabled":false,"rental_uris":{"android":"levelo://app?vid=2a9e1b11-dc3a-4ba7-905a-84ce55d4797a","ios":"levelo://app?vid=2a9e1b11-dc3a-4ba7-905a-84ce55d4797a"},"vehicle_type_id":"4","last_reported":1693073245,"current_range_meters":12000,"station_id":"ce4bhah2rcd13ifvqei0","pricing_plan_id":"free"},{"bike_id":"fd717c95-44b2-49ba-ae65-9ea6367d69e0","system_id":"levelo_inurba_marseille","lat":43.284656,"lon":5.358853,"is_reserved":false,"is_disabled":false,"rental_uris":{"android":"levelo://app?vid=fd717c95-44b2-49ba-ae65-9ea6367d69e0","ios":"levelo://app?vid=fd717c95-44b2-49ba-ae65-9ea6367d69e0"},"vehicle_type_id":"4","last_reported":1693073245,"current_range_meters":0,"station_id":"","pricing_plan_id":"free"},{"bike_id":"2363d3b5-6c15-401a-a59c-ee80bd4af927","system_id":"levelo_inurba_marseille","lat":43.28415,"lon":5.37522,"is_reserved":false,"is_disabled":false,"rental_uris":{"android":"levelo://app?vid=2363d3b5-6c15-401a-a59c-ee80bd4af927","ios":"levelo://app?vid=2363d3b5-6c15-401a-a59c-ee80bd4af927"},"vehicle_type_id":"4","last_reported":1693073245,"current_range_meters":0,"station_id":"ce4bh412rcd13ifvqds0","pricing_plan_id":"free"},{"bike_id":"b8ce1974-56c0-40b3-8849-99896f5409c4","system_id":"levelo_inurba_marseille","lat":43.295713,"lon":5.399639,"is_reserved":false,"is_disabled":false,"rental_uris":{"android":"levelo://app?vid=b8ce1974-56c0-40b3-8849-99896f5409c4","ios":"levelo://app?vid=b8ce1974-56c0-40b3-8849-99896f5409c4"},"vehicle_type_id":"4","last_reported":1693073245,"current_range_meters":12000,"station_id":"ce4bh312rcd13ifvqdj0","pricing_plan_id":"free"},{"bike_id":"731d314e-7b98-4b71-a927-bf66ed634cd3","system_id":"levelo_inurba_marseille","lat":43.295713,"lon":5.399639,"is_reserved":false,"is_disabled":false,"rental_uris":{"android":"levelo://app?vid=731d314e-7b98-4b71-a927-bf66ed634cd3","ios":"levelo://app?vid=731d314e-7b98-4b71-a927-bf66ed634cd3"},"vehicle_type_id":"4","last_reported":1693073245,"current_range_meters":27600,"station_id":"ce4bh312rcd13ifvqdj0","pricing_plan_id":"free"},{"bike_id":"cb01a8a3-0d33-478d-bbe8-f8f6720769cc","system_id":"levelo_inurba_marseille","lat":43.33706,"lon":5.39181,"is_reserved":false,"is_disabled":false,"rental_uris":{"android":"levelo://app?vid=cb01a8a3-0d33-478d-bbe8-f8f6720769cc","ios":"levelo://app?vid=cb01a8a3-0d33-478d-bbe8-f8f6720769cc"},"vehicle_type_id":"4","last_reported":1693073245,"current_range_meters":22000,"station_id":"ce4bhr92rcd13ifvqhsg","pricing_plan_id":"free"},{"bike_id":"531d6e23-0278-4a54-a610-21397a86f1a4","system_id":"levelo_inurba_marseille","lat":43.337168,"lon":5.391825,"is_reserved":false,"is_disabled":false,"rental_uris":{"android":"levelo://app?vid=531d6e23-0278-4a54-a610-21397a86f1a4","ios":"levelo://app?vid=531d6e23-0278-4a54-a610-21397a86f1a4"},"vehicle_type_id":"4","last_reported":1693073245,"current_range_meters":24000,"station_id":"ce4bhr92rcd13ifvqhsg","pricing_plan_id":"free"},{"bike_id":"fbafa583-df2f-4beb-bbab-161640a3afd5","system_id":"levelo_inurba_marseille","lat":43.337168,"lon":5.391825,"is_reserved":false,"is_disabled":false,"rental_uris":{"android":"levelo://app?vid=fbafa583-df2f-4beb-bbab-161640a3afd5","ios":"levelo://app?vid=fbafa583-df2f-4beb-bbab-161640a3afd5"},"vehicle_type_id":"4","last_reported":1693073245,"current_range_meters":14400,"station_id":"ce4bhr92rcd13ifvqhsg","pricing_plan_id":"free"},{"bike_id":"180b8d82-e769-43df-afb4-0eaef17259b0","system_id":"levelo_inurba_marseille","lat":43.337168,"lon":5.391825,"is_reserved":false,"is_disabled":false,"rental_uris":{"android":"levelo://app?vid=180b8d82-e769-43df-afb4-0eaef17259b0","ios":"levelo://app?vid=180b8d82-e769-43df-afb4-0eaef17259b0"},"vehicle_type_id":"4","last_reported":1693073245,"current_range_meters":16000,"station_id":"ce4bhr92rcd13ifvqhsg","pricing_plan_id":"free"},{"bike_id":"b9178fa1-3d9f-472a-a834-0e7c633bb4af","system_id":"levelo_inurba_marseille","lat":43.3371,"lon":5.39191,"is_reserved":false,"is_disabled":false,"rental_uris":{"android":"levelo://app?vid=b9178fa1-3d9f-472a-a834-0e7c633bb4af","ios":"levelo://app?vid=b9178fa1-3d9f-472a-a834-0e7c633bb4af"},"vehicle_type_id":"4","last_reported":1693073245,"current_range_meters":9600,"station_id":"ce4bhr92rcd13ifvqhsg","pricing_plan_id":"free"},{"bike_id":"7e4b49c2-f4de-4644-9176-19b326f1db26","system_id":"levelo_inurba_marseille","lat":43.337168,"lon":5.391825,"is_reserved":false,"is_disabled":false,"rental_uris":{"android":"levelo://app?vid=7e4b49c2-f4de-4644-9176-19b326f1db26","ios":"levelo://app?vid=7e4b49c2-f4de-4644-9176-19b326f1db26"},"vehicle_type_id":"4","last_reported":1693073245,"current_range_meters":23200,"station_id":"ce4bhr92rcd13ifvqhsg","pricing_plan_id":"free"},{"bike_id":"8320de35-3946-4a47-9f14-9a6122ee86fc","system_id":"levelo_inurba_marseille","lat":43.323464,"lon":5.406297,"is_reserved":false,"is_disabled":false,"rental_uris":{"android":"levelo://app?vid=8320de35-3946-4a47-9f14-9a6122ee86fc","ios":"levelo://app?vid=8320de35-3946-4a47-9f14-9a6122ee86fc"},"vehicle_type_id":"4","last_reported":1693073245,"current_range_meters":31600,"station_id":"ce4bhq92rcd13ifvqhjg","pricing_plan_id":"free"},{"bike_id":"261eaadf-6347-42f2-b9c2-72bd0b4a7c63","system_id":"levelo_inurba_marseille","lat":43.337168,"lon":5.391825,"is_reserved":false,"is_disabled":false,"rental_uris":{"android":"levelo://app?vid=261eaadf-6347-42f2-b9c2-72bd0b4a7c63","ios":"levelo://app?vid=261eaadf-6347-42f2-b9c2-72bd0b4a7c63"},"vehicle_type_id":"4","last_reported":1693073245,"current_range_meters":29200,"station_id":"ce4bhr92rcd13ifvqhsg","pricing_plan_id":"free"},{"bike_id":"67d31a5e-e022-4a43-8753-e0f746914c41","system_id":"levelo_inurba_marseille","lat":43.33723,"lon":5.3918,"is_reserved":false,"is_disabled":false,"rental_uris":{"android":"levelo://app?vid=67d31a5e-e022-4a43-8753-e0f746914c41","ios":"levelo://app?vid=67d31a5e-e022-4a43-8753-e0f746914c41"},"vehicle_type_id":"4","last_reported":1693073245,"current_range_meters":23600,"station_id":"ce4bhr92rcd13ifvqhsg","pricing_plan_id":"free"},{"bike_id":"db7ab961-c1f9-47c0-81c9-6839f354a493","system_id":"levelo_inurba_marseille","lat":43.323464,"lon":5.406297,"is_reserved":false,"is_disabled":false,"rental_uris":{"android":"levelo://app?vid=db7ab961-c1f9-47c0-81c9-6839f354a493","ios":"levelo://app?vid=db7ab961-c1f9-47c0-81c9-6839f354a493"},"vehicle_type_id":"4","last_reported":1693073245,"current_range_meters":31200,"station_id":"ce4bhq92rcd13ifvqhjg","pricing_plan_id":"free"},{"bike_id":"605c4b2d-e823-44d0-ab49-3495311f9951","system_id":"levelo_inurba_marseille","lat":43.323464,"lon":5.406297,"is_reserved":false,"is_disabled":false,"rental_uris":{"android":"levelo://app?vid=605c4b2d-e823-44d0-ab49-3495311f9951","ios":"levelo://app?vid=605c4b2d-e823-44d0-ab49-3495311f9951"},"vehicle_type_id":"4","last_reported":1693073245,"current_range_meters":17600,"station_id":"ce4bhq92rcd13ifvqhjg","pricing_plan_id":"free"},{"bike_id":"414290bd-353b-41b2-bd9a-1d3c2c5739df","system_id":"levelo_inurba_marseille","lat":43.28474,"lon":5.38411,"is_reserved":false,"is_disabled":false,"rental_uris":{"android":"levelo://app?vid=414290bd-353b-41b2-bd9a-1d3c2c5739df","ios":"levelo://app?vid=414290bd-353b-41b2-bd9a-1d3c2c5739df"},"vehicle_type_id":"4","last_reported":1693073245,"current_range_meters":30000,"station_id":"ce4bh512rcd13ifvqe3g","pricing_plan_id":"free"},{"bike_id":"81207e02-e329-4cea-9b6c-33ba9c0267d2","system_id":"levelo_inurba_marseille","lat":43.284787,"lon":5.384116,"is_reserved":false,"is_disabled":false,"rental_uris":{"android":"levelo://app?vid=81207e02-e329-4cea-9b6c-33ba9c0267d2","ios":"levelo://app?vid=81207e02-e329-4cea-9b6c-33ba9c0267d2"},"vehicle_type_id":"4","last_reported":1693073245,"current_range_meters":31200,"station_id":"ce4bh512rcd13ifvqe3g","pricing_plan_id":"free"},{"bike_id":"8f1bb7ca-fcdd-4904-84f5-ac3f2d2671e6","system_id":"levelo_inurba_marseille","lat":43.32549,"lon":5.40548,"is_reserved":false,"is_disabled":false,"rental_uris":{"android":"levelo://app?vid=8f1bb7ca-fcdd-4904-84f5-ac3f2d2671e6","ios":"levelo://app?vid=8f1bb7ca-fcdd-4904-84f5-ac3f2d2671e6"},"vehicle_type_id":"4","last_reported":1693073245,"current_range_meters":6000,"station_id":"","pricing_plan_id":"free"},{"bike_id":"a3644e42-afa7-41ea-b8fc-c41ff510820c","system_id":"levelo_inurba_marseille","lat":43.283494,"lon":5.380945,"is_reserved":false,"is_disabled":false,"rental_uris":{"android":"levelo://app?vid=a3644e42-afa7-41ea-b8fc-c41ff510820c","ios":"levelo://app?vid=a3644e42-afa7-41ea-b8fc-c41ff510820c"},"vehicle_type_id":"4","last_reported":1693073245,"current_range_meters":7600,"station_id":"ce4bh412rcd13ifvqdr0","pricing_plan_id":"free"},{"bike_id":"f50aca5f-cf5b-4020-925f-826a2e34874f","system_id":"levelo_inurba_marseille","lat":43.289363,"lon":5.396322,"is_reserved":false,"is_disabled":false,"rental_uris":{"android":"levelo://app?vid=f50aca5f-cf5b-4020-925f-826a2e34874f","ios":"levelo://app?vid=f50aca5f-cf5b-4020-925f-826a2e34874f"},"vehicle_type_id":"4","last_reported":1693073245,"current_range_meters":31200,"station_id":"ce4bh3h2rcd13ifvqdn0","pricing_plan_id":"free"},{"bike_id":"03d36a34-08bd-4fdf-82be-2310951f26dd","system_id":"levelo_inurba_marseille","lat":43.283502,"lon":5.386471,"is_reserved":false,"is_disabled":false,"rental_uris":{"android":"levelo://app?vid=03d36a34-08bd-4fdf-82be-2310951f26dd","ios":"levelo://app?vid=03d36a34-08bd-4fdf-82be-2310951f26dd"},"vehicle_type_id":"4","last_reported":1693073245,"current_range_meters":25200,"station_id":"ce4bh492rcd13ifvqdvg","pricing_plan_id":"free"},{"bike_id":"34683c64-2e9d-4b5e-b023-08fba2b19d60","system_id":"levelo_inurba_marseille","lat":43.280382,"lon":5.369291,"is_reserved":false,"is_disabled":false,"rental_uris":{"android":"levelo://app?vid=34683c64-2e9d-4b5e-b023-08fba2b19d60","ios":"levelo://app?vid=34683c64-2e9d-4b5e-b023-08fba2b19d60"},"vehicle_type_id":"4","last_reported":1693073245,"current_range_meters":20800,"station_id":"ce4bha12rcd13ifvqef0","pricing_plan_id":"free"},{"bike_id":"d9e39b25-18f3-4864-91e3-0b9506c666fa","system_id":"levelo_inurba_marseille","lat":43.283502,"lon":5.386471,"is_reserved":false,"is_disabled":false,"rental_uris":{"android":"levelo://app?vid=d9e39b25-18f3-4864-91e3-0b9506c666fa","ios":"levelo://app?vid=d9e39b25-18f3-4864-91e3-0b9506c666fa"},"vehicle_type_id":"4","last_reported":1693073245,"current_range_meters":16400,"station_id":"ce4bh492rcd13ifvqdvg","pricing_plan_id":"free"},{"bike_id":"a10a8aaa-da2a-4247-90c7-f8b671f27d15","system_id":"levelo_inurba_marseille","lat":43.28039,"lon":5.369297,"is_reserved":false,"is_disabled":false,"rental_uris":{"android":"levelo://app?vid=a10a8aaa-da2a-4247-90c7-f8b671f27d15","ios":"levelo://app?vid=a10a8aaa-da2a-4247-90c7-f8b671f27d15"},"vehicle_type_id":"4","last_reported":1693073245,"current_range_meters":12000,"station_id":"ce4bha12rcd13ifvqef0","pricing_plan_id":"free"},{"bike_id":"cb6e4137-b341-413d-8480-7b40bf9857d1","system_id":"levelo_inurba_marseille","lat":43.28039,"lon":5.369297,"is_reserved":false,"is_disabled":false,"rental_uris":{"android":"levelo://app?vid=cb6e4137-b341-413d-8480-7b40bf9857d1","ios":"levelo://app?vid=cb6e4137-b341-413d-8480-7b40bf9857d1"},"vehicle_type_id":"4","last_reported":1693073245,"current_range_meters":15600,"station_id":"ce4bha12rcd13ifvqef0","pricing_plan_id":"free"},{"bike_id":"b2e02c9d-b093-4a44-925f-564f67a93ecc","system_id":"levelo_inurba_marseille","lat":43.28036,"lon":5.36946,"is_reserved":false,"is_disabled":false,"rental_uris":{"android":"levelo://app?vid=b2e02c9d-b093-4a44-925f-564f67a93ecc","ios":"levelo://app?vid=b2e02c9d-b093-4a44-925f-564f67a93ecc"},"vehicle_type_id":"4","last_reported":1693073245,"current_range_meters":23200,"station_id":"ce4bha12rcd13ifvqef0","pricing_plan_id":"free"},{"bike_id":"9f46cfde-4f76-4076-bade-5765c2d3d473","system_id":"levelo_inurba_marseille","lat":43.280382,"lon":5.369291,"is_reserved":false,"is_disabled":false,"rental_uris":{"android":"levelo://app?vid=9f46cfde-4f76-4076-bade-5765c2d3d473","ios":"levelo://app?vid=9f46cfde-4f76-4076-bade-5765c2d3d473"},"vehicle_type_id":"4","last_reported":1693073245,"current_range_meters":31200,"station_id":"ce4bha12rcd13ifvqef0","pricing_plan_id":"free"},{"bike_id":"6e57ee41-a96c-4e53-bcfe-2a351f169066","system_id":"levelo_inurba_marseille","lat":43.28027,"lon":5.36947,"is_reserved":false,"is_disabled":false,"rental_uris":{"android":"levelo://app?vid=6e57ee41-a96c-4e53-bcfe-2a351f169066","ios":"levelo://app?vid=6e57ee41-a96c-4e53-bcfe-2a351f169066"},"vehicle_type_id":"4","last_reported":1693073245,"current_range_meters":29600,"station_id":"","pricing_plan_id":"free"},{"bike_id":"1e6fc804-8457-43a0-8009-9a51119a054b","system_id":"levelo_inurba_marseille","lat":43.284462,"lon":5.392121,"is_reserved":false,"is_disabled":false,"rental_uris":{"android":"levelo://app?vid=1e6fc804-8457-43a0-8009-9a51119a054b","ios":"levelo://app?vid=1e6fc804-8457-43a0-8009-9a51119a054b"},"vehicle_type_id":"4","last_reported":1693073245,"current_range_meters":20000,"station_id":"ce4bhoh2rcd13ifvqh5g","pricing_plan_id":"free"},{"bike_id":"0f247512-bca2-49ca-8ca0-7440eb1a6e81","system_id":"levelo_inurba_marseille","lat":43.284462,"lon":5.392121,"is_reserved":false,"is_disabled":false,"rental_uris":{"android":"levelo://app?vid=0f247512-bca2-49ca-8ca0-7440eb1a6e81","ios":"levelo://app?vid=0f247512-bca2-49ca-8ca0-7440eb1a6e81"},"vehicle_type_id":"4","last_reported":1693073245,"current_range_meters":30800,"station_id":"ce4bhoh2rcd13ifvqh5g","pricing_plan_id":"free"},{"bike_id":"8849d794-5c15-4752-8605-ff711a212862","system_id":"levelo_inurba_marseille","lat":43.28434,"lon":5.39209,"is_reserved":false,"is_disabled":false,"rental_uris":{"android":"levelo://app?vid=8849d794-5c15-4752-8605-ff711a212862","ios":"levelo://app?vid=8849d794-5c15-4752-8605-ff711a212862"},"vehicle_type_id":"4","last_reported":1693073245,"current_range_meters":6800,"station_id":"ce4bhoh2rcd13ifvqh5g","pricing_plan_id":"free"},{"bike_id":"2dbf7aad-8c79-4af0-b2e0-2fbc5162540f","system_id":"levelo_inurba_marseille","lat":43.32656,"lon":5.40987,"is_reserved":false,"is_disabled":false,"rental_uris":{"android":"levelo://app?vid=2dbf7aad-8c79-4af0-b2e0-2fbc5162540f","ios":"levelo://app?vid=2dbf7aad-8c79-4af0-b2e0-2fbc5162540f"},"vehicle_type_id":"4","last_reported":1693073245,"current_range_meters":20400,"station_id":"ce4bhpp2rcd13ifvqhgg","pricing_plan_id":"free"},{"bike_id":"0a4d8006-8fe7-4afb-9454-1d0fc415ad36","system_id":"levelo_inurba_marseille","lat":43.32661,"lon":5.40986,"is_reserved":false,"is_disabled":false,"rental_uris":{"android":"levelo://app?vid=0a4d8006-8fe7-4afb-9454-1d0fc415ad36","ios":"levelo://app?vid=0a4d8006-8fe7-4afb-9454-1d0fc415ad36"},"vehicle_type_id":"4","last_reported":1693073245,"current_range_meters":30400,"station_id":"ce4bhpp2rcd13ifvqhgg","pricing_plan_id":"free"},{"bike_id":"f4230663-5f1d-41b7-8065-de5c85d430bb","system_id":"levelo_inurba_marseille","lat":43.3266,"lon":5.40988,"is_reserved":false,"is_disabled":false,"rental_uris":{"android":"levelo://app?vid=f4230663-5f1d-41b7-8065-de5c85d430bb","ios":"levelo://app?vid=f4230663-5f1d-41b7-8065-de5c85d430bb"},"vehicle_type_id":"4","last_reported":1693073245,"current_range_meters":4400,"station_id":"ce4bhpp2rcd13ifvqhgg","pricing_plan_id":"free"},{"bike_id":"344e649a-445d-4dd0-8309-c9344b22c2b8","system_id":"levelo_inurba_marseille","lat":43.32656,"lon":5.40993,"is_reserved":false,"is_disabled":false,"rental_uris":{"android":"levelo://app?vid=344e649a-445d-4dd0-8309-c9344b22c2b8","ios":"levelo://app?vid=344e649a-445d-4dd0-8309-c9344b22c2b8"},"vehicle_type_id":"4","last_reported":1693073245,"current_range_meters":21200,"station_id":"ce4bhpp2rcd13ifvqhgg","pricing_plan_id":"free"},{"bike_id":"17e4815d-6188-4d0c-94a9-14be3b87a2e6","system_id":"levelo_inurba_marseille","lat":43.32659,"lon":5.40993,"is_reserved":false,"is_disabled":false,"rental_uris":{"android":"levelo://app?vid=17e4815d-6188-4d0c-94a9-14be3b87a2e6","ios":"levelo://app?vid=17e4815d-6188-4d0c-94a9-14be3b87a2e6"},"vehicle_type_id":"4","last_reported":1693073245,"current_range_meters":14000,"station_id":"ce4bhpp2rcd13ifvqhgg","pricing_plan_id":"free"},{"bike_id":"37f77438-4719-4735-a53c-550f0e280269","system_id":"levelo_inurba_marseille","lat":43.30418,"lon":5.41266,"is_reserved":false,"is_disabled":false,"rental_uris":{"android":"levelo://app?vid=37f77438-4719-4735-a53c-550f0e280269","ios":"levelo://app?vid=37f77438-4719-4735-a53c-550f0e280269"},"vehicle_type_id":"4","last_reported":1693073245,"current_range_meters":29600,"station_id":"ce4bhop2rcd13ifvqh8g","pricing_plan_id":"free"},{"bike_id":"9ba8ac73-d2f3-4716-b995-1cf0ea79f3fc","system_id":"levelo_inurba_marseille","lat":43.30427,"lon":5.4127,"is_reserved":false,"is_disabled":false,"rental_uris":{"android":"levelo://app?vid=9ba8ac73-d2f3-4716-b995-1cf0ea79f3fc","ios":"levelo://app?vid=9ba8ac73-d2f3-4716-b995-1cf0ea79f3fc"},"vehicle_type_id":"4","last_reported":1693073245,"current_range_meters":30400,"station_id":"ce4bhop2rcd13ifvqh8g","pricing_plan_id":"free"},{"bike_id":"905c7781-4598-4ceb-b7e6-922aab7c9592","system_id":"levelo_inurba_marseille","lat":43.30411,"lon":5.4128,"is_reserved":false,"is_disabled":false,"rental_uris":{"android":"levelo://app?vid=905c7781-4598-4ceb-b7e6-922aab7c9592","ios":"levelo://app?vid=905c7781-4598-4ceb-b7e6-922aab7c9592"},"vehicle_type_id":"4","last_reported":1693073245,"current_range_meters":28000,"station_id":"ce4bhop2rcd13ifvqh8g","pricing_plan_id":"free"},{"bike_id":"7f386664-a3cc-4805-ba94-759d24037a82","system_id":"levelo_inurba_marseille","lat":43.30408,"lon":5.41288,"is_reserved":false,"is_disabled":false,"rental_uris":{"android":"levelo://app?vid=7f386664-a3cc-4805-ba94-759d24037a82","ios":"levelo://app?vid=7f386664-a3cc-4805-ba94-759d24037a82"},"vehicle_type_id":"4","last_reported":1693073245,"current_range_meters":26800,"station_id":"ce4bhop2rcd13ifvqh8g","pricing_plan_id":"free"},{"bike_id":"8472a371-ba7d-407a-8666-f7d233d84813","system_id":"levelo_inurba_marseille","lat":43.279087,"lon":5.380114,"is_reserved":false,"is_disabled":false,"rental_uris":{"android":"levelo://app?vid=8472a371-ba7d-407a-8666-f7d233d84813","ios":"levelo://app?vid=8472a371-ba7d-407a-8666-f7d233d84813"},"vehicle_type_id":"4","last_reported":1693073245,"current_range_meters":31200,"station_id":"ce4bhf92rcd13ifvqf50","pricing_plan_id":"free"},{"bike_id":"e20ad91a-08c9-491a-ba38-7e367465e30f","system_id":"levelo_inurba_marseille","lat":43.279087,"lon":5.380114,"is_reserved":false,"is_disabled":false,"rental_uris":{"android":"levelo://app?vid=e20ad91a-08c9-491a-ba38-7e367465e30f","ios":"levelo://app?vid=e20ad91a-08c9-491a-ba38-7e367465e30f"},"vehicle_type_id":"4","last_reported":1693073245,"current_range_meters":19200,"station_id":"ce4bhf92rcd13ifvqf50","pricing_plan_id":"free"},{"bike_id":"63efe645-7add-4aa3-b5d5-68f59d511eeb","system_id":"levelo_inurba_marseille","lat":43.287154,"lon":5.399979,"is_reserved":false,"is_disabled":false,"rental_uris":{"android":"levelo://app?vid=63efe645-7add-4aa3-b5d5-68f59d511eeb","ios":"levelo://app?vid=63efe645-7add-4aa3-b5d5-68f59d511eeb"},"vehicle_type_id":"4","last_reported":1693073245,"current_range_meters":21600,"station_id":"ce4bho92rcd13ifvqh3g","pricing_plan_id":"free"},{"bike_id":"da02755d-9207-4615-b48d-f8c59eba211d","system_id":"levelo_inurba_marseille","lat":43.287154,"lon":5.399979,"is_reserved":false,"is_disabled":false,"rental_uris":{"android":"levelo://app?vid=da02755d-9207-4615-b48d-f8c59eba211d","ios":"levelo://app?vid=da02755d-9207-4615-b48d-f8c59eba211d"},"vehicle_type_id":"4","last_reported":1693073245,"current_range_meters":20800,"station_id":"ce4bho92rcd13ifvqh3g","pricing_plan_id":"free"},{"bike_id":"047e2b90-aa27-42bb-82f5-427cafe59752","system_id":"levelo_inurba_marseille","lat":43.287154,"lon":5.399979,"is_reserved":false,"is_disabled":false,"rental_uris":{"android":"levelo://app?vid=047e2b90-aa27-42bb-82f5-427cafe59752","ios":"levelo://app?vid=047e2b90-aa27-42bb-82f5-427cafe59752"},"vehicle_type_id":"4","last_reported":1693073245,"current_range_meters":16800,"station_id":"ce4bho92rcd13ifvqh3g","pricing_plan_id":"free"},{"bike_id":"12788446-de45-45d3-b8fe-e7718bd1c32e","system_id":"levelo_inurba_marseille","lat":43.3204,"lon":5.41543,"is_reserved":false,"is_disabled":false,"rental_uris":{"android":"levelo://app?vid=12788446-de45-45d3-b8fe-e7718bd1c32e","ios":"levelo://app?vid=12788446-de45-45d3-b8fe-e7718bd1c32e"},"vehicle_type_id":"4","last_reported":1693073245,"current_range_meters":28000,"station_id":"ce4bhq92rcd13ifvqhkg","pricing_plan_id":"free"},{"bike_id":"aefa222d-1382-497e-a3c7-161a0d95bdb4","system_id":"levelo_inurba_marseille","lat":43.29961,"lon":5.41319,"is_reserved":false,"is_disabled":false,"rental_uris":{"android":"levelo://app?vid=aefa222d-1382-497e-a3c7-161a0d95bdb4","ios":"levelo://app?vid=aefa222d-1382-497e-a3c7-161a0d95bdb4"},"vehicle_type_id":"4","last_reported":1693073245,"current_range_meters":31200,"station_id":"ce4bhp12rcd13ifvqh9g","pricing_plan_id":"free"},{"bike_id":"43988ab0-b307-4b59-b95a-f8bed06386b9","system_id":"levelo_inurba_marseille","lat":43.299577,"lon":5.413277,"is_reserved":false,"is_disabled":false,"rental_uris":{"android":"levelo://app?vid=43988ab0-b307-4b59-b95a-f8bed06386b9","ios":"levelo://app?vid=43988ab0-b307-4b59-b95a-f8bed06386b9"},"vehicle_type_id":"4","last_reported":1693073245,"current_range_meters":26800,"station_id":"ce4bhp12rcd13ifvqh9g","pricing_plan_id":"free"},{"bike_id":"9313f3f7-0553-42c9-a9b1-b70f96124687","system_id":"levelo_inurba_marseille","lat":43.29948,"lon":5.4132,"is_reserved":false,"is_disabled":false,"rental_uris":{"android":"levelo://app?vid=9313f3f7-0553-42c9-a9b1-b70f96124687","ios":"levelo://app?vid=9313f3f7-0553-42c9-a9b1-b70f96124687"},"vehicle_type_id":"4","last_reported":1693073245,"current_range_meters":31200,"station_id":"ce4bhp12rcd13ifvqh9g","pricing_plan_id":"free"},{"bike_id":"40073fd4-754a-4ba0-81f9-f769a52aa708","system_id":"levelo_inurba_marseille","lat":43.320045,"lon":5.415048,"is_reserved":false,"is_disabled":false,"rental_uris":{"android":"levelo://app?vid=40073fd4-754a-4ba0-81f9-f769a52aa708","ios":"levelo://app?vid=40073fd4-754a-4ba0-81f9-f769a52aa708"},"vehicle_type_id":"4","last_reported":1693073245,"current_range_meters":6400,"station_id":"ce4bhq92rcd13ifvqhkg","pricing_plan_id":"free"},{"bike_id":"c327718a-8fe6-4791-a349-aba0f8f94e82","system_id":"levelo_inurba_marseille","lat":43.279742,"lon":5.38744,"is_reserved":false,"is_disabled":false,"rental_uris":{"android":"levelo://app?vid=c327718a-8fe6-4791-a349-aba0f8f94e82","ios":"levelo://app?vid=c327718a-8fe6-4791-a349-aba0f8f94e82"},"vehicle_type_id":"4","last_reported":1693073245,"current_range_meters":24000,"station_id":"ce4bhg12rcd13ifvqf80","pricing_plan_id":"free"},{"bike_id":"fcd903d1-26f1-4fe3-bcac-523d910f9049","system_id":"levelo_inurba_marseille","lat":43.292569,"lon":5.409107,"is_reserved":false,"is_disabled":false,"rental_uris":{"android":"levelo://app?vid=fcd903d1-26f1-4fe3-bcac-523d910f9049","ios":"levelo://app?vid=fcd903d1-26f1-4fe3-bcac-523d910f9049"},"vehicle_type_id":"4","last_reported":1693073245,"current_range_meters":25600,"station_id":"ce4bh192rcd13ifvqdc0","pricing_plan_id":"free"},{"bike_id":"3563d8b3-8312-4911-80be-32759d84381f","system_id":"levelo_inurba_marseille","lat":43.32524,"lon":5.41439,"is_reserved":false,"is_disabled":false,"rental_uris":{"android":"levelo://app?vid=3563d8b3-8312-4911-80be-32759d84381f","ios":"levelo://app?vid=3563d8b3-8312-4911-80be-32759d84381f"},"vehicle_type_id":"4","last_reported":1693073245,"current_range_meters":23600,"station_id":"ce4bhq12rcd13ifvqhhg","pricing_plan_id":"free"},{"bike_id":"ee019f99-9fe6-4f50-9160-e98dcb117ae4","system_id":"levelo_inurba_marseille","lat":43.325233,"lon":5.414318,"is_reserved":false,"is_disabled":false,"rental_uris":{"android":"levelo://app?vid=ee019f99-9fe6-4f50-9160-e98dcb117ae4","ios":"levelo://app?vid=ee019f99-9fe6-4f50-9160-e98dcb117ae4"},"vehicle_type_id":"4","last_reported":1693073245,"current_range_meters":28400,"station_id":"ce4bhq12rcd13ifvqhhg","pricing_plan_id":"free"},{"bike_id":"6aacc544-8524-49e0-9829-d7771f758f9b","system_id":"levelo_inurba_marseille","lat":43.27616,"lon":5.36118,"is_reserved":false,"is_disabled":false,"rental_uris":{"android":"levelo://app?vid=6aacc544-8524-49e0-9829-d7771f758f9b","ios":"levelo://app?vid=6aacc544-8524-49e0-9829-d7771f758f9b"},"vehicle_type_id":"4","last_reported":1693073245,"current_range_meters":25200,"station_id":"ce4bgj92rcd13ifvqbe0","pricing_plan_id":"free"},{"bike_id":"f4219b32-6655-4f16-9089-17ca2946fea9","system_id":"levelo_inurba_marseille","lat":43.33006,"lon":5.41308,"is_reserved":false,"is_disabled":false,"rental_uris":{"android":"levelo://app?vid=f4219b32-6655-4f16-9089-17ca2946fea9","ios":"levelo://app?vid=f4219b32-6655-4f16-9089-17ca2946fea9"},"vehicle_type_id":"4","last_reported":1693073245,"current_range_meters":30400,"station_id":"","pricing_plan_id":"free"},{"bike_id":"cefa40ef-af6a-46a3-b303-a97c65bde953","system_id":"levelo_inurba_marseille","lat":43.280784,"lon":5.396622,"is_reserved":false,"is_disabled":false,"rental_uris":{"android":"levelo://app?vid=cefa40ef-af6a-46a3-b303-a97c65bde953","ios":"levelo://app?vid=cefa40ef-af6a-46a3-b303-a97c65bde953"},"vehicle_type_id":"4","last_reported":1693073245,"current_range_meters":11600,"station_id":"ce4bho12rcd13ifvqh2g","pricing_plan_id":"free"},{"bike_id":"7654555a-cb7f-4c9c-97f9-180c8e8feda9","system_id":"levelo_inurba_marseille","lat":43.303837,"lon":5.418724,"is_reserved":false,"is_disabled":false,"rental_uris":{"android":"levelo://app?vid=7654555a-cb7f-4c9c-97f9-180c8e8feda9","ios":"levelo://app?vid=7654555a-cb7f-4c9c-97f9-180c8e8feda9"},"vehicle_type_id":"4","last_reported":1693073245,"current_range_meters":30000,"station_id":"ce4bhop2rcd13ifvqh7g","pricing_plan_id":"free"},{"bike_id":"5e0bdfc4-268d-46cb-b69e-4199617871b6","system_id":"levelo_inurba_marseille","lat":43.303837,"lon":5.418724,"is_reserved":false,"is_disabled":false,"rental_uris":{"android":"levelo://app?vid=5e0bdfc4-268d-46cb-b69e-4199617871b6","ios":"levelo://app?vid=5e0bdfc4-268d-46cb-b69e-4199617871b6"},"vehicle_type_id":"4","last_reported":1693073245,"current_range_meters":22000,"station_id":"ce4bhop2rcd13ifvqh7g","pricing_plan_id":"free"},{"bike_id":"70d57a99-e0de-4690-be91-dfe15f856b8e","system_id":"levelo_inurba_marseille","lat":43.278401,"lon":5.392152,"is_reserved":false,"is_disabled":false,"rental_uris":{"android":"levelo://app?vid=70d57a99-e0de-4690-be91-dfe15f856b8e","ios":"levelo://app?vid=70d57a99-e0de-4690-be91-dfe15f856b8e"},"vehicle_type_id":"4","last_reported":1693073245,"current_range_meters":23600,"station_id":"ce4bhjp2rcd13ifvqga0","pricing_plan_id":"free"},{"bike_id":"01ce2da3-e8b0-462d-8416-0c5ba61c759b","system_id":"levelo_inurba_marseille","lat":43.27833,"lon":5.39197,"is_reserved":false,"is_disabled":false,"rental_uris":{"android":"levelo://app?vid=01ce2da3-e8b0-462d-8416-0c5ba61c759b","ios":"levelo://app?vid=01ce2da3-e8b0-462d-8416-0c5ba61c759b"},"vehicle_type_id":"4","last_reported":1693073245,"current_range_meters":30400,"station_id":"ce4bhjp2rcd13ifvqga0","pricing_plan_id":"free"},{"bike_id":"93178ba8-e52d-4faa-b675-db5332c24189","system_id":"levelo_inurba_marseille","lat":43.275625,"lon":5.384392,"is_reserved":false,"is_disabled":false,"rental_uris":{"android":"levelo://app?vid=93178ba8-e52d-4faa-b675-db5332c24189","ios":"levelo://app?vid=93178ba8-e52d-4faa-b675-db5332c24189"},"vehicle_type_id":"4","last_reported":1693073245,"current_range_meters":23600,"station_id":"ce4bhh92rcd13ifvqfi0","pricing_plan_id":"free"},{"bike_id":"ed22aae5-2f17-44e5-9132-a62ff19a2e0f","system_id":"levelo_inurba_marseille","lat":43.278401,"lon":5.392152,"is_reserved":false,"is_disabled":false,"rental_uris":{"android":"levelo://app?vid=ed22aae5-2f17-44e5-9132-a62ff19a2e0f","ios":"levelo://app?vid=ed22aae5-2f17-44e5-9132-a62ff19a2e0f"},"vehicle_type_id":"4","last_reported":1693073245,"current_range_meters":25200,"station_id":"ce4bhjp2rcd13ifvqga0","pricing_plan_id":"free"},{"bike_id":"775cba35-3aae-40a2-8856-0651a7be924e","system_id":"levelo_inurba_marseille","lat":43.275625,"lon":5.384392,"is_reserved":false,"is_disabled":false,"rental_uris":{"android":"levelo://app?vid=775cba35-3aae-40a2-8856-0651a7be924e","ios":"levelo://app?vid=775cba35-3aae-40a2-8856-0651a7be924e"},"vehicle_type_id":"4","last_reported":1693073245,"current_range_meters":20400,"station_id":"ce4bhh92rcd13ifvqfi0","pricing_plan_id":"free"},{"bike_id":"f9ab95ee-64bb-44e2-a6bf-e6be167116d4","system_id":"levelo_inurba_marseille","lat":43.275625,"lon":5.384392,"is_reserved":false,"is_disabled":false,"rental_uris":{"android":"levelo://app?vid=f9ab95ee-64bb-44e2-a6bf-e6be167116d4","ios":"levelo://app?vid=f9ab95ee-64bb-44e2-a6bf-e6be167116d4"},"vehicle_type_id":"4","last_reported":1693073245,"current_range_meters":4800,"station_id":"ce4bhh92rcd13ifvqfi0","pricing_plan_id":"free"},{"bike_id":"c4c8bff3-da22-41d0-ba01-a86d70139f34","system_id":"levelo_inurba_marseille","lat":43.275625,"lon":5.384392,"is_reserved":false,"is_disabled":false,"rental_uris":{"android":"levelo://app?vid=c4c8bff3-da22-41d0-ba01-a86d70139f34","ios":"levelo://app?vid=c4c8bff3-da22-41d0-ba01-a86d70139f34"},"vehicle_type_id":"4","last_reported":1693073245,"current_range_meters":14400,"station_id":"ce4bhh92rcd13ifvqfi0","pricing_plan_id":"free"},{"bike_id":"9278726e-fbb6-4d1c-afd8-9bbbcc5e3810","system_id":"levelo_inurba_marseille","lat":43.33612,"lon":5.410321,"is_reserved":false,"is_disabled":false,"rental_uris":{"android":"levelo://app?vid=9278726e-fbb6-4d1c-afd8-9bbbcc5e3810","ios":"levelo://app?vid=9278726e-fbb6-4d1c-afd8-9bbbcc5e3810"},