{"last_updated":1728482891,"ttl":60,"version":"2.2","data":{"bikes":[{"bike_id":"c60da232-2931-445e-9832-6a7c4cbdbe4f","system_id":"levelo_inurba_marseille","lat":43.25938,"lon":5.40897,"is_reserved":false,"is_disabled":false,"rental_uris":{"android":"levelo://app?vid=c60da232-2931-445e-9832-6a7c4cbdbe4f","ios":"levelo://app?vid=c60da232-2931-445e-9832-6a7c4cbdbe4f"},"vehicle_type_id":"4","last_reported":1728482891,"current_range_meters":28000,"station_id":"ce4bhm92rcd13ifvqglg","pricing_plan_id":"cebpf4jnsgd1na2vs0mg"},{"bike_id":"65cc3a85-bfbe-4d44-9b21-9fcdb1e5a3ee","system_id":"levelo_inurba_marseille","lat":43.30462,"lon":5.37912,"is_reserved":false,"is_disabled":false,"rental_uris":{"android":"levelo://app?vid=65cc3a85-bfbe-4d44-9b21-9fcdb1e5a3ee","ios":"levelo://app?vid=65cc3a85-bfbe-4d44-9b21-9fcdb1e5a3ee"},"vehicle_type_id":"4","last_reported":1728482891,"current_range_meters":39200,"station_id":"ce4bgup2rcd13ifvqcn0","pricing_plan_id":"cebpf4jnsgd1na2vs0mg"},{"bike_id":"4d05d63f-111c-4b0a-b626-f412071e31cd","system_id":"levelo_inurba_marseille","lat":43.26684,"lon":5.38271,"is_reserved":false,"is_disabled":false,"rental_uris":{"android":"levelo://app?vid=4d05d63f-111c-4b0a-b626-f412071e31cd","ios":"levelo://app?vid=4d05d63f-111c-4b0a-b626-f412071e31cd"},"vehicle_type_id":"4","last_reported":1728482891,"current_range_meters":25200,"station_id":"ce4bhg92rcd13ifvqf90","pricing_plan_id":"cebpf4jnsgd1na2vs0mg"},{"bike_id":"c0e81ddc-4247-4238-9e14-21137a5ad2bc","system_id":"levelo_inurba_marseille","lat":43.30266,"lon":5.37712,"is_reserved":false,"is_disabled":false,"rental_uris":{"android":"levelo://app?vid=c0e81ddc-4247-4238-9e14-21137a5ad2bc","ios":"levelo://app?vid=c0e81ddc-4247-4238-9e14-21137a5ad2bc"},"vehicle_type_id":"4","last_reported":1728482891,"current_range_meters":38400,"station_id":"ce4bguh2rcd13ifvqcj0","pricing_plan_id":"cebpf4jnsgd1na2vs0mg"},{"bike_id":"6b8918a4-396b-43e5-9a7f-f056357bf660","system_id":"levelo_inurba_marseille","lat":43.23068,"lon":5.35479,"is_reserved":false,"is_disabled":false,"rental_uris":{"android":"levelo://app?vid=6b8918a4-396b-43e5-9a7f-f056357bf660","ios":"levelo://app?vid=6b8918a4-396b-43e5-9a7f-f056357bf660"},"vehicle_type_id":"4","last_reported":1728482891,"current_range_meters":8400,"station_id":"cpo3342slgdg3j2ifvpg","pricing_plan_id":"cebpf4jnsgd1na2vs0mg"},{"bike_id":"98204301-504d-476c-bd31-d60054bcd170","system_id":"levelo_inurba_marseille","lat":43.32036,"lon":5.41572,"is_reserved":false,"is_disabled":false,"rental_uris":{"android":"levelo://app?vid=98204301-504d-476c-bd31-d60054bcd170","ios":"levelo://app?vid=98204301-504d-476c-bd31-d60054bcd170"},"vehicle_type_id":"4","last_reported":1728482891,"current_range_meters":10800,"station_id":"ce4bhq92rcd13ifvqhkg","pricing_plan_id":"cebpf4jnsgd1na2vs0mg"},{"bike_id":"d0bf75ff-3315-43c3-9efc-525dd80a1337","system_id":"levelo_inurba_marseille","lat":43.30278,"lon":5.37689,"is_reserved":false,"is_disabled":false,"rental_uris":{"android":"levelo://app?vid=d0bf75ff-3315-43c3-9efc-525dd80a1337","ios":"levelo://app?vid=d0bf75ff-3315-43c3-9efc-525dd80a1337"},"vehicle_type_id":"4","last_reported":1728482891,"current_range_meters":38800,"station_id":"ce4bguh2rcd13ifvqcj0","pricing_plan_id":"cebpf4jnsgd1na2vs0mg"},{"bike_id":"8dc1da34-b365-48c8-a247-baa08ce48506","system_id":"levelo_inurba_marseille","lat":43.28038,"lon":5.36937,"is_reserved":false,"is_disabled":false,"rental_uris":{"android":"levelo://app?vid=8dc1da34-b365-48c8-a247-baa08ce48506","ios":"levelo://app?vid=8dc1da34-b365-48c8-a247-baa08ce48506"},"vehicle_type_id":"4","last_reported":1728482891,"current_range_meters":27600,"station_id":"ce4bha12rcd13ifvqef0","pricing_plan_id":"cebpf4jnsgd1na2vs0mg"},{"bike_id":"3ce003e5-319d-4879-90af-39983f065bd1","system_id":"levelo_inurba_marseille","lat":43.31175,"lon":5.3871,"is_reserved":false,"is_disabled":false,"rental_uris":{"android":"levelo://app?vid=3ce003e5-319d-4879-90af-39983f065bd1","ios":"levelo://app?vid=3ce003e5-319d-4879-90af-39983f065bd1"},"vehicle_type_id":"4","last_reported":1728482891,"current_range_meters":7200,"station_id":"ce4bgv12rcd13ifvqcp0","pricing_plan_id":"cebpf4jnsgd1na2vs0mg"},{"bike_id":"faffead8-a517-40d8-a972-fe51eea87622","system_id":"levelo_inurba_marseille","lat":43.311462,"lon":5.388274,"is_reserved":false,"is_disabled":false,"rental_uris":{"android":"levelo://app?vid=faffead8-a517-40d8-a972-fe51eea87622","ios":"levelo://app?vid=faffead8-a517-40d8-a972-fe51eea87622"},"vehicle_type_id":"4","last_reported":1728482891,"current_range_meters":14400,"station_id":"ce4bhr92rcd13ifvqhrg","pricing_plan_id":"cebpf4jnsgd1na2vs0mg"},{"bike_id":"1160f34e-dcd5-40eb-b071-97026e687ba4","system_id":"levelo_inurba_marseille","lat":43.29519,"lon":5.39402,"is_reserved":false,"is_disabled":false,"rental_uris":{"android":"levelo://app?vid=1160f34e-dcd5-40eb-b071-97026e687ba4","ios":"levelo://app?vid=1160f34e-dcd5-40eb-b071-97026e687ba4"},"vehicle_type_id":"4","last_reported":1728482891,"current_range_meters":29600,"station_id":"ce4bh292rcd13ifvqdf0","pricing_plan_id":"cebpf4jnsgd1na2vs0mg"},{"bike_id":"641ad825-8f87-408f-ae23-4477d0a7e5e1","system_id":"levelo_inurba_marseille","lat":43.23147,"lon":5.43716,"is_reserved":false,"is_disabled":false,"rental_uris":{"android":"levelo://app?vid=641ad825-8f87-408f-ae23-4477d0a7e5e1","ios":"levelo://app?vid=641ad825-8f87-408f-ae23-4477d0a7e5e1"},"vehicle_type_id":"4","last_reported":1728482891,"current_range_meters":18000,"station_id":"ce4bhmp2rcd13ifvqgog","pricing_plan_id":"cebpf4jnsgd1na2vs0mg"},{"bike_id":"9607a926-0edc-43b1-bdf6-bd8e5b0aa7ef","system_id":"levelo_inurba_marseille","lat":43.30458,"lon":5.37899,"is_reserved":false,"is_disabled":false,"rental_uris":{"android":"levelo://app?vid=9607a926-0edc-43b1-bdf6-bd8e5b0aa7ef","ios":"levelo://app?vid=9607a926-0edc-43b1-bdf6-bd8e5b0aa7ef"},"vehicle_type_id":"4","last_reported":1728482891,"current_range_meters":24800,"station_id":"ce4bgup2rcd13ifvqcn0","pricing_plan_id":"cebpf4jnsgd1na2vs0mg"},{"bike_id":"64c9abdc-a744-4b43-9856-a64e8ee5db15","system_id":"levelo_inurba_marseille","lat":43.23069,"lon":5.35487,"is_reserved":false,"is_disabled":false,"rental_uris":{"android":"levelo://app?vid=64c9abdc-a744-4b43-9856-a64e8ee5db15","ios":"levelo://app?vid=64c9abdc-a744-4b43-9856-a64e8ee5db15"},"vehicle_type_id":"4","last_reported":1728482891,"current_range_meters":37600,"station_id":"cpo3342slgdg3j2ifvpg","pricing_plan_id":"cebpf4jnsgd1na2vs0mg"},{"bike_id":"fa676a5e-9c79-4a67-bacd-add425a4036d","system_id":"levelo_inurba_marseille","lat":43.23187,"lon":5.39977,"is_reserved":false,"is_disabled":false,"rental_uris":{"android":"levelo://app?vid=fa676a5e-9c79-4a67-bacd-add425a4036d","ios":"levelo://app?vid=fa676a5e-9c79-4a67-bacd-add425a4036d"},"vehicle_type_id":"4","last_reported":1728482891,"current_range_meters":33200,"station_id":"ce4bhn12rcd13ifvqgqg","pricing_plan_id":"cebpf4jnsgd1na2vs0mg"},{"bike_id":"34c0aa67-8ee4-4f8c-a17a-645d30d6ab32","system_id":"levelo_inurba_marseille","lat":43.32033,"lon":5.41567,"is_reserved":false,"is_disabled":false,"rental_uris":{"android":"levelo://app?vid=34c0aa67-8ee4-4f8c-a17a-645d30d6ab32","ios":"levelo://app?vid=34c0aa67-8ee4-4f8c-a17a-645d30d6ab32"},"vehicle_type_id":"4","last_reported":1728482891,"current_range_meters":26800,"station_id":"ce4bhq92rcd13ifvqhkg","pricing_plan_id":"cebpf4jnsgd1na2vs0mg"},{"bike_id":"759078aa-dfc1-4f00-810e-60f35899ac9f","system_id":"levelo_inurba_marseille","lat":43.27816,"lon":5.40716,"is_reserved":false,"is_disabled":false,"rental_uris":{"android":"levelo://app?vid=759078aa-dfc1-4f00-810e-60f35899ac9f","ios":"levelo://app?vid=759078aa-dfc1-4f00-810e-60f35899ac9f"},"vehicle_type_id":"4","last_reported":1728482891,"current_range_meters":26800,"station_id":"ce4bhnh2rcd13ifvqgtg","pricing_plan_id":"cebpf4jnsgd1na2vs0mg"},{"bike_id":"56ce137e-37b8-4da0-8ddb-243cffb9239c","system_id":"levelo_inurba_marseille","lat":43.31723,"lon":5.42395,"is_reserved":false,"is_disabled":false,"rental_uris":{"android":"levelo://app?vid=56ce137e-37b8-4da0-8ddb-243cffb9239c","ios":"levelo://app?vid=56ce137e-37b8-4da0-8ddb-243cffb9239c"},"vehicle_type_id":"4","last_reported":1728482891,"current_range_meters":38400,"station_id":"ce4bhp92rcd13ifvqhbg","pricing_plan_id":"cebpf4jnsgd1na2vs0mg"},{"bike_id":"c3c7636b-6a66-47b6-a905-cd31f3ee9511","system_id":"levelo_inurba_marseille","lat":43.27308,"lon":5.39068,"is_reserved":false,"is_disabled":false,"rental_uris":{"android":"levelo://app?vid=c3c7636b-6a66-47b6-a905-cd31f3ee9511","ios":"levelo://app?vid=c3c7636b-6a66-47b6-a905-cd31f3ee9511"},"vehicle_type_id":"4","last_reported":1728482891,"current_range_meters":4400,"station_id":"ce4bhgp2rcd13ifvqfe0","pricing_plan_id":"cebpf4jnsgd1na2vs0mg"},{"bike_id":"5183cdf7-81af-4f8d-b330-5edf0ae1fd49","system_id":"levelo_inurba_marseille","lat":43.30935,"lon":5.40138,"is_reserved":false,"is_disabled":false,"rental_uris":{"android":"levelo://app?vid=5183cdf7-81af-4f8d-b330-5edf0ae1fd49","ios":"levelo://app?vid=5183cdf7-81af-4f8d-b330-5edf0ae1fd49"},"vehicle_type_id":"4","last_reported":1728482891,"current_range_meters":16800,"station_id":"ce4bgvp2rcd13ifvqct0","pricing_plan_id":"cebpf4jnsgd1na2vs0mg"},{"bike_id":"52dfcf42-70b3-4803-a2bb-68aaf24adf9b","system_id":"levelo_inurba_marseille","lat":43.292999,"lon":5.374593,"is_reserved":false,"is_disabled":false,"rental_uris":{"android":"levelo://app?vid=52dfcf42-70b3-4803-a2bb-68aaf24adf9b","ios":"levelo://app?vid=52dfcf42-70b3-4803-a2bb-68aaf24adf9b"},"vehicle_type_id":"4","last_reported":1728482891,"current_range_meters":18000,"station_id":"ce4bgi12rcd13ifvqb70","pricing_plan_id":"cebpf4jnsgd1na2vs0mg"},{"bike_id":"414d2d4e-a961-4a08-9a48-a07949e6a378","system_id":"levelo_inurba_marseille","lat":43.28363,"lon":5.38638,"is_reserved":false,"is_disabled":false,"rental_uris":{"android":"levelo://app?vid=414d2d4e-a961-4a08-9a48-a07949e6a378","ios":"levelo://app?vid=414d2d4e-a961-4a08-9a48-a07949e6a378"},"vehicle_type_id":"4","last_reported":1728482891,"current_range_meters":33200,"station_id":"ce4bh492rcd13ifvqdvg","pricing_plan_id":"cebpf4jnsgd1na2vs0mg"},{"bike_id":"2cd972aa-f638-43ef-8e8f-9c98c896ad2d","system_id":"levelo_inurba_marseille","lat":43.24074,"lon":5.37758,"is_reserved":false,"is_disabled":false,"rental_uris":{"android":"levelo://app?vid=2cd972aa-f638-43ef-8e8f-9c98c896ad2d","ios":"levelo://app?vid=2cd972aa-f638-43ef-8e8f-9c98c896ad2d"},"vehicle_type_id":"4","last_reported":1728482891,"current_range_meters":16000,"station_id":"ce4bhnp2rcd13ifvqgvg","pricing_plan_id":"cebpf4jnsgd1na2vs0mg"},{"bike_id":"5f26f894-0b14-4db4-8133-f26bd068865b","system_id":"levelo_inurba_marseille","lat":43.30608,"lon":5.37218,"is_reserved":false,"is_disabled":false,"rental_uris":{"android":"levelo://app?vid=5f26f894-0b14-4db4-8133-f26bd068865b","ios":"levelo://app?vid=5f26f894-0b14-4db4-8133-f26bd068865b"},"vehicle_type_id":"4","last_reported":1728482891,"current_range_meters":33600,"station_id":"ce4bgqh2rcd13ifvqc4g","pricing_plan_id":"cebpf4jnsgd1na2vs0mg"},{"bike_id":"d17168ca-18e2-43b4-abb5-338236f751a3","system_id":"levelo_inurba_marseille","lat":43.25105,"lon":5.40323,"is_reserved":false,"is_disabled":false,"rental_uris":{"android":"levelo://app?vid=d17168ca-18e2-43b4-abb5-338236f751a3","ios":"levelo://app?vid=d17168ca-18e2-43b4-abb5-338236f751a3"},"vehicle_type_id":"4","last_reported":1728482891,"current_range_meters":4000,"station_id":"ce4bhlh2rcd13ifvqgig","pricing_plan_id":"cebpf4jnsgd1na2vs0mg"},{"bike_id":"0f21128f-2cd6-4779-8b8b-00ba634cf7e3","system_id":"levelo_inurba_marseille","lat":43.25109,"lon":5.40325,"is_reserved":false,"is_disabled":false,"rental_uris":{"android":"levelo://app?vid=0f21128f-2cd6-4779-8b8b-00ba634cf7e3","ios":"levelo://app?vid=0f21128f-2cd6-4779-8b8b-00ba634cf7e3"},"vehicle_type_id":"4","last_reported":1728482891,"current_range_meters":38000,"station_id":"ce4bhlh2rcd13ifvqgig","pricing_plan_id":"cebpf4jnsgd1na2vs0mg"},{"bike_id":"14df1f86-5200-4a72-abd9-2c107ad882b5","system_id":"levelo_inurba_marseille","lat":43.2694,"lon":5.4024,"is_reserved":false,"is_disabled":false,"rental_uris":{"android":"levelo://app?vid=14df1f86-5200-4a72-abd9-2c107ad882b5","ios":"levelo://app?vid=14df1f86-5200-4a72-abd9-2c107ad882b5"},"vehicle_type_id":"4","last_reported":1728482891,"current_range_meters":10000,"station_id":"cjm6bp8fraef2m0cb0m0","pricing_plan_id":"cebpf4jnsgd1na2vs0mg"},{"bike_id":"59a20882-e884-470e-b111-32ed424e7cc3","system_id":"levelo_inurba_marseille","lat":43.33729,"lon":5.39182,"is_reserved":false,"is_disabled":false,"rental_uris":{"android":"levelo://app?vid=59a20882-e884-470e-b111-32ed424e7cc3","ios":"levelo://app?vid=59a20882-e884-470e-b111-32ed424e7cc3"},"vehicle_type_id":"4","last_reported":1728482891,"current_range_meters":30800,"station_id":"ce4bhr92rcd13ifvqhsg","pricing_plan_id":"cebpf4jnsgd1na2vs0mg"},{"bike_id":"86e68555-84a6-4e3d-8a7e-2b589cb6fa42","system_id":"levelo_inurba_marseille","lat":43.30802,"lon":5.43513,"is_reserved":false,"is_disabled":false,"rental_uris":{"android":"levelo://app?vid=86e68555-84a6-4e3d-8a7e-2b589cb6fa42","ios":"levelo://app?vid=86e68555-84a6-4e3d-8a7e-2b589cb6fa42"},"vehicle_type_id":"4","last_reported":1728482891,"current_range_meters":10000,"station_id":"ce4bhph2rcd13ifvqheg","pricing_plan_id":"cebpf4jnsgd1na2vs0mg"},{"bike_id":"56217991-d619-468b-8c66-c3b8c420321a","system_id":"levelo_inurba_marseille","lat":43.29259,"lon":5.38439,"is_reserved":false,"is_disabled":false,"rental_uris":{"android":"levelo://app?vid=56217991-d619-468b-8c66-c3b8c420321a","ios":"levelo://app?vid=56217991-d619-468b-8c66-c3b8c420321a"},"vehicle_type_id":"4","last_reported":1728482891,"current_range_meters":2800,"station_id":"ce4bh692rcd13ifvqea0","pricing_plan_id":"cebpf4jnsgd1na2vs0mg"},{"bike_id":"72078f29-e154-4c5b-836a-c7e362ba1f09","system_id":"levelo_inurba_marseille","lat":43.33762,"lon":5.37462,"is_reserved":false,"is_disabled":false,"rental_uris":{"android":"levelo://app?vid=72078f29-e154-4c5b-836a-c7e362ba1f09","ios":"levelo://app?vid=72078f29-e154-4c5b-836a-c7e362ba1f09"},"vehicle_type_id":"4","last_reported":1728482891,"current_range_meters":10800,"station_id":"ce4rr2p2rcd13i802rgg","pricing_plan_id":"cebpf4jnsgd1na2vs0mg"},{"bike_id":"7d7ab187-9965-49a4-bf26-b6ade39671fc","system_id":"levelo_inurba_marseille","lat":43.23195,"lon":5.3555,"is_reserved":false,"is_disabled":false,"rental_uris":{"android":"levelo://app?vid=7d7ab187-9965-49a4-bf26-b6ade39671fc","ios":"levelo://app?vid=7d7ab187-9965-49a4-bf26-b6ade39671fc"},"vehicle_type_id":"4","last_reported":1728482891,"current_range_meters":24800,"station_id":"ce4bhu92rcd13ifvqi70","pricing_plan_id":"cebpf4jnsgd1na2vs0mg"},{"bike_id":"d51f0193-0dff-4957-8877-479daabe2300","system_id":"levelo_inurba_marseille","lat":43.337444,"lon":5.374475,"is_reserved":false,"is_disabled":false,"rental_uris":{"android":"levelo://app?vid=d51f0193-0dff-4957-8877-479daabe2300","ios":"levelo://app?vid=d51f0193-0dff-4957-8877-479daabe2300"},"vehicle_type_id":"4","last_reported":1728482891,"current_range_meters":38000,"station_id":"ce4rr2p2rcd13i802rgg","pricing_plan_id":"cebpf4jnsgd1na2vs0mg"},{"bike_id":"dc80b0e4-e686-4875-9991-4f06e3429d36","system_id":"levelo_inurba_marseille","lat":43.31763,"lon":5.39013,"is_reserved":false,"is_disabled":false,"rental_uris":{"android":"levelo://app?vid=dc80b0e4-e686-4875-9991-4f06e3429d36","ios":"levelo://app?vid=dc80b0e4-e686-4875-9991-4f06e3429d36"},"vehicle_type_id":"4","last_reported":1728482891,"current_range_meters":15200,"station_id":"ce4bhqp2rcd13ifvqhng","pricing_plan_id":"cebpf4jnsgd1na2vs0mg"},{"bike_id":"64cbf5ad-210a-4eed-8035-947870e47e4b","system_id":"levelo_inurba_marseille","lat":43.23189,"lon":5.39986,"is_reserved":false,"is_disabled":false,"rental_uris":{"android":"levelo://app?vid=64cbf5ad-210a-4eed-8035-947870e47e4b","ios":"levelo://app?vid=64cbf5ad-210a-4eed-8035-947870e47e4b"},"vehicle_type_id":"4","last_reported":1728482891,"current_range_meters":2800,"station_id":"ce4bhn12rcd13ifvqgqg","pricing_plan_id":"cebpf4jnsgd1na2vs0mg"},{"bike_id":"35c3427a-cf13-40b4-b75f-e8e3a621cbba","system_id":"levelo_inurba_marseille","lat":43.31328,"lon":5.39685,"is_reserved":false,"is_disabled":false,"rental_uris":{"android":"levelo://app?vid=35c3427a-cf13-40b4-b75f-e8e3a621cbba","ios":"levelo://app?vid=35c3427a-cf13-40b4-b75f-e8e3a621cbba"},"vehicle_type_id":"4","last_reported":1728482891,"current_range_meters":34000,"station_id":"ce4bgvp2rcd13ifvqcu0","pricing_plan_id":"cebpf4jnsgd1na2vs0mg"},{"bike_id":"fc686d7a-033d-4cd5-aed6-aed045a4a1e1","system_id":"levelo_inurba_marseille","lat":43.305481,"lon":5.366997,"is_reserved":false,"is_disabled":false,"rental_uris":{"android":"levelo://app?vid=fc686d7a-033d-4cd5-aed6-aed045a4a1e1","ios":"levelo://app?vid=fc686d7a-033d-4cd5-aed6-aed045a4a1e1"},"vehicle_type_id":"4","last_reported":1728482891,"current_range_meters":25200,"station_id":"ce4bgrp2rcd13ifvqc9g","pricing_plan_id":"cebpf4jnsgd1na2vs0mg"},{"bike_id":"5097ee69-0904-4cf7-af26-9cfce7bbd2b2","system_id":"levelo_inurba_marseille","lat":43.29565,"lon":5.37519,"is_reserved":false,"is_disabled":false,"rental_uris":{"android":"levelo://app?vid=5097ee69-0904-4cf7-af26-9cfce7bbd2b2","ios":"levelo://app?vid=5097ee69-0904-4cf7-af26-9cfce7bbd2b2"},"vehicle_type_id":"4","last_reported":1728482891,"current_range_meters":37600,"station_id":"ce4bgh92rcd13ifvqb50","pricing_plan_id":"cebpf4jnsgd1na2vs0mg"},{"bike_id":"f1647ac3-bd5c-4e7d-b136-6bba30eda3e2","system_id":"levelo_inurba_marseille","lat":43.29199,"lon":5.35791,"is_reserved":false,"is_disabled":false,"rental_uris":{"android":"levelo://app?vid=f1647ac3-bd5c-4e7d-b136-6bba30eda3e2","ios":"levelo://app?vid=f1647ac3-bd5c-4e7d-b136-6bba30eda3e2"},"vehicle_type_id":"4","last_reported":1728482891,"current_range_meters":28800,"station_id":"ce4bhb12rcd13ifvqel0","pricing_plan_id":"cebpf4jnsgd1na2vs0mg"},{"bike_id":"74e9ce9d-9e9f-4c6b-92fb-2f9a88c1f0f4","system_id":"levelo_inurba_marseille","lat":43.24178,"lon":5.36392,"is_reserved":false,"is_disabled":false,"rental_uris":{"android":"levelo://app?vid=74e9ce9d-9e9f-4c6b-92fb-2f9a88c1f0f4","ios":"levelo://app?vid=74e9ce9d-9e9f-4c6b-92fb-2f9a88c1f0f4"},"vehicle_type_id":"4","last_reported":1728482891,"current_range_meters":36800,"station_id":"cpo36qri1sfpv3e86is0","pricing_plan_id":"cebpf4jnsgd1na2vs0mg"},{"bike_id":"9e49afaa-49b1-4390-bd06-f682f9115c79","system_id":"levelo_inurba_marseille","lat":43.32507,"lon":5.37387,"is_reserved":false,"is_disabled":false,"rental_uris":{"android":"levelo://app?vid=9e49afaa-49b1-4390-bd06-f682f9115c79","ios":"levelo://app?vid=9e49afaa-49b1-4390-bd06-f682f9115c79"},"vehicle_type_id":"4","last_reported":1728482891,"current_range_meters":34000,"station_id":"","pricing_plan_id":"cebpf4jnsgd1na2vs0mg"},{"bike_id":"6bf579a6-3dc4-49b1-9d92-6e17a24ec0f8","system_id":"levelo_inurba_marseille","lat":43.2848,"lon":5.38548,"is_reserved":false,"is_disabled":false,"rental_uris":{"android":"levelo://app?vid=6bf579a6-3dc4-49b1-9d92-6e17a24ec0f8","ios":"levelo://app?vid=6bf579a6-3dc4-49b1-9d92-6e17a24ec0f8"},"vehicle_type_id":"4","last_reported":1728482891,"current_range_meters":20000,"station_id":"ce4bh8p2rcd13ifvqeb0","pricing_plan_id":"cebpf4jnsgd1na2vs0mg"},{"bike_id":"90452374-16cd-4157-a96d-c679d3473b8b","system_id":"levelo_inurba_marseille","lat":43.29241,"lon":5.37196,"is_reserved":false,"is_disabled":false,"rental_uris":{"android":"levelo://app?vid=90452374-16cd-4157-a96d-c679d3473b8b","ios":"levelo://app?vid=90452374-16cd-4157-a96d-c679d3473b8b"},"vehicle_type_id":"4","last_reported":1728482891,"current_range_meters":6400,"station_id":"","pricing_plan_id":"cebpf4jnsgd1na2vs0mg"},{"bike_id":"792577a6-685a-43bd-bdfe-2ef41696d1e8","system_id":"levelo_inurba_marseille","lat":43.23188,"lon":5.39994,"is_reserved":false,"is_disabled":false,"rental_uris":{"android":"levelo://app?vid=792577a6-685a-43bd-bdfe-2ef41696d1e8","ios":"levelo://app?vid=792577a6-685a-43bd-bdfe-2ef41696d1e8"},"vehicle_type_id":"4","last_reported":1728482891,"current_range_meters":32000,"station_id":"ce4bhn12rcd13ifvqgqg","pricing_plan_id":"cebpf4jnsgd1na2vs0mg"},{"bike_id":"2566bfeb-9088-4de8-8225-f8587d728c8e","system_id":"levelo_inurba_marseille","lat":43.24389,"lon":5.37055,"is_reserved":false,"is_disabled":false,"rental_uris":{"android":"levelo://app?vid=2566bfeb-9088-4de8-8225-f8587d728c8e","ios":"levelo://app?vid=2566bfeb-9088-4de8-8225-f8587d728c8e"},"vehicle_type_id":"4","last_reported":1728482891,"current_range_meters":25600,"station_id":"ce4bhhh2rcd13ifvqfk0","pricing_plan_id":"cebpf4jnsgd1na2vs0mg"},{"bike_id":"ac26ee53-74ca-4a7f-b516-88b3278d0e28","system_id":"levelo_inurba_marseille","lat":43.30599,"lon":5.37225,"is_reserved":false,"is_disabled":false,"rental_uris":{"android":"levelo://app?vid=ac26ee53-74ca-4a7f-b516-88b3278d0e28","ios":"levelo://app?vid=ac26ee53-74ca-4a7f-b516-88b3278d0e28"},"vehicle_type_id":"4","last_reported":1728482891,"current_range_meters":20800,"station_id":"ce4bgqh2rcd13ifvqc4g","pricing_plan_id":"cebpf4jnsgd1na2vs0mg"},{"bike_id":"ba845576-6ac3-46ed-9796-f084e3f46aa1","system_id":"levelo_inurba_marseille","lat":43.2721,"lon":5.39181,"is_reserved":false,"is_disabled":false,"rental_uris":{"android":"levelo://app?vid=ba845576-6ac3-46ed-9796-f084e3f46aa1","ios":"levelo://app?vid=ba845576-6ac3-46ed-9796-f084e3f46aa1"},"vehicle_type_id":"4","last_reported":1728482891,"current_range_meters":3600,"station_id":"ce4bhhp2rcd13ifvqfm0","pricing_plan_id":"cebpf4jnsgd1na2vs0mg"},{"bike_id":"b54e9ef9-d972-4a51-94db-ff061a7b9a07","system_id":"levelo_inurba_marseille","lat":43.25114,"lon":5.40321,"is_reserved":false,"is_disabled":false,"rental_uris":{"android":"levelo://app?vid=b54e9ef9-d972-4a51-94db-ff061a7b9a07","ios":"levelo://app?vid=b54e9ef9-d972-4a51-94db-ff061a7b9a07"},"vehicle_type_id":"4","last_reported":1728482891,"current_range_meters":12800,"station_id":"ce4bhlh2rcd13ifvqgig","pricing_plan_id":"cebpf4jnsgd1na2vs0mg"},{"bike_id":"c8b0f9ec-3371-4835-b214-a1b79f4757b6","system_id":"levelo_inurba_marseille","lat":43.32547,"lon":5.41434,"is_reserved":false,"is_disabled":false,"rental_uris":{"android":"levelo://app?vid=c8b0f9ec-3371-4835-b214-a1b79f4757b6","ios":"levelo://app?vid=c8b0f9ec-3371-4835-b214-a1b79f4757b6"},"vehicle_type_id":"4","last_reported":1728482891,"current_range_meters":20800,"station_id":"ce4bhq12rcd13ifvqhhg","pricing_plan_id":"cebpf4jnsgd1na2vs0mg"},{"bike_id":"e70c4ffa-9932-4f9d-9bdd-2031cdbc216e","system_id":"levelo_inurba_marseille","lat":43.27059,"lon":5.40256,"is_reserved":false,"is_disabled":false,"rental_uris":{"android":"levelo://app?vid=e70c4ffa-9932-4f9d-9bdd-2031cdbc216e","ios":"levelo://app?vid=e70c4ffa-9932-4f9d-9bdd-2031cdbc216e"},"vehicle_type_id":"4","last_reported":1728482891,"current_range_meters":22400,"station_id":"ce4bhk92rcd13ifvqgc0","pricing_plan_id":"cebpf4jnsgd1na2vs0mg"},{"bike_id":"c895b53b-46e8-4e15-8f14-c06e6de792df","system_id":"levelo_inurba_marseille","lat":43.32546,"lon":5.41431,"is_reserved":false,"is_disabled":false,"rental_uris":{"android":"levelo://app?vid=c895b53b-46e8-4e15-8f14-c06e6de792df","ios":"levelo://app?vid=c895b53b-46e8-4e15-8f14-c06e6de792df"},"vehicle_type_id":"4","last_reported":1728482891,"current_range_meters":38800,"station_id":"ce4bhq12rcd13ifvqhhg","pricing_plan_id":"cebpf4jnsgd1na2vs0mg"},{"bike_id":"ac45a0e0-9a70-4810-97dd-a872e45e1a81","system_id":"levelo_inurba_marseille","lat":43.27625,"lon":5.36104,"is_reserved":false,"is_disabled":false,"rental_uris":{"android":"levelo://app?vid=ac45a0e0-9a70-4810-97dd-a872e45e1a81","ios":"levelo://app?vid=ac45a0e0-9a70-4810-97dd-a872e45e1a81"},"vehicle_type_id":"4","last_reported":1728482891,"current_range_meters":17600,"station_id":"ce4bgj92rcd13ifvqbe0","pricing_plan_id":"cebpf4jnsgd1na2vs0mg"},{"bike_id":"67f5c9ce-d342-43bc-a463-b94ab74a1fe0","system_id":"levelo_inurba_marseille","lat":43.33023,"lon":5.39037,"is_reserved":false,"is_disabled":false,"rental_uris":{"android":"levelo://app?vid=67f5c9ce-d342-43bc-a463-b94ab74a1fe0","ios":"levelo://app?vid=67f5c9ce-d342-43bc-a463-b94ab74a1fe0"},"vehicle_type_id":"4","last_reported":1728482891,"current_range_meters":16800,"station_id":"ce4bhr92rcd13ifvqhrg","pricing_plan_id":"cebpf4jnsgd1na2vs0mg"},{"bike_id":"8513be67-a978-4cfc-9563-19285ed6fe5a","system_id":"levelo_inurba_marseille","lat":43.23196,"lon":5.35544,"is_reserved":false,"is_disabled":false,"rental_uris":{"android":"levelo://app?vid=8513be67-a978-4cfc-9563-19285ed6fe5a","ios":"levelo://app?vid=8513be67-a978-4cfc-9563-19285ed6fe5a"},"vehicle_type_id":"4","last_reported":1728482891,"current_range_meters":11600,"station_id":"ce4bhu92rcd13ifvqi70","pricing_plan_id":"cebpf4jnsgd1na2vs0mg"},{"bike_id":"930e9a6a-ce27-4dc1-b41b-09b8406a6c3b","system_id":"levelo_inurba_marseille","lat":43.24906,"lon":5.40884,"is_reserved":false,"is_disabled":false,"rental_uris":{"android":"levelo://app?vid=930e9a6a-ce27-4dc1-b41b-09b8406a6c3b","ios":"levelo://app?vid=930e9a6a-ce27-4dc1-b41b-09b8406a6c3b"},"vehicle_type_id":"4","last_reported":1728482891,"current_range_meters":3200,"station_id":"","pricing_plan_id":"cebpf4jnsgd1na2vs0mg"},{"bike_id":"2b970d01-0965-4688-9715-ceb4622733fc","system_id":"levelo_inurba_marseille","lat":43.25081,"lon":5.3951,"is_reserved":false,"is_disabled":false,"rental_uris":{"android":"levelo://app?vid=2b970d01-0965-4688-9715-ceb4622733fc","ios":"levelo://app?vid=2b970d01-0965-4688-9715-ceb4622733fc"},"vehicle_type_id":"4","last_reported":1728482891,"current_range_meters":23200,"station_id":"ce4bhm12rcd13ifvqgkg","pricing_plan_id":"cebpf4jnsgd1na2vs0mg"},{"bike_id":"c65ae82e-6371-4506-ac29-dc9e1eccf47a","system_id":"levelo_inurba_marseille","lat":43.32031,"lon":5.41569,"is_reserved":false,"is_disabled":false,"rental_uris":{"android":"levelo://app?vid=c65ae82e-6371-4506-ac29-dc9e1eccf47a","ios":"levelo://app?vid=c65ae82e-6371-4506-ac29-dc9e1eccf47a"},"vehicle_type_id":"4","last_reported":1728482891,"current_range_meters":18800,"station_id":"ce4bhq92rcd13ifvqhkg","pricing_plan_id":"cebpf4jnsgd1na2vs0mg"},{"bike_id":"922252e8-02c2-4987-8eed-1d6d69073568","system_id":"levelo_inurba_marseille","lat":43.26686,"lon":5.38265,"is_reserved":false,"is_disabled":false,"rental_uris":{"android":"levelo://app?vid=922252e8-02c2-4987-8eed-1d6d69073568","ios":"levelo://app?vid=922252e8-02c2-4987-8eed-1d6d69073568"},"vehicle_type_id":"4","last_reported":1728482891,"current_range_meters":31200,"station_id":"ce4bhg92rcd13ifvqf90","pricing_plan_id":"cebpf4jnsgd1na2vs0mg"},{"bike_id":"c283bee0-b392-40e1-b183-58fab03c3b3d","system_id":"levelo_inurba_marseille","lat":43.28424,"lon":5.34983,"is_reserved":false,"is_disabled":false,"rental_uris":{"android":"levelo://app?vid=c283bee0-b392-40e1-b183-58fab03c3b3d","ios":"levelo://app?vid=c283bee0-b392-40e1-b183-58fab03c3b3d"},"vehicle_type_id":"4","last_reported":1728482891,"current_range_meters":20000,"station_id":"ce4bhbh2rcd13ifvqepg","pricing_plan_id":"cebpf4jnsgd1na2vs0mg"},{"bike_id":"67eef66e-b30e-408e-86a3-5dd278f59894","system_id":"levelo_inurba_marseille","lat":43.27073,"lon":5.42276,"is_reserved":false,"is_disabled":false,"rental_uris":{"android":"levelo://app?vid=67eef66e-b30e-408e-86a3-5dd278f59894","ios":"levelo://app?vid=67eef66e-b30e-408e-86a3-5dd278f59894"},"vehicle_type_id":"4","last_reported":1728482891,"current_range_meters":4000,"station_id":"ce4bhk92rcd13ifvqgb0","pricing_plan_id":"cebpf4jnsgd1na2vs0mg"},{"bike_id":"1749a7dc-9ac7-43ae-8c2f-9c0134590642","system_id":"levelo_inurba_marseille","lat":43.2963,"lon":5.40596,"is_reserved":false,"is_disabled":false,"rental_uris":{"android":"levelo://app?vid=1749a7dc-9ac7-43ae-8c2f-9c0134590642","ios":"levelo://app?vid=1749a7dc-9ac7-43ae-8c2f-9c0134590642"},"vehicle_type_id":"4","last_reported":1728482891,"current_range_meters":7200,"station_id":"ce4bh0h2rcd13ifvqd60","pricing_plan_id":"cebpf4jnsgd1na2vs0mg"},{"bike_id":"a6b3d3c3-66cf-4ef9-93fa-38e21f9a6c77","system_id":"levelo_inurba_marseille","lat":43.26683,"lon":5.3827,"is_reserved":false,"is_disabled":false,"rental_uris":{"android":"levelo://app?vid=a6b3d3c3-66cf-4ef9-93fa-38e21f9a6c77","ios":"levelo://app?vid=a6b3d3c3-66cf-4ef9-93fa-38e21f9a6c77"},"vehicle_type_id":"4","last_reported":1728482891,"current_range_meters":38800,"station_id":"ce4bhg92rcd13ifvqf90","pricing_plan_id":"cebpf4jnsgd1na2vs0mg"},{"bike_id":"321ff2c6-cc16-4857-84cd-6f10af9a2a6d","system_id":"levelo_inurba_marseille","lat":43.31758,"lon":5.3901,"is_reserved":false,"is_disabled":false,"rental_uris":{"android":"levelo://app?vid=321ff2c6-cc16-4857-84cd-6f10af9a2a6d","ios":"levelo://app?vid=321ff2c6-cc16-4857-84cd-6f10af9a2a6d"},"vehicle_type_id":"4","last_reported":1728482891,"current_range_meters":21600,"station_id":"ce4bhqp2rcd13ifvqhng","pricing_plan_id":"cebpf4jnsgd1na2vs0mg"},{"bike_id":"abdeb7b7-9443-4a2e-90f2-c4f781442d2e","system_id":"levelo_inurba_marseille","lat":43.29902,"lon":5.43657,"is_reserved":false,"is_disabled":false,"rental_uris":{"android":"levelo://app?vid=abdeb7b7-9443-4a2e-90f2-c4f781442d2e","ios":"levelo://app?vid=abdeb7b7-9443-4a2e-90f2-c4f781442d2e"},"vehicle_type_id":"4","last_reported":1728482891,"current_range_meters":15200,"station_id":"ce4bhpp2rcd13ifvqhfg","pricing_plan_id":"cebpf4jnsgd1na2vs0mg"},{"bike_id":"55474af4-4a86-46d6-8770-fb117a3c325e","system_id":"levelo_inurba_marseille","lat":43.295319,"lon":5.385436,"is_reserved":false,"is_disabled":false,"rental_uris":{"android":"levelo://app?vid=55474af4-4a86-46d6-8770-fb117a3c325e","ios":"levelo://app?vid=55474af4-4a86-46d6-8770-fb117a3c325e"},"vehicle_type_id":"4","last_reported":1728482891,"current_range_meters":28800,"station_id":"ce4bgih2rcd13ifvqba0","pricing_plan_id":"cebpf4jnsgd1na2vs0mg"},{"bike_id":"d38dd870-fb35-4ebe-8242-7b8d175eed8b","system_id":"levelo_inurba_marseille","lat":43.32262,"lon":5.40678,"is_reserved":false,"is_disabled":false,"rental_uris":{"android":"levelo://app?vid=d38dd870-fb35-4ebe-8242-7b8d175eed8b","ios":"levelo://app?vid=d38dd870-fb35-4ebe-8242-7b8d175eed8b"},"vehicle_type_id":"4","last_reported":1728482891,"current_range_meters":11200,"station_id":"","pricing_plan_id":"cebpf4jnsgd1na2vs0mg"},{"bike_id":"c0aec3d1-48c9-4433-a550-08e66cf083db","system_id":"levelo_inurba_marseille","lat":43.26806,"lon":5.40265,"is_reserved":false,"is_disabled":false,"rental_uris":{"android":"levelo://app?vid=c0aec3d1-48c9-4433-a550-08e66cf083db","ios":"levelo://app?vid=c0aec3d1-48c9-4433-a550-08e66cf083db"},"vehicle_type_id":"4","last_reported":1728482891,"current_range_meters":8000,"station_id":"ce501612rcd8frsf0b60","pricing_plan_id":"cebpf4jnsgd1na2vs0mg"},{"bike_id":"0d4be6cf-75c2-4167-aeb1-0ab484b31dc8","system_id":"levelo_inurba_marseille","lat":43.29939,"lon":5.36542,"is_reserved":false,"is_disabled":false,"rental_uris":{"android":"levelo://app?vid=0d4be6cf-75c2-4167-aeb1-0ab484b31dc8","ios":"levelo://app?vid=0d4be6cf-75c2-4167-aeb1-0ab484b31dc8"},"vehicle_type_id":"4","last_reported":1728482891,"current_range_meters":36400,"station_id":"ce4bgm92rcd13ifvqbr0","pricing_plan_id":"cebpf4jnsgd1na2vs0mg"},{"bike_id":"b2b4de4f-2766-4b62-869e-c18d598cb3c6","system_id":"levelo_inurba_marseille","lat":43.25105,"lon":5.40327,"is_reserved":false,"is_disabled":false,"rental_uris":{"android":"levelo://app?vid=b2b4de4f-2766-4b62-869e-c18d598cb3c6","ios":"levelo://app?vid=b2b4de4f-2766-4b62-869e-c18d598cb3c6"},"vehicle_type_id":"4","last_reported":1728482891,"current_range_meters":34800,"station_id":"ce4bhlh2rcd13ifvqgig","pricing_plan_id":"cebpf4jnsgd1na2vs0mg"},{"bike_id":"ea6c2f2f-07a9-4f41-a458-b4e450643441","system_id":"levelo_inurba_marseille","lat":43.28452,"lon":5.35887,"is_reserved":false,"is_disabled":false,"rental_uris":{"android":"levelo://app?vid=ea6c2f2f-07a9-4f41-a458-b4e450643441","ios":"levelo://app?vid=ea6c2f2f-07a9-4f41-a458-b4e450643441"},"vehicle_type_id":"4","last_reported":1728482891,"current_range_meters":6000,"station_id":"ce4bhah2rcd13ifvqei0","pricing_plan_id":"cebpf4jnsgd1na2vs0mg"},{"bike_id":"0796fc03-cedd-4668-8767-ff9d83360f15","system_id":"levelo_inurba_marseille","lat":43.27622,"lon":5.36108,"is_reserved":false,"is_disabled":false,"rental_uris":{"android":"levelo://app?vid=0796fc03-cedd-4668-8767-ff9d83360f15","ios":"levelo://app?vid=0796fc03-cedd-4668-8767-ff9d83360f15"},"vehicle_type_id":"4","last_reported":1728482891,"current_range_meters":27200,"station_id":"ce4bgj92rcd13ifvqbe0","pricing_plan_id":"cebpf4jnsgd1na2vs0mg"},{"bike_id":"a2669f3a-b54e-4fbb-9b92-5c5cfb930d28","system_id":"levelo_inurba_marseille","lat":43.25931,"lon":5.409,"is_reserved":false,"is_disabled":false,"rental_uris":{"android":"levelo://app?vid=a2669f3a-b54e-4fbb-9b92-5c5cfb930d28","ios":"levelo://app?vid=a2669f3a-b54e-4fbb-9b92-5c5cfb930d28"},"vehicle_type_id":"4","last_reported":1728482891,"current_range_meters":25200,"station_id":"ce4bhm92rcd13ifvqglg","pricing_plan_id":"cebpf4jnsgd1na2vs0mg"},{"bike_id":"62930a7f-74ee-49d2-82a3-62a466b84fb0","system_id":"levelo_inurba_marseille","lat":43.32649,"lon":5.38899,"is_reserved":false,"is_disabled":false,"rental_uris":{"android":"levelo://app?vid=62930a7f-74ee-49d2-82a3-62a466b84fb0","ios":"levelo://app?vid=62930a7f-74ee-49d2-82a3-62a466b84fb0"},"vehicle_type_id":"4","last_reported":1728482891,"current_range_meters":8400,"station_id":"","pricing_plan_id":"cebpf4jnsgd1na2vs0mg"},{"bike_id":"32a47555-5b90-4e71-acec-5d7469e9cc0c","system_id":"levelo_inurba_marseille","lat":43.32481,"lon":5.3656,"is_reserved":false,"is_disabled":false,"rental_uris":{"android":"levelo://app?vid=32a47555-5b90-4e71-acec-5d7469e9cc0c","ios":"levelo://app?vid=32a47555-5b90-4e71-acec-5d7469e9cc0c"},"vehicle_type_id":"4","last_reported":1728482891,"current_range_meters":39200,"station_id":"ce4bhs12rcd13ifvqhvg","pricing_plan_id":"cebpf4jnsgd1na2vs0mg"},{"bike_id":"d90712d7-c141-4692-95f9-dd71034a00eb","system_id":"levelo_inurba_marseille","lat":43.29842,"lon":5.36268,"is_reserved":false,"is_disabled":false,"rental_uris":{"android":"levelo://app?vid=d90712d7-c141-4692-95f9-dd71034a00eb","ios":"levelo://app?vid=d90712d7-c141-4692-95f9-dd71034a00eb"},"vehicle_type_id":"4","last_reported":1728482891,"current_range_meters":21600,"station_id":"ce4bgpp2rcd13ifvqc3g","pricing_plan_id":"cebpf4jnsgd1na2vs0mg"},{"bike_id":"aaa20f75-8343-4c25-a19b-7ee0ca587fd3","system_id":"levelo_inurba_marseille","lat":43.29578,"lon":5.3674,"is_reserved":false,"is_disabled":false,"rental_uris":{"android":"levelo://app?vid=aaa20f75-8343-4c25-a19b-7ee0ca587fd3","ios":"levelo://app?vid=aaa20f75-8343-4c25-a19b-7ee0ca587fd3"},"vehicle_type_id":"4","last_reported":1728482891,"current_range_meters":39200,"station_id":"ce4bgph2rcd13ifvqc2g","pricing_plan_id":"cebpf4jnsgd1na2vs0mg"},{"bike_id":"70579604-fe31-4626-8ce5-732c300fd65a","system_id":"levelo_inurba_marseille","lat":43.29945,"lon":5.36502,"is_reserved":false,"is_disabled":false,"rental_uris":{"android":"levelo://app?vid=70579604-fe31-4626-8ce5-732c300fd65a","ios":"levelo://app?vid=70579604-fe31-4626-8ce5-732c300fd65a"},"vehicle_type_id":"4","last_reported":1728482891,"current_range_meters":8400,"station_id":"","pricing_plan_id":"cebpf4jnsgd1na2vs0mg"},{"bike_id":"baba3ddf-e747-4095-9a9c-078163c7026f","system_id":"levelo_inurba_marseille","lat":43.25932,"lon":5.40904,"is_reserved":false,"is_disabled":false,"rental_uris":{"android":"levelo://app?vid=baba3ddf-e747-4095-9a9c-078163c7026f","ios":"levelo://app?vid=baba3ddf-e747-4095-9a9c-078163c7026f"},"vehicle_type_id":"4","last_reported":1728482891,"current_range_meters":6000,"station_id":"ce4bhm92rcd13ifvqglg","pricing_plan_id":"cebpf4jnsgd1na2vs0mg"},{"bike_id":"fe090380-9c56-44ec-98aa-f2997e53747a","system_id":"levelo_inurba_marseille","lat":43.29773,"lon":5.37117,"is_reserved":false,"is_disabled":false,"rental_uris":{"android":"levelo://app?vid=fe090380-9c56-44ec-98aa-f2997e53747a","ios":"levelo://app?vid=fe090380-9c56-44ec-98aa-f2997e53747a"},"vehicle_type_id":"4","last_reported":1728482891,"current_range_meters":30800,"station_id":"ce4bgop2rcd13ifvqc1g","pricing_plan_id":"cebpf4jnsgd1na2vs0mg"},{"bike_id":"6217f0d4-29aa-4911-a3f9-c02e45328700","system_id":"levelo_inurba_marseille","lat":43.23193,"lon":5.35544,"is_reserved":false,"is_disabled":false,"rental_uris":{"android":"levelo://app?vid=6217f0d4-29aa-4911-a3f9-c02e45328700","ios":"levelo://app?vid=6217f0d4-29aa-4911-a3f9-c02e45328700"},"vehicle_type_id":"4","last_reported":1728482891,"current_range_meters":32400,"station_id":"ce4bhu92rcd13ifvqi70","pricing_plan_id":"cebpf4jnsgd1na2vs0mg"},{"bike_id":"920db849-51d8-4810-9098-e63abbf75a19","system_id":"levelo_inurba_marseille","lat":43.29578,"lon":5.37514,"is_reserved":false,"is_disabled":false,"rental_uris":{"android":"levelo://app?vid=920db849-51d8-4810-9098-e63abbf75a19","ios":"levelo://app?vid=920db849-51d8-4810-9098-e63abbf75a19"},"vehicle_type_id":"4","last_reported":1728482891,"current_range_meters":37600,"station_id":"ce4bgh92rcd13ifvqb50","pricing_plan_id":"cebpf4jnsgd1na2vs0mg"},{"bike_id":"bee145ee-fc59-4185-a037-bd0349d05714","system_id":"levelo_inurba_marseille","lat":43.31753,"lon":5.39018,"is_reserved":false,"is_disabled":false,"rental_uris":{"android":"levelo://app?vid=bee145ee-fc59-4185-a037-bd0349d05714","ios":"levelo://app?vid=bee145ee-fc59-4185-a037-bd0349d05714"},"vehicle_type_id":"4","last_reported":1728482891,"current_range_meters":16800,"station_id":"ce4bhqp2rcd13ifvqhng","pricing_plan_id":"cebpf4jnsgd1na2vs0mg"},{"bike_id":"9d3935c4-e49c-4d7a-9332-1bd57798c7ac","system_id":"levelo_inurba_marseille","lat":43.26944,"lon":5.40254,"is_reserved":false,"is_disabled":false,"rental_uris":{"android":"levelo://app?vid=9d3935c4-e49c-4d7a-9332-1bd57798c7ac","ios":"levelo://app?vid=9d3935c4-e49c-4d7a-9332-1bd57798c7ac"},"vehicle_type_id":"4","last_reported":1728482891,"current_range_meters":39200,"station_id":"cjm6bp8fraef2m0cb0m0","pricing_plan_id":"cebpf4jnsgd1na2vs0mg"},{"bike_id":"fde7cf76-2bbb-462c-878e-7256af82b32b","system_id":"levelo_inurba_marseille","lat":43.23197,"lon":5.35546,"is_reserved":false,"is_disabled":false,"rental_uris":{"android":"levelo://app?vid=fde7cf76-2bbb-462c-878e-7256af82b32b","ios":"levelo://app?vid=fde7cf76-2bbb-462c-878e-7256af82b32b"},"vehicle_type_id":"4","last_reported":1728482891,"current_range_meters":38800,"station_id":"ce4bhu92rcd13ifvqi70","pricing_plan_id":"cebpf4jnsgd1na2vs0mg"},{"bike_id":"4bff9c8b-74ec-4761-963d-f5c515602488","system_id":"levelo_inurba_marseille","lat":43.29373,"lon":5.37846,"is_reserved":false,"is_disabled":false,"rental_uris":{"android":"levelo://app?vid=4bff9c8b-74ec-4761-963d-f5c515602488","ios":"levelo://app?vid=4bff9c8b-74ec-4761-963d-f5c515602488"},"vehicle_type_id":"4","last_reported":1728482891,"current_range_meters":38800,"station_id":"ce4bgjh2rcd13ifvqbf0","pricing_plan_id":"cebpf4jnsgd1na2vs0mg"},{"bike_id":"0fdce3b5-e7e5-4f59-9a47-e7e0807a5fc2","system_id":"levelo_inurba_marseille","lat":43.291626,"lon":5.371474,"is_reserved":false,"is_disabled":false,"rental_uris":{"android":"levelo://app?vid=0fdce3b5-e7e5-4f59-9a47-e7e0807a5fc2","ios":"levelo://app?vid=0fdce3b5-e7e5-4f59-9a47-e7e0807a5fc2"},"vehicle_type_id":"4","last_reported":1728482891,"current_range_meters":6000,"station_id":"ce4bha92rcd13ifvqeh0","pricing_plan_id":"cebpf4jnsgd1na2vs0mg"},{"bike_id":"2b6677d5-7b62-4a07-b6c3-7bf77f5bcd5c","system_id":"levelo_inurba_marseille","lat":43.28446,"lon":5.39185,"is_reserved":false,"is_disabled":false,"rental_uris":{"android":"levelo://app?vid=2b6677d5-7b62-4a07-b6c3-7bf77f5bcd5c","ios":"levelo://app?vid=2b6677d5-7b62-4a07-b6c3-7bf77f5bcd5c"},"vehicle_type_id":"4","last_reported":1728482891,"current_range_meters":37600,"station_id":"ce4bhoh2rcd13ifvqh5g","pricing_plan_id":"cebpf4jnsgd1na2vs0mg"},{"bike_id":"1e7f6ef6-2a3a-4f20-95c7-bfa1f4b635cd","system_id":"levelo_inurba_marseille","lat":43.25866,"lon":5.39896,"is_reserved":false,"is_disabled":false,"rental_uris":{"android":"levelo://app?vid=1e7f6ef6-2a3a-4f20-95c7-bfa1f4b635cd","ios":"levelo://app?vid=1e7f6ef6-2a3a-4f20-95c7-bfa1f4b635cd"},"vehicle_type_id":"4","last_reported":1728482891,"current_range_meters":10000,"station_id":"ce4bhl92rcd13ifvqghg","pricing_plan_id":"cebpf4jnsgd1na2vs0mg"},{"bike_id":"75395850-4213-4a16-89df-f01b6c1235a8","system_id":"levelo_inurba_marseille","lat":43.30886,"lon":5.3964,"is_reserved":false,"is_disabled":false,"rental_uris":{"android":"levelo://app?vid=75395850-4213-4a16-89df-f01b6c1235a8","ios":"levelo://app?vid=75395850-4213-4a16-89df-f01b6c1235a8"},"vehicle_type_id":"4","last_reported":1728482891,"current_range_meters":36000,"station_id":"ce4bh012rcd13ifvqcv0","pricing_plan_id":"cebpf4jnsgd1na2vs0mg"},{"bike_id":"39acb091-ca9b-4a07-8f63-87a2117f426e","system_id":"levelo_inurba_marseille","lat":43.294617,"lon":5.375707,"is_reserved":false,"is_disabled":false,"rental_uris":{"android":"levelo://app?vid=39acb091-ca9b-4a07-8f63-87a2117f426e","ios":"levelo://app?vid=39acb091-ca9b-4a07-8f63-87a2117f426e"},"vehicle_type_id":"4","last_reported":1728482891,"current_range_meters":30400,"station_id":"ce4bgkp2rcd13ifvqbmg","pricing_plan_id":"cebpf4jnsgd1na2vs0mg"},{"bike_id":"01fb83be-8718-4e49-8885-143e7e1b7ef7","system_id":"levelo_inurba_marseille","lat":43.28364,"lon":5.38645,"is_reserved":false,"is_disabled":false,"rental_uris":{"android":"levelo://app?vid=01fb83be-8718-4e49-8885-143e7e1b7ef7","ios":"levelo://app?vid=01fb83be-8718-4e49-8885-143e7e1b7ef7"},"vehicle_type_id":"4","last_reported":1728482891,"current_range_meters":18800,"station_id":"ce4bh492rcd13ifvqdvg","pricing_plan_id":"cebpf4jnsgd1na2vs0mg"},{"bike_id":"d80bfdf3-f9a5-4093-8b7b-d5ae47861bec","system_id":"levelo_inurba_marseille","lat":43.30802,"lon":5.43519,"is_reserved":false,"is_disabled":false,"rental_uris":{"android":"levelo://app?vid=d80bfdf3-f9a5-4093-8b7b-d5ae47861bec","ios":"levelo://app?vid=d80bfdf3-f9a5-4093-8b7b-d5ae47861bec"},"vehicle_type_id":"4","last_reported":1728482891,"current_range_meters":16800,"station_id":"ce4bhph2rcd13ifvqheg","pricing_plan_id":"cebpf4jnsgd1na2vs0mg"},{"bike_id":"5b5d2ddc-a8d5-4f6b-a620-a18de0b55337","system_id":"levelo_inurba_marseille","lat":43.31117,"lon":5.37769,"is_reserved":false,"is_disabled":false,"rental_uris":{"android":"levelo://app?vid=5b5d2ddc-a8d5-4f6b-a620-a18de0b55337","ios":"levelo://app?vid=5b5d2ddc-a8d5-4f6b-a620-a18de0b55337"},"vehicle_type_id":"4","last_reported":1728482891,"current_range_meters":32000,"station_id":"ce4bgt92rcd13ifvqcg0","pricing_plan_id":"cebpf4jnsgd1na2vs0mg"},{"bike_id":"7985f048-bcb6-4002-ab3a-a4d1115ae984","system_id":"levelo_inurba_marseille","lat":43.28452,"lon":5.35885,"is_reserved":false,"is_disabled":false,"rental_uris":{"android":"levelo://app?vid=7985f048-bcb6-4002-ab3a-a4d1115ae984","ios":"levelo://app?vid=7985f048-bcb6-4002-ab3a-a4d1115ae984"},"vehicle_type_id":"4","last_reported":1728482891,"current_range_meters":19200,"station_id":"ce4bhah2rcd13ifvqei0","pricing_plan_id":"cebpf4jnsgd1na2vs0mg"},{"bike_id":"cbba0af6-ecb4-434a-a2a4-239271dd07cf","system_id":"levelo_inurba_marseille","lat":43.297085,"lon":5.366052,"is_reserved":false,"is_disabled":false,"rental_uris":{"android":"levelo://app?vid=cbba0af6-ecb4-434a-a2a4-239271dd07cf","ios":"levelo://app?vid=cbba0af6-ecb4-434a-a2a4-239271dd07cf"},"vehicle_type_id":"4","last_reported":1728482891,"current_range_meters":2800,"station_id":"ce4bgn12rcd13ifvqbt0","pricing_plan_id":"cebpf4jnsgd1na2vs0mg"},{"bike_id":"34eef90e-154f-478d-b455-c13756d8eaaf","system_id":"levelo_inurba_marseille","lat":43.28467,"lon":5.3588,"is_reserved":false,"is_disabled":false,"rental_uris":{"android":"levelo://app?vid=34eef90e-154f-478d-b455-c13756d8eaaf","ios":"levelo://app?vid=34eef90e-154f-478d-b455-c13756d8eaaf"},"vehicle_type_id":"4","last_reported":1728482891,"current_range_meters":3200,"station_id":"ce4bhah2rcd13ifvqei0","pricing_plan_id":"cebpf4jnsgd1na2vs0mg"},{"bike_id":"6d9d66b6-e6d3-4ef0-b371-93ff2aa798c8","system_id":"levelo_inurba_marseille","lat":43.29708,"lon":5.377,"is_reserved":false,"is_disabled":false,"rental_uris":{"android":"levelo://app?vid=6d9d66b6-e6d3-4ef0-b371-93ff2aa798c8","ios":"levelo://app?vid=6d9d66b6-e6d3-4ef0-b371-93ff2aa798c8"},"vehicle_type_id":"4","last_reported":1728482891,"current_range_meters":3200,"station_id":"ce4bgkh2rcd13ifvqbl0","pricing_plan_id":"cebpf4jnsgd1na2vs0mg"},{"bike_id":"348b7a55-88e9-41b9-8452-005ba33311a4","system_id":"levelo_inurba_marseille","lat":43.295835,"lon":5.367405,"is_reserved":false,"is_disabled":false,"rental_uris":{"android":"levelo://app?vid=348b7a55-88e9-41b9-8452-005ba33311a4","ios":"levelo://app?vid=348b7a55-88e9-41b9-8452-005ba33311a4"},"vehicle_type_id":"4","last_reported":1728482891,"current_range_meters":11600,"station_id":"ce4bgph2rcd13ifvqc2g","pricing_plan_id":"cebpf4jnsgd1na2vs0mg"},{"bike_id":"e9d63d80-714f-412f-9d79-f9b71cc2b9c8","system_id":"levelo_inurba_marseille","lat":43.28435,"lon":5.392,"is_reserved":false,"is_disabled":false,"rental_uris":{"android":"levelo://app?vid=e9d63d80-714f-412f-9d79-f9b71cc2b9c8","ios":"levelo://app?vid=e9d63d80-714f-412f-9d79-f9b71cc2b9c8"},"vehicle_type_id":"4","last_reported":1728482891,"current_range_meters":8000,"station_id":"ce4bhoh2rcd13ifvqh5g","pricing_plan_id":"cebpf4jnsgd1na2vs0mg"},{"bike_id":"8f195e73-56cf-4dbf-97df-c620bbc300b1","system_id":"levelo_inurba_marseille","lat":43.23157,"lon":5.43703,"is_reserved":false,"is_disabled":false,"rental_uris":{"android":"levelo://app?vid=8f195e73-56cf-4dbf-97df-c620bbc300b1","ios":"levelo://app?vid=8f195e73-56cf-4dbf-97df-c620bbc300b1"},"vehicle_type_id":"4","last_reported":1728482891,"current_range_meters":16000,"station_id":"ce4bhmp2rcd13ifvqgog","pricing_plan_id":"cebpf4jnsgd1na2vs0mg"},{"bike_id":"fe6777e6-f030-4c7c-8d0a-c1fffe079bb5","system_id":"levelo_inurba_marseille","lat":43.31687,"lon":5.40471,"is_reserved":false,"is_disabled":false,"rental_uris":{"android":"levelo://app?vid=fe6777e6-f030-4c7c-8d0a-c1fffe079bb5","ios":"levelo://app?vid=fe6777e6-f030-4c7c-8d0a-c1fffe079bb5"},"vehicle_type_id":"4","last_reported":1728482891,"current_range_meters":18000,"station_id":"ce4bh012rcd13ifvqd00","pricing_plan_id":"cebpf4jnsgd1na2vs0mg"},{"bike_id":"25afecff-8faf-4ca5-beb4-ce74280dcb13","system_id":"levelo_inurba_marseille","lat":43.2319,"lon":5.35541,"is_reserved":false,"is_disabled":false,"rental_uris":{"android":"levelo://app?vid=25afecff-8faf-4ca5-beb4-ce74280dcb13","ios":"levelo://app?vid=25afecff-8faf-4ca5-beb4-ce74280dcb13"},"vehicle_type_id":"4","last_reported":1728482891,"current_range_meters":3200,"station_id":"ce4bhu92rcd13ifvqi70","pricing_plan_id":"cebpf4jnsgd1na2vs0mg"},{"bike_id":"ebd068c1-37c9-4114-91b2-bf2829bd1ff3","system_id":"levelo_inurba_marseille","lat":43.28356,"lon":5.38618,"is_reserved":false,"is_disabled":false,"rental_uris":{"android":"levelo://app?vid=ebd068c1-37c9-4114-91b2-bf2829bd1ff3","ios":"levelo://app?vid=ebd068c1-37c9-4114-91b2-bf2829bd1ff3"},"vehicle_type_id":"4","last_reported":1728482891,"current_range_meters":38400,"station_id":"ce4bh492rcd13ifvqdvg","pricing_plan_id":"cebpf4jnsgd1na2vs0mg"},{"bike_id":"7219fee0-219f-4cfa-8633-b620db7597ae","system_id":"levelo_inurba_marseille","lat":43.29839,"lon":5.37086,"is_reserved":false,"is_disabled":false,"rental_uris":{"android":"levelo://app?vid=7219fee0-219f-4cfa-8633-b620db7597ae","ios":"levelo://app?vid=7219fee0-219f-4cfa-8633-b620db7597ae"},"vehicle_type_id":"4","last_reported":1728482891,"current_range_meters":10800,"station_id":"","pricing_plan_id":"cebpf4jnsgd1na2vs0mg"},{"bike_id":"f91066a1-e8cb-48d4-8373-4e9e845c15f1","system_id":"levelo_inurba_marseille","lat":43.30802,"lon":5.4352,"is_reserved":false,"is_disabled":false,"rental_uris":{"android":"levelo://app?vid=f91066a1-e8cb-48d4-8373-4e9e845c15f1","ios":"levelo://app?vid=f91066a1-e8cb-48d4-8373-4e9e845c15f1"},"vehicle_type_id":"4","last_reported":1728482891,"current_range_meters":8800,"station_id":"ce4bhph2rcd13ifvqheg","pricing_plan_id":"cebpf4jnsgd1na2vs0mg"},{"bike_id":"00d00fe1-5ef2-4bed-b21c-3d056198b28a","system_id":"levelo_inurba_marseille","lat":43.26785,"lon":5.3941,"is_reserved":false,"is_disabled":false,"rental_uris":{"android":"levelo://app?vid=00d00fe1-5ef2-4bed-b21c-3d056198b28a","ios":"levelo://app?vid=00d00fe1-5ef2-4bed-b21c-3d056198b28a"},"vehicle_type_id":"4","last_reported":1728482891,"current_range_meters":28400,"station_id":"ce4bhh12rcd13ifvqfg0","pricing_plan_id":"cebpf4jnsgd1na2vs0mg"},{"bike_id":"4f13e28c-2265-421d-a569-458a937b44e4","system_id":"levelo_inurba_marseille","lat":43.26209,"lon":5.37436,"is_reserved":false,"is_disabled":false,"rental_uris":{"android":"levelo://app?vid=4f13e28c-2265-421d-a569-458a937b44e4","ios":"levelo://app?vid=4f13e28c-2265-421d-a569-458a937b44e4"},"vehicle_type_id":"4","last_reported":1728482891,"current_range_meters":30800,"station_id":"ce4bhgp2rcd13ifvqfc0","pricing_plan_id":"cebpf4jnsgd1na2vs0mg"},{"bike_id":"537295f0-e34c-4ec3-a8ad-9b4d471be691","system_id":"levelo_inurba_marseille","lat":43.22827,"lon":5.35296,"is_reserved":false,"is_disabled":false,"rental_uris":{"android":"levelo://app?vid=537295f0-e34c-4ec3-a8ad-9b4d471be691","ios":"levelo://app?vid=537295f0-e34c-4ec3-a8ad-9b4d471be691"},"vehicle_type_id":"4","last_reported":1728482891,"current_range_meters":6800,"station_id":"ce4bhu92rcd13ifvqi70","pricing_plan_id":"cebpf4jnsgd1na2vs0mg"},{"bike_id":"e624f99b-4ddd-4528-a88c-ace300ae2406","system_id":"levelo_inurba_marseille","lat":43.28706,"lon":5.39988,"is_reserved":false,"is_disabled":false,"rental_uris":{"android":"levelo://app?vid=e624f99b-4ddd-4528-a88c-ace300ae2406","ios":"levelo://app?vid=e624f99b-4ddd-4528-a88c-ace300ae2406"},"vehicle_type_id":"4","last_reported":1728482891,"current_range_meters":10000,"station_id":"ce4bho92rcd13ifvqh3g","pricing_plan_id":"cebpf4jnsgd1na2vs0mg"},{"bike_id":"8eaf0d04-c51f-4947-b2cd-4928c2536ab8","system_id":"levelo_inurba_marseille","lat":43.30532,"lon":5.3653,"is_reserved":false,"is_disabled":false,"rental_uris":{"android":"levelo://app?vid=8eaf0d04-c51f-4947-b2cd-4928c2536ab8","ios":"levelo://app?vid=8eaf0d04-c51f-4947-b2cd-4928c2536ab8"},"vehicle_type_id":"4","last_reported":1728482891,"current_range_meters":4000,"station_id":"ce4bgs12rcd13ifvqcag","pricing_plan_id":"cebpf4jnsgd1na2vs0mg"},{"bike_id":"603932a3-f239-48d4-ae25-bed4575339e1","system_id":"levelo_inurba_marseille","lat":43.3204,"lon":5.41574,"is_reserved":false,"is_disabled":false,"rental_uris":{"android":"levelo://app?vid=603932a3-f239-48d4-ae25-bed4575339e1","ios":"levelo://app?vid=603932a3-f239-48d4-ae25-bed4575339e1"},"vehicle_type_id":"4","last_reported":1728482891,"current_range_meters":35200,"station_id":"ce4bhq92rcd13ifvqhkg","pricing_plan_id":"cebpf4jnsgd1na2vs0mg"},{"bike_id":"d819c6e6-0d15-4623-ab7d-7d4be1f5b1aa","system_id":"levelo_inurba_marseille","lat":43.30536,"lon":5.36535,"is_reserved":false,"is_disabled":false,"rental_uris":{"android":"levelo://app?vid=d819c6e6-0d15-4623-ab7d-7d4be1f5b1aa","ios":"levelo://app?vid=d819c6e6-0d15-4623-ab7d-7d4be1f5b1aa"},"vehicle_type_id":"4","last_reported":1728482891,"current_range_meters":15200,"station_id":"ce4bgs12rcd13ifvqcag","pricing_plan_id":"cebpf4jnsgd1na2vs0mg"},{"bike_id":"61093d0b-d2ff-47c7-bdb9-c22472edbaf4","system_id":"levelo_inurba_marseille","lat":43.23186,"lon":5.39976,"is_reserved":false,"is_disabled":false,"rental_uris":{"android":"levelo://app?vid=61093d0b-d2ff-47c7-bdb9-c22472edbaf4","ios":"levelo://app?vid=61093d0b-d2ff-47c7-bdb9-c22472edbaf4"},"vehicle_type_id":"4","last_reported":1728482891,"current_range_meters":17200,"station_id":"ce4bhn12rcd13ifvqgqg","pricing_plan_id":"cebpf4jnsgd1na2vs0mg"},{"bike_id":"003dfcd1-e77c-45f7-bd34-289604a833af","system_id":"levelo_inurba_marseille","lat":43.31713,"lon":5.43708,"is_reserved":false,"is_disabled":false,"rental_uris":{"android":"levelo://app?vid=003dfcd1-e77c-45f7-bd34-289604a833af","ios":"levelo://app?vid=003dfcd1-e77c-45f7-bd34-289604a833af"},"vehicle_type_id":"4","last_reported":1728482891,"current_range_meters":27600,"station_id":"ce4bhp92rcd13ifvqhcg","pricing_plan_id":"cebpf4jnsgd1na2vs0mg"},{"bike_id":"2da6e46e-c4a1-45ae-a363-4743b2ed352c","system_id":"levelo_inurba_marseille","lat":43.23197,"lon":5.3555,"is_reserved":false,"is_disabled":false,"rental_uris":{"android":"levelo://app?vid=2da6e46e-c4a1-45ae-a363-4743b2ed352c","ios":"levelo://app?vid=2da6e46e-c4a1-45ae-a363-4743b2ed352c"},"vehicle_type_id":"4","last_reported":1728482891,"current_range_meters":8000,"station_id":"ce4bhu92rcd13ifvqi70","pricing_plan_id":"cebpf4jnsgd1na2vs0mg"},{"bike_id":"3d460166-8721-4fd2-b80c-b88c81a98033","system_id":"levelo_inurba_marseille","lat":43.29974,"lon":5.37167,"is_reserved":false,"is_disabled":false,"rental_uris":{"android":"levelo://app?vid=3d460166-8721-4fd2-b80c-b88c81a98033","ios":"levelo://app?vid=3d460166-8721-4fd2-b80c-b88c81a98033"},"vehicle_type_id":"4","last_reported":1728482891,"current_range_meters":2000,"station_id":"ce4bgr92rcd13ifvqc7g","pricing_plan_id":"cebpf4jnsgd1na2vs0mg"},{"bike_id":"2efb23b7-7e46-42fe-a129-4fb0dda95972","system_id":"levelo_inurba_marseille","lat":43.30463,"lon":5.379,"is_reserved":false,"is_disabled":false,"rental_uris":{"android":"levelo://app?vid=2efb23b7-7e46-42fe-a129-4fb0dda95972","ios":"levelo://app?vid=2efb23b7-7e46-42fe-a129-4fb0dda95972"},"vehicle_type_id":"4","last_reported":1728482891,"current_range_meters":38400,"station_id":"ce4bgup2rcd13ifvqcn0","pricing_plan_id":"cebpf4jnsgd1na2vs0mg"},{"bike_id":"d056421e-da8e-425f-b0e8-aa20c351b461","system_id":"levelo_inurba_marseille","lat":43.29419,"lon":5.3863,"is_reserved":false,"is_disabled":false,"rental_uris":{"android":"levelo://app?vid=d056421e-da8e-425f-b0e8-aa20c351b461","ios":"levelo://app?vid=d056421e-da8e-425f-b0e8-aa20c351b461"},"vehicle_type_id":"4","last_reported":1728482891,"current_range_meters":26800,"station_id":"ce4bh2h2rcd13ifvqdh0","pricing_plan_id":"cebpf4jnsgd1na2vs0mg"},{"bike_id":"2fb9ef94-ca52-4246-b63a-92d1d548411e","system_id":"levelo_inurba_marseille","lat":43.31277,"lon":5.40155,"is_reserved":false,"is_disabled":false,"rental_uris":{"android":"levelo://app?vid=2fb9ef94-ca52-4246-b63a-92d1d548411e","ios":"levelo://app?vid=2fb9ef94-ca52-4246-b63a-92d1d548411e"},"vehicle_type_id":"4","last_reported":1728482891,"current_range_meters":8800,"station_id":"ce4bh092rcd13ifvqd30","pricing_plan_id":"cebpf4jnsgd1na2vs0mg"},{"bike_id":"caf5588b-54be-4d62-8764-85839338df0c","system_id":"levelo_inurba_marseille","lat":43.2847,"lon":5.38415,"is_reserved":false,"is_disabled":false,"rental_uris":{"android":"levelo://app?vid=caf5588b-54be-4d62-8764-85839338df0c","ios":"levelo://app?vid=caf5588b-54be-4d62-8764-85839338df0c"},"vehicle_type_id":"4","last_reported":1728482891,"current_range_meters":24000,"station_id":"ce4bh512rcd13ifvqe3g","pricing_plan_id":"cebpf4jnsgd1na2vs0mg"},{"bike_id":"cd5db413-cd84-47e8-8776-565b7138cca3","system_id":"levelo_inurba_marseille","lat":43.32486,"lon":5.36548,"is_reserved":false,"is_disabled":false,"rental_uris":{"android":"levelo://app?vid=cd5db413-cd84-47e8-8776-565b7138cca3","ios":"levelo://app?vid=cd5db413-cd84-47e8-8776-565b7138cca3"},"vehicle_type_id":"4","last_reported":1728482891,"current_range_meters":38800,"station_id":"ce4bhs12rcd13ifvqhvg","pricing_plan_id":"cebpf4jnsgd1na2vs0mg"},{"bike_id":"a3663720-7ff3-4a36-97ee-8783af8de5a0","system_id":"levelo_inurba_marseille","lat":43.23193,"lon":5.35565,"is_reserved":false,"is_disabled":false,"rental_uris":{"android":"levelo://app?vid=a3663720-7ff3-4a36-97ee-8783af8de5a0","ios":"levelo://app?vid=a3663720-7ff3-4a36-97ee-8783af8de5a0"},"vehicle_type_id":"4","last_reported":1728482891,"current_range_meters":6800,"station_id":"ce4bhu92rcd13ifvqi70","pricing_plan_id":"cebpf4jnsgd1na2vs0mg"},{"bike_id":"5c5144f2-2afe-4487-91c7-6430b9c4cf0a","system_id":"levelo_inurba_marseille","lat":43.28461,"lon":5.35881,"is_reserved":false,"is_disabled":false,"rental_uris":{"android":"levelo://app?vid=5c5144f2-2afe-4487-91c7-6430b9c4cf0a","ios":"levelo://app?vid=5c5144f2-2afe-4487-91c7-6430b9c4cf0a"},"vehicle_type_id":"4","last_reported":1728482891,"current_range_meters":8800,"station_id":"ce4bhah2rcd13ifvqei0","pricing_plan_id":"cebpf4jnsgd1na2vs0mg"},{"bike_id":"2d51a744-aefa-4b2b-ab8e-1a79c33d204b","system_id":"levelo_inurba_marseille","lat":43.297058,"lon":5.377065,"is_reserved":false,"is_disabled":false,"rental_uris":{"android":"levelo://app?vid=2d51a744-aefa-4b2b-ab8e-1a79c33d204b","ios":"levelo://app?vid=2d51a744-aefa-4b2b-ab8e-1a79c33d204b"},"vehicle_type_id":"4","last_reported":1728482891,"current_range_meters":24000,"station_id":"ce4bgpp2rcd13ifvqc3g","pricing_plan_id":"cebpf4jnsgd1na2vs0mg"},{"bike_id":"2499ff39-67cd-4dd9-b3fb-d8ce6c66364d","system_id":"levelo_inurba_marseille","lat":43.25495,"lon":5.37644,"is_reserved":false,"is_disabled":false,"rental_uris":{"android":"levelo://app?vid=2499ff39-67cd-4dd9-b3fb-d8ce6c66364d","ios":"levelo://app?vid=2499ff39-67cd-4dd9-b3fb-d8ce6c66364d"},"vehicle_type_id":"4","last_reported":1728482891,"current_range_meters":38800,"station_id":"ce4bhh12rcd13ifvqff0","pricing_plan_id":"cebpf4jnsgd1na2vs0mg"},{"bike_id":"ad79d8bb-7fd0-42ab-ab7d-314a3b6284b3","system_id":"levelo_inurba_marseille","lat":43.29574,"lon":5.37505,"is_reserved":false,"is_disabled":false,"rental_uris":{"android":"levelo://app?vid=ad79d8bb-7fd0-42ab-ab7d-314a3b6284b3","ios":"levelo://app?vid=ad79d8bb-7fd0-42ab-ab7d-314a3b6284b3"},"vehicle_type_id":"4","last_reported":1728482891,"current_range_meters":37600,"station_id":"ce4bgh92rcd13ifvqb50","pricing_plan_id":"cebpf4jnsgd1na2vs0mg"},{"bike_id":"b7151fb5-0955-4584-8b4a-baf3f2eb303c","system_id":"levelo_inurba_marseille","lat":43.28939,"lon":5.39624,"is_reserved":false,"is_disabled":false,"rental_uris":{"android":"levelo://app?vid=b7151fb5-0955-4584-8b4a-baf3f2eb303c","ios":"levelo://app?vid=b7151fb5-0955-4584-8b4a-baf3f2eb303c"},"vehicle_type_id":"4","last_reported":1728482891,"current_range_meters":31200,"station_id":"","pricing_plan_id":"cebpf4jnsgd1na2vs0mg"},{"bike_id":"41e5cb9e-84fb-4b92-bb53-a8f3ef66681f","system_id":"levelo_inurba_marseille","lat":43.31886,"lon":5.40727,"is_reserved":false,"is_disabled":false,"rental_uris":{"android":"levelo://app?vid=41e5cb9e-84fb-4b92-bb53-a8f3ef66681f","ios":"levelo://app?vid=41e5cb9e-84fb-4b92-bb53-a8f3ef66681f"},"vehicle_type_id":"4","last_reported":1728482891,"current_range_meters":4000,"station_id":"ce4bhq12rcd13ifvqhig","pricing_plan_id":"cebpf4jnsgd1na2vs0mg"},{"bike_id":"f91b99cb-0fa8-4ec7-9ea6-75180cc9619d","system_id":"levelo_inurba_marseille","lat":43.28491,"lon":5.38419,"is_reserved":false,"is_disabled":false,"rental_uris":{"android":"levelo://app?vid=f91b99cb-0fa8-4ec7-9ea6-75180cc9619d","ios":"levelo://app?vid=f91b99cb-0fa8-4ec7-9ea6-75180cc9619d"},"vehicle_type_id":"4","last_reported":1728482891,"current_range_meters":36400,"station_id":"ce4bh512rcd13ifvqe3g","pricing_plan_id":"cebpf4jnsgd1na2vs0mg"},{"bike_id":"99249888-747a-4ff6-a957-6c447349a054","system_id":"levelo_inurba_marseille","lat":43.29376,"lon":5.37838,"is_reserved":false,"is_disabled":false,"rental_uris":{"android":"levelo://app?vid=99249888-747a-4ff6-a957-6c447349a054","ios":"levelo://app?vid=99249888-747a-4ff6-a957-6c447349a054"},"vehicle_type_id":"4","last_reported":1728482891,"current_range_meters":10800,"station_id":"ce4bgjh2rcd13ifvqbf0","pricing_plan_id":"cebpf4jnsgd1na2vs0mg"},{"bike_id":"31400b79-9bea-4eff-b39d-83eace75e8db","system_id":"levelo_inurba_marseille","lat":43.32546,"lon":5.41446,"is_reserved":false,"is_disabled":false,"rental_uris":{"android":"levelo://app?vid=31400b79-9bea-4eff-b39d-83eace75e8db","ios":"levelo://app?vid=31400b79-9bea-4eff-b39d-83eace75e8db"},"vehicle_type_id":"4","last_reported":1728482891,"current_range_meters":22800,"station_id":"ce4bhq12rcd13ifvqhhg","pricing_plan_id":"cebpf4jnsgd1na2vs0mg"},{"bike_id":"16ba126f-5e6e-4930-90b0-f0a0c42e6d08","system_id":"levelo_inurba_marseille","lat":43.32479,"lon":5.3656,"is_reserved":false,"is_disabled":false,"rental_uris":{"android":"levelo://app?vid=16ba126f-5e6e-4930-90b0-f0a0c42e6d08","ios":"levelo://app?vid=16ba126f-5e6e-4930-90b0-f0a0c42e6d08"},"vehicle_type_id":"4","last_reported":1728482891,"current_range_meters":14400,"station_id":"ce4bhs12rcd13ifvqhvg","pricing_plan_id":"cebpf4jnsgd1na2vs0mg"},{"bike_id":"ed2a1fba-b4d1-455d-8d57-837aa46a7bfc","system_id":"levelo_inurba_marseille","lat":43.31173,"lon":5.38712,"is_reserved":false,"is_disabled":false,"rental_uris":{"android":"levelo://app?vid=ed2a1fba-b4d1-455d-8d57-837aa46a7bfc","ios":"levelo://app?vid=ed2a1fba-b4d1-455d-8d57-837aa46a7bfc"},"vehicle_type_id":"4","last_reported":1728482891,"current_range_meters":16400,"station_id":"ce4bgv12rcd13ifvqcp0","pricing_plan_id":"cebpf4jnsgd1na2vs0mg"},{"bike_id":"f79d4c2c-3d89-466d-8dca-236aec363398","system_id":"levelo_inurba_marseille","lat":43.294159,"lon":5.386273,"is_reserved":false,"is_disabled":false,"rental_uris":{"android":"levelo://app?vid=f79d4c2c-3d89-466d-8dca-236aec363398","ios":"levelo://app?vid=f79d4c2c-3d89-466d-8dca-236aec363398"},"vehicle_type_id":"4","last_reported":1728482891,"current_range_meters":38800,"station_id":"ce4bh2h2rcd13ifvqdh0","pricing_plan_id":"cebpf4jnsgd1na2vs0mg"},{"bike_id":"f63cf4a2-5fba-4c54-9baa-8b1b4a02004d","system_id":"levelo_inurba_marseille","lat":43.30802,"lon":5.4352,"is_reserved":false,"is_disabled":false,"rental_uris":{"android":"levelo://app?vid=f63cf4a2-5fba-4c54-9baa-8b1b4a02004d","ios":"levelo://app?vid=f63cf4a2-5fba-4c54-9baa-8b1b4a02004d"},"vehicle_type_id":"4","last_reported":1728482891,"current_range_meters":24400,"station_id":"ce4bhph2rcd13ifvqheg","pricing_plan_id":"cebpf4jnsgd1na2vs0mg"},{"bike_id":"981417f7-3650-4686-9c01-f3fca65dc77f","system_id":"levelo_inurba_marseille","lat":43.23069,"lon":5.35494,"is_reserved":false,"is_disabled":false,"rental_uris":{"android":"levelo://app?vid=981417f7-3650-4686-9c01-f3fca65dc77f","ios":"levelo://app?vid=981417f7-3650-4686-9c01-f3fca65dc77f"},"vehicle_type_id":"4","last_reported":1728482891,"current_range_meters":18000,"station_id":"cpo3342slgdg3j2ifvpg","pricing_plan_id":"cebpf4jnsgd1na2vs0mg"},{"bike_id":"3fab305b-1728-4a45-9f4f-fb39052b80d2","system_id":"levelo_inurba_marseille","lat":43.25492,"lon":5.37649,"is_reserved":false,"is_disabled":false,"rental_uris":{"android":"levelo://app?vid=3fab305b-1728-4a45-9f4f-fb39052b80d2","ios":"levelo://app?vid=3fab305b-1728-4a45-9f4f-fb39052b80d2"},"vehicle_type_id":"4","last_reported":1728482891,"current_range_meters":36800,"station_id":"ce4bhh12rcd13ifvqff0","pricing_plan_id":"cebpf4jnsgd1na2vs0mg"},{"bike_id":"cd8c433c-7b34-4277-bfca-4725e2b8b9d5","system_id":"levelo_inurba_marseille","lat":43.28351,"lon":5.38631,"is_reserved":false,"is_disabled":false,"rental_uris":{"android":"levelo://app?vid=cd8c433c-7b34-4277-bfca-4725e2b8b9d5","ios":"levelo://app?vid=cd8c433c-7b34-4277-bfca-4725e2b8b9d5"},"vehicle_type_id":"4","last_reported":1728482891,"current_range_meters":19200,"station_id":"ce4bh492rcd13ifvqdvg","pricing_plan_id":"cebpf4jnsgd1na2vs0mg"},{"bike_id":"ede68b2f-f53f-4ad5-a3f5-950bc936b5eb","system_id":"levelo_inurba_marseille","lat":43.33773,"lon":5.37398,"is_reserved":false,"is_disabled":false,"rental_uris":{"android":"levelo://app?vid=ede68b2f-f53f-4ad5-a3f5-950bc936b5eb","ios":"levelo://app?vid=ede68b2f-f53f-4ad5-a3f5-950bc936b5eb"},"vehicle_type_id":"4","last_reported":1728482891,"current_range_meters":33200,"station_id":"","pricing_plan_id":"cebpf4jnsgd1na2vs0mg"},{"bike_id":"5d19a48f-4ecb-4a04-8593-e3ad4a8266a2","system_id":"levelo_inurba_marseille","lat":43.29847,"lon":5.36272,"is_reserved":false,"is_disabled":false,"rental_uris":{"android":"levelo://app?vid=5d19a48f-4ecb-4a04-8593-e3ad4a8266a2","ios":"levelo://app?vid=5d19a48f-4ecb-4a04-8593-e3ad4a8266a2"},"vehicle_type_id":"4","last_reported":1728482891,"current_range_meters":37600,"station_id":"ce4bgpp2rcd13ifvqc3g","pricing_plan_id":"cebpf4jnsgd1na2vs0mg"},{"bike_id":"c4b28b31-c751-44eb-affa-e5f637f0e434","system_id":"levelo_inurba_marseille","lat":43.31083,"lon":5.42427,"is_reserved":false,"is_disabled":false,"rental_uris":{"android":"levelo://app?vid=c4b28b31-c751-44eb-affa-e5f637f0e434","ios":"levelo://app?vid=c4b28b31-c751-44eb-affa-e5f637f0e434"},"vehicle_type_id":"4","last_reported":1728482891,"current_range_meters":17200,"station_id":"ce4bhp92rcd13ifvqhag","pricing_plan_id":"cebpf4jnsgd1na2vs0mg"},{"bike_id":"223b4c42-27ac-4cf1-bdad-f14e7582e482","system_id":"levelo_inurba_marseille","lat":43.273132,"lon":5.390799,"is_reserved":false,"is_disabled":false,"rental_uris":{"android":"levelo://app?vid=223b4c42-27ac-4cf1-bdad-f14e7582e482","ios":"levelo://app?vid=223b4c42-27ac-4cf1-bdad-f14e7582e482"},"vehicle_type_id":"4","last_reported":1728482891,"current_range_meters":23200,"station_id":"ce4bhgp2rcd13ifvqfe0","pricing_plan_id":"cebpf4jnsgd1na2vs0mg"},{"bike_id":"5e2ac39f-e9a5-4a08-9e7d-b028cc653a32","system_id":"levelo_inurba_marseille","lat":43.30907,"lon":5.36855,"is_reserved":false,"is_disabled":false,"rental_uris":{"android":"levelo://app?vid=5e2ac39f-e9a5-4a08-9e7d-b028cc653a32","ios":"levelo://app?vid=5e2ac39f-e9a5-4a08-9e7d-b028cc653a32"},"vehicle_type_id":"4","last_reported":1728482891,"current_range_meters":21600,"station_id":"ce4bgn92rcd13ifvqbvg","pricing_plan_id":"cebpf4jnsgd1na2vs0mg"},{"bike_id":"b9f35de0-0bf3-4bea-bf68-d8893f94426e","system_id":"levelo_inurba_marseille","lat":43.31704,"lon":5.4371,"is_reserved":false,"is_disabled":false,"rental_uris":{"android":"levelo://app?vid=b9f35de0-0bf3-4bea-bf68-d8893f94426e","ios":"levelo://app?vid=b9f35de0-0bf3-4bea-bf68-d8893f94426e"},"vehicle_type_id":"4","last_reported":1728482891,"current_range_meters":37600,"station_id":"ce4bhp92rcd13ifvqhcg","pricing_plan_id":"cebpf4jnsgd1na2vs0mg"},{"bike_id":"2c8f5b62-6a0e-4413-8780-5a9f9a0d23ae","system_id":"levelo_inurba_marseille","lat":43.2958,"lon":5.36739,"is_reserved":false,"is_disabled":false,"rental_uris":{"android":"levelo://app?vid=2c8f5b62-6a0e-4413-8780-5a9f9a0d23ae","ios":"levelo://app?vid=2c8f5b62-6a0e-4413-8780-5a9f9a0d23ae"},"vehicle_type_id":"4","last_reported":1728482891,"current_range_meters":28400,"station_id":"ce4bgph2rcd13ifvqc2g","pricing_plan_id":"cebpf4jnsgd1na2vs0mg"},{"bike_id":"4491d5b8-77ca-45c1-bb70-de6cca7c1f16","system_id":"levelo_inurba_marseille","lat":43.31112,"lon":5.3777,"is_reserved":false,"is_disabled":false,"rental_uris":{"android":"levelo://app?vid=4491d5b8-77ca-45c1-bb70-de6cca7c1f16","ios":"levelo://app?vid=4491d5b8-77ca-45c1-bb70-de6cca7c1f16"},"vehicle_type_id":"4","last_reported":1728482891,"current_range_meters":22400,"station_id":"ce4bgt92rcd13ifvqcg0","pricing_plan_id":"cebpf4jnsgd1na2vs0mg"},{"bike_id":"f44874e2-04d5-42df-89d2-95da5d5bed58","system_id":"levelo_inurba_marseille","lat":43.29579,"lon":5.36739,"is_reserved":false,"is_disabled":false,"rental_uris":{"android":"levelo://app?vid=f44874e2-04d5-42df-89d2-95da5d5bed58","ios":"levelo://app?vid=f44874e2-04d5-42df-89d2-95da5d5bed58"},"vehicle_type_id":"4","last_reported":1728482891,"current_range_meters":22800,"station_id":"ce4bgph2rcd13ifvqc2g","pricing_plan_id":"cebpf4jnsgd1na2vs0mg"},{"bike_id":"c834194a-39ba-4fa4-ba45-8836b8980bf9","system_id":"levelo_inurba_marseille","lat":43.27375,"lon":5.36255,"is_reserved":false,"is_disabled":false,"rental_uris":{"android":"levelo://app?vid=c834194a-39ba-4fa4-ba45-8836b8980bf9","ios":"levelo://app?vid=c834194a-39ba-4fa4-ba45-8836b8980bf9"},"vehicle_type_id":"4","last_reported":1728482891,"current_range_meters":16400,"station_id":"ce4bhbh2rcd13ifvqeo0","pricing_plan_id":"cebpf4jnsgd1na2vs0mg"},{"bike_id":"810b32d6-b30c-480b-a6ee-5bd54d112eb8","system_id":"levelo_inurba_marseille","lat":43.33749,"lon":5.37442,"is_reserved":false,"is_disabled":false,"rental_uris":{"android":"levelo://app?vid=810b32d6-b30c-480b-a6ee-5bd54d112eb8","ios":"levelo://app?vid=810b32d6-b30c-480b-a6ee-5bd54d112eb8"},"vehicle_type_id":"4","last_reported":1728482891,"current_range_meters":27600,"station_id":"ce4rr2p2rcd13i802rgg","pricing_plan_id":"cebpf4jnsgd1na2vs0mg"},{"bike_id":"998d4f08-ab38-4827-9215-5b73e6ca89ac","system_id":"levelo_inurba_marseille","lat":43.30796,"lon":5.43515,"is_reserved":false,"is_disabled":false,"rental_uris":{"android":"levelo://app?vid=998d4f08-ab38-4827-9215-5b73e6ca89ac","ios":"levelo://app?vid=998d4f08-ab38-4827-9215-5b73e6ca89ac"},"vehicle_type_id":"4","last_reported":1728482891,"current_range_meters":28800,"station_id":"ce4bhph2rcd13ifvqheg","pricing_plan_id":"cebpf4jnsgd1na2vs0mg"},{"bike_id":"19ee2d61-fa74-456c-a503-b5776fa6d3ab","system_id":"levelo_inurba_marseille","lat":43.27994,"lon":5.41657,"is_reserved":false,"is_disabled":false,"rental_uris":{"android":"levelo://app?vid=19ee2d61-fa74-456c-a503-b5776fa6d3ab","ios":"levelo://app?vid=19ee2d61-fa74-456c-a503-b5776fa6d3ab"},"vehicle_type_id":"4","last_reported":1728482891,"current_range_meters":2800,"station_id":"ce4bho12rcd13ifvqh1g","pricing_plan_id":"cebpf4jnsgd1na2vs0mg"},{"bike_id":"dcc6b936-1e87-40cf-acd5-e23678edf7d3","system_id":"levelo_inurba_marseille","lat":43.2971,"lon":5.377,"is_reserved":false,"is_disabled":false,"rental_uris":{"android":"levelo://app?vid=dcc6b936-1e87-40cf-acd5-e23678edf7d3","ios":"levelo://app?vid=dcc6b936-1e87-40cf-acd5-e23678edf7d3"},"vehicle_type_id":"4","last_reported":1728482891,"current_range_meters":4400,"station_id":"ce4bgkh2rcd13ifvqbl0","pricing_plan_id":"cebpf4jnsgd1na2vs0mg"},{"bike_id":"a4f84992-35ab-4623-84c9-9f7f2fc0cf9a","system_id":"levelo_inurba_marseille","lat":43.23152,"lon":5.43711,"is_reserved":false,"is_disabled":false,"rental_uris":{"android":"levelo://app?vid=a4f84992-35ab-4623-84c9-9f7f2fc0cf9a","ios":"levelo://app?vid=a4f84992-35ab-4623-84c9-9f7f2fc0cf9a"},"vehicle_type_id":"4","last_reported":1728482891,"current_range_meters":2800,"station_id":"ce4bhmp2rcd13ifvqgog","pricing_plan_id":"cebpf4jnsgd1na2vs0mg"},{"bike_id":"2dab6d2e-4446-49c9-b0c4-a1f91fa60dae","system_id":"levelo_inurba_marseille","lat":43.28441,"lon":5.39198,"is_reserved":false,"is_disabled":false,"rental_uris":{"android":"levelo://app?vid=2dab6d2e-4446-49c9-b0c4-a1f91fa60dae","ios":"levelo://app?vid=2dab6d2e-4446-49c9-b0c4-a1f91fa60dae"},"vehicle_type_id":"4","last_reported":1728482891,"current_range_meters":3600,"station_id":"ce4bhoh2rcd13ifvqh5g","pricing_plan_id":"cebpf4jnsgd1na2vs0mg"},{"bike_id":"78821307-a930-45a1-a2af-fa5b472e86ab","system_id":"levelo_inurba_marseille","lat":43.28467,"lon":5.38417,"is_reserved":false,"is_disabled":false,"rental_uris":{"android":"levelo://app?vid=78821307-a930-45a1-a2af-fa5b472e86ab","ios":"levelo://app?vid=78821307-a930-45a1-a2af-fa5b472e86ab"},"vehicle_type_id":"4","last_reported":1728482891,"current_range_meters":20400,"station_id":"ce4bh512rcd13ifvqe3g","pricing_plan_id":"cebpf4jnsgd1na2vs0mg"},{"bike_id":"2c6071e5-d823-4794-9cee-da871402edc3","system_id":"levelo_inurba_marseille","lat":43.28929,"lon":5.38406,"is_reserved":false,"is_disabled":false,"rental_uris":{"android":"levelo://app?vid=2c6071e5-d823-4794-9cee-da871402edc3","ios":"levelo://app?vid=2c6071e5-d823-4794-9cee-da871402edc3"},"vehicle_type_id":"4","last_reported":1728482891,"current_range_meters":32400,"station_id":"ce4bh612rcd13ifvqe6g","pricing_plan_id":"cebpf4jnsgd1na2vs0mg"},{"bike_id":"d72100ed-aa92-4325-a5d9-a192d982eaf8","system_id":"levelo_inurba_marseille","lat":43.2319,"lon":5.3555,"is_reserved":false,"is_disabled":false,"rental_uris":{"android":"levelo://app?vid=d72100ed-aa92-4325-a5d9-a192d982eaf8","ios":"levelo://app?vid=d72100ed-aa92-4325-a5d9-a192d982eaf8"},"vehicle_type_id":"4","last_reported":1728482891,"current_range_meters":5600,"station_id":"ce4bhu92rcd13ifvqi70","pricing_plan_id":"cebpf4jnsgd1na2vs0mg"},{"bike_id":"30a123c7-c6aa-4ab8-b6fd-6bb95b77d21e","system_id":"levelo_inurba_marseille","lat":43.337444,"lon":5.374475,"is_reserved":false,"is_disabled":false,"rental_uris":{"android":"levelo://app?vid=30a123c7-c6aa-4ab8-b6fd-6bb95b77d21e","ios":"levelo://app?vid=30a123c7-c6aa-4ab8-b6fd-6bb95b77d21e"},"vehicle_type_id":"4","last_reported":1728482891,"current_range_meters":38000,"station_id":"ce4bgvp2rcd13ifvqcu0","pricing_plan_id":"cebpf4jnsgd1na2vs0mg"},{"bike_id":"37008fe6-bfcc-4a08-83d7-8d1e6d0c5540","system_id":"levelo_inurba_marseille","lat":43.30451,"lon":5.40096,"is_reserved":false,"is_disabled":false,"rental_uris":{"android":"levelo://app?vid=37008fe6-bfcc-4a08-83d7-8d1e6d0c5540","ios":"levelo://app?vid=37008fe6-bfcc-4a08-83d7-8d1e6d0c5540"},"vehicle_type_id":"4","last_reported":1728482891,"current_range_meters":28000,"station_id":"ce4bh3h2rcd13ifvqdo0","pricing_plan_id":"cebpf4jnsgd1na2vs0mg"},{"bike_id":"29e2dc2b-8810-4914-920e-b45e8a135104","system_id":"levelo_inurba_marseille","lat":43.29032,"lon":5.37561,"is_reserved":false,"is_disabled":false,"rental_uris":{"android":"levelo://app?vid=29e2dc2b-8810-4914-920e-b45e8a135104","ios":"levelo://app?vid=29e2dc2b-8810-4914-920e-b45e8a135104"},"vehicle_type_id":"4","last_reported":1728482891,"current_range_meters":38800,"station_id":"ce4bh692rcd13ifvqe90","pricing_plan_id":"cebpf4jnsgd1na2vs0mg"},{"bike_id":"82f03b2f-1450-4d85-8a48-5d34a1bdee15","system_id":"levelo_inurba_marseille","lat":43.33752,"lon":5.3744,"is_reserved":false,"is_disabled":false,"rental_uris":{"android":"levelo://app?vid=82f03b2f-1450-4d85-8a48-5d34a1bdee15","ios":"levelo://app?vid=82f03b2f-1450-4d85-8a48-5d34a1bdee15"},"vehicle_type_id":"4","last_reported":1728482891,"current_range_meters":36800,"station_id":"","pricing_plan_id":"cebpf4jnsgd1na2vs0mg"},{"bike_id":"4b03d1d3-27b7-4f9a-a262-ecb07e422235","system_id":"levelo_inurba_marseille","lat":43.26566,"lon":5.38998,"is_reserved":false,"is_disabled":false,"rental_uris":{"android":"levelo://app?vid=4b03d1d3-27b7-4f9a-a262-ecb07e422235","ios":"levelo://app?vid=4b03d1d3-27b7-4f9a-a262-ecb07e422235"},"vehicle_type_id":"4","last_reported":1728482891,"current_range_meters":24400,"station_id":"ce4bhe12rcd13ifvqf30","pricing_plan_id":"cebpf4jnsgd1na2vs0mg"},{"bike_id":"38c8755b-a95f-4739-888f-80c91758557b","system_id":"levelo_inurba_marseille","lat":43.29894,"lon":5.43667,"is_reserved":false,"is_disabled":false,"rental_uris":{"android":"levelo://app?vid=38c8755b-a95f-4739-888f-80c91758557b","ios":"levelo://app?vid=38c8755b-a95f-4739-888f-80c91758557b"},"vehicle_type_id":"4","last_reported":1728482891,"current_range_meters":27200,"station_id":"ce4bhpp2rcd13ifvqhfg","pricing_plan_id":"cebpf4jnsgd1na2vs0mg"},{"bike_id":"906a5275-9444-4e0d-b2f3-a2f8a06df4f7","system_id":"levelo_inurba_marseille","lat":43.30546,"lon":5.36541,"is_reserved":false,"is_disabled":false,"rental_uris":{"android":"levelo://app?vid=906a5275-9444-4e0d-b2f3-a2f8a06df4f7","ios":"levelo://app?vid=906a5275-9444-4e0d-b2f3-a2f8a06df4f7"},"vehicle_type_id":"4","last_reported":1728482891,"current_range_meters":38400,"station_id":"ce4bgs12rcd13ifvqcag","pricing_plan_id":"cebpf4jnsgd1na2vs0mg"},{"bike_id":"a7705a29-8973-45f1-afb4-90324c5cfa98","system_id":"levelo_inurba_marseille","lat":43.30226,"lon":5.37526,"is_reserved":false,"is_disabled":false,"rental_uris":{"android":"levelo://app?vid=a7705a29-8973-45f1-afb4-90324c5cfa98","ios":"levelo://app?vid=a7705a29-8973-45f1-afb4-90324c5cfa98"},"vehicle_type_id":"4","last_reported":1728482891,"current_range_meters":8800,"station_id":"","pricing_plan_id":"cebpf4jnsgd1na2vs0mg"},{"bike_id":"dfc6e5cd-6357-4e1e-a84c-8c5dff48aa3f","system_id":"levelo_inurba_marseille","lat":43.3171,"lon":5.37741,"is_reserved":false,"is_disabled":false,"rental_uris":{"android":"levelo://app?vid=dfc6e5cd-6357-4e1e-a84c-8c5dff48aa3f","ios":"levelo://app?vid=dfc6e5cd-6357-4e1e-a84c-8c5dff48aa3f"},"vehicle_type_id":"4","last_reported":1728482891,"current_range_meters":18800,"station_id":"ce4bgth2rcd13ifvqch0","pricing_plan_id":"cebpf4jnsgd1na2vs0mg"},{"bike_id":"4e396c08-c901-4576-a8f1-048cd81276fe","system_id":"levelo_inurba_marseille","lat":43.25502,"lon":5.37646,"is_reserved":false,"is_disabled":false,"rental_uris":{"android":"levelo://app?vid=4e396c08-c901-4576-a8f1-048cd81276fe","ios":"levelo://app?vid=4e396c08-c901-4576-a8f1-048cd81276fe"},"vehicle_type_id":"4","last_reported":1728482891,"current_range_meters":3200,"station_id":"ce4bhh12rcd13ifvqff0","pricing_plan_id":"cebpf4jnsgd1na2vs0mg"},{"bike_id":"115f99b9-4f17-436d-b64b-539a809a91f1","system_id":"levelo_inurba_marseille","lat":43.33024,"lon":5.39034,"is_reserved":false,"is_disabled":false,"rental_uris":{"android":"levelo://app?vid=115f99b9-4f17-436d-b64b-539a809a91f1","ios":"levelo://app?vid=115f99b9-4f17-436d-b64b-539a809a91f1"},"vehicle_type_id":"4","last_reported":1728482891,"current_range_meters":28400,"station_id":"ce4bhr92rcd13ifvqhrg","pricing_plan_id":"cebpf4jnsgd1na2vs0mg"},{"bike_id":"aaf52a4a-43f0-4af4-a233-d14f1b4ead56","system_id":"levelo_inurba_marseille","lat":43.26713,"lon":5.38231,"is_reserved":false,"is_disabled":false,"rental_uris":{"android":"levelo://app?vid=aaf52a4a-43f0-4af4-a233-d14f1b4ead56","ios":"levelo://app?vid=aaf52a4a-43f0-4af4-a233-d14f1b4ead56"},"vehicle_type_id":"4","last_reported":1728482891,"current_range_meters":36800,"station_id":"ce4bhg92rcd13ifvqf90","pricing_plan_id":"cebpf4jnsgd1na2vs0mg"},{"bike_id":"7e58e11c-48ba-41a2-86b0-395bdd1d6afc","system_id":"levelo_inurba_marseille","lat":43.27373,"lon":5.36254,"is_reserved":false,"is_disabled":false,"rental_uris":{"android":"levelo://app?vid=7e58e11c-48ba-41a2-86b0-395bdd1d6afc","ios":"levelo://app?vid=7e58e11c-48ba-41a2-86b0-395bdd1d6afc"},"vehicle_type_id":"4","last_reported":1728482891,"current_range_meters":17200,"station_id":"ce4bhbh2rcd13ifvqeo0","pricing_plan_id":"cebpf4jnsgd1na2vs0mg"},{"bike_id":"2b143dcd-abbf-48d2-8316-43c915e5fdc3","system_id":"levelo_inurba_marseille","lat":43.25112,"lon":5.40322,"is_reserved":false,"is_disabled":false,"rental_uris":{"android":"levelo://app?vid=2b143dcd-abbf-48d2-8316-43c915e5fdc3","ios":"levelo://app?vid=2b143dcd-abbf-48d2-8316-43c915e5fdc3"},"vehicle_type_id":"4","last_reported":1728482891,"current_range_meters":38000,"station_id":"ce4bhlh2rcd13ifvqgig","pricing_plan_id":"cebpf4jnsgd1na2vs0mg"},{"bike_id":"27bc020e-17e2-45b8-83e8-ade6aa71191f","system_id":"levelo_inurba_marseille","lat":43.25103,"lon":5.40324,"is_reserved":false,"is_disabled":false,"rental_uris":{"android":"levelo://app?vid=27bc020e-17e2-45b8-83e8-ade6aa71191f","ios":"levelo://app?vid=27bc020e-17e2-45b8-83e8-ade6aa71191f"},"vehicle_type_id":"4","last_reported":1728482891,"current_range_meters":2800,"station_id":"ce4bhlh2rcd13ifvqgig","pricing_plan_id":"cebpf4jnsgd1na2vs0mg"},{"bike_id":"f4c3cd83-e194-466f-9dab-64362d3bc8e1","system_id":"levelo_inurba_marseille","lat":43.240723,"lon":5.37761,"is_reserved":false,"is_disabled":false,"rental_uris":{"android":"levelo://app?vid=f4c3cd83-e194-466f-9dab-64362d3bc8e1","ios":"levelo://app?vid=f4c3cd83-e194-466f-9dab-64362d3bc8e1"},"vehicle_type_id":"4","last_reported":1728482891,"current_range_meters":16000,"station_id":"ce4bhnp2rcd13ifvqgvg","pricing_plan_id":"cebpf4jnsgd1na2vs0mg"},{"bike_id":"520aae5d-cdf3-453f-80b4-ae51cc4b6feb","system_id":"levelo_inurba_marseille","lat":43.31452,"lon":5.37383,"is_reserved":false,"is_disabled":false,"rental_uris":{"android":"levelo://app?vid=520aae5d-cdf3-453f-80b4-ae51cc4b6feb","ios":"levelo://app?vid=520aae5d-cdf3-453f-80b4-ae51cc4b6feb"},"vehicle_type_id":"4","last_reported":1728482891,"current_range_meters":4000,"station_id":"","pricing_plan_id":"cebpf4jnsgd1na2vs0mg"},{"bike_id":"95712c87-0b99-4943-81a6-7a90d8fbf7cb","system_id":"levelo_inurba_marseille","lat":43.29198,"lon":5.35799,"is_reserved":false,"is_disabled":false,"rental_uris":{"android":"levelo://app?vid=95712c87-0b99-4943-81a6-7a90d8fbf7cb","ios":"levelo://app?vid=95712c87-0b99-4943-81a6-7a90d8fbf7cb"},"vehicle_type_id":"4","last_reported":1728482891,"current_range_meters":34800,"station_id":"ce4bhb12rcd13ifvqel0","pricing_plan_id":"cebpf4jnsgd1na2vs0mg"},{"bike_id":"19024301-9196-4f3a-95cf-7d6474e47dbb","system_id":"levelo_inurba_marseille","lat":43.28461,"lon":5.35889,"is_reserved":false,"is_disabled":false,"rental_uris":{"android":"levelo://app?vid=19024301-9196-4f3a-95cf-7d6474e47dbb","ios":"levelo://app?vid=19024301-9196-4f3a-95cf-7d6474e47dbb"},"vehicle_type_id":"4","last_reported":1728482891,"current_range_meters":33200,"station_id":"ce4bhah2rcd13ifvqei0","pricing_plan_id":"cebpf4jnsgd1na2vs0mg"},{"bike_id":"e595cea1-c9d9-48c1-a588-7623d5e1e94a","system_id":"levelo_inurba_marseille","lat":43.2396,"lon":5.36626,"is_reserved":false,"is_disabled":false,"rental_uris":{"android":"levelo://app?vid=e595cea1-c9d9-48c1-a588-7623d5e1e94a","ios":"levelo://app?vid=e595cea1-c9d9-48c1-a588-7623d5e1e94a"},"vehicle_type_id":"4","last_reported":1728482891,"current_range_meters":9600,"station_id":"ce4bhi12rcd13ifvqfp0","pricing_plan_id":"cebpf4jnsgd1na2vs0mg"},{"bike_id":"6d651a29-3468-4f92-9e6c-23fbb04ae46f","system_id":"levelo_inurba_marseille","lat":43.28441,"lon":5.39184,"is_reserved":false,"is_disabled":false,"rental_uris":{"android":"levelo://app?vid=6d651a29-3468-4f92-9e6c-23fbb04ae46f","ios":"levelo://app?vid=6d651a29-3468-4f92-9e6c-23fbb04ae46f"},"vehicle_type_id":"4","last_reported":1728482891,"current_range_meters":24000,"station_id":"ce4bhoh2rcd13ifvqh5g","pricing_plan_id":"cebpf4jnsgd1na2vs0mg"},{"bike_id":"314258a4-23f1-4a6b-8b4c-a1b8452ec4cf","system_id":"levelo_inurba_marseille","lat":43.27057,"lon":5.40259,"is_reserved":false,"is_disabled":false,"rental_uris":{"android":"levelo://app?vid=314258a4-23f1-4a6b-8b4c-a1b8452ec4cf","ios":"levelo://app?vid=314258a4-23f1-4a6b-8b4c-a1b8452ec4cf"},"vehicle_type_id":"4","last_reported":1728482891,"current_range_meters":10800,"station_id":"ce4bhk92rcd13ifvqgc0","pricing_plan_id":"cebpf4jnsgd1na2vs0mg"},{"bike_id":"0302c45e-7208-46e5-8639-cf0c4cb948ee","system_id":"levelo_inurba_marseille","lat":43.2927,"lon":5.36854,"is_reserved":false,"is_disabled":false,"rental_uris":{"android":"levelo://app?vid=0302c45e-7208-46e5-8639-cf0c4cb948ee","ios":"levelo://app?vid=0302c45e-7208-46e5-8639-cf0c4cb948ee"},"vehicle_type_id":"4","last_reported":1728482891,"current_range_meters":38800,"station_id":"ce4bhbp2rcd13ifvqesg","pricing_plan_id":"cebpf4jnsgd1na2vs0mg"},{"bike_id":"22336b75-c58c-4f07-b76c-035b43aed6ae","system_id":"levelo_inurba_marseille","lat":43.29719,"lon":5.37692,"is_reserved":false,"is_disabled":false,"rental_uris":{"android":"levelo://app?vid=22336b75-c58c-4f07-b76c-035b43aed6ae","ios":"levelo://app?vid=22336b75-c58c-4f07-b76c-035b43aed6ae"},"vehicle_type_id":"4","last_reported":1728482891,"current_range_meters":32000,"station_id":"ce4bgkh2rcd13ifvqbl0","pricing_plan_id":"cebpf4jnsgd1na2vs0mg"},{"bike_id":"bf244315-477f-4562-a3e4-cc788276852a","system_id":"levelo_inurba_marseille","lat":43.28034,"lon":5.36943,"is_reserved":false,"is_disabled":false,"rental_uris":{"android":"levelo://app?vid=bf244315-477f-4562-a3e4-cc788276852a","ios":"levelo://app?vid=bf244315-477f-4562-a3e4-cc788276852a"},"vehicle_type_id":"4","last_reported":1728482891,"current_range_meters":24000,"station_id":"ce4bha12rcd13ifvqef0","pricing_plan_id":"cebpf4jnsgd1na2vs0mg"},{"bike_id":"81d49c0c-b020-45f2-8d81-6459353c9809","system_id":"levelo_inurba_marseille","lat":43.31754,"lon":5.39012,"is_reserved":false,"is_disabled":false,"rental_uris":{"android":"levelo://app?vid=81d49c0c-b020-45f2-8d81-6459353c9809","ios":"levelo://app?vid=81d49c0c-b020-45f2-8d81-6459353c9809"},"vehicle_type_id":"4","last_reported":1728482891,"current_range_meters":24000,"station_id":"ce4bhqp2rcd13ifvqhng","pricing_plan_id":"cebpf4jnsgd1na2vs0mg"},{"bike_id":"d59d0612-a7d1-48b3-89c2-fb71670d93cf","system_id":"levelo_inurba_marseille","lat":43.26803,"lon":5.40264,"is_reserved":false,"is_disabled":false,"rental_uris":{"android":"levelo://app?vid=d59d0612-a7d1-48b3-89c2-fb71670d93cf","ios":"levelo://app?vid=d59d0612-a7d1-48b3-89c2-fb71670d93cf"},"vehicle_type_id":"4","last_reported":1728482891,"current_range_meters":38800,"station_id":"ce501612rcd8frsf0b60","pricing_plan_id":"cebpf4jnsgd1na2vs0mg"},{"bike_id":"447867b3-674d-457a-8c1a-14d007a59388","system_id":"levelo_inurba_marseille","lat":43.314944,"lon":5.373034,"is_reserved":false,"is_disabled":false,"rental_uris":{"android":"levelo://app?vid=447867b3-674d-457a-8c1a-14d007a59388","ios":"levelo://app?vid=447867b3-674d-457a-8c1a-14d007a59388"},"vehicle_type_id":"4","last_reported":1728482891,"current_range_meters":24800,"station_id":"ce4bgt12rcd13ifvqcd0","pricing_plan_id":"cebpf4jnsgd1na2vs0mg"},{"bike_id":"53f7dab7-29d9-4c2a-b423-39eabd582cfd","system_id":"levelo_inurba_marseille","lat":43.24387,"lon":5.37056,"is_reserved":false,"is_disabled":false,"rental_uris":{"android":"levelo://app?vid=53f7dab7-29d9-4c2a-b423-39eabd582cfd","ios":"levelo://app?vid=53f7dab7-29d9-4c2a-b423-39eabd582cfd"},"vehicle_type_id":"4","last_reported":1728482891,"current_range_meters":39200,"station_id":"ce4bhhh2rcd13ifvqfk0","pricing_plan_id":"cebpf4jnsgd1na2vs0mg"},{"bike_id":"8523fe4d-2d7b-4a96-a923-b96c618938bb","system_id":"levelo_inurba_marseille","lat":43.32337,"lon":5.40621,"is_reserved":false,"is_disabled":false,"rental_uris":{"android":"levelo://app?vid=8523fe4d-2d7b-4a96-a923-b96c618938bb","ios":"levelo://app?vid=8523fe4d-2d7b-4a96-a923-b96c618938bb"},"vehicle_type_id":"4","last_reported":1728482891,"current_range_meters":37600,"station_id":"ce4bhq92rcd13ifvqhjg","pricing_plan_id":"cebpf4jnsgd1na2vs0mg"},{"bike_id":"cb5095a1-11ac-494a-8055-eec60d86fb1c","system_id":"levelo_inurba_marseille","lat":43.31221,"lon":5.36858,"is_reserved":false,"is_disabled":false,"rental_uris":{"android":"levelo://app?vid=cb5095a1-11ac-494a-8055-eec60d86fb1c","ios":"levelo://app?vid=cb5095a1-11ac-494a-8055-eec60d86fb1c"},"vehicle_type_id":"4","last_reported":1728482891,"current_range_meters":34800,"station_id":"ce4bgl92rcd13ifvqbq0","pricing_plan_id":"cebpf4jnsgd1na2vs0mg"},{"bike_id":"f078dbea-30ba-4216-b1ff-2753e7432a8b","system_id":"levelo_inurba_marseille","lat":43.26567,"lon":5.39012,"is_reserved":false,"is_disabled":false,"rental_uris":{"android":"levelo://app?vid=f078dbea-30ba-4216-b1ff-2753e7432a8b","ios":"levelo://app?vid=f078dbea-30ba-4216-b1ff-2753e7432a8b"},"vehicle_type_id":"4","last_reported":1728482891,"current_range_meters":20400,"station_id":"ce4bhe12rcd13ifvqf30","pricing_plan_id":"cebpf4jnsgd1na2vs0mg"},{"bike_id":"cc656298-ba68-4d57-9b42-196270a2156a","system_id":"levelo_inurba_marseille","lat":43.32544,"lon":5.41442,"is_reserved":false,"is_disabled":false,"rental_uris":{"android":"levelo://app?vid=cc656298-ba68-4d57-9b42-196270a2156a","ios":"levelo://app?vid=cc656298-ba68-4d57-9b42-196270a2156a"},"vehicle_type_id":"4","last_reported":1728482891,"current_range_meters":5600,"station_id":"ce4bhq12rcd13ifvqhhg","pricing_plan_id":"cebpf4jnsgd1na2vs0mg"},{"bike_id":"6e259a9d-0ea6-4ba4-ba7f-4f232352ef56","system_id":"levelo_inurba_marseille","lat":43.29028,"lon":5.38637,"is_reserved":false,"is_disabled":false,"rental_uris":{"android":"levelo://app?vid=6e259a9d-0ea6-4ba4-ba7f-4f232352ef56","ios":"levelo://app?vid=6e259a9d-0ea6-4ba4-ba7f-4f232352ef56"},"vehicle_type_id":"4","last_reported":1728482891,"current_range_meters":34000,"station_id":"ce4bh4p2rcd13ifvqe0g","pricing_plan_id":"cebpf4jnsgd1na2vs0mg"},{"bike_id":"1929c9d3-412c-4ea9-8b66-9c324da5f93b","system_id":"levelo_inurba_marseille","lat":43.29531,"lon":5.39408,"is_reserved":false,"is_disabled":false,"rental_uris":{"android":"levelo://app?vid=1929c9d3-412c-4ea9-8b66-9c324da5f93b","ios":"levelo://app?vid=1929c9d3-412c-4ea9-8b66-9c324da5f93b"},"vehicle_type_id":"4","last_reported":1728482891,"current_range_meters":26000,"station_id":"ce4bh292rcd13ifvqdf0","pricing_plan_id":"cebpf4jnsgd1na2vs0mg"},{"bike_id":"15d2351b-04b7-42d9-9a25-59ecaf30d587","system_id":"levelo_inurba_marseille","lat":43.29198,"lon":5.35807,"is_reserved":false,"is_disabled":false,"rental_uris":{"android":"levelo://app?vid=15d2351b-04b7-42d9-9a25-59ecaf30d587","ios":"levelo://app?vid=15d2351b-04b7-42d9-9a25-59ecaf30d587"},"vehicle_type_id":"4","last_reported":1728482891,"current_range_meters":22400,"station_id":"ce4bhb12rcd13ifvqel0","pricing_plan_id":"cebpf4jnsgd1na2vs0mg"},{"bike_id":"724e425b-0a6a-445e-a0d4-b02bc720122c","system_id":"levelo_inurba_marseille","lat":43.29735,"lon":5.37679,"is_reserved":false,"is_disabled":false,"rental_uris":{"android":"levelo://app?vid=724e425b-0a6a-445e-a0d4-b02bc720122c","ios":"levelo://app?vid=724e425b-0a6a-445e-a0d4-b02bc720122c"},"vehicle_type_id":"4","last_reported":1728482891,"current_range_meters":21600,"station_id":"ce4bgkh2rcd13ifvqbl0","pricing_plan_id":"cebpf4jnsgd1na2vs0mg"},{"bike_id":"abe10da9-979a-4ba4-af8d-0b51a1a7ce8b","system_id":"levelo_inurba_marseille","lat":43.30784,"lon":5.37645,"is_reserved":false,"is_disabled":false,"rental_uris":{"android":"levelo://app?vid=abe10da9-979a-4ba4-af8d-0b51a1a7ce8b","ios":"levelo://app?vid=abe10da9-979a-4ba4-af8d-0b51a1a7ce8b"},"vehicle_type_id":"4","last_reported":1728482891,"current_range_meters":3600,"station_id":"ce4bgv92rcd13ifvqcq0","pricing_plan_id":"cebpf4jnsgd1na2vs0mg"},{"bike_id":"a9738578-20b1-4214-8dfb-42811d371c42","system_id":"levelo_inurba_marseille","lat":43.30803,"lon":5.38148,"is_reserved":false,"is_disabled":false,"rental_uris":{"android":"levelo://app?vid=a9738578-20b1-4214-8dfb-42811d371c42","ios":"levelo://app?vid=a9738578-20b1-4214-8dfb-42811d371c42"},"vehicle_type_id":"4","last_reported":1728482891,"current_range_meters":22000,"station_id":"ce4bgt12rcd13ifvqce0","pricing_plan_id":"cebpf4jnsgd1na2vs0mg"},{"bike_id":"e1a96223-4642-4079-ad2a-dc4b2c8fb1d7","system_id":"levelo_inurba_marseille","lat":43.29882,"lon":5.38913,"is_reserved":false,"is_disabled":false,"rental_uris":{"android":"levelo://app?vid=e1a96223-4642-4079-ad2a-dc4b2c8fb1d7","ios":"levelo://app?vid=e1a96223-4642-4079-ad2a-dc4b2c8fb1d7"},"vehicle_type_id":"4","last_reported":1728482891,"current_range_meters":20400,"station_id":"ce4bh392rcd13ifvqdl0","pricing_plan_id":"cebpf4jnsgd1na2vs0mg"},{"bike_id":"e433ba7e-7e64-415c-84b2-2387871468ec","system_id":"levelo_inurba_marseille","lat":43.29195,"lon":5.358,"is_reserved":false,"is_disabled":false,"rental_uris":{"android":"levelo://app?vid=e433ba7e-7e64-415c-84b2-2387871468ec","ios":"levelo://app?vid=e433ba7e-7e64-415c-84b2-2387871468ec"},"vehicle_type_id":"4","last_reported":1728482891,"current_range_meters":6800,"station_id":"ce4bhb12rcd13ifvqel0","pricing_plan_id":"cebpf4jnsgd1na2vs0mg"},{"bike_id":"9ee4b00c-8ae8-4c19-879b-4045ffc15da5","system_id":"levelo_inurba_marseille","lat":43.25111,"lon":5.40326,"is_reserved":false,"is_disabled":false,"rental_uris":{"android":"levelo://app?vid=9ee4b00c-8ae8-4c19-879b-4045ffc15da5","ios":"levelo://app?vid=9ee4b00c-8ae8-4c19-879b-4045ffc15da5"},"vehicle_type_id":"4","last_reported":1728482891,"current_range_meters":8800,"station_id":"ce4bhlh2rcd13ifvqgig","pricing_plan_id":"cebpf4jnsgd1na2vs0mg"},{"bike_id":"b475dfe8-6c89-4597-9704-9f74d4d063ba","system_id":"levelo_inurba_marseille","lat":43.23198,"lon":5.35559,"is_reserved":false,"is_disabled":false,"rental_uris":{"android":"levelo://app?vid=b475dfe8-6c89-4597-9704-9f74d4d063ba","ios":"levelo://app?vid=b475dfe8-6c89-4597-9704-9f74d4d063ba"},"vehicle_type_id":"4","last_reported":1728482891,"current_range_meters":38400,"station_id":"ce4bhu92rcd13ifvqi70","pricing_plan_id":"cebpf4jnsgd1na2vs0mg"},{"bike_id":"b3efe24f-c7f2-415e-bedb-7c191507ce5a","system_id":"levelo_inurba_marseille","lat":43.29274,"lon":5.36835,"is_reserved":false,"is_disabled":false,"rental_uris":{"android":"levelo://app?vid=b3efe24f-c7f2-415e-bedb-7c191507ce5a","ios":"levelo://app?vid=b3efe24f-c7f2-415e-bedb-7c191507ce5a"},"vehicle_type_id":"4","last_reported":1728482891,"current_range_meters":32400,"station_id":"ce4bhbp2rcd13ifvqesg","pricing_plan_id":"cebpf4jnsgd1na2vs0mg"},{"bike_id":"1b31a259-0b66-451c-bff9-3e7710809037","system_id":"levelo_inurba_marseille","lat":43.29165,"lon":5.37157,"is_reserved":false,"is_disabled":false,"rental_uris":{"android":"levelo://app?vid=1b31a259-0b66-451c-bff9-3e7710809037","ios":"levelo://app?vid=1b31a259-0b66-451c-bff9-3e7710809037"},"vehicle_type_id":"4","last_reported":1728482891,"current_range_meters":24400,"station_id":"ce4bha92rcd13ifvqeh0","pricing_plan_id":"cebpf4jnsgd1na2vs0mg"},{"bike_id":"82639316-0157-49fc-a192-4a1cf83d6d69","system_id":"levelo_inurba_marseille","lat":43.29198,"lon":5.39332,"is_reserved":false,"is_disabled":false,"rental_uris":{"android":"levelo://app?vid=82639316-0157-49fc-a192-4a1cf83d6d69","ios":"levelo://app?vid=82639316-0157-49fc-a192-4a1cf83d6d69"},"vehicle_type_id":"4","last_reported":1728482891,"current_range_meters":38800,"station_id":"ce4bh192rcd13ifvqdd0","pricing_plan_id":"cebpf4jnsgd1na2vs0mg"},{"bike_id":"2cdfe6f7-d1d4-44a4-bd3f-d58b46a93958","system_id":"levelo_inurba_marseille","lat":43.26873,"lon":5.40415,"is_reserved":false,"is_disabled":false,"rental_uris":{"android":"levelo://app?vid=2cdfe6f7-d1d4-44a4-bd3f-d58b46a93958","ios":"levelo://app?vid=2cdfe6f7-d1d4-44a4-bd3f-d58b46a93958"},"vehicle_type_id":"4","last_reported":1728482891,"current_range_meters":19200,"station_id":"ce4bho92rcd13ifvqh3g","pricing_plan_id":"cebpf4jnsgd1na2vs0mg"},{"bike_id":"51440785-2105-4fe8-9ced-61f3b7fe58f6","system_id":"levelo_inurba_marseille","lat":43.33764,"lon":5.37448,"is_reserved":false,"is_disabled":false,"rental_uris":{"android":"levelo://app?vid=51440785-2105-4fe8-9ced-61f3b7fe58f6","ios":"levelo://app?vid=51440785-2105-4fe8-9ced-61f3b7fe58f6"},"vehicle_type_id":"4","last_reported":1728482891,"current_range_meters":36800,"station_id":"","pricing_plan_id":"cebpf4jnsgd1na2vs0mg"},{"bike_id":"a368d76e-e9c1-467f-82cb-b9fe018668fa","system_id":"levelo_inurba_marseille","lat":43.33759,"lon":5.37448,"is_reserved":false,"is_disabled":false,"rental_uris":{"android":"levelo://app?vid=a368d76e-e9c1-467f-82cb-b9fe018668fa","ios":"levelo://app?vid=a368d76e-e9c1-467f-82cb-b9fe018668fa"},"vehicle_type_id":"4","last_reported":1728482891,"current_range_meters":37600,"station_id":"ce4rr2p2rcd13i802rgg","pricing_plan_id":"cebpf4jnsgd1na2vs0mg"},{"bike_id":"8018af39-dcac-489a-a790-3f2fdd3539d4","system_id":"levelo_inurba_marseille","lat":43.24663,"lon":5.38165,"is_reserved":false,"is_disabled":false,"rental_uris":{"android":"levelo://app?vid=8018af39-dcac-489a-a790-3f2fdd3539d4","ios":"levelo://app?vid=8018af39-dcac-489a-a790-3f2fdd3539d4"},"vehicle_type_id":"4","last_reported":1728482891,"current_range_meters":28000,"station_id":"ce4bhih2rcd13ifvqfr0","pricing_plan_id":"cebpf4jnsgd1na2vs0mg"},{"bike_id":"1c034d1a-afec-4b9e-882c-ff4d7b8c8e9c","system_id":"levelo_inurba_marseille","lat":43.33746,"lon":5.37449,"is_reserved":false,"is_disabled":false,"rental_uris":{"android":"levelo://app?vid=1c034d1a-afec-4b9e-882c-ff4d7b8c8e9c","ios":"levelo://app?vid=1c034d1a-afec-4b9e-882c-ff4d7b8c8e9c"},"vehicle_type_id":"4","last_reported":1728482891,"current_range_meters":24400,"station_id":"ce4rr2p2rcd13i802rgg","pricing_plan_id":"cebpf4jnsgd1na2vs0mg"},{"bike_id":"ffcad77d-b21d-492f-8e0f-da371325190c","system_id":"levelo_inurba_marseille","lat":43.29934,"lon":5.36538,"is_reserved":false,"is_disabled":false,"rental_uris":{"android":"levelo://app?vid=ffcad77d-b21d-492f-8e0f-da371325190c","ios":"levelo://app?vid=ffcad77d-b21d-492f-8e0f-da371325190c"},"vehicle_type_id":"4","last_reported":1728482891,"current_range_meters":29600,"station_id":"ce4bgm92rcd13ifvqbr0","pricing_plan_id":"cebpf4jnsgd1na2vs0mg"},{"bike_id":"3e3c199b-5889-41b5-8ef3-932feffcfbb0","system_id":"levelo_inurba_marseille","lat":43.23058,"lon":5.35489,"is_reserved":false,"is_disabled":false,"rental_uris":{"android":"levelo://app?vid=3e3c199b-5889-41b5-8ef3-932feffcfbb0","ios":"levelo://app?vid=3e3c199b-5889-41b5-8ef3-932feffcfbb0"},"vehicle_type_id":"4","last_reported":1728482891,"current_range_meters":25600,"station_id":"cpo3342slgdg3j2ifvpg","pricing_plan_id":"cebpf4jnsgd1na2vs0mg"},{"bike_id":"5c3eab3f-484c-46ea-97b7-3ebb5b169a42","system_id":"levelo_inurba_marseille","lat":43.26937,"lon":5.40246,"is_reserved":false,"is_disabled":false,"rental_uris":{"android":"levelo://app?vid=5c3eab3f-484c-46ea-97b7-3ebb5b169a42","ios":"levelo://app?vid=5c3eab3f-484c-46ea-97b7-3ebb5b169a42"},"vehicle_type_id":"4","last_reported":1728482891,"current_range_meters":24400,"station_id":"cjm6bp8fraef2m0cb0m0","pricing_plan_id":"cebpf4jnsgd1na2vs0mg"},{"bike_id":"7fcb7e36-0d26-41d0-ac04-a56646146102","system_id":"levelo_inurba_marseille","lat":43.22933,"lon":5.35379,"is_reserved":false,"is_disabled":false,"rental_uris":{"android":"levelo://app?vid=7fcb7e36-0d26-41d0-ac04-a56646146102","ios":"levelo://app?vid=7fcb7e36-0d26-41d0-ac04-a56646146102"},"vehicle_type_id":"4","last_reported":1728482891,"current_range_meters":16400,"station_id":"cpo3532slgdg3j2ikp40","pricing_plan_id":"cebpf4jnsgd1na2vs0mg"},{"bike_id":"648507cb-465e-43e1-891b-36ac5b06437b","system_id":"levelo_inurba_marseille","lat":43.25116,"lon":5.40328,"is_reserved":false,"is_disabled":false,"rental_uris":{"android":"levelo://app?vid=648507cb-465e-43e1-891b-36ac5b06437b","ios":"levelo://app?vid=648507cb-465e-43e1-891b-36ac5b06437b"},"vehicle_type_id":"4","last_reported":1728482891,"current_range_meters":33600,"station_id":"ce4bhlh2rcd13ifvqgig","pricing_plan_id":"cebpf4jnsgd1na2vs0mg"},{"bike_id":"593a8aae-9421-42f7-be0f-1cf9d191832d","system_id":"levelo_inurba_marseille","lat":43.27617,"lon":5.3612,"is_reserved":false,"is_disabled":false,"rental_uris":{"android":"levelo://app?vid=593a8aae-9421-42f7-be0f-1cf9d191832d","ios":"levelo://app?vid=593a8aae-9421-42f7-be0f-1cf9d191832d"},"vehicle_type_id":"4","last_reported":1728482891,"current_range_meters":8400,"station_id":"ce4bgj92rcd13ifvqbe0","pricing_plan_id":"cebpf4jnsgd1na2vs0mg"},{"bike_id":"87ee0ff0-3ce9-482c-b070-ad06b0267b19","system_id":"levelo_inurba_marseille","lat":43.23196,"lon":5.35549,"is_reserved":false,"is_disabled":false,"rental_uris":{"android":"levelo://app?vid=87ee0ff0-3ce9-482c-b070-ad06b0267b19","ios":"levelo://app?vid=87ee0ff0-3ce9-482c-b070-ad06b0267b19"},"vehicle_type_id":"4","last_reported":1728482891,"current_range_meters":34000,"station_id":"ce4bhu92rcd13ifvqi70","pricing_plan_id":"cebpf4jnsgd1na2vs0mg"},{"bike_id":"d908cfb2-f00e-492c-b80f-796993778d2e","system_id":"levelo_inurba_marseille","lat":43.3095,"lon":5.39029,"is_reserved":false,"is_disabled":false,"rental_uris":{"android":"levelo://app?vid=d908cfb2-f00e-492c-b80f-796993778d2e","ios":"levelo://app?vid=d908cfb2-f00e-492c-b80f-796993778d2e"},"vehicle_type_id":"4","last_reported":1728482891,"current_range_meters":6400,"station_id":"ce4bgup2rcd13ifvqco0","pricing_plan_id":"cebpf4jnsgd1na2vs0mg"},{"bike_id":"2e4e52ae-7a22-488f-b24f-6c734df05ab9","system_id":"levelo_inurba_marseille","lat":43.23191,"lon":5.3555,"is_reserved":false,"is_disabled":false,"rental_uris":{"android":"levelo://app?vid=2e4e52ae-7a22-488f-b24f-6c734df05ab9","ios":"levelo://app?vid=2e4e52ae-7a22-488f-b24f-6c734df05ab9"},"vehicle_type_id":"4","last_reported":1728482891,"current_range_meters":33200,"station_id":"ce4bhu92rcd13ifvqi70","pricing_plan_id":"cebpf4jnsgd1na2vs0mg"},{"bike_id":"ea1f322b-afeb-4aa3-8c15-cd76f0d4aec6","system_id":"levelo_inurba_marseille","lat":43.30548,"lon":5.36522,"is_reserved":false,"is_disabled":false,"rental_uris":{"android":"levelo://app?vid=ea1f322b-afeb-4aa3-8c15-cd76f0d4aec6","ios":"levelo://app?vid=ea1f322b-afeb-4aa3-8c15-cd76f0d4aec6"},"vehicle_type_id":"4","last_reported":1728482891,"current_range_meters":9600,"station_id":"ce4bgs12rcd13ifvqcag","pricing_plan_id":"cebpf4jnsgd1na2vs0mg"},{"bike_id":"59c893c5-1149-42f6-b12c-e879ba247010","system_id":"levelo_inurba_marseille","lat":43.337444,"lon":5.374475,"is_reserved":false,"is_disabled":false,"rental_uris":{"android":"levelo://app?vid=59c893c5-1149-42f6-b12c-e879ba247010","ios":"levelo://app?vid=59c893c5-1149-42f6-b12c-e879ba247010"},"vehicle_type_id":"4","last_reported":1728482891,"current_range_meters":36000,"station_id":"","pricing_plan_id":"cebpf4jnsgd1na2vs0mg"},