{"last_updated":1733468969,"ttl":60,"version":"2.2","data":{"bikes":[{"bike_id":"0260d5ac-6944-4b47-821e-c9717ccb088e","system_id":"levelo_inurba_marseille","lat":43.324453,"lon":5.365481,"is_reserved":false,"is_disabled":false,"rental_uris":{"android":"levelo://app?vid=0260d5ac-6944-4b47-821e-c9717ccb088e","ios":"levelo://app?vid=0260d5ac-6944-4b47-821e-c9717ccb088e"},"vehicle_type_id":"4","last_reported":1733468969,"current_range_meters":32400,"station_id":"ce4bhs12rcd13ifvqhvg","pricing_plan_id":"cebpf4jnsgd1na2vs0mg"},{"bike_id":"0b41a6d6-c494-4679-bc43-0d3b21a53f75","system_id":"levelo_inurba_marseille","lat":43.27177,"lon":5.40988,"is_reserved":false,"is_disabled":false,"rental_uris":{"android":"levelo://app?vid=0b41a6d6-c494-4679-bc43-0d3b21a53f75","ios":"levelo://app?vid=0b41a6d6-c494-4679-bc43-0d3b21a53f75"},"vehicle_type_id":"4","last_reported":1733468969,"current_range_meters":38000,"station_id":"ce4bhl12rcd13ifvqgf0","pricing_plan_id":"cebpf4jnsgd1na2vs0mg"},{"bike_id":"5566b1e4-e72a-4189-8e1b-a6c3faeca7b6","system_id":"levelo_inurba_marseille","lat":43.29221,"lon":5.35785,"is_reserved":false,"is_disabled":true,"rental_uris":{"android":"levelo://app?vid=5566b1e4-e72a-4189-8e1b-a6c3faeca7b6","ios":"levelo://app?vid=5566b1e4-e72a-4189-8e1b-a6c3faeca7b6"},"vehicle_type_id":"4","last_reported":1733468969,"current_range_meters":0,"station_id":"ce4bhb12rcd13ifvqel0","pricing_plan_id":"cebpf4jnsgd1na2vs0mg"},{"bike_id":"df479c2c-35ac-44ad-b9d6-81c89ed769ce","system_id":"levelo_inurba_marseille","lat":43.29699,"lon":5.37054,"is_reserved":false,"is_disabled":true,"rental_uris":{"android":"levelo://app?vid=df479c2c-35ac-44ad-b9d6-81c89ed769ce","ios":"levelo://app?vid=df479c2c-35ac-44ad-b9d6-81c89ed769ce"},"vehicle_type_id":"4","last_reported":1733468969,"current_range_meters":0,"station_id":"","pricing_plan_id":"cebpf4jnsgd1na2vs0mg"},{"bike_id":"8e029eaf-e104-4c5d-858d-6cd39de73d09","system_id":"levelo_inurba_marseille","lat":43.241658,"lon":5.363976,"is_reserved":false,"is_disabled":false,"rental_uris":{"android":"levelo://app?vid=8e029eaf-e104-4c5d-858d-6cd39de73d09","ios":"levelo://app?vid=8e029eaf-e104-4c5d-858d-6cd39de73d09"},"vehicle_type_id":"4","last_reported":1733468969,"current_range_meters":38000,"station_id":"cpo36qri1sfpv3e86is0","pricing_plan_id":"cebpf4jnsgd1na2vs0mg"},{"bike_id":"bc6d1df1-c307-4d6f-9ccf-49fb0c32794a","system_id":"levelo_inurba_marseille","lat":43.2586,"lon":5.399,"is_reserved":false,"is_disabled":false,"rental_uris":{"android":"levelo://app?vid=bc6d1df1-c307-4d6f-9ccf-49fb0c32794a","ios":"levelo://app?vid=bc6d1df1-c307-4d6f-9ccf-49fb0c32794a"},"vehicle_type_id":"4","last_reported":1733468969,"current_range_meters":36800,"station_id":"ce4bhl92rcd13ifvqghg","pricing_plan_id":"cebpf4jnsgd1na2vs0mg"},{"bike_id":"8a87d3a4-e188-49c9-806d-9c10c51735f8","system_id":"levelo_inurba_marseille","lat":43.26511,"lon":5.39533,"is_reserved":false,"is_disabled":false,"rental_uris":{"android":"levelo://app?vid=8a87d3a4-e188-49c9-806d-9c10c51735f8","ios":"levelo://app?vid=8a87d3a4-e188-49c9-806d-9c10c51735f8"},"vehicle_type_id":"4","last_reported":1733468969,"current_range_meters":38800,"station_id":"ce4bhi12rcd13ifvqfq0","pricing_plan_id":"cebpf4jnsgd1na2vs0mg"},{"bike_id":"64db54aa-6a10-4b49-96d2-9507ba17d6f6","system_id":"levelo_inurba_marseille","lat":43.27501,"lon":5.42451,"is_reserved":false,"is_disabled":false,"rental_uris":{"android":"levelo://app?vid=64db54aa-6a10-4b49-96d2-9507ba17d6f6","ios":"levelo://app?vid=64db54aa-6a10-4b49-96d2-9507ba17d6f6"},"vehicle_type_id":"4","last_reported":1733468969,"current_range_meters":35600,"station_id":"ce4bhn92rcd13ifvqgrg","pricing_plan_id":"cebpf4jnsgd1na2vs0mg"},{"bike_id":"385713fa-f8fc-48ae-847d-7a572bf9e411","system_id":"levelo_inurba_marseille","lat":43.28154,"lon":5.42646,"is_reserved":false,"is_disabled":false,"rental_uris":{"android":"levelo://app?vid=385713fa-f8fc-48ae-847d-7a572bf9e411","ios":"levelo://app?vid=385713fa-f8fc-48ae-847d-7a572bf9e411"},"vehicle_type_id":"4","last_reported":1733468969,"current_range_meters":37600,"station_id":"ce4bhnh2rcd13ifvqgug","pricing_plan_id":"cebpf4jnsgd1na2vs0mg"},{"bike_id":"be407bbe-d1ce-48de-8db2-09114af9efd7","system_id":"levelo_inurba_marseille","lat":43.32364,"lon":5.36747,"is_reserved":false,"is_disabled":false,"rental_uris":{"android":"levelo://app?vid=be407bbe-d1ce-48de-8db2-09114af9efd7","ios":"levelo://app?vid=be407bbe-d1ce-48de-8db2-09114af9efd7"},"vehicle_type_id":"4","last_reported":1733468969,"current_range_meters":25600,"station_id":"ce4bhsh2rcd13ifvqi2g","pricing_plan_id":"cebpf4jnsgd1na2vs0mg"},{"bike_id":"1746a250-cc4b-4605-8124-3bfb87e81cf5","system_id":"levelo_inurba_marseille","lat":43.27496,"lon":5.42453,"is_reserved":false,"is_disabled":false,"rental_uris":{"android":"levelo://app?vid=1746a250-cc4b-4605-8124-3bfb87e81cf5","ios":"levelo://app?vid=1746a250-cc4b-4605-8124-3bfb87e81cf5"},"vehicle_type_id":"4","last_reported":1733468969,"current_range_meters":34800,"station_id":"ce4bhn92rcd13ifvqgrg","pricing_plan_id":"cebpf4jnsgd1na2vs0mg"},{"bike_id":"da7f571a-e2ec-4ca2-b394-8105c7bbdae3","system_id":"levelo_inurba_marseille","lat":43.27179,"lon":5.40993,"is_reserved":false,"is_disabled":false,"rental_uris":{"android":"levelo://app?vid=da7f571a-e2ec-4ca2-b394-8105c7bbdae3","ios":"levelo://app?vid=da7f571a-e2ec-4ca2-b394-8105c7bbdae3"},"vehicle_type_id":"4","last_reported":1733468969,"current_range_meters":2800,"station_id":"ce4bhl12rcd13ifvqgf0","pricing_plan_id":"cebpf4jnsgd1na2vs0mg"},{"bike_id":"33c7ae1f-e80c-48d9-a915-44582537ac33","system_id":"levelo_inurba_marseille","lat":43.29632,"lon":5.40592,"is_reserved":false,"is_disabled":false,"rental_uris":{"android":"levelo://app?vid=33c7ae1f-e80c-48d9-a915-44582537ac33","ios":"levelo://app?vid=33c7ae1f-e80c-48d9-a915-44582537ac33"},"vehicle_type_id":"4","last_reported":1733468969,"current_range_meters":28800,"station_id":"ce4bh0h2rcd13ifvqd60","pricing_plan_id":"cebpf4jnsgd1na2vs0mg"},{"bike_id":"c4165085-fbe6-4a55-b40a-06e6da8bea5b","system_id":"levelo_inurba_marseille","lat":43.32539,"lon":5.41429,"is_reserved":false,"is_disabled":false,"rental_uris":{"android":"levelo://app?vid=c4165085-fbe6-4a55-b40a-06e6da8bea5b","ios":"levelo://app?vid=c4165085-fbe6-4a55-b40a-06e6da8bea5b"},"vehicle_type_id":"4","last_reported":1733468969,"current_range_meters":36000,"station_id":"ce4bhq12rcd13ifvqhhg","pricing_plan_id":"cebpf4jnsgd1na2vs0mg"},{"bike_id":"8bd642b2-0279-44c7-9ee2-fc3b57332c83","system_id":"levelo_inurba_marseille","lat":43.27455,"lon":5.40073,"is_reserved":false,"is_disabled":true,"rental_uris":{"android":"levelo://app?vid=8bd642b2-0279-44c7-9ee2-fc3b57332c83","ios":"levelo://app?vid=8bd642b2-0279-44c7-9ee2-fc3b57332c83"},"vehicle_type_id":"4","last_reported":1733468969,"current_range_meters":0,"station_id":"","pricing_plan_id":"cebpf4jnsgd1na2vs0mg"},{"bike_id":"05b74d21-8e00-47b8-8a7b-ac70cfdb2524","system_id":"levelo_inurba_marseille","lat":43.28712,"lon":5.37391,"is_reserved":false,"is_disabled":false,"rental_uris":{"android":"levelo://app?vid=05b74d21-8e00-47b8-8a7b-ac70cfdb2524","ios":"levelo://app?vid=05b74d21-8e00-47b8-8a7b-ac70cfdb2524"},"vehicle_type_id":"4","last_reported":1733468969,"current_range_meters":26000,"station_id":"ce4bh3p2rcd13ifvqdq0","pricing_plan_id":"cebpf4jnsgd1na2vs0mg"},{"bike_id":"5b667cd8-1ed1-4b03-8bee-ef4c0498560e","system_id":"levelo_inurba_marseille","lat":43.25009,"lon":5.38926,"is_reserved":false,"is_disabled":false,"rental_uris":{"android":"levelo://app?vid=5b667cd8-1ed1-4b03-8bee-ef4c0498560e","ios":"levelo://app?vid=5b667cd8-1ed1-4b03-8bee-ef4c0498560e"},"vehicle_type_id":"4","last_reported":1733468969,"current_range_meters":38800,"station_id":"ce4bhgp2rcd13ifvqfd0","pricing_plan_id":"cebpf4jnsgd1na2vs0mg"},{"bike_id":"92096e66-982c-42ef-9a85-db8cb36f5689","system_id":"levelo_inurba_marseille","lat":43.27944,"lon":5.41047,"is_reserved":false,"is_disabled":false,"rental_uris":{"android":"levelo://app?vid=92096e66-982c-42ef-9a85-db8cb36f5689","ios":"levelo://app?vid=92096e66-982c-42ef-9a85-db8cb36f5689"},"vehicle_type_id":"4","last_reported":1733468969,"current_range_meters":7200,"station_id":"ce4bhnp2rcd13ifvqh0g","pricing_plan_id":"cebpf4jnsgd1na2vs0mg"},{"bike_id":"8f502bab-02af-47f6-8074-1d31e97339d0","system_id":"levelo_inurba_marseille","lat":43.30535,"lon":5.36708,"is_reserved":false,"is_disabled":false,"rental_uris":{"android":"levelo://app?vid=8f502bab-02af-47f6-8074-1d31e97339d0","ios":"levelo://app?vid=8f502bab-02af-47f6-8074-1d31e97339d0"},"vehicle_type_id":"4","last_reported":1733468969,"current_range_meters":30400,"station_id":"ce4bgrp2rcd13ifvqc9g","pricing_plan_id":"cebpf4jnsgd1na2vs0mg"},{"bike_id":"9558f4c4-f6fa-4f42-ba7b-f8326c0c5209","system_id":"levelo_inurba_marseille","lat":43.24076,"lon":5.37752,"is_reserved":false,"is_disabled":false,"rental_uris":{"android":"levelo://app?vid=9558f4c4-f6fa-4f42-ba7b-f8326c0c5209","ios":"levelo://app?vid=9558f4c4-f6fa-4f42-ba7b-f8326c0c5209"},"vehicle_type_id":"4","last_reported":1733468969,"current_range_meters":39200,"station_id":"ce4bhnp2rcd13ifvqgvg","pricing_plan_id":"cebpf4jnsgd1na2vs0mg"},{"bike_id":"79207284-905c-4504-8a4d-92bd942e36b6","system_id":"levelo_inurba_marseille","lat":43.24079,"lon":5.37751,"is_reserved":false,"is_disabled":false,"rental_uris":{"android":"levelo://app?vid=79207284-905c-4504-8a4d-92bd942e36b6","ios":"levelo://app?vid=79207284-905c-4504-8a4d-92bd942e36b6"},"vehicle_type_id":"4","last_reported":1733468969,"current_range_meters":9200,"station_id":"ce4bhnp2rcd13ifvqgvg","pricing_plan_id":"cebpf4jnsgd1na2vs0mg"},{"bike_id":"f67dfab3-abcc-4688-bfd7-4284bf8c7187","system_id":"levelo_inurba_marseille","lat":43.33029,"lon":5.39048,"is_reserved":false,"is_disabled":false,"rental_uris":{"android":"levelo://app?vid=f67dfab3-abcc-4688-bfd7-4284bf8c7187","ios":"levelo://app?vid=f67dfab3-abcc-4688-bfd7-4284bf8c7187"},"vehicle_type_id":"4","last_reported":1733468969,"current_range_meters":8000,"station_id":"ce4bhr92rcd13ifvqhrg","pricing_plan_id":"cebpf4jnsgd1na2vs0mg"},{"bike_id":"4bcaeee0-ed11-4535-8356-8d4c4e0927a6","system_id":"levelo_inurba_marseille","lat":43.29283,"lon":5.40112,"is_reserved":false,"is_disabled":false,"rental_uris":{"android":"levelo://app?vid=4bcaeee0-ed11-4535-8356-8d4c4e0927a6","ios":"levelo://app?vid=4bcaeee0-ed11-4535-8356-8d4c4e0927a6"},"vehicle_type_id":"4","last_reported":1733468969,"current_range_meters":18800,"station_id":"ce4bh312rcd13ifvqdk0","pricing_plan_id":"cebpf4jnsgd1na2vs0mg"},{"bike_id":"0c7d8135-3f48-4d1f-9d6e-8ceee018e1a4","system_id":"levelo_inurba_marseille","lat":43.26952,"lon":5.38633,"is_reserved":false,"is_disabled":false,"rental_uris":{"android":"levelo://app?vid=0c7d8135-3f48-4d1f-9d6e-8ceee018e1a4","ios":"levelo://app?vid=0c7d8135-3f48-4d1f-9d6e-8ceee018e1a4"},"vehicle_type_id":"4","last_reported":1733468969,"current_range_meters":36800,"station_id":"ce4bhh92rcd13ifvqfh0","pricing_plan_id":"cebpf4jnsgd1na2vs0mg"},{"bike_id":"28b52837-d828-49e4-b4be-cfbac010c328","system_id":"levelo_inurba_marseille","lat":43.33732,"lon":5.391889,"is_reserved":false,"is_disabled":false,"rental_uris":{"android":"levelo://app?vid=28b52837-d828-49e4-b4be-cfbac010c328","ios":"levelo://app?vid=28b52837-d828-49e4-b4be-cfbac010c328"},"vehicle_type_id":"4","last_reported":1733468969,"current_range_meters":26000,"station_id":"ce4bhr92rcd13ifvqhsg","pricing_plan_id":"cebpf4jnsgd1na2vs0mg"},{"bike_id":"b3f478ac-3b05-4edf-bdbf-76399090f8e9","system_id":"levelo_inurba_marseille","lat":43.29994,"lon":5.37639,"is_reserved":false,"is_disabled":true,"rental_uris":{"android":"levelo://app?vid=b3f478ac-3b05-4edf-bdbf-76399090f8e9","ios":"levelo://app?vid=b3f478ac-3b05-4edf-bdbf-76399090f8e9"},"vehicle_type_id":"4","last_reported":1733468969,"current_range_meters":0,"station_id":"","pricing_plan_id":"cebpf4jnsgd1na2vs0mg"},{"bike_id":"3081f9e8-d1b1-4810-928a-0b5ef58f7f6c","system_id":"levelo_inurba_marseille","lat":43.28733,"lon":5.37929,"is_reserved":false,"is_disabled":false,"rental_uris":{"android":"levelo://app?vid=3081f9e8-d1b1-4810-928a-0b5ef58f7f6c","ios":"levelo://app?vid=3081f9e8-d1b1-4810-928a-0b5ef58f7f6c"},"vehicle_type_id":"4","last_reported":1733468969,"current_range_meters":38800,"station_id":"ce4bh9p2rcd13ifvqec0","pricing_plan_id":"cebpf4jnsgd1na2vs0mg"},{"bike_id":"e05119fd-fd4d-4fc7-9786-f468bbb9ad6c","system_id":"levelo_inurba_marseille","lat":43.322857,"lon":5.382654,"is_reserved":false,"is_disabled":false,"rental_uris":{"android":"levelo://app?vid=e05119fd-fd4d-4fc7-9786-f468bbb9ad6c","ios":"levelo://app?vid=e05119fd-fd4d-4fc7-9786-f468bbb9ad6c"},"vehicle_type_id":"4","last_reported":1733468969,"current_range_meters":38800,"station_id":"ce4bhr12rcd13ifvqhqg","pricing_plan_id":"cebpf4jnsgd1na2vs0mg"},{"bike_id":"41602994-4a86-4ce3-8f6d-26a770d951fa","system_id":"levelo_inurba_marseille","lat":43.27492,"lon":5.42458,"is_reserved":false,"is_disabled":false,"rental_uris":{"android":"levelo://app?vid=41602994-4a86-4ce3-8f6d-26a770d951fa","ios":"levelo://app?vid=41602994-4a86-4ce3-8f6d-26a770d951fa"},"vehicle_type_id":"4","last_reported":1733468969,"current_range_meters":36400,"station_id":"ce4bhn92rcd13ifvqgrg","pricing_plan_id":"cebpf4jnsgd1na2vs0mg"},{"bike_id":"7029cc20-2347-438d-9ede-4278d15e8eb8","system_id":"levelo_inurba_marseille","lat":43.31174,"lon":5.38708,"is_reserved":false,"is_disabled":false,"rental_uris":{"android":"levelo://app?vid=7029cc20-2347-438d-9ede-4278d15e8eb8","ios":"levelo://app?vid=7029cc20-2347-438d-9ede-4278d15e8eb8"},"vehicle_type_id":"4","last_reported":1733468969,"current_range_meters":38800,"station_id":"ce4bgv12rcd13ifvqcp0","pricing_plan_id":"cebpf4jnsgd1na2vs0mg"},{"bike_id":"9e3bc3fb-05cb-4c9a-8460-05ba9e2b92d0","system_id":"levelo_inurba_marseille","lat":43.31349,"lon":5.36693,"is_reserved":false,"is_disabled":false,"rental_uris":{"android":"levelo://app?vid=9e3bc3fb-05cb-4c9a-8460-05ba9e2b92d0","ios":"levelo://app?vid=9e3bc3fb-05cb-4c9a-8460-05ba9e2b92d0"},"vehicle_type_id":"4","last_reported":1733468969,"current_range_meters":37600,"station_id":"ce4bgr92rcd13ifvqc6g","pricing_plan_id":"cebpf4jnsgd1na2vs0mg"},{"bike_id":"2eaeb1ad-6f19-4509-aca4-fe59e482d04a","system_id":"levelo_inurba_marseille","lat":43.24998,"lon":5.38931,"is_reserved":false,"is_disabled":true,"rental_uris":{"android":"levelo://app?vid=2eaeb1ad-6f19-4509-aca4-fe59e482d04a","ios":"levelo://app?vid=2eaeb1ad-6f19-4509-aca4-fe59e482d04a"},"vehicle_type_id":"4","last_reported":1733468969,"current_range_meters":0,"station_id":"ce4bhgp2rcd13ifvqfd0","pricing_plan_id":"cebpf4jnsgd1na2vs0mg"},{"bike_id":"33ee1aec-40da-435f-84cf-c0ec7c3e3435","system_id":"levelo_inurba_marseille","lat":43.26954,"lon":5.38628,"is_reserved":false,"is_disabled":false,"rental_uris":{"android":"levelo://app?vid=33ee1aec-40da-435f-84cf-c0ec7c3e3435","ios":"levelo://app?vid=33ee1aec-40da-435f-84cf-c0ec7c3e3435"},"vehicle_type_id":"4","last_reported":1733468969,"current_range_meters":27600,"station_id":"ce4bhh92rcd13ifvqfh0","pricing_plan_id":"cebpf4jnsgd1na2vs0mg"},{"bike_id":"1fe39c46-689d-4ef3-85ac-95a61cc44bff","system_id":"levelo_inurba_marseille","lat":43.2905,"lon":5.37553,"is_reserved":false,"is_disabled":true,"rental_uris":{"android":"levelo://app?vid=1fe39c46-689d-4ef3-85ac-95a61cc44bff","ios":"levelo://app?vid=1fe39c46-689d-4ef3-85ac-95a61cc44bff"},"vehicle_type_id":"4","last_reported":1733468969,"current_range_meters":0,"station_id":"ce4bh692rcd13ifvqe90","pricing_plan_id":"cebpf4jnsgd1na2vs0mg"},{"bike_id":"c7937e55-70ee-4a20-b169-edc60cf12155","system_id":"levelo_inurba_marseille","lat":43.30799,"lon":5.43518,"is_reserved":false,"is_disabled":false,"rental_uris":{"android":"levelo://app?vid=c7937e55-70ee-4a20-b169-edc60cf12155","ios":"levelo://app?vid=c7937e55-70ee-4a20-b169-edc60cf12155"},"vehicle_type_id":"4","last_reported":1733468969,"current_range_meters":37600,"station_id":"ce4bhph2rcd13ifvqheg","pricing_plan_id":"cebpf4jnsgd1na2vs0mg"},{"bike_id":"0d76dbf6-5e40-455b-a0e6-70fb0b70c5f9","system_id":"levelo_inurba_marseille","lat":43.32368,"lon":5.3888,"is_reserved":false,"is_disabled":false,"rental_uris":{"android":"levelo://app?vid=0d76dbf6-5e40-455b-a0e6-70fb0b70c5f9","ios":"levelo://app?vid=0d76dbf6-5e40-455b-a0e6-70fb0b70c5f9"},"vehicle_type_id":"4","last_reported":1733468969,"current_range_meters":37600,"station_id":"ce4bhqp2rcd13ifvqhog","pricing_plan_id":"cebpf4jnsgd1na2vs0mg"},{"bike_id":"bb33fa0c-b703-4470-8119-8d67c160e4d2","system_id":"levelo_inurba_marseille","lat":43.2509,"lon":5.39511,"is_reserved":false,"is_disabled":false,"rental_uris":{"android":"levelo://app?vid=bb33fa0c-b703-4470-8119-8d67c160e4d2","ios":"levelo://app?vid=bb33fa0c-b703-4470-8119-8d67c160e4d2"},"vehicle_type_id":"4","last_reported":1733468969,"current_range_meters":38000,"station_id":"ce4bhm12rcd13ifvqgkg","pricing_plan_id":"cebpf4jnsgd1na2vs0mg"},{"bike_id":"2f3968e7-9336-4ee4-ba78-8e92c0a818cc","system_id":"levelo_inurba_marseille","lat":43.31322,"lon":5.36647,"is_reserved":false,"is_disabled":true,"rental_uris":{"android":"levelo://app?vid=2f3968e7-9336-4ee4-ba78-8e92c0a818cc","ios":"levelo://app?vid=2f3968e7-9336-4ee4-ba78-8e92c0a818cc"},"vehicle_type_id":"4","last_reported":1733468969,"current_range_meters":0,"station_id":"","pricing_plan_id":"cebpf4jnsgd1na2vs0mg"},{"bike_id":"bed13b7f-c19d-47d8-89e4-52c5811ffb60","system_id":"levelo_inurba_marseille","lat":43.30473,"lon":5.37916,"is_reserved":false,"is_disabled":false,"rental_uris":{"android":"levelo://app?vid=bed13b7f-c19d-47d8-89e4-52c5811ffb60","ios":"levelo://app?vid=bed13b7f-c19d-47d8-89e4-52c5811ffb60"},"vehicle_type_id":"4","last_reported":1733468969,"current_range_meters":9200,"station_id":"ce4bgup2rcd13ifvqcn0","pricing_plan_id":"cebpf4jnsgd1na2vs0mg"},{"bike_id":"a81c2427-d96c-40bd-818c-9b142bb6804e","system_id":"levelo_inurba_marseille","lat":43.27494,"lon":5.42454,"is_reserved":false,"is_disabled":false,"rental_uris":{"android":"levelo://app?vid=a81c2427-d96c-40bd-818c-9b142bb6804e","ios":"levelo://app?vid=a81c2427-d96c-40bd-818c-9b142bb6804e"},"vehicle_type_id":"4","last_reported":1733468969,"current_range_meters":24400,"station_id":"ce4bhn92rcd13ifvqgrg","pricing_plan_id":"cebpf4jnsgd1na2vs0mg"},{"bike_id":"17735a67-6e7d-49c6-87c6-11e6d6751070","system_id":"levelo_inurba_marseille","lat":43.2872,"lon":5.37936,"is_reserved":false,"is_disabled":false,"rental_uris":{"android":"levelo://app?vid=17735a67-6e7d-49c6-87c6-11e6d6751070","ios":"levelo://app?vid=17735a67-6e7d-49c6-87c6-11e6d6751070"},"vehicle_type_id":"4","last_reported":1733468969,"current_range_meters":36800,"station_id":"ce4bh9p2rcd13ifvqec0","pricing_plan_id":"cebpf4jnsgd1na2vs0mg"},{"bike_id":"3d392992-7941-4ad9-94b9-ceb9b8255144","system_id":"levelo_inurba_marseille","lat":43.24673,"lon":5.38154,"is_reserved":false,"is_disabled":false,"rental_uris":{"android":"levelo://app?vid=3d392992-7941-4ad9-94b9-ceb9b8255144","ios":"levelo://app?vid=3d392992-7941-4ad9-94b9-ceb9b8255144"},"vehicle_type_id":"4","last_reported":1733468969,"current_range_meters":4800,"station_id":"ce4bhih2rcd13ifvqfr0","pricing_plan_id":"cebpf4jnsgd1na2vs0mg"},{"bike_id":"430ac931-ab07-4cc1-a3d7-d0a15e798c88","system_id":"levelo_inurba_marseille","lat":43.32538,"lon":5.41432,"is_reserved":false,"is_disabled":false,"rental_uris":{"android":"levelo://app?vid=430ac931-ab07-4cc1-a3d7-d0a15e798c88","ios":"levelo://app?vid=430ac931-ab07-4cc1-a3d7-d0a15e798c88"},"vehicle_type_id":"4","last_reported":1733468969,"current_range_meters":32400,"station_id":"ce4bhq12rcd13ifvqhhg","pricing_plan_id":"cebpf4jnsgd1na2vs0mg"},{"bike_id":"16c25e55-4ae8-4704-9efd-743d76b8504f","system_id":"levelo_inurba_marseille","lat":43.31181,"lon":5.3871,"is_reserved":false,"is_disabled":false,"rental_uris":{"android":"levelo://app?vid=16c25e55-4ae8-4704-9efd-743d76b8504f","ios":"levelo://app?vid=16c25e55-4ae8-4704-9efd-743d76b8504f"},"vehicle_type_id":"4","last_reported":1733468969,"current_range_meters":39200,"station_id":"ce4bgv12rcd13ifvqcp0","pricing_plan_id":"cebpf4jnsgd1na2vs0mg"},{"bike_id":"18c465ad-16a0-4d72-a337-11a15929aab8","system_id":"levelo_inurba_marseille","lat":43.239606,"lon":5.366203,"is_reserved":false,"is_disabled":false,"rental_uris":{"android":"levelo://app?vid=18c465ad-16a0-4d72-a337-11a15929aab8","ios":"levelo://app?vid=18c465ad-16a0-4d72-a337-11a15929aab8"},"vehicle_type_id":"4","last_reported":1733468969,"current_range_meters":11600,"station_id":"ce4bhi12rcd13ifvqfp0","pricing_plan_id":"cebpf4jnsgd1na2vs0mg"},{"bike_id":"2f7b887c-1623-4de2-8868-e6f453f327e4","system_id":"levelo_inurba_marseille","lat":43.303536,"lon":5.418763,"is_reserved":false,"is_disabled":false,"rental_uris":{"android":"levelo://app?vid=2f7b887c-1623-4de2-8868-e6f453f327e4","ios":"levelo://app?vid=2f7b887c-1623-4de2-8868-e6f453f327e4"},"vehicle_type_id":"4","last_reported":1733468969,"current_range_meters":38400,"station_id":"ce4bhop2rcd13ifvqh7g","pricing_plan_id":"cebpf4jnsgd1na2vs0mg"},{"bike_id":"74e6904d-130d-4d83-a1d7-188d253e65b6","system_id":"levelo_inurba_marseille","lat":43.30467,"lon":5.37915,"is_reserved":false,"is_disabled":false,"rental_uris":{"android":"levelo://app?vid=74e6904d-130d-4d83-a1d7-188d253e65b6","ios":"levelo://app?vid=74e6904d-130d-4d83-a1d7-188d253e65b6"},"vehicle_type_id":"4","last_reported":1733468969,"current_range_meters":28000,"station_id":"ce4bgup2rcd13ifvqcn0","pricing_plan_id":"cebpf4jnsgd1na2vs0mg"},{"bike_id":"b0025f03-f4b7-4e1f-b2ae-d738bfb01f75","system_id":"levelo_inurba_marseille","lat":43.31368,"lon":5.37684,"is_reserved":false,"is_disabled":true,"rental_uris":{"android":"levelo://app?vid=b0025f03-f4b7-4e1f-b2ae-d738bfb01f75","ios":"levelo://app?vid=b0025f03-f4b7-4e1f-b2ae-d738bfb01f75"},"vehicle_type_id":"4","last_reported":1733468969,"current_range_meters":35200,"station_id":"","pricing_plan_id":"cebpf4jnsgd1na2vs0mg"},{"bike_id":"79ed1f41-2857-451d-ac37-e1ef363105e4","system_id":"levelo_inurba_marseille","lat":43.28943,"lon":5.3962,"is_reserved":false,"is_disabled":false,"rental_uris":{"android":"levelo://app?vid=79ed1f41-2857-451d-ac37-e1ef363105e4","ios":"levelo://app?vid=79ed1f41-2857-451d-ac37-e1ef363105e4"},"vehicle_type_id":"4","last_reported":1733468969,"current_range_meters":38800,"station_id":"ce4bh3h2rcd13ifvqdn0","pricing_plan_id":"cebpf4jnsgd1na2vs0mg"},{"bike_id":"b85bb37f-2197-498e-b358-747241fe43e5","system_id":"levelo_inurba_marseille","lat":43.284,"lon":5.3927,"is_reserved":false,"is_disabled":false,"rental_uris":{"android":"levelo://app?vid=b85bb37f-2197-498e-b358-747241fe43e5","ios":"levelo://app?vid=b85bb37f-2197-498e-b358-747241fe43e5"},"vehicle_type_id":"4","last_reported":1733468969,"current_range_meters":38400,"station_id":"ce4bhoh2rcd13ifvqh5g","pricing_plan_id":"cebpf4jnsgd1na2vs0mg"},{"bike_id":"a80a808b-d83a-48b0-a87c-889d0a59a5e3","system_id":"levelo_inurba_marseille","lat":43.24419,"lon":5.37046,"is_reserved":false,"is_disabled":false,"rental_uris":{"android":"levelo://app?vid=a80a808b-d83a-48b0-a87c-889d0a59a5e3","ios":"levelo://app?vid=a80a808b-d83a-48b0-a87c-889d0a59a5e3"},"vehicle_type_id":"4","last_reported":1733468969,"current_range_meters":37600,"station_id":"ce4bhhh2rcd13ifvqfk0","pricing_plan_id":"cebpf4jnsgd1na2vs0mg"},{"bike_id":"822f3a92-608f-4777-a47d-b688edb4cb39","system_id":"levelo_inurba_marseille","lat":43.28158,"lon":5.42645,"is_reserved":false,"is_disabled":false,"rental_uris":{"android":"levelo://app?vid=822f3a92-608f-4777-a47d-b688edb4cb39","ios":"levelo://app?vid=822f3a92-608f-4777-a47d-b688edb4cb39"},"vehicle_type_id":"4","last_reported":1733468969,"current_range_meters":38000,"station_id":"ce4bhnh2rcd13ifvqgug","pricing_plan_id":"cebpf4jnsgd1na2vs0mg"},{"bike_id":"f10c5e90-601b-4bd4-87e7-4cbb6a13a4fb","system_id":"levelo_inurba_marseille","lat":43.26128,"lon":5.39259,"is_reserved":false,"is_disabled":true,"rental_uris":{"android":"levelo://app?vid=f10c5e90-601b-4bd4-87e7-4cbb6a13a4fb","ios":"levelo://app?vid=f10c5e90-601b-4bd4-87e7-4cbb6a13a4fb"},"vehicle_type_id":"4","last_reported":1733468969,"current_range_meters":1600,"station_id":"","pricing_plan_id":"cebpf4jnsgd1na2vs0mg"},{"bike_id":"1d46f849-23af-4abf-834e-62814955ddf2","system_id":"levelo_inurba_marseille","lat":43.29554,"lon":5.42283,"is_reserved":false,"is_disabled":false,"rental_uris":{"android":"levelo://app?vid=1d46f849-23af-4abf-834e-62814955ddf2","ios":"levelo://app?vid=1d46f849-23af-4abf-834e-62814955ddf2"},"vehicle_type_id":"4","last_reported":1733468969,"current_range_meters":33600,"station_id":"ce4bhph2rcd13ifvqhdg","pricing_plan_id":"cebpf4jnsgd1na2vs0mg"},{"bike_id":"216642dc-5e19-4552-8c52-74eda9279fe7","system_id":"levelo_inurba_marseille","lat":43.31731,"lon":5.40442,"is_reserved":false,"is_disabled":false,"rental_uris":{"android":"levelo://app?vid=216642dc-5e19-4552-8c52-74eda9279fe7","ios":"levelo://app?vid=216642dc-5e19-4552-8c52-74eda9279fe7"},"vehicle_type_id":"4","last_reported":1733468969,"current_range_meters":38800,"station_id":"","pricing_plan_id":"cebpf4jnsgd1na2vs0mg"},{"bike_id":"afd1bf14-3ba1-4dce-845e-7ca743e06c7c","system_id":"levelo_inurba_marseille","lat":43.28154,"lon":5.42651,"is_reserved":false,"is_disabled":false,"rental_uris":{"android":"levelo://app?vid=afd1bf14-3ba1-4dce-845e-7ca743e06c7c","ios":"levelo://app?vid=afd1bf14-3ba1-4dce-845e-7ca743e06c7c"},"vehicle_type_id":"4","last_reported":1733468969,"current_range_meters":38400,"station_id":"ce4bhnh2rcd13ifvqgug","pricing_plan_id":"cebpf4jnsgd1na2vs0mg"},{"bike_id":"2165dbf2-bcf4-4c26-9cea-b5a99992ccff","system_id":"levelo_inurba_marseille","lat":43.28272,"lon":5.35065,"is_reserved":false,"is_disabled":false,"rental_uris":{"android":"levelo://app?vid=2165dbf2-bcf4-4c26-9cea-b5a99992ccff","ios":"levelo://app?vid=2165dbf2-bcf4-4c26-9cea-b5a99992ccff"},"vehicle_type_id":"4","last_reported":1733468969,"current_range_meters":38800,"station_id":"ce4bhbp2rcd13ifvqerg","pricing_plan_id":"cebpf4jnsgd1na2vs0mg"},{"bike_id":"e269ca3a-e71c-472a-8616-b8c413f0d249","system_id":"levelo_inurba_marseille","lat":43.27072,"lon":5.42279,"is_reserved":false,"is_disabled":false,"rental_uris":{"android":"levelo://app?vid=e269ca3a-e71c-472a-8616-b8c413f0d249","ios":"levelo://app?vid=e269ca3a-e71c-472a-8616-b8c413f0d249"},"vehicle_type_id":"4","last_reported":1733468969,"current_range_meters":11600,"station_id":"ce4bhk92rcd13ifvqgb0","pricing_plan_id":"cebpf4jnsgd1na2vs0mg"},{"bike_id":"25df6fa5-0e99-4ca3-b962-45e4d327f4cd","system_id":"levelo_inurba_marseille","lat":43.28613,"lon":5.35115,"is_reserved":false,"is_disabled":false,"rental_uris":{"android":"levelo://app?vid=25df6fa5-0e99-4ca3-b962-45e4d327f4cd","ios":"levelo://app?vid=25df6fa5-0e99-4ca3-b962-45e4d327f4cd"},"vehicle_type_id":"4","last_reported":1733468969,"current_range_meters":21600,"station_id":"ce4bhch2rcd13ifvqeug","pricing_plan_id":"cebpf4jnsgd1na2vs0mg"},{"bike_id":"25eee09b-ab89-4f87-b8d5-d387470bc314","system_id":"levelo_inurba_marseille","lat":43.29801,"lon":5.38097,"is_reserved":false,"is_disabled":false,"rental_uris":{"android":"levelo://app?vid=25eee09b-ab89-4f87-b8d5-d387470bc314","ios":"levelo://app?vid=25eee09b-ab89-4f87-b8d5-d387470bc314"},"vehicle_type_id":"4","last_reported":1733468969,"current_range_meters":36000,"station_id":"ce4bgip2rcd13ifvqbb0","pricing_plan_id":"cebpf4jnsgd1na2vs0mg"},{"bike_id":"f856ff79-e287-4957-ba1c-37acef242c6f","system_id":"levelo_inurba_marseille","lat":43.2847,"lon":5.38406,"is_reserved":false,"is_disabled":false,"rental_uris":{"android":"levelo://app?vid=f856ff79-e287-4957-ba1c-37acef242c6f","ios":"levelo://app?vid=f856ff79-e287-4957-ba1c-37acef242c6f"},"vehicle_type_id":"4","last_reported":1733468969,"current_range_meters":36000,"station_id":"ce4bh512rcd13ifvqe3g","pricing_plan_id":"cebpf4jnsgd1na2vs0mg"},{"bike_id":"f5bd5773-3df4-400a-9c89-e449e0b42a96","system_id":"levelo_inurba_marseille","lat":43.24808,"lon":5.37455,"is_reserved":false,"is_disabled":true,"rental_uris":{"android":"levelo://app?vid=f5bd5773-3df4-400a-9c89-e449e0b42a96","ios":"levelo://app?vid=f5bd5773-3df4-400a-9c89-e449e0b42a96"},"vehicle_type_id":"4","last_reported":1733468969,"current_range_meters":38000,"station_id":"ce4bhgh2rcd13ifvqfb0","pricing_plan_id":"cebpf4jnsgd1na2vs0mg"},{"bike_id":"c64aa7a6-4087-4d8d-a58a-c20f6a233942","system_id":"levelo_inurba_marseille","lat":43.265709,"lon":5.390119,"is_reserved":false,"is_disabled":false,"rental_uris":{"android":"levelo://app?vid=c64aa7a6-4087-4d8d-a58a-c20f6a233942","ios":"levelo://app?vid=c64aa7a6-4087-4d8d-a58a-c20f6a233942"},"vehicle_type_id":"4","last_reported":1733468969,"current_range_meters":14000,"station_id":"ce4bhe12rcd13ifvqf30","pricing_plan_id":"cebpf4jnsgd1na2vs0mg"},{"bike_id":"6e35ec69-577e-4e5c-b0c1-e38b26194f76","system_id":"levelo_inurba_marseille","lat":43.29312,"lon":5.37177,"is_reserved":false,"is_disabled":false,"rental_uris":{"android":"levelo://app?vid=6e35ec69-577e-4e5c-b0c1-e38b26194f76","ios":"levelo://app?vid=6e35ec69-577e-4e5c-b0c1-e38b26194f76"},"vehicle_type_id":"4","last_reported":1733468969,"current_range_meters":9200,"station_id":"ce4bgh92rcd13ifvqb40","pricing_plan_id":"cebpf4jnsgd1na2vs0mg"},{"bike_id":"cee1a977-f386-4ca7-b7f4-ecb23b8538de","system_id":"levelo_inurba_marseille","lat":43.28484,"lon":5.38421,"is_reserved":false,"is_disabled":true,"rental_uris":{"android":"levelo://app?vid=cee1a977-f386-4ca7-b7f4-ecb23b8538de","ios":"levelo://app?vid=cee1a977-f386-4ca7-b7f4-ecb23b8538de"},"vehicle_type_id":"4","last_reported":1733468969,"current_range_meters":0,"station_id":"ce4bh512rcd13ifvqe3g","pricing_plan_id":"cebpf4jnsgd1na2vs0mg"},{"bike_id":"a4d3b324-e08a-49a2-ae58-8854d2d2da3b","system_id":"levelo_inurba_marseille","lat":43.31773,"lon":5.37294,"is_reserved":false,"is_disabled":false,"rental_uris":{"android":"levelo://app?vid=a4d3b324-e08a-49a2-ae58-8854d2d2da3b","ios":"levelo://app?vid=a4d3b324-e08a-49a2-ae58-8854d2d2da3b"},"vehicle_type_id":"4","last_reported":1733468969,"current_range_meters":34800,"station_id":"","pricing_plan_id":"cebpf4jnsgd1na2vs0mg"},{"bike_id":"cdfe6590-4984-4014-86c8-6dd70747c27a","system_id":"levelo_inurba_marseille","lat":43.29737,"lon":5.37434,"is_reserved":false,"is_disabled":true,"rental_uris":{"android":"levelo://app?vid=cdfe6590-4984-4014-86c8-6dd70747c27a","ios":"levelo://app?vid=cdfe6590-4984-4014-86c8-6dd70747c27a"},"vehicle_type_id":"4","last_reported":1733468969,"current_range_meters":0,"station_id":"","pricing_plan_id":"cebpf4jnsgd1na2vs0mg"},{"bike_id":"3ee7cc12-5a0c-4c73-a8df-8def52948c8e","system_id":"levelo_inurba_marseille","lat":43.26955,"lon":5.38639,"is_reserved":false,"is_disabled":false,"rental_uris":{"android":"levelo://app?vid=3ee7cc12-5a0c-4c73-a8df-8def52948c8e","ios":"levelo://app?vid=3ee7cc12-5a0c-4c73-a8df-8def52948c8e"},"vehicle_type_id":"4","last_reported":1733468969,"current_range_meters":32400,"station_id":"ce4bhh92rcd13ifvqfh0","pricing_plan_id":"cebpf4jnsgd1na2vs0mg"},{"bike_id":"4d0dadab-e6e1-4e5a-9b42-cd848beb1025","system_id":"levelo_inurba_marseille","lat":43.255787,"lon":5.382373,"is_reserved":false,"is_disabled":false,"rental_uris":{"android":"levelo://app?vid=4d0dadab-e6e1-4e5a-9b42-cd848beb1025","ios":"levelo://app?vid=4d0dadab-e6e1-4e5a-9b42-cd848beb1025"},"vehicle_type_id":"4","last_reported":1733468969,"current_range_meters":19200,"station_id":"ce4bhih2rcd13ifvqfs0","pricing_plan_id":"cebpf4jnsgd1na2vs0mg"},{"bike_id":"8075e1e4-c7e4-4ef6-8da3-fa46955ebf15","system_id":"levelo_inurba_marseille","lat":43.30946,"lon":5.39033,"is_reserved":false,"is_disabled":false,"rental_uris":{"android":"levelo://app?vid=8075e1e4-c7e4-4ef6-8da3-fa46955ebf15","ios":"levelo://app?vid=8075e1e4-c7e4-4ef6-8da3-fa46955ebf15"},"vehicle_type_id":"4","last_reported":1733468969,"current_range_meters":36400,"station_id":"ce4bgup2rcd13ifvqco0","pricing_plan_id":"cebpf4jnsgd1na2vs0mg"},{"bike_id":"d8eedf73-ef61-4cc8-b961-d4ae9de74a94","system_id":"levelo_inurba_marseille","lat":43.30469,"lon":5.37905,"is_reserved":false,"is_disabled":false,"rental_uris":{"android":"levelo://app?vid=d8eedf73-ef61-4cc8-b961-d4ae9de74a94","ios":"levelo://app?vid=d8eedf73-ef61-4cc8-b961-d4ae9de74a94"},"vehicle_type_id":"4","last_reported":1733468969,"current_range_meters":35200,"station_id":"ce4bgup2rcd13ifvqcn0","pricing_plan_id":"cebpf4jnsgd1na2vs0mg"},{"bike_id":"9ed54ea0-c3d7-4751-b85f-0ecb22b7de1e","system_id":"levelo_inurba_marseille","lat":43.28942,"lon":5.36634,"is_reserved":false,"is_disabled":false,"rental_uris":{"android":"levelo://app?vid=9ed54ea0-c3d7-4751-b85f-0ecb22b7de1e","ios":"levelo://app?vid=9ed54ea0-c3d7-4751-b85f-0ecb22b7de1e"},"vehicle_type_id":"4","last_reported":1733468969,"current_range_meters":24000,"station_id":"ce4bhap2rcd13ifvqek0","pricing_plan_id":"cebpf4jnsgd1na2vs0mg"},{"bike_id":"6fb00969-21f8-4503-a74e-e887bd6407a1","system_id":"levelo_inurba_marseille","lat":43.2749,"lon":5.42454,"is_reserved":false,"is_disabled":false,"rental_uris":{"android":"levelo://app?vid=6fb00969-21f8-4503-a74e-e887bd6407a1","ios":"levelo://app?vid=6fb00969-21f8-4503-a74e-e887bd6407a1"},"vehicle_type_id":"4","last_reported":1733468969,"current_range_meters":36800,"station_id":"ce4bhn92rcd13ifvqgrg","pricing_plan_id":"cebpf4jnsgd1na2vs0mg"},{"bike_id":"987a5ab4-d60c-480c-94b6-7cab38975402","system_id":"levelo_inurba_marseille","lat":43.29748,"lon":5.37971,"is_reserved":false,"is_disabled":true,"rental_uris":{"android":"levelo://app?vid=987a5ab4-d60c-480c-94b6-7cab38975402","ios":"levelo://app?vid=987a5ab4-d60c-480c-94b6-7cab38975402"},"vehicle_type_id":"4","last_reported":1733468969,"current_range_meters":0,"station_id":"","pricing_plan_id":"cebpf4jnsgd1na2vs0mg"},{"bike_id":"2c4596ad-0ad9-4016-b92b-0093349de2b4","system_id":"levelo_inurba_marseille","lat":43.30755,"lon":5.38187,"is_reserved":false,"is_disabled":true,"rental_uris":{"android":"levelo://app?vid=2c4596ad-0ad9-4016-b92b-0093349de2b4","ios":"levelo://app?vid=2c4596ad-0ad9-4016-b92b-0093349de2b4"},"vehicle_type_id":"4","last_reported":1733468969,"current_range_meters":0,"station_id":"","pricing_plan_id":"cebpf4jnsgd1na2vs0mg"},{"bike_id":"a7bb67de-1f69-4c60-8636-2afa978b6670","system_id":"levelo_inurba_marseille","lat":43.27568,"lon":5.38407,"is_reserved":false,"is_disabled":false,"rental_uris":{"android":"levelo://app?vid=a7bb67de-1f69-4c60-8636-2afa978b6670","ios":"levelo://app?vid=a7bb67de-1f69-4c60-8636-2afa978b6670"},"vehicle_type_id":"4","last_reported":1733468969,"current_range_meters":32800,"station_id":"ce4bhh92rcd13ifvqfi0","pricing_plan_id":"cebpf4jnsgd1na2vs0mg"},{"bike_id":"041ff3e3-65ce-49c8-8613-01e5e11b8dc1","system_id":"levelo_inurba_marseille","lat":43.27943,"lon":5.41036,"is_reserved":false,"is_disabled":false,"rental_uris":{"android":"levelo://app?vid=041ff3e3-65ce-49c8-8613-01e5e11b8dc1","ios":"levelo://app?vid=041ff3e3-65ce-49c8-8613-01e5e11b8dc1"},"vehicle_type_id":"4","last_reported":1733468969,"current_range_meters":35200,"station_id":"ce4bhnp2rcd13ifvqh0g","pricing_plan_id":"cebpf4jnsgd1na2vs0mg"},{"bike_id":"b7ab8c01-033f-4395-8276-23c850ad3d02","system_id":"levelo_inurba_marseille","lat":43.30348,"lon":5.36626,"is_reserved":false,"is_disabled":true,"rental_uris":{"android":"levelo://app?vid=b7ab8c01-033f-4395-8276-23c850ad3d02","ios":"levelo://app?vid=b7ab8c01-033f-4395-8276-23c850ad3d02"},"vehicle_type_id":"4","last_reported":1733468969,"current_range_meters":0,"station_id":"","pricing_plan_id":"cebpf4jnsgd1na2vs0mg"},{"bike_id":"0279b2c0-513c-422a-b9fb-9fc99372925b","system_id":"levelo_inurba_marseille","lat":43.31562,"lon":5.38915,"is_reserved":false,"is_disabled":false,"rental_uris":{"android":"levelo://app?vid=0279b2c0-513c-422a-b9fb-9fc99372925b","ios":"levelo://app?vid=0279b2c0-513c-422a-b9fb-9fc99372925b"},"vehicle_type_id":"4","last_reported":1733468969,"current_range_meters":19200,"station_id":"","pricing_plan_id":"cebpf4jnsgd1na2vs0mg"},{"bike_id":"f4676a9b-685c-4e8f-a479-8e34f48f1df5","system_id":"levelo_inurba_marseille","lat":43.33721,"lon":5.3918,"is_reserved":false,"is_disabled":false,"rental_uris":{"android":"levelo://app?vid=f4676a9b-685c-4e8f-a479-8e34f48f1df5","ios":"levelo://app?vid=f4676a9b-685c-4e8f-a479-8e34f48f1df5"},"vehicle_type_id":"4","last_reported":1733468969,"current_range_meters":38400,"station_id":"ce4bhr92rcd13ifvqhsg","pricing_plan_id":"cebpf4jnsgd1na2vs0mg"},{"bike_id":"132a5b8d-8909-414a-a469-2024a1763d7d","system_id":"levelo_inurba_marseille","lat":43.27569,"lon":5.3842,"is_reserved":false,"is_disabled":false,"rental_uris":{"android":"levelo://app?vid=132a5b8d-8909-414a-a469-2024a1763d7d","ios":"levelo://app?vid=132a5b8d-8909-414a-a469-2024a1763d7d"},"vehicle_type_id":"4","last_reported":1733468969,"current_range_meters":38400,"station_id":"ce4bhh92rcd13ifvqfi0","pricing_plan_id":"cebpf4jnsgd1na2vs0mg"},{"bike_id":"9417bb3d-fda9-4b6d-abcb-61bf5d017d1c","system_id":"levelo_inurba_marseille","lat":43.2848,"lon":5.38407,"is_reserved":false,"is_disabled":false,"rental_uris":{"android":"levelo://app?vid=9417bb3d-fda9-4b6d-abcb-61bf5d017d1c","ios":"levelo://app?vid=9417bb3d-fda9-4b6d-abcb-61bf5d017d1c"},"vehicle_type_id":"4","last_reported":1733468969,"current_range_meters":34800,"station_id":"ce4bh512rcd13ifvqe3g","pricing_plan_id":"cebpf4jnsgd1na2vs0mg"},{"bike_id":"01fc086f-11d0-4126-a5a7-f83f36005f81","system_id":"levelo_inurba_marseille","lat":43.317402,"lon":5.368703,"is_reserved":false,"is_disabled":false,"rental_uris":{"android":"levelo://app?vid=01fc086f-11d0-4126-a5a7-f83f36005f81","ios":"levelo://app?vid=01fc086f-11d0-4126-a5a7-f83f36005f81"},"vehicle_type_id":"4","last_reported":1733468969,"current_range_meters":36000,"station_id":"","pricing_plan_id":"cebpf4jnsgd1na2vs0mg"},{"bike_id":"3d769a68-e6a2-4c4a-88b0-3c686dbb241d","system_id":"levelo_inurba_marseille","lat":43.28912,"lon":5.39499,"is_reserved":false,"is_disabled":false,"rental_uris":{"android":"levelo://app?vid=3d769a68-e6a2-4c4a-88b0-3c686dbb241d","ios":"levelo://app?vid=3d769a68-e6a2-4c4a-88b0-3c686dbb241d"},"vehicle_type_id":"4","last_reported":1733468969,"current_range_meters":4400,"station_id":"","pricing_plan_id":"cebpf4jnsgd1na2vs0mg"},{"bike_id":"365a7539-8d65-43f2-8f6f-884e74be06d8","system_id":"levelo_inurba_marseille","lat":43.28616,"lon":5.35101,"is_reserved":false,"is_disabled":true,"rental_uris":{"android":"levelo://app?vid=365a7539-8d65-43f2-8f6f-884e74be06d8","ios":"levelo://app?vid=365a7539-8d65-43f2-8f6f-884e74be06d8"},"vehicle_type_id":"4","last_reported":1733468969,"current_range_meters":1200,"station_id":"ce4bhch2rcd13ifvqeug","pricing_plan_id":"cebpf4jnsgd1na2vs0mg"},{"bike_id":"11e86528-eb6b-4391-86a5-9b1822d069a4","system_id":"levelo_inurba_marseille","lat":43.278805,"lon":5.388003,"is_reserved":false,"is_disabled":true,"rental_uris":{"android":"levelo://app?vid=11e86528-eb6b-4391-86a5-9b1822d069a4","ios":"levelo://app?vid=11e86528-eb6b-4391-86a5-9b1822d069a4"},"vehicle_type_id":"4","last_reported":1733468969,"current_range_meters":6400,"station_id":"","pricing_plan_id":"cebpf4jnsgd1na2vs0mg"},{"bike_id":"6cc6805f-c0ca-4585-bdf1-b5a0339762b0","system_id":"levelo_inurba_marseille","lat":43.29027,"lon":5.42744,"is_reserved":false,"is_disabled":true,"rental_uris":{"android":"levelo://app?vid=6cc6805f-c0ca-4585-bdf1-b5a0339762b0","ios":"levelo://app?vid=6cc6805f-c0ca-4585-bdf1-b5a0339762b0"},"vehicle_type_id":"4","last_reported":1733468969,"current_range_meters":0,"station_id":"","pricing_plan_id":"cebpf4jnsgd1na2vs0mg"},{"bike_id":"4e6fc26f-c1d5-4d84-ac5b-7d384b8c30d5","system_id":"levelo_inurba_marseille","lat":43.32362,"lon":5.36743,"is_reserved":false,"is_disabled":false,"rental_uris":{"android":"levelo://app?vid=4e6fc26f-c1d5-4d84-ac5b-7d384b8c30d5","ios":"levelo://app?vid=4e6fc26f-c1d5-4d84-ac5b-7d384b8c30d5"},"vehicle_type_id":"4","last_reported":1733468969,"current_range_meters":8000,"station_id":"ce4bhsh2rcd13ifvqi2g","pricing_plan_id":"cebpf4jnsgd1na2vs0mg"},{"bike_id":"8d1c8b92-79bb-4181-b0d2-5e94db1a14d0","system_id":"levelo_inurba_marseille","lat":43.29972,"lon":5.3826,"is_reserved":false,"is_disabled":true,"rental_uris":{"android":"levelo://app?vid=8d1c8b92-79bb-4181-b0d2-5e94db1a14d0","ios":"levelo://app?vid=8d1c8b92-79bb-4181-b0d2-5e94db1a14d0"},"vehicle_type_id":"4","last_reported":1733468969,"current_range_meters":0,"station_id":"","pricing_plan_id":"cebpf4jnsgd1na2vs0mg"},{"bike_id":"66988d75-a9f0-423c-89be-11e06668ead3","system_id":"levelo_inurba_marseille","lat":43.2656,"lon":5.37283,"is_reserved":false,"is_disabled":true,"rental_uris":{"android":"levelo://app?vid=66988d75-a9f0-423c-89be-11e06668ead3","ios":"levelo://app?vid=66988d75-a9f0-423c-89be-11e06668ead3"},"vehicle_type_id":"4","last_reported":1733468969,"current_range_meters":0,"station_id":"ce4bhg12rcd13ifvqf70","pricing_plan_id":"cebpf4jnsgd1na2vs0mg"},{"bike_id":"ceb1ecfa-b58d-4608-8bd0-a733cf520ffd","system_id":"levelo_inurba_marseille","lat":43.27996,"lon":5.41653,"is_reserved":false,"is_disabled":false,"rental_uris":{"android":"levelo://app?vid=ceb1ecfa-b58d-4608-8bd0-a733cf520ffd","ios":"levelo://app?vid=ceb1ecfa-b58d-4608-8bd0-a733cf520ffd"},"vehicle_type_id":"4","last_reported":1733468969,"current_range_meters":39200,"station_id":"ce4bho12rcd13ifvqh1g","pricing_plan_id":"cebpf4jnsgd1na2vs0mg"},{"bike_id":"2d4328f5-608e-4ff2-8dbb-502f49d3f46f","system_id":"levelo_inurba_marseille","lat":43.293466,"lon":5.385238,"is_reserved":false,"is_disabled":false,"rental_uris":{"android":"levelo://app?vid=2d4328f5-608e-4ff2-8dbb-502f49d3f46f","ios":"levelo://app?vid=2d4328f5-608e-4ff2-8dbb-502f49d3f46f"},"vehicle_type_id":"4","last_reported":1733468969,"current_range_meters":15200,"station_id":"","pricing_plan_id":"cebpf4jnsgd1na2vs0mg"},{"bike_id":"0aa18752-a49d-4d4b-b564-10dbf7873def","system_id":"levelo_inurba_marseille","lat":43.31281,"lon":5.40166,"is_reserved":false,"is_disabled":false,"rental_uris":{"android":"levelo://app?vid=0aa18752-a49d-4d4b-b564-10dbf7873def","ios":"levelo://app?vid=0aa18752-a49d-4d4b-b564-10dbf7873def"},"vehicle_type_id":"4","last_reported":1733468969,"current_range_meters":20000,"station_id":"ce4bh092rcd13ifvqd30","pricing_plan_id":"cebpf4jnsgd1na2vs0mg"},{"bike_id":"7401184e-dcdc-4f69-89e9-1615045c1f8c","system_id":"levelo_inurba_marseille","lat":43.300322,"lon":5.389166,"is_reserved":false,"is_disabled":true,"rental_uris":{"android":"levelo://app?vid=7401184e-dcdc-4f69-89e9-1615045c1f8c","ios":"levelo://app?vid=7401184e-dcdc-4f69-89e9-1615045c1f8c"},"vehicle_type_id":"4","last_reported":1733468969,"current_range_meters":0,"station_id":"","pricing_plan_id":"cebpf4jnsgd1na2vs0mg"},{"bike_id":"8d92b535-a11b-4ce9-a357-9330f41faef2","system_id":"levelo_inurba_marseille","lat":43.25825,"lon":5.39438,"is_reserved":false,"is_disabled":false,"rental_uris":{"android":"levelo://app?vid=8d92b535-a11b-4ce9-a357-9330f41faef2","ios":"levelo://app?vid=8d92b535-a11b-4ce9-a357-9330f41faef2"},"vehicle_type_id":"4","last_reported":1733468969,"current_range_meters":38800,"station_id":"ce4bhip2rcd13ifvqft0","pricing_plan_id":"cebpf4jnsgd1na2vs0mg"},{"bike_id":"307c9e2c-7ea0-4d3e-9252-3ce91831a57b","system_id":"levelo_inurba_marseille","lat":43.28358,"lon":5.38099,"is_reserved":false,"is_disabled":false,"rental_uris":{"android":"levelo://app?vid=307c9e2c-7ea0-4d3e-9252-3ce91831a57b","ios":"levelo://app?vid=307c9e2c-7ea0-4d3e-9252-3ce91831a57b"},"vehicle_type_id":"4","last_reported":1733468969,"current_range_meters":20000,"station_id":"ce4bh412rcd13ifvqdr0","pricing_plan_id":"cebpf4jnsgd1na2vs0mg"},{"bike_id":"3ffb78af-30b6-4606-8731-f03d6803d409","system_id":"levelo_inurba_marseille","lat":43.29796,"lon":5.38091,"is_reserved":false,"is_disabled":false,"rental_uris":{"android":"levelo://app?vid=3ffb78af-30b6-4606-8731-f03d6803d409","ios":"levelo://app?vid=3ffb78af-30b6-4606-8731-f03d6803d409"},"vehicle_type_id":"4","last_reported":1733468969,"current_range_meters":33600,"station_id":"ce4bgip2rcd13ifvqbb0","pricing_plan_id":"cebpf4jnsgd1na2vs0mg"},{"bike_id":"9235a45d-a7bb-479a-94f3-3fbfbc2df340","system_id":"levelo_inurba_marseille","lat":43.25498,"lon":5.37649,"is_reserved":false,"is_disabled":false,"rental_uris":{"android":"levelo://app?vid=9235a45d-a7bb-479a-94f3-3fbfbc2df340","ios":"levelo://app?vid=9235a45d-a7bb-479a-94f3-3fbfbc2df340"},"vehicle_type_id":"4","last_reported":1733468969,"current_range_meters":10000,"station_id":"ce4bhh12rcd13ifvqff0","pricing_plan_id":"cebpf4jnsgd1na2vs0mg"},{"bike_id":"5e0f238b-ae64-4126-8ec3-f35e96dcf93f","system_id":"levelo_inurba_marseille","lat":43.2501,"lon":5.38927,"is_reserved":false,"is_disabled":false,"rental_uris":{"android":"levelo://app?vid=5e0f238b-ae64-4126-8ec3-f35e96dcf93f","ios":"levelo://app?vid=5e0f238b-ae64-4126-8ec3-f35e96dcf93f"},"vehicle_type_id":"4","last_reported":1733468969,"current_range_meters":24000,"station_id":"ce4bhgp2rcd13ifvqfd0","pricing_plan_id":"cebpf4jnsgd1na2vs0mg"},{"bike_id":"c61e3265-1add-4400-8091-4b8164bfe48a","system_id":"levelo_inurba_marseille","lat":43.25118,"lon":5.40312,"is_reserved":false,"is_disabled":false,"rental_uris":{"android":"levelo://app?vid=c61e3265-1add-4400-8091-4b8164bfe48a","ios":"levelo://app?vid=c61e3265-1add-4400-8091-4b8164bfe48a"},"vehicle_type_id":"4","last_reported":1733468969,"current_range_meters":25600,"station_id":"ce4bhlh2rcd13ifvqgig","pricing_plan_id":"cebpf4jnsgd1na2vs0mg"},{"bike_id":"cf315912-6fc6-4c2f-9885-dbef65eb8065","system_id":"levelo_inurba_marseille","lat":43.28816,"lon":5.38857,"is_reserved":false,"is_disabled":false,"rental_uris":{"android":"levelo://app?vid=cf315912-6fc6-4c2f-9885-dbef65eb8065","ios":"levelo://app?vid=cf315912-6fc6-4c2f-9885-dbef65eb8065"},"vehicle_type_id":"4","last_reported":1733468969,"current_range_meters":11600,"station_id":"","pricing_plan_id":"cebpf4jnsgd1na2vs0mg"},{"bike_id":"3fab0d02-0b16-4f66-b1af-3c810bb7b85a","system_id":"levelo_inurba_marseille","lat":43.2936,"lon":5.37864,"is_reserved":false,"is_disabled":true,"rental_uris":{"android":"levelo://app?vid=3fab0d02-0b16-4f66-b1af-3c810bb7b85a","ios":"levelo://app?vid=3fab0d02-0b16-4f66-b1af-3c810bb7b85a"},"vehicle_type_id":"4","last_reported":1733468969,"current_range_meters":24400,"station_id":"ce4bgjh2rcd13ifvqbf0","pricing_plan_id":"cebpf4jnsgd1na2vs0mg"},{"bike_id":"008ca68b-4441-4631-9801-6913fbef7514","system_id":"levelo_inurba_marseille","lat":43.284367,"lon":5.391988,"is_reserved":false,"is_disabled":false,"rental_uris":{"android":"levelo://app?vid=008ca68b-4441-4631-9801-6913fbef7514","ios":"levelo://app?vid=008ca68b-4441-4631-9801-6913fbef7514"},"vehicle_type_id":"4","last_reported":1733468969,"current_range_meters":27200,"station_id":"ce4bho12rcd13ifvqh2g","pricing_plan_id":"cebpf4jnsgd1na2vs0mg"},{"bike_id":"7e138b6d-da12-4dd1-aa5c-731ba9e5976b","system_id":"levelo_inurba_marseille","lat":43.31679,"lon":5.37348,"is_reserved":false,"is_disabled":true,"rental_uris":{"android":"levelo://app?vid=7e138b6d-da12-4dd1-aa5c-731ba9e5976b","ios":"levelo://app?vid=7e138b6d-da12-4dd1-aa5c-731ba9e5976b"},"vehicle_type_id":"4","last_reported":1733468969,"current_range_meters":0,"station_id":"","pricing_plan_id":"cebpf4jnsgd1na2vs0mg"},{"bike_id":"3cf75da4-d788-46e6-b128-1f606a456513","system_id":"levelo_inurba_marseille","lat":43.27184,"lon":5.40984,"is_reserved":false,"is_disabled":false,"rental_uris":{"android":"levelo://app?vid=3cf75da4-d788-46e6-b128-1f606a456513","ios":"levelo://app?vid=3cf75da4-d788-46e6-b128-1f606a456513"},"vehicle_type_id":"4","last_reported":1733468969,"current_range_meters":30000,"station_id":"ce4bhl12rcd13ifvqgf0","pricing_plan_id":"cebpf4jnsgd1na2vs0mg"},{"bike_id":"97caf237-85e4-434f-9ad0-53e6794457f3","system_id":"levelo_inurba_marseille","lat":43.2319,"lon":5.4001,"is_reserved":false,"is_disabled":false,"rental_uris":{"android":"levelo://app?vid=97caf237-85e4-434f-9ad0-53e6794457f3","ios":"levelo://app?vid=97caf237-85e4-434f-9ad0-53e6794457f3"},"vehicle_type_id":"4","last_reported":1733468969,"current_range_meters":38000,"station_id":"ce4bhn12rcd13ifvqgqg","pricing_plan_id":"cebpf4jnsgd1na2vs0mg"},{"bike_id":"8743ffe3-65ce-496b-b3b5-9caf9a62e9fb","system_id":"levelo_inurba_marseille","lat":43.30464,"lon":5.37913,"is_reserved":false,"is_disabled":false,"rental_uris":{"android":"levelo://app?vid=8743ffe3-65ce-496b-b3b5-9caf9a62e9fb","ios":"levelo://app?vid=8743ffe3-65ce-496b-b3b5-9caf9a62e9fb"},"vehicle_type_id":"4","last_reported":1733468969,"current_range_meters":38000,"station_id":"ce4bgup2rcd13ifvqcn0","pricing_plan_id":"cebpf4jnsgd1na2vs0mg"},{"bike_id":"9c77a68d-2e99-44e9-b903-950fb6644d35","system_id":"levelo_inurba_marseille","lat":43.25265,"lon":5.39465,"is_reserved":false,"is_disabled":true,"rental_uris":{"android":"levelo://app?vid=9c77a68d-2e99-44e9-b903-950fb6644d35","ios":"levelo://app?vid=9c77a68d-2e99-44e9-b903-950fb6644d35"},"vehicle_type_id":"4","last_reported":1733468969,"current_range_meters":0,"station_id":"","pricing_plan_id":"cebpf4jnsgd1na2vs0mg"},{"bike_id":"ffb2998d-e9ac-48e9-9d3f-8a3d04e612dc","system_id":"levelo_inurba_marseille","lat":43.26507,"lon":5.39533,"is_reserved":false,"is_disabled":false,"rental_uris":{"android":"levelo://app?vid=ffb2998d-e9ac-48e9-9d3f-8a3d04e612dc","ios":"levelo://app?vid=ffb2998d-e9ac-48e9-9d3f-8a3d04e612dc"},"vehicle_type_id":"4","last_reported":1733468969,"current_range_meters":16000,"station_id":"ce4bhi12rcd13ifvqfq0","pricing_plan_id":"cebpf4jnsgd1na2vs0mg"},{"bike_id":"c37787ee-0ffa-42ae-a03d-56f1ddfd07e8","system_id":"levelo_inurba_marseille","lat":43.28093,"lon":5.39658,"is_reserved":false,"is_disabled":false,"rental_uris":{"android":"levelo://app?vid=c37787ee-0ffa-42ae-a03d-56f1ddfd07e8","ios":"levelo://app?vid=c37787ee-0ffa-42ae-a03d-56f1ddfd07e8"},"vehicle_type_id":"4","last_reported":1733468969,"current_range_meters":38000,"station_id":"ce4bho12rcd13ifvqh2g","pricing_plan_id":"cebpf4jnsgd1na2vs0mg"},{"bike_id":"8e82f2ca-6ff2-4048-bc8a-f89791c5df5b","system_id":"levelo_inurba_marseille","lat":43.24079,"lon":5.37755,"is_reserved":false,"is_disabled":false,"rental_uris":{"android":"levelo://app?vid=8e82f2ca-6ff2-4048-bc8a-f89791c5df5b","ios":"levelo://app?vid=8e82f2ca-6ff2-4048-bc8a-f89791c5df5b"},"vehicle_type_id":"4","last_reported":1733468969,"current_range_meters":24400,"station_id":"ce4bhnp2rcd13ifvqgvg","pricing_plan_id":"cebpf4jnsgd1na2vs0mg"},{"bike_id":"bc3d5e10-8b3a-44c5-931e-a78f6c147614","system_id":"levelo_inurba_marseille","lat":43.2757,"lon":5.38407,"is_reserved":false,"is_disabled":false,"rental_uris":{"android":"levelo://app?vid=bc3d5e10-8b3a-44c5-931e-a78f6c147614","ios":"levelo://app?vid=bc3d5e10-8b3a-44c5-931e-a78f6c147614"},"vehicle_type_id":"4","last_reported":1733468969,"current_range_meters":39200,"station_id":"ce4bhh92rcd13ifvqfi0","pricing_plan_id":"cebpf4jnsgd1na2vs0mg"},{"bike_id":"d0c1876a-a4f3-4d77-a856-9a68b657c668","system_id":"levelo_inurba_marseille","lat":43.24076,"lon":5.37754,"is_reserved":false,"is_disabled":false,"rental_uris":{"android":"levelo://app?vid=d0c1876a-a4f3-4d77-a856-9a68b657c668","ios":"levelo://app?vid=d0c1876a-a4f3-4d77-a856-9a68b657c668"},"vehicle_type_id":"4","last_reported":1733468969,"current_range_meters":38800,"station_id":"ce4bhnp2rcd13ifvqgvg","pricing_plan_id":"cebpf4jnsgd1na2vs0mg"},{"bike_id":"83985555-c848-4b28-808f-8a7e7cf8519e","system_id":"levelo_inurba_marseille","lat":43.28115,"lon":5.43955,"is_reserved":false,"is_disabled":true,"rental_uris":{"android":"levelo://app?vid=83985555-c848-4b28-808f-8a7e7cf8519e","ios":"levelo://app?vid=83985555-c848-4b28-808f-8a7e7cf8519e"},"vehicle_type_id":"4","last_reported":1733468969,"current_range_meters":0,"station_id":"","pricing_plan_id":"cebpf4jnsgd1na2vs0mg"},{"bike_id":"7326b8b1-24b7-4c26-9027-ad533451c1c2","system_id":"levelo_inurba_marseille","lat":43.24074,"lon":5.3776,"is_reserved":false,"is_disabled":false,"rental_uris":{"android":"levelo://app?vid=7326b8b1-24b7-4c26-9027-ad533451c1c2","ios":"levelo://app?vid=7326b8b1-24b7-4c26-9027-ad533451c1c2"},"vehicle_type_id":"4","last_reported":1733468969,"current_range_meters":14800,"station_id":"ce4bhnp2rcd13ifvqgvg","pricing_plan_id":"cebpf4jnsgd1na2vs0mg"},{"bike_id":"01afb4bc-870a-4bb9-b0a6-be7ee7b649f2","system_id":"levelo_inurba_marseille","lat":43.27176,"lon":5.40987,"is_reserved":false,"is_disabled":false,"rental_uris":{"android":"levelo://app?vid=01afb4bc-870a-4bb9-b0a6-be7ee7b649f2","ios":"levelo://app?vid=01afb4bc-870a-4bb9-b0a6-be7ee7b649f2"},"vehicle_type_id":"4","last_reported":1733468969,"current_range_meters":38000,"station_id":"ce4bhl12rcd13ifvqgf0","pricing_plan_id":"cebpf4jnsgd1na2vs0mg"},{"bike_id":"903ec8f1-f4c3-441f-a117-ff7454fcb959","system_id":"levelo_inurba_marseille","lat":43.29478,"lon":5.39404,"is_reserved":false,"is_disabled":true,"rental_uris":{"android":"levelo://app?vid=903ec8f1-f4c3-441f-a117-ff7454fcb959","ios":"levelo://app?vid=903ec8f1-f4c3-441f-a117-ff7454fcb959"},"vehicle_type_id":"4","last_reported":1733468969,"current_range_meters":0,"station_id":"ce4bh292rcd13ifvqdf0","pricing_plan_id":"cebpf4jnsgd1na2vs0mg"},{"bike_id":"9bc47e6e-404e-4d83-a9c3-862006ca093e","system_id":"levelo_inurba_marseille","lat":43.28847,"lon":5.37907,"is_reserved":false,"is_disabled":false,"rental_uris":{"android":"levelo://app?vid=9bc47e6e-404e-4d83-a9c3-862006ca093e","ios":"levelo://app?vid=9bc47e6e-404e-4d83-a9c3-862006ca093e"},"vehicle_type_id":"4","last_reported":1733468969,"current_range_meters":16400,"station_id":"","pricing_plan_id":"cebpf4jnsgd1na2vs0mg"},{"bike_id":"04a282cb-05e8-434c-a1ea-196c599ab847","system_id":"levelo_inurba_marseille","lat":43.31008,"lon":5.42058,"is_reserved":false,"is_disabled":false,"rental_uris":{"android":"levelo://app?vid=04a282cb-05e8-434c-a1ea-196c599ab847","ios":"levelo://app?vid=04a282cb-05e8-434c-a1ea-196c599ab847"},"vehicle_type_id":"4","last_reported":1733468969,"current_range_meters":38800,"station_id":"ce4bhp92rcd13ifvqhag","pricing_plan_id":"cebpf4jnsgd1na2vs0mg"},{"bike_id":"d76e5dcc-1444-4a12-84a3-a191f9630334","system_id":"levelo_inurba_marseille","lat":43.30467,"lon":5.37911,"is_reserved":false,"is_disabled":false,"rental_uris":{"android":"levelo://app?vid=d76e5dcc-1444-4a12-84a3-a191f9630334","ios":"levelo://app?vid=d76e5dcc-1444-4a12-84a3-a191f9630334"},"vehicle_type_id":"4","last_reported":1733468969,"current_range_meters":35200,"station_id":"ce4bgup2rcd13ifvqcn0","pricing_plan_id":"cebpf4jnsgd1na2vs0mg"},{"bike_id":"4a8e21e6-ec65-4655-92a4-dfff45da23c1","system_id":"levelo_inurba_marseille","lat":43.25507,"lon":5.37649,"is_reserved":false,"is_disabled":false,"rental_uris":{"android":"levelo://app?vid=4a8e21e6-ec65-4655-92a4-dfff45da23c1","ios":"levelo://app?vid=4a8e21e6-ec65-4655-92a4-dfff45da23c1"},"vehicle_type_id":"4","last_reported":1733468969,"current_range_meters":39200,"station_id":"ce4bhh12rcd13ifvqff0","pricing_plan_id":"cebpf4jnsgd1na2vs0mg"},{"bike_id":"b8a700b0-b24e-45c1-9c65-bb2892b35ff9","system_id":"levelo_inurba_marseille","lat":43.32538,"lon":5.41428,"is_reserved":false,"is_disabled":false,"rental_uris":{"android":"levelo://app?vid=b8a700b0-b24e-45c1-9c65-bb2892b35ff9","ios":"levelo://app?vid=b8a700b0-b24e-45c1-9c65-bb2892b35ff9"},"vehicle_type_id":"4","last_reported":1733468969,"current_range_meters":35200,"station_id":"ce4bhq12rcd13ifvqhhg","pricing_plan_id":"cebpf4jnsgd1na2vs0mg"},{"bike_id":"6ab515cf-0c36-470a-9dcf-74ce73ab72f2","system_id":"levelo_inurba_marseille","lat":43.28437,"lon":5.3918,"is_reserved":false,"is_disabled":false,"rental_uris":{"android":"levelo://app?vid=6ab515cf-0c36-470a-9dcf-74ce73ab72f2","ios":"levelo://app?vid=6ab515cf-0c36-470a-9dcf-74ce73ab72f2"},"vehicle_type_id":"4","last_reported":1733468969,"current_range_meters":38800,"station_id":"ce4bhoh2rcd13ifvqh5g","pricing_plan_id":"cebpf4jnsgd1na2vs0mg"},{"bike_id":"020719d4-c29b-4e35-be4b-81ca932ddaa9","system_id":"levelo_inurba_marseille","lat":43.3024,"lon":5.40051,"is_reserved":false,"is_disabled":true,"rental_uris":{"android":"levelo://app?vid=020719d4-c29b-4e35-be4b-81ca932ddaa9","ios":"levelo://app?vid=020719d4-c29b-4e35-be4b-81ca932ddaa9"},"vehicle_type_id":"4","last_reported":1733468969,"current_range_meters":27600,"station_id":"ce4bgvh2rcd13ifvqcs0","pricing_plan_id":"cebpf4jnsgd1na2vs0mg"},{"bike_id":"fd167178-37eb-4b2e-ab94-fd12c0eca879","system_id":"levelo_inurba_marseille","lat":43.25823,"lon":5.39437,"is_reserved":false,"is_disabled":false,"rental_uris":{"android":"levelo://app?vid=fd167178-37eb-4b2e-ab94-fd12c0eca879","ios":"levelo://app?vid=fd167178-37eb-4b2e-ab94-fd12c0eca879"},"vehicle_type_id":"4","last_reported":1733468969,"current_range_meters":30800,"station_id":"ce4bhip2rcd13ifvqft0","pricing_plan_id":"cebpf4jnsgd1na2vs0mg"},{"bike_id":"a8264fb2-dad4-4c52-9230-cf80b47302d6","system_id":"levelo_inurba_marseille","lat":43.319952,"lon":5.381495,"is_reserved":false,"is_disabled":true,"rental_uris":{"android":"levelo://app?vid=a8264fb2-dad4-4c52-9230-cf80b47302d6","ios":"levelo://app?vid=a8264fb2-dad4-4c52-9230-cf80b47302d6"},"vehicle_type_id":"4","last_reported":1733468969,"current_range_meters":13600,"station_id":"ce4bhr12rcd13ifvqhpg","pricing_plan_id":"cebpf4jnsgd1na2vs0mg"},{"bike_id":"5edf82fa-e9d0-4d1f-98f1-37c98092771a","system_id":"levelo_inurba_marseille","lat":43.232,"lon":5.35543,"is_reserved":false,"is_disabled":false,"rental_uris":{"android":"levelo://app?vid=5edf82fa-e9d0-4d1f-98f1-37c98092771a","ios":"levelo://app?vid=5edf82fa-e9d0-4d1f-98f1-37c98092771a"},"vehicle_type_id":"4","last_reported":1733468969,"current_range_meters":38800,"station_id":"ce4bhu92rcd13ifvqi70","pricing_plan_id":"cebpf4jnsgd1na2vs0mg"},{"bike_id":"5c8c1563-790f-413c-92a4-e9bf05f3db3f","system_id":"levelo_inurba_marseille","lat":43.24072,"lon":5.37763,"is_reserved":false,"is_disabled":false,"rental_uris":{"android":"levelo://app?vid=5c8c1563-790f-413c-92a4-e9bf05f3db3f","ios":"levelo://app?vid=5c8c1563-790f-413c-92a4-e9bf05f3db3f"},"vehicle_type_id":"4","last_reported":1733468969,"current_range_meters":10800,"station_id":"ce4bhnp2rcd13ifvqgvg","pricing_plan_id":"cebpf4jnsgd1na2vs0mg"},{"bike_id":"f879b8fa-cbeb-4894-a04f-d08d9e07d35c","system_id":"levelo_inurba_marseille","lat":43.29711,"lon":5.36601,"is_reserved":false,"is_disabled":false,"rental_uris":{"android":"levelo://app?vid=f879b8fa-cbeb-4894-a04f-d08d9e07d35c","ios":"levelo://app?vid=f879b8fa-cbeb-4894-a04f-d08d9e07d35c"},"vehicle_type_id":"4","last_reported":1733468969,"current_range_meters":39200,"station_id":"ce4bgn12rcd13ifvqbt0","pricing_plan_id":"cebpf4jnsgd1na2vs0mg"},{"bike_id":"d842f2ad-887c-4f0a-8692-2400d1945c81","system_id":"levelo_inurba_marseille","lat":43.23194,"lon":5.39971,"is_reserved":false,"is_disabled":true,"rental_uris":{"android":"levelo://app?vid=d842f2ad-887c-4f0a-8692-2400d1945c81","ios":"levelo://app?vid=d842f2ad-887c-4f0a-8692-2400d1945c81"},"vehicle_type_id":"4","last_reported":1733468969,"current_range_meters":0,"station_id":"ce4bhn12rcd13ifvqgqg","pricing_plan_id":"cebpf4jnsgd1na2vs0mg"},{"bike_id":"696aff15-0b39-476f-8937-4b7e9cf37bd5","system_id":"levelo_inurba_marseille","lat":43.24079,"lon":5.37756,"is_reserved":false,"is_disabled":false,"rental_uris":{"android":"levelo://app?vid=696aff15-0b39-476f-8937-4b7e9cf37bd5","ios":"levelo://app?vid=696aff15-0b39-476f-8937-4b7e9cf37bd5"},"vehicle_type_id":"4","last_reported":1733468969,"current_range_meters":9600,"station_id":"ce4bhnp2rcd13ifvqgvg","pricing_plan_id":"cebpf4jnsgd1na2vs0mg"},{"bike_id":"1fdd6986-fd3d-46ec-bb8e-b98d6a137718","system_id":"levelo_inurba_marseille","lat":43.313715,"lon":5.384945,"is_reserved":false,"is_disabled":false,"rental_uris":{"android":"levelo://app?vid=1fdd6986-fd3d-46ec-bb8e-b98d6a137718","ios":"levelo://app?vid=1fdd6986-fd3d-46ec-bb8e-b98d6a137718"},"vehicle_type_id":"4","last_reported":1733468969,"current_range_meters":38800,"station_id":"ce4bgt92rcd13ifvqcf0","pricing_plan_id":"cebpf4jnsgd1na2vs0mg"},{"bike_id":"506c09f4-6c9b-4fb3-996c-4c7f86dd75a8","system_id":"levelo_inurba_marseille","lat":43.25495,"lon":5.37646,"is_reserved":false,"is_disabled":true,"rental_uris":{"android":"levelo://app?vid=506c09f4-6c9b-4fb3-996c-4c7f86dd75a8","ios":"levelo://app?vid=506c09f4-6c9b-4fb3-996c-4c7f86dd75a8"},"vehicle_type_id":"4","last_reported":1733468969,"current_range_meters":0,"station_id":"ce4bhh12rcd13ifvqff0","pricing_plan_id":"cebpf4jnsgd1na2vs0mg"},{"bike_id":"17abaaf2-9129-4b20-a90a-485795d071b7","system_id":"levelo_inurba_marseille","lat":43.28723,"lon":5.37937,"is_reserved":false,"is_disabled":true,"rental_uris":{"android":"levelo://app?vid=17abaaf2-9129-4b20-a90a-485795d071b7","ios":"levelo://app?vid=17abaaf2-9129-4b20-a90a-485795d071b7"},"vehicle_type_id":"4","last_reported":1733468969,"current_range_meters":4000,"station_id":"ce4bh9p2rcd13ifvqec0","pricing_plan_id":"cebpf4jnsgd1na2vs0mg"},{"bike_id":"9202c63e-372c-4469-a5c1-8e35757d1940","system_id":"levelo_inurba_marseille","lat":43.30053,"lon":5.38832,"is_reserved":false,"is_disabled":true,"rental_uris":{"android":"levelo://app?vid=9202c63e-372c-4469-a5c1-8e35757d1940","ios":"levelo://app?vid=9202c63e-372c-4469-a5c1-8e35757d1940"},"vehicle_type_id":"4","last_reported":1733468969,"current_range_meters":0,"station_id":"","pricing_plan_id":"cebpf4jnsgd1na2vs0mg"},{"bike_id":"4d75ea9c-71c5-44e7-a3ed-dd13a7651159","system_id":"levelo_inurba_marseille","lat":43.30797,"lon":5.43512,"is_reserved":false,"is_disabled":false,"rental_uris":{"android":"levelo://app?vid=4d75ea9c-71c5-44e7-a3ed-dd13a7651159","ios":"levelo://app?vid=4d75ea9c-71c5-44e7-a3ed-dd13a7651159"},"vehicle_type_id":"4","last_reported":1733468969,"current_range_meters":23200,"station_id":"ce4bhph2rcd13ifvqheg","pricing_plan_id":"cebpf4jnsgd1na2vs0mg"},{"bike_id":"e058ae9d-727d-4a6d-813e-1b36b330900b","system_id":"levelo_inurba_marseille","lat":43.30463,"lon":5.37909,"is_reserved":false,"is_disabled":false,"rental_uris":{"android":"levelo://app?vid=e058ae9d-727d-4a6d-813e-1b36b330900b","ios":"levelo://app?vid=e058ae9d-727d-4a6d-813e-1b36b330900b"},"vehicle_type_id":"4","last_reported":1733468969,"current_range_meters":36800,"station_id":"ce4bgup2rcd13ifvqcn0","pricing_plan_id":"cebpf4jnsgd1na2vs0mg"},{"bike_id":"5ecc5b41-0852-407d-a6ab-9fbe559e4644","system_id":"levelo_inurba_marseille","lat":43.32085,"lon":5.41553,"is_reserved":false,"is_disabled":true,"rental_uris":{"android":"levelo://app?vid=5ecc5b41-0852-407d-a6ab-9fbe559e4644","ios":"levelo://app?vid=5ecc5b41-0852-407d-a6ab-9fbe559e4644"},"vehicle_type_id":"4","last_reported":1733468969,"current_range_meters":38800,"station_id":"ce4bhq92rcd13ifvqhkg","pricing_plan_id":"cebpf4jnsgd1na2vs0mg"},{"bike_id":"1848375a-ec6c-40bd-8b8e-21bc464555ab","system_id":"levelo_inurba_marseille","lat":43.29375,"lon":5.37859,"is_reserved":false,"is_disabled":false,"rental_uris":{"android":"levelo://app?vid=1848375a-ec6c-40bd-8b8e-21bc464555ab","ios":"levelo://app?vid=1848375a-ec6c-40bd-8b8e-21bc464555ab"},"vehicle_type_id":"4","last_reported":1733468969,"current_range_meters":27600,"station_id":"ce4bgjh2rcd13ifvqbf0","pricing_plan_id":"cebpf4jnsgd1na2vs0mg"},{"bike_id":"4c15f351-475c-4397-81dc-2a3032b89ea7","system_id":"levelo_inurba_marseille","lat":43.28708,"lon":5.37397,"is_reserved":false,"is_disabled":false,"rental_uris":{"android":"levelo://app?vid=4c15f351-475c-4397-81dc-2a3032b89ea7","ios":"levelo://app?vid=4c15f351-475c-4397-81dc-2a3032b89ea7"},"vehicle_type_id":"4","last_reported":1733468969,"current_range_meters":7200,"station_id":"ce4bh3p2rcd13ifvqdq0","pricing_plan_id":"cebpf4jnsgd1na2vs0mg"},{"bike_id":"0deb7b46-3bee-4382-87b1-3984fb62457f","system_id":"levelo_inurba_marseille","lat":43.28748,"lon":5.38908,"is_reserved":false,"is_disabled":true,"rental_uris":{"android":"levelo://app?vid=0deb7b46-3bee-4382-87b1-3984fb62457f","ios":"levelo://app?vid=0deb7b46-3bee-4382-87b1-3984fb62457f"},"vehicle_type_id":"4","last_reported":1733468969,"current_range_meters":32400,"station_id":"","pricing_plan_id":"cebpf4jnsgd1na2vs0mg"},{"bike_id":"cf3e6ea0-09ff-406c-b357-28a6a6117f94","system_id":"levelo_inurba_marseille","lat":43.22941,"lon":5.35379,"is_reserved":false,"is_disabled":false,"rental_uris":{"android":"levelo://app?vid=cf3e6ea0-09ff-406c-b357-28a6a6117f94","ios":"levelo://app?vid=cf3e6ea0-09ff-406c-b357-28a6a6117f94"},"vehicle_type_id":"4","last_reported":1733468969,"current_range_meters":38800,"station_id":"cpo3532slgdg3j2ikp40","pricing_plan_id":"cebpf4jnsgd1na2vs0mg"},{"bike_id":"b7752d1c-2ee7-44ca-895e-ca3d79cf0acc","system_id":"levelo_inurba_marseille","lat":43.28942,"lon":5.39623,"is_reserved":false,"is_disabled":false,"rental_uris":{"android":"levelo://app?vid=b7752d1c-2ee7-44ca-895e-ca3d79cf0acc","ios":"levelo://app?vid=b7752d1c-2ee7-44ca-895e-ca3d79cf0acc"},"vehicle_type_id":"4","last_reported":1733468969,"current_range_meters":38800,"station_id":"ce4bh3h2rcd13ifvqdn0","pricing_plan_id":"cebpf4jnsgd1na2vs0mg"},{"bike_id":"6fa8ca18-6b41-4586-8e24-d747574d4af3","system_id":"levelo_inurba_marseille","lat":43.308063,"lon":5.381491,"is_reserved":false,"is_disabled":false,"rental_uris":{"android":"levelo://app?vid=6fa8ca18-6b41-4586-8e24-d747574d4af3","ios":"levelo://app?vid=6fa8ca18-6b41-4586-8e24-d747574d4af3"},"vehicle_type_id":"4","last_reported":1733468969,"current_range_meters":34800,"station_id":"ce4bgt12rcd13ifvqce0","pricing_plan_id":"cebpf4jnsgd1na2vs0mg"},{"bike_id":"56f8e5ef-1033-4d10-a5ea-df81c1a4047d","system_id":"levelo_inurba_marseille","lat":43.2559,"lon":5.38227,"is_reserved":false,"is_disabled":false,"rental_uris":{"android":"levelo://app?vid=56f8e5ef-1033-4d10-a5ea-df81c1a4047d","ios":"levelo://app?vid=56f8e5ef-1033-4d10-a5ea-df81c1a4047d"},"vehicle_type_id":"4","last_reported":1733468969,"current_range_meters":22000,"station_id":"ce4bhih2rcd13ifvqfs0","pricing_plan_id":"cebpf4jnsgd1na2vs0mg"},{"bike_id":"719e509a-25e4-4b1b-9830-f708d85d7593","system_id":"levelo_inurba_marseille","lat":43.29404,"lon":5.37451,"is_reserved":false,"is_disabled":true,"rental_uris":{"android":"levelo://app?vid=719e509a-25e4-4b1b-9830-f708d85d7593","ios":"levelo://app?vid=719e509a-25e4-4b1b-9830-f708d85d7593"},"vehicle_type_id":"4","last_reported":1733468969,"current_range_meters":0,"station_id":"","pricing_plan_id":"cebpf4jnsgd1na2vs0mg"},{"bike_id":"3347801e-2abd-4ed2-b25d-08efaf152690","system_id":"levelo_inurba_marseille","lat":43.26566,"lon":5.39014,"is_reserved":false,"is_disabled":false,"rental_uris":{"android":"levelo://app?vid=3347801e-2abd-4ed2-b25d-08efaf152690","ios":"levelo://app?vid=3347801e-2abd-4ed2-b25d-08efaf152690"},"vehicle_type_id":"4","last_reported":1733468969,"current_range_meters":8400,"station_id":"ce4bhe12rcd13ifvqf30","pricing_plan_id":"cebpf4jnsgd1na2vs0mg"},{"bike_id":"7f1a4caf-188c-432d-9492-d813ece2f921","system_id":"levelo_inurba_marseille","lat":43.24076,"lon":5.37758,"is_reserved":false,"is_disabled":false,"rental_uris":{"android":"levelo://app?vid=7f1a4caf-188c-432d-9492-d813ece2f921","ios":"levelo://app?vid=7f1a4caf-188c-432d-9492-d813ece2f921"},"vehicle_type_id":"4","last_reported":1733468969,"current_range_meters":38000,"station_id":"ce4bhnp2rcd13ifvqgvg","pricing_plan_id":"cebpf4jnsgd1na2vs0mg"},{"bike_id":"7a0a2714-105e-4622-8b3e-a7dd62dc6941","system_id":"levelo_inurba_marseille","lat":43.29266,"lon":5.384189,"is_reserved":false,"is_disabled":true,"rental_uris":{"android":"levelo://app?vid=7a0a2714-105e-4622-8b3e-a7dd62dc6941","ios":"levelo://app?vid=7a0a2714-105e-4622-8b3e-a7dd62dc6941"},"vehicle_type_id":"4","last_reported":1733468969,"current_range_meters":800,"station_id":"","pricing_plan_id":"cebpf4jnsgd1na2vs0mg"},{"bike_id":"d54f7790-c508-427a-8ede-df19697b99af","system_id":"levelo_inurba_marseille","lat":43.28497,"lon":5.38554,"is_reserved":false,"is_disabled":false,"rental_uris":{"android":"levelo://app?vid=d54f7790-c508-427a-8ede-df19697b99af","ios":"levelo://app?vid=d54f7790-c508-427a-8ede-df19697b99af"},"vehicle_type_id":"4","last_reported":1733468969,"current_range_meters":37600,"station_id":"ce4bh8p2rcd13ifvqeb0","pricing_plan_id":"cebpf4jnsgd1na2vs0mg"},{"bike_id":"2b6d8e3a-eba6-48ab-ae54-ba4181438667","system_id":"levelo_inurba_marseille","lat":43.28941,"lon":5.39632,"is_reserved":false,"is_disabled":true,"rental_uris":{"android":"levelo://app?vid=2b6d8e3a-eba6-48ab-ae54-ba4181438667","ios":"levelo://app?vid=2b6d8e3a-eba6-48ab-ae54-ba4181438667"},"vehicle_type_id":"4","last_reported":1733468969,"current_range_meters":0,"station_id":"ce4bh3h2rcd13ifvqdn0","pricing_plan_id":"cebpf4jnsgd1na2vs0mg"},{"bike_id":"beea83fa-4acd-4b03-9b02-0d528a5d16d9","system_id":"levelo_inurba_marseille","lat":43.30149,"lon":5.38081,"is_reserved":false,"is_disabled":false,"rental_uris":{"android":"levelo://app?vid=beea83fa-4acd-4b03-9b02-0d528a5d16d9","ios":"levelo://app?vid=beea83fa-4acd-4b03-9b02-0d528a5d16d9"},"vehicle_type_id":"4","last_reported":1733468969,"current_range_meters":36000,"station_id":"ce4bgjp2rcd13ifvqbh0","pricing_plan_id":"cebpf4jnsgd1na2vs0mg"},{"bike_id":"5954c395-6875-4837-9cf3-ba61eb174515","system_id":"levelo_inurba_marseille","lat":43.30591,"lon":5.39356,"is_reserved":false,"is_disabled":false,"rental_uris":{"android":"levelo://app?vid=5954c395-6875-4837-9cf3-ba61eb174515","ios":"levelo://app?vid=5954c395-6875-4837-9cf3-ba61eb174515"},"vehicle_type_id":"4","last_reported":1733468969,"current_range_meters":28400,"station_id":"ce4bh0p2rcd13ifvqd80","pricing_plan_id":"cebpf4jnsgd1na2vs0mg"},{"bike_id":"6a7ba481-a30d-474a-8bb7-4161477695ef","system_id":"levelo_inurba_marseille","lat":43.31373,"lon":5.38498,"is_reserved":false,"is_disabled":false,"rental_uris":{"android":"levelo://app?vid=6a7ba481-a30d-474a-8bb7-4161477695ef","ios":"levelo://app?vid=6a7ba481-a30d-474a-8bb7-4161477695ef"},"vehicle_type_id":"4","last_reported":1733468969,"current_range_meters":36000,"station_id":"ce4bgt92rcd13ifvqcf0","pricing_plan_id":"cebpf4jnsgd1na2vs0mg"},{"bike_id":"618490aa-8c32-48ba-acdb-ee2ed1e7e611","system_id":"levelo_inurba_marseille","lat":43.28345,"lon":5.3811,"is_reserved":false,"is_disabled":false,"rental_uris":{"android":"levelo://app?vid=618490aa-8c32-48ba-acdb-ee2ed1e7e611","ios":"levelo://app?vid=618490aa-8c32-48ba-acdb-ee2ed1e7e611"},"vehicle_type_id":"4","last_reported":1733468969,"current_range_meters":37600,"station_id":"ce4bh412rcd13ifvqdr0","pricing_plan_id":"cebpf4jnsgd1na2vs0mg"},{"bike_id":"f18fe72a-83e9-400f-a204-2b768d98ef30","system_id":"levelo_inurba_marseille","lat":43.28349,"lon":5.38104,"is_reserved":false,"is_disabled":false,"rental_uris":{"android":"levelo://app?vid=f18fe72a-83e9-400f-a204-2b768d98ef30","ios":"levelo://app?vid=f18fe72a-83e9-400f-a204-2b768d98ef30"},"vehicle_type_id":"4","last_reported":1733468969,"current_range_meters":24400,"station_id":"ce4bh412rcd13ifvqdr0","pricing_plan_id":"cebpf4jnsgd1na2vs0mg"},{"bike_id":"e61507bd-6c23-47e9-9169-5af4aebdcfd8","system_id":"levelo_inurba_marseille","lat":43.30215,"lon":5.3948,"is_reserved":false,"is_disabled":false,"rental_uris":{"android":"levelo://app?vid=e61507bd-6c23-47e9-9169-5af4aebdcfd8","ios":"levelo://app?vid=e61507bd-6c23-47e9-9169-5af4aebdcfd8"},"vehicle_type_id":"4","last_reported":1733468969,"current_range_meters":36000,"station_id":"ce4bh0p2rcd13ifvqd70","pricing_plan_id":"cebpf4jnsgd1na2vs0mg"},{"bike_id":"b01ba929-1580-401b-973d-e4a15d746d4a","system_id":"levelo_inurba_marseille","lat":43.22937,"lon":5.35376,"is_reserved":false,"is_disabled":false,"rental_uris":{"android":"levelo://app?vid=b01ba929-1580-401b-973d-e4a15d746d4a","ios":"levelo://app?vid=b01ba929-1580-401b-973d-e4a15d746d4a"},"vehicle_type_id":"4","last_reported":1733468969,"current_range_meters":10000,"station_id":"cpo3532slgdg3j2ikp40","pricing_plan_id":"cebpf4jnsgd1na2vs0mg"},{"bike_id":"7519ef7a-d08a-49a3-a099-389c2c29dff3","system_id":"levelo_inurba_marseille","lat":43.31328,"lon":5.37033,"is_reserved":false,"is_disabled":true,"rental_uris":{"android":"levelo://app?vid=7519ef7a-d08a-49a3-a099-389c2c29dff3","ios":"levelo://app?vid=7519ef7a-d08a-49a3-a099-389c2c29dff3"},"vehicle_type_id":"4","last_reported":1733468969,"current_range_meters":0,"station_id":"","pricing_plan_id":"cebpf4jnsgd1na2vs0mg"},{"bike_id":"8c1e28b4-904f-48d7-ba6d-d3b5b5d05922","system_id":"levelo_inurba_marseille","lat":43.29384,"lon":5.40107,"is_reserved":false,"is_disabled":true,"rental_uris":{"android":"levelo://app?vid=8c1e28b4-904f-48d7-ba6d-d3b5b5d05922","ios":"levelo://app?vid=8c1e28b4-904f-48d7-ba6d-d3b5b5d05922"},"vehicle_type_id":"4","last_reported":1733468969,"current_range_meters":0,"station_id":"","pricing_plan_id":"cebpf4jnsgd1na2vs0mg"},{"bike_id":"7b9b3679-8df0-485d-a17a-ac62ea96167a","system_id":"levelo_inurba_marseille","lat":43.27982,"lon":5.38651,"is_reserved":false,"is_disabled":true,"rental_uris":{"android":"levelo://app?vid=7b9b3679-8df0-485d-a17a-ac62ea96167a","ios":"levelo://app?vid=7b9b3679-8df0-485d-a17a-ac62ea96167a"},"vehicle_type_id":"4","last_reported":1733468969,"current_range_meters":14800,"station_id":"","pricing_plan_id":"cebpf4jnsgd1na2vs0mg"},{"bike_id":"010f1ddc-a5dd-4595-9905-ebf82317a65f","system_id":"levelo_inurba_marseille","lat":43.33029,"lon":5.39041,"is_reserved":false,"is_disabled":false,"rental_uris":{"android":"levelo://app?vid=010f1ddc-a5dd-4595-9905-ebf82317a65f","ios":"levelo://app?vid=010f1ddc-a5dd-4595-9905-ebf82317a65f"},"vehicle_type_id":"4","last_reported":1733468969,"current_range_meters":38400,"station_id":"ce4bhr92rcd13ifvqhrg","pricing_plan_id":"cebpf4jnsgd1na2vs0mg"},{"bike_id":"71f13d62-80a1-4890-80ac-2cb9309adbf0","system_id":"levelo_inurba_marseille","lat":43.30782,"lon":5.37638,"is_reserved":false,"is_disabled":false,"rental_uris":{"android":"levelo://app?vid=71f13d62-80a1-4890-80ac-2cb9309adbf0","ios":"levelo://app?vid=71f13d62-80a1-4890-80ac-2cb9309adbf0"},"vehicle_type_id":"4","last_reported":1733468969,"current_range_meters":33200,"station_id":"ce4bgv92rcd13ifvqcq0","pricing_plan_id":"cebpf4jnsgd1na2vs0mg"},{"bike_id":"b31cbd43-28df-4ce4-88bb-fcf1f4f3a163","system_id":"levelo_inurba_marseille","lat":43.29708,"lon":5.36595,"is_reserved":false,"is_disabled":false,"rental_uris":{"android":"levelo://app?vid=b31cbd43-28df-4ce4-88bb-fcf1f4f3a163","ios":"levelo://app?vid=b31cbd43-28df-4ce4-88bb-fcf1f4f3a163"},"vehicle_type_id":"4","last_reported":1733468969,"current_range_meters":11600,"station_id":"ce4bgn12rcd13ifvqbt0","pricing_plan_id":"cebpf4jnsgd1na2vs0mg"},{"bike_id":"8c04ebb2-3f5e-4be4-b41e-51a7d97724c1","system_id":"levelo_inurba_marseille","lat":43.2922,"lon":5.36066,"is_reserved":false,"is_disabled":false,"rental_uris":{"android":"levelo://app?vid=8c04ebb2-3f5e-4be4-b41e-51a7d97724c1","ios":"levelo://app?vid=8c04ebb2-3f5e-4be4-b41e-51a7d97724c1"},"vehicle_type_id":"4","last_reported":1733468969,"current_range_meters":36400,"station_id":"ce4bhbh2rcd13ifvqeqg","pricing_plan_id":"cebpf4jnsgd1na2vs0mg"},{"bike_id":"0f43298a-5387-441e-bace-be121858a9fc","system_id":"levelo_inurba_marseille","lat":43.3117,"lon":5.38714,"is_reserved":false,"is_disabled":false,"rental_uris":{"android":"levelo://app?vid=0f43298a-5387-441e-bace-be121858a9fc","ios":"levelo://app?vid=0f43298a-5387-441e-bace-be121858a9fc"},"vehicle_type_id":"4","last_reported":1733468969,"current_range_meters":8000,"station_id":"ce4bgv12rcd13ifvqcp0","pricing_plan_id":"cebpf4jnsgd1na2vs0mg"},{"bike_id":"1ee74f47-c25e-4fca-8cea-1505429867e2","system_id":"levelo_inurba_marseille","lat":43.30313,"lon":5.39357,"is_reserved":false,"is_disabled":true,"rental_uris":{"android":"levelo://app?vid=1ee74f47-c25e-4fca-8cea-1505429867e2","ios":"levelo://app?vid=1ee74f47-c25e-4fca-8cea-1505429867e2"},"vehicle_type_id":"4","last_reported":1733468969,"current_range_meters":25600,"station_id":"","pricing_plan_id":"cebpf4jnsgd1na2vs0mg"},{"bike_id":"58f29f7f-b551-4264-9e3e-ea16f86c6a10","system_id":"levelo_inurba_marseille","lat":43.32659,"lon":5.40992,"is_reserved":false,"is_disabled":false,"rental_uris":{"android":"levelo://app?vid=58f29f7f-b551-4264-9e3e-ea16f86c6a10","ios":"levelo://app?vid=58f29f7f-b551-4264-9e3e-ea16f86c6a10"},"vehicle_type_id":"4","last_reported":1733468969,"current_range_meters":38800,"station_id":"ce4bhpp2rcd13ifvqhgg","pricing_plan_id":"cebpf4jnsgd1na2vs0mg"},{"bike_id":"8020cc46-c369-4132-a212-1aad5b4dadbd","system_id":"levelo_inurba_marseille","lat":43.29608,"lon":5.38104,"is_reserved":false,"is_disabled":false,"rental_uris":{"android":"levelo://app?vid=8020cc46-c369-4132-a212-1aad5b4dadbd","ios":"levelo://app?vid=8020cc46-c369-4132-a212-1aad5b4dadbd"},"vehicle_type_id":"4","last_reported":1733468969,"current_range_meters":37600,"station_id":"ce4bgl12rcd13ifvqbo0","pricing_plan_id":"cebpf4jnsgd1na2vs0mg"},{"bike_id":"1f41adbd-b25d-46c6-8a53-e4ecdbbf967f","system_id":"levelo_inurba_marseille","lat":43.24071,"lon":5.37764,"is_reserved":false,"is_disabled":false,"rental_uris":{"android":"levelo://app?vid=1f41adbd-b25d-46c6-8a53-e4ecdbbf967f","ios":"levelo://app?vid=1f41adbd-b25d-46c6-8a53-e4ecdbbf967f"},"vehicle_type_id":"4","last_reported":1733468969,"current_range_meters":17200,"station_id":"ce4bhnp2rcd13ifvqgvg","pricing_plan_id":"cebpf4jnsgd1na2vs0mg"},{"bike_id":"3e592e74-64b6-427b-a9f3-9c85b0d07de7","system_id":"levelo_inurba_marseille","lat":43.23195,"lon":5.39981,"is_reserved":false,"is_disabled":false,"rental_uris":{"android":"levelo://app?vid=3e592e74-64b6-427b-a9f3-9c85b0d07de7","ios":"levelo://app?vid=3e592e74-64b6-427b-a9f3-9c85b0d07de7"},"vehicle_type_id":"4","last_reported":1733468969,"current_range_meters":25200,"station_id":"ce4bhn12rcd13ifvqgqg","pricing_plan_id":"cebpf4jnsgd1na2vs0mg"},{"bike_id":"1223cd63-2d39-4ea8-96db-3ee79f668f4b","system_id":"levelo_inurba_marseille","lat":43.24078,"lon":5.37758,"is_reserved":false,"is_disabled":false,"rental_uris":{"android":"levelo://app?vid=1223cd63-2d39-4ea8-96db-3ee79f668f4b","ios":"levelo://app?vid=1223cd63-2d39-4ea8-96db-3ee79f668f4b"},"vehicle_type_id":"4","last_reported":1733468969,"current_range_meters":28800,"station_id":"ce4bhnp2rcd13ifvqgvg","pricing_plan_id":"cebpf4jnsgd1na2vs0mg"},{"bike_id":"c8b64f51-4209-4250-8973-f730958abcc1","system_id":"levelo_inurba_marseille","lat":43.28949,"lon":5.36402,"is_reserved":false,"is_disabled":false,"rental_uris":{"android":"levelo://app?vid=c8b64f51-4209-4250-8973-f730958abcc1","ios":"levelo://app?vid=c8b64f51-4209-4250-8973-f730958abcc1"},"vehicle_type_id":"4","last_reported":1733468969,"current_range_meters":35200,"station_id":"ce4bhc92rcd13ifvqetg","pricing_plan_id":"cebpf4jnsgd1na2vs0mg"},{"bike_id":"0ada4ac8-82be-41ab-a4d6-04558624c236","system_id":"levelo_inurba_marseille","lat":43.32488,"lon":5.36555,"is_reserved":false,"is_disabled":false,"rental_uris":{"android":"levelo://app?vid=0ada4ac8-82be-41ab-a4d6-04558624c236","ios":"levelo://app?vid=0ada4ac8-82be-41ab-a4d6-04558624c236"},"vehicle_type_id":"4","last_reported":1733468969,"current_range_meters":28000,"station_id":"ce4bhs12rcd13ifvqhvg","pricing_plan_id":"cebpf4jnsgd1na2vs0mg"},{"bike_id":"884aad3b-fa16-412e-b47f-a0bbc0e36dec","system_id":"levelo_inurba_marseille","lat":43.27498,"lon":5.42451,"is_reserved":false,"is_disabled":false,"rental_uris":{"android":"levelo://app?vid=884aad3b-fa16-412e-b47f-a0bbc0e36dec","ios":"levelo://app?vid=884aad3b-fa16-412e-b47f-a0bbc0e36dec"},"vehicle_type_id":"4","last_reported":1733468969,"current_range_meters":6800,"station_id":"ce4bhn92rcd13ifvqgrg","pricing_plan_id":"cebpf4jnsgd1na2vs0mg"},{"bike_id":"710c9d13-8a64-4ca7-ba64-fd3194714b19","system_id":"levelo_inurba_marseille","lat":43.308,"lon":5.37323,"is_reserved":false,"is_disabled":false,"rental_uris":{"android":"levelo://app?vid=710c9d13-8a64-4ca7-ba64-fd3194714b19","ios":"levelo://app?vid=710c9d13-8a64-4ca7-ba64-fd3194714b19"},"vehicle_type_id":"4","last_reported":1733468969,"current_range_meters":17600,"station_id":"","pricing_plan_id":"cebpf4jnsgd1na2vs0mg"},{"bike_id":"a4b9e425-64b8-4ce2-a5ab-5fcc5d1230a4","system_id":"levelo_inurba_marseille","lat":43.32112,"lon":5.36773,"is_reserved":false,"is_disabled":false,"rental_uris":{"android":"levelo://app?vid=a4b9e425-64b8-4ce2-a5ab-5fcc5d1230a4","ios":"levelo://app?vid=a4b9e425-64b8-4ce2-a5ab-5fcc5d1230a4"},"vehicle_type_id":"4","last_reported":1733468969,"current_range_meters":31200,"station_id":"ce4bhrh2rcd13ifvqhug","pricing_plan_id":"cebpf4jnsgd1na2vs0mg"},{"bike_id":"51991a0a-fe9c-412b-8c2b-242ee7813ef4","system_id":"levelo_inurba_marseille","lat":43.23973,"lon":5.36622,"is_reserved":false,"is_disabled":false,"rental_uris":{"android":"levelo://app?vid=51991a0a-fe9c-412b-8c2b-242ee7813ef4","ios":"levelo://app?vid=51991a0a-fe9c-412b-8c2b-242ee7813ef4"},"vehicle_type_id":"4","last_reported":1733468969,"current_range_meters":38800,"station_id":"ce4bhi12rcd13ifvqfp0","pricing_plan_id":"cebpf4jnsgd1na2vs0mg"},{"bike_id":"fd98eaa9-4d55-4e7b-aa90-0d14707466d9","system_id":"levelo_inurba_marseille","lat":43.337444,"lon":5.374475,"is_reserved":false,"is_disabled":true,"rental_uris":{"android":"levelo://app?vid=fd98eaa9-4d55-4e7b-aa90-0d14707466d9","ios":"levelo://app?vid=fd98eaa9-4d55-4e7b-aa90-0d14707466d9"},"vehicle_type_id":"4","last_reported":1733468969,"current_range_meters":0,"station_id":"","pricing_plan_id":"cebpf4jnsgd1na2vs0mg"},{"bike_id":"24057b42-d926-437e-abe0-7622391c98ba","system_id":"levelo_inurba_marseille","lat":43.30803,"lon":5.38137,"is_reserved":false,"is_disabled":false,"rental_uris":{"android":"levelo://app?vid=24057b42-d926-437e-abe0-7622391c98ba","ios":"levelo://app?vid=24057b42-d926-437e-abe0-7622391c98ba"},"vehicle_type_id":"4","last_reported":1733468969,"current_range_meters":38800,"station_id":"ce4bgt12rcd13ifvqce0","pricing_plan_id":"cebpf4jnsgd1na2vs0mg"},{"bike_id":"7739e7e5-bcce-43a6-9d41-f90a9ba836ed","system_id":"levelo_inurba_marseille","lat":43.29597,"lon":5.38087,"is_reserved":false,"is_disabled":true,"rental_uris":{"android":"levelo://app?vid=7739e7e5-bcce-43a6-9d41-f90a9ba836ed","ios":"levelo://app?vid=7739e7e5-bcce-43a6-9d41-f90a9ba836ed"},"vehicle_type_id":"4","last_reported":1733468969,"current_range_meters":0,"station_id":"ce4bgl12rcd13ifvqbo0","pricing_plan_id":"cebpf4jnsgd1na2vs0mg"},{"bike_id":"e25dc6e3-1f83-4e32-ad60-7f8ea4cb5b47","system_id":"levelo_inurba_marseille","lat":43.29794,"lon":5.39351,"is_reserved":false,"is_disabled":true,"rental_uris":{"android":"levelo://app?vid=e25dc6e3-1f83-4e32-ad60-7f8ea4cb5b47","ios":"levelo://app?vid=e25dc6e3-1f83-4e32-ad60-7f8ea4cb5b47"},"vehicle_type_id":"4","last_reported":1733468969,"current_range_meters":0,"station_id":"chh1huq6cuj3fo74tm60","pricing_plan_id":"cebpf4jnsgd1na2vs0mg"},{"bike_id":"9f166179-3cc0-42ca-860b-06242525cca2","system_id":"levelo_inurba_marseille","lat":43.31995,"lon":5.4156,"is_reserved":false,"is_disabled":false,"rental_uris":{"android":"levelo://app?vid=9f166179-3cc0-42ca-860b-06242525cca2","ios":"levelo://app?vid=9f166179-3cc0-42ca-860b-06242525cca2"},"vehicle_type_id":"4","last_reported":1733468969,"current_range_meters":31200,"station_id":"","pricing_plan_id":"cebpf4jnsgd1na2vs0mg"},{"bike_id":"28e2f9bb-118f-4166-8351-fa7d19d4769b","system_id":"levelo_inurba_marseille","lat":43.28949,"lon":5.36405,"is_reserved":false,"is_disabled":false,"rental_uris":{"android":"levelo://app?vid=28e2f9bb-118f-4166-8351-fa7d19d4769b","ios":"levelo://app?vid=28e2f9bb-118f-4166-8351-fa7d19d4769b"},"vehicle_type_id":"4","last_reported":1733468969,"current_range_meters":19200,"station_id":"ce4bhc92rcd13ifvqetg","pricing_plan_id":"cebpf4jnsgd1na2vs0mg"},{"bike_id":"c2d8a1c2-d166-4a36-b32f-beec95c93bd5","system_id":"levelo_inurba_marseille","lat":43.33756,"lon":5.37459,"is_reserved":false,"is_disabled":false,"rental_uris":{"android":"levelo://app?vid=c2d8a1c2-d166-4a36-b32f-beec95c93bd5","ios":"levelo://app?vid=c2d8a1c2-d166-4a36-b32f-beec95c93bd5"},"vehicle_type_id":"4","last_reported":1733468969,"current_range_meters":6000,"station_id":"","pricing_plan_id":"cebpf4jnsgd1na2vs0mg"},{"bike_id":"8913fb41-525f-4224-bfdc-85c24d921c34","system_id":"levelo_inurba_marseille","lat":43.284826,"lon":5.384122,"is_reserved":false,"is_disabled":false,"rental_uris":{"android":"levelo://app?vid=8913fb41-525f-4224-bfdc-85c24d921c34","ios":"levelo://app?vid=8913fb41-525f-4224-bfdc-85c24d921c34"},"vehicle_type_id":"4","last_reported":1733468969,"current_range_meters":36800,"station_id":"ce4bhhh2rcd13ifvqfk0","pricing_plan_id":"cebpf4jnsgd1na2vs0mg"},{"bike_id":"f64a47b2-d4e2-4351-9014-4a9126a5c6bd","system_id":"levelo_inurba_marseille","lat":43.24641,"lon":5.38904,"is_reserved":false,"is_disabled":false,"rental_uris":{"android":"levelo://app?vid=f64a47b2-d4e2-4351-9014-4a9126a5c6bd","ios":"levelo://app?vid=f64a47b2-d4e2-4351-9014-4a9126a5c6bd"},"vehicle_type_id":"4","last_reported":1733468969,"current_range_meters":16800,"station_id":"ce4bhg12rcd13ifvqf60","pricing_plan_id":"cebpf4jnsgd1na2vs0mg"},{"bike_id":"71b9d6f6-95d1-40e5-a2c1-a7d32362d154","system_id":"levelo_inurba_marseille","lat":43.29793,"lon":5.38094,"is_reserved":false,"is_disabled":false,"rental_uris":{"android":"levelo://app?vid=71b9d6f6-95d1-40e5-a2c1-a7d32362d154","ios":"levelo://app?vid=71b9d6f6-95d1-40e5-a2c1-a7d32362d154"},"vehicle_type_id":"4","last_reported":1733468969,"current_range_meters":8400,"station_id":"ce4bgip2rcd13ifvqbb0","pricing_plan_id":"cebpf4jnsgd1na2vs0mg"},{"bike_id":"8e9f116f-f791-472c-bd72-fd8594d56283","system_id":"levelo_inurba_marseille","lat":43.25116,"lon":5.40318,"is_reserved":false,"is_disabled":false,"rental_uris":{"android":"levelo://app?vid=8e9f116f-f791-472c-bd72-fd8594d56283","ios":"levelo://app?vid=8e9f116f-f791-472c-bd72-fd8594d56283"},"vehicle_type_id":"4","last_reported":1733468969,"current_range_meters":35200,"station_id":"ce4bhlh2rcd13ifvqgig","pricing_plan_id":"cebpf4jnsgd1na2vs0mg"},{"bike_id":"8b860a03-d690-40c5-bcbc-3838c7a66a48","system_id":"levelo_inurba_marseille","lat":43.31167,"lon":5.38703,"is_reserved":false,"is_disabled":false,"rental_uris":{"android":"levelo://app?vid=8b860a03-d690-40c5-bcbc-3838c7a66a48","ios":"levelo://app?vid=8b860a03-d690-40c5-bcbc-3838c7a66a48"},"vehicle_type_id":"4","last_reported":1733468969,"current_range_meters":29600,"station_id":"ce4bgv12rcd13ifvqcp0","pricing_plan_id":"cebpf4jnsgd1na2vs0mg"},{"bike_id":"e8d25b9b-2f6f-4f7f-8bc4-2102c4e24b79","system_id":"levelo_inurba_marseille","lat":43.2844,"lon":5.3918,"is_reserved":false,"is_disabled":false,"rental_uris":{"android":"levelo://app?vid=e8d25b9b-2f6f-4f7f-8bc4-2102c4e24b79","ios":"levelo://app?vid=e8d25b9b-2f6f-4f7f-8bc4-2102c4e24b79"},"vehicle_type_id":"4","last_reported":1733468969,"current_range_meters":38000,"station_id":"ce4bhoh2rcd13ifvqh5g","pricing_plan_id":"cebpf4jnsgd1na2vs0mg"},{"bike_id":"dce35d6a-08b0-4b4c-b89b-7b5e69e85874","system_id":"levelo_inurba_marseille","lat":43.32443,"lon":5.36373,"is_reserved":false,"is_disabled":false,"rental_uris":{"android":"levelo://app?vid=dce35d6a-08b0-4b4c-b89b-7b5e69e85874","ios":"levelo://app?vid=dce35d6a-08b0-4b4c-b89b-7b5e69e85874"},"vehicle_type_id":"4","last_reported":1733468969,"current_range_meters":7200,"station_id":"","pricing_plan_id":"cebpf4jnsgd1na2vs0mg"},{"bike_id":"37727576-2d28-4525-b065-40affdaee0f8","system_id":"levelo_inurba_marseille","lat":43.32322,"lon":5.38905,"is_reserved":false,"is_disabled":false,"rental_uris":{"android":"levelo://app?vid=37727576-2d28-4525-b065-40affdaee0f8","ios":"levelo://app?vid=37727576-2d28-4525-b065-40affdaee0f8"},"vehicle_type_id":"4","last_reported":1733468969,"current_range_meters":36400,"station_id":"","pricing_plan_id":"cebpf4jnsgd1na2vs0mg"},{"bike_id":"547a52a0-874e-4115-b932-82235978e25d","system_id":"levelo_inurba_marseille","lat":43.28419,"lon":5.34988,"is_reserved":false,"is_disabled":false,"rental_uris":{"android":"levelo://app?vid=547a52a0-874e-4115-b932-82235978e25d","ios":"levelo://app?vid=547a52a0-874e-4115-b932-82235978e25d"},"vehicle_type_id":"4","last_reported":1733468969,"current_range_meters":16400,"station_id":"ce4bhbh2rcd13ifvqepg","pricing_plan_id":"cebpf4jnsgd1na2vs0mg"},{"bike_id":"737bdef3-e4f9-4d42-9b3b-45164c8dc58f","system_id":"levelo_inurba_marseille","lat":43.24074,"lon":5.37712,"is_reserved":false,"is_disabled":true,"rental_uris":{"android":"levelo://app?vid=737bdef3-e4f9-4d42-9b3b-45164c8dc58f","ios":"levelo://app?vid=737bdef3-e4f9-4d42-9b3b-45164c8dc58f"},"vehicle_type_id":"4","last_reported":1733468969,"current_range_meters":9200,"station_id":"ce4bhnp2rcd13ifvqgvg","pricing_plan_id":"cebpf4jnsgd1na2vs0mg"},{"bike_id":"46d20611-3314-4fb8-be25-81474c35cbab","system_id":"levelo_inurba_marseille","lat":43.30592,"lon":5.39358,"is_reserved":false,"is_disabled":false,"rental_uris":{"android":"levelo://app?vid=46d20611-3314-4fb8-be25-81474c35cbab","ios":"levelo://app?vid=46d20611-3314-4fb8-be25-81474c35cbab"},"vehicle_type_id":"4","last_reported":1733468969,"current_range_meters":8400,"station_id":"ce4bh0p2rcd13ifvqd80","pricing_plan_id":"cebpf4jnsgd1na2vs0mg"},{"bike_id":"741d8d76-4ba7-420e-825b-91cda2dd1a00","system_id":"levelo_inurba_marseille","lat":43.25725,"lon":5.41112,"is_reserved":false,"is_disabled":false,"rental_uris":{"android":"levelo://app?vid=741d8d76-4ba7-420e-825b-91cda2dd1a00","ios":"levelo://app?vid=741d8d76-4ba7-420e-825b-91cda2dd1a00"},"vehicle_type_id":"4","last_reported":1733468969,"current_range_meters":22400,"station_id":"ce4bhkp2rcd13ifvqgd0","pricing_plan_id":"cebpf4jnsgd1na2vs0mg"},{"bike_id":"918cec19-6e0f-4eac-9934-08e343291c9e","system_id":"levelo_inurba_marseille","lat":43.291815,"lon":5.358106,"is_reserved":false,"is_disabled":false,"rental_uris":{"android":"levelo://app?vid=918cec19-6e0f-4eac-9934-08e343291c9e","ios":"levelo://app?vid=918cec19-6e0f-4eac-9934-08e343291c9e"},"vehicle_type_id":"4","last_reported":1733468969,"current_range_meters":15200,"station_id":"ce4bhb12rcd13ifvqel0","pricing_plan_id":"cebpf4jnsgd1na2vs0mg"},{"bike_id":"4c731081-4465-4ee0-a99d-5a9339d6530d","system_id":"levelo_inurba_marseille","lat":43.23359,"lon":5.43595,"is_reserved":false,"is_disabled":false,"rental_uris":{"android":"levelo://app?vid=4c731081-4465-4ee0-a99d-5a9339d6530d","ios":"levelo://app?vid=4c731081-4465-4ee0-a99d-5a9339d6530d"},"vehicle_type_id":"4","last_reported":1733468969,"current_range_meters":22400,"station_id":"ce4bhmp2rcd13ifvqgog","pricing_plan_id":"cebpf4jnsgd1na2vs0mg"},{"bike_id":"7cec87ae-5cf8-4ac3-b0bf-8d42d1422b1f","system_id":"levelo_inurba_marseille","lat":43.30446,"lon":5.40719,"is_reserved":false,"is_disabled":false,"rental_uris":{"android":"levelo://app?vid=7cec87ae-5cf8-4ac3-b0bf-8d42d1422b1f","ios":"levelo://app?vid=7cec87ae-5cf8-4ac3-b0bf-8d42d1422b1f"},"vehicle_type_id":"4","last_reported":1733468969,"current_range_meters":36400,"station_id":"","pricing_plan_id":"cebpf4jnsgd1na2vs0mg"},{"bike_id":"a6e158cf-77f1-4390-aad2-53120c9f5184","system_id":"levelo_inurba_marseille","lat":43.32661,"lon":5.40989,"is_reserved":false,"is_disabled":false,"rental_uris":{"android":"levelo://app?vid=a6e158cf-77f1-4390-aad2-53120c9f5184","ios":"levelo://app?vid=a6e158cf-77f1-4390-aad2-53120c9f5184"},"vehicle_type_id":"4","last_reported":1733468969,"current_range_meters":39200,"station_id":"ce4bhpp2rcd13ifvqhgg","pricing_plan_id":"cebpf4jnsgd1na2vs0mg"},{"bike_id":"06fa5d7c-3b9b-4c5d-a878-9f9d07eac2da","system_id":"levelo_inurba_marseille","lat":43.27953,"lon":5.41048,"is_reserved":false,"is_disabled":false,"rental_uris":{"android":"levelo://app?vid=06fa5d7c-3b9b-4c5d-a878-9f9d07eac2da","ios":"levelo://app?vid=06fa5d7c-3b9b-4c5d-a878-9f9d07eac2da"},"vehicle_type_id":"4","last_reported":1733468969,"current_range_meters":34000,"station_id":"ce4bhnp2rcd13ifvqh0g","pricing_plan_id":"cebpf4jnsgd1na2vs0mg"},{"bike_id":"03bc0aa0-51b3-47d6-a417-6c2f75dce01f","system_id":"levelo_inurba_marseille","lat":43.25109,"lon":5.40322,"is_reserved":false,"is_disabled":false,"rental_uris":{"android":"levelo://app?vid=03bc0aa0-51b3-47d6-a417-6c2f75dce01f","ios":"levelo://app?vid=03bc0aa0-51b3-47d6-a417-6c2f75dce01f"},"vehicle_type_id":"4","last_reported":1733468969,"current_range_meters":35600,"station_id":"ce4bhlh2rcd13ifvqgig","pricing_plan_id":"cebpf4jnsgd1na2vs0mg"},{"bike_id":"53a479d8-ac12-4272-806e-9ff2e96dfe1b","system_id":"levelo_inurba_marseille","lat":43.25823,"lon":5.3944,"is_reserved":false,"is_disabled":false,"rental_uris":{"android":"levelo://app?vid=53a479d8-ac12-4272-806e-9ff2e96dfe1b","ios":"levelo://app?vid=53a479d8-ac12-4272-806e-9ff2e96dfe1b"},"vehicle_type_id":"4","last_reported":1733468969,"current_range_meters":36400,"station_id":"ce4bhip2rcd13ifvqft0","pricing_plan_id":"cebpf4jnsgd1na2vs0mg"},{"bike_id":"0e3ede38-8cac-4c76-a1d5-88c91626d867","system_id":"levelo_inurba_marseille","lat":43.28737,"lon":5.36081,"is_reserved":false,"is_disabled":false,"rental_uris":{"android":"levelo://app?vid=0e3ede38-8cac-4c76-a1d5-88c91626d867","ios":"levelo://app?vid=0e3ede38-8cac-4c76-a1d5-88c91626d867"},"vehicle_type_id":"4","last_reported":1733468969,"current_range_meters":36000,"station_id":"cki0cbj6b192h4jlfktg","pricing_plan_id":"cebpf4jnsgd1na2vs0mg"},{"bike_id":"7cd07970-1b1c-41d6-adb6-cac1bd6cbafa","system_id":"levelo_inurba_marseille","lat":43.33602,"lon":5.41026,"is_reserved":false,"is_disabled":false,"rental_uris":{"android":"levelo://app?vid=7cd07970-1b1c-41d6-adb6-cac1bd6cbafa","ios":"levelo://app?vid=7cd07970-1b1c-41d6-adb6-cac1bd6cbafa"},"vehicle_type_id":"4","last_reported":1733468969,"current_range_meters":17600,"station_id":"ce4bhqh2rcd13ifvqhmg","pricing_plan_id":"cebpf4jnsgd1na2vs0mg"},{"bike_id":"21c61b3f-2ae1-41ed-96e8-21fc1b01a387","system_id":"levelo_inurba_marseille","lat":43.300854,"lon":5.372439,"is_reserved":false,"is_disabled":false,"rental_uris":{"android":"levelo://app?vid=21c61b3f-2ae1-41ed-96e8-21fc1b01a387","ios":"levelo://app?vid=21c61b3f-2ae1-41ed-96e8-21fc1b01a387"},"vehicle_type_id":"4","last_reported":1733468969,"current_range_meters":11600,"station_id":"","pricing_plan_id":"cebpf4jnsgd1na2vs0mg"},{"bike_id":"f51684b7-fd29-4622-9efb-7a87c0a48d7b","system_id":"levelo_inurba_marseille","lat":43.24394,"lon":5.37055,"is_reserved":false,"is_disabled":true,"rental_uris":{"android":"levelo://app?vid=f51684b7-fd29-4622-9efb-7a87c0a48d7b","ios":"levelo://app?vid=f51684b7-fd29-4622-9efb-7a87c0a48d7b"},"vehicle_type_id":"4","last_reported":1733468969,"current_range_meters":25200,"station_id":"ce4bhhh2rcd13ifvqfk0","pricing_plan_id":"cebpf4jnsgd1na2vs0mg"},{"bike_id":"6e830724-e8ae-4878-aab3-26ab4606af00","system_id":"levelo_inurba_marseille","lat":43.31369,"lon":5.385,"is_reserved":false,"is_disabled":false,"rental_uris":{"android":"levelo://app?vid=6e830724-e8ae-4878-aab3-26ab4606af00","ios":"levelo://app?vid=6e830724-e8ae-4878-aab3-26ab4606af00"},"vehicle_type_id":"4","last_reported":1733468969,"current_range_meters":4800,"station_id":"ce4bgt92rcd13ifvqcf0","pricing_plan_id":"cebpf4jnsgd1na2vs0mg"},{"bike_id":"3a9149f3-357c-4d0a-859b-18382ef024a5","system_id":"levelo_inurba_marseille","lat":43.32114,"lon":5.36767,"is_reserved":false,"is_disabled":false,"rental_uris":{"android":"levelo://app?vid=3a9149f3-357c-4d0a-859b-18382ef024a5","ios":"levelo://app?vid=3a9149f3-357c-4d0a-859b-18382ef024a5"},"vehicle_type_id":"4","last_reported":1733468969,"current_range_meters":20000,"station_id":"ce4bhrh2rcd13ifvqhug","pricing_plan_id":"cebpf4jnsgd1na2vs0mg"},{"bike_id":"bbcbfa71-d8f5-4b8e-9040-d67356b9ece4","system_id":"levelo_inurba_marseille","lat":43.313561,"lon":5.384994,"is_reserved":false,"is_disabled":true,"rental_uris":{"android":"levelo://app?vid=bbcbfa71-d8f5-4b8e-9040-d67356b9ece4","ios":"levelo://app?vid=bbcbfa71-d8f5-4b8e-9040-d67356b9ece4"},"vehicle_type_id":"4","last_reported":1733468969,"current_range_meters":8000,"station_id":"ce4bgt92rcd13ifvqcf0","pricing_plan_id":"cebpf4jnsgd1na2vs0mg"},{"bike_id":"868a434e-7c11-4b20-84c6-7ecdbf24c83b","system_id":"levelo_inurba_marseille","lat":43.33025,"lon":5.39032,"is_reserved":false,"is_disabled":false,"rental_uris":{"android":"levelo://app?vid=868a434e-7c11-4b20-84c6-7ecdbf24c83b","ios":"levelo://app?vid=868a434e-7c11-4b20-84c6-7ecdbf24c83b"},"vehicle_type_id":"4","last_reported":1733468969,"current_range_meters":28400,"station_id":"ce4bhr92rcd13ifvqhrg","pricing_plan_id":"cebpf4jnsgd1na2vs0mg"},{"bike_id":"22e63b32-e3f1-46e0-9426-cffc06ee9a15","system_id":"levelo_inurba_marseille","lat":43.27848,"lon":5.39202,"is_reserved":false,"is_disabled":false,"rental_uris":{"android":"levelo://app?vid=22e63b32-e3f1-46e0-9426-cffc06ee9a15","ios":"levelo://app?vid=22e63b32-e3f1-46e0-9426-cffc06ee9a15"},"vehicle_type_id":"4","last_reported":1733468969,"current_range_meters":16400,"station_id":"ce4bhjp2rcd13ifvqga0","pricing_plan_id":"cebpf4jnsgd1na2vs0mg"},{"bike_id":"d953956a-b4c2-4aa4-aa89-e6522964bddb","system_id":"levelo_inurba_marseille","lat":43.30273,"lon":5.37686,"is_reserved":false,"is_disabled":false,"rental_uris":{"android":"levelo://app?vid=d953956a-b4c2-4aa4-aa89-e6522964bddb","ios":"levelo://app?vid=d953956a-b4c2-4aa4-aa89-e6522964bddb"},"vehicle_type_id":"4","last_reported":1733468969,"current_range_meters":38800,"station_id":"ce4bguh2rcd13ifvqcj0","pricing_plan_id":"cebpf4jnsgd1na2vs0mg"},{"bike_id":"98df377c-5b46-4a4e-a80e-95ded7d1b7b9","system_id":"levelo_inurba_marseille","lat":43.29023,"lon":5.38645,"is_reserved":false,"is_disabled":true,"rental_uris":{"android":"levelo://app?vid=98df377c-5b46-4a4e-a80e-95ded7d1b7b9","ios":"levelo://app?vid=98df377c-5b46-4a4e-a80e-95ded7d1b7b9"},"vehicle_type_id":"4","last_reported":1733468969,"current_range_meters":24800,"station_id":"ce4bh4p2rcd13ifvqe0g","pricing_plan_id":"cebpf4jnsgd1na2vs0mg"},{"bike_id":"adc3094e-4e60-4297-a699-63e661661328","system_id":"levelo_inurba_marseille","lat":43.29914,"lon":5.3813,"is_reserved":false,"is_disabled":true,"rental_uris":{"android":"levelo://app?vid=adc3094e-4e60-4297-a699-63e661661328","ios":"levelo://app?vid=adc3094e-4e60-4297-a699-63e661661328"},"vehicle_type_id":"4","last_reported":1733468969,"current_range_meters":0,"station_id":"ce4bgj12rcd13ifvqbc0","pricing_plan_id":"cebpf4jnsgd1na2vs0mg"},{"bike_id":"da6a7a1d-e653-4950-af8c-8137b06f7d40","system_id":"levelo_inurba_marseille","lat":43.3004,"lon":5.37551,"is_reserved":false,"is_disabled":true,"rental_uris":{"android":"levelo://app?vid=da6a7a1d-e653-4950-af8c-8137b06f7d40","ios":"levelo://app?vid=da6a7a1d-e653-4950-af8c-8137b06f7d40"},"vehicle_type_id":"4","last_reported":1733468969,"current_range_meters":0,"station_id":"","pricing_plan_id":"cebpf4jnsgd1na2vs0mg"},{"bike_id":"b1ce4e53-59d1-4dc6-bd81-38e823b0b8a9","system_id":"levelo_inurba_marseille","lat":43.29422,"lon":5.38603,"is_reserved":false,"is_disabled":true,"rental_uris":{"android":"levelo://app?vid=b1ce4e53-59d1-4dc6-bd81-38e823b0b8a9","ios":"levelo://app?vid=b1ce4e53-59d1-4dc6-bd81-38e823b0b8a9"},"vehicle_type_id":"4","last_reported":1733468969,"current_range_meters":0,"station_id":"ce4bh2h2rcd13ifvqdh0","pricing_plan_id":"cebpf4jnsgd1na2vs0mg"},{"bike_id":"bbe0003e-72b9-45c4-a189-9e0238d0c8a4","system_id":"levelo_inurba_marseille","lat":43.30597,"lon":5.3936,"is_reserved":false,"is_disabled":false,"rental_uris":{"android":"levelo://app?vid=bbe0003e-72b9-45c4-a189-9e0238d0c8a4","ios":"levelo://app?vid=bbe0003e-72b9-45c4-a189-9e0238d0c8a4"},"vehicle_type_id":"4","last_reported":1733468969,"current_range_meters":29600,"station_id":"ce4bh0p2rcd13ifvqd80","pricing_plan_id":"cebpf4jnsgd1na2vs0mg"},{"bike_id":"767fbe90-c029-4307-9995-860fe7a4fb1a","system_id":"levelo_inurba_marseille","lat":43.28479,"lon":5.3841,"is_reserved":false,"is_disabled":false,"rental_uris":{"android":"levelo://app?vid=767fbe90-c029-4307-9995-860fe7a4fb1a","ios":"levelo://app?vid=767fbe90-c029-4307-9995-860fe7a4fb1a"},"vehicle_type_id":"4","last_reported":1733468969,"current_range_meters":6400,"station_id":"ce4bh512rcd13ifvqe3g","pricing_plan_id":"cebpf4jnsgd1na2vs0mg"},{"bike_id":"0224f1d3-a86a-41cc-95e3-1e33af87b767","system_id":"levelo_inurba_marseille","lat":43.29655,"lon":5.40629,"is_reserved":false,"is_disabled":false,"rental_uris":{"android":"levelo://app?vid=0224f1d3-a86a-41cc-95e3-1e33af87b767","ios":"levelo://app?vid=0224f1d3-a86a-41cc-95e3-1e33af87b767"},