{"last_updated":1747260475,"ttl":60,"version":"2.2","data":{"bikes":[{"bike_id":"96a3bef0-f3d8-4307-a833-5c4821b9d3a0","system_id":"levelo_inurba_marseille","lat":43.29267,"lon":5.40905,"is_reserved":false,"is_disabled":false,"rental_uris":{"android":"levelo://app?vid=96a3bef0-f3d8-4307-a833-5c4821b9d3a0","ios":"levelo://app?vid=96a3bef0-f3d8-4307-a833-5c4821b9d3a0"},"vehicle_type_id":"4","last_reported":1747260475,"current_range_meters":2800,"station_id":"ce4bh192rcd13ifvqdc0","pricing_plan_id":"cebpf4jnsgd1na2vs0mg"},{"bike_id":"96d0275a-ccec-4de6-ad25-67ea77d4c332","system_id":"levelo_inurba_marseille","lat":43.297727,"lon":5.400383,"is_reserved":false,"is_disabled":false,"rental_uris":{"android":"levelo://app?vid=96d0275a-ccec-4de6-ad25-67ea77d4c332","ios":"levelo://app?vid=96d0275a-ccec-4de6-ad25-67ea77d4c332"},"vehicle_type_id":"4","last_reported":1747260475,"current_range_meters":4000,"station_id":"","pricing_plan_id":"cebpf4jnsgd1na2vs0mg"},{"bike_id":"e70f9b78-8a17-4bd2-b715-1dccac37e12e","system_id":"levelo_inurba_marseille","lat":43.29378,"lon":5.37872,"is_reserved":false,"is_disabled":false,"rental_uris":{"android":"levelo://app?vid=e70f9b78-8a17-4bd2-b715-1dccac37e12e","ios":"levelo://app?vid=e70f9b78-8a17-4bd2-b715-1dccac37e12e"},"vehicle_type_id":"4","last_reported":1747260475,"current_range_meters":4000,"station_id":"ce4bgjh2rcd13ifvqbf0","pricing_plan_id":"cebpf4jnsgd1na2vs0mg"},{"bike_id":"6c0c1c26-4d1d-42d5-9806-592a7df4a860","system_id":"levelo_inurba_marseille","lat":43.287,"lon":5.37397,"is_reserved":false,"is_disabled":false,"rental_uris":{"android":"levelo://app?vid=6c0c1c26-4d1d-42d5-9806-592a7df4a860","ios":"levelo://app?vid=6c0c1c26-4d1d-42d5-9806-592a7df4a860"},"vehicle_type_id":"4","last_reported":1747260475,"current_range_meters":4400,"station_id":"ce4bh3p2rcd13ifvqdq0","pricing_plan_id":"cebpf4jnsgd1na2vs0mg"},{"bike_id":"b6089a2b-dc15-42d8-9f03-c16ad6ebeca3","system_id":"levelo_inurba_marseille","lat":43.24175,"lon":5.364011,"is_reserved":false,"is_disabled":false,"rental_uris":{"android":"levelo://app?vid=b6089a2b-dc15-42d8-9f03-c16ad6ebeca3","ios":"levelo://app?vid=b6089a2b-dc15-42d8-9f03-c16ad6ebeca3"},"vehicle_type_id":"4","last_reported":1747260475,"current_range_meters":4400,"station_id":"cpo36qri1sfpv3e86is0","pricing_plan_id":"cebpf4jnsgd1na2vs0mg"},{"bike_id":"fcc4ef96-c15e-4bef-9606-819e508051db","system_id":"levelo_inurba_marseille","lat":43.26238,"lon":5.42124,"is_reserved":false,"is_disabled":false,"rental_uris":{"android":"levelo://app?vid=fcc4ef96-c15e-4bef-9606-819e508051db","ios":"levelo://app?vid=fcc4ef96-c15e-4bef-9606-819e508051db"},"vehicle_type_id":"4","last_reported":1747260475,"current_range_meters":4400,"station_id":"","pricing_plan_id":"cebpf4jnsgd1na2vs0mg"},{"bike_id":"95b9651b-24ca-40ef-a319-3d06e507e536","system_id":"levelo_inurba_marseille","lat":43.31204,"lon":5.389803,"is_reserved":false,"is_disabled":true,"rental_uris":{"android":"levelo://app?vid=95b9651b-24ca-40ef-a319-3d06e507e536","ios":"levelo://app?vid=95b9651b-24ca-40ef-a319-3d06e507e536"},"vehicle_type_id":"4","last_reported":1747260475,"current_range_meters":4400,"station_id":"","pricing_plan_id":"cebpf4jnsgd1na2vs0mg"},{"bike_id":"912bf903-0f2a-432c-bd15-a66ca82953f2","system_id":"levelo_inurba_marseille","lat":43.2953,"lon":5.42287,"is_reserved":false,"is_disabled":true,"rental_uris":{"android":"levelo://app?vid=912bf903-0f2a-432c-bd15-a66ca82953f2","ios":"levelo://app?vid=912bf903-0f2a-432c-bd15-a66ca82953f2"},"vehicle_type_id":"4","last_reported":1747260475,"current_range_meters":4400,"station_id":"ce4bhph2rcd13ifvqhdg","pricing_plan_id":"cebpf4jnsgd1na2vs0mg"},{"bike_id":"ce4325af-2448-4172-bdec-81d552ee0b62","system_id":"levelo_inurba_marseille","lat":43.261737,"lon":5.420184,"is_reserved":false,"is_disabled":false,"rental_uris":{"android":"levelo://app?vid=ce4325af-2448-4172-bdec-81d552ee0b62","ios":"levelo://app?vid=ce4325af-2448-4172-bdec-81d552ee0b62"},"vehicle_type_id":"4","last_reported":1747260475,"current_range_meters":4800,"station_id":"","pricing_plan_id":"cebpf4jnsgd1na2vs0mg"},{"bike_id":"e29c50a4-a612-41d7-9103-89470d0d5f5e","system_id":"levelo_inurba_marseille","lat":43.287,"lon":5.39987,"is_reserved":false,"is_disabled":false,"rental_uris":{"android":"levelo://app?vid=e29c50a4-a612-41d7-9103-89470d0d5f5e","ios":"levelo://app?vid=e29c50a4-a612-41d7-9103-89470d0d5f5e"},"vehicle_type_id":"4","last_reported":1747260475,"current_range_meters":4800,"station_id":"ce4bho92rcd13ifvqh3g","pricing_plan_id":"cebpf4jnsgd1na2vs0mg"},{"bike_id":"1062d4e7-39f8-4ee8-b650-135a28b97fb1","system_id":"levelo_inurba_marseille","lat":43.29609,"lon":5.38088,"is_reserved":false,"is_disabled":false,"rental_uris":{"android":"levelo://app?vid=1062d4e7-39f8-4ee8-b650-135a28b97fb1","ios":"levelo://app?vid=1062d4e7-39f8-4ee8-b650-135a28b97fb1"},"vehicle_type_id":"4","last_reported":1747260475,"current_range_meters":4800,"station_id":"ce4bgl12rcd13ifvqbo0","pricing_plan_id":"cebpf4jnsgd1na2vs0mg"},{"bike_id":"bd712a64-b07a-487b-b522-7c79ec3b3302","system_id":"levelo_inurba_marseille","lat":43.301313,"lon":5.398837,"is_reserved":false,"is_disabled":true,"rental_uris":{"android":"levelo://app?vid=bd712a64-b07a-487b-b522-7c79ec3b3302","ios":"levelo://app?vid=bd712a64-b07a-487b-b522-7c79ec3b3302"},"vehicle_type_id":"4","last_reported":1747260475,"current_range_meters":5600,"station_id":"ce4bh0h2rcd13ifvqd40","pricing_plan_id":"cebpf4jnsgd1na2vs0mg"},{"bike_id":"893cee9f-22ed-4823-82b3-4da288b81784","system_id":"levelo_inurba_marseille","lat":43.30581,"lon":5.393576,"is_reserved":false,"is_disabled":false,"rental_uris":{"android":"levelo://app?vid=893cee9f-22ed-4823-82b3-4da288b81784","ios":"levelo://app?vid=893cee9f-22ed-4823-82b3-4da288b81784"},"vehicle_type_id":"4","last_reported":1747260475,"current_range_meters":5600,"station_id":"","pricing_plan_id":"cebpf4jnsgd1na2vs0mg"},{"bike_id":"75bc4e83-c3de-45ba-95d5-175cdf321809","system_id":"levelo_inurba_marseille","lat":43.27948,"lon":5.41023,"is_reserved":false,"is_disabled":false,"rental_uris":{"android":"levelo://app?vid=75bc4e83-c3de-45ba-95d5-175cdf321809","ios":"levelo://app?vid=75bc4e83-c3de-45ba-95d5-175cdf321809"},"vehicle_type_id":"4","last_reported":1747260475,"current_range_meters":5600,"station_id":"ce4bhnp2rcd13ifvqh0g","pricing_plan_id":"cebpf4jnsgd1na2vs0mg"},{"bike_id":"f37b7848-b34f-4203-8cd6-ee4ac88ff930","system_id":"levelo_inurba_marseille","lat":43.23964,"lon":5.36618,"is_reserved":false,"is_disabled":false,"rental_uris":{"android":"levelo://app?vid=f37b7848-b34f-4203-8cd6-ee4ac88ff930","ios":"levelo://app?vid=f37b7848-b34f-4203-8cd6-ee4ac88ff930"},"vehicle_type_id":"4","last_reported":1747260475,"current_range_meters":5600,"station_id":"ce4bhi12rcd13ifvqfp0","pricing_plan_id":"cebpf4jnsgd1na2vs0mg"},{"bike_id":"352bbde9-3ac8-4b32-a419-c1b4851de37a","system_id":"levelo_inurba_marseille","lat":43.24535,"lon":5.39513,"is_reserved":false,"is_disabled":false,"rental_uris":{"android":"levelo://app?vid=352bbde9-3ac8-4b32-a419-c1b4851de37a","ios":"levelo://app?vid=352bbde9-3ac8-4b32-a419-c1b4851de37a"},"vehicle_type_id":"4","last_reported":1747260475,"current_range_meters":5600,"station_id":"ce4bhlp2rcd13ifvqgjg","pricing_plan_id":"cebpf4jnsgd1na2vs0mg"},{"bike_id":"6953ca09-b1d0-473e-8b94-d568eb1a7f43","system_id":"levelo_inurba_marseille","lat":43.28861,"lon":5.3713,"is_reserved":false,"is_disabled":false,"rental_uris":{"android":"levelo://app?vid=6953ca09-b1d0-473e-8b94-d568eb1a7f43","ios":"levelo://app?vid=6953ca09-b1d0-473e-8b94-d568eb1a7f43"},"vehicle_type_id":"4","last_reported":1747260475,"current_range_meters":5600,"station_id":"","pricing_plan_id":"cebpf4jnsgd1na2vs0mg"},{"bike_id":"31e2813c-f647-438c-bb08-7c1907a0ba03","system_id":"levelo_inurba_marseille","lat":43.30799,"lon":5.37643,"is_reserved":false,"is_disabled":false,"rental_uris":{"android":"levelo://app?vid=31e2813c-f647-438c-bb08-7c1907a0ba03","ios":"levelo://app?vid=31e2813c-f647-438c-bb08-7c1907a0ba03"},"vehicle_type_id":"4","last_reported":1747260475,"current_range_meters":6000,"station_id":"ce4bgv92rcd13ifvqcq0","pricing_plan_id":"cebpf4jnsgd1na2vs0mg"},{"bike_id":"7dee4dcb-a46d-41a3-916f-8f8d488d3abd","system_id":"levelo_inurba_marseille","lat":43.28693,"lon":5.39984,"is_reserved":false,"is_disabled":false,"rental_uris":{"android":"levelo://app?vid=7dee4dcb-a46d-41a3-916f-8f8d488d3abd","ios":"levelo://app?vid=7dee4dcb-a46d-41a3-916f-8f8d488d3abd"},"vehicle_type_id":"4","last_reported":1747260475,"current_range_meters":6400,"station_id":"ce4bho92rcd13ifvqh3g","pricing_plan_id":"cebpf4jnsgd1na2vs0mg"},{"bike_id":"ec076c35-f86e-402a-841e-225ad69c6fd5","system_id":"levelo_inurba_marseille","lat":43.28412,"lon":5.3752,"is_reserved":false,"is_disabled":false,"rental_uris":{"android":"levelo://app?vid=ec076c35-f86e-402a-841e-225ad69c6fd5","ios":"levelo://app?vid=ec076c35-f86e-402a-841e-225ad69c6fd5"},"vehicle_type_id":"4","last_reported":1747260475,"current_range_meters":6400,"station_id":"ce4bh412rcd13ifvqds0","pricing_plan_id":"cebpf4jnsgd1na2vs0mg"},{"bike_id":"fbf909cb-c8fa-4bb5-adf7-8281eb136f84","system_id":"levelo_inurba_marseille","lat":43.25105,"lon":5.40328,"is_reserved":false,"is_disabled":false,"rental_uris":{"android":"levelo://app?vid=fbf909cb-c8fa-4bb5-adf7-8281eb136f84","ios":"levelo://app?vid=fbf909cb-c8fa-4bb5-adf7-8281eb136f84"},"vehicle_type_id":"4","last_reported":1747260475,"current_range_meters":6400,"station_id":"ce4bhlh2rcd13ifvqgig","pricing_plan_id":"cebpf4jnsgd1na2vs0mg"},{"bike_id":"5de1e8df-cec1-47cf-b554-41f6e726d337","system_id":"levelo_inurba_marseille","lat":43.27418,"lon":5.4061,"is_reserved":false,"is_disabled":false,"rental_uris":{"android":"levelo://app?vid=5de1e8df-cec1-47cf-b554-41f6e726d337","ios":"levelo://app?vid=5de1e8df-cec1-47cf-b554-41f6e726d337"},"vehicle_type_id":"4","last_reported":1747260475,"current_range_meters":6400,"station_id":"","pricing_plan_id":"cebpf4jnsgd1na2vs0mg"},{"bike_id":"8ccfcd63-3e6a-4a29-92a8-e127e80319c8","system_id":"levelo_inurba_marseille","lat":43.29531,"lon":5.394,"is_reserved":false,"is_disabled":false,"rental_uris":{"android":"levelo://app?vid=8ccfcd63-3e6a-4a29-92a8-e127e80319c8","ios":"levelo://app?vid=8ccfcd63-3e6a-4a29-92a8-e127e80319c8"},"vehicle_type_id":"4","last_reported":1747260475,"current_range_meters":6800,"station_id":"ce4bh292rcd13ifvqdf0","pricing_plan_id":"cebpf4jnsgd1na2vs0mg"},{"bike_id":"697ef735-2bb1-468d-a6a0-f7fde7668758","system_id":"levelo_inurba_marseille","lat":43.26561,"lon":5.37279,"is_reserved":false,"is_disabled":false,"rental_uris":{"android":"levelo://app?vid=697ef735-2bb1-468d-a6a0-f7fde7668758","ios":"levelo://app?vid=697ef735-2bb1-468d-a6a0-f7fde7668758"},"vehicle_type_id":"4","last_reported":1747260475,"current_range_meters":6800,"station_id":"ce4bhg12rcd13ifvqf70","pricing_plan_id":"cebpf4jnsgd1na2vs0mg"},{"bike_id":"9d865bb1-898b-45e4-9d3c-05eb347e183c","system_id":"levelo_inurba_marseille","lat":43.25855,"lon":5.399,"is_reserved":false,"is_disabled":false,"rental_uris":{"android":"levelo://app?vid=9d865bb1-898b-45e4-9d3c-05eb347e183c","ios":"levelo://app?vid=9d865bb1-898b-45e4-9d3c-05eb347e183c"},"vehicle_type_id":"4","last_reported":1747260475,"current_range_meters":6800,"station_id":"ce4bhl92rcd13ifvqghg","pricing_plan_id":"cebpf4jnsgd1na2vs0mg"},{"bike_id":"8e6d6451-a415-4b2f-bc73-95ffb29ead42","system_id":"levelo_inurba_marseille","lat":43.231921,"lon":5.355618,"is_reserved":false,"is_disabled":true,"rental_uris":{"android":"levelo://app?vid=8e6d6451-a415-4b2f-bc73-95ffb29ead42","ios":"levelo://app?vid=8e6d6451-a415-4b2f-bc73-95ffb29ead42"},"vehicle_type_id":"4","last_reported":1747260475,"current_range_meters":7200,"station_id":"ce4bhu92rcd13ifvqi70","pricing_plan_id":"cebpf4jnsgd1na2vs0mg"},{"bike_id":"02114a50-9806-49cf-a454-f0d169bc4820","system_id":"levelo_inurba_marseille","lat":43.28692,"lon":5.38615,"is_reserved":false,"is_disabled":false,"rental_uris":{"android":"levelo://app?vid=02114a50-9806-49cf-a454-f0d169bc4820","ios":"levelo://app?vid=02114a50-9806-49cf-a454-f0d169bc4820"},"vehicle_type_id":"4","last_reported":1747260475,"current_range_meters":7200,"station_id":"","pricing_plan_id":"cebpf4jnsgd1na2vs0mg"},{"bike_id":"8cfecad5-6316-48d7-a472-e958d6e9e80d","system_id":"levelo_inurba_marseille","lat":43.24184,"lon":5.39724,"is_reserved":false,"is_disabled":false,"rental_uris":{"android":"levelo://app?vid=8cfecad5-6316-48d7-a472-e958d6e9e80d","ios":"levelo://app?vid=8cfecad5-6316-48d7-a472-e958d6e9e80d"},"vehicle_type_id":"4","last_reported":1747260475,"current_range_meters":7200,"station_id":"ce4bhn12rcd13ifvqgpg","pricing_plan_id":"cebpf4jnsgd1na2vs0mg"},{"bike_id":"6c5e2750-bf55-4812-bb81-a9df60873a61","system_id":"levelo_inurba_marseille","lat":43.29639,"lon":5.36185,"is_reserved":false,"is_disabled":false,"rental_uris":{"android":"levelo://app?vid=6c5e2750-bf55-4812-bb81-a9df60873a61","ios":"levelo://app?vid=6c5e2750-bf55-4812-bb81-a9df60873a61"},"vehicle_type_id":"4","last_reported":1747260475,"current_range_meters":8000,"station_id":"","pricing_plan_id":"cebpf4jnsgd1na2vs0mg"},{"bike_id":"9eb308d7-4cc6-4bf3-94f5-69e21789ecf2","system_id":"levelo_inurba_marseille","lat":43.24647,"lon":5.38892,"is_reserved":false,"is_disabled":false,"rental_uris":{"android":"levelo://app?vid=9eb308d7-4cc6-4bf3-94f5-69e21789ecf2","ios":"levelo://app?vid=9eb308d7-4cc6-4bf3-94f5-69e21789ecf2"},"vehicle_type_id":"4","last_reported":1747260475,"current_range_meters":8000,"station_id":"ce4bhg12rcd13ifvqf60","pricing_plan_id":"cebpf4jnsgd1na2vs0mg"},{"bike_id":"f872a4c2-1be7-49b4-bb7d-e1f71d921d7b","system_id":"levelo_inurba_marseille","lat":43.23187,"lon":5.39984,"is_reserved":false,"is_disabled":false,"rental_uris":{"android":"levelo://app?vid=f872a4c2-1be7-49b4-bb7d-e1f71d921d7b","ios":"levelo://app?vid=f872a4c2-1be7-49b4-bb7d-e1f71d921d7b"},"vehicle_type_id":"4","last_reported":1747260475,"current_range_meters":8000,"station_id":"ce4bhn12rcd13ifvqgqg","pricing_plan_id":"cebpf4jnsgd1na2vs0mg"},{"bike_id":"43baa270-f4fd-45f5-9b51-6ee77c87c0f7","system_id":"levelo_inurba_marseille","lat":43.30446,"lon":5.38887,"is_reserved":false,"is_disabled":false,"rental_uris":{"android":"levelo://app?vid=43baa270-f4fd-45f5-9b51-6ee77c87c0f7","ios":"levelo://app?vid=43baa270-f4fd-45f5-9b51-6ee77c87c0f7"},"vehicle_type_id":"4","last_reported":1747260475,"current_range_meters":8000,"station_id":"ce4bgk12rcd13ifvqbi0","pricing_plan_id":"cebpf4jnsgd1na2vs0mg"},{"bike_id":"7ddd34a0-d984-4dc0-a019-37962a1ca7c6","system_id":"levelo_inurba_marseille","lat":43.25121,"lon":5.40326,"is_reserved":false,"is_disabled":false,"rental_uris":{"android":"levelo://app?vid=7ddd34a0-d984-4dc0-a019-37962a1ca7c6","ios":"levelo://app?vid=7ddd34a0-d984-4dc0-a019-37962a1ca7c6"},"vehicle_type_id":"4","last_reported":1747260475,"current_range_meters":8000,"station_id":"ce4bhlh2rcd13ifvqgig","pricing_plan_id":"cebpf4jnsgd1na2vs0mg"},{"bike_id":"820781c2-91b3-4296-a92e-b37c784e5d12","system_id":"levelo_inurba_marseille","lat":43.28081,"lon":5.39642,"is_reserved":false,"is_disabled":false,"rental_uris":{"android":"levelo://app?vid=820781c2-91b3-4296-a92e-b37c784e5d12","ios":"levelo://app?vid=820781c2-91b3-4296-a92e-b37c784e5d12"},"vehicle_type_id":"4","last_reported":1747260475,"current_range_meters":8000,"station_id":"ce4bho12rcd13ifvqh2g","pricing_plan_id":"cebpf4jnsgd1na2vs0mg"},{"bike_id":"10996585-5abe-4390-acde-d75d8f22d563","system_id":"levelo_inurba_marseille","lat":43.24181,"lon":5.36396,"is_reserved":false,"is_disabled":false,"rental_uris":{"android":"levelo://app?vid=10996585-5abe-4390-acde-d75d8f22d563","ios":"levelo://app?vid=10996585-5abe-4390-acde-d75d8f22d563"},"vehicle_type_id":"4","last_reported":1747260475,"current_range_meters":8000,"station_id":"cpo36qri1sfpv3e86is0","pricing_plan_id":"cebpf4jnsgd1na2vs0mg"},{"bike_id":"3255c134-1f0a-4de5-b001-987aef916fba","system_id":"levelo_inurba_marseille","lat":43.24072,"lon":5.37754,"is_reserved":false,"is_disabled":false,"rental_uris":{"android":"levelo://app?vid=3255c134-1f0a-4de5-b001-987aef916fba","ios":"levelo://app?vid=3255c134-1f0a-4de5-b001-987aef916fba"},"vehicle_type_id":"4","last_reported":1747260475,"current_range_meters":8000,"station_id":"ce4bhnp2rcd13ifvqgvg","pricing_plan_id":"cebpf4jnsgd1na2vs0mg"},{"bike_id":"d2c1d47c-b855-441f-803c-abd860de7f62","system_id":"levelo_inurba_marseille","lat":43.28076,"lon":5.3966,"is_reserved":false,"is_disabled":false,"rental_uris":{"android":"levelo://app?vid=d2c1d47c-b855-441f-803c-abd860de7f62","ios":"levelo://app?vid=d2c1d47c-b855-441f-803c-abd860de7f62"},"vehicle_type_id":"4","last_reported":1747260475,"current_range_meters":8000,"station_id":"ce4bho12rcd13ifvqh2g","pricing_plan_id":"cebpf4jnsgd1na2vs0mg"},{"bike_id":"f516bdec-657c-46f1-abec-ebfac75025ea","system_id":"levelo_inurba_marseille","lat":43.22939,"lon":5.35377,"is_reserved":false,"is_disabled":false,"rental_uris":{"android":"levelo://app?vid=f516bdec-657c-46f1-abec-ebfac75025ea","ios":"levelo://app?vid=f516bdec-657c-46f1-abec-ebfac75025ea"},"vehicle_type_id":"4","last_reported":1747260475,"current_range_meters":8400,"station_id":"cpo3532slgdg3j2ikp40","pricing_plan_id":"cebpf4jnsgd1na2vs0mg"},{"bike_id":"aa8db4ff-ac35-4bf2-a9fa-545ce449f88b","system_id":"levelo_inurba_marseille","lat":43.251106,"lon":5.403368,"is_reserved":false,"is_disabled":false,"rental_uris":{"android":"levelo://app?vid=aa8db4ff-ac35-4bf2-a9fa-545ce449f88b","ios":"levelo://app?vid=aa8db4ff-ac35-4bf2-a9fa-545ce449f88b"},"vehicle_type_id":"4","last_reported":1747260475,"current_range_meters":8400,"station_id":"ce4bhlh2rcd13ifvqgig","pricing_plan_id":"cebpf4jnsgd1na2vs0mg"},{"bike_id":"f85f0f02-3aed-4e45-ab3a-0ff4cf09e33e","system_id":"levelo_inurba_marseille","lat":43.28345,"lon":5.38104,"is_reserved":false,"is_disabled":false,"rental_uris":{"android":"levelo://app?vid=f85f0f02-3aed-4e45-ab3a-0ff4cf09e33e","ios":"levelo://app?vid=f85f0f02-3aed-4e45-ab3a-0ff4cf09e33e"},"vehicle_type_id":"4","last_reported":1747260475,"current_range_meters":8800,"station_id":"ce4bh412rcd13ifvqdr0","pricing_plan_id":"cebpf4jnsgd1na2vs0mg"},{"bike_id":"101529f1-b2b2-48f3-adf4-24d4cf7a709c","system_id":"levelo_inurba_marseille","lat":43.30886,"lon":5.39636,"is_reserved":false,"is_disabled":false,"rental_uris":{"android":"levelo://app?vid=101529f1-b2b2-48f3-adf4-24d4cf7a709c","ios":"levelo://app?vid=101529f1-b2b2-48f3-adf4-24d4cf7a709c"},"vehicle_type_id":"4","last_reported":1747260475,"current_range_meters":8800,"station_id":"ce4bh012rcd13ifvqcv0","pricing_plan_id":"cebpf4jnsgd1na2vs0mg"},{"bike_id":"85c3873c-939a-4e4c-a2ae-470ca56507f9","system_id":"levelo_inurba_marseille","lat":43.28709,"lon":5.37376,"is_reserved":false,"is_disabled":false,"rental_uris":{"android":"levelo://app?vid=85c3873c-939a-4e4c-a2ae-470ca56507f9","ios":"levelo://app?vid=85c3873c-939a-4e4c-a2ae-470ca56507f9"},"vehicle_type_id":"4","last_reported":1747260475,"current_range_meters":8800,"station_id":"ce4bh3p2rcd13ifvqdq0","pricing_plan_id":"cebpf4jnsgd1na2vs0mg"},{"bike_id":"759f78fe-a239-48b1-8db2-ee97c9309ec7","system_id":"levelo_inurba_marseille","lat":43.30351,"lon":5.40467,"is_reserved":false,"is_disabled":false,"rental_uris":{"android":"levelo://app?vid=759f78fe-a239-48b1-8db2-ee97c9309ec7","ios":"levelo://app?vid=759f78fe-a239-48b1-8db2-ee97c9309ec7"},"vehicle_type_id":"4","last_reported":1747260475,"current_range_meters":8800,"station_id":"ce4bh012rcd13ifvqd10","pricing_plan_id":"cebpf4jnsgd1na2vs0mg"},{"bike_id":"a1bb8e67-fad9-4c62-8ab8-6a7cd6c22b08","system_id":"levelo_inurba_marseille","lat":43.24162,"lon":5.39711,"is_reserved":false,"is_disabled":false,"rental_uris":{"android":"levelo://app?vid=a1bb8e67-fad9-4c62-8ab8-6a7cd6c22b08","ios":"levelo://app?vid=a1bb8e67-fad9-4c62-8ab8-6a7cd6c22b08"},"vehicle_type_id":"4","last_reported":1747260475,"current_range_meters":8800,"station_id":"ce4bhn12rcd13ifvqgpg","pricing_plan_id":"cebpf4jnsgd1na2vs0mg"},{"bike_id":"d7a9b0d6-4500-4228-99bd-66ba039a9fa9","system_id":"levelo_inurba_marseille","lat":43.27972,"lon":5.38749,"is_reserved":false,"is_disabled":false,"rental_uris":{"android":"levelo://app?vid=d7a9b0d6-4500-4228-99bd-66ba039a9fa9","ios":"levelo://app?vid=d7a9b0d6-4500-4228-99bd-66ba039a9fa9"},"vehicle_type_id":"4","last_reported":1747260475,"current_range_meters":9200,"station_id":"ce4bhg12rcd13ifvqf80","pricing_plan_id":"cebpf4jnsgd1na2vs0mg"},{"bike_id":"cff07eda-0d35-48d7-ae3d-eafcd93e64af","system_id":"levelo_inurba_marseille","lat":43.31914,"lon":5.39452,"is_reserved":false,"is_disabled":false,"rental_uris":{"android":"levelo://app?vid=cff07eda-0d35-48d7-ae3d-eafcd93e64af","ios":"levelo://app?vid=cff07eda-0d35-48d7-ae3d-eafcd93e64af"},"vehicle_type_id":"4","last_reported":1747260475,"current_range_meters":9200,"station_id":"","pricing_plan_id":"cebpf4jnsgd1na2vs0mg"},{"bike_id":"454ea7c6-0503-4392-9884-38230a46f2cd","system_id":"levelo_inurba_marseille","lat":43.2798,"lon":5.38702,"is_reserved":false,"is_disabled":false,"rental_uris":{"android":"levelo://app?vid=454ea7c6-0503-4392-9884-38230a46f2cd","ios":"levelo://app?vid=454ea7c6-0503-4392-9884-38230a46f2cd"},"vehicle_type_id":"4","last_reported":1747260475,"current_range_meters":9200,"station_id":"ce4bhg12rcd13ifvqf80","pricing_plan_id":"cebpf4jnsgd1na2vs0mg"},{"bike_id":"eb07a4be-b589-4249-b4f2-0da4de07631d","system_id":"levelo_inurba_marseille","lat":43.29274,"lon":5.38439,"is_reserved":false,"is_disabled":false,"rental_uris":{"android":"levelo://app?vid=eb07a4be-b589-4249-b4f2-0da4de07631d","ios":"levelo://app?vid=eb07a4be-b589-4249-b4f2-0da4de07631d"},"vehicle_type_id":"4","last_reported":1747260475,"current_range_meters":9200,"station_id":"ce4bh692rcd13ifvqea0","pricing_plan_id":"cebpf4jnsgd1na2vs0mg"},{"bike_id":"53d3e99a-fe32-470b-82e8-98cea0217d4d","system_id":"levelo_inurba_marseille","lat":43.30612,"lon":5.37229,"is_reserved":false,"is_disabled":false,"rental_uris":{"android":"levelo://app?vid=53d3e99a-fe32-470b-82e8-98cea0217d4d","ios":"levelo://app?vid=53d3e99a-fe32-470b-82e8-98cea0217d4d"},"vehicle_type_id":"4","last_reported":1747260475,"current_range_meters":9200,"station_id":"ce4bgqh2rcd13ifvqc4g","pricing_plan_id":"cebpf4jnsgd1na2vs0mg"},{"bike_id":"7334a686-a803-4359-8857-10dc09939f33","system_id":"levelo_inurba_marseille","lat":43.262239,"lon":5.404529,"is_reserved":false,"is_disabled":false,"rental_uris":{"android":"levelo://app?vid=7334a686-a803-4359-8857-10dc09939f33","ios":"levelo://app?vid=7334a686-a803-4359-8857-10dc09939f33"},"vehicle_type_id":"4","last_reported":1747260475,"current_range_meters":9200,"station_id":"ce4bhmh2rcd13ifvqgmg","pricing_plan_id":"cebpf4jnsgd1na2vs0mg"},{"bike_id":"34756132-de8f-4953-9f22-51485e6f4ee2","system_id":"levelo_inurba_marseille","lat":43.28733,"lon":5.37953,"is_reserved":false,"is_disabled":false,"rental_uris":{"android":"levelo://app?vid=34756132-de8f-4953-9f22-51485e6f4ee2","ios":"levelo://app?vid=34756132-de8f-4953-9f22-51485e6f4ee2"},"vehicle_type_id":"4","last_reported":1747260475,"current_range_meters":9200,"station_id":"ce4bh9p2rcd13ifvqec0","pricing_plan_id":"cebpf4jnsgd1na2vs0mg"},{"bike_id":"0dc8d66b-f0cb-4c51-970f-b855be3b36ca","system_id":"levelo_inurba_marseille","lat":43.262042,"lon":5.379208,"is_reserved":false,"is_disabled":true,"rental_uris":{"android":"levelo://app?vid=0dc8d66b-f0cb-4c51-970f-b855be3b36ca","ios":"levelo://app?vid=0dc8d66b-f0cb-4c51-970f-b855be3b36ca"},"vehicle_type_id":"4","last_reported":1747260475,"current_range_meters":9200,"station_id":"ce4bhjp2rcd13ifvqg90","pricing_plan_id":"cebpf4jnsgd1na2vs0mg"},{"bike_id":"3faf053c-e846-4d83-83ee-8fd51efc38bb","system_id":"levelo_inurba_marseille","lat":43.321051,"lon":5.367843,"is_reserved":false,"is_disabled":false,"rental_uris":{"android":"levelo://app?vid=3faf053c-e846-4d83-83ee-8fd51efc38bb","ios":"levelo://app?vid=3faf053c-e846-4d83-83ee-8fd51efc38bb"},"vehicle_type_id":"4","last_reported":1747260475,"current_range_meters":9200,"station_id":"ce4bhrh2rcd13ifvqhug","pricing_plan_id":"cebpf4jnsgd1na2vs0mg"},{"bike_id":"9959e250-7bec-4f89-9d72-f491ecb87470","system_id":"levelo_inurba_marseille","lat":43.30795,"lon":5.38162,"is_reserved":false,"is_disabled":false,"rental_uris":{"android":"levelo://app?vid=9959e250-7bec-4f89-9d72-f491ecb87470","ios":"levelo://app?vid=9959e250-7bec-4f89-9d72-f491ecb87470"},"vehicle_type_id":"4","last_reported":1747260475,"current_range_meters":9600,"station_id":"ce4bgt12rcd13ifvqce0","pricing_plan_id":"cebpf4jnsgd1na2vs0mg"},{"bike_id":"a92deb3c-961f-4a61-890d-82fd5cc2157e","system_id":"levelo_inurba_marseille","lat":43.31378,"lon":5.38493,"is_reserved":false,"is_disabled":false,"rental_uris":{"android":"levelo://app?vid=a92deb3c-961f-4a61-890d-82fd5cc2157e","ios":"levelo://app?vid=a92deb3c-961f-4a61-890d-82fd5cc2157e"},"vehicle_type_id":"4","last_reported":1747260475,"current_range_meters":9600,"station_id":"ce4bgt92rcd13ifvqcf0","pricing_plan_id":"cebpf4jnsgd1na2vs0mg"},{"bike_id":"84d40c68-bec1-44d9-a2d4-ef79ef82e05c","system_id":"levelo_inurba_marseille","lat":43.3044,"lon":5.38889,"is_reserved":false,"is_disabled":false,"rental_uris":{"android":"levelo://app?vid=84d40c68-bec1-44d9-a2d4-ef79ef82e05c","ios":"levelo://app?vid=84d40c68-bec1-44d9-a2d4-ef79ef82e05c"},"vehicle_type_id":"4","last_reported":1747260475,"current_range_meters":9600,"station_id":"ce4bgk12rcd13ifvqbi0","pricing_plan_id":"cebpf4jnsgd1na2vs0mg"},{"bike_id":"e3faef6f-635a-4b6b-b2b3-c0b918604df6","system_id":"levelo_inurba_marseille","lat":43.2989,"lon":5.43679,"is_reserved":false,"is_disabled":false,"rental_uris":{"android":"levelo://app?vid=e3faef6f-635a-4b6b-b2b3-c0b918604df6","ios":"levelo://app?vid=e3faef6f-635a-4b6b-b2b3-c0b918604df6"},"vehicle_type_id":"4","last_reported":1747260475,"current_range_meters":9600,"station_id":"ce4bhpp2rcd13ifvqhfg","pricing_plan_id":"cebpf4jnsgd1na2vs0mg"},{"bike_id":"d8f09606-f3e1-401b-80ca-0196f668477a","system_id":"levelo_inurba_marseille","lat":43.30202,"lon":5.38604,"is_reserved":false,"is_disabled":false,"rental_uris":{"android":"levelo://app?vid=d8f09606-f3e1-401b-80ca-0196f668477a","ios":"levelo://app?vid=d8f09606-f3e1-401b-80ca-0196f668477a"},"vehicle_type_id":"4","last_reported":1747260475,"current_range_meters":10000,"station_id":"","pricing_plan_id":"cebpf4jnsgd1na2vs0mg"},{"bike_id":"18723a66-c97e-4014-a07c-7d79a785c1b9","system_id":"levelo_inurba_marseille","lat":43.31777,"lon":5.39068,"is_reserved":false,"is_disabled":false,"rental_uris":{"android":"levelo://app?vid=18723a66-c97e-4014-a07c-7d79a785c1b9","ios":"levelo://app?vid=18723a66-c97e-4014-a07c-7d79a785c1b9"},"vehicle_type_id":"4","last_reported":1747260475,"current_range_meters":10000,"station_id":"ce4bhqp2rcd13ifvqhng","pricing_plan_id":"cebpf4jnsgd1na2vs0mg"},{"bike_id":"6a94c510-06e9-4819-80f4-2a1f66907200","system_id":"levelo_inurba_marseille","lat":43.243363,"lon":5.379917,"is_reserved":false,"is_disabled":false,"rental_uris":{"android":"levelo://app?vid=6a94c510-06e9-4819-80f4-2a1f66907200","ios":"levelo://app?vid=6a94c510-06e9-4819-80f4-2a1f66907200"},"vehicle_type_id":"4","last_reported":1747260475,"current_range_meters":10000,"station_id":"","pricing_plan_id":"cebpf4jnsgd1na2vs0mg"},{"bike_id":"ddaa0f99-41ff-4bfc-8fbc-0ab556a43c75","system_id":"levelo_inurba_marseille","lat":43.28459,"lon":5.35884,"is_reserved":false,"is_disabled":false,"rental_uris":{"android":"levelo://app?vid=ddaa0f99-41ff-4bfc-8fbc-0ab556a43c75","ios":"levelo://app?vid=ddaa0f99-41ff-4bfc-8fbc-0ab556a43c75"},"vehicle_type_id":"4","last_reported":1747260475,"current_range_meters":10000,"station_id":"ce4bhah2rcd13ifvqei0","pricing_plan_id":"cebpf4jnsgd1na2vs0mg"},{"bike_id":"3ec3792d-1198-4b1d-8ce9-5ce6b8a7ac84","system_id":"levelo_inurba_marseille","lat":43.306412,"lon":5.400872,"is_reserved":false,"is_disabled":false,"rental_uris":{"android":"levelo://app?vid=3ec3792d-1198-4b1d-8ce9-5ce6b8a7ac84","ios":"levelo://app?vid=3ec3792d-1198-4b1d-8ce9-5ce6b8a7ac84"},"vehicle_type_id":"4","last_reported":1747260475,"current_range_meters":10000,"station_id":"ce4bh112rcd13ifvqda0","pricing_plan_id":"cebpf4jnsgd1na2vs0mg"},{"bike_id":"af214813-c582-47ac-80a4-5216259c9745","system_id":"levelo_inurba_marseille","lat":43.29267,"lon":5.37613,"is_reserved":false,"is_disabled":false,"rental_uris":{"android":"levelo://app?vid=af214813-c582-47ac-80a4-5216259c9745","ios":"levelo://app?vid=af214813-c582-47ac-80a4-5216259c9745"},"vehicle_type_id":"4","last_reported":1747260475,"current_range_meters":10000,"station_id":"ce4bgi12rcd13ifvqb80","pricing_plan_id":"cebpf4jnsgd1na2vs0mg"},{"bike_id":"c260378e-f038-46ef-acd7-d955ba324b73","system_id":"levelo_inurba_marseille","lat":43.25007,"lon":5.37899,"is_reserved":false,"is_disabled":false,"rental_uris":{"android":"levelo://app?vid=c260378e-f038-46ef-acd7-d955ba324b73","ios":"levelo://app?vid=c260378e-f038-46ef-acd7-d955ba324b73"},"vehicle_type_id":"4","last_reported":1747260475,"current_range_meters":10000,"station_id":"","pricing_plan_id":"cebpf4jnsgd1na2vs0mg"},{"bike_id":"56a54840-8453-4673-8cc1-64d415eb4281","system_id":"levelo_inurba_marseille","lat":43.323622,"lon":5.38893,"is_reserved":false,"is_disabled":false,"rental_uris":{"android":"levelo://app?vid=56a54840-8453-4673-8cc1-64d415eb4281","ios":"levelo://app?vid=56a54840-8453-4673-8cc1-64d415eb4281"},"vehicle_type_id":"4","last_reported":1747260475,"current_range_meters":10000,"station_id":"ce4bhqp2rcd13ifvqhog","pricing_plan_id":"cebpf4jnsgd1na2vs0mg"},{"bike_id":"01cc56f2-e0a1-494c-a32a-c75065ce15de","system_id":"levelo_inurba_marseille","lat":43.323637,"lon":5.388857,"is_reserved":false,"is_disabled":false,"rental_uris":{"android":"levelo://app?vid=01cc56f2-e0a1-494c-a32a-c75065ce15de","ios":"levelo://app?vid=01cc56f2-e0a1-494c-a32a-c75065ce15de"},"vehicle_type_id":"4","last_reported":1747260475,"current_range_meters":10800,"station_id":"ce4bhqp2rcd13ifvqhog","pricing_plan_id":"cebpf4jnsgd1na2vs0mg"},{"bike_id":"8e54ff22-0290-41ed-84bb-d24b04b30756","system_id":"levelo_inurba_marseille","lat":43.29047,"lon":5.40004,"is_reserved":false,"is_disabled":false,"rental_uris":{"android":"levelo://app?vid=8e54ff22-0290-41ed-84bb-d24b04b30756","ios":"levelo://app?vid=8e54ff22-0290-41ed-84bb-d24b04b30756"},"vehicle_type_id":"4","last_reported":1747260475,"current_range_meters":10800,"station_id":"ce4bh392rcd13ifvqdm0","pricing_plan_id":"cebpf4jnsgd1na2vs0mg"},{"bike_id":"ee2a27af-695b-45e2-911d-1feb4d3d8904","system_id":"levelo_inurba_marseille","lat":43.3093,"lon":5.40143,"is_reserved":false,"is_disabled":false,"rental_uris":{"android":"levelo://app?vid=ee2a27af-695b-45e2-911d-1feb4d3d8904","ios":"levelo://app?vid=ee2a27af-695b-45e2-911d-1feb4d3d8904"},"vehicle_type_id":"4","last_reported":1747260475,"current_range_meters":10800,"station_id":"ce4bgvp2rcd13ifvqct0","pricing_plan_id":"cebpf4jnsgd1na2vs0mg"},{"bike_id":"d3c3d8fd-847e-486d-b4bb-d549572408c2","system_id":"levelo_inurba_marseille","lat":43.29233,"lon":5.36412,"is_reserved":false,"is_disabled":false,"rental_uris":{"android":"levelo://app?vid=d3c3d8fd-847e-486d-b4bb-d549572408c2","ios":"levelo://app?vid=d3c3d8fd-847e-486d-b4bb-d549572408c2"},"vehicle_type_id":"4","last_reported":1747260475,"current_range_meters":10800,"station_id":"","pricing_plan_id":"cebpf4jnsgd1na2vs0mg"},{"bike_id":"0786f947-1387-43c1-8d60-229140e67e3d","system_id":"levelo_inurba_marseille","lat":43.25122,"lon":5.40327,"is_reserved":false,"is_disabled":false,"rental_uris":{"android":"levelo://app?vid=0786f947-1387-43c1-8d60-229140e67e3d","ios":"levelo://app?vid=0786f947-1387-43c1-8d60-229140e67e3d"},"vehicle_type_id":"4","last_reported":1747260475,"current_range_meters":10800,"station_id":"ce4bhlh2rcd13ifvqgig","pricing_plan_id":"cebpf4jnsgd1na2vs0mg"},{"bike_id":"2560ced1-3aa0-4b19-b9ca-c868822cb11c","system_id":"levelo_inurba_marseille","lat":43.31335,"lon":5.39711,"is_reserved":false,"is_disabled":false,"rental_uris":{"android":"levelo://app?vid=2560ced1-3aa0-4b19-b9ca-c868822cb11c","ios":"levelo://app?vid=2560ced1-3aa0-4b19-b9ca-c868822cb11c"},"vehicle_type_id":"4","last_reported":1747260475,"current_range_meters":10800,"station_id":"ce4bgvp2rcd13ifvqcu0","pricing_plan_id":"cebpf4jnsgd1na2vs0mg"},{"bike_id":"0879c7af-989f-4e68-9fd6-d134be2b3e7f","system_id":"levelo_inurba_marseille","lat":43.25933,"lon":5.4089,"is_reserved":false,"is_disabled":false,"rental_uris":{"android":"levelo://app?vid=0879c7af-989f-4e68-9fd6-d134be2b3e7f","ios":"levelo://app?vid=0879c7af-989f-4e68-9fd6-d134be2b3e7f"},"vehicle_type_id":"4","last_reported":1747260475,"current_range_meters":10800,"station_id":"ce4bhm92rcd13ifvqglg","pricing_plan_id":"cebpf4jnsgd1na2vs0mg"},{"bike_id":"3cd416a4-f466-4d3b-b76b-43edc06b4b8d","system_id":"levelo_inurba_marseille","lat":43.309043,"lon":5.36836,"is_reserved":false,"is_disabled":false,"rental_uris":{"android":"levelo://app?vid=3cd416a4-f466-4d3b-b76b-43edc06b4b8d","ios":"levelo://app?vid=3cd416a4-f466-4d3b-b76b-43edc06b4b8d"},"vehicle_type_id":"4","last_reported":1747260475,"current_range_meters":10800,"station_id":"ce4bgn92rcd13ifvqbvg","pricing_plan_id":"cebpf4jnsgd1na2vs0mg"},{"bike_id":"3bb01f8f-50f7-474f-883f-948400a36ea5","system_id":"levelo_inurba_marseille","lat":43.325877,"lon":5.430154,"is_reserved":false,"is_disabled":false,"rental_uris":{"android":"levelo://app?vid=3bb01f8f-50f7-474f-883f-948400a36ea5","ios":"levelo://app?vid=3bb01f8f-50f7-474f-883f-948400a36ea5"},"vehicle_type_id":"4","last_reported":1747260475,"current_range_meters":10800,"station_id":"","pricing_plan_id":"cebpf4jnsgd1na2vs0mg"},{"bike_id":"4d83a49d-a4f7-4140-bff3-bb3633e6dccc","system_id":"levelo_inurba_marseille","lat":43.32383,"lon":5.3886,"is_reserved":false,"is_disabled":false,"rental_uris":{"android":"levelo://app?vid=4d83a49d-a4f7-4140-bff3-bb3633e6dccc","ios":"levelo://app?vid=4d83a49d-a4f7-4140-bff3-bb3633e6dccc"},"vehicle_type_id":"4","last_reported":1747260475,"current_range_meters":10800,"station_id":"ce4bhqp2rcd13ifvqhog","pricing_plan_id":"cebpf4jnsgd1na2vs0mg"},{"bike_id":"61c35223-1233-4719-ae43-c4f9978951b5","system_id":"levelo_inurba_marseille","lat":43.26052,"lon":5.39379,"is_reserved":false,"is_disabled":false,"rental_uris":{"android":"levelo://app?vid=61c35223-1233-4719-ae43-c4f9978951b5","ios":"levelo://app?vid=61c35223-1233-4719-ae43-c4f9978951b5"},"vehicle_type_id":"4","last_reported":1747260475,"current_range_meters":11200,"station_id":"ce4bhh92rcd13ifvqfj0","pricing_plan_id":"cebpf4jnsgd1na2vs0mg"},{"bike_id":"4a1605c8-9596-4ecb-94b7-2b583c66ecdd","system_id":"levelo_inurba_marseille","lat":43.24683,"lon":5.38158,"is_reserved":false,"is_disabled":false,"rental_uris":{"android":"levelo://app?vid=4a1605c8-9596-4ecb-94b7-2b583c66ecdd","ios":"levelo://app?vid=4a1605c8-9596-4ecb-94b7-2b583c66ecdd"},"vehicle_type_id":"4","last_reported":1747260475,"current_range_meters":11600,"station_id":"ce4bhih2rcd13ifvqfr0","pricing_plan_id":"cebpf4jnsgd1na2vs0mg"},{"bike_id":"ff5e1a78-49cb-4065-ad75-694b6e882ec0","system_id":"levelo_inurba_marseille","lat":43.28106,"lon":5.37843,"is_reserved":false,"is_disabled":false,"rental_uris":{"android":"levelo://app?vid=ff5e1a78-49cb-4065-ad75-694b6e882ec0","ios":"levelo://app?vid=ff5e1a78-49cb-4065-ad75-694b6e882ec0"},"vehicle_type_id":"4","last_reported":1747260475,"current_range_meters":11600,"station_id":"ce4bha12rcd13ifvqee0","pricing_plan_id":"cebpf4jnsgd1na2vs0mg"},{"bike_id":"f8464d34-9724-44a9-83a6-c3e71bee035c","system_id":"levelo_inurba_marseille","lat":43.28074,"lon":5.3965,"is_reserved":false,"is_disabled":false,"rental_uris":{"android":"levelo://app?vid=f8464d34-9724-44a9-83a6-c3e71bee035c","ios":"levelo://app?vid=f8464d34-9724-44a9-83a6-c3e71bee035c"},"vehicle_type_id":"4","last_reported":1747260475,"current_range_meters":11600,"station_id":"ce4bho12rcd13ifvqh2g","pricing_plan_id":"cebpf4jnsgd1na2vs0mg"},{"bike_id":"74e087de-c735-4d96-8544-ac3e5274d091","system_id":"levelo_inurba_marseille","lat":43.31717,"lon":5.43708,"is_reserved":false,"is_disabled":false,"rental_uris":{"android":"levelo://app?vid=74e087de-c735-4d96-8544-ac3e5274d091","ios":"levelo://app?vid=74e087de-c735-4d96-8544-ac3e5274d091"},"vehicle_type_id":"4","last_reported":1747260475,"current_range_meters":11600,"station_id":"ce4bhp92rcd13ifvqhcg","pricing_plan_id":"cebpf4jnsgd1na2vs0mg"},{"bike_id":"9f22b8aa-a9ca-4a2c-ab0b-0a0b10dbe182","system_id":"levelo_inurba_marseille","lat":43.32451,"lon":5.36569,"is_reserved":false,"is_disabled":false,"rental_uris":{"android":"levelo://app?vid=9f22b8aa-a9ca-4a2c-ab0b-0a0b10dbe182","ios":"levelo://app?vid=9f22b8aa-a9ca-4a2c-ab0b-0a0b10dbe182"},"vehicle_type_id":"4","last_reported":1747260475,"current_range_meters":12000,"station_id":"ce4bhs12rcd13ifvqhvg","pricing_plan_id":"cebpf4jnsgd1na2vs0mg"},{"bike_id":"d3a1c825-461c-4875-9f67-a6d33491348f","system_id":"levelo_inurba_marseille","lat":43.32336,"lon":5.40612,"is_reserved":false,"is_disabled":false,"rental_uris":{"android":"levelo://app?vid=d3a1c825-461c-4875-9f67-a6d33491348f","ios":"levelo://app?vid=d3a1c825-461c-4875-9f67-a6d33491348f"},"vehicle_type_id":"4","last_reported":1747260475,"current_range_meters":12000,"station_id":"ce4bhq92rcd13ifvqhjg","pricing_plan_id":"cebpf4jnsgd1na2vs0mg"},{"bike_id":"a927d1bc-b619-414d-8814-850ab7668aca","system_id":"levelo_inurba_marseille","lat":43.28851,"lon":5.39349,"is_reserved":false,"is_disabled":true,"rental_uris":{"android":"levelo://app?vid=a927d1bc-b619-414d-8814-850ab7668aca","ios":"levelo://app?vid=a927d1bc-b619-414d-8814-850ab7668aca"},"vehicle_type_id":"4","last_reported":1747260475,"current_range_meters":12000,"station_id":"ce4bh2p2rcd13ifvqdi0","pricing_plan_id":"cebpf4jnsgd1na2vs0mg"},{"bike_id":"5abc2be0-fe06-42cb-b7be-f3234fd7c9b6","system_id":"levelo_inurba_marseille","lat":43.284,"lon":5.37501,"is_reserved":false,"is_disabled":false,"rental_uris":{"android":"levelo://app?vid=5abc2be0-fe06-42cb-b7be-f3234fd7c9b6","ios":"levelo://app?vid=5abc2be0-fe06-42cb-b7be-f3234fd7c9b6"},"vehicle_type_id":"4","last_reported":1747260475,"current_range_meters":12000,"station_id":"ce4bh412rcd13ifvqds0","pricing_plan_id":"cebpf4jnsgd1na2vs0mg"},{"bike_id":"b6d31a98-3b69-4971-8c12-cf955836ed52","system_id":"levelo_inurba_marseille","lat":43.281143,"lon":5.378497,"is_reserved":false,"is_disabled":false,"rental_uris":{"android":"levelo://app?vid=b6d31a98-3b69-4971-8c12-cf955836ed52","ios":"levelo://app?vid=b6d31a98-3b69-4971-8c12-cf955836ed52"},"vehicle_type_id":"4","last_reported":1747260475,"current_range_meters":12000,"station_id":"ce4bha12rcd13ifvqee0","pricing_plan_id":"cebpf4jnsgd1na2vs0mg"},{"bike_id":"17d57f58-ffb0-4d77-bbe5-7f462887ac74","system_id":"levelo_inurba_marseille","lat":43.24179,"lon":5.39703,"is_reserved":false,"is_disabled":false,"rental_uris":{"android":"levelo://app?vid=17d57f58-ffb0-4d77-bbe5-7f462887ac74","ios":"levelo://app?vid=17d57f58-ffb0-4d77-bbe5-7f462887ac74"},"vehicle_type_id":"4","last_reported":1747260475,"current_range_meters":12000,"station_id":"ce4bhn12rcd13ifvqgpg","pricing_plan_id":"cebpf4jnsgd1na2vs0mg"},{"bike_id":"0ee57cd3-b290-46af-a35a-6f306772e452","system_id":"levelo_inurba_marseille","lat":43.30662,"lon":5.40273,"is_reserved":false,"is_disabled":false,"rental_uris":{"android":"levelo://app?vid=0ee57cd3-b290-46af-a35a-6f306772e452","ios":"levelo://app?vid=0ee57cd3-b290-46af-a35a-6f306772e452"},"vehicle_type_id":"4","last_reported":1747260475,"current_range_meters":12000,"station_id":"","pricing_plan_id":"cebpf4jnsgd1na2vs0mg"},{"bike_id":"368ffe8b-504f-4b3e-9eca-8fc0bd6f6e9d","system_id":"levelo_inurba_marseille","lat":43.29205,"lon":5.393183,"is_reserved":false,"is_disabled":false,"rental_uris":{"android":"levelo://app?vid=368ffe8b-504f-4b3e-9eca-8fc0bd6f6e9d","ios":"levelo://app?vid=368ffe8b-504f-4b3e-9eca-8fc0bd6f6e9d"},"vehicle_type_id":"4","last_reported":1747260475,"current_range_meters":12000,"station_id":"ce4bh192rcd13ifvqdd0","pricing_plan_id":"cebpf4jnsgd1na2vs0mg"},{"bike_id":"05980538-19ab-40f7-9978-ea8d04621a6f","system_id":"levelo_inurba_marseille","lat":43.29969,"lon":5.38493,"is_reserved":false,"is_disabled":false,"rental_uris":{"android":"levelo://app?vid=05980538-19ab-40f7-9978-ea8d04621a6f","ios":"levelo://app?vid=05980538-19ab-40f7-9978-ea8d04621a6f"},"vehicle_type_id":"4","last_reported":1747260475,"current_range_meters":12400,"station_id":"ce4bgj92rcd13ifvqbd0","pricing_plan_id":"cebpf4jnsgd1na2vs0mg"},{"bike_id":"080c5bc8-2a50-4d60-9a30-88ce86670d7a","system_id":"levelo_inurba_marseille","lat":43.270533,"lon":5.402592,"is_reserved":false,"is_disabled":false,"rental_uris":{"android":"levelo://app?vid=080c5bc8-2a50-4d60-9a30-88ce86670d7a","ios":"levelo://app?vid=080c5bc8-2a50-4d60-9a30-88ce86670d7a"},"vehicle_type_id":"4","last_reported":1747260475,"current_range_meters":12400,"station_id":"ce4bhk92rcd13ifvqgc0","pricing_plan_id":"cebpf4jnsgd1na2vs0mg"},{"bike_id":"1923dd1e-d8a4-4534-a36b-e83150570486","system_id":"levelo_inurba_marseille","lat":43.25117,"lon":5.40322,"is_reserved":false,"is_disabled":false,"rental_uris":{"android":"levelo://app?vid=1923dd1e-d8a4-4534-a36b-e83150570486","ios":"levelo://app?vid=1923dd1e-d8a4-4534-a36b-e83150570486"},"vehicle_type_id":"4","last_reported":1747260475,"current_range_meters":12400,"station_id":"ce4bhlh2rcd13ifvqgig","pricing_plan_id":"cebpf4jnsgd1na2vs0mg"},{"bike_id":"ade5afed-bf4a-4def-a780-75cc151f95e7","system_id":"levelo_inurba_marseille","lat":43.29781,"lon":5.39349,"is_reserved":false,"is_disabled":false,"rental_uris":{"android":"levelo://app?vid=ade5afed-bf4a-4def-a780-75cc151f95e7","ios":"levelo://app?vid=ade5afed-bf4a-4def-a780-75cc151f95e7"},"vehicle_type_id":"4","last_reported":1747260475,"current_range_meters":12800,"station_id":"chh1huq6cuj3fo74tm60","pricing_plan_id":"cebpf4jnsgd1na2vs0mg"},{"bike_id":"ee613623-31e1-44c0-961e-7df0445326d3","system_id":"levelo_inurba_marseille","lat":43.28466,"lon":5.359,"is_reserved":false,"is_disabled":false,"rental_uris":{"android":"levelo://app?vid=ee613623-31e1-44c0-961e-7df0445326d3","ios":"levelo://app?vid=ee613623-31e1-44c0-961e-7df0445326d3"},"vehicle_type_id":"4","last_reported":1747260475,"current_range_meters":12800,"station_id":"ce4bhah2rcd13ifvqei0","pricing_plan_id":"cebpf4jnsgd1na2vs0mg"},{"bike_id":"f2fa3917-52e2-462b-8250-01097feb44e5","system_id":"levelo_inurba_marseille","lat":43.241886,"lon":5.397307,"is_reserved":false,"is_disabled":false,"rental_uris":{"android":"levelo://app?vid=f2fa3917-52e2-462b-8250-01097feb44e5","ios":"levelo://app?vid=f2fa3917-52e2-462b-8250-01097feb44e5"},"vehicle_type_id":"4","last_reported":1747260475,"current_range_meters":13600,"station_id":"ce4bhn12rcd13ifvqgpg","pricing_plan_id":"cebpf4jnsgd1na2vs0mg"},{"bike_id":"2fbf9af1-2df2-4aeb-8b20-a4c95e106089","system_id":"levelo_inurba_marseille","lat":43.24072,"lon":5.37764,"is_reserved":false,"is_disabled":false,"rental_uris":{"android":"levelo://app?vid=2fbf9af1-2df2-4aeb-8b20-a4c95e106089","ios":"levelo://app?vid=2fbf9af1-2df2-4aeb-8b20-a4c95e106089"},"vehicle_type_id":"4","last_reported":1747260475,"current_range_meters":13600,"station_id":"ce4bhnp2rcd13ifvqgvg","pricing_plan_id":"cebpf4jnsgd1na2vs0mg"},{"bike_id":"cf04a449-8245-40e5-866f-abb00b28cc6f","system_id":"levelo_inurba_marseille","lat":43.22929,"lon":5.35382,"is_reserved":false,"is_disabled":false,"rental_uris":{"android":"levelo://app?vid=cf04a449-8245-40e5-866f-abb00b28cc6f","ios":"levelo://app?vid=cf04a449-8245-40e5-866f-abb00b28cc6f"},"vehicle_type_id":"4","last_reported":1747260475,"current_range_meters":13600,"station_id":"cpo3532slgdg3j2ikp40","pricing_plan_id":"cebpf4jnsgd1na2vs0mg"},{"bike_id":"aa9c06a6-ff13-46d8-a8b8-e1851805f0cc","system_id":"levelo_inurba_marseille","lat":43.32345,"lon":5.38921,"is_reserved":false,"is_disabled":false,"rental_uris":{"android":"levelo://app?vid=aa9c06a6-ff13-46d8-a8b8-e1851805f0cc","ios":"levelo://app?vid=aa9c06a6-ff13-46d8-a8b8-e1851805f0cc"},"vehicle_type_id":"4","last_reported":1747260475,"current_range_meters":13600,"station_id":"ce4bhqp2rcd13ifvqhog","pricing_plan_id":"cebpf4jnsgd1na2vs0mg"},{"bike_id":"be59da8f-ba0e-45e0-8644-282dced20f6c","system_id":"levelo_inurba_marseille","lat":43.28458,"lon":5.35886,"is_reserved":false,"is_disabled":false,"rental_uris":{"android":"levelo://app?vid=be59da8f-ba0e-45e0-8644-282dced20f6c","ios":"levelo://app?vid=be59da8f-ba0e-45e0-8644-282dced20f6c"},"vehicle_type_id":"4","last_reported":1747260475,"current_range_meters":13600,"station_id":"ce4bhah2rcd13ifvqei0","pricing_plan_id":"cebpf4jnsgd1na2vs0mg"},{"bike_id":"88acd83c-7ef2-45ff-b88e-d5ac2cd8b948","system_id":"levelo_inurba_marseille","lat":43.29533,"lon":5.39407,"is_reserved":false,"is_disabled":false,"rental_uris":{"android":"levelo://app?vid=88acd83c-7ef2-45ff-b88e-d5ac2cd8b948","ios":"levelo://app?vid=88acd83c-7ef2-45ff-b88e-d5ac2cd8b948"},"vehicle_type_id":"4","last_reported":1747260475,"current_range_meters":14000,"station_id":"ce4bh292rcd13ifvqdf0","pricing_plan_id":"cebpf4jnsgd1na2vs0mg"},{"bike_id":"1b8fcf53-a929-4878-a714-5e795b4cbebb","system_id":"levelo_inurba_marseille","lat":43.28697,"lon":5.39971,"is_reserved":false,"is_disabled":false,"rental_uris":{"android":"levelo://app?vid=1b8fcf53-a929-4878-a714-5e795b4cbebb","ios":"levelo://app?vid=1b8fcf53-a929-4878-a714-5e795b4cbebb"},"vehicle_type_id":"4","last_reported":1747260475,"current_range_meters":14000,"station_id":"ce4bho92rcd13ifvqh3g","pricing_plan_id":"cebpf4jnsgd1na2vs0mg"},{"bike_id":"f3e7022b-4ef1-4fe9-b368-f11e5afc12e9","system_id":"levelo_inurba_marseille","lat":43.29475,"lon":5.39767,"is_reserved":false,"is_disabled":false,"rental_uris":{"android":"levelo://app?vid=f3e7022b-4ef1-4fe9-b368-f11e5afc12e9","ios":"levelo://app?vid=f3e7022b-4ef1-4fe9-b368-f11e5afc12e9"},"vehicle_type_id":"4","last_reported":1747260475,"current_range_meters":14000,"station_id":"ce4bh3h2rcd13ifvqdo0","pricing_plan_id":"cebpf4jnsgd1na2vs0mg"},{"bike_id":"8619acca-ecd0-4357-bf7c-0d59e9a78ed8","system_id":"levelo_inurba_marseille","lat":43.29257,"lon":5.37621,"is_reserved":false,"is_disabled":false,"rental_uris":{"android":"levelo://app?vid=8619acca-ecd0-4357-bf7c-0d59e9a78ed8","ios":"levelo://app?vid=8619acca-ecd0-4357-bf7c-0d59e9a78ed8"},"vehicle_type_id":"4","last_reported":1747260475,"current_range_meters":14000,"station_id":"ce4bgi12rcd13ifvqb80","pricing_plan_id":"cebpf4jnsgd1na2vs0mg"},{"bike_id":"f4a29ccd-2645-41bd-91b7-57baafbe4e16","system_id":"levelo_inurba_marseille","lat":43.289933,"lon":5.356226,"is_reserved":false,"is_disabled":true,"rental_uris":{"android":"levelo://app?vid=f4a29ccd-2645-41bd-91b7-57baafbe4e16","ios":"levelo://app?vid=f4a29ccd-2645-41bd-91b7-57baafbe4e16"},"vehicle_type_id":"4","last_reported":1747260475,"current_range_meters":14000,"station_id":"ce4bhb92rcd13ifvqen0","pricing_plan_id":"cebpf4jnsgd1na2vs0mg"},{"bike_id":"15b78ca4-8eda-4012-b392-8e1c04a2c79c","system_id":"levelo_inurba_marseille","lat":43.27992,"lon":5.416633,"is_reserved":false,"is_disabled":true,"rental_uris":{"android":"levelo://app?vid=15b78ca4-8eda-4012-b392-8e1c04a2c79c","ios":"levelo://app?vid=15b78ca4-8eda-4012-b392-8e1c04a2c79c"},"vehicle_type_id":"4","last_reported":1747260475,"current_range_meters":14000,"station_id":"ce4bho12rcd13ifvqh1g","pricing_plan_id":"cebpf4jnsgd1na2vs0mg"},{"bike_id":"c77b1570-4df9-4e22-80cf-fcdd1cc11fea","system_id":"levelo_inurba_marseille","lat":43.28465,"lon":5.39243,"is_reserved":false,"is_disabled":false,"rental_uris":{"android":"levelo://app?vid=c77b1570-4df9-4e22-80cf-fcdd1cc11fea","ios":"levelo://app?vid=c77b1570-4df9-4e22-80cf-fcdd1cc11fea"},"vehicle_type_id":"4","last_reported":1747260475,"current_range_meters":14000,"station_id":"ce4bhoh2rcd13ifvqh5g","pricing_plan_id":"cebpf4jnsgd1na2vs0mg"},{"bike_id":"8c7308bf-84fd-4edb-9b86-07fbeaf5e51b","system_id":"levelo_inurba_marseille","lat":43.31743,"lon":5.42415,"is_reserved":false,"is_disabled":false,"rental_uris":{"android":"levelo://app?vid=8c7308bf-84fd-4edb-9b86-07fbeaf5e51b","ios":"levelo://app?vid=8c7308bf-84fd-4edb-9b86-07fbeaf5e51b"},"vehicle_type_id":"4","last_reported":1747260475,"current_range_meters":14000,"station_id":"ce4bhp92rcd13ifvqhbg","pricing_plan_id":"cebpf4jnsgd1na2vs0mg"},{"bike_id":"d4abc0f4-75e6-4c24-ab00-0660a88a0c8c","system_id":"levelo_inurba_marseille","lat":43.25115,"lon":5.4033,"is_reserved":false,"is_disabled":false,"rental_uris":{"android":"levelo://app?vid=d4abc0f4-75e6-4c24-ab00-0660a88a0c8c","ios":"levelo://app?vid=d4abc0f4-75e6-4c24-ab00-0660a88a0c8c"},"vehicle_type_id":"4","last_reported":1747260475,"current_range_meters":14400,"station_id":"ce4bhlh2rcd13ifvqgig","pricing_plan_id":"cebpf4jnsgd1na2vs0mg"},{"bike_id":"4efa8b44-eb9d-4752-97e3-3802e8bd3c5d","system_id":"levelo_inurba_marseille","lat":43.25871,"lon":5.39899,"is_reserved":false,"is_disabled":false,"rental_uris":{"android":"levelo://app?vid=4efa8b44-eb9d-4752-97e3-3802e8bd3c5d","ios":"levelo://app?vid=4efa8b44-eb9d-4752-97e3-3802e8bd3c5d"},"vehicle_type_id":"4","last_reported":1747260475,"current_range_meters":14400,"station_id":"ce4bhl92rcd13ifvqghg","pricing_plan_id":"cebpf4jnsgd1na2vs0mg"},{"bike_id":"05114133-6661-4169-92b9-ccfc743c39f7","system_id":"levelo_inurba_marseille","lat":43.28575,"lon":5.39477,"is_reserved":false,"is_disabled":false,"rental_uris":{"android":"levelo://app?vid=05114133-6661-4169-92b9-ccfc743c39f7","ios":"levelo://app?vid=05114133-6661-4169-92b9-ccfc743c39f7"},"vehicle_type_id":"4","last_reported":1747260475,"current_range_meters":14800,"station_id":"ce4bh292rcd13ifvqdg0","pricing_plan_id":"cebpf4jnsgd1na2vs0mg"},{"bike_id":"da5fbc6e-7792-4ac5-a915-a296c092ac5c","system_id":"levelo_inurba_marseille","lat":43.29207,"lon":5.3932,"is_reserved":false,"is_disabled":false,"rental_uris":{"android":"levelo://app?vid=da5fbc6e-7792-4ac5-a915-a296c092ac5c","ios":"levelo://app?vid=da5fbc6e-7792-4ac5-a915-a296c092ac5c"},"vehicle_type_id":"4","last_reported":1747260475,"current_range_meters":14800,"station_id":"ce4bh192rcd13ifvqdd0","pricing_plan_id":"cebpf4jnsgd1na2vs0mg"},{"bike_id":"7389369f-e857-403d-a750-9bd5e56f9fa6","system_id":"levelo_inurba_marseille","lat":43.292648,"lon":5.384391,"is_reserved":false,"is_disabled":false,"rental_uris":{"android":"levelo://app?vid=7389369f-e857-403d-a750-9bd5e56f9fa6","ios":"levelo://app?vid=7389369f-e857-403d-a750-9bd5e56f9fa6"},"vehicle_type_id":"4","last_reported":1747260475,"current_range_meters":14800,"station_id":"ce4bh692rcd13ifvqea0","pricing_plan_id":"cebpf4jnsgd1na2vs0mg"},{"bike_id":"9b54713a-5a53-4d56-b33e-215313f72bbc","system_id":"levelo_inurba_marseille","lat":43.3133,"lon":5.39695,"is_reserved":false,"is_disabled":false,"rental_uris":{"android":"levelo://app?vid=9b54713a-5a53-4d56-b33e-215313f72bbc","ios":"levelo://app?vid=9b54713a-5a53-4d56-b33e-215313f72bbc"},"vehicle_type_id":"4","last_reported":1747260475,"current_range_meters":14800,"station_id":"ce4bgvp2rcd13ifvqcu0","pricing_plan_id":"cebpf4jnsgd1na2vs0mg"},{"bike_id":"77a29338-5556-4205-9db9-a624ab9d00e5","system_id":"levelo_inurba_marseille","lat":43.24527,"lon":5.39512,"is_reserved":false,"is_disabled":false,"rental_uris":{"android":"levelo://app?vid=77a29338-5556-4205-9db9-a624ab9d00e5","ios":"levelo://app?vid=77a29338-5556-4205-9db9-a624ab9d00e5"},"vehicle_type_id":"4","last_reported":1747260475,"current_range_meters":15200,"station_id":"ce4bhlp2rcd13ifvqgjg","pricing_plan_id":"cebpf4jnsgd1na2vs0mg"},{"bike_id":"47b55c6e-58ad-4b12-8e2b-98f9112b73ba","system_id":"levelo_inurba_marseille","lat":43.27996,"lon":5.41657,"is_reserved":false,"is_disabled":false,"rental_uris":{"android":"levelo://app?vid=47b55c6e-58ad-4b12-8e2b-98f9112b73ba","ios":"levelo://app?vid=47b55c6e-58ad-4b12-8e2b-98f9112b73ba"},"vehicle_type_id":"4","last_reported":1747260475,"current_range_meters":15200,"station_id":"ce4bho12rcd13ifvqh1g","pricing_plan_id":"cebpf4jnsgd1na2vs0mg"},{"bike_id":"32122cc2-1955-4fa7-b923-e772e4a9638a","system_id":"levelo_inurba_marseille","lat":43.295551,"lon":5.422908,"is_reserved":false,"is_disabled":false,"rental_uris":{"android":"levelo://app?vid=32122cc2-1955-4fa7-b923-e772e4a9638a","ios":"levelo://app?vid=32122cc2-1955-4fa7-b923-e772e4a9638a"},"vehicle_type_id":"4","last_reported":1747260475,"current_range_meters":15200,"station_id":"ce4bhph2rcd13ifvqhdg","pricing_plan_id":"cebpf4jnsgd1na2vs0mg"},{"bike_id":"cc377332-c824-4cf8-bc9d-97d1852f3692","system_id":"levelo_inurba_marseille","lat":43.31722,"lon":5.40415,"is_reserved":false,"is_disabled":false,"rental_uris":{"android":"levelo://app?vid=cc377332-c824-4cf8-bc9d-97d1852f3692","ios":"levelo://app?vid=cc377332-c824-4cf8-bc9d-97d1852f3692"},"vehicle_type_id":"4","last_reported":1747260475,"current_range_meters":15200,"station_id":"ce4bh012rcd13ifvqd00","pricing_plan_id":"cebpf4jnsgd1na2vs0mg"},{"bike_id":"2a6fe013-4b51-4c6c-999f-41df50b733ae","system_id":"levelo_inurba_marseille","lat":43.30603,"lon":5.37231,"is_reserved":false,"is_disabled":false,"rental_uris":{"android":"levelo://app?vid=2a6fe013-4b51-4c6c-999f-41df50b733ae","ios":"levelo://app?vid=2a6fe013-4b51-4c6c-999f-41df50b733ae"},"vehicle_type_id":"4","last_reported":1747260475,"current_range_meters":15200,"station_id":"ce4bgqh2rcd13ifvqc4g","pricing_plan_id":"cebpf4jnsgd1na2vs0mg"},{"bike_id":"8321ca4b-d044-4ce8-9848-2a740562d0ea","system_id":"levelo_inurba_marseille","lat":43.3084,"lon":5.38167,"is_reserved":false,"is_disabled":false,"rental_uris":{"android":"levelo://app?vid=8321ca4b-d044-4ce8-9848-2a740562d0ea","ios":"levelo://app?vid=8321ca4b-d044-4ce8-9848-2a740562d0ea"},"vehicle_type_id":"4","last_reported":1747260475,"current_range_meters":15200,"station_id":"ce4bgt12rcd13ifvqce0","pricing_plan_id":"cebpf4jnsgd1na2vs0mg"},{"bike_id":"20ae89a2-542c-444a-bba7-d88d163745c3","system_id":"levelo_inurba_marseille","lat":43.29268,"lon":5.409205,"is_reserved":false,"is_disabled":true,"rental_uris":{"android":"levelo://app?vid=20ae89a2-542c-444a-bba7-d88d163745c3","ios":"levelo://app?vid=20ae89a2-542c-444a-bba7-d88d163745c3"},"vehicle_type_id":"4","last_reported":1747260475,"current_range_meters":15200,"station_id":"ce4bh192rcd13ifvqdc0","pricing_plan_id":"cebpf4jnsgd1na2vs0mg"},{"bike_id":"2af0df00-84df-494b-94f3-3f5b86286540","system_id":"levelo_inurba_marseille","lat":43.30882,"lon":5.37072,"is_reserved":false,"is_disabled":false,"rental_uris":{"android":"levelo://app?vid=2af0df00-84df-494b-94f3-3f5b86286540","ios":"levelo://app?vid=2af0df00-84df-494b-94f3-3f5b86286540"},"vehicle_type_id":"4","last_reported":1747260475,"current_range_meters":15200,"station_id":"","pricing_plan_id":"cebpf4jnsgd1na2vs0mg"},{"bike_id":"feb4f947-8c6b-40c7-9498-be1ceb9335f1","system_id":"levelo_inurba_marseille","lat":43.31326,"lon":5.39699,"is_reserved":false,"is_disabled":false,"rental_uris":{"android":"levelo://app?vid=feb4f947-8c6b-40c7-9498-be1ceb9335f1","ios":"levelo://app?vid=feb4f947-8c6b-40c7-9498-be1ceb9335f1"},"vehicle_type_id":"4","last_reported":1747260475,"current_range_meters":16000,"station_id":"ce4bgvp2rcd13ifvqcu0","pricing_plan_id":"cebpf4jnsgd1na2vs0mg"},{"bike_id":"173815be-97dc-4bd5-92df-b9c49c0c2091","system_id":"levelo_inurba_marseille","lat":43.30321,"lon":5.40437,"is_reserved":false,"is_disabled":false,"rental_uris":{"android":"levelo://app?vid=173815be-97dc-4bd5-92df-b9c49c0c2091","ios":"levelo://app?vid=173815be-97dc-4bd5-92df-b9c49c0c2091"},"vehicle_type_id":"4","last_reported":1747260475,"current_range_meters":16000,"station_id":"ce4bh012rcd13ifvqd10","pricing_plan_id":"cebpf4jnsgd1na2vs0mg"},{"bike_id":"94425245-09df-4108-9a30-610dbcaf2585","system_id":"levelo_inurba_marseille","lat":43.31722,"lon":5.42406,"is_reserved":false,"is_disabled":false,"rental_uris":{"android":"levelo://app?vid=94425245-09df-4108-9a30-610dbcaf2585","ios":"levelo://app?vid=94425245-09df-4108-9a30-610dbcaf2585"},"vehicle_type_id":"4","last_reported":1747260475,"current_range_meters":16000,"station_id":"ce4bhp92rcd13ifvqhbg","pricing_plan_id":"cebpf4jnsgd1na2vs0mg"},{"bike_id":"a7a3d8d2-d4c3-469c-b962-d9c90b2eca97","system_id":"levelo_inurba_marseille","lat":43.283954,"lon":5.375313,"is_reserved":false,"is_disabled":true,"rental_uris":{"android":"levelo://app?vid=a7a3d8d2-d4c3-469c-b962-d9c90b2eca97","ios":"levelo://app?vid=a7a3d8d2-d4c3-469c-b962-d9c90b2eca97"},"vehicle_type_id":"4","last_reported":1747260475,"current_range_meters":16000,"station_id":"ce4bh412rcd13ifvqds0","pricing_plan_id":"cebpf4jnsgd1na2vs0mg"},{"bike_id":"21f5a1a4-43c5-4049-8a8d-3146c5c35157","system_id":"levelo_inurba_marseille","lat":43.22939,"lon":5.35377,"is_reserved":false,"is_disabled":false,"rental_uris":{"android":"levelo://app?vid=21f5a1a4-43c5-4049-8a8d-3146c5c35157","ios":"levelo://app?vid=21f5a1a4-43c5-4049-8a8d-3146c5c35157"},"vehicle_type_id":"4","last_reported":1747260475,"current_range_meters":16000,"station_id":"cpo3532slgdg3j2ikp40","pricing_plan_id":"cebpf4jnsgd1na2vs0mg"},{"bike_id":"3c1b7f30-5d26-4067-beb9-4c40ea2a08b9","system_id":"levelo_inurba_marseille","lat":43.26061,"lon":5.39396,"is_reserved":false,"is_disabled":false,"rental_uris":{"android":"levelo://app?vid=3c1b7f30-5d26-4067-beb9-4c40ea2a08b9","ios":"levelo://app?vid=3c1b7f30-5d26-4067-beb9-4c40ea2a08b9"},"vehicle_type_id":"4","last_reported":1747260475,"current_range_meters":16000,"station_id":"ce4bhh92rcd13ifvqfj0","pricing_plan_id":"cebpf4jnsgd1na2vs0mg"},{"bike_id":"21b06e68-a2e0-441f-9af6-90b8ed2d2a0e","system_id":"levelo_inurba_marseille","lat":43.30315,"lon":5.40435,"is_reserved":false,"is_disabled":false,"rental_uris":{"android":"levelo://app?vid=21b06e68-a2e0-441f-9af6-90b8ed2d2a0e","ios":"levelo://app?vid=21b06e68-a2e0-441f-9af6-90b8ed2d2a0e"},"vehicle_type_id":"4","last_reported":1747260475,"current_range_meters":16000,"station_id":"ce4bh012rcd13ifvqd10","pricing_plan_id":"cebpf4jnsgd1na2vs0mg"},{"bike_id":"9f3d78f3-d50a-43cd-b62d-45eb26682299","system_id":"levelo_inurba_marseille","lat":43.28489,"lon":5.3585,"is_reserved":false,"is_disabled":false,"rental_uris":{"android":"levelo://app?vid=9f3d78f3-d50a-43cd-b62d-45eb26682299","ios":"levelo://app?vid=9f3d78f3-d50a-43cd-b62d-45eb26682299"},"vehicle_type_id":"4","last_reported":1747260475,"current_range_meters":16000,"station_id":"ce4bhah2rcd13ifvqei0","pricing_plan_id":"cebpf4jnsgd1na2vs0mg"},{"bike_id":"cfae641a-54c0-4b9b-b874-774267c67373","system_id":"levelo_inurba_marseille","lat":43.28962,"lon":5.43206,"is_reserved":false,"is_disabled":false,"rental_uris":{"android":"levelo://app?vid=cfae641a-54c0-4b9b-b874-774267c67373","ios":"levelo://app?vid=cfae641a-54c0-4b9b-b874-774267c67373"},"vehicle_type_id":"4","last_reported":1747260475,"current_range_meters":16000,"station_id":"","pricing_plan_id":"cebpf4jnsgd1na2vs0mg"},{"bike_id":"77f2f3f3-8f83-436c-bb53-b1fe53123a37","system_id":"levelo_inurba_marseille","lat":43.313403,"lon":5.396867,"is_reserved":false,"is_disabled":false,"rental_uris":{"android":"levelo://app?vid=77f2f3f3-8f83-436c-bb53-b1fe53123a37","ios":"levelo://app?vid=77f2f3f3-8f83-436c-bb53-b1fe53123a37"},"vehicle_type_id":"4","last_reported":1747260475,"current_range_meters":16400,"station_id":"ce4bgvp2rcd13ifvqcu0","pricing_plan_id":"cebpf4jnsgd1na2vs0mg"},{"bike_id":"e79fd8c1-5944-4bcd-9d00-e939e610771d","system_id":"levelo_inurba_marseille","lat":43.31487,"lon":5.37304,"is_reserved":false,"is_disabled":false,"rental_uris":{"android":"levelo://app?vid=e79fd8c1-5944-4bcd-9d00-e939e610771d","ios":"levelo://app?vid=e79fd8c1-5944-4bcd-9d00-e939e610771d"},"vehicle_type_id":"4","last_reported":1747260475,"current_range_meters":16400,"station_id":"ce4bgt12rcd13ifvqcd0","pricing_plan_id":"cebpf4jnsgd1na2vs0mg"},{"bike_id":"503b1e6e-2a73-4f04-bb9f-80c3831538b1","system_id":"levelo_inurba_marseille","lat":43.30955,"lon":5.36902,"is_reserved":false,"is_disabled":true,"rental_uris":{"android":"levelo://app?vid=503b1e6e-2a73-4f04-bb9f-80c3831538b1","ios":"levelo://app?vid=503b1e6e-2a73-4f04-bb9f-80c3831538b1"},"vehicle_type_id":"4","last_reported":1747260475,"current_range_meters":16400,"station_id":"ce4bgn92rcd13ifvqbvg","pricing_plan_id":"cebpf4jnsgd1na2vs0mg"},{"bike_id":"48e7d077-bb92-4ccc-b835-dc39f7dde104","system_id":"levelo_inurba_marseille","lat":43.30316,"lon":5.39203,"is_reserved":false,"is_disabled":false,"rental_uris":{"android":"levelo://app?vid=48e7d077-bb92-4ccc-b835-dc39f7dde104","ios":"levelo://app?vid=48e7d077-bb92-4ccc-b835-dc39f7dde104"},"vehicle_type_id":"4","last_reported":1747260475,"current_range_meters":16400,"station_id":"ce4bgkh2rcd13ifvqbk0","pricing_plan_id":"cebpf4jnsgd1na2vs0mg"},{"bike_id":"84904e41-efc3-4415-8eeb-991ab4c4f68f","system_id":"levelo_inurba_marseille","lat":43.28718,"lon":5.37418,"is_reserved":false,"is_disabled":false,"rental_uris":{"android":"levelo://app?vid=84904e41-efc3-4415-8eeb-991ab4c4f68f","ios":"levelo://app?vid=84904e41-efc3-4415-8eeb-991ab4c4f68f"},"vehicle_type_id":"4","last_reported":1747260475,"current_range_meters":16400,"station_id":"ce4bh3p2rcd13ifvqdq0","pricing_plan_id":"cebpf4jnsgd1na2vs0mg"},{"bike_id":"d7369284-bfc2-4af7-9a95-c50b2030cf6e","system_id":"levelo_inurba_marseille","lat":43.30611,"lon":5.3722,"is_reserved":false,"is_disabled":false,"rental_uris":{"android":"levelo://app?vid=d7369284-bfc2-4af7-9a95-c50b2030cf6e","ios":"levelo://app?vid=d7369284-bfc2-4af7-9a95-c50b2030cf6e"},"vehicle_type_id":"4","last_reported":1747260475,"current_range_meters":16400,"station_id":"ce4bgqh2rcd13ifvqc4g","pricing_plan_id":"cebpf4jnsgd1na2vs0mg"},{"bike_id":"4ca5c04b-83fc-47f0-ba12-ec385416b528","system_id":"levelo_inurba_marseille","lat":43.314267,"lon":5.369647,"is_reserved":false,"is_disabled":false,"rental_uris":{"android":"levelo://app?vid=4ca5c04b-83fc-47f0-ba12-ec385416b528","ios":"levelo://app?vid=4ca5c04b-83fc-47f0-ba12-ec385416b528"},"vehicle_type_id":"4","last_reported":1747260475,"current_range_meters":16400,"station_id":"","pricing_plan_id":"cebpf4jnsgd1na2vs0mg"},{"bike_id":"85229f75-99f9-447a-a3ed-86236028f5a5","system_id":"levelo_inurba_marseille","lat":43.25068,"lon":5.40258,"is_reserved":false,"is_disabled":false,"rental_uris":{"android":"levelo://app?vid=85229f75-99f9-447a-a3ed-86236028f5a5","ios":"levelo://app?vid=85229f75-99f9-447a-a3ed-86236028f5a5"},"vehicle_type_id":"4","last_reported":1747260475,"current_range_meters":16400,"station_id":"ce4bhlh2rcd13ifvqgig","pricing_plan_id":"cebpf4jnsgd1na2vs0mg"},{"bike_id":"968180e8-1b85-4160-9c88-d8f898861abb","system_id":"levelo_inurba_marseille","lat":43.299352,"lon":5.374328,"is_reserved":false,"is_disabled":false,"rental_uris":{"android":"levelo://app?vid=968180e8-1b85-4160-9c88-d8f898861abb","ios":"levelo://app?vid=968180e8-1b85-4160-9c88-d8f898861abb"},"vehicle_type_id":"4","last_reported":1747260475,"current_range_meters":16800,"station_id":"ce4bgjh2rcd13ifvqbg0","pricing_plan_id":"cebpf4jnsgd1na2vs0mg"},{"bike_id":"0a5e6cc4-0328-4fd7-9db5-c5029f1cf2d9","system_id":"levelo_inurba_marseille","lat":43.32365,"lon":5.38887,"is_reserved":false,"is_disabled":false,"rental_uris":{"android":"levelo://app?vid=0a5e6cc4-0328-4fd7-9db5-c5029f1cf2d9","ios":"levelo://app?vid=0a5e6cc4-0328-4fd7-9db5-c5029f1cf2d9"},"vehicle_type_id":"4","last_reported":1747260475,"current_range_meters":16800,"station_id":"ce4bhqp2rcd13ifvqhog","pricing_plan_id":"cebpf4jnsgd1na2vs0mg"},{"bike_id":"d74dda0c-2ae8-4a20-aee3-80ba3b692d64","system_id":"levelo_inurba_marseille","lat":43.30468,"lon":5.3722,"is_reserved":false,"is_disabled":false,"rental_uris":{"android":"levelo://app?vid=d74dda0c-2ae8-4a20-aee3-80ba3b692d64","ios":"levelo://app?vid=d74dda0c-2ae8-4a20-aee3-80ba3b692d64"},"vehicle_type_id":"4","last_reported":1747260475,"current_range_meters":16800,"station_id":"","pricing_plan_id":"cebpf4jnsgd1na2vs0mg"},{"bike_id":"b8505fd1-8131-40e9-a33d-145916457441","system_id":"levelo_inurba_marseille","lat":43.30378,"lon":5.42487,"is_reserved":false,"is_disabled":false,"rental_uris":{"android":"levelo://app?vid=b8505fd1-8131-40e9-a33d-145916457441","ios":"levelo://app?vid=b8505fd1-8131-40e9-a33d-145916457441"},"vehicle_type_id":"4","last_reported":1747260475,"current_range_meters":16800,"station_id":"ce4bhoh2rcd13ifvqh6g","pricing_plan_id":"cebpf4jnsgd1na2vs0mg"},{"bike_id":"65064f86-3c66-4826-93c2-65566820a8eb","system_id":"levelo_inurba_marseille","lat":43.26558,"lon":5.39015,"is_reserved":false,"is_disabled":false,"rental_uris":{"android":"levelo://app?vid=65064f86-3c66-4826-93c2-65566820a8eb","ios":"levelo://app?vid=65064f86-3c66-4826-93c2-65566820a8eb"},"vehicle_type_id":"4","last_reported":1747260475,"current_range_meters":16800,"station_id":"ce4bhe12rcd13ifvqf30","pricing_plan_id":"cebpf4jnsgd1na2vs0mg"},{"bike_id":"88bbba9e-7184-4058-8824-c96a1cc5be7e","system_id":"levelo_inurba_marseille","lat":43.26227,"lon":5.40445,"is_reserved":false,"is_disabled":false,"rental_uris":{"android":"levelo://app?vid=88bbba9e-7184-4058-8824-c96a1cc5be7e","ios":"levelo://app?vid=88bbba9e-7184-4058-8824-c96a1cc5be7e"},"vehicle_type_id":"4","last_reported":1747260475,"current_range_meters":16800,"station_id":"ce4bhmh2rcd13ifvqgmg","pricing_plan_id":"cebpf4jnsgd1na2vs0mg"},{"bike_id":"f5d635aa-40a8-4516-9089-f4be7c5861ab","system_id":"levelo_inurba_marseille","lat":43.32338,"lon":5.40619,"is_reserved":false,"is_disabled":false,"rental_uris":{"android":"levelo://app?vid=f5d635aa-40a8-4516-9089-f4be7c5861ab","ios":"levelo://app?vid=f5d635aa-40a8-4516-9089-f4be7c5861ab"},"vehicle_type_id":"4","last_reported":1747260475,"current_range_meters":17200,"station_id":"ce4bhq92rcd13ifvqhjg","pricing_plan_id":"cebpf4jnsgd1na2vs0mg"},{"bike_id":"b33bce84-ade5-44da-bf0b-0b6ebddf4632","system_id":"levelo_inurba_marseille","lat":43.304437,"lon":5.388826,"is_reserved":false,"is_disabled":false,"rental_uris":{"android":"levelo://app?vid=b33bce84-ade5-44da-bf0b-0b6ebddf4632","ios":"levelo://app?vid=b33bce84-ade5-44da-bf0b-0b6ebddf4632"},"vehicle_type_id":"4","last_reported":1747260475,"current_range_meters":17200,"station_id":"ce4bgk12rcd13ifvqbi0","pricing_plan_id":"cebpf4jnsgd1na2vs0mg"},{"bike_id":"7bd521b5-756d-405c-9438-d2db26f23023","system_id":"levelo_inurba_marseille","lat":43.25154,"lon":5.40295,"is_reserved":false,"is_disabled":false,"rental_uris":{"android":"levelo://app?vid=7bd521b5-756d-405c-9438-d2db26f23023","ios":"levelo://app?vid=7bd521b5-756d-405c-9438-d2db26f23023"},"vehicle_type_id":"4","last_reported":1747260475,"current_range_meters":17200,"station_id":"ce4bhlh2rcd13ifvqgig","pricing_plan_id":"cebpf4jnsgd1na2vs0mg"},{"bike_id":"1b80681f-9677-44c0-90c9-48d87fc24c7e","system_id":"levelo_inurba_marseille","lat":43.30883,"lon":5.39633,"is_reserved":false,"is_disabled":false,"rental_uris":{"android":"levelo://app?vid=1b80681f-9677-44c0-90c9-48d87fc24c7e","ios":"levelo://app?vid=1b80681f-9677-44c0-90c9-48d87fc24c7e"},"vehicle_type_id":"4","last_reported":1747260475,"current_range_meters":17200,"station_id":"ce4bh012rcd13ifvqcv0","pricing_plan_id":"cebpf4jnsgd1na2vs0mg"},{"bike_id":"b3dc7ba8-3371-4496-b4ad-370034e7b805","system_id":"levelo_inurba_marseille","lat":43.30931,"lon":5.40151,"is_reserved":false,"is_disabled":false,"rental_uris":{"android":"levelo://app?vid=b3dc7ba8-3371-4496-b4ad-370034e7b805","ios":"levelo://app?vid=b3dc7ba8-3371-4496-b4ad-370034e7b805"},"vehicle_type_id":"4","last_reported":1747260475,"current_range_meters":17200,"station_id":"ce4bgvp2rcd13ifvqct0","pricing_plan_id":"cebpf4jnsgd1na2vs0mg"},{"bike_id":"c2871eb7-bb83-4da8-bd9e-21c07b2319d9","system_id":"levelo_inurba_marseille","lat":43.2894,"lon":5.36629,"is_reserved":false,"is_disabled":false,"rental_uris":{"android":"levelo://app?vid=c2871eb7-bb83-4da8-bd9e-21c07b2319d9","ios":"levelo://app?vid=c2871eb7-bb83-4da8-bd9e-21c07b2319d9"},"vehicle_type_id":"4","last_reported":1747260475,"current_range_meters":17200,"station_id":"ce4bhap2rcd13ifvqek0","pricing_plan_id":"cebpf4jnsgd1na2vs0mg"},{"bike_id":"374ca2b8-a567-4fd7-9e6e-adad3bee711c","system_id":"levelo_inurba_marseille","lat":43.27993,"lon":5.41656,"is_reserved":false,"is_disabled":false,"rental_uris":{"android":"levelo://app?vid=374ca2b8-a567-4fd7-9e6e-adad3bee711c","ios":"levelo://app?vid=374ca2b8-a567-4fd7-9e6e-adad3bee711c"},"vehicle_type_id":"4","last_reported":1747260475,"current_range_meters":17200,"station_id":"ce4bho12rcd13ifvqh1g","pricing_plan_id":"cebpf4jnsgd1na2vs0mg"},{"bike_id":"d8522fe5-4a63-4ea0-b467-c9efd6480686","system_id":"levelo_inurba_marseille","lat":43.29571,"lon":5.39989,"is_reserved":false,"is_disabled":false,"rental_uris":{"android":"levelo://app?vid=d8522fe5-4a63-4ea0-b467-c9efd6480686","ios":"levelo://app?vid=d8522fe5-4a63-4ea0-b467-c9efd6480686"},"vehicle_type_id":"4","last_reported":1747260475,"current_range_meters":17200,"station_id":"ce4bh312rcd13ifvqdj0","pricing_plan_id":"cebpf4jnsgd1na2vs0mg"},{"bike_id":"c0b9fd4f-e181-46ce-b0bf-f5119973334f","system_id":"levelo_inurba_marseille","lat":43.33771,"lon":5.37424,"is_reserved":false,"is_disabled":false,"rental_uris":{"android":"levelo://app?vid=c0b9fd4f-e181-46ce-b0bf-f5119973334f","ios":"levelo://app?vid=c0b9fd4f-e181-46ce-b0bf-f5119973334f"},"vehicle_type_id":"4","last_reported":1747260475,"current_range_meters":17200,"station_id":"","pricing_plan_id":"cebpf4jnsgd1na2vs0mg"},{"bike_id":"c682a571-1b8e-42c7-82ff-72c8d128bd01","system_id":"levelo_inurba_marseille","lat":43.29893,"lon":5.383166,"is_reserved":false,"is_disabled":false,"rental_uris":{"android":"levelo://app?vid=c682a571-1b8e-42c7-82ff-72c8d128bd01","ios":"levelo://app?vid=c682a571-1b8e-42c7-82ff-72c8d128bd01"},"vehicle_type_id":"4","last_reported":1747260475,"current_range_meters":17600,"station_id":"","pricing_plan_id":"cebpf4jnsgd1na2vs0mg"},{"bike_id":"5a74eea2-5942-4a21-bea7-5f4588e9f256","system_id":"levelo_inurba_marseille","lat":43.29976,"lon":5.37181,"is_reserved":false,"is_disabled":false,"rental_uris":{"android":"levelo://app?vid=5a74eea2-5942-4a21-bea7-5f4588e9f256","ios":"levelo://app?vid=5a74eea2-5942-4a21-bea7-5f4588e9f256"},"vehicle_type_id":"4","last_reported":1747260475,"current_range_meters":17600,"station_id":"ce4bgr92rcd13ifvqc7g","pricing_plan_id":"cebpf4jnsgd1na2vs0mg"},{"bike_id":"1def4d9e-ba54-4554-8279-72b57c0de750","system_id":"levelo_inurba_marseille","lat":43.337444,"lon":5.374475,"is_reserved":false,"is_disabled":false,"rental_uris":{"android":"levelo://app?vid=1def4d9e-ba54-4554-8279-72b57c0de750","ios":"levelo://app?vid=1def4d9e-ba54-4554-8279-72b57c0de750"},"vehicle_type_id":"4","last_reported":1747260475,"current_range_meters":17600,"station_id":"","pricing_plan_id":"cebpf4jnsgd1na2vs0mg"},{"bike_id":"45919744-c568-4b63-a55c-cfc2dcdb81fb","system_id":"levelo_inurba_marseille","lat":43.2867,"lon":5.36343,"is_reserved":false,"is_disabled":false,"rental_uris":{"android":"levelo://app?vid=45919744-c568-4b63-a55c-cfc2dcdb81fb","ios":"levelo://app?vid=45919744-c568-4b63-a55c-cfc2dcdb81fb"},"vehicle_type_id":"4","last_reported":1747260475,"current_range_meters":17600,"station_id":"ce4bhah2rcd13ifvqej0","pricing_plan_id":"cebpf4jnsgd1na2vs0mg"},{"bike_id":"0cc46be0-cda7-4d84-a24a-b567a36e5f7e","system_id":"levelo_inurba_marseille","lat":43.30273,"lon":5.36859,"is_reserved":false,"is_disabled":false,"rental_uris":{"android":"levelo://app?vid=0cc46be0-cda7-4d84-a24a-b567a36e5f7e","ios":"levelo://app?vid=0cc46be0-cda7-4d84-a24a-b567a36e5f7e"},"vehicle_type_id":"4","last_reported":1747260475,"current_range_meters":17600,"station_id":"","pricing_plan_id":"cebpf4jnsgd1na2vs0mg"},{"bike_id":"dcc1a9b4-3a5d-4b06-9a1f-4153e388d53c","system_id":"levelo_inurba_marseille","lat":43.294414,"lon":5.397558,"is_reserved":false,"is_disabled":false,"rental_uris":{"android":"levelo://app?vid=dcc1a9b4-3a5d-4b06-9a1f-4153e388d53c","ios":"levelo://app?vid=dcc1a9b4-3a5d-4b06-9a1f-4153e388d53c"},"vehicle_type_id":"4","last_reported":1747260475,"current_range_meters":17600,"station_id":"ce4bh3h2rcd13ifvqdo0","pricing_plan_id":"cebpf4jnsgd1na2vs0mg"},{"bike_id":"251e065c-d743-4244-8459-843930713d33","system_id":"levelo_inurba_marseille","lat":43.24811,"lon":5.3744,"is_reserved":false,"is_disabled":false,"rental_uris":{"android":"levelo://app?vid=251e065c-d743-4244-8459-843930713d33","ios":"levelo://app?vid=251e065c-d743-4244-8459-843930713d33"},"vehicle_type_id":"4","last_reported":1747260475,"current_range_meters":17600,"station_id":"ce4bhgh2rcd13ifvqfb0","pricing_plan_id":"cebpf4jnsgd1na2vs0mg"},{"bike_id":"d7b105f2-c148-4c6b-8038-f421f0b14eff","system_id":"levelo_inurba_marseille","lat":43.31168,"lon":5.38722,"is_reserved":false,"is_disabled":false,"rental_uris":{"android":"levelo://app?vid=d7b105f2-c148-4c6b-8038-f421f0b14eff","ios":"levelo://app?vid=d7b105f2-c148-4c6b-8038-f421f0b14eff"},"vehicle_type_id":"4","last_reported":1747260475,"current_range_meters":18000,"station_id":"ce4bgv12rcd13ifvqcp0","pricing_plan_id":"cebpf4jnsgd1na2vs0mg"},{"bike_id":"ad60039a-2887-4b9e-b9d4-922130a2cb14","system_id":"levelo_inurba_marseille","lat":43.329434,"lon":5.364136,"is_reserved":false,"is_disabled":false,"rental_uris":{"android":"levelo://app?vid=ad60039a-2887-4b9e-b9d4-922130a2cb14","ios":"levelo://app?vid=ad60039a-2887-4b9e-b9d4-922130a2cb14"},"vehicle_type_id":"4","last_reported":1747260475,"current_range_meters":18000,"station_id":"","pricing_plan_id":"cebpf4jnsgd1na2vs0mg"},{"bike_id":"4e0c77bc-c9c5-4641-b896-ed7c27ff8f97","system_id":"levelo_inurba_marseille","lat":43.29874,"lon":5.39738,"is_reserved":false,"is_disabled":false,"rental_uris":{"android":"levelo://app?vid=4e0c77bc-c9c5-4641-b896-ed7c27ff8f97","ios":"levelo://app?vid=4e0c77bc-c9c5-4641-b896-ed7c27ff8f97"},"vehicle_type_id":"4","last_reported":1747260475,"current_range_meters":18000,"station_id":"ce4bh0h2rcd13ifvqd50","pricing_plan_id":"cebpf4jnsgd1na2vs0mg"},{"bike_id":"f7133b1f-3e0d-4f19-b04b-238d453b7ac9","system_id":"levelo_inurba_marseille","lat":43.3079,"lon":5.38146,"is_reserved":false,"is_disabled":false,"rental_uris":{"android":"levelo://app?vid=f7133b1f-3e0d-4f19-b04b-238d453b7ac9","ios":"levelo://app?vid=f7133b1f-3e0d-4f19-b04b-238d453b7ac9"},"vehicle_type_id":"4","last_reported":1747260475,"current_range_meters":18000,"station_id":"ce4bgt12rcd13ifvqce0","pricing_plan_id":"cebpf4jnsgd1na2vs0mg"},{"bike_id":"a97e7f2f-a4bd-43dc-a4a3-f47c4b150cbd","system_id":"levelo_inurba_marseille","lat":43.24181,"lon":5.39728,"is_reserved":false,"is_disabled":false,"rental_uris":{"android":"levelo://app?vid=a97e7f2f-a4bd-43dc-a4a3-f47c4b150cbd","ios":"levelo://app?vid=a97e7f2f-a4bd-43dc-a4a3-f47c4b150cbd"},"vehicle_type_id":"4","last_reported":1747260475,"current_range_meters":18000,"station_id":"ce4bhn12rcd13ifvqgpg","pricing_plan_id":"cebpf4jnsgd1na2vs0mg"},{"bike_id":"02407fdd-94d2-455f-9d53-ec4eeffce04a","system_id":"levelo_inurba_marseille","lat":43.28004,"lon":5.40016,"is_reserved":false,"is_disabled":false,"rental_uris":{"android":"levelo://app?vid=02407fdd-94d2-455f-9d53-ec4eeffce04a","ios":"levelo://app?vid=02407fdd-94d2-455f-9d53-ec4eeffce04a"},"vehicle_type_id":"4","last_reported":1747260475,"current_range_meters":18000,"station_id":"ce4bho92rcd13ifvqh4g","pricing_plan_id":"cebpf4jnsgd1na2vs0mg"},{"bike_id":"d7050558-65ac-4a68-a76c-6a37942a4b17","system_id":"levelo_inurba_marseille","lat":43.304304,"lon":5.388946,"is_reserved":false,"is_disabled":false,"rental_uris":{"android":"levelo://app?vid=d7050558-65ac-4a68-a76c-6a37942a4b17","ios":"levelo://app?vid=d7050558-65ac-4a68-a76c-6a37942a4b17"},"vehicle_type_id":"4","last_reported":1747260475,"current_range_meters":18000,"station_id":"ce4bgk12rcd13ifvqbi0","pricing_plan_id":"cebpf4jnsgd1na2vs0mg"},{"bike_id":"99854a5c-4c94-41df-a0e9-cc01af76f2f0","system_id":"levelo_inurba_marseille","lat":43.2815,"lon":5.40504,"is_reserved":false,"is_disabled":false,"rental_uris":{"android":"levelo://app?vid=99854a5c-4c94-41df-a0e9-cc01af76f2f0","ios":"levelo://app?vid=99854a5c-4c94-41df-a0e9-cc01af76f2f0"},"vehicle_type_id":"4","last_reported":1747260475,"current_range_meters":18000,"station_id":"","pricing_plan_id":"cebpf4jnsgd1na2vs0mg"},{"bike_id":"b064664a-37e6-4027-8d08-cb54eda1e955","system_id":"levelo_inurba_marseille","lat":43.3268,"lon":5.42968,"is_reserved":false,"is_disabled":false,"rental_uris":{"android":"levelo://app?vid=b064664a-37e6-4027-8d08-cb54eda1e955","ios":"levelo://app?vid=b064664a-37e6-4027-8d08-cb54eda1e955"},"vehicle_type_id":"4","last_reported":1747260475,"current_range_meters":18000,"station_id":"","pricing_plan_id":"cebpf4jnsgd1na2vs0mg"},{"bike_id":"95db593d-f608-4961-ad7b-6be82dd0de5a","system_id":"levelo_inurba_marseille","lat":43.31173,"lon":5.38714,"is_reserved":false,"is_disabled":false,"rental_uris":{"android":"levelo://app?vid=95db593d-f608-4961-ad7b-6be82dd0de5a","ios":"levelo://app?vid=95db593d-f608-4961-ad7b-6be82dd0de5a"},"vehicle_type_id":"4","last_reported":1747260475,"current_range_meters":18000,"station_id":"ce4bgv12rcd13ifvqcp0","pricing_plan_id":"cebpf4jnsgd1na2vs0mg"},{"bike_id":"b9d4a133-c6ad-42b4-a6f8-2b529d40398a","system_id":"levelo_inurba_marseille","lat":43.289827,"lon":5.366538,"is_reserved":false,"is_disabled":false,"rental_uris":{"android":"levelo://app?vid=b9d4a133-c6ad-42b4-a6f8-2b529d40398a","ios":"levelo://app?vid=b9d4a133-c6ad-42b4-a6f8-2b529d40398a"},"vehicle_type_id":"4","last_reported":1747260475,"current_range_meters":18800,"station_id":"","pricing_plan_id":"cebpf4jnsgd1na2vs0mg"},{"bike_id":"886cacb8-a8f2-4a9f-b4ff-ad4500dd1a16","system_id":"levelo_inurba_marseille","lat":43.30225,"lon":5.39471,"is_reserved":false,"is_disabled":false,"rental_uris":{"android":"levelo://app?vid=886cacb8-a8f2-4a9f-b4ff-ad4500dd1a16","ios":"levelo://app?vid=886cacb8-a8f2-4a9f-b4ff-ad4500dd1a16"},"vehicle_type_id":"4","last_reported":1747260475,"current_range_meters":18800,"station_id":"ce4bh0p2rcd13ifvqd70","pricing_plan_id":"cebpf4jnsgd1na2vs0mg"},{"bike_id":"5b4d94d5-d1fb-4594-8ced-01262346e7e4","system_id":"levelo_inurba_marseille","lat":43.2862,"lon":5.37057,"is_reserved":false,"is_disabled":false,"rental_uris":{"android":"levelo://app?vid=5b4d94d5-d1fb-4594-8ced-01262346e7e4","ios":"levelo://app?vid=5b4d94d5-d1fb-4594-8ced-01262346e7e4"},"vehicle_type_id":"4","last_reported":1747260475,"current_range_meters":18800,"station_id":"ce4bht12rcd13ifvqi60","pricing_plan_id":"cebpf4jnsgd1na2vs0mg"},{"bike_id":"cd98fc6a-9f44-4b1e-bb60-10927c342068","system_id":"levelo_inurba_marseille","lat":43.26569,"lon":5.37294,"is_reserved":false,"is_disabled":false,"rental_uris":{"android":"levelo://app?vid=cd98fc6a-9f44-4b1e-bb60-10927c342068","ios":"levelo://app?vid=cd98fc6a-9f44-4b1e-bb60-10927c342068"},"vehicle_type_id":"4","last_reported":1747260475,"current_range_meters":18800,"station_id":"ce4bhg12rcd13ifvqf70","pricing_plan_id":"cebpf4jnsgd1na2vs0mg"},{"bike_id":"9fb1895a-1f16-4d91-ab5f-69d036530215","system_id":"levelo_inurba_marseille","lat":43.28347,"lon":5.38107,"is_reserved":false,"is_disabled":false,"rental_uris":{"android":"levelo://app?vid=9fb1895a-1f16-4d91-ab5f-69d036530215","ios":"levelo://app?vid=9fb1895a-1f16-4d91-ab5f-69d036530215"},"vehicle_type_id":"4","last_reported":1747260475,"current_range_meters":18800,"station_id":"ce4bh412rcd13ifvqdr0","pricing_plan_id":"cebpf4jnsgd1na2vs0mg"},{"bike_id":"08f19e49-3591-4c7d-af71-e220280c0a02","system_id":"levelo_inurba_marseille","lat":43.317128,"lon":5.436839,"is_reserved":false,"is_disabled":false,"rental_uris":{"android":"levelo://app?vid=08f19e49-3591-4c7d-af71-e220280c0a02","ios":"levelo://app?vid=08f19e49-3591-4c7d-af71-e220280c0a02"},"vehicle_type_id":"4","last_reported":1747260475,"current_range_meters":18800,"station_id":"","pricing_plan_id":"cebpf4jnsgd1na2vs0mg"},{"bike_id":"658fe439-dcff-4438-ab34-3210cfcc70e2","system_id":"levelo_inurba_marseille","lat":43.301008,"lon":5.390736,"is_reserved":false,"is_disabled":false,"rental_uris":{"android":"levelo://app?vid=658fe439-dcff-4438-ab34-3210cfcc70e2","ios":"levelo://app?vid=658fe439-dcff-4438-ab34-3210cfcc70e2"},"vehicle_type_id":"4","last_reported":1747260475,"current_range_meters":18800,"station_id":"ce4bh192rcd13ifvqdb0","pricing_plan_id":"cebpf4jnsgd1na2vs0mg"},{"bike_id":"10bbd1f3-7e41-477f-b1de-a2661607019b","system_id":"levelo_inurba_marseille","lat":43.28801,"lon":5.40013,"is_reserved":false,"is_disabled":false,"rental_uris":{"android":"levelo://app?vid=10bbd1f3-7e41-477f-b1de-a2661607019b","ios":"levelo://app?vid=10bbd1f3-7e41-477f-b1de-a2661607019b"},"vehicle_type_id":"4","last_reported":1747260475,"current_range_meters":18800,"station_id":"ce4bho92rcd13ifvqh3g","pricing_plan_id":"cebpf4jnsgd1na2vs0mg"},{"bike_id":"4d587744-162d-4ca4-8c47-17ab76226010","system_id":"levelo_inurba_marseille","lat":43.29793,"lon":5.39345,"is_reserved":false,"is_disabled":false,"rental_uris":{"android":"levelo://app?vid=4d587744-162d-4ca4-8c47-17ab76226010","ios":"levelo://app?vid=4d587744-162d-4ca4-8c47-17ab76226010"},"vehicle_type_id":"4","last_reported":1747260475,"current_range_meters":18800,"station_id":"chh1huq6cuj3fo74tm60","pricing_plan_id":"cebpf4jnsgd1na2vs0mg"},{"bike_id":"08c3bbb6-0b0b-4686-a311-8a89b6fbd5c9","system_id":"levelo_inurba_marseille","lat":43.32335,"lon":5.40608,"is_reserved":false,"is_disabled":false,"rental_uris":{"android":"levelo://app?vid=08c3bbb6-0b0b-4686-a311-8a89b6fbd5c9","ios":"levelo://app?vid=08c3bbb6-0b0b-4686-a311-8a89b6fbd5c9"},"vehicle_type_id":"4","last_reported":1747260475,"current_range_meters":19200,"station_id":"ce4bhq92rcd13ifvqhjg","pricing_plan_id":"cebpf4jnsgd1na2vs0mg"},{"bike_id":"c2533493-8b6f-47bd-9be4-1eec3ed8b18a","system_id":"levelo_inurba_marseille","lat":43.31087,"lon":5.42435,"is_reserved":false,"is_disabled":false,"rental_uris":{"android":"levelo://app?vid=c2533493-8b6f-47bd-9be4-1eec3ed8b18a","ios":"levelo://app?vid=c2533493-8b6f-47bd-9be4-1eec3ed8b18a"},"vehicle_type_id":"4","last_reported":1747260475,"current_range_meters":19200,"station_id":"ce4bhp92rcd13ifvqhag","pricing_plan_id":"cebpf4jnsgd1na2vs0mg"},{"bike_id":"9a402898-f116-408b-8709-c62dd77d2b5d","system_id":"levelo_inurba_marseille","lat":43.29367,"lon":5.42842,"is_reserved":false,"is_disabled":false,"rental_uris":{"android":"levelo://app?vid=9a402898-f116-408b-8709-c62dd77d2b5d","ios":"levelo://app?vid=9a402898-f116-408b-8709-c62dd77d2b5d"},"vehicle_type_id":"4","last_reported":1747260475,"current_range_meters":19200,"station_id":"","pricing_plan_id":"cebpf4jnsgd1na2vs0mg"},{"bike_id":"385c5680-aa17-4953-8596-7f0cb64e8bcd","system_id":"levelo_inurba_marseille","lat":43.32477,"lon":5.36567,"is_reserved":false,"is_disabled":false,"rental_uris":{"android":"levelo://app?vid=385c5680-aa17-4953-8596-7f0cb64e8bcd","ios":"levelo://app?vid=385c5680-aa17-4953-8596-7f0cb64e8bcd"},"vehicle_type_id":"4","last_reported":1747260475,"current_range_meters":19200,"station_id":"ce4bhs12rcd13ifvqhvg","pricing_plan_id":"cebpf4jnsgd1na2vs0mg"},{"bike_id":"5d5ddb9d-0a32-4caa-9e2c-58793d6feb8e","system_id":"levelo_inurba_marseille","lat":43.2816,"lon":5.42642,"is_reserved":false,"is_disabled":false,"rental_uris":{"android":"levelo://app?vid=5d5ddb9d-0a32-4caa-9e2c-58793d6feb8e","ios":"levelo://app?vid=5d5ddb9d-0a32-4caa-9e2c-58793d6feb8e"},"vehicle_type_id":"4","last_reported":1747260475,"current_range_meters":19200,"station_id":"ce4bhnh2rcd13ifvqgug","pricing_plan_id":"cebpf4jnsgd1na2vs0mg"},{"bike_id":"8b44f886-59c7-4896-a2ca-0dea931a883f","system_id":"levelo_inurba_marseille","lat":43.21195,"lon":5.35066,"is_reserved":false,"is_disabled":false,"rental_uris":{"android":"levelo://app?vid=8b44f886-59c7-4896-a2ca-0dea931a883f","ios":"levelo://app?vid=8b44f886-59c7-4896-a2ca-0dea931a883f"},"vehicle_type_id":"4","last_reported":1747260475,"current_range_meters":19200,"station_id":"st_cvj6sg6p6f1abm77japg","pricing_plan_id":"cebpf4jnsgd1na2vs0mg"},{"bike_id":"70c1c9f7-710d-44b2-9eb2-40dcacaab646","system_id":"levelo_inurba_marseille","lat":43.3108,"lon":5.42415,"is_reserved":false,"is_disabled":false,"rental_uris":{"android":"levelo://app?vid=70c1c9f7-710d-44b2-9eb2-40dcacaab646","ios":"levelo://app?vid=70c1c9f7-710d-44b2-9eb2-40dcacaab646"},"vehicle_type_id":"4","last_reported":1747260475,"current_range_meters":19200,"station_id":"ce4bhp92rcd13ifvqhag","pricing_plan_id":"cebpf4jnsgd1na2vs0mg"},{"bike_id":"eca226ce-d6d1-48e2-a2bf-1a9108989671","system_id":"levelo_inurba_marseille","lat":43.2587,"lon":5.3991,"is_reserved":false,"is_disabled":false,"rental_uris":{"android":"levelo://app?vid=eca226ce-d6d1-48e2-a2bf-1a9108989671","ios":"levelo://app?vid=eca226ce-d6d1-48e2-a2bf-1a9108989671"},"vehicle_type_id":"4","last_reported":1747260475,"current_range_meters":19200,"station_id":"ce4bhl92rcd13ifvqghg","pricing_plan_id":"cebpf4jnsgd1na2vs0mg"},{"bike_id":"cec32bab-5894-4ac2-97eb-b76126dea5dd","system_id":"levelo_inurba_marseille","lat":43.32343,"lon":5.3829,"is_reserved":false,"is_disabled":false,"rental_uris":{"android":"levelo://app?vid=cec32bab-5894-4ac2-97eb-b76126dea5dd","ios":"levelo://app?vid=cec32bab-5894-4ac2-97eb-b76126dea5dd"},"vehicle_type_id":"4","last_reported":1747260475,"current_range_meters":19200,"station_id":"","pricing_plan_id":"cebpf4jnsgd1na2vs0mg"},{"bike_id":"506ce359-d7dd-497d-8649-b806f31396e0","system_id":"levelo_inurba_marseille","lat":43.298,"lon":5.39345,"is_reserved":false,"is_disabled":false,"rental_uris":{"android":"levelo://app?vid=506ce359-d7dd-497d-8649-b806f31396e0","ios":"levelo://app?vid=506ce359-d7dd-497d-8649-b806f31396e0"},"vehicle_type_id":"4","last_reported":1747260475,"current_range_meters":19200,"station_id":"chh1huq6cuj3fo74tm60","pricing_plan_id":"cebpf4jnsgd1na2vs0mg"},{"bike_id":"8d0b7851-f297-4cd1-97b7-4b3cd40114ec","system_id":"levelo_inurba_marseille","lat":43.30648,"lon":5.40083,"is_reserved":false,"is_disabled":false,"rental_uris":{"android":"levelo://app?vid=8d0b7851-f297-4cd1-97b7-4b3cd40114ec","ios":"levelo://app?vid=8d0b7851-f297-4cd1-97b7-4b3cd40114ec"},"vehicle_type_id":"4","last_reported":1747260475,"current_range_meters":19600,"station_id":"ce4bh112rcd13ifvqda0","pricing_plan_id":"cebpf4jnsgd1na2vs0mg"},{"bike_id":"8df6ba4f-e0e7-41bb-b306-875df8483857","system_id":"levelo_inurba_marseille","lat":43.27061,"lon":5.40258,"is_reserved":false,"is_disabled":false,"rental_uris":{"android":"levelo://app?vid=8df6ba4f-e0e7-41bb-b306-875df8483857","ios":"levelo://app?vid=8df6ba4f-e0e7-41bb-b306-875df8483857"},"vehicle_type_id":"4","last_reported":1747260475,"current_range_meters":19600,"station_id":"ce4bhk92rcd13ifvqgc0","pricing_plan_id":"cebpf4jnsgd1na2vs0mg"},{"bike_id":"cbcbc814-fae5-4814-a0c1-163ff96814a5","system_id":"levelo_inurba_marseille","lat":43.31177,"lon":5.38711,"is_reserved":false,"is_disabled":false,"rental_uris":{"android":"levelo://app?vid=cbcbc814-fae5-4814-a0c1-163ff96814a5","ios":"levelo://app?vid=cbcbc814-fae5-4814-a0c1-163ff96814a5"},"vehicle_type_id":"4","last_reported":1747260475,"current_range_meters":19600,"station_id":"ce4bgv12rcd13ifvqcp0","pricing_plan_id":"cebpf4jnsgd1na2vs0mg"},{"bike_id":"bfd7292f-0dc3-4d16-8393-ce7be3db558b","system_id":"levelo_inurba_marseille","lat":43.30929,"lon":5.40153,"is_reserved":false,"is_disabled":false,"rental_uris":{"android":"levelo://app?vid=bfd7292f-0dc3-4d16-8393-ce7be3db558b","ios":"levelo://app?vid=bfd7292f-0dc3-4d16-8393-ce7be3db558b"},"vehicle_type_id":"4","last_reported":1747260475,"current_range_meters":19600,"station_id":"ce4bgvp2rcd13ifvqct0","pricing_plan_id":"cebpf4jnsgd1na2vs0mg"},{"bike_id":"a57e9504-e546-4396-a181-d68bb8e41bb9","system_id":"levelo_inurba_marseille","lat":43.33718,"lon":5.39191,"is_reserved":false,"is_disabled":false,"rental_uris":{"android":"levelo://app?vid=a57e9504-e546-4396-a181-d68bb8e41bb9","ios":"levelo://app?vid=a57e9504-e546-4396-a181-d68bb8e41bb9"},"vehicle_type_id":"4","last_reported":1747260475,"current_range_meters":19600,"station_id":"ce4bhr92rcd13ifvqhsg","pricing_plan_id":"cebpf4jnsgd1na2vs0mg"},{"bike_id":"56d3515b-c3a0-4e93-b1f9-c90ea7a3ac3f","system_id":"levelo_inurba_marseille","lat":43.284039,"lon":5.375068,"is_reserved":false,"is_disabled":false,"rental_uris":{"android":"levelo://app?vid=56d3515b-c3a0-4e93-b1f9-c90ea7a3ac3f","ios":"levelo://app?vid=56d3515b-c3a0-4e93-b1f9-c90ea7a3ac3f"},"vehicle_type_id":"4","last_reported":1747260475,"current_range_meters":19600,"station_id":"ce4bh412rcd13ifvqds0","pricing_plan_id":"cebpf4jnsgd1na2vs0mg"},{"bike_id":"923c8157-76eb-4de1-8e7b-3c3522b64237","system_id":"levelo_inurba_marseille","lat":43.30603,"lon":5.37221,"is_reserved":false,"is_disabled":false,"rental_uris":{"android":"levelo://app?vid=923c8157-76eb-4de1-8e7b-3c3522b64237","ios":"levelo://app?vid=923c8157-76eb-4de1-8e7b-3c3522b64237"},"vehicle_type_id":"4","last_reported":1747260475,"current_range_meters":19600,"station_id":"ce4bgqh2rcd13ifvqc4g","pricing_plan_id":"cebpf4jnsgd1na2vs0mg"},{"bike_id":"2eaafdda-d340-446e-af3c-9cc74709c479","system_id":"levelo_inurba_marseille","lat":43.29029,"lon":5.39966,"is_reserved":false,"is_disabled":false,"rental_uris":{"android":"levelo://app?vid=2eaafdda-d340-446e-af3c-9cc74709c479","ios":"levelo://app?vid=2eaafdda-d340-446e-af3c-9cc74709c479"},"vehicle_type_id":"4","last_reported":1747260475,"current_range_meters":19600,"station_id":"ce4bh392rcd13ifvqdm0","pricing_plan_id":"cebpf4jnsgd1na2vs0mg"},{"bike_id":"cdc85d67-a809-46c7-9857-3ce4195beb00","system_id":"levelo_inurba_marseille","lat":43.27059,"lon":5.4027,"is_reserved":false,"is_disabled":false,"rental_uris":{"android":"levelo://app?vid=cdc85d67-a809-46c7-9857-3ce4195beb00","ios":"levelo://app?vid=cdc85d67-a809-46c7-9857-3ce4195beb00"},"vehicle_type_id":"4","last_reported":1747260475,"current_range_meters":19600,"station_id":"ce4bhk92rcd13ifvqgc0","pricing_plan_id":"cebpf4jnsgd1na2vs0mg"},{"bike_id":"bf148fad-e35c-429e-bfcc-e69d3314491e","system_id":"levelo_inurba_marseille","lat":43.31279,"lon":5.40166,"is_reserved":false,"is_disabled":false,"rental_uris":{"android":"levelo://app?vid=bf148fad-e35c-429e-bfcc-e69d3314491e","ios":"levelo://app?vid=bf148fad-e35c-429e-bfcc-e69d3314491e"},"vehicle_type_id":"4","last_reported":1747260475,"current_range_meters":19600,"station_id":"ce4bh092rcd13ifvqd30","pricing_plan_id":"cebpf4jnsgd1na2vs0mg"},{"bike_id":"5293d4aa-0549-458e-ad35-9aeeb53bca11","system_id":"levelo_inurba_marseille","lat":43.29209,"lon":5.39311,"is_reserved":false,"is_disabled":false,"rental_uris":{"android":"levelo://app?vid=5293d4aa-0549-458e-ad35-9aeeb53bca11","ios":"levelo://app?vid=5293d4aa-0549-458e-ad35-9aeeb53bca11"},"vehicle_type_id":"4","last_reported":1747260475,"current_range_meters":19600,"station_id":"ce4bh192rcd13ifvqdd0","pricing_plan_id":"cebpf4jnsgd1na2vs0mg"},{"bike_id":"a6002c7f-3b00-4265-bf42-2020668e804b","system_id":"levelo_inurba_marseille","lat":43.30939,"lon":5.40147,"is_reserved":false,"is_disabled":false,"rental_uris":{"android":"levelo://app?vid=a6002c7f-3b00-4265-bf42-2020668e804b","ios":"levelo://app?vid=a6002c7f-3b00-4265-bf42-2020668e804b"},"vehicle_type_id":"4","last_reported":1747260475,"current_range_meters":19600,"station_id":"ce4bgvp2rcd13ifvqct0","pricing_plan_id":"cebpf4jnsgd1na2vs0mg"},{"bike_id":"d9edb28a-9621-408e-aeb7-c4c3a0581a9a","system_id":"levelo_inurba_marseille","lat":43.28701,"lon":5.39993,"is_reserved":false,"is_disabled":false,"rental_uris":{"android":"levelo://app?vid=d9edb28a-9621-408e-aeb7-c4c3a0581a9a","ios":"levelo://app?vid=d9edb28a-9621-408e-aeb7-c4c3a0581a9a"},"vehicle_type_id":"4","last_reported":1747260475,"current_range_meters":19600,"station_id":"ce4bho92rcd13ifvqh3g","pricing_plan_id":"cebpf4jnsgd1na2vs0mg"},{"bike_id":"43fbd11b-0562-46b0-bc29-cf8af9467a62","system_id":"levelo_inurba_marseille","lat":43.28368,"lon":5.38636,"is_reserved":false,"is_disabled":false,"rental_uris":{"android":"levelo://app?vid=43fbd11b-0562-46b0-bc29-cf8af9467a62","ios":"levelo://app?vid=43fbd11b-0562-46b0-bc29-cf8af9467a62"},"vehicle_type_id":"4","last_reported":1747260475,"current_range_meters":20000,"station_id":"ce4bh492rcd13ifvqdvg","pricing_plan_id":"cebpf4jnsgd1na2vs0mg"},{"bike_id":"224ce2fd-4b6c-4099-b1d7-5a3dcb6df544","system_id":"levelo_inurba_marseille","lat":43.248065,"lon":5.374589,"is_reserved":false,"is_disabled":false,"rental_uris":{"android":"levelo://app?vid=224ce2fd-4b6c-4099-b1d7-5a3dcb6df544","ios":"levelo://app?vid=224ce2fd-4b6c-4099-b1d7-5a3dcb6df544"},"vehicle_type_id":"4","last_reported":1747260475,"current_range_meters":20000,"station_id":"ce4bhgh2rcd13ifvqfb0","pricing_plan_id":"cebpf4jnsgd1na2vs0mg"},{"bike_id":"0d2e3cf8-4d60-4128-9acb-c18ee2c28e38","system_id":"levelo_inurba_marseille","lat":43.2927,"lon":5.40908,"is_reserved":false,"is_disabled":false,"rental_uris":{"android":"levelo://app?vid=0d2e3cf8-4d60-4128-9acb-c18ee2c28e38","ios":"levelo://app?vid=0d2e3cf8-4d60-4128-9acb-c18ee2c28e38"},"vehicle_type_id":"4","last_reported":1747260475,"current_range_meters":20000,"station_id":"ce4bh192rcd13ifvqdc0","pricing_plan_id":"cebpf4jnsgd1na2vs0mg"},{"bike_id":"abeccd07-a0d2-4a88-b6ab-32039991e588","system_id":"levelo_inurba_marseille","lat":43.28578,"lon":5.39492,"is_reserved":false,"is_disabled":false,"rental_uris":{"android":"levelo://app?vid=abeccd07-a0d2-4a88-b6ab-32039991e588","ios":"levelo://app?vid=abeccd07-a0d2-4a88-b6ab-32039991e588"},"vehicle_type_id":"4","last_reported":1747260475,"current_range_meters":20000,"station_id":"ce4bh292rcd13ifvqdg0","pricing_plan_id":"cebpf4jnsgd1na2vs0mg"},{"bike_id":"201dfaf8-62cf-4442-b654-1073912dc762","system_id":"levelo_inurba_marseille","lat":43.30636,"lon":5.40075,"is_reserved":false,"is_disabled":false,"rental_uris":{"android":"levelo://app?vid=201dfaf8-62cf-4442-b654-1073912dc762","ios":"levelo://app?vid=201dfaf8-62cf-4442-b654-1073912dc762"},"vehicle_type_id":"4","last_reported":1747260475,"current_range_meters":20000,"station_id":"ce4bh112rcd13ifvqda0","pricing_plan_id":"cebpf4jnsgd1na2vs0mg"},{"bike_id":"6eb4684c-cbf7-4f09-8cfc-89b73a8821e2","system_id":"levelo_inurba_marseille","lat":43.233655,"lon":5.360628,"is_reserved":false,"is_disabled":false,"rental_uris":{"android":"levelo://app?vid=6eb4684c-cbf7-4f09-8cfc-89b73a8821e2","ios":"levelo://app?vid=6eb4684c-cbf7-4f09-8cfc-89b73a8821e2"},"vehicle_type_id":"4","last_reported":1747260475,"current_range_meters":20800,"station_id":"","pricing_plan_id":"cebpf4jnsgd1na2vs0mg"},{"bike_id":"d68e2195-4a46-4330-8fb5-099a7e5fcbec","system_id":"levelo_inurba_marseille","lat":43.30821,"lon":5.38156,"is_reserved":false,"is_disabled":false,"rental_uris":{"android":"levelo://app?vid=d68e2195-4a46-4330-8fb5-099a7e5fcbec","ios":"levelo://app?vid=d68e2195-4a46-4330-8fb5-099a7e5fcbec"},"vehicle_type_id":"4","last_reported":1747260475,"current_range_meters":20400,"station_id":"ce4bgt12rcd13ifvqce0","pricing_plan_id":"cebpf4jnsgd1na2vs0mg"},{"bike_id":"302cfdf1-81be-4755-b604-d1bc07b86986","system_id":"levelo_inurba_marseille","lat":43.3205,"lon":5.41554,"is_reserved":false,"is_disabled":false,"rental_uris":{"android":"levelo://app?vid=302cfdf1-81be-4755-b604-d1bc07b86986","ios":"levelo://app?vid=302cfdf1-81be-4755-b604-d1bc07b86986"},"vehicle_type_id":"4","last_reported":1747260475,"current_range_meters":20400,"station_id":"ce4bhq92rcd13ifvqhkg","pricing_plan_id":"cebpf4jnsgd1na2vs0mg"},{"bike_id":"840dcd41-1169-4d2f-a926-23eb8f7dd13f","system_id":"levelo_inurba_marseille","lat":43.28439,"lon":5.39185,"is_reserved":false,"is_disabled":false,"rental_uris":{"android":"levelo://app?vid=840dcd41-1169-4d2f-a926-23eb8f7dd13f","ios":"levelo://app?vid=840dcd41-1169-4d2f-a926-23eb8f7dd13f"},"vehicle_type_id":"4","last_reported":1747260475,"current_range_meters":20400,"station_id":"ce4bhoh2rcd13ifvqh5g","pricing_plan_id":"cebpf4jnsgd1na2vs0mg"},{"bike_id":"e3149811-b4d5-4f3c-a70f-da59ccf98b54","system_id":"levelo_inurba_marseille","lat":43.29206,"lon":5.39321,"is_reserved":false,"is_disabled":false,"rental_uris":{"android":"levelo://app?vid=e3149811-b4d5-4f3c-a70f-da59ccf98b54","ios":"levelo://app?vid=e3149811-b4d5-4f3c-a70f-da59ccf98b54"},"vehicle_type_id":"4","last_reported":1747260475,"current_range_meters":20400,"station_id":"ce4bh192rcd13ifvqdd0","pricing_plan_id":"cebpf4jnsgd1na2vs0mg"},{"bike_id":"ac28c82a-dd66-4f1a-b027-733f8be0763e","system_id":"levelo_inurba_marseille","lat":43.29623,"lon":5.37721,"is_reserved":false,"is_disabled":false,"rental_uris":{"android":"levelo://app?vid=ac28c82a-dd66-4f1a-b027-733f8be0763e","ios":"levelo://app?vid=ac28c82a-dd66-4f1a-b027-733f8be0763e"},"vehicle_type_id":"4","last_reported":1747260475,"current_range_meters":20400,"station_id":"ce4bgi92rcd13ifvqb90","pricing_plan_id":"cebpf4jnsgd1na2vs0mg"},{"bike_id":"2286bd46-de13-4763-9a46-4540518e528a","system_id":"levelo_inurba_marseille","lat":43.275,"lon":5.42451,"is_reserved":false,"is_disabled":false,"rental_uris":{"android":"levelo://app?vid=2286bd46-de13-4763-9a46-4540518e528a","ios":"levelo://app?vid=2286bd46-de13-4763-9a46-4540518e528a"},"vehicle_type_id":"4","last_reported":1747260475,"current_range_meters":20400,"station_id":"ce4bhn92rcd13ifvqgrg","pricing_plan_id":"cebpf4jnsgd1na2vs0mg"},{"bike_id":"0ce6466f-872c-4f1a-a0f8-e41aa916edbb","system_id":"levelo_inurba_marseille","lat":43.31721,"lon":5.42409,"is_reserved":false,"is_disabled":false,"rental_uris":{"android":"levelo://app?vid=0ce6466f-872c-4f1a-a0f8-e41aa916edbb","ios":"levelo://app?vid=0ce6466f-872c-4f1a-a0f8-e41aa916edbb"},"vehicle_type_id":"4","last_reported":1747260475,"current_range_meters":20400,"station_id":"ce4bhp92rcd13ifvqhbg","pricing_plan_id":"cebpf4jnsgd1na2vs0mg"},{"bike_id":"1e2dda2a-24e9-4fd6-9fd3-eb9be4fb8ba1","system_id":"levelo_inurba_marseille","lat":43.29929,"lon":5.37475,"is_reserved":false,"is_disabled":false,"rental_uris":{"android":"levelo://app?vid=1e2dda2a-24e9-4fd6-9fd3-eb9be4fb8ba1","ios":"levelo://app?vid=1e2dda2a-24e9-4fd6-9fd3-eb9be4fb8ba1"},"vehicle_type_id":"4","last_reported":1747260475,"current_range_meters":20400,"station_id":"ce4bgjh2rcd13ifvqbg0","pricing_plan_id":"cebpf4jnsgd1na2vs0mg"},{"bike_id":"e7dfb9e1-d51e-47da-8c1b-af735378a887","system_id":"levelo_inurba_marseille","lat":43.30138,"lon":5.39859,"is_reserved":false,"is_disabled":false,"rental_uris":{"android":"levelo://app?vid=e7dfb9e1-d51e-47da-8c1b-af735378a887","ios":"levelo://app?vid=e7dfb9e1-d51e-47da-8c1b-af735378a887"},"vehicle_type_id":"4","last_reported":1747260475,"current_range_meters":20400,"station_id":"ce4bh0h2rcd13ifvqd40","pricing_plan_id":"cebpf4jnsgd1na2vs0mg"},{"bike_id":"05647ffd-ffa9-4a9c-92e9-9a49dc821811","system_id":"levelo_inurba_marseille","lat":43.32358,"lon":5.36749,"is_reserved":false,"is_disabled":false,"rental_uris":{"android":"levelo://app?vid=05647ffd-ffa9-4a9c-92e9-9a49dc821811","ios":"levelo://app?vid=05647ffd-ffa9-4a9c-92e9-9a49dc821811"},"vehicle_type_id":"4","last_reported":1747260475,"current_range_meters":20400,"station_id":"ce4bhsh2rcd13ifvqi2g","pricing_plan_id":"cebpf4jnsgd1na2vs0mg"},{"bike_id":"71f944bc-ad2d-46b7-9837-8bd4340a8545","system_id":"levelo_inurba_marseille","lat":43.29029,"lon":5.39961,"is_reserved":false,"is_disabled":false,"rental_uris":{"android":"levelo://app?vid=71f944bc-ad2d-46b7-9837-8bd4340a8545","ios":"levelo://app?vid=71f944bc-ad2d-46b7-9837-8bd4340a8545"},"vehicle_type_id":"4","last_reported":1747260475,"current_range_meters":20400,"station_id":"ce4bh392rcd13ifvqdm0","pricing_plan_id":"cebpf4jnsgd1na2vs0mg"},{"bike_id":"b910a16a-76ef-44c4-ab91-f12b0f45bf0c","system_id":"levelo_inurba_marseille","lat":43.28474,"lon":5.38428,"is_reserved":false,"is_disabled":false,"rental_uris":{"android":"levelo://app?vid=b910a16a-76ef-44c4-ab91-f12b0f45bf0c","ios":"levelo://app?vid=b910a16a-76ef-44c4-ab91-f12b0f45bf0c"},"vehicle_type_id":"4","last_reported":1747260475,"current_range_meters":20000,"station_id":"ce4bh512rcd13ifvqe3g","pricing_plan_id":"cebpf4jnsgd1na2vs0mg"},{"bike_id":"6be39f99-e35b-4505-9537-e78e2214aa5f","system_id":"levelo_inurba_marseille","lat":43.2868,"lon":5.38672,"is_reserved":false,"is_disabled":false,"rental_uris":{"android":"levelo://app?vid=6be39f99-e35b-4505-9537-e78e2214aa5f","ios":"levelo://app?vid=6be39f99-e35b-4505-9537-e78e2214aa5f"},"vehicle_type_id":"4","last_reported":1747260475,"current_range_meters":20800,"station_id":"ce4bh492rcd13ifvqdug","pricing_plan_id":"cebpf4jnsgd1na2vs0mg"},