{"last_updated":1720109366,"ttl":30,"version":"2.2","data":{"bikes":[{"bike_id":"1c3194bb-36df-4eb9-b303-6922c6cf5eed","system_id":"levelo_inurba_marseille","lat":43.313391,"lon":5.36706,"is_reserved":false,"is_disabled":false,"rental_uris":{"android":"levelo://app?vid=1c3194bb-36df-4eb9-b303-6922c6cf5eed","ios":"levelo://app?vid=1c3194bb-36df-4eb9-b303-6922c6cf5eed"},"vehicle_type_id":"4","last_reported":1720109366,"current_range_meters":2400,"station_id":"ce4bgr92rcd13ifvqc6g","pricing_plan_id":"cebpf4jnsgd1na2vs0mg"},{"bike_id":"38952290-8b00-46c0-ab67-7378b445ba74","system_id":"levelo_inurba_marseille","lat":43.312239,"lon":5.368562,"is_reserved":false,"is_disabled":false,"rental_uris":{"android":"levelo://app?vid=38952290-8b00-46c0-ab67-7378b445ba74","ios":"levelo://app?vid=38952290-8b00-46c0-ab67-7378b445ba74"},"vehicle_type_id":"4","last_reported":1720109366,"current_range_meters":0,"station_id":"ce4bgl92rcd13ifvqbq0","pricing_plan_id":"cebpf4jnsgd1na2vs0mg"},{"bike_id":"a3c544ee-3ff5-463b-a16f-baea1fdc51aa","system_id":"levelo_inurba_marseille","lat":43.309076,"lon":5.368465,"is_reserved":false,"is_disabled":false,"rental_uris":{"android":"levelo://app?vid=a3c544ee-3ff5-463b-a16f-baea1fdc51aa","ios":"levelo://app?vid=a3c544ee-3ff5-463b-a16f-baea1fdc51aa"},"vehicle_type_id":"4","last_reported":1720109366,"current_range_meters":10800,"station_id":"ce4bgn92rcd13ifvqbvg","pricing_plan_id":"cebpf4jnsgd1na2vs0mg"},{"bike_id":"60ec5326-e5d7-468a-930d-a668d8ede74e","system_id":"levelo_inurba_marseille","lat":43.309076,"lon":5.368465,"is_reserved":false,"is_disabled":false,"rental_uris":{"android":"levelo://app?vid=60ec5326-e5d7-468a-930d-a668d8ede74e","ios":"levelo://app?vid=60ec5326-e5d7-468a-930d-a668d8ede74e"},"vehicle_type_id":"4","last_reported":1720109366,"current_range_meters":10800,"station_id":"ce4bgn92rcd13ifvqbvg","pricing_plan_id":"cebpf4jnsgd1na2vs0mg"},{"bike_id":"7c593243-7975-48c2-b325-c3c2351c6b94","system_id":"levelo_inurba_marseille","lat":43.314811,"lon":5.373104,"is_reserved":false,"is_disabled":false,"rental_uris":{"android":"levelo://app?vid=7c593243-7975-48c2-b325-c3c2351c6b94","ios":"levelo://app?vid=7c593243-7975-48c2-b325-c3c2351c6b94"},"vehicle_type_id":"4","last_reported":1720109366,"current_range_meters":0,"station_id":"ce4bgt12rcd13ifvqcd0","pricing_plan_id":"cebpf4jnsgd1na2vs0mg"},{"bike_id":"60589dcd-449e-4d45-b840-619cddc6a7d1","system_id":"levelo_inurba_marseille","lat":43.314811,"lon":5.373103,"is_reserved":false,"is_disabled":false,"rental_uris":{"android":"levelo://app?vid=60589dcd-449e-4d45-b840-619cddc6a7d1","ios":"levelo://app?vid=60589dcd-449e-4d45-b840-619cddc6a7d1"},"vehicle_type_id":"4","last_reported":1720109366,"current_range_meters":2800,"station_id":"ce4bgt12rcd13ifvqcd0","pricing_plan_id":"cebpf4jnsgd1na2vs0mg"},{"bike_id":"5ed4683b-b424-4791-a1aa-fd0e8e03efd1","system_id":"levelo_inurba_marseille","lat":43.314811,"lon":5.373104,"is_reserved":false,"is_disabled":false,"rental_uris":{"android":"levelo://app?vid=5ed4683b-b424-4791-a1aa-fd0e8e03efd1","ios":"levelo://app?vid=5ed4683b-b424-4791-a1aa-fd0e8e03efd1"},"vehicle_type_id":"4","last_reported":1720109366,"current_range_meters":5200,"station_id":"ce4bgt12rcd13ifvqcd0","pricing_plan_id":"cebpf4jnsgd1na2vs0mg"},{"bike_id":"db36f8de-9f7a-4062-921e-d88887ff5e5b","system_id":"levelo_inurba_marseille","lat":43.314811,"lon":5.373104,"is_reserved":false,"is_disabled":false,"rental_uris":{"android":"levelo://app?vid=db36f8de-9f7a-4062-921e-d88887ff5e5b","ios":"levelo://app?vid=db36f8de-9f7a-4062-921e-d88887ff5e5b"},"vehicle_type_id":"4","last_reported":1720109366,"current_range_meters":1200,"station_id":"ce4bgt12rcd13ifvqcd0","pricing_plan_id":"cebpf4jnsgd1na2vs0mg"},{"bike_id":"5bede94b-8b9c-48ad-9393-f47f0f4592a1","system_id":"levelo_inurba_marseille","lat":43.309039,"lon":5.371797,"is_reserved":false,"is_disabled":false,"rental_uris":{"android":"levelo://app?vid=5bede94b-8b9c-48ad-9393-f47f0f4592a1","ios":"levelo://app?vid=5bede94b-8b9c-48ad-9393-f47f0f4592a1"},"vehicle_type_id":"4","last_reported":1720109366,"current_range_meters":4000,"station_id":"ce4bguh2rcd13ifvqckg","pricing_plan_id":"cebpf4jnsgd1na2vs0mg"},{"bike_id":"d4ed99f1-4ba9-4683-b3e8-aa2695966636","system_id":"levelo_inurba_marseille","lat":43.309039,"lon":5.371797,"is_reserved":false,"is_disabled":false,"rental_uris":{"android":"levelo://app?vid=d4ed99f1-4ba9-4683-b3e8-aa2695966636","ios":"levelo://app?vid=d4ed99f1-4ba9-4683-b3e8-aa2695966636"},"vehicle_type_id":"4","last_reported":1720109366,"current_range_meters":8000,"station_id":"ce4bguh2rcd13ifvqckg","pricing_plan_id":"cebpf4jnsgd1na2vs0mg"},{"bike_id":"680354a0-47dd-4515-9af6-2f5bab6d1594","system_id":"levelo_inurba_marseille","lat":43.30546,"lon":5.36656,"is_reserved":false,"is_disabled":false,"rental_uris":{"android":"levelo://app?vid=680354a0-47dd-4515-9af6-2f5bab6d1594","ios":"levelo://app?vid=680354a0-47dd-4515-9af6-2f5bab6d1594"},"vehicle_type_id":"4","last_reported":1720109366,"current_range_meters":2000,"station_id":"","pricing_plan_id":"cebpf4jnsgd1na2vs0mg"},{"bike_id":"9489934d-0547-4468-a1c7-83b4fb9b8e0e","system_id":"levelo_inurba_marseille","lat":43.305185,"lon":5.367283,"is_reserved":false,"is_disabled":false,"rental_uris":{"android":"levelo://app?vid=9489934d-0547-4468-a1c7-83b4fb9b8e0e","ios":"levelo://app?vid=9489934d-0547-4468-a1c7-83b4fb9b8e0e"},"vehicle_type_id":"4","last_reported":1720109366,"current_range_meters":28400,"station_id":"ce4bgrp2rcd13ifvqc9g","pricing_plan_id":"cebpf4jnsgd1na2vs0mg"},{"bike_id":"c4d4a0aa-b991-4ded-acc9-f42feaec89e5","system_id":"levelo_inurba_marseille","lat":43.305989,"lon":5.37225,"is_reserved":false,"is_disabled":false,"rental_uris":{"android":"levelo://app?vid=c4d4a0aa-b991-4ded-acc9-f42feaec89e5","ios":"levelo://app?vid=c4d4a0aa-b991-4ded-acc9-f42feaec89e5"},"vehicle_type_id":"4","last_reported":1720109366,"current_range_meters":14800,"station_id":"ce4bgqh2rcd13ifvqc4g","pricing_plan_id":"cebpf4jnsgd1na2vs0mg"},{"bike_id":"a7fec5cc-2ff0-464f-9621-31b5d86aa867","system_id":"levelo_inurba_marseille","lat":43.307945,"lon":5.376487,"is_reserved":false,"is_disabled":false,"rental_uris":{"android":"levelo://app?vid=a7fec5cc-2ff0-464f-9621-31b5d86aa867","ios":"levelo://app?vid=a7fec5cc-2ff0-464f-9621-31b5d86aa867"},"vehicle_type_id":"4","last_reported":1720109366,"current_range_meters":2800,"station_id":"ce4bgv92rcd13ifvqcq0","pricing_plan_id":"cebpf4jnsgd1na2vs0mg"},{"bike_id":"07c6fbde-52a1-40d7-81c8-5437b028cb8b","system_id":"levelo_inurba_marseille","lat":43.307945,"lon":5.376487,"is_reserved":false,"is_disabled":false,"rental_uris":{"android":"levelo://app?vid=07c6fbde-52a1-40d7-81c8-5437b028cb8b","ios":"levelo://app?vid=07c6fbde-52a1-40d7-81c8-5437b028cb8b"},"vehicle_type_id":"4","last_reported":1720109366,"current_range_meters":28000,"station_id":"ce4bgv92rcd13ifvqcq0","pricing_plan_id":"cebpf4jnsgd1na2vs0mg"},{"bike_id":"4d676136-254a-4fe3-b517-213f0f0aa3c9","system_id":"levelo_inurba_marseille","lat":43.317075,"lon":5.377367,"is_reserved":false,"is_disabled":false,"rental_uris":{"android":"levelo://app?vid=4d676136-254a-4fe3-b517-213f0f0aa3c9","ios":"levelo://app?vid=4d676136-254a-4fe3-b517-213f0f0aa3c9"},"vehicle_type_id":"4","last_reported":1720109366,"current_range_meters":22400,"station_id":"ce4bgth2rcd13ifvqch0","pricing_plan_id":"cebpf4jnsgd1na2vs0mg"},{"bike_id":"5db19ec8-14e3-4cae-bd78-38cc5e7ac88b","system_id":"levelo_inurba_marseille","lat":43.301939,"lon":5.366286,"is_reserved":false,"is_disabled":false,"rental_uris":{"android":"levelo://app?vid=5db19ec8-14e3-4cae-bd78-38cc5e7ac88b","ios":"levelo://app?vid=5db19ec8-14e3-4cae-bd78-38cc5e7ac88b"},"vehicle_type_id":"4","last_reported":1720109366,"current_range_meters":24000,"station_id":"ce4bgrh2rcd13ifvqc8g","pricing_plan_id":"cebpf4jnsgd1na2vs0mg"},{"bike_id":"811aa0af-2fc9-4aca-a01e-b621ab372fc1","system_id":"levelo_inurba_marseille","lat":43.308012,"lon":5.381511,"is_reserved":false,"is_disabled":false,"rental_uris":{"android":"levelo://app?vid=811aa0af-2fc9-4aca-a01e-b621ab372fc1","ios":"levelo://app?vid=811aa0af-2fc9-4aca-a01e-b621ab372fc1"},"vehicle_type_id":"4","last_reported":1720109366,"current_range_meters":0,"station_id":"ce4bgt12rcd13ifvqce0","pricing_plan_id":"cebpf4jnsgd1na2vs0mg"},{"bike_id":"ad5ad315-7f05-438c-944f-60b67e22c52b","system_id":"levelo_inurba_marseille","lat":43.308012,"lon":5.381511,"is_reserved":false,"is_disabled":false,"rental_uris":{"android":"levelo://app?vid=ad5ad315-7f05-438c-944f-60b67e22c52b","ios":"levelo://app?vid=ad5ad315-7f05-438c-944f-60b67e22c52b"},"vehicle_type_id":"4","last_reported":1720109366,"current_range_meters":24000,"station_id":"ce4bgt12rcd13ifvqce0","pricing_plan_id":"cebpf4jnsgd1na2vs0mg"},{"bike_id":"4f518aa9-4e1b-48bd-a08f-ff2dfdf8dfde","system_id":"levelo_inurba_marseille","lat":43.308012,"lon":5.381511,"is_reserved":false,"is_disabled":false,"rental_uris":{"android":"levelo://app?vid=4f518aa9-4e1b-48bd-a08f-ff2dfdf8dfde","ios":"levelo://app?vid=4f518aa9-4e1b-48bd-a08f-ff2dfdf8dfde"},"vehicle_type_id":"4","last_reported":1720109366,"current_range_meters":0,"station_id":"ce4bgt12rcd13ifvqce0","pricing_plan_id":"cebpf4jnsgd1na2vs0mg"},{"bike_id":"a391ac83-4c37-40c2-80ef-0d264d2dc89c","system_id":"levelo_inurba_marseille","lat":43.304606,"lon":5.379026,"is_reserved":false,"is_disabled":false,"rental_uris":{"android":"levelo://app?vid=a391ac83-4c37-40c2-80ef-0d264d2dc89c","ios":"levelo://app?vid=a391ac83-4c37-40c2-80ef-0d264d2dc89c"},"vehicle_type_id":"4","last_reported":1720109366,"current_range_meters":23200,"station_id":"ce4bgup2rcd13ifvqcn0","pricing_plan_id":"cebpf4jnsgd1na2vs0mg"},{"bike_id":"ab8301e1-8b01-4697-b2fb-fef1d18f61ad","system_id":"levelo_inurba_marseille","lat":43.304606,"lon":5.379026,"is_reserved":false,"is_disabled":false,"rental_uris":{"android":"levelo://app?vid=ab8301e1-8b01-4697-b2fb-fef1d18f61ad","ios":"levelo://app?vid=ab8301e1-8b01-4697-b2fb-fef1d18f61ad"},"vehicle_type_id":"4","last_reported":1720109366,"current_range_meters":2000,"station_id":"ce4bgup2rcd13ifvqcn0","pricing_plan_id":"cebpf4jnsgd1na2vs0mg"},{"bike_id":"4ed7e202-e26d-4e47-a4a3-fbd940df8ab8","system_id":"levelo_inurba_marseille","lat":43.32483,"lon":5.36571,"is_reserved":false,"is_disabled":false,"rental_uris":{"android":"levelo://app?vid=4ed7e202-e26d-4e47-a4a3-fbd940df8ab8","ios":"levelo://app?vid=4ed7e202-e26d-4e47-a4a3-fbd940df8ab8"},"vehicle_type_id":"4","last_reported":1720109366,"current_range_meters":18400,"station_id":"ce4bhs12rcd13ifvqhvg","pricing_plan_id":"cebpf4jnsgd1na2vs0mg"},{"bike_id":"21b33335-e0f5-4edb-ba33-d241839266fe","system_id":"levelo_inurba_marseille","lat":43.324771,"lon":5.36557,"is_reserved":false,"is_disabled":false,"rental_uris":{"android":"levelo://app?vid=21b33335-e0f5-4edb-ba33-d241839266fe","ios":"levelo://app?vid=21b33335-e0f5-4edb-ba33-d241839266fe"},"vehicle_type_id":"4","last_reported":1720109366,"current_range_meters":0,"station_id":"ce4bhs12rcd13ifvqhvg","pricing_plan_id":"cebpf4jnsgd1na2vs0mg"},{"bike_id":"0d0a1a59-79c7-4749-a6ad-b98968b9d284","system_id":"levelo_inurba_marseille","lat":43.310804,"lon":5.38359,"is_reserved":false,"is_disabled":false,"rental_uris":{"android":"levelo://app?vid=0d0a1a59-79c7-4749-a6ad-b98968b9d284","ios":"levelo://app?vid=0d0a1a59-79c7-4749-a6ad-b98968b9d284"},"vehicle_type_id":"4","last_reported":1720109366,"current_range_meters":0,"station_id":"ce4bgv92rcd13ifvqcr0","pricing_plan_id":"cebpf4jnsgd1na2vs0mg"},{"bike_id":"16ae4b79-6d16-44e6-ac3f-22c96d65f948","system_id":"levelo_inurba_marseille","lat":43.310804,"lon":5.38359,"is_reserved":false,"is_disabled":false,"rental_uris":{"android":"levelo://app?vid=16ae4b79-6d16-44e6-ac3f-22c96d65f948","ios":"levelo://app?vid=16ae4b79-6d16-44e6-ac3f-22c96d65f948"},"vehicle_type_id":"4","last_reported":1720109366,"current_range_meters":0,"station_id":"ce4bgv92rcd13ifvqcr0","pricing_plan_id":"cebpf4jnsgd1na2vs0mg"},{"bike_id":"e0c694c5-7b67-49c4-9e5f-9e0425a0708b","system_id":"levelo_inurba_marseille","lat":43.302784,"lon":5.377158,"is_reserved":false,"is_disabled":false,"rental_uris":{"android":"levelo://app?vid=e0c694c5-7b67-49c4-9e5f-9e0425a0708b","ios":"levelo://app?vid=e0c694c5-7b67-49c4-9e5f-9e0425a0708b"},"vehicle_type_id":"4","last_reported":1720109366,"current_range_meters":17200,"station_id":"ce4bguh2rcd13ifvqcj0","pricing_plan_id":"cebpf4jnsgd1na2vs0mg"},{"bike_id":"e5610d03-9da9-4cfb-ad9a-a67d4f13d339","system_id":"levelo_inurba_marseille","lat":43.30143,"lon":5.37413,"is_reserved":false,"is_disabled":false,"rental_uris":{"android":"levelo://app?vid=e5610d03-9da9-4cfb-ad9a-a67d4f13d339","ios":"levelo://app?vid=e5610d03-9da9-4cfb-ad9a-a67d4f13d339"},"vehicle_type_id":"4","last_reported":1720109366,"current_range_meters":2800,"station_id":"ce4bgs92rcd13ifvqcc0","pricing_plan_id":"cebpf4jnsgd1na2vs0mg"},{"bike_id":"00721877-2549-4506-b764-755c2e6629b3","system_id":"levelo_inurba_marseille","lat":43.302784,"lon":5.377158,"is_reserved":false,"is_disabled":false,"rental_uris":{"android":"levelo://app?vid=00721877-2549-4506-b764-755c2e6629b3","ios":"levelo://app?vid=00721877-2549-4506-b764-755c2e6629b3"},"vehicle_type_id":"4","last_reported":1720109366,"current_range_meters":16400,"station_id":"ce4bguh2rcd13ifvqcj0","pricing_plan_id":"cebpf4jnsgd1na2vs0mg"},{"bike_id":"e7720fe5-6077-4d9d-82c7-1d987c4631f8","system_id":"levelo_inurba_marseille","lat":43.302784,"lon":5.377158,"is_reserved":false,"is_disabled":false,"rental_uris":{"android":"levelo://app?vid=e7720fe5-6077-4d9d-82c7-1d987c4631f8","ios":"levelo://app?vid=e7720fe5-6077-4d9d-82c7-1d987c4631f8"},"vehicle_type_id":"4","last_reported":1720109366,"current_range_meters":23600,"station_id":"ce4bguh2rcd13ifvqcj0","pricing_plan_id":"cebpf4jnsgd1na2vs0mg"},{"bike_id":"e38a671f-e4d4-42fb-9ee0-ac8ba292c3c0","system_id":"levelo_inurba_marseille","lat":43.31995,"lon":5.38142,"is_reserved":false,"is_disabled":false,"rental_uris":{"android":"levelo://app?vid=e38a671f-e4d4-42fb-9ee0-ac8ba292c3c0","ios":"levelo://app?vid=e38a671f-e4d4-42fb-9ee0-ac8ba292c3c0"},"vehicle_type_id":"4","last_reported":1720109366,"current_range_meters":6000,"station_id":"ce4bhr12rcd13ifvqhpg","pricing_plan_id":"cebpf4jnsgd1na2vs0mg"},{"bike_id":"55f29928-de3c-493d-b799-244c32dfd243","system_id":"levelo_inurba_marseille","lat":43.319935,"lon":5.381699,"is_reserved":false,"is_disabled":false,"rental_uris":{"android":"levelo://app?vid=55f29928-de3c-493d-b799-244c32dfd243","ios":"levelo://app?vid=55f29928-de3c-493d-b799-244c32dfd243"},"vehicle_type_id":"4","last_reported":1720109366,"current_range_meters":0,"station_id":"ce4bhr12rcd13ifvqhpg","pricing_plan_id":"cebpf4jnsgd1na2vs0mg"},{"bike_id":"423ce2af-750d-453e-9fa4-1d0fd4a028b1","system_id":"levelo_inurba_marseille","lat":43.319935,"lon":5.381699,"is_reserved":false,"is_disabled":false,"rental_uris":{"android":"levelo://app?vid=423ce2af-750d-453e-9fa4-1d0fd4a028b1","ios":"levelo://app?vid=423ce2af-750d-453e-9fa4-1d0fd4a028b1"},"vehicle_type_id":"4","last_reported":1720109366,"current_range_meters":3600,"station_id":"ce4bhr12rcd13ifvqhpg","pricing_plan_id":"cebpf4jnsgd1na2vs0mg"},{"bike_id":"70729215-ac54-4cde-976b-31ed02bf1555","system_id":"levelo_inurba_marseille","lat":43.313571,"lon":5.384829,"is_reserved":false,"is_disabled":false,"rental_uris":{"android":"levelo://app?vid=70729215-ac54-4cde-976b-31ed02bf1555","ios":"levelo://app?vid=70729215-ac54-4cde-976b-31ed02bf1555"},"vehicle_type_id":"4","last_reported":1720109366,"current_range_meters":20400,"station_id":"ce4bgt92rcd13ifvqcf0","pricing_plan_id":"cebpf4jnsgd1na2vs0mg"},{"bike_id":"7852bda2-b4f6-46da-8cea-8ab85acf4014","system_id":"levelo_inurba_marseille","lat":43.31367,"lon":5.38494,"is_reserved":false,"is_disabled":false,"rental_uris":{"android":"levelo://app?vid=7852bda2-b4f6-46da-8cea-8ab85acf4014","ios":"levelo://app?vid=7852bda2-b4f6-46da-8cea-8ab85acf4014"},"vehicle_type_id":"4","last_reported":1720109366,"current_range_meters":16400,"station_id":"ce4bgt92rcd13ifvqcf0","pricing_plan_id":"cebpf4jnsgd1na2vs0mg"},{"bike_id":"583fcee3-8cfc-47ec-a0cb-25aa6631d502","system_id":"levelo_inurba_marseille","lat":43.299222,"lon":5.365554,"is_reserved":false,"is_disabled":false,"rental_uris":{"android":"levelo://app?vid=583fcee3-8cfc-47ec-a0cb-25aa6631d502","ios":"levelo://app?vid=583fcee3-8cfc-47ec-a0cb-25aa6631d502"},"vehicle_type_id":"4","last_reported":1720109366,"current_range_meters":10800,"station_id":"ce4bgm92rcd13ifvqbr0","pricing_plan_id":"cebpf4jnsgd1na2vs0mg"},{"bike_id":"37b9b256-a0af-40cd-838c-00fadecef095","system_id":"levelo_inurba_marseille","lat":43.299222,"lon":5.365554,"is_reserved":false,"is_disabled":false,"rental_uris":{"android":"levelo://app?vid=37b9b256-a0af-40cd-838c-00fadecef095","ios":"levelo://app?vid=37b9b256-a0af-40cd-838c-00fadecef095"},"vehicle_type_id":"4","last_reported":1720109366,"current_range_meters":21200,"station_id":"ce4bgm92rcd13ifvqbr0","pricing_plan_id":"cebpf4jnsgd1na2vs0mg"},{"bike_id":"2f93c2cd-647d-45ff-89da-f5359d31e1db","system_id":"levelo_inurba_marseille","lat":43.299724,"lon":5.371829,"is_reserved":false,"is_disabled":false,"rental_uris":{"android":"levelo://app?vid=2f93c2cd-647d-45ff-89da-f5359d31e1db","ios":"levelo://app?vid=2f93c2cd-647d-45ff-89da-f5359d31e1db"},"vehicle_type_id":"4","last_reported":1720109366,"current_range_meters":0,"station_id":"ce4bgr92rcd13ifvqc7g","pricing_plan_id":"cebpf4jnsgd1na2vs0mg"},{"bike_id":"a5a9a139-a646-428e-80ef-b675cfa0f3f3","system_id":"levelo_inurba_marseille","lat":43.299222,"lon":5.365554,"is_reserved":false,"is_disabled":false,"rental_uris":{"android":"levelo://app?vid=a5a9a139-a646-428e-80ef-b675cfa0f3f3","ios":"levelo://app?vid=a5a9a139-a646-428e-80ef-b675cfa0f3f3"},"vehicle_type_id":"4","last_reported":1720109366,"current_range_meters":30800,"station_id":"ce4bgm92rcd13ifvqbr0","pricing_plan_id":"cebpf4jnsgd1na2vs0mg"},{"bike_id":"1e8b3fe6-7233-4613-aca2-5db4681719b3","system_id":"levelo_inurba_marseille","lat":43.299222,"lon":5.365554,"is_reserved":false,"is_disabled":false,"rental_uris":{"android":"levelo://app?vid=1e8b3fe6-7233-4613-aca2-5db4681719b3","ios":"levelo://app?vid=1e8b3fe6-7233-4613-aca2-5db4681719b3"},"vehicle_type_id":"4","last_reported":1720109366,"current_range_meters":14800,"station_id":"ce4bgm92rcd13ifvqbr0","pricing_plan_id":"cebpf4jnsgd1na2vs0mg"},{"bike_id":"18f592d4-ebd9-4ff0-b438-05e0eea85905","system_id":"levelo_inurba_marseille","lat":43.299222,"lon":5.365554,"is_reserved":false,"is_disabled":false,"rental_uris":{"android":"levelo://app?vid=18f592d4-ebd9-4ff0-b438-05e0eea85905","ios":"levelo://app?vid=18f592d4-ebd9-4ff0-b438-05e0eea85905"},"vehicle_type_id":"4","last_reported":1720109366,"current_range_meters":0,"station_id":"ce4bgm92rcd13ifvqbr0","pricing_plan_id":"cebpf4jnsgd1na2vs0mg"},{"bike_id":"bc38f47c-0a37-464f-99bf-705f1cc6f473","system_id":"levelo_inurba_marseille","lat":43.29931,"lon":5.36534,"is_reserved":false,"is_disabled":false,"rental_uris":{"android":"levelo://app?vid=bc38f47c-0a37-464f-99bf-705f1cc6f473","ios":"levelo://app?vid=bc38f47c-0a37-464f-99bf-705f1cc6f473"},"vehicle_type_id":"4","last_reported":1720109366,"current_range_meters":28000,"station_id":"ce4bgm92rcd13ifvqbr0","pricing_plan_id":"cebpf4jnsgd1na2vs0mg"},{"bike_id":"bee528ef-bfc9-4b7b-b54c-21f519fd41b1","system_id":"levelo_inurba_marseille","lat":43.31154,"lon":5.38663,"is_reserved":false,"is_disabled":false,"rental_uris":{"android":"levelo://app?vid=bee528ef-bfc9-4b7b-b54c-21f519fd41b1","ios":"levelo://app?vid=bee528ef-bfc9-4b7b-b54c-21f519fd41b1"},"vehicle_type_id":"4","last_reported":1720109366,"current_range_meters":21200,"station_id":"ce4bgv12rcd13ifvqcp0","pricing_plan_id":"cebpf4jnsgd1na2vs0mg"},{"bike_id":"b58d8013-c13a-4b30-aa34-0697c7bad574","system_id":"levelo_inurba_marseille","lat":43.30552,"lon":5.38419,"is_reserved":false,"is_disabled":false,"rental_uris":{"android":"levelo://app?vid=b58d8013-c13a-4b30-aa34-0697c7bad574","ios":"levelo://app?vid=b58d8013-c13a-4b30-aa34-0697c7bad574"},"vehicle_type_id":"4","last_reported":1720109366,"current_range_meters":22400,"station_id":"ce4bgg92rcd13ifvqb30","pricing_plan_id":"cebpf4jnsgd1na2vs0mg"},{"bike_id":"bd486895-f04f-4512-b680-aeb6b481fe15","system_id":"levelo_inurba_marseille","lat":43.298433,"lon":5.362774,"is_reserved":false,"is_disabled":false,"rental_uris":{"android":"levelo://app?vid=bd486895-f04f-4512-b680-aeb6b481fe15","ios":"levelo://app?vid=bd486895-f04f-4512-b680-aeb6b481fe15"},"vehicle_type_id":"4","last_reported":1720109366,"current_range_meters":15600,"station_id":"ce4bgpp2rcd13ifvqc3g","pricing_plan_id":"cebpf4jnsgd1na2vs0mg"},{"bike_id":"95b1bea8-e733-4152-9073-f67d702359af","system_id":"levelo_inurba_marseille","lat":43.29847,"lon":5.36276,"is_reserved":false,"is_disabled":false,"rental_uris":{"android":"levelo://app?vid=95b1bea8-e733-4152-9073-f67d702359af","ios":"levelo://app?vid=95b1bea8-e733-4152-9073-f67d702359af"},"vehicle_type_id":"4","last_reported":1720109366,"current_range_meters":13600,"station_id":"","pricing_plan_id":"cebpf4jnsgd1na2vs0mg"},{"bike_id":"89f90d46-7976-42d1-b410-62136d568ba1","system_id":"levelo_inurba_marseille","lat":43.298433,"lon":5.362774,"is_reserved":false,"is_disabled":false,"rental_uris":{"android":"levelo://app?vid=89f90d46-7976-42d1-b410-62136d568ba1","ios":"levelo://app?vid=89f90d46-7976-42d1-b410-62136d568ba1"},"vehicle_type_id":"4","last_reported":1720109366,"current_range_meters":11600,"station_id":"ce4bgpp2rcd13ifvqc3g","pricing_plan_id":"cebpf4jnsgd1na2vs0mg"},{"bike_id":"f08c5fe8-5d75-4a72-8550-b9a9ce41465b","system_id":"levelo_inurba_marseille","lat":43.299243,"lon":5.37481,"is_reserved":false,"is_disabled":false,"rental_uris":{"android":"levelo://app?vid=f08c5fe8-5d75-4a72-8550-b9a9ce41465b","ios":"levelo://app?vid=f08c5fe8-5d75-4a72-8550-b9a9ce41465b"},"vehicle_type_id":"4","last_reported":1720109366,"current_range_meters":0,"station_id":"ce4bgjh2rcd13ifvqbg0","pricing_plan_id":"cebpf4jnsgd1na2vs0mg"},{"bike_id":"5235f1d7-bad4-49fc-8b60-d3367038cc34","system_id":"levelo_inurba_marseille","lat":43.299243,"lon":5.37481,"is_reserved":false,"is_disabled":false,"rental_uris":{"android":"levelo://app?vid=5235f1d7-bad4-49fc-8b60-d3367038cc34","ios":"levelo://app?vid=5235f1d7-bad4-49fc-8b60-d3367038cc34"},"vehicle_type_id":"4","last_reported":1720109366,"current_range_meters":12800,"station_id":"ce4bgjh2rcd13ifvqbg0","pricing_plan_id":"cebpf4jnsgd1na2vs0mg"},{"bike_id":"cf82b289-ffc6-41d8-bbf0-fa8ab5b27432","system_id":"levelo_inurba_marseille","lat":43.298039,"lon":5.371852,"is_reserved":false,"is_disabled":false,"rental_uris":{"android":"levelo://app?vid=cf82b289-ffc6-41d8-bbf0-fa8ab5b27432","ios":"levelo://app?vid=cf82b289-ffc6-41d8-bbf0-fa8ab5b27432"},"vehicle_type_id":"4","last_reported":1720109366,"current_range_meters":0,"station_id":"","pricing_plan_id":"cebpf4jnsgd1na2vs0mg"},{"bike_id":"df633499-27cb-4a56-bc63-8ae7c50134f3","system_id":"levelo_inurba_marseille","lat":43.297794,"lon":5.370888,"is_reserved":false,"is_disabled":false,"rental_uris":{"android":"levelo://app?vid=df633499-27cb-4a56-bc63-8ae7c50134f3","ios":"levelo://app?vid=df633499-27cb-4a56-bc63-8ae7c50134f3"},"vehicle_type_id":"4","last_reported":1720109366,"current_range_meters":2000,"station_id":"ce4bgop2rcd13ifvqc1g","pricing_plan_id":"cebpf4jnsgd1na2vs0mg"},{"bike_id":"27a6bef8-9fa2-4c7c-a852-ef52da7f4c34","system_id":"levelo_inurba_marseille","lat":43.32297,"lon":5.38261,"is_reserved":false,"is_disabled":false,"rental_uris":{"android":"levelo://app?vid=27a6bef8-9fa2-4c7c-a852-ef52da7f4c34","ios":"levelo://app?vid=27a6bef8-9fa2-4c7c-a852-ef52da7f4c34"},"vehicle_type_id":"4","last_reported":1720109366,"current_range_meters":28000,"station_id":"ce4bhr12rcd13ifvqhqg","pricing_plan_id":"cebpf4jnsgd1na2vs0mg"},{"bike_id":"814afcf2-1235-4829-92f3-e0dca88bd8d1","system_id":"levelo_inurba_marseille","lat":43.297163,"lon":5.365866,"is_reserved":false,"is_disabled":false,"rental_uris":{"android":"levelo://app?vid=814afcf2-1235-4829-92f3-e0dca88bd8d1","ios":"levelo://app?vid=814afcf2-1235-4829-92f3-e0dca88bd8d1"},"vehicle_type_id":"4","last_reported":1720109366,"current_range_meters":14400,"station_id":"ce4bgn12rcd13ifvqbt0","pricing_plan_id":"cebpf4jnsgd1na2vs0mg"},{"bike_id":"52d1e530-7dea-4880-b853-8b35424b2d28","system_id":"levelo_inurba_marseille","lat":43.297163,"lon":5.365866,"is_reserved":false,"is_disabled":false,"rental_uris":{"android":"levelo://app?vid=52d1e530-7dea-4880-b853-8b35424b2d28","ios":"levelo://app?vid=52d1e530-7dea-4880-b853-8b35424b2d28"},"vehicle_type_id":"4","last_reported":1720109366,"current_range_meters":31200,"station_id":"ce4bgn12rcd13ifvqbt0","pricing_plan_id":"cebpf4jnsgd1na2vs0mg"},{"bike_id":"d17a9e4c-0eca-4029-9bac-bccd6cd7bc43","system_id":"levelo_inurba_marseille","lat":43.297163,"lon":5.365866,"is_reserved":false,"is_disabled":false,"rental_uris":{"android":"levelo://app?vid=d17a9e4c-0eca-4029-9bac-bccd6cd7bc43","ios":"levelo://app?vid=d17a9e4c-0eca-4029-9bac-bccd6cd7bc43"},"vehicle_type_id":"4","last_reported":1720109366,"current_range_meters":20000,"station_id":"ce4bgn12rcd13ifvqbt0","pricing_plan_id":"cebpf4jnsgd1na2vs0mg"},{"bike_id":"9fb4f0d2-2430-4533-9859-a6ae3e9cbbc5","system_id":"levelo_inurba_marseille","lat":43.297163,"lon":5.365866,"is_reserved":false,"is_disabled":false,"rental_uris":{"android":"levelo://app?vid=9fb4f0d2-2430-4533-9859-a6ae3e9cbbc5","ios":"levelo://app?vid=9fb4f0d2-2430-4533-9859-a6ae3e9cbbc5"},"vehicle_type_id":"4","last_reported":1720109366,"current_range_meters":29200,"station_id":"ce4bgn12rcd13ifvqbt0","pricing_plan_id":"cebpf4jnsgd1na2vs0mg"},{"bike_id":"1a25f2ed-e9c1-4cb6-b799-a2b18ab73376","system_id":"levelo_inurba_marseille","lat":43.29829,"lon":5.37631,"is_reserved":false,"is_disabled":false,"rental_uris":{"android":"levelo://app?vid=1a25f2ed-e9c1-4cb6-b799-a2b18ab73376","ios":"levelo://app?vid=1a25f2ed-e9c1-4cb6-b799-a2b18ab73376"},"vehicle_type_id":"4","last_reported":1720109366,"current_range_meters":19600,"station_id":"","pricing_plan_id":"cebpf4jnsgd1na2vs0mg"},{"bike_id":"0c845e77-91f9-4f53-b4c0-9cd585c05b3e","system_id":"levelo_inurba_marseille","lat":43.29663,"lon":5.36162,"is_reserved":false,"is_disabled":false,"rental_uris":{"android":"levelo://app?vid=0c845e77-91f9-4f53-b4c0-9cd585c05b3e","ios":"levelo://app?vid=0c845e77-91f9-4f53-b4c0-9cd585c05b3e"},"vehicle_type_id":"4","last_reported":1720109366,"current_range_meters":0,"station_id":"","pricing_plan_id":"cebpf4jnsgd1na2vs0mg"},{"bike_id":"a55999e4-02b2-43c3-9384-e46075705a1e","system_id":"levelo_inurba_marseille","lat":43.32942,"lon":5.36614,"is_reserved":false,"is_disabled":false,"rental_uris":{"android":"levelo://app?vid=a55999e4-02b2-43c3-9384-e46075705a1e","ios":"levelo://app?vid=a55999e4-02b2-43c3-9384-e46075705a1e"},"vehicle_type_id":"4","last_reported":1720109366,"current_range_meters":25200,"station_id":"","pricing_plan_id":"cebpf4jnsgd1na2vs0mg"},{"bike_id":"80b77f64-95ba-40a5-9222-ff29f6df684b","system_id":"levelo_inurba_marseille","lat":43.29573,"lon":5.367355,"is_reserved":false,"is_disabled":false,"rental_uris":{"android":"levelo://app?vid=80b77f64-95ba-40a5-9222-ff29f6df684b","ios":"levelo://app?vid=80b77f64-95ba-40a5-9222-ff29f6df684b"},"vehicle_type_id":"4","last_reported":1720109366,"current_range_meters":31200,"station_id":"ce4bgph2rcd13ifvqc2g","pricing_plan_id":"cebpf4jnsgd1na2vs0mg"},{"bike_id":"f8ba9d7b-ce14-42dc-be4a-a98e0b041137","system_id":"levelo_inurba_marseille","lat":43.29573,"lon":5.367355,"is_reserved":false,"is_disabled":false,"rental_uris":{"android":"levelo://app?vid=f8ba9d7b-ce14-42dc-be4a-a98e0b041137","ios":"levelo://app?vid=f8ba9d7b-ce14-42dc-be4a-a98e0b041137"},"vehicle_type_id":"4","last_reported":1720109366,"current_range_meters":31200,"station_id":"ce4bgph2rcd13ifvqc2g","pricing_plan_id":"cebpf4jnsgd1na2vs0mg"},{"bike_id":"39b0a994-c24d-491e-9435-a28113fcb7c9","system_id":"levelo_inurba_marseille","lat":43.299028,"lon":5.381509,"is_reserved":false,"is_disabled":false,"rental_uris":{"android":"levelo://app?vid=39b0a994-c24d-491e-9435-a28113fcb7c9","ios":"levelo://app?vid=39b0a994-c24d-491e-9435-a28113fcb7c9"},"vehicle_type_id":"4","last_reported":1720109366,"current_range_meters":10800,"station_id":"ce4bgj12rcd13ifvqbc0","pricing_plan_id":"cebpf4jnsgd1na2vs0mg"},{"bike_id":"0210d544-c4c7-4042-b6ea-7b3a8f3ab4df","system_id":"levelo_inurba_marseille","lat":43.296935,"lon":5.376544,"is_reserved":false,"is_disabled":false,"rental_uris":{"android":"levelo://app?vid=0210d544-c4c7-4042-b6ea-7b3a8f3ab4df","ios":"levelo://app?vid=0210d544-c4c7-4042-b6ea-7b3a8f3ab4df"},"vehicle_type_id":"4","last_reported":1720109366,"current_range_meters":3200,"station_id":"ce4bgkh2rcd13ifvqbl0","pricing_plan_id":"cebpf4jnsgd1na2vs0mg"},{"bike_id":"99263a8d-8058-4f74-8de8-fcc93f1bf403","system_id":"levelo_inurba_marseille","lat":43.296921,"lon":5.376579,"is_reserved":false,"is_disabled":false,"rental_uris":{"android":"levelo://app?vid=99263a8d-8058-4f74-8de8-fcc93f1bf403","ios":"levelo://app?vid=99263a8d-8058-4f74-8de8-fcc93f1bf403"},"vehicle_type_id":"4","last_reported":1720109366,"current_range_meters":16800,"station_id":"ce4bgkh2rcd13ifvqbl0","pricing_plan_id":"cebpf4jnsgd1na2vs0mg"},{"bike_id":"2e951f77-f9de-4c53-8ef6-5398419d30b7","system_id":"levelo_inurba_marseille","lat":43.309589,"lon":5.390258,"is_reserved":false,"is_disabled":false,"rental_uris":{"android":"levelo://app?vid=2e951f77-f9de-4c53-8ef6-5398419d30b7","ios":"levelo://app?vid=2e951f77-f9de-4c53-8ef6-5398419d30b7"},"vehicle_type_id":"4","last_reported":1720109366,"current_range_meters":12800,"station_id":"ce4bgup2rcd13ifvqco0","pricing_plan_id":"cebpf4jnsgd1na2vs0mg"},{"bike_id":"14a356da-a293-4d50-9185-09839b4cfed7","system_id":"levelo_inurba_marseille","lat":43.296921,"lon":5.376579,"is_reserved":false,"is_disabled":false,"rental_uris":{"android":"levelo://app?vid=14a356da-a293-4d50-9185-09839b4cfed7","ios":"levelo://app?vid=14a356da-a293-4d50-9185-09839b4cfed7"},"vehicle_type_id":"4","last_reported":1720109366,"current_range_meters":25200,"station_id":"ce4bgkh2rcd13ifvqbl0","pricing_plan_id":"cebpf4jnsgd1na2vs0mg"},{"bike_id":"c74857f3-2f47-464a-afbc-d135452bc67f","system_id":"levelo_inurba_marseille","lat":43.317557,"lon":5.390173,"is_reserved":false,"is_disabled":false,"rental_uris":{"android":"levelo://app?vid=c74857f3-2f47-464a-afbc-d135452bc67f","ios":"levelo://app?vid=c74857f3-2f47-464a-afbc-d135452bc67f"},"vehicle_type_id":"4","last_reported":1720109366,"current_range_meters":2000,"station_id":"ce4bhqp2rcd13ifvqhng","pricing_plan_id":"cebpf4jnsgd1na2vs0mg"},{"bike_id":"931c50a9-1129-41ad-aa71-27bcf7dad009","system_id":"levelo_inurba_marseille","lat":43.29808,"lon":5.38105,"is_reserved":false,"is_disabled":false,"rental_uris":{"android":"levelo://app?vid=931c50a9-1129-41ad-aa71-27bcf7dad009","ios":"levelo://app?vid=931c50a9-1129-41ad-aa71-27bcf7dad009"},"vehicle_type_id":"4","last_reported":1720109366,"current_range_meters":16800,"station_id":"ce4bgip2rcd13ifvqbb0","pricing_plan_id":"cebpf4jnsgd1na2vs0mg"},{"bike_id":"96c5f8fa-06f4-4806-885a-099d3d2e4bf6","system_id":"levelo_inurba_marseille","lat":43.298037,"lon":5.381066,"is_reserved":false,"is_disabled":false,"rental_uris":{"android":"levelo://app?vid=96c5f8fa-06f4-4806-885a-099d3d2e4bf6","ios":"levelo://app?vid=96c5f8fa-06f4-4806-885a-099d3d2e4bf6"},"vehicle_type_id":"4","last_reported":1720109366,"current_range_meters":22000,"station_id":"ce4bgip2rcd13ifvqbb0","pricing_plan_id":"cebpf4jnsgd1na2vs0mg"},{"bike_id":"f688683a-ae47-4ce0-aae7-4664241dfb20","system_id":"levelo_inurba_marseille","lat":43.304274,"lon":5.388873,"is_reserved":false,"is_disabled":false,"rental_uris":{"android":"levelo://app?vid=f688683a-ae47-4ce0-aae7-4664241dfb20","ios":"levelo://app?vid=f688683a-ae47-4ce0-aae7-4664241dfb20"},"vehicle_type_id":"4","last_reported":1720109366,"current_range_meters":19600,"station_id":"ce4bgk12rcd13ifvqbi0","pricing_plan_id":"cebpf4jnsgd1na2vs0mg"},{"bike_id":"a99e8899-1576-4243-b321-0209e0662730","system_id":"levelo_inurba_marseille","lat":43.304274,"lon":5.388873,"is_reserved":false,"is_disabled":false,"rental_uris":{"android":"levelo://app?vid=a99e8899-1576-4243-b321-0209e0662730","ios":"levelo://app?vid=a99e8899-1576-4243-b321-0209e0662730"},"vehicle_type_id":"4","last_reported":1720109366,"current_range_meters":9600,"station_id":"ce4bgk12rcd13ifvqbi0","pricing_plan_id":"cebpf4jnsgd1na2vs0mg"},{"bike_id":"6ec41216-0c62-458d-bb79-5cd3dc7ba7fe","system_id":"levelo_inurba_marseille","lat":43.295748,"lon":5.37522,"is_reserved":false,"is_disabled":false,"rental_uris":{"android":"levelo://app?vid=6ec41216-0c62-458d-bb79-5cd3dc7ba7fe","ios":"levelo://app?vid=6ec41216-0c62-458d-bb79-5cd3dc7ba7fe"},"vehicle_type_id":"4","last_reported":1720109366,"current_range_meters":20800,"station_id":"ce4bgh92rcd13ifvqb50","pricing_plan_id":"cebpf4jnsgd1na2vs0mg"},{"bike_id":"219fef35-c6ca-4bd6-90e6-b53d224fcc2a","system_id":"levelo_inurba_marseille","lat":43.304278,"lon":5.388868,"is_reserved":false,"is_disabled":false,"rental_uris":{"android":"levelo://app?vid=219fef35-c6ca-4bd6-90e6-b53d224fcc2a","ios":"levelo://app?vid=219fef35-c6ca-4bd6-90e6-b53d224fcc2a"},"vehicle_type_id":"4","last_reported":1720109366,"current_range_meters":0,"station_id":"ce4bgk12rcd13ifvqbi0","pricing_plan_id":"cebpf4jnsgd1na2vs0mg"},{"bike_id":"521af39b-ef0a-4da7-bbb5-332997216cc7","system_id":"levelo_inurba_marseille","lat":43.296277,"lon":5.377108,"is_reserved":false,"is_disabled":false,"rental_uris":{"android":"levelo://app?vid=521af39b-ef0a-4da7-bbb5-332997216cc7","ios":"levelo://app?vid=521af39b-ef0a-4da7-bbb5-332997216cc7"},"vehicle_type_id":"4","last_reported":1720109366,"current_range_meters":18000,"station_id":"ce4bgi92rcd13ifvqb90","pricing_plan_id":"cebpf4jnsgd1na2vs0mg"},{"bike_id":"1c6a67ad-4171-445d-9918-b85ac4d622a5","system_id":"levelo_inurba_marseille","lat":43.296277,"lon":5.377108,"is_reserved":false,"is_disabled":false,"rental_uris":{"android":"levelo://app?vid=1c6a67ad-4171-445d-9918-b85ac4d622a5","ios":"levelo://app?vid=1c6a67ad-4171-445d-9918-b85ac4d622a5"},"vehicle_type_id":"4","last_reported":1720109366,"current_range_meters":22800,"station_id":"ce4bgi92rcd13ifvqb90","pricing_plan_id":"cebpf4jnsgd1na2vs0mg"},{"bike_id":"240944a3-15cf-42d5-a355-cba33500c45c","system_id":"levelo_inurba_marseille","lat":43.304278,"lon":5.388868,"is_reserved":false,"is_disabled":false,"rental_uris":{"android":"levelo://app?vid=240944a3-15cf-42d5-a355-cba33500c45c","ios":"levelo://app?vid=240944a3-15cf-42d5-a355-cba33500c45c"},"vehicle_type_id":"4","last_reported":1720109366,"current_range_meters":9600,"station_id":"ce4bgk12rcd13ifvqbi0","pricing_plan_id":"cebpf4jnsgd1na2vs0mg"},{"bike_id":"e755903f-cba0-418e-8acd-ab9b2807da45","system_id":"levelo_inurba_marseille","lat":43.29974,"lon":5.38496,"is_reserved":false,"is_disabled":false,"rental_uris":{"android":"levelo://app?vid=e755903f-cba0-418e-8acd-ab9b2807da45","ios":"levelo://app?vid=e755903f-cba0-418e-8acd-ab9b2807da45"},"vehicle_type_id":"4","last_reported":1720109366,"current_range_meters":4400,"station_id":"ce4bgj92rcd13ifvqbd0","pricing_plan_id":"cebpf4jnsgd1na2vs0mg"},{"bike_id":"54149045-8ca5-4241-a6b6-8a09b20622c9","system_id":"levelo_inurba_marseille","lat":43.299724,"lon":5.384848,"is_reserved":false,"is_disabled":false,"rental_uris":{"android":"levelo://app?vid=54149045-8ca5-4241-a6b6-8a09b20622c9","ios":"levelo://app?vid=54149045-8ca5-4241-a6b6-8a09b20622c9"},"vehicle_type_id":"4","last_reported":1720109366,"current_range_meters":11600,"station_id":"ce4bgj92rcd13ifvqbd0","pricing_plan_id":"cebpf4jnsgd1na2vs0mg"},{"bike_id":"f9d8cc40-377c-4e7b-91ce-bc00d155fc0f","system_id":"levelo_inurba_marseille","lat":43.29971,"lon":5.38497,"is_reserved":false,"is_disabled":false,"rental_uris":{"android":"levelo://app?vid=f9d8cc40-377c-4e7b-91ce-bc00d155fc0f","ios":"levelo://app?vid=f9d8cc40-377c-4e7b-91ce-bc00d155fc0f"},"vehicle_type_id":"4","last_reported":1720109366,"current_range_meters":6000,"station_id":"ce4bgj92rcd13ifvqbd0","pricing_plan_id":"cebpf4jnsgd1na2vs0mg"},{"bike_id":"3da4bb5d-2caf-4a62-9838-2f94ed73c1fe","system_id":"levelo_inurba_marseille","lat":43.29969,"lon":5.38498,"is_reserved":false,"is_disabled":false,"rental_uris":{"android":"levelo://app?vid=3da4bb5d-2caf-4a62-9838-2f94ed73c1fe","ios":"levelo://app?vid=3da4bb5d-2caf-4a62-9838-2f94ed73c1fe"},"vehicle_type_id":"4","last_reported":1720109366,"current_range_meters":31600,"station_id":"ce4bgj92rcd13ifvqbd0","pricing_plan_id":"cebpf4jnsgd1na2vs0mg"},{"bike_id":"c2608974-b821-4979-8596-62db37c61208","system_id":"levelo_inurba_marseille","lat":43.299724,"lon":5.384848,"is_reserved":false,"is_disabled":false,"rental_uris":{"android":"levelo://app?vid=c2608974-b821-4979-8596-62db37c61208","ios":"levelo://app?vid=c2608974-b821-4979-8596-62db37c61208"},"vehicle_type_id":"4","last_reported":1720109366,"current_range_meters":0,"station_id":"ce4bgj92rcd13ifvqbd0","pricing_plan_id":"cebpf4jnsgd1na2vs0mg"},{"bike_id":"1451613f-a7ab-4788-b1be-e122a5951284","system_id":"levelo_inurba_marseille","lat":43.29968,"lon":5.38505,"is_reserved":false,"is_disabled":false,"rental_uris":{"android":"levelo://app?vid=1451613f-a7ab-4788-b1be-e122a5951284","ios":"levelo://app?vid=1451613f-a7ab-4788-b1be-e122a5951284"},"vehicle_type_id":"4","last_reported":1720109366,"current_range_meters":400,"station_id":"ce4bgj92rcd13ifvqbd0","pricing_plan_id":"cebpf4jnsgd1na2vs0mg"},{"bike_id":"e38ffc58-a731-47ab-a92f-350dfef83d26","system_id":"levelo_inurba_marseille","lat":43.301396,"lon":5.387812,"is_reserved":false,"is_disabled":false,"rental_uris":{"android":"levelo://app?vid=e38ffc58-a731-47ab-a92f-350dfef83d26","ios":"levelo://app?vid=e38ffc58-a731-47ab-a92f-350dfef83d26"},"vehicle_type_id":"4","last_reported":1720109366,"current_range_meters":2800,"station_id":"ce4bghh2rcd13ifvqb60","pricing_plan_id":"cebpf4jnsgd1na2vs0mg"},{"bike_id":"d8e7f33b-381e-4f74-b9b3-8f67138ce4a6","system_id":"levelo_inurba_marseille","lat":43.32367,"lon":5.388836,"is_reserved":false,"is_disabled":false,"rental_uris":{"android":"levelo://app?vid=d8e7f33b-381e-4f74-b9b3-8f67138ce4a6","ios":"levelo://app?vid=d8e7f33b-381e-4f74-b9b3-8f67138ce4a6"},"vehicle_type_id":"4","last_reported":1720109366,"current_range_meters":2000,"station_id":"ce4bhqp2rcd13ifvqhog","pricing_plan_id":"cebpf4jnsgd1na2vs0mg"},{"bike_id":"eda0cff3-65a3-4c80-9316-15d5ceb5ca1c","system_id":"levelo_inurba_marseille","lat":43.32367,"lon":5.388836,"is_reserved":false,"is_disabled":false,"rental_uris":{"android":"levelo://app?vid=eda0cff3-65a3-4c80-9316-15d5ceb5ca1c","ios":"levelo://app?vid=eda0cff3-65a3-4c80-9316-15d5ceb5ca1c"},"vehicle_type_id":"4","last_reported":1720109366,"current_range_meters":0,"station_id":"ce4bhqp2rcd13ifvqhog","pricing_plan_id":"cebpf4jnsgd1na2vs0mg"},{"bike_id":"fa6fc1a1-3efa-4b60-ae34-0a6085a1accf","system_id":"levelo_inurba_marseille","lat":43.32367,"lon":5.388836,"is_reserved":false,"is_disabled":false,"rental_uris":{"android":"levelo://app?vid=fa6fc1a1-3efa-4b60-ae34-0a6085a1accf","ios":"levelo://app?vid=fa6fc1a1-3efa-4b60-ae34-0a6085a1accf"},"vehicle_type_id":"4","last_reported":1720109366,"current_range_meters":0,"station_id":"ce4bhqp2rcd13ifvqhog","pricing_plan_id":"cebpf4jnsgd1na2vs0mg"},{"bike_id":"03c709f8-1ed2-4699-8006-02302237aebb","system_id":"levelo_inurba_marseille","lat":43.32367,"lon":5.388836,"is_reserved":false,"is_disabled":false,"rental_uris":{"android":"levelo://app?vid=03c709f8-1ed2-4699-8006-02302237aebb","ios":"levelo://app?vid=03c709f8-1ed2-4699-8006-02302237aebb"},"vehicle_type_id":"4","last_reported":1720109366,"current_range_meters":23200,"station_id":"ce4bhqp2rcd13ifvqhog","pricing_plan_id":"cebpf4jnsgd1na2vs0mg"},{"bike_id":"f33e089c-a3cf-49e8-bd5a-85c941aa2196","system_id":"levelo_inurba_marseille","lat":43.29602,"lon":5.381084,"is_reserved":false,"is_disabled":false,"rental_uris":{"android":"levelo://app?vid=f33e089c-a3cf-49e8-bd5a-85c941aa2196","ios":"levelo://app?vid=f33e089c-a3cf-49e8-bd5a-85c941aa2196"},"vehicle_type_id":"4","last_reported":1720109366,"current_range_meters":3200,"station_id":"ce4bgl12rcd13ifvqbo0","pricing_plan_id":"cebpf4jnsgd1na2vs0mg"},{"bike_id":"b5e74cc5-0518-40af-a910-2cb6bf832175","system_id":"levelo_inurba_marseille","lat":43.29602,"lon":5.381084,"is_reserved":false,"is_disabled":false,"rental_uris":{"android":"levelo://app?vid=b5e74cc5-0518-40af-a910-2cb6bf832175","ios":"levelo://app?vid=b5e74cc5-0518-40af-a910-2cb6bf832175"},"vehicle_type_id":"4","last_reported":1720109366,"current_range_meters":13600,"station_id":"ce4bgl12rcd13ifvqbo0","pricing_plan_id":"cebpf4jnsgd1na2vs0mg"},{"bike_id":"2182251f-9b97-4fee-9b0d-4c70f8de98fa","system_id":"levelo_inurba_marseille","lat":43.29602,"lon":5.381084,"is_reserved":false,"is_disabled":false,"rental_uris":{"android":"levelo://app?vid=2182251f-9b97-4fee-9b0d-4c70f8de98fa","ios":"levelo://app?vid=2182251f-9b97-4fee-9b0d-4c70f8de98fa"},"vehicle_type_id":"4","last_reported":1720109366,"current_range_meters":0,"station_id":"ce4bgl12rcd13ifvqbo0","pricing_plan_id":"cebpf4jnsgd1na2vs0mg"},{"bike_id":"4b3b2509-0522-47da-9fd4-e6101dfa192c","system_id":"levelo_inurba_marseille","lat":43.293259,"lon":5.371586,"is_reserved":false,"is_disabled":false,"rental_uris":{"android":"levelo://app?vid=4b3b2509-0522-47da-9fd4-e6101dfa192c","ios":"levelo://app?vid=4b3b2509-0522-47da-9fd4-e6101dfa192c"},"vehicle_type_id":"4","last_reported":1720109366,"current_range_meters":8800,"station_id":"ce4bgh92rcd13ifvqb40","pricing_plan_id":"cebpf4jnsgd1na2vs0mg"},{"bike_id":"2dd76431-0e46-4169-b58d-d6d51a76b00a","system_id":"levelo_inurba_marseille","lat":43.293259,"lon":5.371586,"is_reserved":false,"is_disabled":false,"rental_uris":{"android":"levelo://app?vid=2dd76431-0e46-4169-b58d-d6d51a76b00a","ios":"levelo://app?vid=2dd76431-0e46-4169-b58d-d6d51a76b00a"},"vehicle_type_id":"4","last_reported":1720109366,"current_range_meters":14400,"station_id":"ce4bgh92rcd13ifvqb40","pricing_plan_id":"cebpf4jnsgd1na2vs0mg"},{"bike_id":"bfc057f8-5b37-464c-9bd1-63cb9eb90bb6","system_id":"levelo_inurba_marseille","lat":43.292749,"lon":5.368402,"is_reserved":false,"is_disabled":false,"rental_uris":{"android":"levelo://app?vid=bfc057f8-5b37-464c-9bd1-63cb9eb90bb6","ios":"levelo://app?vid=bfc057f8-5b37-464c-9bd1-63cb9eb90bb6"},"vehicle_type_id":"4","last_reported":1720109366,"current_range_meters":23200,"station_id":"ce4bhbp2rcd13ifvqesg","pricing_plan_id":"cebpf4jnsgd1na2vs0mg"},{"bike_id":"87136063-ead4-43ac-b16d-d453f4640354","system_id":"levelo_inurba_marseille","lat":43.293009,"lon":5.374584,"is_reserved":false,"is_disabled":false,"rental_uris":{"android":"levelo://app?vid=87136063-ead4-43ac-b16d-d453f4640354","ios":"levelo://app?vid=87136063-ead4-43ac-b16d-d453f4640354"},"vehicle_type_id":"4","last_reported":1720109366,"current_range_meters":13600,"station_id":"ce4bgi12rcd13ifvqb70","pricing_plan_id":"cebpf4jnsgd1na2vs0mg"},{"bike_id":"e8ef54de-f1f4-4cda-b395-ccc63cc09a41","system_id":"levelo_inurba_marseille","lat":43.293009,"lon":5.374584,"is_reserved":false,"is_disabled":false,"rental_uris":{"android":"levelo://app?vid=e8ef54de-f1f4-4cda-b395-ccc63cc09a41","ios":"levelo://app?vid=e8ef54de-f1f4-4cda-b395-ccc63cc09a41"},"vehicle_type_id":"4","last_reported":1720109366,"current_range_meters":10000,"station_id":"ce4bgi12rcd13ifvqb70","pricing_plan_id":"cebpf4jnsgd1na2vs0mg"},{"bike_id":"1f300426-cb29-45f0-bd6d-c30b17b2ca8d","system_id":"levelo_inurba_marseille","lat":43.305994,"lon":5.393687,"is_reserved":false,"is_disabled":false,"rental_uris":{"android":"levelo://app?vid=1f300426-cb29-45f0-bd6d-c30b17b2ca8d","ios":"levelo://app?vid=1f300426-cb29-45f0-bd6d-c30b17b2ca8d"},"vehicle_type_id":"4","last_reported":1720109366,"current_range_meters":20800,"station_id":"ce4bh0p2rcd13ifvqd80","pricing_plan_id":"cebpf4jnsgd1na2vs0mg"},{"bike_id":"cded0b73-4f31-48e1-95a2-c54d5d494949","system_id":"levelo_inurba_marseille","lat":43.305994,"lon":5.393687,"is_reserved":false,"is_disabled":false,"rental_uris":{"android":"levelo://app?vid=cded0b73-4f31-48e1-95a2-c54d5d494949","ios":"levelo://app?vid=cded0b73-4f31-48e1-95a2-c54d5d494949"},"vehicle_type_id":"4","last_reported":1720109366,"current_range_meters":7600,"station_id":"ce4bh0p2rcd13ifvqd80","pricing_plan_id":"cebpf4jnsgd1na2vs0mg"},{"bike_id":"21d3ceb0-10cb-4971-ba49-297966ba67eb","system_id":"levelo_inurba_marseille","lat":43.305994,"lon":5.393687,"is_reserved":false,"is_disabled":false,"rental_uris":{"android":"levelo://app?vid=21d3ceb0-10cb-4971-ba49-297966ba67eb","ios":"levelo://app?vid=21d3ceb0-10cb-4971-ba49-297966ba67eb"},"vehicle_type_id":"4","last_reported":1720109366,"current_range_meters":9600,"station_id":"ce4bh0p2rcd13ifvqd80","pricing_plan_id":"cebpf4jnsgd1na2vs0mg"},{"bike_id":"1bd3ef92-5fc3-4ca2-b1ec-b30dfc0cf1c5","system_id":"levelo_inurba_marseille","lat":43.303002,"lon":5.392142,"is_reserved":false,"is_disabled":false,"rental_uris":{"android":"levelo://app?vid=1bd3ef92-5fc3-4ca2-b1ec-b30dfc0cf1c5","ios":"levelo://app?vid=1bd3ef92-5fc3-4ca2-b1ec-b30dfc0cf1c5"},"vehicle_type_id":"4","last_reported":1720109366,"current_range_meters":0,"station_id":"ce4bgkh2rcd13ifvqbk0","pricing_plan_id":"cebpf4jnsgd1na2vs0mg"},{"bike_id":"b36501b4-1b54-449e-bd3b-92f25dd94f34","system_id":"levelo_inurba_marseille","lat":43.2936,"lon":5.37835,"is_reserved":false,"is_disabled":false,"rental_uris":{"android":"levelo://app?vid=b36501b4-1b54-449e-bd3b-92f25dd94f34","ios":"levelo://app?vid=b36501b4-1b54-449e-bd3b-92f25dd94f34"},"vehicle_type_id":"4","last_reported":1720109366,"current_range_meters":13200,"station_id":"ce4bgjh2rcd13ifvqbf0","pricing_plan_id":"cebpf4jnsgd1na2vs0mg"},{"bike_id":"8689d3b0-5840-47cc-b780-2588146fb02a","system_id":"levelo_inurba_marseille","lat":43.298764,"lon":5.388973,"is_reserved":false,"is_disabled":false,"rental_uris":{"android":"levelo://app?vid=8689d3b0-5840-47cc-b780-2588146fb02a","ios":"levelo://app?vid=8689d3b0-5840-47cc-b780-2588146fb02a"},"vehicle_type_id":"4","last_reported":1720109366,"current_range_meters":0,"station_id":"ce4bh392rcd13ifvqdl0","pricing_plan_id":"cebpf4jnsgd1na2vs0mg"},{"bike_id":"a8b127d5-ef41-4803-a331-cff683db7f3a","system_id":"levelo_inurba_marseille","lat":43.30085,"lon":5.390856,"is_reserved":false,"is_disabled":false,"rental_uris":{"android":"levelo://app?vid=a8b127d5-ef41-4803-a331-cff683db7f3a","ios":"levelo://app?vid=a8b127d5-ef41-4803-a331-cff683db7f3a"},"vehicle_type_id":"4","last_reported":1720109366,"current_range_meters":14000,"station_id":"ce4bh192rcd13ifvqdb0","pricing_plan_id":"cebpf4jnsgd1na2vs0mg"},{"bike_id":"15760b43-1a3a-41e6-b606-d8584c05fdea","system_id":"levelo_inurba_marseille","lat":43.298764,"lon":5.388973,"is_reserved":false,"is_disabled":false,"rental_uris":{"android":"levelo://app?vid=15760b43-1a3a-41e6-b606-d8584c05fdea","ios":"levelo://app?vid=15760b43-1a3a-41e6-b606-d8584c05fdea"},"vehicle_type_id":"4","last_reported":1720109366,"current_range_meters":21600,"station_id":"ce4bh392rcd13ifvqdl0","pricing_plan_id":"cebpf4jnsgd1na2vs0mg"},{"bike_id":"7108da3a-b3cf-4bb9-ac70-f7cffe667de2","system_id":"levelo_inurba_marseille","lat":43.298764,"lon":5.388973,"is_reserved":false,"is_disabled":false,"rental_uris":{"android":"levelo://app?vid=7108da3a-b3cf-4bb9-ac70-f7cffe667de2","ios":"levelo://app?vid=7108da3a-b3cf-4bb9-ac70-f7cffe667de2"},"vehicle_type_id":"4","last_reported":1720109366,"current_range_meters":6400,"station_id":"ce4bh392rcd13ifvqdl0","pricing_plan_id":"cebpf4jnsgd1na2vs0mg"},{"bike_id":"9e681655-272e-42c1-8faa-a554d9268031","system_id":"levelo_inurba_marseille","lat":43.291671,"lon":5.371575,"is_reserved":false,"is_disabled":false,"rental_uris":{"android":"levelo://app?vid=9e681655-272e-42c1-8faa-a554d9268031","ios":"levelo://app?vid=9e681655-272e-42c1-8faa-a554d9268031"},"vehicle_type_id":"4","last_reported":1720109366,"current_range_meters":14000,"station_id":"ce4bha92rcd13ifvqeh0","pricing_plan_id":"cebpf4jnsgd1na2vs0mg"},{"bike_id":"c7cf0071-d849-467c-9640-bd63160a4ace","system_id":"levelo_inurba_marseille","lat":43.298764,"lon":5.388973,"is_reserved":false,"is_disabled":false,"rental_uris":{"android":"levelo://app?vid=c7cf0071-d849-467c-9640-bd63160a4ace","ios":"levelo://app?vid=c7cf0071-d849-467c-9640-bd63160a4ace"},"vehicle_type_id":"4","last_reported":1720109366,"current_range_meters":4000,"station_id":"ce4bh392rcd13ifvqdl0","pricing_plan_id":"cebpf4jnsgd1na2vs0mg"},{"bike_id":"ea3f6c34-45fe-4d8f-b8f0-a71bbd1de5ef","system_id":"levelo_inurba_marseille","lat":43.291994,"lon":5.357886,"is_reserved":false,"is_disabled":false,"rental_uris":{"android":"levelo://app?vid=ea3f6c34-45fe-4d8f-b8f0-a71bbd1de5ef","ios":"levelo://app?vid=ea3f6c34-45fe-4d8f-b8f0-a71bbd1de5ef"},"vehicle_type_id":"4","last_reported":1720109366,"current_range_meters":15200,"station_id":"ce4bhb12rcd13ifvqel0","pricing_plan_id":"cebpf4jnsgd1na2vs0mg"},{"bike_id":"1840e7e1-8380-4168-813e-dd286703b9f8","system_id":"levelo_inurba_marseille","lat":43.309038,"lon":5.396546,"is_reserved":false,"is_disabled":false,"rental_uris":{"android":"levelo://app?vid=1840e7e1-8380-4168-813e-dd286703b9f8","ios":"levelo://app?vid=1840e7e1-8380-4168-813e-dd286703b9f8"},"vehicle_type_id":"4","last_reported":1720109366,"current_range_meters":800,"station_id":"ce4bh012rcd13ifvqcv0","pricing_plan_id":"cebpf4jnsgd1na2vs0mg"},{"bike_id":"77216821-6f50-4fb9-af83-79bd02401e96","system_id":"levelo_inurba_marseille","lat":43.309047,"lon":5.396551,"is_reserved":false,"is_disabled":false,"rental_uris":{"android":"levelo://app?vid=77216821-6f50-4fb9-af83-79bd02401e96","ios":"levelo://app?vid=77216821-6f50-4fb9-af83-79bd02401e96"},"vehicle_type_id":"4","last_reported":1720109366,"current_range_meters":0,"station_id":"ce4bh012rcd13ifvqcv0","pricing_plan_id":"cebpf4jnsgd1na2vs0mg"},{"bike_id":"1a72a757-b630-431a-8b6f-ba5e02af7494","system_id":"levelo_inurba_marseille","lat":43.309038,"lon":5.396546,"is_reserved":false,"is_disabled":false,"rental_uris":{"android":"levelo://app?vid=1a72a757-b630-431a-8b6f-ba5e02af7494","ios":"levelo://app?vid=1a72a757-b630-431a-8b6f-ba5e02af7494"},"vehicle_type_id":"4","last_reported":1720109366,"current_range_meters":16000,"station_id":"ce4bh012rcd13ifvqcv0","pricing_plan_id":"cebpf4jnsgd1na2vs0mg"},{"bike_id":"aa5a7c9d-3172-48ce-92b2-ce73ab60ed50","system_id":"levelo_inurba_marseille","lat":43.29529,"lon":5.385581,"is_reserved":false,"is_disabled":false,"rental_uris":{"android":"levelo://app?vid=aa5a7c9d-3172-48ce-92b2-ce73ab60ed50","ios":"levelo://app?vid=aa5a7c9d-3172-48ce-92b2-ce73ab60ed50"},"vehicle_type_id":"4","last_reported":1720109366,"current_range_meters":20400,"station_id":"ce4bgih2rcd13ifvqba0","pricing_plan_id":"cebpf4jnsgd1na2vs0mg"},{"bike_id":"0cfad586-abc7-494a-b75b-c536ffe9d1bd","system_id":"levelo_inurba_marseille","lat":43.29529,"lon":5.385581,"is_reserved":false,"is_disabled":false,"rental_uris":{"android":"levelo://app?vid=0cfad586-abc7-494a-b75b-c536ffe9d1bd","ios":"levelo://app?vid=0cfad586-abc7-494a-b75b-c536ffe9d1bd"},"vehicle_type_id":"4","last_reported":1720109366,"current_range_meters":2400,"station_id":"ce4bgih2rcd13ifvqba0","pricing_plan_id":"cebpf4jnsgd1na2vs0mg"},{"bike_id":"0b22d3e4-2def-4a6d-b668-8e4df4f0709e","system_id":"levelo_inurba_marseille","lat":43.290779,"lon":5.371482,"is_reserved":false,"is_disabled":false,"rental_uris":{"android":"levelo://app?vid=0b22d3e4-2def-4a6d-b668-8e4df4f0709e","ios":"levelo://app?vid=0b22d3e4-2def-4a6d-b668-8e4df4f0709e"},"vehicle_type_id":"4","last_reported":1720109366,"current_range_meters":4000,"station_id":"ce4bh5p2rcd13ifvqe4g","pricing_plan_id":"cebpf4jnsgd1na2vs0mg"},{"bike_id":"a9b72659-3a4f-41d9-a4c3-c4587269dfd1","system_id":"levelo_inurba_marseille","lat":43.302008,"lon":5.394694,"is_reserved":false,"is_disabled":false,"rental_uris":{"android":"levelo://app?vid=a9b72659-3a4f-41d9-a4c3-c4587269dfd1","ios":"levelo://app?vid=a9b72659-3a4f-41d9-a4c3-c4587269dfd1"},"vehicle_type_id":"4","last_reported":1720109366,"current_range_meters":0,"station_id":"ce4bh0p2rcd13ifvqd70","pricing_plan_id":"cebpf4jnsgd1na2vs0mg"},{"bike_id":"d71fd725-dd37-4600-974c-a804a289c486","system_id":"levelo_inurba_marseille","lat":43.290624,"lon":5.359245,"is_reserved":false,"is_disabled":false,"rental_uris":{"android":"levelo://app?vid=d71fd725-dd37-4600-974c-a804a289c486","ios":"levelo://app?vid=d71fd725-dd37-4600-974c-a804a289c486"},"vehicle_type_id":"4","last_reported":1720109366,"current_range_meters":2000,"station_id":"ce4bha92rcd13ifvqeg0","pricing_plan_id":"cebpf4jnsgd1na2vs0mg"},{"bike_id":"ff489634-7a6b-4c77-be95-6e55310b7153","system_id":"levelo_inurba_marseille","lat":43.290624,"lon":5.359245,"is_reserved":false,"is_disabled":false,"rental_uris":{"android":"levelo://app?vid=ff489634-7a6b-4c77-be95-6e55310b7153","ios":"levelo://app?vid=ff489634-7a6b-4c77-be95-6e55310b7153"},"vehicle_type_id":"4","last_reported":1720109366,"current_range_meters":9200,"station_id":"ce4bha92rcd13ifvqeg0","pricing_plan_id":"cebpf4jnsgd1na2vs0mg"},{"bike_id":"1fcea079-819c-4073-8ab8-539743c0025a","system_id":"levelo_inurba_marseille","lat":43.294153,"lon":5.386305,"is_reserved":false,"is_disabled":false,"rental_uris":{"android":"levelo://app?vid=1fcea079-819c-4073-8ab8-539743c0025a","ios":"levelo://app?vid=1fcea079-819c-4073-8ab8-539743c0025a"},"vehicle_type_id":"4","last_reported":1720109366,"current_range_meters":0,"station_id":"ce4bh2h2rcd13ifvqdh0","pricing_plan_id":"cebpf4jnsgd1na2vs0mg"},{"bike_id":"b77b58e0-cfbf-4fe7-89bb-0fc530b83351","system_id":"levelo_inurba_marseille","lat":43.294153,"lon":5.386305,"is_reserved":false,"is_disabled":false,"rental_uris":{"android":"levelo://app?vid=b77b58e0-cfbf-4fe7-89bb-0fc530b83351","ios":"levelo://app?vid=b77b58e0-cfbf-4fe7-89bb-0fc530b83351"},"vehicle_type_id":"4","last_reported":1720109366,"current_range_meters":400,"station_id":"ce4bh2h2rcd13ifvqdh0","pricing_plan_id":"cebpf4jnsgd1na2vs0mg"},{"bike_id":"ffba8002-0874-4a97-90b0-85c77eba06aa","system_id":"levelo_inurba_marseille","lat":43.294153,"lon":5.386305,"is_reserved":false,"is_disabled":false,"rental_uris":{"android":"levelo://app?vid=ffba8002-0874-4a97-90b0-85c77eba06aa","ios":"levelo://app?vid=ffba8002-0874-4a97-90b0-85c77eba06aa"},"vehicle_type_id":"4","last_reported":1720109366,"current_range_meters":0,"station_id":"ce4bh2h2rcd13ifvqdh0","pricing_plan_id":"cebpf4jnsgd1na2vs0mg"},{"bike_id":"decb2fdf-913d-46c0-abf0-4638c9f4066c","system_id":"levelo_inurba_marseille","lat":43.294153,"lon":5.386305,"is_reserved":false,"is_disabled":false,"rental_uris":{"android":"levelo://app?vid=decb2fdf-913d-46c0-abf0-4638c9f4066c","ios":"levelo://app?vid=decb2fdf-913d-46c0-abf0-4638c9f4066c"},"vehicle_type_id":"4","last_reported":1720109366,"current_range_meters":27600,"station_id":"ce4bh2h2rcd13ifvqdh0","pricing_plan_id":"cebpf4jnsgd1na2vs0mg"},{"bike_id":"c6072fc4-d9e7-4260-a598-cac7950d27f1","system_id":"levelo_inurba_marseille","lat":43.289184,"lon":5.366408,"is_reserved":false,"is_disabled":false,"rental_uris":{"android":"levelo://app?vid=c6072fc4-d9e7-4260-a598-cac7950d27f1","ios":"levelo://app?vid=c6072fc4-d9e7-4260-a598-cac7950d27f1"},"vehicle_type_id":"4","last_reported":1720109366,"current_range_meters":31200,"station_id":"ce4bhap2rcd13ifvqek0","pricing_plan_id":"cebpf4jnsgd1na2vs0mg"},{"bike_id":"59917a69-3a53-4aa5-a71b-3c1d78c31b0a","system_id":"levelo_inurba_marseille","lat":43.29419,"lon":5.386313,"is_reserved":false,"is_disabled":false,"rental_uris":{"android":"levelo://app?vid=59917a69-3a53-4aa5-a71b-3c1d78c31b0a","ios":"levelo://app?vid=59917a69-3a53-4aa5-a71b-3c1d78c31b0a"},"vehicle_type_id":"4","last_reported":1720109366,"current_range_meters":0,"station_id":"ce4bh2h2rcd13ifvqdh0","pricing_plan_id":"cebpf4jnsgd1na2vs0mg"},{"bike_id":"32aa0793-41ec-40f3-961a-e4319ba57d14","system_id":"levelo_inurba_marseille","lat":43.289184,"lon":5.366408,"is_reserved":false,"is_disabled":false,"rental_uris":{"android":"levelo://app?vid=32aa0793-41ec-40f3-961a-e4319ba57d14","ios":"levelo://app?vid=32aa0793-41ec-40f3-961a-e4319ba57d14"},"vehicle_type_id":"4","last_reported":1720109366,"current_range_meters":4000,"station_id":"ce4bhap2rcd13ifvqek0","pricing_plan_id":"cebpf4jnsgd1na2vs0mg"},{"bike_id":"15cc74be-644e-466f-a164-384fcac41a52","system_id":"levelo_inurba_marseille","lat":43.292644,"lon":5.384257,"is_reserved":false,"is_disabled":false,"rental_uris":{"android":"levelo://app?vid=15cc74be-644e-466f-a164-384fcac41a52","ios":"levelo://app?vid=15cc74be-644e-466f-a164-384fcac41a52"},"vehicle_type_id":"4","last_reported":1720109366,"current_range_meters":22000,"station_id":"ce4bh692rcd13ifvqea0","pricing_plan_id":"cebpf4jnsgd1na2vs0mg"},{"bike_id":"9de32f47-6f5e-4af7-a02c-19882e474f04","system_id":"levelo_inurba_marseille","lat":43.292644,"lon":5.384257,"is_reserved":false,"is_disabled":false,"rental_uris":{"android":"levelo://app?vid=9de32f47-6f5e-4af7-a02c-19882e474f04","ios":"levelo://app?vid=9de32f47-6f5e-4af7-a02c-19882e474f04"},"vehicle_type_id":"4","last_reported":1720109366,"current_range_meters":17200,"station_id":"ce4bh692rcd13ifvqea0","pricing_plan_id":"cebpf4jnsgd1na2vs0mg"},{"bike_id":"73b8e357-f4cc-43ed-9ba2-3591677f42fb","system_id":"levelo_inurba_marseille","lat":43.304296,"lon":5.397513,"is_reserved":false,"is_disabled":false,"rental_uris":{"android":"levelo://app?vid=73b8e357-f4cc-43ed-9ba2-3591677f42fb","ios":"levelo://app?vid=73b8e357-f4cc-43ed-9ba2-3591677f42fb"},"vehicle_type_id":"4","last_reported":1720109366,"current_range_meters":2000,"station_id":"ce4bh092rcd13ifvqd20","pricing_plan_id":"cebpf4jnsgd1na2vs0mg"},{"bike_id":"18155192-5f1b-4a9f-bf9c-60b5c1a623f1","system_id":"levelo_inurba_marseille","lat":43.304274,"lon":5.397513,"is_reserved":false,"is_disabled":false,"rental_uris":{"android":"levelo://app?vid=18155192-5f1b-4a9f-bf9c-60b5c1a623f1","ios":"levelo://app?vid=18155192-5f1b-4a9f-bf9c-60b5c1a623f1"},"vehicle_type_id":"4","last_reported":1720109366,"current_range_meters":4000,"station_id":"ce4bh092rcd13ifvqd20","pricing_plan_id":"cebpf4jnsgd1na2vs0mg"},{"bike_id":"64b636cb-d5e9-4a1e-aee9-52abc37a6227","system_id":"levelo_inurba_marseille","lat":43.292644,"lon":5.384257,"is_reserved":false,"is_disabled":false,"rental_uris":{"android":"levelo://app?vid=64b636cb-d5e9-4a1e-aee9-52abc37a6227","ios":"levelo://app?vid=64b636cb-d5e9-4a1e-aee9-52abc37a6227"},"vehicle_type_id":"4","last_reported":1720109366,"current_range_meters":0,"station_id":"ce4bh692rcd13ifvqea0","pricing_plan_id":"cebpf4jnsgd1na2vs0mg"},{"bike_id":"483919fc-e2f2-4b23-aade-b7be74dcbf8c","system_id":"levelo_inurba_marseille","lat":43.304296,"lon":5.397513,"is_reserved":false,"is_disabled":false,"rental_uris":{"android":"levelo://app?vid=483919fc-e2f2-4b23-aade-b7be74dcbf8c","ios":"levelo://app?vid=483919fc-e2f2-4b23-aade-b7be74dcbf8c"},"vehicle_type_id":"4","last_reported":1720109366,"current_range_meters":19200,"station_id":"ce4bh092rcd13ifvqd20","pricing_plan_id":"cebpf4jnsgd1na2vs0mg"},{"bike_id":"ebfae7f9-2c4d-4ba2-b674-def0e239ba6b","system_id":"levelo_inurba_marseille","lat":43.304296,"lon":5.397513,"is_reserved":false,"is_disabled":false,"rental_uris":{"android":"levelo://app?vid=ebfae7f9-2c4d-4ba2-b674-def0e239ba6b","ios":"levelo://app?vid=ebfae7f9-2c4d-4ba2-b674-def0e239ba6b"},"vehicle_type_id":"4","last_reported":1720109366,"current_range_meters":24000,"station_id":"ce4bh092rcd13ifvqd20","pricing_plan_id":"cebpf4jnsgd1na2vs0mg"},{"bike_id":"606c7eba-19cb-4ef2-a588-7df7d8d6ccb8","system_id":"levelo_inurba_marseille","lat":43.292572,"lon":5.384418,"is_reserved":false,"is_disabled":false,"rental_uris":{"android":"levelo://app?vid=606c7eba-19cb-4ef2-a588-7df7d8d6ccb8","ios":"levelo://app?vid=606c7eba-19cb-4ef2-a588-7df7d8d6ccb8"},"vehicle_type_id":"4","last_reported":1720109366,"current_range_meters":0,"station_id":"ce4bh692rcd13ifvqea0","pricing_plan_id":"cebpf4jnsgd1na2vs0mg"},{"bike_id":"dec8c1ef-a15e-4fb3-b240-613f4b85cfeb","system_id":"levelo_inurba_marseille","lat":43.292642,"lon":5.384254,"is_reserved":false,"is_disabled":false,"rental_uris":{"android":"levelo://app?vid=dec8c1ef-a15e-4fb3-b240-613f4b85cfeb","ios":"levelo://app?vid=dec8c1ef-a15e-4fb3-b240-613f4b85cfeb"},"vehicle_type_id":"4","last_reported":1720109366,"current_range_meters":2800,"station_id":"ce4bh692rcd13ifvqea0","pricing_plan_id":"cebpf4jnsgd1na2vs0mg"},{"bike_id":"4902f2c3-12c2-4957-80d8-91a19fbce74b","system_id":"levelo_inurba_marseille","lat":43.304296,"lon":5.397513,"is_reserved":false,"is_disabled":false,"rental_uris":{"android":"levelo://app?vid=4902f2c3-12c2-4957-80d8-91a19fbce74b","ios":"levelo://app?vid=4902f2c3-12c2-4957-80d8-91a19fbce74b"},"vehicle_type_id":"4","last_reported":1720109366,"current_range_meters":5200,"station_id":"ce4bh092rcd13ifvqd20","pricing_plan_id":"cebpf4jnsgd1na2vs0mg"},{"bike_id":"12a2651f-55e3-4d3e-ac37-d9d38f0747f6","system_id":"levelo_inurba_marseille","lat":43.304274,"lon":5.397513,"is_reserved":false,"is_disabled":false,"rental_uris":{"android":"levelo://app?vid=12a2651f-55e3-4d3e-ac37-d9d38f0747f6","ios":"levelo://app?vid=12a2651f-55e3-4d3e-ac37-d9d38f0747f6"},"vehicle_type_id":"4","last_reported":1720109366,"current_range_meters":12400,"station_id":"ce4bh092rcd13ifvqd20","pricing_plan_id":"cebpf4jnsgd1na2vs0mg"},{"bike_id":"e23513c9-6f9c-420c-bf65-3380f4cdebb3","system_id":"levelo_inurba_marseille","lat":43.29008,"lon":5.356227,"is_reserved":false,"is_disabled":false,"rental_uris":{"android":"levelo://app?vid=e23513c9-6f9c-420c-bf65-3380f4cdebb3","ios":"levelo://app?vid=e23513c9-6f9c-420c-bf65-3380f4cdebb3"},"vehicle_type_id":"4","last_reported":1720109366,"current_range_meters":4000,"station_id":"ce4bgt92rcd13ifvqcg0","pricing_plan_id":"cebpf4jnsgd1na2vs0mg"},{"bike_id":"c80e39d4-703c-49cc-b537-13854fade1c9","system_id":"levelo_inurba_marseille","lat":43.290103,"lon":5.356114,"is_reserved":false,"is_disabled":false,"rental_uris":{"android":"levelo://app?vid=c80e39d4-703c-49cc-b537-13854fade1c9","ios":"levelo://app?vid=c80e39d4-703c-49cc-b537-13854fade1c9"},"vehicle_type_id":"4","last_reported":1720109366,"current_range_meters":0,"station_id":"ce4bhb92rcd13ifvqen0","pricing_plan_id":"cebpf4jnsgd1na2vs0mg"},{"bike_id":"b89e223a-3ed8-424f-80b0-d4e92b6ab3d4","system_id":"levelo_inurba_marseille","lat":43.29002,"lon":5.35604,"is_reserved":false,"is_disabled":false,"rental_uris":{"android":"levelo://app?vid=b89e223a-3ed8-424f-80b0-d4e92b6ab3d4","ios":"levelo://app?vid=b89e223a-3ed8-424f-80b0-d4e92b6ab3d4"},"vehicle_type_id":"4","last_reported":1720109366,"current_range_meters":0,"station_id":"ce4bhb92rcd13ifvqen0","pricing_plan_id":"cebpf4jnsgd1na2vs0mg"},{"bike_id":"bfaa9601-b08b-4f93-97ad-a7167fcd04c9","system_id":"levelo_inurba_marseille","lat":43.29781,"lon":5.39327,"is_reserved":false,"is_disabled":false,"rental_uris":{"android":"levelo://app?vid=bfaa9601-b08b-4f93-97ad-a7167fcd04c9","ios":"levelo://app?vid=bfaa9601-b08b-4f93-97ad-a7167fcd04c9"},"vehicle_type_id":"4","last_reported":1720109366,"current_range_meters":8400,"station_id":"chh1huq6cuj3fo74tm60","pricing_plan_id":"cebpf4jnsgd1na2vs0mg"},{"bike_id":"20df9b89-ff82-42a9-853f-02117cb9b8d7","system_id":"levelo_inurba_marseille","lat":43.297815,"lon":5.393548,"is_reserved":false,"is_disabled":false,"rental_uris":{"android":"levelo://app?vid=20df9b89-ff82-42a9-853f-02117cb9b8d7","ios":"levelo://app?vid=20df9b89-ff82-42a9-853f-02117cb9b8d7"},"vehicle_type_id":"4","last_reported":1720109366,"current_range_meters":8400,"station_id":"chh1huq6cuj3fo74tm60","pricing_plan_id":"cebpf4jnsgd1na2vs0mg"},{"bike_id":"fb40b156-ee05-4ccc-9c0f-819093a546ef","system_id":"levelo_inurba_marseille","lat":43.295169,"lon":5.390426,"is_reserved":false,"is_disabled":false,"rental_uris":{"android":"levelo://app?vid=fb40b156-ee05-4ccc-9c0f-819093a546ef","ios":"levelo://app?vid=fb40b156-ee05-4ccc-9c0f-819093a546ef"},"vehicle_type_id":"4","last_reported":1720109366,"current_range_meters":0,"station_id":"ce4bh3p2rcd13ifvqdp0","pricing_plan_id":"cebpf4jnsgd1na2vs0mg"},{"bike_id":"5462afe5-6484-47b7-85e5-e78153870657","system_id":"levelo_inurba_marseille","lat":43.330442,"lon":5.389148,"is_reserved":false,"is_disabled":false,"rental_uris":{"android":"levelo://app?vid=5462afe5-6484-47b7-85e5-e78153870657","ios":"levelo://app?vid=5462afe5-6484-47b7-85e5-e78153870657"},"vehicle_type_id":"4","last_reported":1720109366,"current_range_meters":30400,"station_id":"ce4bhr92rcd13ifvqhrg","pricing_plan_id":"cebpf4jnsgd1na2vs0mg"},{"bike_id":"e51c0dcb-29f6-4d22-af61-e4741102a1a7","system_id":"levelo_inurba_marseille","lat":43.295169,"lon":5.390426,"is_reserved":false,"is_disabled":false,"rental_uris":{"android":"levelo://app?vid=e51c0dcb-29f6-4d22-af61-e4741102a1a7","ios":"levelo://app?vid=e51c0dcb-29f6-4d22-af61-e4741102a1a7"},"vehicle_type_id":"4","last_reported":1720109366,"current_range_meters":0,"station_id":"ce4bh3p2rcd13ifvqdp0","pricing_plan_id":"cebpf4jnsgd1na2vs0mg"},{"bike_id":"0cd35b2f-0beb-40ea-8c88-c4802747f284","system_id":"levelo_inurba_marseille","lat":43.28856,"lon":5.358371,"is_reserved":false,"is_disabled":false,"rental_uris":{"android":"levelo://app?vid=0cd35b2f-0beb-40ea-8c88-c4802747f284","ios":"levelo://app?vid=0cd35b2f-0beb-40ea-8c88-c4802747f284"},"vehicle_type_id":"4","last_reported":1720109366,"current_range_meters":5600,"station_id":"ce4bhb12rcd13ifvqem0","pricing_plan_id":"cebpf4jnsgd1na2vs0mg"},{"bike_id":"35a5c68b-3f3a-4b64-a20d-faa7c7efd968","system_id":"levelo_inurba_marseille","lat":43.33729,"lon":5.37388,"is_reserved":false,"is_disabled":false,"rental_uris":{"android":"levelo://app?vid=35a5c68b-3f3a-4b64-a20d-faa7c7efd968","ios":"levelo://app?vid=35a5c68b-3f3a-4b64-a20d-faa7c7efd968"},"vehicle_type_id":"4","last_reported":1720109366,"current_range_meters":30400,"station_id":"","pricing_plan_id":"cebpf4jnsgd1na2vs0mg"},{"bike_id":"61a124c6-7fd1-45f5-954d-3c86c43c368d","system_id":"levelo_inurba_marseille","lat":43.3374,"lon":5.37444,"is_reserved":false,"is_disabled":false,"rental_uris":{"android":"levelo://app?vid=61a124c6-7fd1-45f5-954d-3c86c43c368d","ios":"levelo://app?vid=61a124c6-7fd1-45f5-954d-3c86c43c368d"},"vehicle_type_id":"4","last_reported":1720109366,"current_range_meters":27600,"station_id":"","pricing_plan_id":"cebpf4jnsgd1na2vs0mg"},{"bike_id":"e1596da8-3841-488f-adf9-c63dc2bd8292","system_id":"levelo_inurba_marseille","lat":43.3374,"lon":5.37448,"is_reserved":false,"is_disabled":false,"rental_uris":{"android":"levelo://app?vid=e1596da8-3841-488f-adf9-c63dc2bd8292","ios":"levelo://app?vid=e1596da8-3841-488f-adf9-c63dc2bd8292"},"vehicle_type_id":"4","last_reported":1720109366,"current_range_meters":4400,"station_id":"","pricing_plan_id":"cebpf4jnsgd1na2vs0mg"},{"bike_id":"5fca1349-76b7-478b-b6a4-e9ee12acf525","system_id":"levelo_inurba_marseille","lat":43.33739,"lon":5.37459,"is_reserved":false,"is_disabled":false,"rental_uris":{"android":"levelo://app?vid=5fca1349-76b7-478b-b6a4-e9ee12acf525","ios":"levelo://app?vid=5fca1349-76b7-478b-b6a4-e9ee12acf525"},"vehicle_type_id":"4","last_reported":1720109366,"current_range_meters":21200,"station_id":"","pricing_plan_id":"cebpf4jnsgd1na2vs0mg"},{"bike_id":"3d88704c-c4b8-4eac-8eeb-91b9c543abf8","system_id":"levelo_inurba_marseille","lat":43.312609,"lon":5.401662,"is_reserved":false,"is_disabled":false,"rental_uris":{"android":"levelo://app?vid=3d88704c-c4b8-4eac-8eeb-91b9c543abf8","ios":"levelo://app?vid=3d88704c-c4b8-4eac-8eeb-91b9c543abf8"},"vehicle_type_id":"4","last_reported":1720109366,"current_range_meters":0,"station_id":"ce4bh092rcd13ifvqd30","pricing_plan_id":"cebpf4jnsgd1na2vs0mg"},{"bike_id":"b1908d39-9ffc-44bf-b4ff-6b02e27f9b1c","system_id":"levelo_inurba_marseille","lat":43.312609,"lon":5.401662,"is_reserved":false,"is_disabled":false,"rental_uris":{"android":"levelo://app?vid=b1908d39-9ffc-44bf-b4ff-6b02e27f9b1c","ios":"levelo://app?vid=b1908d39-9ffc-44bf-b4ff-6b02e27f9b1c"},"vehicle_type_id":"4","last_reported":1720109366,"current_range_meters":19200,"station_id":"ce4bh092rcd13ifvqd30","pricing_plan_id":"cebpf4jnsgd1na2vs0mg"},{"bike_id":"7774f6c3-c956-414c-8e2c-82dbb18a916a","system_id":"levelo_inurba_marseille","lat":43.337434,"lon":5.374533,"is_reserved":false,"is_disabled":false,"rental_uris":{"android":"levelo://app?vid=7774f6c3-c956-414c-8e2c-82dbb18a916a","ios":"levelo://app?vid=7774f6c3-c956-414c-8e2c-82dbb18a916a"},"vehicle_type_id":"4","last_reported":1720109366,"current_range_meters":8800,"station_id":"","pricing_plan_id":"cebpf4jnsgd1na2vs0mg"},{"bike_id":"668b6270-367b-4f6c-b750-d67dec44cb4f","system_id":"levelo_inurba_marseille","lat":43.337436,"lon":5.374544,"is_reserved":false,"is_disabled":false,"rental_uris":{"android":"levelo://app?vid=668b6270-367b-4f6c-b750-d67dec44cb4f","ios":"levelo://app?vid=668b6270-367b-4f6c-b750-d67dec44cb4f"},"vehicle_type_id":"4","last_reported":1720109366,"current_range_meters":25200,"station_id":"","pricing_plan_id":"cebpf4jnsgd1na2vs0mg"},{"bike_id":"75838579-118a-46d7-9fdc-43a6beb41f6a","system_id":"levelo_inurba_marseille","lat":43.312609,"lon":5.401662,"is_reserved":false,"is_disabled":false,"rental_uris":{"android":"levelo://app?vid=75838579-118a-46d7-9fdc-43a6beb41f6a","ios":"levelo://app?vid=75838579-118a-46d7-9fdc-43a6beb41f6a"},"vehicle_type_id":"4","last_reported":1720109366,"current_range_meters":27200,"station_id":"ce4bh092rcd13ifvqd30","pricing_plan_id":"cebpf4jnsgd1na2vs0mg"},{"bike_id":"69afa161-802f-46f1-96de-ab66583c2e93","system_id":"levelo_inurba_marseille","lat":43.309371,"lon":5.401449,"is_reserved":false,"is_disabled":false,"rental_uris":{"android":"levelo://app?vid=69afa161-802f-46f1-96de-ab66583c2e93","ios":"levelo://app?vid=69afa161-802f-46f1-96de-ab66583c2e93"},"vehicle_type_id":"4","last_reported":1720109366,"current_range_meters":11600,"station_id":"ce4bgvp2rcd13ifvqct0","pricing_plan_id":"cebpf4jnsgd1na2vs0mg"},{"bike_id":"350dfeb4-3df7-47ec-bb69-08ad5482c10c","system_id":"levelo_inurba_marseille","lat":43.337483,"lon":5.374414,"is_reserved":false,"is_disabled":false,"rental_uris":{"android":"levelo://app?vid=350dfeb4-3df7-47ec-bb69-08ad5482c10c","ios":"levelo://app?vid=350dfeb4-3df7-47ec-bb69-08ad5482c10c"},"vehicle_type_id":"4","last_reported":1720109366,"current_range_meters":29600,"station_id":"","pricing_plan_id":"cebpf4jnsgd1na2vs0mg"},{"bike_id":"4b24d1ae-8a91-47b2-b598-329bba849998","system_id":"levelo_inurba_marseille","lat":43.312609,"lon":5.401662,"is_reserved":false,"is_disabled":false,"rental_uris":{"android":"levelo://app?vid=4b24d1ae-8a91-47b2-b598-329bba849998","ios":"levelo://app?vid=4b24d1ae-8a91-47b2-b598-329bba849998"},"vehicle_type_id":"4","last_reported":1720109366,"current_range_meters":6000,"station_id":"ce4bh092rcd13ifvqd30","pricing_plan_id":"cebpf4jnsgd1na2vs0mg"},{"bike_id":"95f91891-7abb-4bc1-ad3a-80dd3e134f8e","system_id":"levelo_inurba_marseille","lat":43.33749,"lon":5.37449,"is_reserved":false,"is_disabled":false,"rental_uris":{"android":"levelo://app?vid=95f91891-7abb-4bc1-ad3a-80dd3e134f8e","ios":"levelo://app?vid=95f91891-7abb-4bc1-ad3a-80dd3e134f8e"},"vehicle_type_id":"4","last_reported":1720109366,"current_range_meters":30000,"station_id":"","pricing_plan_id":"cebpf4jnsgd1na2vs0mg"},{"bike_id":"7521861a-977e-43b8-b3b8-9252f5f41b26","system_id":"levelo_inurba_marseille","lat":43.3375,"lon":5.37444,"is_reserved":false,"is_disabled":false,"rental_uris":{"android":"levelo://app?vid=7521861a-977e-43b8-b3b8-9252f5f41b26","ios":"levelo://app?vid=7521861a-977e-43b8-b3b8-9252f5f41b26"},"vehicle_type_id":"4","last_reported":1720109366,"current_range_meters":29600,"station_id":"","pricing_plan_id":"cebpf4jnsgd1na2vs0mg"},{"bike_id":"f49cbdd9-3f47-4786-a552-40ffe9d9b34b","system_id":"levelo_inurba_marseille","lat":43.309371,"lon":5.401449,"is_reserved":false,"is_disabled":false,"rental_uris":{"android":"levelo://app?vid=f49cbdd9-3f47-4786-a552-40ffe9d9b34b","ios":"levelo://app?vid=f49cbdd9-3f47-4786-a552-40ffe9d9b34b"},"vehicle_type_id":"4","last_reported":1720109366,"current_range_meters":22000,"station_id":"ce4bgvp2rcd13ifvqct0","pricing_plan_id":"cebpf4jnsgd1na2vs0mg"},{"bike_id":"cc193ae5-eb28-47e7-b80b-55aa56837ab7","system_id":"levelo_inurba_marseille","lat":43.312609,"lon":5.401662,"is_reserved":false,"is_disabled":false,"rental_uris":{"android":"levelo://app?vid=cc193ae5-eb28-47e7-b80b-55aa56837ab7","ios":"levelo://app?vid=cc193ae5-eb28-47e7-b80b-55aa56837ab7"},"vehicle_type_id":"4","last_reported":1720109366,"current_range_meters":18400,"station_id":"ce4bh092rcd13ifvqd30","pricing_plan_id":"cebpf4jnsgd1na2vs0mg"},{"bike_id":"006f5ba0-c94d-4854-909a-3042824453e8","system_id":"levelo_inurba_marseille","lat":43.312609,"lon":5.401662,"is_reserved":false,"is_disabled":false,"rental_uris":{"android":"levelo://app?vid=006f5ba0-c94d-4854-909a-3042824453e8","ios":"levelo://app?vid=006f5ba0-c94d-4854-909a-3042824453e8"},"vehicle_type_id":"4","last_reported":1720109366,"current_range_meters":8800,"station_id":"ce4bh092rcd13ifvqd30","pricing_plan_id":"cebpf4jnsgd1na2vs0mg"},{"bike_id":"74b0e430-9ed5-4ca4-ae5f-95447d28f904","system_id":"levelo_inurba_marseille","lat":43.337499,"lon":5.374603,"is_reserved":false,"is_disabled":false,"rental_uris":{"android":"levelo://app?vid=74b0e430-9ed5-4ca4-ae5f-95447d28f904","ios":"levelo://app?vid=74b0e430-9ed5-4ca4-ae5f-95447d28f904"},"vehicle_type_id":"4","last_reported":1720109366,"current_range_meters":27200,"station_id":"","pricing_plan_id":"cebpf4jnsgd1na2vs0mg"},{"bike_id":"f7b90582-72ef-44b9-be3c-10965a5f20f8","system_id":"levelo_inurba_marseille","lat":43.337524,"lon":5.374469,"is_reserved":false,"is_disabled":false,"rental_uris":{"android":"levelo://app?vid=f7b90582-72ef-44b9-be3c-10965a5f20f8","ios":"levelo://app?vid=f7b90582-72ef-44b9-be3c-10965a5f20f8"},"vehicle_type_id":"4","last_reported":1720109366,"current_range_meters":25600,"station_id":"","pricing_plan_id":"cebpf4jnsgd1na2vs0mg"},{"bike_id":"e4109c4a-d7a2-4ed6-afc8-242d11ff39ac","system_id":"levelo_inurba_marseille","lat":43.33754,"lon":5.374438,"is_reserved":false,"is_disabled":false,"rental_uris":{"android":"levelo://app?vid=e4109c4a-d7a2-4ed6-afc8-242d11ff39ac","ios":"levelo://app?vid=e4109c4a-d7a2-4ed6-afc8-242d11ff39ac"},"vehicle_type_id":"4","last_reported":1720109366,"current_range_meters":30800,"station_id":"","pricing_plan_id":"cebpf4jnsgd1na2vs0mg"},{"bike_id":"f34a2377-eeb1-4105-b1f1-c85663ae6112","system_id":"levelo_inurba_marseille","lat":43.309371,"lon":5.401449,"is_reserved":false,"is_disabled":false,"rental_uris":{"android":"levelo://app?vid=f34a2377-eeb1-4105-b1f1-c85663ae6112","ios":"levelo://app?vid=f34a2377-eeb1-4105-b1f1-c85663ae6112"},"vehicle_type_id":"4","last_reported":1720109366,"current_range_meters":10000,"station_id":"ce4bgvp2rcd13ifvqct0","pricing_plan_id":"cebpf4jnsgd1na2vs0mg"},{"bike_id":"dfb8b2a3-8d2f-43be-80c4-1d13ad7450c9","system_id":"levelo_inurba_marseille","lat":43.337566,"lon":5.374376,"is_reserved":false,"is_disabled":false,"rental_uris":{"android":"levelo://app?vid=dfb8b2a3-8d2f-43be-80c4-1d13ad7450c9","ios":"levelo://app?vid=dfb8b2a3-8d2f-43be-80c4-1d13ad7450c9"},"vehicle_type_id":"4","last_reported":1720109366,"current_range_meters":25600,"station_id":"","pricing_plan_id":"cebpf4jnsgd1na2vs0mg"},{"bike_id":"c5b8a15c-beee-4e49-a1f8-75c22c4db605","system_id":"levelo_inurba_marseille","lat":43.33757,"lon":5.374397,"is_reserved":false,"is_disabled":false,"rental_uris":{"android":"levelo://app?vid=c5b8a15c-beee-4e49-a1f8-75c22c4db605","ios":"levelo://app?vid=c5b8a15c-beee-4e49-a1f8-75c22c4db605"},"vehicle_type_id":"4","last_reported":1720109366,"current_range_meters":29600,"station_id":"","pricing_plan_id":"cebpf4jnsgd1na2vs0mg"},{"bike_id":"beddaf1e-8c1d-4a71-9b52-48a794b30e3c","system_id":"levelo_inurba_marseille","lat":43.33755,"lon":5.37453,"is_reserved":false,"is_disabled":false,"rental_uris":{"android":"levelo://app?vid=beddaf1e-8c1d-4a71-9b52-48a794b30e3c","ios":"levelo://app?vid=beddaf1e-8c1d-4a71-9b52-48a794b30e3c"},"vehicle_type_id":"4","last_reported":1720109366,"current_range_meters":29600,"station_id":"","pricing_plan_id":"cebpf4jnsgd1na2vs0mg"},{"bike_id":"f4143f66-1e8c-47f7-a5ba-fff2d49c7510","system_id":"levelo_inurba_marseille","lat":43.33755,"lon":5.37458,"is_reserved":false,"is_disabled":false,"rental_uris":{"android":"levelo://app?vid=f4143f66-1e8c-47f7-a5ba-fff2d49c7510","ios":"levelo://app?vid=f4143f66-1e8c-47f7-a5ba-fff2d49c7510"},"vehicle_type_id":"4","last_reported":1720109366,"current_range_meters":29600,"station_id":"","pricing_plan_id":"cebpf4jnsgd1na2vs0mg"},{"bike_id":"268a261a-d7ab-409f-863b-7e797fa4522e","system_id":"levelo_inurba_marseille","lat":43.33756,"lon":5.37454,"is_reserved":false,"is_disabled":false,"rental_uris":{"android":"levelo://app?vid=268a261a-d7ab-409f-863b-7e797fa4522e","ios":"levelo://app?vid=268a261a-d7ab-409f-863b-7e797fa4522e"},"vehicle_type_id":"4","last_reported":1720109366,"current_range_meters":29600,"station_id":"","pricing_plan_id":"cebpf4jnsgd1na2vs0mg"},{"bike_id":"bd708975-e7a8-443c-a9ca-0740216a1dbb","system_id":"levelo_inurba_marseille","lat":43.337588,"lon":5.374373,"is_reserved":false,"is_disabled":false,"rental_uris":{"android":"levelo://app?vid=bd708975-e7a8-443c-a9ca-0740216a1dbb","ios":"levelo://app?vid=bd708975-e7a8-443c-a9ca-0740216a1dbb"},"vehicle_type_id":"4","last_reported":1720109366,"current_range_meters":28400,"station_id":"","pricing_plan_id":"cebpf4jnsgd1na2vs0mg"},{"bike_id":"67d75ecb-2330-40d0-a5a5-33420b3eb581","system_id":"levelo_inurba_marseille","lat":43.312609,"lon":5.401662,"is_reserved":false,"is_disabled":false,"rental_uris":{"android":"levelo://app?vid=67d75ecb-2330-40d0-a5a5-33420b3eb581","ios":"levelo://app?vid=67d75ecb-2330-40d0-a5a5-33420b3eb581"},"vehicle_type_id":"4","last_reported":1720109366,"current_range_meters":16400,"station_id":"ce4bh092rcd13ifvqd30","pricing_plan_id":"cebpf4jnsgd1na2vs0mg"},{"bike_id":"927eacb2-9f55-409f-8c86-91cbfef1415a","system_id":"levelo_inurba_marseille","lat":43.337577,"lon":5.374525,"is_reserved":false,"is_disabled":false,"rental_uris":{"android":"levelo://app?vid=927eacb2-9f55-409f-8c86-91cbfef1415a","ios":"levelo://app?vid=927eacb2-9f55-409f-8c86-91cbfef1415a"},"vehicle_type_id":"4","last_reported":1720109366,"current_range_meters":6400,"station_id":"","pricing_plan_id":"cebpf4jnsgd1na2vs0mg"},{"bike_id":"2d552ba8-a7c6-425a-b149-10d0d4d18252","system_id":"levelo_inurba_marseille","lat":43.33761,"lon":5.37438,"is_reserved":false,"is_disabled":false,"rental_uris":{"android":"levelo://app?vid=2d552ba8-a7c6-425a-b149-10d0d4d18252","ios":"levelo://app?vid=2d552ba8-a7c6-425a-b149-10d0d4d18252"},"vehicle_type_id":"4","last_reported":1720109366,"current_range_meters":11200,"station_id":"","pricing_plan_id":"cebpf4jnsgd1na2vs0mg"},{"bike_id":"b42696b2-7f43-434f-9cbf-a49b88b52a44","system_id":"levelo_inurba_marseille","lat":43.33761,"lon":5.37444,"is_reserved":false,"is_disabled":false,"rental_uris":{"android":"levelo://app?vid=b42696b2-7f43-434f-9cbf-a49b88b52a44","ios":"levelo://app?vid=b42696b2-7f43-434f-9cbf-a49b88b52a44"},"vehicle_type_id":"4","last_reported":1720109366,"current_range_meters":29600,"station_id":"","pricing_plan_id":"cebpf4jnsgd1na2vs0mg"},{"bike_id":"053346b1-70c3-4aa2-b952-e509b9391d16","system_id":"levelo_inurba_marseille","lat":43.33762,"lon":5.37438,"is_reserved":false,"is_disabled":false,"rental_uris":{"android":"levelo://app?vid=053346b1-70c3-4aa2-b952-e509b9391d16","ios":"levelo://app?vid=053346b1-70c3-4aa2-b952-e509b9391d16"},"vehicle_type_id":"4","last_reported":1720109366,"current_range_meters":20000,"station_id":"","pricing_plan_id":"cebpf4jnsgd1na2vs0mg"},{"bike_id":"d8b1e2be-dced-4fc9-9de1-299d47ee0a02","system_id":"levelo_inurba_marseille","lat":43.33763,"lon":5.3744,"is_reserved":false,"is_disabled":false,"rental_uris":{"android":"levelo://app?vid=d8b1e2be-dced-4fc9-9de1-299d47ee0a02","ios":"levelo://app?vid=d8b1e2be-dced-4fc9-9de1-299d47ee0a02"},"vehicle_type_id":"4","last_reported":1720109366,"current_range_meters":31200,"station_id":"","pricing_plan_id":"cebpf4jnsgd1na2vs0mg"},{"bike_id":"3bd92717-40ae-4dd8-88f8-c809a275b478","system_id":"levelo_inurba_marseille","lat":43.33761,"lon":5.374565,"is_reserved":false,"is_disabled":false,"rental_uris":{"android":"levelo://app?vid=3bd92717-40ae-4dd8-88f8-c809a275b478","ios":"levelo://app?vid=3bd92717-40ae-4dd8-88f8-c809a275b478"},"vehicle_type_id":"4","last_reported":1720109366,"current_range_meters":27200,"station_id":"","pricing_plan_id":"cebpf4jnsgd1na2vs0mg"},{"bike_id":"a565c61d-86a4-4516-be57-317b5aba22a6","system_id":"levelo_inurba_marseille","lat":43.337637,"lon":5.374416,"is_reserved":false,"is_disabled":false,"rental_uris":{"android":"levelo://app?vid=a565c61d-86a4-4516-be57-317b5aba22a6","ios":"levelo://app?vid=a565c61d-86a4-4516-be57-317b5aba22a6"},"vehicle_type_id":"4","last_reported":1720109366,"current_range_meters":16800,"station_id":"","pricing_plan_id":"cebpf4jnsgd1na2vs0mg"},{"bike_id":"c949c5e6-9a6b-4387-bbc4-4da6fa420227","system_id":"levelo_inurba_marseille","lat":43.33761,"lon":5.37462,"is_reserved":false,"is_disabled":false,"rental_uris":{"android":"levelo://app?vid=c949c5e6-9a6b-4387-bbc4-4da6fa420227","ios":"levelo://app?vid=c949c5e6-9a6b-4387-bbc4-4da6fa420227"},"vehicle_type_id":"4","last_reported":1720109366,"current_range_meters":28800,"station_id":"","pricing_plan_id":"cebpf4jnsgd1na2vs0mg"},{"bike_id":"73b4fc66-6fc4-4c20-813a-4d2eadd6f2b8","system_id":"levelo_inurba_marseille","lat":43.33757,"lon":5.37488,"is_reserved":false,"is_disabled":false,"rental_uris":{"android":"levelo://app?vid=73b4fc66-6fc4-4c20-813a-4d2eadd6f2b8","ios":"levelo://app?vid=73b4fc66-6fc4-4c20-813a-4d2eadd6f2b8"},"vehicle_type_id":"4","last_reported":1720109366,"current_range_meters":29200,"station_id":"","pricing_plan_id":"cebpf4jnsgd1na2vs0mg"},{"bike_id":"813948cb-27c3-4450-9b7c-250dc9dee592","system_id":"levelo_inurba_marseille","lat":43.337647,"lon":5.374428,"is_reserved":false,"is_disabled":false,"rental_uris":{"android":"levelo://app?vid=813948cb-27c3-4450-9b7c-250dc9dee592","ios":"levelo://app?vid=813948cb-27c3-4450-9b7c-250dc9dee592"},"vehicle_type_id":"4","last_reported":1720109366,"current_range_meters":13200,"station_id":"","pricing_plan_id":"cebpf4jnsgd1na2vs0mg"},{"bike_id":"b6489de4-a6f4-4a28-97fe-e4b8bfff8e39","system_id":"levelo_inurba_marseille","lat":43.33765,"lon":5.37451,"is_reserved":false,"is_disabled":false,"rental_uris":{"android":"levelo://app?vid=b6489de4-a6f4-4a28-97fe-e4b8bfff8e39","ios":"levelo://app?vid=b6489de4-a6f4-4a28-97fe-e4b8bfff8e39"},"vehicle_type_id":"4","last_reported":1720109366,"current_range_meters":10000,"station_id":"","pricing_plan_id":"cebpf4jnsgd1na2vs0mg"},{"bike_id":"e18f8ef7-5cd8-4c3e-bec4-9f8247f32896","system_id":"levelo_inurba_marseille","lat":43.30642,"lon":5.401031,"is_reserved":false,"is_disabled":false,"rental_uris":{"android":"levelo://app?vid=e18f8ef7-5cd8-4c3e-bec4-9f8247f32896","ios":"levelo://app?vid=e18f8ef7-5cd8-4c3e-bec4-9f8247f32896"},"vehicle_type_id":"4","last_reported":1720109366,"current_range_meters":16400,"station_id":"ce4bh112rcd13ifvqda0","pricing_plan_id":"cebpf4jnsgd1na2vs0mg"},{"bike_id":"501d1471-018f-4f4f-a66e-4f356803d824","system_id":"levelo_inurba_marseille","lat":43.33768,"lon":5.37438,"is_reserved":false,"is_disabled":false,"rental_uris":{"android":"levelo://app?vid=501d1471-018f-4f4f-a66e-4f356803d824","ios":"levelo://app?vid=501d1471-018f-4f4f-a66e-4f356803d824"},"vehicle_type_id":"4","last_reported":1720109366,"current_range_meters":30000,"station_id":"","pricing_plan_id":"cebpf4jnsgd1na2vs0mg"},{"bike_id":"cb06a28b-8a43-4da4-ba10-82313cede184","system_id":"levelo_inurba_marseille","lat":43.3377,"lon":5.37431,"is_reserved":false,"is_disabled":false,"rental_uris":{"android":"levelo://app?vid=cb06a28b-8a43-4da4-ba10-82313cede184","ios":"levelo://app?vid=cb06a28b-8a43-4da4-ba10-82313cede184"},"vehicle_type_id":"4","last_reported":1720109366,"current_range_meters":7600,"station_id":"","pricing_plan_id":"cebpf4jnsgd1na2vs0mg"},{"bike_id":"254d450a-1a06-4b88-baa3-37111a79ed68","system_id":"levelo_inurba_marseille","lat":43.33767,"lon":5.3745,"is_reserved":false,"is_disabled":false,"rental_uris":{"android":"levelo://app?vid=254d450a-1a06-4b88-baa3-37111a79ed68","ios":"levelo://app?vid=254d450a-1a06-4b88-baa3-37111a79ed68"},"vehicle_type_id":"4","last_reported":1720109366,"current_range_meters":29200,"station_id":"","pricing_plan_id":"cebpf4jnsgd1na2vs0mg"},{"bike_id":"deeaed9d-9157-429e-8fd5-1f59df7a2918","system_id":"levelo_inurba_marseille","lat":43.33771,"lon":5.37432,"is_reserved":false,"is_disabled":false,"rental_uris":{"android":"levelo://app?vid=deeaed9d-9157-429e-8fd5-1f59df7a2918","ios":"levelo://app?vid=deeaed9d-9157-429e-8fd5-1f59df7a2918"},"vehicle_type_id":"4","last_reported":1720109366,"current_range_meters":20000,"station_id":"","pricing_plan_id":"cebpf4jnsgd1na2vs0mg"},{"bike_id":"4e5154fd-703e-422a-8e33-619d95480f55","system_id":"levelo_inurba_marseille","lat":43.312609,"lon":5.401662,"is_reserved":false,"is_disabled":false,"rental_uris":{"android":"levelo://app?vid=4e5154fd-703e-422a-8e33-619d95480f55","ios":"levelo://app?vid=4e5154fd-703e-422a-8e33-619d95480f55"},"vehicle_type_id":"4","last_reported":1720109366,"current_range_meters":2000,"station_id":"ce4bh092rcd13ifvqd30","pricing_plan_id":"cebpf4jnsgd1na2vs0mg"},{"bike_id":"65b879fa-7f09-40a9-bbe1-a637cdea45ff","system_id":"levelo_inurba_marseille","lat":43.33771,"lon":5.37443,"is_reserved":false,"is_disabled":false,"rental_uris":{"android":"levelo://app?vid=65b879fa-7f09-40a9-bbe1-a637cdea45ff","ios":"levelo://app?vid=65b879fa-7f09-40a9-bbe1-a637cdea45ff"},"vehicle_type_id":"4","last_reported":1720109366,"current_range_meters":18400,"station_id":"","pricing_plan_id":"cebpf4jnsgd1na2vs0mg"},{"bike_id":"8d5e6798-bce0-44aa-99fe-2af5d56d9d6c","system_id":"levelo_inurba_marseille","lat":43.33772,"lon":5.37448,"is_reserved":false,"is_disabled":false,"rental_uris":{"android":"levelo://app?vid=8d5e6798-bce0-44aa-99fe-2af5d56d9d6c","ios":"levelo://app?vid=8d5e6798-bce0-44aa-99fe-2af5d56d9d6c"},"vehicle_type_id":"4","last_reported":1720109366,"current_range_meters":14800,"station_id":"","pricing_plan_id":"cebpf4jnsgd1na2vs0mg"},{"bike_id":"76b2845d-7790-40d0-a15e-caa06cc0fa12","system_id":"levelo_inurba_marseille","lat":43.3378,"lon":5.37442,"is_reserved":false,"is_disabled":false,"rental_uris":{"android":"levelo://app?vid=76b2845d-7790-40d0-a15e-caa06cc0fa12","ios":"levelo://app?vid=76b2845d-7790-40d0-a15e-caa06cc0fa12"},"vehicle_type_id":"4","last_reported":1720109366,"current_range_meters":27200,"station_id":"","pricing_plan_id":"cebpf4jnsgd1na2vs0mg"},{"bike_id":"f4783e47-f4b0-4238-ad62-aa45b92b0ef2","system_id":"levelo_inurba_marseille","lat":43.33786,"lon":5.37435,"is_reserved":false,"is_disabled":false,"rental_uris":{"android":"levelo://app?vid=f4783e47-f4b0-4238-ad62-aa45b92b0ef2","ios":"levelo://app?vid=f4783e47-f4b0-4238-ad62-aa45b92b0ef2"},"vehicle_type_id":"4","last_reported":1720109366,"current_range_meters":29200,"station_id":"","pricing_plan_id":"cebpf4jnsgd1na2vs0mg"},{"bike_id":"85d2886d-8ea5-44f2-a712-afd6f62072b3","system_id":"levelo_inurba_marseille","lat":43.301117,"lon":5.398795,"is_reserved":false,"is_disabled":false,"rental_uris":{"android":"levelo://app?vid=85d2886d-8ea5-44f2-a712-afd6f62072b3","ios":"levelo://app?vid=85d2886d-8ea5-44f2-a712-afd6f62072b3"},"vehicle_type_id":"4","last_reported":1720109366,"current_range_meters":1200,"station_id":"ce4bh0h2rcd13ifvqd40","pricing_plan_id":"cebpf4jnsgd1na2vs0mg"},{"bike_id":"636bec5f-44c4-4dfc-ad0e-0e874b2b2446","system_id":"levelo_inurba_marseille","lat":43.28727,"lon":5.36078,"is_reserved":false,"is_disabled":false,"rental_uris":{"android":"levelo://app?vid=636bec5f-44c4-4dfc-ad0e-0e874b2b2446","ios":"levelo://app?vid=636bec5f-44c4-4dfc-ad0e-0e874b2b2446"},"vehicle_type_id":"4","last_reported":1720109366,"current_range_meters":31600,"station_id":"cki0cbj6b192h4jlfktg","pricing_plan_id":"cebpf4jnsgd1na2vs0mg"},{"bike_id":"5ff40f71-ca28-445b-9774-43b252c158a7","system_id":"levelo_inurba_marseille","lat":43.28727,"lon":5.36078,"is_reserved":false,"is_disabled":false,"rental_uris":{"android":"levelo://app?vid=5ff40f71-ca28-445b-9774-43b252c158a7","ios":"levelo://app?vid=5ff40f71-ca28-445b-9774-43b252c158a7"},"vehicle_type_id":"4","last_reported":1720109366,"current_range_meters":5200,"station_id":"cki0cbj6b192h4jlfktg","pricing_plan_id":"cebpf4jnsgd1na2vs0mg"},{"bike_id":"239566d9-f35f-4ef7-941a-056057084c35","system_id":"levelo_inurba_marseille","lat":43.33801,"lon":5.37434,"is_reserved":false,"is_disabled":false,"rental_uris":{"android":"levelo://app?vid=239566d9-f35f-4ef7-941a-056057084c35","ios":"levelo://app?vid=239566d9-f35f-4ef7-941a-056057084c35"},"vehicle_type_id":"4","last_reported":1720109366,"current_range_meters":30800,"station_id":"","pricing_plan_id":"cebpf4jnsgd1na2vs0mg"},{"bike_id":"e6a038f8-4aa4-4765-9b85-6e1b775dd693","system_id":"levelo_inurba_marseille","lat":43.28727,"lon":5.36078,"is_reserved":false,"is_disabled":false,"rental_uris":{"android":"levelo://app?vid=e6a038f8-4aa4-4765-9b85-6e1b775dd693","ios":"levelo://app?vid=e6a038f8-4aa4-4765-9b85-6e1b775dd693"},"vehicle_type_id":"4","last_reported":1720109366,"current_range_meters":10000,"station_id":"cki0cbj6b192h4jlfktg","pricing_plan_id":"cebpf4jnsgd1na2vs0mg"},{"bike_id":"069fc505-1d37-4483-9979-d602b0ceded0","system_id":"levelo_inurba_marseille","lat":43.286591,"lon":5.363346,"is_reserved":false,"is_disabled":false,"rental_uris":{"android":"levelo://app?vid=069fc505-1d37-4483-9979-d602b0ceded0","ios":"levelo://app?vid=069fc505-1d37-4483-9979-d602b0ceded0"},"vehicle_type_id":"4","last_reported":1720109366,"current_range_meters":1600,"station_id":"ce4bhah2rcd13ifvqej0","pricing_plan_id":"cebpf4jnsgd1na2vs0mg"},{"bike_id":"1676b1d3-2608-4fe7-b09a-5d9e0bbc3777","system_id":"levelo_inurba_marseille","lat":43.286593,"lon":5.363346,"is_reserved":false,"is_disabled":false,"rental_uris":{"android":"levelo://app?vid=1676b1d3-2608-4fe7-b09a-5d9e0bbc3777","ios":"levelo://app?vid=1676b1d3-2608-4fe7-b09a-5d9e0bbc3777"},"vehicle_type_id":"4","last_reported":1720109366,"current_range_meters":6000,"station_id":"ce4bhah2rcd13ifvqej0","pricing_plan_id":"cebpf4jnsgd1na2vs0mg"},{"bike_id":"5f9a2fc7-6572-4be7-a944-12f8d050cb96","system_id":"levelo_inurba_marseille","lat":43.298681,"lon":5.397225,"is_reserved":false,"is_disabled":false,"rental_uris":{"android":"levelo://app?vid=5f9a2fc7-6572-4be7-a944-12f8d050cb96","ios":"levelo://app?vid=5f9a2fc7-6572-4be7-a944-12f8d050cb96"},"vehicle_type_id":"4","last_reported":1720109366,"current_range_meters":11200,"station_id":"ce4bh0h2rcd13ifvqd50","pricing_plan_id":"cebpf4jnsgd1na2vs0mg"},{"bike_id":"732d9e0f-e864-4c25-8069-b1081970d236","system_id":"levelo_inurba_marseille","lat":43.290336,"lon":5.386425,"is_reserved":false,"is_disabled":false,"rental_uris":{"android":"levelo://app?vid=732d9e0f-e864-4c25-8069-b1081970d236","ios":"levelo://app?vid=732d9e0f-e864-4c25-8069-b1081970d236"},"vehicle_type_id":"4","last_reported":1720109366,"current_range_meters":16000,"station_id":"ce4bh4p2rcd13ifvqe0g","pricing_plan_id":"cebpf4jnsgd1na2vs0mg"},{"bike_id":"c0fe4481-b6f0-4450-9c59-817fd3d3219e","system_id":"levelo_inurba_marseille","lat":43.290336,"lon":5.386425,"is_reserved":false,"is_disabled":false,"rental_uris":{"android":"levelo://app?vid=c0fe4481-b6f0-4450-9c59-817fd3d3219e","ios":"levelo://app?vid=c0fe4481-b6f0-4450-9c59-817fd3d3219e"},"vehicle_type_id":"4","last_reported":1720109366,"current_range_meters":27200,"station_id":"ce4bh4p2rcd13ifvqe0g","pricing_plan_id":"cebpf4jnsgd1na2vs0mg"},{"bike_id":"0931ef07-dd9d-4689-aa8e-64aecab25610","system_id":"levelo_inurba_marseille","lat":43.302759,"lon":5.400793,"is_reserved":false,"is_disabled":false,"rental_uris":{"android":"levelo://app?vid=0931ef07-dd9d-4689-aa8e-64aecab25610","ios":"levelo://app?vid=0931ef07-dd9d-4689-aa8e-64aecab25610"},"vehicle_type_id":"4","last_reported":1720109366,"current_range_meters":0,"station_id":"ce4bgvh2rcd13ifvqcs0","pricing_plan_id":"cebpf4jnsgd1na2vs0mg"},{"bike_id":"5302f05f-b580-47d0-97f8-aa700cb80bd4","system_id":"levelo_inurba_marseille","lat":43.289307,"lon":5.38406,"is_reserved":false,"is_disabled":false,"rental_uris":{"android":"levelo://app?vid=5302f05f-b580-47d0-97f8-aa700cb80bd4","ios":"levelo://app?vid=5302f05f-b580-47d0-97f8-aa700cb80bd4"},"vehicle_type_id":"4","last_reported":1720109366,"current_range_meters":0,"station_id":"ce4bh612rcd13ifvqe6g","pricing_plan_id":"cebpf4jnsgd1na2vs0mg"},{"bike_id":"96e2aef7-a5ba-4bcb-9c28-9a984d9898df","system_id":"levelo_inurba_marseille","lat":43.30258,"lon":5.4009,"is_reserved":false,"is_disabled":false,"rental_uris":{"android":"levelo://app?vid=96e2aef7-a5ba-4bcb-9c28-9a984d9898df","ios":"levelo://app?vid=96e2aef7-a5ba-4bcb-9c28-9a984d9898df"},"vehicle_type_id":"4","last_reported":1720109366,"current_range_meters":2800,"station_id":"ce4bgvh2rcd13ifvqcs0","pricing_plan_id":"cebpf4jnsgd1na2vs0mg"},{"bike_id":"11d2a799-40cf-43b2-ac40-8e9a3dee65f3","system_id":"levelo_inurba_marseille","lat":43.286039,"lon":5.370679,"is_reserved":false,"is_disabled":false,"rental_uris":{"android":"levelo://app?vid=11d2a799-40cf-43b2-ac40-8e9a3dee65f3","ios":"levelo://app?vid=11d2a799-40cf-43b2-ac40-8e9a3dee65f3"},"vehicle_type_id":"4","last_reported":1720109366,"current_range_meters":26000,"station_id":"ce4bht12rcd13ifvqi60","pricing_plan_id":"cebpf4jnsgd1na2vs0mg"},{"bike_id":"7e7833dc-4dd4-4df4-9c72-97a6ffc2dcab","system_id":"levelo_inurba_marseille","lat":43.286039,"lon":5.370681,"is_reserved":false,"is_disabled":false,"rental_uris":{"android":"levelo://app?vid=7e7833dc-4dd4-4df4-9c72-97a6ffc2dcab","ios":"levelo://app?vid=7e7833dc-4dd4-4df4-9c72-97a6ffc2dcab"},"vehicle_type_id":"4","last_reported":1720109366,"current_range_meters":26400,"station_id":"ce4bht12rcd13ifvqi60","pricing_plan_id":"cebpf4jnsgd1na2vs0mg"},{"bike_id":"da482234-6062-45b9-b292-0daa8cf703b7","system_id":"levelo_inurba_marseille","lat":43.286039,"lon":5.370679,"is_reserved":false,"is_disabled":false,"rental_uris":{"android":"levelo://app?vid=da482234-6062-45b9-b292-0daa8cf703b7","ios":"levelo://app?vid=da482234-6062-45b9-b292-0daa8cf703b7"},"vehicle_type_id":"4","last_reported":1720109366,"current_range_meters":25600,"station_id":"ce4bht12rcd13ifvqi60","pricing_plan_id":"cebpf4jnsgd1na2vs0mg"},{"bike_id":"6eb63dc1-3b64-48c0-ab12-a24f4500bf2b","system_id":"levelo_inurba_marseille","lat":43.298681,"lon":5.397225,"is_reserved":false,"is_disabled":false,"rental_uris":{"android":"levelo://app?vid=6eb63dc1-3b64-48c0-ab12-a24f4500bf2b","ios":"levelo://app?vid=6eb63dc1-3b64-48c0-ab12-a24f4500bf2b"},"vehicle_type_id":"4","last_reported":1720109366,"current_range_meters":0,"station_id":"ce4bh0h2rcd13ifvqd50","pricing_plan_id":"cebpf4jnsgd1na2vs0mg"},{"bike_id":"0575db31-aa71-4fb9-aa03-fc223e3ec2b9","system_id":"levelo_inurba_marseille","lat":43.287184,"lon":5.37937,"is_reserved":false,"is_disabled":false,"rental_uris":{"android":"levelo://app?vid=0575db31-aa71-4fb9-aa03-fc223e3ec2b9","ios":"levelo://app?vid=0575db31-aa71-4fb9-aa03-fc223e3ec2b9"},"vehicle_type_id":"4","last_reported":1720109366,"current_range_meters":26000,"station_id":"ce4bh9p2rcd13ifvqec0","pricing_plan_id":"cebpf4jnsgd1na2vs0mg"},{"bike_id":"747052f8-7756-457f-865c-cd5d76ecc020","system_id":"levelo_inurba_marseille","lat":43.287184,"lon":5.37937,"is_reserved":false,"is_disabled":false,"rental_uris":{"android":"levelo://app?vid=747052f8-7756-457f-865c-cd5d76ecc020","ios":"levelo://app?vid=747052f8-7756-457f-865c-cd5d76ecc020"},"vehicle_type_id":"4","last_reported":1720109366,"current_range_meters":1200,"station_id":"ce4bh9p2rcd13ifvqec0","pricing_plan_id":"cebpf4jnsgd1na2vs0mg"},{"bike_id":"8871eb84-2bad-42ae-a96a-930e29582602","system_id":"levelo_inurba_marseille","lat":43.316821,"lon":5.404737,"is_reserved":false,"is_disabled":false,"rental_uris":{"android":"levelo://app?vid=8871eb84-2bad-42ae-a96a-930e29582602","ios":"levelo://app?vid=8871eb84-2bad-42ae-a96a-930e29582602"},"vehicle_type_id":"4","last_reported":1720109366,"current_range_meters":13600,"station_id":"ce4bh012rcd13ifvqd00","pricing_plan_id":"cebpf4jnsgd1na2vs0mg"},{"bike_id":"7a3e577a-a29d-491c-9dda-b0575514d22c","system_id":"levelo_inurba_marseille","lat":43.316821,"lon":5.404737,"is_reserved":false,"is_disabled":false,"rental_uris":{"android":"levelo://app?vid=7a3e577a-a29d-491c-9dda-b0575514d22c","ios":"levelo://app?vid=7a3e577a-a29d-491c-9dda-b0575514d22c"},"vehicle_type_id":"4","last_reported":1720109366,"current_range_meters":19600,"station_id":"ce4bh012rcd13ifvqd00","pricing_plan_id":"cebpf4jnsgd1na2vs0mg"},{"bike_id":"87fd4c5c-3eaa-49c5-8926-e733646fa977","system_id":"levelo_inurba_marseille","lat":43.316821,"lon":5.404737,"is_reserved":false,"is_disabled":false,"rental_uris":{"android":"levelo://app?vid=87fd4c5c-3eaa-49c5-8926-e733646fa977","ios":"levelo://app?vid=87fd4c5c-3eaa-49c5-8926-e733646fa977"},"vehicle_type_id":"4","last_reported":1720109366,"current_range_meters":0,"station_id":"ce4bh012rcd13ifvqd00","pricing_plan_id":"cebpf4jnsgd1na2vs0mg"},{"bike_id":"06a830ca-9ec0-4bb1-8942-d4c4f799601e","system_id":"levelo_inurba_marseille","lat":43.291994,"lon":5.392907,"is_reserved":false,"is_disabled":false,"rental_uris":{"android":"levelo://app?vid=06a830ca-9ec0-4bb1-8942-d4c4f799601e","ios":"levelo://app?vid=06a830ca-9ec0-4bb1-8942-d4c4f799601e"},"vehicle_type_id":"4","last_reported":1720109366,"current_range_meters":0,"station_id":"ce4bh192rcd13ifvqdd0","pricing_plan_id":"cebpf4jnsgd1na2vs0mg"},{"bike_id":"dc0f859a-388c-4e9c-8207-93e1d1bcefe2","system_id":"levelo_inurba_marseille","lat":43.291985,"lon":5.393135,"is_reserved":false,"is_disabled":false,"rental_uris":{"android":"levelo://app?vid=dc0f859a-388c-4e9c-8207-93e1d1bcefe2","ios":"levelo://app?vid=dc0f859a-388c-4e9c-8207-93e1d1bcefe2"},"vehicle_type_id":"4","last_reported":1720109366,"current_range_meters":0,"station_id":"ce4bh192rcd13ifvqdd0","pricing_plan_id":"cebpf4jnsgd1na2vs0mg"},{"bike_id":"ad4c071b-15f9-481b-b903-ddffe1d87b75","system_id":"levelo_inurba_marseille","lat":43.291994,"lon":5.392907,"is_reserved":false,"is_disabled":false,"rental_uris":{"android":"levelo://app?vid=ad4c071b-15f9-481b-b903-ddffe1d87b75","ios":"levelo://app?vid=ad4c071b-15f9-481b-b903-ddffe1d87b75"},"vehicle_type_id":"4","last_reported":1720109366,"current_range_meters":6400,"station_id":"ce4bh192rcd13ifvqdd0","pricing_plan_id":"cebpf4jnsgd1na2vs0mg"},{"bike_id":"44c2a650-e47a-4518-83a3-39a241f22f42","system_id":"levelo_inurba_marseille","lat":43.284534,"lon":5.358662,"is_reserved":false,"is_disabled":false,"rental_uris":{"android":"levelo://app?vid=44c2a650-e47a-4518-83a3-39a241f22f42","ios":"levelo://app?vid=44c2a650-e47a-4518-83a3-39a241f22f42"},"vehicle_type_id":"4","last_reported":1720109366,"current_range_meters":0,"station_id":"ce4bhah2rcd13ifvqei0","pricing_plan_id":"cebpf4jnsgd1na2vs0mg"},{"bike_id":"585bf7b9-2079-4c24-922e-e3b9bcdd4315","system_id":"levelo_inurba_marseille","lat":43.284534,"lon":5.358662,"is_reserved":false,"is_disabled":false,"rental_uris":{"android":"levelo://app?vid=585bf7b9-2079-4c24-922e-e3b9bcdd4315","ios":"levelo://app?vid=585bf7b9-2079-4c24-922e-e3b9bcdd4315"},"vehicle_type_id":"4","last_reported":1720109366,"current_range_meters":0,"station_id":"ce4bhah2rcd13ifvqei0","pricing_plan_id":"cebpf4jnsgd1na2vs0mg"},{"bike_id":"6b3c25ba-9e17-49e0-bdec-9ecfd5ea0561","system_id":"levelo_inurba_marseille","lat":43.284534,"lon":5.358662,"is_reserved":false,"is_disabled":false,"rental_uris":{"android":"levelo://app?vid=6b3c25ba-9e17-49e0-bdec-9ecfd5ea0561","ios":"levelo://app?vid=6b3c25ba-9e17-49e0-bdec-9ecfd5ea0561"},"vehicle_type_id":"4","last_reported":1720109366,"current_range_meters":6400,"station_id":"ce4bhah2rcd13ifvqei0","pricing_plan_id":"cebpf4jnsgd1na2vs0mg"},