{"last_updated":1761325759,"ttl":60,"version":"2.2","data":{"bikes":[{"bike_id":"ada69ef3-920e-4677-8033-ede46962f090","system_id":"levelo_inurba_marseille","lat":43.298784,"lon":5.389157,"is_reserved":false,"is_disabled":false,"rental_uris":{"android":"levelo://app?vid=ada69ef3-920e-4677-8033-ede46962f090","ios":"levelo://app?vid=ada69ef3-920e-4677-8033-ede46962f090"},"vehicle_type_id":"4","last_reported":1761325759,"current_range_meters":2800,"station_id":"ce4bh392rcd13ifvqdl0","pricing_plan_id":"cebpf4jnsgd1na2vs0mg"},{"bike_id":"c3fffd44-9053-4472-ac69-72a02752ffe2","system_id":"levelo_inurba_marseille","lat":43.29263,"lon":5.40898,"is_reserved":false,"is_disabled":false,"rental_uris":{"android":"levelo://app?vid=c3fffd44-9053-4472-ac69-72a02752ffe2","ios":"levelo://app?vid=c3fffd44-9053-4472-ac69-72a02752ffe2"},"vehicle_type_id":"4","last_reported":1761325759,"current_range_meters":2800,"station_id":"ce4bh192rcd13ifvqdc0","pricing_plan_id":"cebpf4jnsgd1na2vs0mg"},{"bike_id":"4438acdf-5ba7-4af9-aac8-a9fc0e58a69d","system_id":"levelo_inurba_marseille","lat":43.30125,"lon":5.38762,"is_reserved":false,"is_disabled":false,"rental_uris":{"android":"levelo://app?vid=4438acdf-5ba7-4af9-aac8-a9fc0e58a69d","ios":"levelo://app?vid=4438acdf-5ba7-4af9-aac8-a9fc0e58a69d"},"vehicle_type_id":"4","last_reported":1761325759,"current_range_meters":2800,"station_id":"ce4bghh2rcd13ifvqb60","pricing_plan_id":"cebpf4jnsgd1na2vs0mg"},{"bike_id":"2a722912-ced7-4f1c-b878-82bbae968d5d","system_id":"levelo_inurba_marseille","lat":43.293403,"lon":5.37447,"is_reserved":false,"is_disabled":false,"rental_uris":{"android":"levelo://app?vid=2a722912-ced7-4f1c-b878-82bbae968d5d","ios":"levelo://app?vid=2a722912-ced7-4f1c-b878-82bbae968d5d"},"vehicle_type_id":"4","last_reported":1761325759,"current_range_meters":2800,"station_id":"","pricing_plan_id":"cebpf4jnsgd1na2vs0mg"},{"bike_id":"100670c3-bb4b-4e56-87de-0e478905feb0","system_id":"levelo_inurba_marseille","lat":43.31178,"lon":5.38709,"is_reserved":false,"is_disabled":false,"rental_uris":{"android":"levelo://app?vid=100670c3-bb4b-4e56-87de-0e478905feb0","ios":"levelo://app?vid=100670c3-bb4b-4e56-87de-0e478905feb0"},"vehicle_type_id":"4","last_reported":1761325759,"current_range_meters":3200,"station_id":"ce4bgv12rcd13ifvqcp0","pricing_plan_id":"cebpf4jnsgd1na2vs0mg"},{"bike_id":"37d01fc8-4b4d-4652-a489-1254eb9d4c80","system_id":"levelo_inurba_marseille","lat":43.34076,"lon":5.40411,"is_reserved":false,"is_disabled":false,"rental_uris":{"android":"levelo://app?vid=37d01fc8-4b4d-4652-a489-1254eb9d4c80","ios":"levelo://app?vid=37d01fc8-4b4d-4652-a489-1254eb9d4c80"},"vehicle_type_id":"4","last_reported":1761325759,"current_range_meters":3200,"station_id":"","pricing_plan_id":"cebpf4jnsgd1na2vs0mg"},{"bike_id":"a5257bea-ce8f-4420-9b7c-2e7d63bb688b","system_id":"levelo_inurba_marseille","lat":43.29846,"lon":5.36277,"is_reserved":false,"is_disabled":false,"rental_uris":{"android":"levelo://app?vid=a5257bea-ce8f-4420-9b7c-2e7d63bb688b","ios":"levelo://app?vid=a5257bea-ce8f-4420-9b7c-2e7d63bb688b"},"vehicle_type_id":"4","last_reported":1761325759,"current_range_meters":3200,"station_id":"ce4bgpp2rcd13ifvqc3g","pricing_plan_id":"cebpf4jnsgd1na2vs0mg"},{"bike_id":"86bbf993-2ac4-4d9b-aa2b-d0d9510e85f0","system_id":"levelo_inurba_marseille","lat":43.28103,"lon":5.37836,"is_reserved":false,"is_disabled":false,"rental_uris":{"android":"levelo://app?vid=86bbf993-2ac4-4d9b-aa2b-d0d9510e85f0","ios":"levelo://app?vid=86bbf993-2ac4-4d9b-aa2b-d0d9510e85f0"},"vehicle_type_id":"4","last_reported":1761325759,"current_range_meters":3200,"station_id":"ce4bha12rcd13ifvqee0","pricing_plan_id":"cebpf4jnsgd1na2vs0mg"},{"bike_id":"20286d6d-ef9e-43ad-a5dd-c4e5d256a6ca","system_id":"levelo_inurba_marseille","lat":43.29971,"lon":5.38495,"is_reserved":false,"is_disabled":false,"rental_uris":{"android":"levelo://app?vid=20286d6d-ef9e-43ad-a5dd-c4e5d256a6ca","ios":"levelo://app?vid=20286d6d-ef9e-43ad-a5dd-c4e5d256a6ca"},"vehicle_type_id":"4","last_reported":1761325759,"current_range_meters":3200,"station_id":"ce4bgj92rcd13ifvqbd0","pricing_plan_id":"cebpf4jnsgd1na2vs0mg"},{"bike_id":"bbd7d5cb-0148-4be0-885c-37a968a41a68","system_id":"levelo_inurba_marseille","lat":43.27069,"lon":5.42279,"is_reserved":false,"is_disabled":false,"rental_uris":{"android":"levelo://app?vid=bbd7d5cb-0148-4be0-885c-37a968a41a68","ios":"levelo://app?vid=bbd7d5cb-0148-4be0-885c-37a968a41a68"},"vehicle_type_id":"4","last_reported":1761325759,"current_range_meters":3600,"station_id":"ce4bhk92rcd13ifvqgb0","pricing_plan_id":"cebpf4jnsgd1na2vs0mg"},{"bike_id":"3916b364-4728-4f3d-a895-2dec2bb7eb60","system_id":"levelo_inurba_marseille","lat":43.30644,"lon":5.40068,"is_reserved":false,"is_disabled":false,"rental_uris":{"android":"levelo://app?vid=3916b364-4728-4f3d-a895-2dec2bb7eb60","ios":"levelo://app?vid=3916b364-4728-4f3d-a895-2dec2bb7eb60"},"vehicle_type_id":"4","last_reported":1761325759,"current_range_meters":3600,"station_id":"ce4bh112rcd13ifvqda0","pricing_plan_id":"cebpf4jnsgd1na2vs0mg"},{"bike_id":"e0bb6679-0ed6-4a5a-8c6c-747a2fdc3fd7","system_id":"levelo_inurba_marseille","lat":43.2894,"lon":5.36641,"is_reserved":false,"is_disabled":false,"rental_uris":{"android":"levelo://app?vid=e0bb6679-0ed6-4a5a-8c6c-747a2fdc3fd7","ios":"levelo://app?vid=e0bb6679-0ed6-4a5a-8c6c-747a2fdc3fd7"},"vehicle_type_id":"4","last_reported":1761325759,"current_range_meters":3600,"station_id":"ce4bhap2rcd13ifvqek0","pricing_plan_id":"cebpf4jnsgd1na2vs0mg"},{"bike_id":"ab451abc-88c7-4576-a77c-6789969e9dae","system_id":"levelo_inurba_marseille","lat":43.22917,"lon":5.35378,"is_reserved":false,"is_disabled":false,"rental_uris":{"android":"levelo://app?vid=ab451abc-88c7-4576-a77c-6789969e9dae","ios":"levelo://app?vid=ab451abc-88c7-4576-a77c-6789969e9dae"},"vehicle_type_id":"4","last_reported":1761325759,"current_range_meters":4000,"station_id":"","pricing_plan_id":"cebpf4jnsgd1na2vs0mg"},{"bike_id":"dcce6150-e9ee-430f-86d1-5b362b5bd044","system_id":"levelo_inurba_marseille","lat":43.29787,"lon":5.37101,"is_reserved":false,"is_disabled":false,"rental_uris":{"android":"levelo://app?vid=dcce6150-e9ee-430f-86d1-5b362b5bd044","ios":"levelo://app?vid=dcce6150-e9ee-430f-86d1-5b362b5bd044"},"vehicle_type_id":"4","last_reported":1761325759,"current_range_meters":4000,"station_id":"ce4bgop2rcd13ifvqc1g","pricing_plan_id":"cebpf4jnsgd1na2vs0mg"},{"bike_id":"9a2f6072-6051-4248-b665-2e526c31d6c2","system_id":"levelo_inurba_marseille","lat":43.30142,"lon":5.38065,"is_reserved":false,"is_disabled":false,"rental_uris":{"android":"levelo://app?vid=9a2f6072-6051-4248-b665-2e526c31d6c2","ios":"levelo://app?vid=9a2f6072-6051-4248-b665-2e526c31d6c2"},"vehicle_type_id":"4","last_reported":1761325759,"current_range_meters":4000,"station_id":"ce4bgjp2rcd13ifvqbh0","pricing_plan_id":"cebpf4jnsgd1na2vs0mg"},{"bike_id":"7f0613b6-c016-4c97-a20d-659b6f25a7eb","system_id":"levelo_inurba_marseille","lat":43.29852,"lon":5.36286,"is_reserved":false,"is_disabled":false,"rental_uris":{"android":"levelo://app?vid=7f0613b6-c016-4c97-a20d-659b6f25a7eb","ios":"levelo://app?vid=7f0613b6-c016-4c97-a20d-659b6f25a7eb"},"vehicle_type_id":"4","last_reported":1761325759,"current_range_meters":4000,"station_id":"ce4bgpp2rcd13ifvqc3g","pricing_plan_id":"cebpf4jnsgd1na2vs0mg"},{"bike_id":"61930006-c68b-4123-a100-2a21f62f7983","system_id":"levelo_inurba_marseille","lat":43.309453,"lon":5.390307,"is_reserved":false,"is_disabled":false,"rental_uris":{"android":"levelo://app?vid=61930006-c68b-4123-a100-2a21f62f7983","ios":"levelo://app?vid=61930006-c68b-4123-a100-2a21f62f7983"},"vehicle_type_id":"4","last_reported":1761325759,"current_range_meters":4000,"station_id":"ce4bgup2rcd13ifvqco0","pricing_plan_id":"cebpf4jnsgd1na2vs0mg"},{"bike_id":"c21b3611-9c87-4ee4-82e8-ce01f8e21e69","system_id":"levelo_inurba_marseille","lat":43.30177,"lon":5.40175,"is_reserved":false,"is_disabled":false,"rental_uris":{"android":"levelo://app?vid=c21b3611-9c87-4ee4-82e8-ce01f8e21e69","ios":"levelo://app?vid=c21b3611-9c87-4ee4-82e8-ce01f8e21e69"},"vehicle_type_id":"4","last_reported":1761325759,"current_range_meters":4400,"station_id":"","pricing_plan_id":"cebpf4jnsgd1na2vs0mg"},{"bike_id":"7546f470-e2c9-46ad-b638-733b3092a9dc","system_id":"levelo_inurba_marseille","lat":43.22539,"lon":5.34827,"is_reserved":false,"is_disabled":false,"rental_uris":{"android":"levelo://app?vid=7546f470-e2c9-46ad-b638-733b3092a9dc","ios":"levelo://app?vid=7546f470-e2c9-46ad-b638-733b3092a9dc"},"vehicle_type_id":"4","last_reported":1761325759,"current_range_meters":4400,"station_id":"","pricing_plan_id":"cebpf4jnsgd1na2vs0mg"},{"bike_id":"6b6f75fa-8e75-462b-8f4d-39ae17f0e16e","system_id":"levelo_inurba_marseille","lat":43.30949,"lon":5.39032,"is_reserved":false,"is_disabled":false,"rental_uris":{"android":"levelo://app?vid=6b6f75fa-8e75-462b-8f4d-39ae17f0e16e","ios":"levelo://app?vid=6b6f75fa-8e75-462b-8f4d-39ae17f0e16e"},"vehicle_type_id":"4","last_reported":1761325759,"current_range_meters":4400,"station_id":"ce4bgup2rcd13ifvqco0","pricing_plan_id":"cebpf4jnsgd1na2vs0mg"},{"bike_id":"279190d5-efc5-41b5-967f-6f01340f9c9e","system_id":"levelo_inurba_marseille","lat":43.2963,"lon":5.40596,"is_reserved":false,"is_disabled":false,"rental_uris":{"android":"levelo://app?vid=279190d5-efc5-41b5-967f-6f01340f9c9e","ios":"levelo://app?vid=279190d5-efc5-41b5-967f-6f01340f9c9e"},"vehicle_type_id":"4","last_reported":1761325759,"current_range_meters":4400,"station_id":"ce4bh0h2rcd13ifvqd60","pricing_plan_id":"cebpf4jnsgd1na2vs0mg"},{"bike_id":"13a97c49-f6c3-4861-b172-08aaf29aa961","system_id":"levelo_inurba_marseille","lat":43.29093,"lon":5.38115,"is_reserved":false,"is_disabled":false,"rental_uris":{"android":"levelo://app?vid=13a97c49-f6c3-4861-b172-08aaf29aa961","ios":"levelo://app?vid=13a97c49-f6c3-4861-b172-08aaf29aa961"},"vehicle_type_id":"4","last_reported":1761325759,"current_range_meters":4400,"station_id":"ce4bh512rcd13ifvqe2g","pricing_plan_id":"cebpf4jnsgd1na2vs0mg"},{"bike_id":"1aeeb01e-1270-4278-b772-e9b0c0c83f14","system_id":"levelo_inurba_marseille","lat":43.2922,"lon":5.36065,"is_reserved":false,"is_disabled":false,"rental_uris":{"android":"levelo://app?vid=1aeeb01e-1270-4278-b772-e9b0c0c83f14","ios":"levelo://app?vid=1aeeb01e-1270-4278-b772-e9b0c0c83f14"},"vehicle_type_id":"4","last_reported":1761325759,"current_range_meters":4400,"station_id":"ce4bhbh2rcd13ifvqeqg","pricing_plan_id":"cebpf4jnsgd1na2vs0mg"},{"bike_id":"49bc5614-d404-459d-83c7-d7ea986679f0","system_id":"levelo_inurba_marseille","lat":43.290189,"lon":5.381212,"is_reserved":false,"is_disabled":false,"rental_uris":{"android":"levelo://app?vid=49bc5614-d404-459d-83c7-d7ea986679f0","ios":"levelo://app?vid=49bc5614-d404-459d-83c7-d7ea986679f0"},"vehicle_type_id":"4","last_reported":1761325759,"current_range_meters":4800,"station_id":"ce4bh4p2rcd13ifvqe1g","pricing_plan_id":"cebpf4jnsgd1na2vs0mg"},{"bike_id":"b8e45ae5-20fd-443d-9f1e-ee21ef1570cb","system_id":"levelo_inurba_marseille","lat":43.29274,"lon":5.38446,"is_reserved":false,"is_disabled":false,"rental_uris":{"android":"levelo://app?vid=b8e45ae5-20fd-443d-9f1e-ee21ef1570cb","ios":"levelo://app?vid=b8e45ae5-20fd-443d-9f1e-ee21ef1570cb"},"vehicle_type_id":"4","last_reported":1761325759,"current_range_meters":4800,"station_id":"ce4bh692rcd13ifvqea0","pricing_plan_id":"cebpf4jnsgd1na2vs0mg"},{"bike_id":"c2f6d99c-6741-4f97-adbe-292efb7eff82","system_id":"levelo_inurba_marseille","lat":43.21161,"lon":5.3507,"is_reserved":false,"is_disabled":false,"rental_uris":{"android":"levelo://app?vid=c2f6d99c-6741-4f97-adbe-292efb7eff82","ios":"levelo://app?vid=c2f6d99c-6741-4f97-adbe-292efb7eff82"},"vehicle_type_id":"4","last_reported":1761325759,"current_range_meters":4800,"station_id":"st_cvj6sg6p6f1abm77japg","pricing_plan_id":"cebpf4jnsgd1na2vs0mg"},{"bike_id":"51ea134d-df94-4f50-84a6-099716824d0c","system_id":"levelo_inurba_marseille","lat":43.3372,"lon":5.3629,"is_reserved":false,"is_disabled":false,"rental_uris":{"android":"levelo://app?vid=51ea134d-df94-4f50-84a6-099716824d0c","ios":"levelo://app?vid=51ea134d-df94-4f50-84a6-099716824d0c"},"vehicle_type_id":"4","last_reported":1761325759,"current_range_meters":4800,"station_id":"","pricing_plan_id":"cebpf4jnsgd1na2vs0mg"},{"bike_id":"591dba2a-d04c-4bfc-9a2f-d4ae784d7769","system_id":"levelo_inurba_marseille","lat":43.258246,"lon":5.394293,"is_reserved":false,"is_disabled":false,"rental_uris":{"android":"levelo://app?vid=591dba2a-d04c-4bfc-9a2f-d4ae784d7769","ios":"levelo://app?vid=591dba2a-d04c-4bfc-9a2f-d4ae784d7769"},"vehicle_type_id":"4","last_reported":1761325759,"current_range_meters":4800,"station_id":"ce4bhip2rcd13ifvqft0","pricing_plan_id":"cebpf4jnsgd1na2vs0mg"},{"bike_id":"05cfe2e3-6f59-452b-a1fa-4df445ce1295","system_id":"levelo_inurba_marseille","lat":43.290294,"lon":5.375629,"is_reserved":false,"is_disabled":false,"rental_uris":{"android":"levelo://app?vid=05cfe2e3-6f59-452b-a1fa-4df445ce1295","ios":"levelo://app?vid=05cfe2e3-6f59-452b-a1fa-4df445ce1295"},"vehicle_type_id":"4","last_reported":1761325759,"current_range_meters":5600,"station_id":"ce4bh692rcd13ifvqe90","pricing_plan_id":"cebpf4jnsgd1na2vs0mg"},{"bike_id":"f28e01f3-bdd4-4516-907e-96aa7dac2a79","system_id":"levelo_inurba_marseille","lat":43.2902,"lon":5.37554,"is_reserved":false,"is_disabled":true,"rental_uris":{"android":"levelo://app?vid=f28e01f3-bdd4-4516-907e-96aa7dac2a79","ios":"levelo://app?vid=f28e01f3-bdd4-4516-907e-96aa7dac2a79"},"vehicle_type_id":"4","last_reported":1761325759,"current_range_meters":5600,"station_id":"ce4bh692rcd13ifvqe90","pricing_plan_id":"cebpf4jnsgd1na2vs0mg"},{"bike_id":"f8b6c7d0-e892-4910-be24-0cbf054c683d","system_id":"levelo_inurba_marseille","lat":43.29615,"lon":5.37163,"is_reserved":false,"is_disabled":false,"rental_uris":{"android":"levelo://app?vid=f8b6c7d0-e892-4910-be24-0cbf054c683d","ios":"levelo://app?vid=f8b6c7d0-e892-4910-be24-0cbf054c683d"},"vehicle_type_id":"4","last_reported":1761325759,"current_range_meters":5600,"station_id":"ce4bgnh2rcd13ifvqc0g","pricing_plan_id":"cebpf4jnsgd1na2vs0mg"},{"bike_id":"4db90823-354c-4a9f-9a3e-bedf87dcd88e","system_id":"levelo_inurba_marseille","lat":43.24958,"lon":5.40492,"is_reserved":false,"is_disabled":false,"rental_uris":{"android":"levelo://app?vid=4db90823-354c-4a9f-9a3e-bedf87dcd88e","ios":"levelo://app?vid=4db90823-354c-4a9f-9a3e-bedf87dcd88e"},"vehicle_type_id":"4","last_reported":1761325759,"current_range_meters":5600,"station_id":"st_d2ngiaodas8pm72gd1h0","pricing_plan_id":"cebpf4jnsgd1na2vs0mg"},{"bike_id":"ad9a8166-85b3-49b6-88c7-1c6bdf69b632","system_id":"levelo_inurba_marseille","lat":43.311107,"lon":5.377624,"is_reserved":false,"is_disabled":false,"rental_uris":{"android":"levelo://app?vid=ad9a8166-85b3-49b6-88c7-1c6bdf69b632","ios":"levelo://app?vid=ad9a8166-85b3-49b6-88c7-1c6bdf69b632"},"vehicle_type_id":"4","last_reported":1761325759,"current_range_meters":5600,"station_id":"","pricing_plan_id":"cebpf4jnsgd1na2vs0mg"},{"bike_id":"887de736-d93b-4758-8e42-7044d49cc73d","system_id":"levelo_inurba_marseille","lat":43.29263,"lon":5.40907,"is_reserved":false,"is_disabled":false,"rental_uris":{"android":"levelo://app?vid=887de736-d93b-4758-8e42-7044d49cc73d","ios":"levelo://app?vid=887de736-d93b-4758-8e42-7044d49cc73d"},"vehicle_type_id":"4","last_reported":1761325759,"current_range_meters":5600,"station_id":"ce4bh192rcd13ifvqdc0","pricing_plan_id":"cebpf4jnsgd1na2vs0mg"},{"bike_id":"3bab426d-2efc-44da-b7e3-acaf341b01c0","system_id":"levelo_inurba_marseille","lat":43.29286,"lon":5.40118,"is_reserved":false,"is_disabled":false,"rental_uris":{"android":"levelo://app?vid=3bab426d-2efc-44da-b7e3-acaf341b01c0","ios":"levelo://app?vid=3bab426d-2efc-44da-b7e3-acaf341b01c0"},"vehicle_type_id":"4","last_reported":1761325759,"current_range_meters":5600,"station_id":"ce4bh312rcd13ifvqdk0","pricing_plan_id":"cebpf4jnsgd1na2vs0mg"},{"bike_id":"d7886207-51c8-4906-9616-3ba878822abf","system_id":"levelo_inurba_marseille","lat":43.260627,"lon":5.393981,"is_reserved":false,"is_disabled":false,"rental_uris":{"android":"levelo://app?vid=d7886207-51c8-4906-9616-3ba878822abf","ios":"levelo://app?vid=d7886207-51c8-4906-9616-3ba878822abf"},"vehicle_type_id":"4","last_reported":1761325759,"current_range_meters":5600,"station_id":"ce4bhh92rcd13ifvqfj0","pricing_plan_id":"cebpf4jnsgd1na2vs0mg"},{"bike_id":"0fdedc87-4c3a-4864-a7d4-9cc7c126e92b","system_id":"levelo_inurba_marseille","lat":43.27204,"lon":5.39183,"is_reserved":false,"is_disabled":false,"rental_uris":{"android":"levelo://app?vid=0fdedc87-4c3a-4864-a7d4-9cc7c126e92b","ios":"levelo://app?vid=0fdedc87-4c3a-4864-a7d4-9cc7c126e92b"},"vehicle_type_id":"4","last_reported":1761325759,"current_range_meters":6000,"station_id":"ce4bhhp2rcd13ifvqfm0","pricing_plan_id":"cebpf4jnsgd1na2vs0mg"},{"bike_id":"363928f4-97c3-4890-852e-864b83a97401","system_id":"levelo_inurba_marseille","lat":43.25489,"lon":5.37649,"is_reserved":false,"is_disabled":false,"rental_uris":{"android":"levelo://app?vid=363928f4-97c3-4890-852e-864b83a97401","ios":"levelo://app?vid=363928f4-97c3-4890-852e-864b83a97401"},"vehicle_type_id":"4","last_reported":1761325759,"current_range_meters":6000,"station_id":"ce4bhh12rcd13ifvqff0","pricing_plan_id":"cebpf4jnsgd1na2vs0mg"},{"bike_id":"6d408b01-4235-4890-abad-433ffbf66299","system_id":"levelo_inurba_marseille","lat":43.281039,"lon":5.378305,"is_reserved":false,"is_disabled":false,"rental_uris":{"android":"levelo://app?vid=6d408b01-4235-4890-abad-433ffbf66299","ios":"levelo://app?vid=6d408b01-4235-4890-abad-433ffbf66299"},"vehicle_type_id":"4","last_reported":1761325759,"current_range_meters":6000,"station_id":"ce4bha12rcd13ifvqee0","pricing_plan_id":"cebpf4jnsgd1na2vs0mg"},{"bike_id":"2d94fef5-4464-4f6f-b35a-91fb778bc9e4","system_id":"levelo_inurba_marseille","lat":43.29893,"lon":5.43667,"is_reserved":false,"is_disabled":false,"rental_uris":{"android":"levelo://app?vid=2d94fef5-4464-4f6f-b35a-91fb778bc9e4","ios":"levelo://app?vid=2d94fef5-4464-4f6f-b35a-91fb778bc9e4"},"vehicle_type_id":"4","last_reported":1761325759,"current_range_meters":6000,"station_id":"ce4bhpp2rcd13ifvqhfg","pricing_plan_id":"cebpf4jnsgd1na2vs0mg"},{"bike_id":"fddaa30e-36ed-46e0-8669-0c43d4344b04","system_id":"levelo_inurba_marseille","lat":43.3064,"lon":5.40093,"is_reserved":false,"is_disabled":false,"rental_uris":{"android":"levelo://app?vid=fddaa30e-36ed-46e0-8669-0c43d4344b04","ios":"levelo://app?vid=fddaa30e-36ed-46e0-8669-0c43d4344b04"},"vehicle_type_id":"4","last_reported":1761325759,"current_range_meters":6000,"station_id":"ce4bh112rcd13ifvqda0","pricing_plan_id":"cebpf4jnsgd1na2vs0mg"},{"bike_id":"c8c0fa58-a519-4343-9887-b0c694f93aef","system_id":"levelo_inurba_marseille","lat":43.28872,"lon":5.42511,"is_reserved":false,"is_disabled":false,"rental_uris":{"android":"levelo://app?vid=c8c0fa58-a519-4343-9887-b0c694f93aef","ios":"levelo://app?vid=c8c0fa58-a519-4343-9887-b0c694f93aef"},"vehicle_type_id":"4","last_reported":1761325759,"current_range_meters":6400,"station_id":"st_d3b462108ojc7389ooeg","pricing_plan_id":"cebpf4jnsgd1na2vs0mg"},{"bike_id":"1cf570c7-1724-4b95-9963-1b39dfb32ee3","system_id":"levelo_inurba_marseille","lat":43.26375,"lon":5.38771,"is_reserved":false,"is_disabled":false,"rental_uris":{"android":"levelo://app?vid=1cf570c7-1724-4b95-9963-1b39dfb32ee3","ios":"levelo://app?vid=1cf570c7-1724-4b95-9963-1b39dfb32ee3"},"vehicle_type_id":"4","last_reported":1761325759,"current_range_meters":6400,"station_id":"","pricing_plan_id":"cebpf4jnsgd1na2vs0mg"},{"bike_id":"449c2c54-933e-4440-b494-72eff8c678b4","system_id":"levelo_inurba_marseille","lat":43.32362,"lon":5.38892,"is_reserved":false,"is_disabled":false,"rental_uris":{"android":"levelo://app?vid=449c2c54-933e-4440-b494-72eff8c678b4","ios":"levelo://app?vid=449c2c54-933e-4440-b494-72eff8c678b4"},"vehicle_type_id":"4","last_reported":1761325759,"current_range_meters":6400,"station_id":"ce4bhqp2rcd13ifvqhog","pricing_plan_id":"cebpf4jnsgd1na2vs0mg"},{"bike_id":"f2c639c7-92e8-47aa-8b5b-e5b0b4eae31c","system_id":"levelo_inurba_marseille","lat":43.24659,"lon":5.381668,"is_reserved":false,"is_disabled":false,"rental_uris":{"android":"levelo://app?vid=f2c639c7-92e8-47aa-8b5b-e5b0b4eae31c","ios":"levelo://app?vid=f2c639c7-92e8-47aa-8b5b-e5b0b4eae31c"},"vehicle_type_id":"4","last_reported":1761325759,"current_range_meters":6400,"station_id":"ce4bhih2rcd13ifvqfr0","pricing_plan_id":"cebpf4jnsgd1na2vs0mg"},{"bike_id":"916425e1-27eb-4449-893a-9bfb6de56c2a","system_id":"levelo_inurba_marseille","lat":43.2993,"lon":5.36537,"is_reserved":false,"is_disabled":false,"rental_uris":{"android":"levelo://app?vid=916425e1-27eb-4449-893a-9bfb6de56c2a","ios":"levelo://app?vid=916425e1-27eb-4449-893a-9bfb6de56c2a"},"vehicle_type_id":"4","last_reported":1761325759,"current_range_meters":6400,"station_id":"ce4bgm92rcd13ifvqbr0","pricing_plan_id":"cebpf4jnsgd1na2vs0mg"},{"bike_id":"01db7bd8-b9f4-4c4a-b0fc-0e1ca2aac853","system_id":"levelo_inurba_marseille","lat":43.29615,"lon":5.377141,"is_reserved":false,"is_disabled":false,"rental_uris":{"android":"levelo://app?vid=01db7bd8-b9f4-4c4a-b0fc-0e1ca2aac853","ios":"levelo://app?vid=01db7bd8-b9f4-4c4a-b0fc-0e1ca2aac853"},"vehicle_type_id":"4","last_reported":1761325759,"current_range_meters":6400,"station_id":"ce4bgi92rcd13ifvqb90","pricing_plan_id":"cebpf4jnsgd1na2vs0mg"},{"bike_id":"765adebf-7752-4542-8280-0e0811c5eae9","system_id":"levelo_inurba_marseille","lat":43.292654,"lon":5.384317,"is_reserved":false,"is_disabled":false,"rental_uris":{"android":"levelo://app?vid=765adebf-7752-4542-8280-0e0811c5eae9","ios":"levelo://app?vid=765adebf-7752-4542-8280-0e0811c5eae9"},"vehicle_type_id":"4","last_reported":1761325759,"current_range_meters":6400,"station_id":"","pricing_plan_id":"cebpf4jnsgd1na2vs0mg"},{"bike_id":"b9f8d776-3e65-44ad-b106-e95d31ffedf4","system_id":"levelo_inurba_marseille","lat":43.29306,"lon":5.37462,"is_reserved":false,"is_disabled":false,"rental_uris":{"android":"levelo://app?vid=b9f8d776-3e65-44ad-b106-e95d31ffedf4","ios":"levelo://app?vid=b9f8d776-3e65-44ad-b106-e95d31ffedf4"},"vehicle_type_id":"4","last_reported":1761325759,"current_range_meters":6400,"station_id":"ce4bgi12rcd13ifvqb70","pricing_plan_id":"cebpf4jnsgd1na2vs0mg"},{"bike_id":"3167c122-43fa-497a-bf85-d0a6522abe7a","system_id":"levelo_inurba_marseille","lat":43.32773,"lon":5.37539,"is_reserved":false,"is_disabled":false,"rental_uris":{"android":"levelo://app?vid=3167c122-43fa-497a-bf85-d0a6522abe7a","ios":"levelo://app?vid=3167c122-43fa-497a-bf85-d0a6522abe7a"},"vehicle_type_id":"4","last_reported":1761325759,"current_range_meters":6800,"station_id":"","pricing_plan_id":"cebpf4jnsgd1na2vs0mg"},{"bike_id":"dc2408b5-878c-4a8d-a752-522283ec1698","system_id":"levelo_inurba_marseille","lat":43.2756,"lon":5.38419,"is_reserved":false,"is_disabled":false,"rental_uris":{"android":"levelo://app?vid=dc2408b5-878c-4a8d-a752-522283ec1698","ios":"levelo://app?vid=dc2408b5-878c-4a8d-a752-522283ec1698"},"vehicle_type_id":"4","last_reported":1761325759,"current_range_meters":6800,"station_id":"ce4bhh92rcd13ifvqfi0","pricing_plan_id":"cebpf4jnsgd1na2vs0mg"},{"bike_id":"de54e8d4-2990-45c5-81ab-bf32cf0d2d28","system_id":"levelo_inurba_marseille","lat":43.30953,"lon":5.39036,"is_reserved":false,"is_disabled":false,"rental_uris":{"android":"levelo://app?vid=de54e8d4-2990-45c5-81ab-bf32cf0d2d28","ios":"levelo://app?vid=de54e8d4-2990-45c5-81ab-bf32cf0d2d28"},"vehicle_type_id":"4","last_reported":1761325759,"current_range_meters":6800,"station_id":"ce4bgup2rcd13ifvqco0","pricing_plan_id":"cebpf4jnsgd1na2vs0mg"},{"bike_id":"32e7919e-26d8-4f7d-b229-086147816fa4","system_id":"levelo_inurba_marseille","lat":43.301286,"lon":5.38775,"is_reserved":false,"is_disabled":false,"rental_uris":{"android":"levelo://app?vid=32e7919e-26d8-4f7d-b229-086147816fa4","ios":"levelo://app?vid=32e7919e-26d8-4f7d-b229-086147816fa4"},"vehicle_type_id":"4","last_reported":1761325759,"current_range_meters":6800,"station_id":"","pricing_plan_id":"cebpf4jnsgd1na2vs0mg"},{"bike_id":"00fd3c6a-780c-49dc-9993-d4de69c9b57a","system_id":"levelo_inurba_marseille","lat":43.31078,"lon":5.37469,"is_reserved":false,"is_disabled":false,"rental_uris":{"android":"levelo://app?vid=00fd3c6a-780c-49dc-9993-d4de69c9b57a","ios":"levelo://app?vid=00fd3c6a-780c-49dc-9993-d4de69c9b57a"},"vehicle_type_id":"4","last_reported":1761325759,"current_range_meters":6800,"station_id":"","pricing_plan_id":"cebpf4jnsgd1na2vs0mg"},{"bike_id":"6547ce34-92ba-483b-b084-1b41eb1258eb","system_id":"levelo_inurba_marseille","lat":43.30921,"lon":5.40137,"is_reserved":false,"is_disabled":false,"rental_uris":{"android":"levelo://app?vid=6547ce34-92ba-483b-b084-1b41eb1258eb","ios":"levelo://app?vid=6547ce34-92ba-483b-b084-1b41eb1258eb"},"vehicle_type_id":"4","last_reported":1761325759,"current_range_meters":6800,"station_id":"ce4bgvp2rcd13ifvqct0","pricing_plan_id":"cebpf4jnsgd1na2vs0mg"},{"bike_id":"948791ae-9a50-49b9-b31b-258855dddc4f","system_id":"levelo_inurba_marseille","lat":43.289272,"lon":5.384067,"is_reserved":false,"is_disabled":false,"rental_uris":{"android":"levelo://app?vid=948791ae-9a50-49b9-b31b-258855dddc4f","ios":"levelo://app?vid=948791ae-9a50-49b9-b31b-258855dddc4f"},"vehicle_type_id":"4","last_reported":1761325759,"current_range_meters":6800,"station_id":"ce4bh612rcd13ifvqe6g","pricing_plan_id":"cebpf4jnsgd1na2vs0mg"},{"bike_id":"5df3bb81-4916-4427-8cd1-aaca61ad6031","system_id":"levelo_inurba_marseille","lat":43.29625,"lon":5.38085,"is_reserved":false,"is_disabled":false,"rental_uris":{"android":"levelo://app?vid=5df3bb81-4916-4427-8cd1-aaca61ad6031","ios":"levelo://app?vid=5df3bb81-4916-4427-8cd1-aaca61ad6031"},"vehicle_type_id":"4","last_reported":1761325759,"current_range_meters":6800,"station_id":"ce4bgl12rcd13ifvqbo0","pricing_plan_id":"cebpf4jnsgd1na2vs0mg"},{"bike_id":"95df96cf-cd81-4e9c-8786-4521bc3ff821","system_id":"levelo_inurba_marseille","lat":43.28994,"lon":5.35616,"is_reserved":false,"is_disabled":false,"rental_uris":{"android":"levelo://app?vid=95df96cf-cd81-4e9c-8786-4521bc3ff821","ios":"levelo://app?vid=95df96cf-cd81-4e9c-8786-4521bc3ff821"},"vehicle_type_id":"4","last_reported":1761325759,"current_range_meters":7200,"station_id":"ce4bhb92rcd13ifvqen0","pricing_plan_id":"cebpf4jnsgd1na2vs0mg"},{"bike_id":"ed5592f6-738f-424e-b1c7-4090ab91b445","system_id":"levelo_inurba_marseille","lat":43.21192,"lon":5.35073,"is_reserved":false,"is_disabled":false,"rental_uris":{"android":"levelo://app?vid=ed5592f6-738f-424e-b1c7-4090ab91b445","ios":"levelo://app?vid=ed5592f6-738f-424e-b1c7-4090ab91b445"},"vehicle_type_id":"4","last_reported":1761325759,"current_range_meters":8000,"station_id":"st_cvj6sg6p6f1abm77japg","pricing_plan_id":"cebpf4jnsgd1na2vs0mg"},{"bike_id":"ec9665a2-32ab-42b2-9bdf-cf94d158a9c2","system_id":"levelo_inurba_marseille","lat":43.30091,"lon":5.37117,"is_reserved":false,"is_disabled":false,"rental_uris":{"android":"levelo://app?vid=ec9665a2-32ab-42b2-9bdf-cf94d158a9c2","ios":"levelo://app?vid=ec9665a2-32ab-42b2-9bdf-cf94d158a9c2"},"vehicle_type_id":"4","last_reported":1761325759,"current_range_meters":8000,"station_id":"","pricing_plan_id":"cebpf4jnsgd1na2vs0mg"},{"bike_id":"f1d0c60a-3664-4c0a-a20a-1eb9595f4f8c","system_id":"levelo_inurba_marseille","lat":43.27436,"lon":5.3942,"is_reserved":false,"is_disabled":false,"rental_uris":{"android":"levelo://app?vid=f1d0c60a-3664-4c0a-a20a-1eb9595f4f8c","ios":"levelo://app?vid=f1d0c60a-3664-4c0a-a20a-1eb9595f4f8c"},"vehicle_type_id":"4","last_reported":1761325759,"current_range_meters":8000,"station_id":"ce4bhdp2rcd13ifvqf20","pricing_plan_id":"cebpf4jnsgd1na2vs0mg"},{"bike_id":"79a92e4c-f3f4-4c63-affc-ef3b52755032","system_id":"levelo_inurba_marseille","lat":43.24958,"lon":5.40491,"is_reserved":false,"is_disabled":false,"rental_uris":{"android":"levelo://app?vid=79a92e4c-f3f4-4c63-affc-ef3b52755032","ios":"levelo://app?vid=79a92e4c-f3f4-4c63-affc-ef3b52755032"},"vehicle_type_id":"4","last_reported":1761325759,"current_range_meters":8000,"station_id":"st_d2ngiaodas8pm72gd1h0","pricing_plan_id":"cebpf4jnsgd1na2vs0mg"},{"bike_id":"60ee768e-a80f-4185-bb91-1d0a89831466","system_id":"levelo_inurba_marseille","lat":43.27069,"lon":5.38317,"is_reserved":false,"is_disabled":false,"rental_uris":{"android":"levelo://app?vid=60ee768e-a80f-4185-bb91-1d0a89831466","ios":"levelo://app?vid=60ee768e-a80f-4185-bb91-1d0a89831466"},"vehicle_type_id":"4","last_reported":1761325759,"current_range_meters":8000,"station_id":"st_d3n2fo6cfp8s73cte1j0","pricing_plan_id":"cebpf4jnsgd1na2vs0mg"},{"bike_id":"3930e88f-37af-4a47-bc5c-32ea36e2d300","system_id":"levelo_inurba_marseille","lat":43.310651,"lon":5.383553,"is_reserved":false,"is_disabled":false,"rental_uris":{"android":"levelo://app?vid=3930e88f-37af-4a47-bc5c-32ea36e2d300","ios":"levelo://app?vid=3930e88f-37af-4a47-bc5c-32ea36e2d300"},"vehicle_type_id":"4","last_reported":1761325759,"current_range_meters":8000,"station_id":"","pricing_plan_id":"cebpf4jnsgd1na2vs0mg"},{"bike_id":"7fd93f2c-8fce-4983-8508-3bc3df64380b","system_id":"levelo_inurba_marseille","lat":43.29194,"lon":5.35802,"is_reserved":false,"is_disabled":false,"rental_uris":{"android":"levelo://app?vid=7fd93f2c-8fce-4983-8508-3bc3df64380b","ios":"levelo://app?vid=7fd93f2c-8fce-4983-8508-3bc3df64380b"},"vehicle_type_id":"4","last_reported":1761325759,"current_range_meters":8000,"station_id":"ce4bhb12rcd13ifvqel0","pricing_plan_id":"cebpf4jnsgd1na2vs0mg"},{"bike_id":"a9c5a100-420b-4a10-b7e5-865af04e2152","system_id":"levelo_inurba_marseille","lat":43.28708,"lon":5.37392,"is_reserved":false,"is_disabled":false,"rental_uris":{"android":"levelo://app?vid=a9c5a100-420b-4a10-b7e5-865af04e2152","ios":"levelo://app?vid=a9c5a100-420b-4a10-b7e5-865af04e2152"},"vehicle_type_id":"4","last_reported":1761325759,"current_range_meters":8000,"station_id":"ce4bh3p2rcd13ifvqdq0","pricing_plan_id":"cebpf4jnsgd1na2vs0mg"},{"bike_id":"9e24b708-37b4-46db-b48d-2d4379302b97","system_id":"levelo_inurba_marseille","lat":43.31366,"lon":5.38494,"is_reserved":false,"is_disabled":false,"rental_uris":{"android":"levelo://app?vid=9e24b708-37b4-46db-b48d-2d4379302b97","ios":"levelo://app?vid=9e24b708-37b4-46db-b48d-2d4379302b97"},"vehicle_type_id":"4","last_reported":1761325759,"current_range_meters":8400,"station_id":"ce4bgt92rcd13ifvqcf0","pricing_plan_id":"cebpf4jnsgd1na2vs0mg"},{"bike_id":"7ab51fc0-04dd-4bcd-8124-8c5cc47951fb","system_id":"levelo_inurba_marseille","lat":43.2969,"lon":5.37307,"is_reserved":false,"is_disabled":false,"rental_uris":{"android":"levelo://app?vid=7ab51fc0-04dd-4bcd-8124-8c5cc47951fb","ios":"levelo://app?vid=7ab51fc0-04dd-4bcd-8124-8c5cc47951fb"},"vehicle_type_id":"4","last_reported":1761325759,"current_range_meters":8400,"station_id":"ce4bgk12rcd13ifvqbj0","pricing_plan_id":"cebpf4jnsgd1na2vs0mg"},{"bike_id":"ee26cecc-2325-453e-b1cc-c7559c8a3db7","system_id":"levelo_inurba_marseille","lat":43.29092,"lon":5.38127,"is_reserved":false,"is_disabled":false,"rental_uris":{"android":"levelo://app?vid=ee26cecc-2325-453e-b1cc-c7559c8a3db7","ios":"levelo://app?vid=ee26cecc-2325-453e-b1cc-c7559c8a3db7"},"vehicle_type_id":"4","last_reported":1761325759,"current_range_meters":8400,"station_id":"ce4bh512rcd13ifvqe2g","pricing_plan_id":"cebpf4jnsgd1na2vs0mg"},{"bike_id":"2207f62b-1491-4de9-b57b-fc0d27cf6781","system_id":"levelo_inurba_marseille","lat":43.290108,"lon":5.356175,"is_reserved":false,"is_disabled":false,"rental_uris":{"android":"levelo://app?vid=2207f62b-1491-4de9-b57b-fc0d27cf6781","ios":"levelo://app?vid=2207f62b-1491-4de9-b57b-fc0d27cf6781"},"vehicle_type_id":"4","last_reported":1761325759,"current_range_meters":8400,"station_id":"","pricing_plan_id":"cebpf4jnsgd1na2vs0mg"},{"bike_id":"e96035ce-3f75-42c7-bc07-32e4ba0bd41a","system_id":"levelo_inurba_marseille","lat":43.30474,"lon":5.36918,"is_reserved":false,"is_disabled":false,"rental_uris":{"android":"levelo://app?vid=e96035ce-3f75-42c7-bc07-32e4ba0bd41a","ios":"levelo://app?vid=e96035ce-3f75-42c7-bc07-32e4ba0bd41a"},"vehicle_type_id":"4","last_reported":1761325759,"current_range_meters":8800,"station_id":"","pricing_plan_id":"cebpf4jnsgd1na2vs0mg"},{"bike_id":"3e4783b6-28d8-4737-a4ef-6a1b0da02476","system_id":"levelo_inurba_marseille","lat":43.2942,"lon":5.40722,"is_reserved":false,"is_disabled":false,"rental_uris":{"android":"levelo://app?vid=3e4783b6-28d8-4737-a4ef-6a1b0da02476","ios":"levelo://app?vid=3e4783b6-28d8-4737-a4ef-6a1b0da02476"},"vehicle_type_id":"4","last_reported":1761325759,"current_range_meters":8800,"station_id":"","pricing_plan_id":"cebpf4jnsgd1na2vs0mg"},{"bike_id":"bcfeb6d7-336e-4aa9-9fe6-8f37e7c9c6d9","system_id":"levelo_inurba_marseille","lat":43.29252,"lon":5.40903,"is_reserved":false,"is_disabled":false,"rental_uris":{"android":"levelo://app?vid=bcfeb6d7-336e-4aa9-9fe6-8f37e7c9c6d9","ios":"levelo://app?vid=bcfeb6d7-336e-4aa9-9fe6-8f37e7c9c6d9"},"vehicle_type_id":"4","last_reported":1761325759,"current_range_meters":8800,"station_id":"ce4bh192rcd13ifvqdc0","pricing_plan_id":"cebpf4jnsgd1na2vs0mg"},{"bike_id":"323bf2de-3bb4-4b4c-b330-b19ea807dbf5","system_id":"levelo_inurba_marseille","lat":43.329939,"lon":5.42953,"is_reserved":false,"is_disabled":false,"rental_uris":{"android":"levelo://app?vid=323bf2de-3bb4-4b4c-b330-b19ea807dbf5","ios":"levelo://app?vid=323bf2de-3bb4-4b4c-b330-b19ea807dbf5"},"vehicle_type_id":"4","last_reported":1761325759,"current_range_meters":8800,"station_id":"","pricing_plan_id":"cebpf4jnsgd1na2vs0mg"},{"bike_id":"104f47bf-14f5-4239-897e-e4364d583e47","system_id":"levelo_inurba_marseille","lat":43.28033,"lon":5.36947,"is_reserved":false,"is_disabled":false,"rental_uris":{"android":"levelo://app?vid=104f47bf-14f5-4239-897e-e4364d583e47","ios":"levelo://app?vid=104f47bf-14f5-4239-897e-e4364d583e47"},"vehicle_type_id":"4","last_reported":1761325759,"current_range_meters":8800,"station_id":"ce4bha12rcd13ifvqef0","pricing_plan_id":"cebpf4jnsgd1na2vs0mg"},{"bike_id":"898e0d28-37b5-460a-a825-a22252eb5c02","system_id":"levelo_inurba_marseille","lat":43.29971,"lon":5.38517,"is_reserved":false,"is_disabled":false,"rental_uris":{"android":"levelo://app?vid=898e0d28-37b5-460a-a825-a22252eb5c02","ios":"levelo://app?vid=898e0d28-37b5-460a-a825-a22252eb5c02"},"vehicle_type_id":"4","last_reported":1761325759,"current_range_meters":8800,"station_id":"ce4bgj92rcd13ifvqbd0","pricing_plan_id":"cebpf4jnsgd1na2vs0mg"},{"bike_id":"afa61b6f-ce6f-463b-a8ac-d3b62cbafefe","system_id":"levelo_inurba_marseille","lat":43.24672,"lon":5.38155,"is_reserved":false,"is_disabled":false,"rental_uris":{"android":"levelo://app?vid=afa61b6f-ce6f-463b-a8ac-d3b62cbafefe","ios":"levelo://app?vid=afa61b6f-ce6f-463b-a8ac-d3b62cbafefe"},"vehicle_type_id":"4","last_reported":1761325759,"current_range_meters":8800,"station_id":"ce4bhih2rcd13ifvqfr0","pricing_plan_id":"cebpf4jnsgd1na2vs0mg"},{"bike_id":"17320b81-9307-43da-825c-27350cdfab61","system_id":"levelo_inurba_marseille","lat":43.2418,"lon":5.39736,"is_reserved":false,"is_disabled":false,"rental_uris":{"android":"levelo://app?vid=17320b81-9307-43da-825c-27350cdfab61","ios":"levelo://app?vid=17320b81-9307-43da-825c-27350cdfab61"},"vehicle_type_id":"4","last_reported":1761325759,"current_range_meters":8800,"station_id":"ce4bhn12rcd13ifvqgpg","pricing_plan_id":"cebpf4jnsgd1na2vs0mg"},{"bike_id":"4b39174c-5820-4cb8-8ed4-e74eb97f33a6","system_id":"levelo_inurba_marseille","lat":43.217464,"lon":5.346031,"is_reserved":false,"is_disabled":false,"rental_uris":{"android":"levelo://app?vid=4b39174c-5820-4cb8-8ed4-e74eb97f33a6","ios":"levelo://app?vid=4b39174c-5820-4cb8-8ed4-e74eb97f33a6"},"vehicle_type_id":"4","last_reported":1761325759,"current_range_meters":9200,"station_id":"","pricing_plan_id":"cebpf4jnsgd1na2vs0mg"},{"bike_id":"f28dee8d-f84f-4b64-a5da-134740cf6015","system_id":"levelo_inurba_marseille","lat":43.29263,"lon":5.38437,"is_reserved":false,"is_disabled":false,"rental_uris":{"android":"levelo://app?vid=f28dee8d-f84f-4b64-a5da-134740cf6015","ios":"levelo://app?vid=f28dee8d-f84f-4b64-a5da-134740cf6015"},"vehicle_type_id":"4","last_reported":1761325759,"current_range_meters":9200,"station_id":"ce4bh692rcd13ifvqea0","pricing_plan_id":"cebpf4jnsgd1na2vs0mg"},{"bike_id":"d86b85be-d4bf-4437-b1f7-d6a351073e1b","system_id":"levelo_inurba_marseille","lat":43.29544,"lon":5.3941,"is_reserved":false,"is_disabled":false,"rental_uris":{"android":"levelo://app?vid=d86b85be-d4bf-4437-b1f7-d6a351073e1b","ios":"levelo://app?vid=d86b85be-d4bf-4437-b1f7-d6a351073e1b"},"vehicle_type_id":"4","last_reported":1761325759,"current_range_meters":9200,"station_id":"ce4bh292rcd13ifvqdf0","pricing_plan_id":"cebpf4jnsgd1na2vs0mg"},{"bike_id":"bf52d227-e2e6-4e46-bfde-44cbb96d7d45","system_id":"levelo_inurba_marseille","lat":43.21171,"lon":5.35086,"is_reserved":false,"is_disabled":false,"rental_uris":{"android":"levelo://app?vid=bf52d227-e2e6-4e46-bfde-44cbb96d7d45","ios":"levelo://app?vid=bf52d227-e2e6-4e46-bfde-44cbb96d7d45"},"vehicle_type_id":"4","last_reported":1761325759,"current_range_meters":9200,"station_id":"st_cvj6sg6p6f1abm77japg","pricing_plan_id":"cebpf4jnsgd1na2vs0mg"},{"bike_id":"c26d9b94-47e3-4f46-ab07-3ad930a1a72c","system_id":"levelo_inurba_marseille","lat":43.29663,"lon":5.37792,"is_reserved":false,"is_disabled":false,"rental_uris":{"android":"levelo://app?vid=c26d9b94-47e3-4f46-ab07-3ad930a1a72c","ios":"levelo://app?vid=c26d9b94-47e3-4f46-ab07-3ad930a1a72c"},"vehicle_type_id":"4","last_reported":1761325759,"current_range_meters":9200,"station_id":"","pricing_plan_id":"cebpf4jnsgd1na2vs0mg"},{"bike_id":"4b60dd46-ba01-4912-ae90-f3944d0fc6d3","system_id":"levelo_inurba_marseille","lat":43.28427,"lon":5.39202,"is_reserved":false,"is_disabled":false,"rental_uris":{"android":"levelo://app?vid=4b60dd46-ba01-4912-ae90-f3944d0fc6d3","ios":"levelo://app?vid=4b60dd46-ba01-4912-ae90-f3944d0fc6d3"},"vehicle_type_id":"4","last_reported":1761325759,"current_range_meters":9200,"station_id":"ce4bhoh2rcd13ifvqh5g","pricing_plan_id":"cebpf4jnsgd1na2vs0mg"},{"bike_id":"b2185bb6-dc61-4cbd-8aba-6f9bef7391c2","system_id":"levelo_inurba_marseille","lat":43.28441,"lon":5.39204,"is_reserved":false,"is_disabled":false,"rental_uris":{"android":"levelo://app?vid=b2185bb6-dc61-4cbd-8aba-6f9bef7391c2","ios":"levelo://app?vid=b2185bb6-dc61-4cbd-8aba-6f9bef7391c2"},"vehicle_type_id":"4","last_reported":1761325759,"current_range_meters":9200,"station_id":"ce4bhoh2rcd13ifvqh5g","pricing_plan_id":"cebpf4jnsgd1na2vs0mg"},{"bike_id":"18df7d7e-5c22-4e8f-8de7-2f9e21f3521d","system_id":"levelo_inurba_marseille","lat":43.29591,"lon":5.39607,"is_reserved":false,"is_disabled":false,"rental_uris":{"android":"levelo://app?vid=18df7d7e-5c22-4e8f-8de7-2f9e21f3521d","ios":"levelo://app?vid=18df7d7e-5c22-4e8f-8de7-2f9e21f3521d"},"vehicle_type_id":"4","last_reported":1761325759,"current_range_meters":9200,"station_id":"","pricing_plan_id":"cebpf4jnsgd1na2vs0mg"},{"bike_id":"517155ab-7caf-46ef-9405-1cb41e577f9c","system_id":"levelo_inurba_marseille","lat":43.28733,"lon":5.36078,"is_reserved":false,"is_disabled":false,"rental_uris":{"android":"levelo://app?vid=517155ab-7caf-46ef-9405-1cb41e577f9c","ios":"levelo://app?vid=517155ab-7caf-46ef-9405-1cb41e577f9c"},"vehicle_type_id":"4","last_reported":1761325759,"current_range_meters":9600,"station_id":"cki0cbj6b192h4jlfktg","pricing_plan_id":"cebpf4jnsgd1na2vs0mg"},{"bike_id":"a0777fc4-1ed0-4be5-bcf7-5b1685f8d163","system_id":"levelo_inurba_marseille","lat":43.28425,"lon":5.34981,"is_reserved":false,"is_disabled":false,"rental_uris":{"android":"levelo://app?vid=a0777fc4-1ed0-4be5-bcf7-5b1685f8d163","ios":"levelo://app?vid=a0777fc4-1ed0-4be5-bcf7-5b1685f8d163"},"vehicle_type_id":"4","last_reported":1761325759,"current_range_meters":9600,"station_id":"ce4bhbh2rcd13ifvqepg","pricing_plan_id":"cebpf4jnsgd1na2vs0mg"},{"bike_id":"7186ba6b-809d-4367-bb4d-b5d3a69008d2","system_id":"levelo_inurba_marseille","lat":43.296265,"lon":5.406008,"is_reserved":false,"is_disabled":false,"rental_uris":{"android":"levelo://app?vid=7186ba6b-809d-4367-bb4d-b5d3a69008d2","ios":"levelo://app?vid=7186ba6b-809d-4367-bb4d-b5d3a69008d2"},"vehicle_type_id":"4","last_reported":1761325759,"current_range_meters":9600,"station_id":"ce4bh0h2rcd13ifvqd60","pricing_plan_id":"cebpf4jnsgd1na2vs0mg"},{"bike_id":"e7e67831-c6a8-4c79-a1af-d174bf49afa1","system_id":"levelo_inurba_marseille","lat":43.29803,"lon":5.38101,"is_reserved":false,"is_disabled":false,"rental_uris":{"android":"levelo://app?vid=e7e67831-c6a8-4c79-a1af-d174bf49afa1","ios":"levelo://app?vid=e7e67831-c6a8-4c79-a1af-d174bf49afa1"},"vehicle_type_id":"4","last_reported":1761325759,"current_range_meters":10000,"station_id":"ce4bgip2rcd13ifvqbb0","pricing_plan_id":"cebpf4jnsgd1na2vs0mg"},{"bike_id":"4888196c-7a6f-4938-9596-b859a2aab1c2","system_id":"levelo_inurba_marseille","lat":43.29856,"lon":5.36273,"is_reserved":false,"is_disabled":false,"rental_uris":{"android":"levelo://app?vid=4888196c-7a6f-4938-9596-b859a2aab1c2","ios":"levelo://app?vid=4888196c-7a6f-4938-9596-b859a2aab1c2"},"vehicle_type_id":"4","last_reported":1761325759,"current_range_meters":10000,"station_id":"ce4bgpp2rcd13ifvqc3g","pricing_plan_id":"cebpf4jnsgd1na2vs0mg"},{"bike_id":"3ce143eb-b285-40ae-a41f-1a7d6206d959","system_id":"levelo_inurba_marseille","lat":43.29531,"lon":5.38544,"is_reserved":false,"is_disabled":false,"rental_uris":{"android":"levelo://app?vid=3ce143eb-b285-40ae-a41f-1a7d6206d959","ios":"levelo://app?vid=3ce143eb-b285-40ae-a41f-1a7d6206d959"},"vehicle_type_id":"4","last_reported":1761325759,"current_range_meters":10000,"station_id":"ce4bgih2rcd13ifvqba0","pricing_plan_id":"cebpf4jnsgd1na2vs0mg"},{"bike_id":"6af84d24-ca60-4473-b6bc-2cd99d3e1f5b","system_id":"levelo_inurba_marseille","lat":43.258127,"lon":5.394382,"is_reserved":false,"is_disabled":false,"rental_uris":{"android":"levelo://app?vid=6af84d24-ca60-4473-b6bc-2cd99d3e1f5b","ios":"levelo://app?vid=6af84d24-ca60-4473-b6bc-2cd99d3e1f5b"},"vehicle_type_id":"4","last_reported":1761325759,"current_range_meters":10000,"station_id":"ce4bhip2rcd13ifvqft0","pricing_plan_id":"cebpf4jnsgd1na2vs0mg"},{"bike_id":"22685e26-8737-40e0-bcf3-1bc4e6d72182","system_id":"levelo_inurba_marseille","lat":43.29586,"lon":5.38101,"is_reserved":false,"is_disabled":false,"rental_uris":{"android":"levelo://app?vid=22685e26-8737-40e0-bcf3-1bc4e6d72182","ios":"levelo://app?vid=22685e26-8737-40e0-bcf3-1bc4e6d72182"},"vehicle_type_id":"4","last_reported":1761325759,"current_range_meters":10000,"station_id":"ce4bgl12rcd13ifvqbo0","pricing_plan_id":"cebpf4jnsgd1na2vs0mg"},{"bike_id":"8bcacd78-80de-4026-af75-b37ebe3030fe","system_id":"levelo_inurba_marseille","lat":43.334756,"lon":5.404255,"is_reserved":false,"is_disabled":false,"rental_uris":{"android":"levelo://app?vid=8bcacd78-80de-4026-af75-b37ebe3030fe","ios":"levelo://app?vid=8bcacd78-80de-4026-af75-b37ebe3030fe"},"vehicle_type_id":"4","last_reported":1761325759,"current_range_meters":10000,"station_id":"","pricing_plan_id":"cebpf4jnsgd1na2vs0mg"},{"bike_id":"17bd9fff-f8a7-45af-8120-cab272292f42","system_id":"levelo_inurba_marseille","lat":43.28481,"lon":5.48395,"is_reserved":false,"is_disabled":false,"rental_uris":{"android":"levelo://app?vid=17bd9fff-f8a7-45af-8120-cab272292f42","ios":"levelo://app?vid=17bd9fff-f8a7-45af-8120-cab272292f42"},"vehicle_type_id":"4","last_reported":1761325759,"current_range_meters":10000,"station_id":"st_d3svhcjqgbts73a3dn0g","pricing_plan_id":"cebpf4jnsgd1na2vs0mg"},{"bike_id":"9881c788-42a8-46f5-8ccc-580a73583155","system_id":"levelo_inurba_marseille","lat":43.32097,"lon":5.40927,"is_reserved":false,"is_disabled":true,"rental_uris":{"android":"levelo://app?vid=9881c788-42a8-46f5-8ccc-580a73583155","ios":"levelo://app?vid=9881c788-42a8-46f5-8ccc-580a73583155"},"vehicle_type_id":"4","last_reported":1761325759,"current_range_meters":10000,"station_id":"","pricing_plan_id":"cebpf4jnsgd1na2vs0mg"},{"bike_id":"64721207-a94f-4b4f-85f8-53b4b3103432","system_id":"levelo_inurba_marseille","lat":43.29965,"lon":5.38498,"is_reserved":false,"is_disabled":false,"rental_uris":{"android":"levelo://app?vid=64721207-a94f-4b4f-85f8-53b4b3103432","ios":"levelo://app?vid=64721207-a94f-4b4f-85f8-53b4b3103432"},"vehicle_type_id":"4","last_reported":1761325759,"current_range_meters":10000,"station_id":"ce4bgj92rcd13ifvqbd0","pricing_plan_id":"cebpf4jnsgd1na2vs0mg"},{"bike_id":"b72a061c-182a-47e0-abeb-a52af4f09465","system_id":"levelo_inurba_marseille","lat":43.25328,"lon":5.42173,"is_reserved":false,"is_disabled":false,"rental_uris":{"android":"levelo://app?vid=b72a061c-182a-47e0-abeb-a52af4f09465","ios":"levelo://app?vid=b72a061c-182a-47e0-abeb-a52af4f09465"},"vehicle_type_id":"4","last_reported":1761325759,"current_range_meters":10000,"station_id":"st_d2m65c5bi1j21697t3ng","pricing_plan_id":"cebpf4jnsgd1na2vs0mg"},{"bike_id":"32b55abf-f9d4-4b54-bed6-d3f62f7fb59a","system_id":"levelo_inurba_marseille","lat":43.30984,"lon":5.389981,"is_reserved":false,"is_disabled":false,"rental_uris":{"android":"levelo://app?vid=32b55abf-f9d4-4b54-bed6-d3f62f7fb59a","ios":"levelo://app?vid=32b55abf-f9d4-4b54-bed6-d3f62f7fb59a"},"vehicle_type_id":"4","last_reported":1761325759,"current_range_meters":10800,"station_id":"ce4bgup2rcd13ifvqco0","pricing_plan_id":"cebpf4jnsgd1na2vs0mg"},{"bike_id":"ed1f71f1-9776-45c3-b8dc-63e2e3db0000","system_id":"levelo_inurba_marseille","lat":43.25586,"lon":5.38238,"is_reserved":false,"is_disabled":false,"rental_uris":{"android":"levelo://app?vid=ed1f71f1-9776-45c3-b8dc-63e2e3db0000","ios":"levelo://app?vid=ed1f71f1-9776-45c3-b8dc-63e2e3db0000"},"vehicle_type_id":"4","last_reported":1761325759,"current_range_meters":10800,"station_id":"ce4bhih2rcd13ifvqfs0","pricing_plan_id":"cebpf4jnsgd1na2vs0mg"},{"bike_id":"fc0675a0-27af-412d-9f7b-bb7563693ca3","system_id":"levelo_inurba_marseille","lat":43.24173,"lon":5.39729,"is_reserved":false,"is_disabled":false,"rental_uris":{"android":"levelo://app?vid=fc0675a0-27af-412d-9f7b-bb7563693ca3","ios":"levelo://app?vid=fc0675a0-27af-412d-9f7b-bb7563693ca3"},"vehicle_type_id":"4","last_reported":1761325759,"current_range_meters":10800,"station_id":"ce4bhn12rcd13ifvqgpg","pricing_plan_id":"cebpf4jnsgd1na2vs0mg"},{"bike_id":"8fd11d96-4284-4b70-b076-7d1acf0fddef","system_id":"levelo_inurba_marseille","lat":43.29221,"lon":5.36061,"is_reserved":false,"is_disabled":false,"rental_uris":{"android":"levelo://app?vid=8fd11d96-4284-4b70-b076-7d1acf0fddef","ios":"levelo://app?vid=8fd11d96-4284-4b70-b076-7d1acf0fddef"},"vehicle_type_id":"4","last_reported":1761325759,"current_range_meters":10800,"station_id":"ce4bhbh2rcd13ifvqeqg","pricing_plan_id":"cebpf4jnsgd1na2vs0mg"},{"bike_id":"b9764ed2-f91a-421e-b54e-d7527bd8af22","system_id":"levelo_inurba_marseille","lat":43.29811,"lon":5.36588,"is_reserved":false,"is_disabled":false,"rental_uris":{"android":"levelo://app?vid=b9764ed2-f91a-421e-b54e-d7527bd8af22","ios":"levelo://app?vid=b9764ed2-f91a-421e-b54e-d7527bd8af22"},"vehicle_type_id":"4","last_reported":1761325759,"current_range_meters":10800,"station_id":"","pricing_plan_id":"cebpf4jnsgd1na2vs0mg"},{"bike_id":"7b584194-ee03-4a8f-b25f-0d195f62e513","system_id":"levelo_inurba_marseille","lat":43.295289,"lon":5.385403,"is_reserved":false,"is_disabled":false,"rental_uris":{"android":"levelo://app?vid=7b584194-ee03-4a8f-b25f-0d195f62e513","ios":"levelo://app?vid=7b584194-ee03-4a8f-b25f-0d195f62e513"},"vehicle_type_id":"4","last_reported":1761325759,"current_range_meters":10800,"station_id":"ce4bgih2rcd13ifvqba0","pricing_plan_id":"cebpf4jnsgd1na2vs0mg"},{"bike_id":"2842f5fd-7b05-4b47-909c-5ee54d7d3bc5","system_id":"levelo_inurba_marseille","lat":43.324474,"lon":5.428169,"is_reserved":false,"is_disabled":false,"rental_uris":{"android":"levelo://app?vid=2842f5fd-7b05-4b47-909c-5ee54d7d3bc5","ios":"levelo://app?vid=2842f5fd-7b05-4b47-909c-5ee54d7d3bc5"},"vehicle_type_id":"4","last_reported":1761325759,"current_range_meters":10800,"station_id":"","pricing_plan_id":"cebpf4jnsgd1na2vs0mg"},{"bike_id":"73493bb5-c003-4596-8e20-c81a39168a0f","system_id":"levelo_inurba_marseille","lat":43.281082,"lon":5.378395,"is_reserved":false,"is_disabled":false,"rental_uris":{"android":"levelo://app?vid=73493bb5-c003-4596-8e20-c81a39168a0f","ios":"levelo://app?vid=73493bb5-c003-4596-8e20-c81a39168a0f"},"vehicle_type_id":"4","last_reported":1761325759,"current_range_meters":10800,"station_id":"ce4bha12rcd13ifvqee0","pricing_plan_id":"cebpf4jnsgd1na2vs0mg"},{"bike_id":"402a87fe-90e6-4a6d-86db-b99fca0b21f1","system_id":"levelo_inurba_marseille","lat":43.21764,"lon":5.34591,"is_reserved":false,"is_disabled":false,"rental_uris":{"android":"levelo://app?vid=402a87fe-90e6-4a6d-86db-b99fca0b21f1","ios":"levelo://app?vid=402a87fe-90e6-4a6d-86db-b99fca0b21f1"},"vehicle_type_id":"4","last_reported":1761325759,"current_range_meters":10800,"station_id":"st_cvj6r9ubvosntc0bgbag","pricing_plan_id":"cebpf4jnsgd1na2vs0mg"},{"bike_id":"d3cd6432-7c9e-457b-8cb5-53cf95916f4e","system_id":"levelo_inurba_marseille","lat":43.241613,"lon":5.364054,"is_reserved":false,"is_disabled":false,"rental_uris":{"android":"levelo://app?vid=d3cd6432-7c9e-457b-8cb5-53cf95916f4e","ios":"levelo://app?vid=d3cd6432-7c9e-457b-8cb5-53cf95916f4e"},"vehicle_type_id":"4","last_reported":1761325759,"current_range_meters":10800,"station_id":"ce4bhb12rcd13ifvqel0","pricing_plan_id":"cebpf4jnsgd1na2vs0mg"},{"bike_id":"41d1e9c8-193a-4e64-a1f0-b7037202749b","system_id":"levelo_inurba_marseille","lat":43.30128,"lon":5.37406,"is_reserved":false,"is_disabled":true,"rental_uris":{"android":"levelo://app?vid=41d1e9c8-193a-4e64-a1f0-b7037202749b","ios":"levelo://app?vid=41d1e9c8-193a-4e64-a1f0-b7037202749b"},"vehicle_type_id":"4","last_reported":1761325759,"current_range_meters":10800,"station_id":"ce4bgs92rcd13ifvqcc0","pricing_plan_id":"cebpf4jnsgd1na2vs0mg"},{"bike_id":"11f85f26-b7d2-4f6c-b0b2-a88161abba04","system_id":"levelo_inurba_marseille","lat":43.28792,"lon":5.38832,"is_reserved":false,"is_disabled":false,"rental_uris":{"android":"levelo://app?vid=11f85f26-b7d2-4f6c-b0b2-a88161abba04","ios":"levelo://app?vid=11f85f26-b7d2-4f6c-b0b2-a88161abba04"},"vehicle_type_id":"4","last_reported":1761325759,"current_range_meters":10800,"station_id":"","pricing_plan_id":"cebpf4jnsgd1na2vs0mg"},{"bike_id":"859d9be5-bb34-4cf9-837a-44255e5508db","system_id":"levelo_inurba_marseille","lat":43.24806,"lon":5.37456,"is_reserved":false,"is_disabled":false,"rental_uris":{"android":"levelo://app?vid=859d9be5-bb34-4cf9-837a-44255e5508db","ios":"levelo://app?vid=859d9be5-bb34-4cf9-837a-44255e5508db"},"vehicle_type_id":"4","last_reported":1761325759,"current_range_meters":11200,"station_id":"ce4bhgh2rcd13ifvqfb0","pricing_plan_id":"cebpf4jnsgd1na2vs0mg"},{"bike_id":"e97b714e-f5cd-4f0a-9180-117be40830be","system_id":"levelo_inurba_marseille","lat":43.29529,"lon":5.38538,"is_reserved":false,"is_disabled":false,"rental_uris":{"android":"levelo://app?vid=e97b714e-f5cd-4f0a-9180-117be40830be","ios":"levelo://app?vid=e97b714e-f5cd-4f0a-9180-117be40830be"},"vehicle_type_id":"4","last_reported":1761325759,"current_range_meters":11200,"station_id":"ce4bgih2rcd13ifvqba0","pricing_plan_id":"cebpf4jnsgd1na2vs0mg"},{"bike_id":"ccc8542b-ad47-4e2d-b481-c0df159d52a3","system_id":"levelo_inurba_marseille","lat":43.30949,"lon":5.39029,"is_reserved":false,"is_disabled":false,"rental_uris":{"android":"levelo://app?vid=ccc8542b-ad47-4e2d-b481-c0df159d52a3","ios":"levelo://app?vid=ccc8542b-ad47-4e2d-b481-c0df159d52a3"},"vehicle_type_id":"4","last_reported":1761325759,"current_range_meters":11200,"station_id":"ce4bgup2rcd13ifvqco0","pricing_plan_id":"cebpf4jnsgd1na2vs0mg"},{"bike_id":"e53a3607-efda-4685-a5e3-bbe81ebfbcda","system_id":"levelo_inurba_marseille","lat":43.29877,"lon":5.39743,"is_reserved":false,"is_disabled":false,"rental_uris":{"android":"levelo://app?vid=e53a3607-efda-4685-a5e3-bbe81ebfbcda","ios":"levelo://app?vid=e53a3607-efda-4685-a5e3-bbe81ebfbcda"},"vehicle_type_id":"4","last_reported":1761325759,"current_range_meters":11200,"station_id":"ce4bh0h2rcd13ifvqd50","pricing_plan_id":"cebpf4jnsgd1na2vs0mg"},{"bike_id":"0860ce5d-8d1e-4361-a3c6-b5bc3bbd5b30","system_id":"levelo_inurba_marseille","lat":43.27946,"lon":5.41049,"is_reserved":false,"is_disabled":false,"rental_uris":{"android":"levelo://app?vid=0860ce5d-8d1e-4361-a3c6-b5bc3bbd5b30","ios":"levelo://app?vid=0860ce5d-8d1e-4361-a3c6-b5bc3bbd5b30"},"vehicle_type_id":"4","last_reported":1761325759,"current_range_meters":11600,"station_id":"ce4bhnp2rcd13ifvqh0g","pricing_plan_id":"cebpf4jnsgd1na2vs0mg"},{"bike_id":"f6d266a7-a31a-4b27-baaf-d173589b3916","system_id":"levelo_inurba_marseille","lat":43.32283,"lon":5.38277,"is_reserved":false,"is_disabled":false,"rental_uris":{"android":"levelo://app?vid=f6d266a7-a31a-4b27-baaf-d173589b3916","ios":"levelo://app?vid=f6d266a7-a31a-4b27-baaf-d173589b3916"},"vehicle_type_id":"4","last_reported":1761325759,"current_range_meters":11600,"station_id":"ce4bhr12rcd13ifvqhqg","pricing_plan_id":"cebpf4jnsgd1na2vs0mg"},{"bike_id":"db94d1e3-d6ad-4bc0-b456-0d49f128a641","system_id":"levelo_inurba_marseille","lat":43.30212,"lon":5.37137,"is_reserved":false,"is_disabled":false,"rental_uris":{"android":"levelo://app?vid=db94d1e3-d6ad-4bc0-b456-0d49f128a641","ios":"levelo://app?vid=db94d1e3-d6ad-4bc0-b456-0d49f128a641"},"vehicle_type_id":"4","last_reported":1761325759,"current_range_meters":11600,"station_id":"","pricing_plan_id":"cebpf4jnsgd1na2vs0mg"},{"bike_id":"c331033f-bc76-4552-9b2b-66eae6ffb970","system_id":"levelo_inurba_marseille","lat":43.30526,"lon":5.36696,"is_reserved":false,"is_disabled":false,"rental_uris":{"android":"levelo://app?vid=c331033f-bc76-4552-9b2b-66eae6ffb970","ios":"levelo://app?vid=c331033f-bc76-4552-9b2b-66eae6ffb970"},"vehicle_type_id":"4","last_reported":1761325759,"current_range_meters":11600,"station_id":"ce4bgrp2rcd13ifvqc9g","pricing_plan_id":"cebpf4jnsgd1na2vs0mg"},{"bike_id":"49205a8f-4198-4c0b-b7d7-97a9473705ce","system_id":"levelo_inurba_marseille","lat":43.32092,"lon":5.36774,"is_reserved":false,"is_disabled":false,"rental_uris":{"android":"levelo://app?vid=49205a8f-4198-4c0b-b7d7-97a9473705ce","ios":"levelo://app?vid=49205a8f-4198-4c0b-b7d7-97a9473705ce"},"vehicle_type_id":"4","last_reported":1761325759,"current_range_meters":11600,"station_id":"ce4bhrh2rcd13ifvqhug","pricing_plan_id":"cebpf4jnsgd1na2vs0mg"},{"bike_id":"9a0c2c2f-41b7-409e-98ef-768284a17aef","system_id":"levelo_inurba_marseille","lat":43.291827,"lon":5.371579,"is_reserved":false,"is_disabled":false,"rental_uris":{"android":"levelo://app?vid=9a0c2c2f-41b7-409e-98ef-768284a17aef","ios":"levelo://app?vid=9a0c2c2f-41b7-409e-98ef-768284a17aef"},"vehicle_type_id":"4","last_reported":1761325759,"current_range_meters":11600,"station_id":"ce4bha92rcd13ifvqeh0","pricing_plan_id":"cebpf4jnsgd1na2vs0mg"},{"bike_id":"29a4bf06-c3d7-4d11-8cc5-8abdfc94850d","system_id":"levelo_inurba_marseille","lat":43.261996,"lon":5.379351,"is_reserved":false,"is_disabled":false,"rental_uris":{"android":"levelo://app?vid=29a4bf06-c3d7-4d11-8cc5-8abdfc94850d","ios":"levelo://app?vid=29a4bf06-c3d7-4d11-8cc5-8abdfc94850d"},"vehicle_type_id":"4","last_reported":1761325759,"current_range_meters":12000,"station_id":"ce4bhjp2rcd13ifvqg90","pricing_plan_id":"cebpf4jnsgd1na2vs0mg"},{"bike_id":"3ea860b0-bcc7-4174-8003-dcebcf1c1d38","system_id":"levelo_inurba_marseille","lat":43.28114,"lon":5.43212,"is_reserved":false,"is_disabled":false,"rental_uris":{"android":"levelo://app?vid=3ea860b0-bcc7-4174-8003-dcebcf1c1d38","ios":"levelo://app?vid=3ea860b0-bcc7-4174-8003-dcebcf1c1d38"},"vehicle_type_id":"4","last_reported":1761325759,"current_range_meters":12000,"station_id":"","pricing_plan_id":"cebpf4jnsgd1na2vs0mg"},{"bike_id":"2e516aa3-da3f-4cd4-8d7a-1dc8bf5d8ddd","system_id":"levelo_inurba_marseille","lat":43.32126,"lon":5.36759,"is_reserved":false,"is_disabled":false,"rental_uris":{"android":"levelo://app?vid=2e516aa3-da3f-4cd4-8d7a-1dc8bf5d8ddd","ios":"levelo://app?vid=2e516aa3-da3f-4cd4-8d7a-1dc8bf5d8ddd"},"vehicle_type_id":"4","last_reported":1761325759,"current_range_meters":12000,"station_id":"ce4bhrh2rcd13ifvqhug","pricing_plan_id":"cebpf4jnsgd1na2vs0mg"},{"bike_id":"3ab510cf-47f2-48e8-a2ce-21bd0b6e2cd7","system_id":"levelo_inurba_marseille","lat":43.29865,"lon":5.40787,"is_reserved":false,"is_disabled":false,"rental_uris":{"android":"levelo://app?vid=3ab510cf-47f2-48e8-a2ce-21bd0b6e2cd7","ios":"levelo://app?vid=3ab510cf-47f2-48e8-a2ce-21bd0b6e2cd7"},"vehicle_type_id":"4","last_reported":1761325759,"current_range_meters":12000,"station_id":"","pricing_plan_id":"cebpf4jnsgd1na2vs0mg"},{"bike_id":"e35e1247-2ec0-4206-a360-6aaa534a130f","system_id":"levelo_inurba_marseille","lat":43.28479,"lon":5.48399,"is_reserved":false,"is_disabled":false,"rental_uris":{"android":"levelo://app?vid=e35e1247-2ec0-4206-a360-6aaa534a130f","ios":"levelo://app?vid=e35e1247-2ec0-4206-a360-6aaa534a130f"},"vehicle_type_id":"4","last_reported":1761325759,"current_range_meters":12000,"station_id":"st_d3svhcjqgbts73a3dn0g","pricing_plan_id":"cebpf4jnsgd1na2vs0mg"},{"bike_id":"38b27864-dc7a-4795-8775-37cc5e9bef8d","system_id":"levelo_inurba_marseille","lat":43.290048,"lon":5.356187,"is_reserved":false,"is_disabled":false,"rental_uris":{"android":"levelo://app?vid=38b27864-dc7a-4795-8775-37cc5e9bef8d","ios":"levelo://app?vid=38b27864-dc7a-4795-8775-37cc5e9bef8d"},"vehicle_type_id":"4","last_reported":1761325759,"current_range_meters":12000,"station_id":"ce4bhb92rcd13ifvqen0","pricing_plan_id":"cebpf4jnsgd1na2vs0mg"},{"bike_id":"ccb140cc-61af-460c-9c74-9b118e13b00f","system_id":"levelo_inurba_marseille","lat":43.25339,"lon":5.42164,"is_reserved":false,"is_disabled":false,"rental_uris":{"android":"levelo://app?vid=ccb140cc-61af-460c-9c74-9b118e13b00f","ios":"levelo://app?vid=ccb140cc-61af-460c-9c74-9b118e13b00f"},"vehicle_type_id":"4","last_reported":1761325759,"current_range_meters":12400,"station_id":"st_d2m65c5bi1j21697t3ng","pricing_plan_id":"cebpf4jnsgd1na2vs0mg"},{"bike_id":"0e9f5962-02c7-4f98-9226-48a9874138c8","system_id":"levelo_inurba_marseille","lat":43.29522,"lon":5.39041,"is_reserved":false,"is_disabled":false,"rental_uris":{"android":"levelo://app?vid=0e9f5962-02c7-4f98-9226-48a9874138c8","ios":"levelo://app?vid=0e9f5962-02c7-4f98-9226-48a9874138c8"},"vehicle_type_id":"4","last_reported":1761325759,"current_range_meters":12400,"station_id":"ce4bh3p2rcd13ifvqdp0","pricing_plan_id":"cebpf4jnsgd1na2vs0mg"},{"bike_id":"27b4ecaf-9a2a-4b64-8f23-13c0ef53db81","system_id":"levelo_inurba_marseille","lat":43.28449,"lon":5.39209,"is_reserved":false,"is_disabled":false,"rental_uris":{"android":"levelo://app?vid=27b4ecaf-9a2a-4b64-8f23-13c0ef53db81","ios":"levelo://app?vid=27b4ecaf-9a2a-4b64-8f23-13c0ef53db81"},"vehicle_type_id":"4","last_reported":1761325759,"current_range_meters":12400,"station_id":"ce4bhoh2rcd13ifvqh5g","pricing_plan_id":"cebpf4jnsgd1na2vs0mg"},{"bike_id":"de4b8ab5-285e-474a-b521-72ccb626a9fe","system_id":"levelo_inurba_marseille","lat":43.32246,"lon":5.38357,"is_reserved":false,"is_disabled":false,"rental_uris":{"android":"levelo://app?vid=de4b8ab5-285e-474a-b521-72ccb626a9fe","ios":"levelo://app?vid=de4b8ab5-285e-474a-b521-72ccb626a9fe"},"vehicle_type_id":"4","last_reported":1761325759,"current_range_meters":12800,"station_id":"ce4bhr12rcd13ifvqhqg","pricing_plan_id":"cebpf4jnsgd1na2vs0mg"},{"bike_id":"f8c755d7-1bb8-4fcd-bb3f-74aeb49951cc","system_id":"levelo_inurba_marseille","lat":43.313737,"lon":5.379015,"is_reserved":false,"is_disabled":false,"rental_uris":{"android":"levelo://app?vid=f8c755d7-1bb8-4fcd-bb3f-74aeb49951cc","ios":"levelo://app?vid=f8c755d7-1bb8-4fcd-bb3f-74aeb49951cc"},"vehicle_type_id":"4","last_reported":1761325759,"current_range_meters":12800,"station_id":"","pricing_plan_id":"cebpf4jnsgd1na2vs0mg"},{"bike_id":"76790295-0b81-4e4e-9ae6-15cdf159f1b0","system_id":"levelo_inurba_marseille","lat":43.31119,"lon":5.37778,"is_reserved":false,"is_disabled":false,"rental_uris":{"android":"levelo://app?vid=76790295-0b81-4e4e-9ae6-15cdf159f1b0","ios":"levelo://app?vid=76790295-0b81-4e4e-9ae6-15cdf159f1b0"},"vehicle_type_id":"4","last_reported":1761325759,"current_range_meters":12800,"station_id":"ce4bgt92rcd13ifvqcg0","pricing_plan_id":"cebpf4jnsgd1na2vs0mg"},{"bike_id":"13c415fd-1a36-46f8-bf4b-85eca2d3ea6b","system_id":"levelo_inurba_marseille","lat":43.2979,"lon":5.39335,"is_reserved":false,"is_disabled":false,"rental_uris":{"android":"levelo://app?vid=13c415fd-1a36-46f8-bf4b-85eca2d3ea6b","ios":"levelo://app?vid=13c415fd-1a36-46f8-bf4b-85eca2d3ea6b"},"vehicle_type_id":"4","last_reported":1761325759,"current_range_meters":12800,"station_id":"chh1huq6cuj3fo74tm60","pricing_plan_id":"cebpf4jnsgd1na2vs0mg"},{"bike_id":"bc579e35-1778-4aab-917e-a6b4b94e9d71","system_id":"levelo_inurba_marseille","lat":43.3014,"lon":5.38783,"is_reserved":false,"is_disabled":false,"rental_uris":{"android":"levelo://app?vid=bc579e35-1778-4aab-917e-a6b4b94e9d71","ios":"levelo://app?vid=bc579e35-1778-4aab-917e-a6b4b94e9d71"},"vehicle_type_id":"4","last_reported":1761325759,"current_range_meters":13600,"station_id":"ce4bghh2rcd13ifvqb60","pricing_plan_id":"cebpf4jnsgd1na2vs0mg"},{"bike_id":"cb1d53e5-43e8-4d61-a867-8bb883d3113f","system_id":"levelo_inurba_marseille","lat":43.21192,"lon":5.35075,"is_reserved":false,"is_disabled":false,"rental_uris":{"android":"levelo://app?vid=cb1d53e5-43e8-4d61-a867-8bb883d3113f","ios":"levelo://app?vid=cb1d53e5-43e8-4d61-a867-8bb883d3113f"},"vehicle_type_id":"4","last_reported":1761325759,"current_range_meters":13600,"station_id":"st_cvj6sg6p6f1abm77japg","pricing_plan_id":"cebpf4jnsgd1na2vs0mg"},{"bike_id":"8be6a47c-9542-4fed-8109-f6d91a0f2b3f","system_id":"levelo_inurba_marseille","lat":43.2923,"lon":5.37152,"is_reserved":false,"is_disabled":false,"rental_uris":{"android":"levelo://app?vid=8be6a47c-9542-4fed-8109-f6d91a0f2b3f","ios":"levelo://app?vid=8be6a47c-9542-4fed-8109-f6d91a0f2b3f"},"vehicle_type_id":"4","last_reported":1761325759,"current_range_meters":13600,"station_id":"","pricing_plan_id":"cebpf4jnsgd1na2vs0mg"},{"bike_id":"e1f0a671-9be4-4e0b-a3c5-31f7920bac07","system_id":"levelo_inurba_marseille","lat":43.295359,"lon":5.391348,"is_reserved":false,"is_disabled":false,"rental_uris":{"android":"levelo://app?vid=e1f0a671-9be4-4e0b-a3c5-31f7920bac07","ios":"levelo://app?vid=e1f0a671-9be4-4e0b-a3c5-31f7920bac07"},"vehicle_type_id":"4","last_reported":1761325759,"current_range_meters":13600,"station_id":"ce4bh3p2rcd13ifvqdp0","pricing_plan_id":"cebpf4jnsgd1na2vs0mg"},{"bike_id":"6b307c52-f33b-4885-85a6-9bac6592bb3d","system_id":"levelo_inurba_marseille","lat":43.211949,"lon":5.350787,"is_reserved":false,"is_disabled":false,"rental_uris":{"android":"levelo://app?vid=6b307c52-f33b-4885-85a6-9bac6592bb3d","ios":"levelo://app?vid=6b307c52-f33b-4885-85a6-9bac6592bb3d"},"vehicle_type_id":"4","last_reported":1761325759,"current_range_meters":13600,"station_id":"st_cvj6sg6p6f1abm77japg","pricing_plan_id":"cebpf4jnsgd1na2vs0mg"},{"bike_id":"f3a74b95-f9a1-4bf8-b638-8014c693b6d2","system_id":"levelo_inurba_marseille","lat":43.26493,"lon":5.39543,"is_reserved":false,"is_disabled":false,"rental_uris":{"android":"levelo://app?vid=f3a74b95-f9a1-4bf8-b638-8014c693b6d2","ios":"levelo://app?vid=f3a74b95-f9a1-4bf8-b638-8014c693b6d2"},"vehicle_type_id":"4","last_reported":1761325759,"current_range_meters":13600,"station_id":"ce4bhi12rcd13ifvqfq0","pricing_plan_id":"cebpf4jnsgd1na2vs0mg"},{"bike_id":"45cf7000-f8d7-4cef-a789-47fdd7bb07f2","system_id":"levelo_inurba_marseille","lat":43.33026,"lon":5.39038,"is_reserved":false,"is_disabled":false,"rental_uris":{"android":"levelo://app?vid=45cf7000-f8d7-4cef-a789-47fdd7bb07f2","ios":"levelo://app?vid=45cf7000-f8d7-4cef-a789-47fdd7bb07f2"},"vehicle_type_id":"4","last_reported":1761325759,"current_range_meters":13600,"station_id":"ce4bhr92rcd13ifvqhrg","pricing_plan_id":"cebpf4jnsgd1na2vs0mg"},{"bike_id":"b4dddf5f-0570-43b5-9c77-69d0d39a0ed9","system_id":"levelo_inurba_marseille","lat":43.27911,"lon":5.38022,"is_reserved":false,"is_disabled":false,"rental_uris":{"android":"levelo://app?vid=b4dddf5f-0570-43b5-9c77-69d0d39a0ed9","ios":"levelo://app?vid=b4dddf5f-0570-43b5-9c77-69d0d39a0ed9"},"vehicle_type_id":"4","last_reported":1761325759,"current_range_meters":14000,"station_id":"ce4bhf92rcd13ifvqf50","pricing_plan_id":"cebpf4jnsgd1na2vs0mg"},{"bike_id":"63ac45e5-8712-423c-a0c2-cd035b600ea8","system_id":"levelo_inurba_marseille","lat":43.32041,"lon":5.41543,"is_reserved":false,"is_disabled":false,"rental_uris":{"android":"levelo://app?vid=63ac45e5-8712-423c-a0c2-cd035b600ea8","ios":"levelo://app?vid=63ac45e5-8712-423c-a0c2-cd035b600ea8"},"vehicle_type_id":"4","last_reported":1761325759,"current_range_meters":14000,"station_id":"ce4bhq92rcd13ifvqhkg","pricing_plan_id":"cebpf4jnsgd1na2vs0mg"},{"bike_id":"73019415-679c-46df-bd2d-1b42534d9724","system_id":"levelo_inurba_marseille","lat":43.26423,"lon":5.373823,"is_reserved":false,"is_disabled":false,"rental_uris":{"android":"levelo://app?vid=73019415-679c-46df-bd2d-1b42534d9724","ios":"levelo://app?vid=73019415-679c-46df-bd2d-1b42534d9724"},"vehicle_type_id":"4","last_reported":1761325759,"current_range_meters":14000,"station_id":"","pricing_plan_id":"cebpf4jnsgd1na2vs0mg"},{"bike_id":"4a3e9186-263c-425a-bbdc-ac9f414dd1fd","system_id":"levelo_inurba_marseille","lat":43.27912,"lon":5.38008,"is_reserved":false,"is_disabled":false,"rental_uris":{"android":"levelo://app?vid=4a3e9186-263c-425a-bbdc-ac9f414dd1fd","ios":"levelo://app?vid=4a3e9186-263c-425a-bbdc-ac9f414dd1fd"},"vehicle_type_id":"4","last_reported":1761325759,"current_range_meters":14000,"station_id":"ce4bhf92rcd13ifvqf50","pricing_plan_id":"cebpf4jnsgd1na2vs0mg"},{"bike_id":"f86cc744-d9c4-4120-b0d1-b620da5ae7a3","system_id":"levelo_inurba_marseille","lat":43.300436,"lon":5.365905,"is_reserved":false,"is_disabled":false,"rental_uris":{"android":"levelo://app?vid=f86cc744-d9c4-4120-b0d1-b620da5ae7a3","ios":"levelo://app?vid=f86cc744-d9c4-4120-b0d1-b620da5ae7a3"},"vehicle_type_id":"4","last_reported":1761325759,"current_range_meters":14000,"station_id":"ce4bgm92rcd13ifvqbr0","pricing_plan_id":"cebpf4jnsgd1na2vs0mg"},{"bike_id":"4362eff2-d099-4efd-8ba2-9ea2abd70a75","system_id":"levelo_inurba_marseille","lat":43.29549,"lon":5.38542,"is_reserved":false,"is_disabled":false,"rental_uris":{"android":"levelo://app?vid=4362eff2-d099-4efd-8ba2-9ea2abd70a75","ios":"levelo://app?vid=4362eff2-d099-4efd-8ba2-9ea2abd70a75"},"vehicle_type_id":"4","last_reported":1761325759,"current_range_meters":14400,"station_id":"ce4bgih2rcd13ifvqba0","pricing_plan_id":"cebpf4jnsgd1na2vs0mg"},{"bike_id":"8a119c37-bfb0-41bc-a739-726e815445cb","system_id":"levelo_inurba_marseille","lat":43.304861,"lon":5.379389,"is_reserved":false,"is_disabled":false,"rental_uris":{"android":"levelo://app?vid=8a119c37-bfb0-41bc-a739-726e815445cb","ios":"levelo://app?vid=8a119c37-bfb0-41bc-a739-726e815445cb"},"vehicle_type_id":"4","last_reported":1761325759,"current_range_meters":14400,"station_id":"ce4bgup2rcd13ifvqcn0","pricing_plan_id":"cebpf4jnsgd1na2vs0mg"},{"bike_id":"249615da-bae2-4bb3-9506-b338b9fb85b7","system_id":"levelo_inurba_marseille","lat":43.297524,"lon":5.376544,"is_reserved":false,"is_disabled":true,"rental_uris":{"android":"levelo://app?vid=249615da-bae2-4bb3-9506-b338b9fb85b7","ios":"levelo://app?vid=249615da-bae2-4bb3-9506-b338b9fb85b7"},"vehicle_type_id":"4","last_reported":1761325759,"current_range_meters":14400,"station_id":"","pricing_plan_id":"cebpf4jnsgd1na2vs0mg"},{"bike_id":"f2033e58-5dc2-4cc2-92d8-4eb1d0fcde5f","system_id":"levelo_inurba_marseille","lat":43.31709,"lon":5.37732,"is_reserved":false,"is_disabled":false,"rental_uris":{"android":"levelo://app?vid=f2033e58-5dc2-4cc2-92d8-4eb1d0fcde5f","ios":"levelo://app?vid=f2033e58-5dc2-4cc2-92d8-4eb1d0fcde5f"},"vehicle_type_id":"4","last_reported":1761325759,"current_range_meters":14400,"station_id":"ce4bgth2rcd13ifvqch0","pricing_plan_id":"cebpf4jnsgd1na2vs0mg"},{"bike_id":"aa864a6c-a375-418e-ad5d-19c100109457","system_id":"levelo_inurba_marseille","lat":43.26961,"lon":5.38638,"is_reserved":false,"is_disabled":false,"rental_uris":{"android":"levelo://app?vid=aa864a6c-a375-418e-ad5d-19c100109457","ios":"levelo://app?vid=aa864a6c-a375-418e-ad5d-19c100109457"},"vehicle_type_id":"4","last_reported":1761325759,"current_range_meters":14400,"station_id":"ce4bhh92rcd13ifvqfh0","pricing_plan_id":"cebpf4jnsgd1na2vs0mg"},{"bike_id":"dd5e8478-6904-4455-8741-183bf4c9cdb9","system_id":"levelo_inurba_marseille","lat":43.29309,"lon":5.37467,"is_reserved":false,"is_disabled":false,"rental_uris":{"android":"levelo://app?vid=dd5e8478-6904-4455-8741-183bf4c9cdb9","ios":"levelo://app?vid=dd5e8478-6904-4455-8741-183bf4c9cdb9"},"vehicle_type_id":"4","last_reported":1761325759,"current_range_meters":14400,"station_id":"ce4bgi12rcd13ifvqb70","pricing_plan_id":"cebpf4jnsgd1na2vs0mg"},{"bike_id":"a76e414d-b027-49aa-956c-a8ecaaf0d35e","system_id":"levelo_inurba_marseille","lat":43.30127,"lon":5.38773,"is_reserved":false,"is_disabled":false,"rental_uris":{"android":"levelo://app?vid=a76e414d-b027-49aa-956c-a8ecaaf0d35e","ios":"levelo://app?vid=a76e414d-b027-49aa-956c-a8ecaaf0d35e"},"vehicle_type_id":"4","last_reported":1761325759,"current_range_meters":14400,"station_id":"ce4bghh2rcd13ifvqb60","pricing_plan_id":"cebpf4jnsgd1na2vs0mg"},{"bike_id":"32ce9492-4637-4d6e-a292-cd351db28377","system_id":"levelo_inurba_marseille","lat":43.311417,"lon":5.370391,"is_reserved":false,"is_disabled":false,"rental_uris":{"android":"levelo://app?vid=32ce9492-4637-4d6e-a292-cd351db28377","ios":"levelo://app?vid=32ce9492-4637-4d6e-a292-cd351db28377"},"vehicle_type_id":"4","last_reported":1761325759,"current_range_meters":14800,"station_id":"","pricing_plan_id":"cebpf4jnsgd1na2vs0mg"},{"bike_id":"44fe2651-d29f-4163-80ca-daa0ff52973c","system_id":"levelo_inurba_marseille","lat":43.30592,"lon":5.39354,"is_reserved":false,"is_disabled":false,"rental_uris":{"android":"levelo://app?vid=44fe2651-d29f-4163-80ca-daa0ff52973c","ios":"levelo://app?vid=44fe2651-d29f-4163-80ca-daa0ff52973c"},"vehicle_type_id":"4","last_reported":1761325759,"current_range_meters":14800,"station_id":"ce4bh0p2rcd13ifvqd80","pricing_plan_id":"cebpf4jnsgd1na2vs0mg"},{"bike_id":"8aabda0c-f352-4a1e-ac87-86c9bda04073","system_id":"levelo_inurba_marseille","lat":43.29537,"lon":5.38545,"is_reserved":false,"is_disabled":false,"rental_uris":{"android":"levelo://app?vid=8aabda0c-f352-4a1e-ac87-86c9bda04073","ios":"levelo://app?vid=8aabda0c-f352-4a1e-ac87-86c9bda04073"},"vehicle_type_id":"4","last_reported":1761325759,"current_range_meters":14800,"station_id":"ce4bgih2rcd13ifvqba0","pricing_plan_id":"cebpf4jnsgd1na2vs0mg"},{"bike_id":"ae5a339b-5ed8-4ed1-bdcc-bd278201f699","system_id":"levelo_inurba_marseille","lat":43.29572,"lon":5.39981,"is_reserved":false,"is_disabled":false,"rental_uris":{"android":"levelo://app?vid=ae5a339b-5ed8-4ed1-bdcc-bd278201f699","ios":"levelo://app?vid=ae5a339b-5ed8-4ed1-bdcc-bd278201f699"},"vehicle_type_id":"4","last_reported":1761325759,"current_range_meters":14800,"station_id":"ce4bh312rcd13ifvqdj0","pricing_plan_id":"cebpf4jnsgd1na2vs0mg"},{"bike_id":"15d0f856-700a-4ee0-a105-a33bbeca77b7","system_id":"levelo_inurba_marseille","lat":43.285705,"lon":5.395018,"is_reserved":false,"is_disabled":false,"rental_uris":{"android":"levelo://app?vid=15d0f856-700a-4ee0-a105-a33bbeca77b7","ios":"levelo://app?vid=15d0f856-700a-4ee0-a105-a33bbeca77b7"},"vehicle_type_id":"4","last_reported":1761325759,"current_range_meters":15200,"station_id":"ce4bh292rcd13ifvqdg0","pricing_plan_id":"cebpf4jnsgd1na2vs0mg"},{"bike_id":"4f5c5045-2f2c-4ab7-ad8b-eeba1d52fe66","system_id":"levelo_inurba_marseille","lat":43.31085,"lon":5.37477,"is_reserved":false,"is_disabled":false,"rental_uris":{"android":"levelo://app?vid=4f5c5045-2f2c-4ab7-ad8b-eeba1d52fe66","ios":"levelo://app?vid=4f5c5045-2f2c-4ab7-ad8b-eeba1d52fe66"},"vehicle_type_id":"4","last_reported":1761325759,"current_range_meters":15200,"station_id":"","pricing_plan_id":"cebpf4jnsgd1na2vs0mg"},{"bike_id":"99322319-8eed-4d26-ac57-09fce1bb69e0","system_id":"levelo_inurba_marseille","lat":43.29855,"lon":5.36288,"is_reserved":false,"is_disabled":false,"rental_uris":{"android":"levelo://app?vid=99322319-8eed-4d26-ac57-09fce1bb69e0","ios":"levelo://app?vid=99322319-8eed-4d26-ac57-09fce1bb69e0"},"vehicle_type_id":"4","last_reported":1761325759,"current_range_meters":15200,"station_id":"ce4bgpp2rcd13ifvqc3g","pricing_plan_id":"cebpf4jnsgd1na2vs0mg"},{"bike_id":"68a4f632-4950-4647-bc8d-102d49fbed7a","system_id":"levelo_inurba_marseille","lat":43.24953,"lon":5.40489,"is_reserved":false,"is_disabled":false,"rental_uris":{"android":"levelo://app?vid=68a4f632-4950-4647-bc8d-102d49fbed7a","ios":"levelo://app?vid=68a4f632-4950-4647-bc8d-102d49fbed7a"},"vehicle_type_id":"4","last_reported":1761325759,"current_range_meters":15200,"station_id":"st_d2ngiaodas8pm72gd1h0","pricing_plan_id":"cebpf4jnsgd1na2vs0mg"},{"bike_id":"13f04643-a7a6-40da-962a-97ad0388b0d7","system_id":"levelo_inurba_marseille","lat":43.29377,"lon":5.37858,"is_reserved":false,"is_disabled":false,"rental_uris":{"android":"levelo://app?vid=13f04643-a7a6-40da-962a-97ad0388b0d7","ios":"levelo://app?vid=13f04643-a7a6-40da-962a-97ad0388b0d7"},"vehicle_type_id":"4","last_reported":1761325759,"current_range_meters":15200,"station_id":"ce4bgjh2rcd13ifvqbf0","pricing_plan_id":"cebpf4jnsgd1na2vs0mg"},{"bike_id":"fb992e35-c109-4cb7-96c7-50faefdd00eb","system_id":"levelo_inurba_marseille","lat":43.32907,"lon":5.3725,"is_reserved":false,"is_disabled":false,"rental_uris":{"android":"levelo://app?vid=fb992e35-c109-4cb7-96c7-50faefdd00eb","ios":"levelo://app?vid=fb992e35-c109-4cb7-96c7-50faefdd00eb"},"vehicle_type_id":"4","last_reported":1761325759,"current_range_meters":16000,"station_id":"","pricing_plan_id":"cebpf4jnsgd1na2vs0mg"},{"bike_id":"73edc1b3-46fe-45a3-a6d9-70825c49e591","system_id":"levelo_inurba_marseille","lat":43.29508,"lon":5.37819,"is_reserved":false,"is_disabled":false,"rental_uris":{"android":"levelo://app?vid=73edc1b3-46fe-45a3-a6d9-70825c49e591","ios":"levelo://app?vid=73edc1b3-46fe-45a3-a6d9-70825c49e591"},"vehicle_type_id":"4","last_reported":1761325759,"current_range_meters":16000,"station_id":"","pricing_plan_id":"cebpf4jnsgd1na2vs0mg"},{"bike_id":"353c32f0-715d-400e-9949-bcac114e53d9","system_id":"levelo_inurba_marseille","lat":43.23199,"lon":5.35552,"is_reserved":false,"is_disabled":false,"rental_uris":{"android":"levelo://app?vid=353c32f0-715d-400e-9949-bcac114e53d9","ios":"levelo://app?vid=353c32f0-715d-400e-9949-bcac114e53d9"},"vehicle_type_id":"4","last_reported":1761325759,"current_range_meters":16000,"station_id":"ce4bhu92rcd13ifvqi70","pricing_plan_id":"cebpf4jnsgd1na2vs0mg"},{"bike_id":"f31ec242-8c52-4777-8cbc-874f8617e5b7","system_id":"levelo_inurba_marseille","lat":43.255991,"lon":5.382318,"is_reserved":false,"is_disabled":false,"rental_uris":{"android":"levelo://app?vid=f31ec242-8c52-4777-8cbc-874f8617e5b7","ios":"levelo://app?vid=f31ec242-8c52-4777-8cbc-874f8617e5b7"},"vehicle_type_id":"4","last_reported":1761325759,"current_range_meters":16000,"station_id":"ce4bhih2rcd13ifvqfs0","pricing_plan_id":"cebpf4jnsgd1na2vs0mg"},{"bike_id":"b9c8ced1-4ad2-4529-8b78-c6503294316b","system_id":"levelo_inurba_marseille","lat":43.302179,"lon":5.394717,"is_reserved":false,"is_disabled":false,"rental_uris":{"android":"levelo://app?vid=b9c8ced1-4ad2-4529-8b78-c6503294316b","ios":"levelo://app?vid=b9c8ced1-4ad2-4529-8b78-c6503294316b"},"vehicle_type_id":"4","last_reported":1761325759,"current_range_meters":16000,"station_id":"","pricing_plan_id":"cebpf4jnsgd1na2vs0mg"},{"bike_id":"cd510e37-9078-40a8-91e5-9a2c8d62ac8a","system_id":"levelo_inurba_marseille","lat":43.29019,"lon":5.38648,"is_reserved":false,"is_disabled":true,"rental_uris":{"android":"levelo://app?vid=cd510e37-9078-40a8-91e5-9a2c8d62ac8a","ios":"levelo://app?vid=cd510e37-9078-40a8-91e5-9a2c8d62ac8a"},"vehicle_type_id":"4","last_reported":1761325759,"current_range_meters":16000,"station_id":"ce4bh4p2rcd13ifvqe0g","pricing_plan_id":"cebpf4jnsgd1na2vs0mg"},{"bike_id":"aadbd845-2a71-4eef-8f22-930b38cc907c","system_id":"levelo_inurba_marseille","lat":43.29246,"lon":5.38423,"is_reserved":false,"is_disabled":false,"rental_uris":{"android":"levelo://app?vid=aadbd845-2a71-4eef-8f22-930b38cc907c","ios":"levelo://app?vid=aadbd845-2a71-4eef-8f22-930b38cc907c"},"vehicle_type_id":"4","last_reported":1761325759,"current_range_meters":16000,"station_id":"ce4bh692rcd13ifvqea0","pricing_plan_id":"cebpf4jnsgd1na2vs0mg"},{"bike_id":"0ffaa74e-d583-452c-86e8-027bfb81a023","system_id":"levelo_inurba_marseille","lat":43.29624,"lon":5.3717,"is_reserved":false,"is_disabled":false,"rental_uris":{"android":"levelo://app?vid=0ffaa74e-d583-452c-86e8-027bfb81a023","ios":"levelo://app?vid=0ffaa74e-d583-452c-86e8-027bfb81a023"},"vehicle_type_id":"4","last_reported":1761325759,"current_range_meters":16000,"station_id":"ce4bgnh2rcd13ifvqc0g","pricing_plan_id":"cebpf4jnsgd1na2vs0mg"},{"bike_id":"c5a77930-535c-465f-851e-66ae37a72374","system_id":"levelo_inurba_marseille","lat":43.29068,"lon":5.37175,"is_reserved":false,"is_disabled":false,"rental_uris":{"android":"levelo://app?vid=c5a77930-535c-465f-851e-66ae37a72374","ios":"levelo://app?vid=c5a77930-535c-465f-851e-66ae37a72374"},"vehicle_type_id":"4","last_reported":1761325759,"current_range_meters":16000,"station_id":"ce4bh5p2rcd13ifvqe4g","pricing_plan_id":"cebpf4jnsgd1na2vs0mg"},{"bike_id":"b9f7fe4b-e6fa-42b7-9f27-24c5ad443643","system_id":"levelo_inurba_marseille","lat":43.28491,"lon":5.38563,"is_reserved":false,"is_disabled":false,"rental_uris":{"android":"levelo://app?vid=b9f7fe4b-e6fa-42b7-9f27-24c5ad443643","ios":"levelo://app?vid=b9f7fe4b-e6fa-42b7-9f27-24c5ad443643"},"vehicle_type_id":"4","last_reported":1761325759,"current_range_meters":16000,"station_id":"ce4bh8p2rcd13ifvqeb0","pricing_plan_id":"cebpf4jnsgd1na2vs0mg"},{"bike_id":"4f431f89-e1f6-4853-801b-f96c977a31f1","system_id":"levelo_inurba_marseille","lat":43.284147,"lon":5.375083,"is_reserved":false,"is_disabled":false,"rental_uris":{"android":"levelo://app?vid=4f431f89-e1f6-4853-801b-f96c977a31f1","ios":"levelo://app?vid=4f431f89-e1f6-4853-801b-f96c977a31f1"},"vehicle_type_id":"4","last_reported":1761325759,"current_range_meters":16400,"station_id":"ce4bh412rcd13ifvqds0","pricing_plan_id":"cebpf4jnsgd1na2vs0mg"},{"bike_id":"11b0540a-7a82-45af-9083-f88148393151","system_id":"levelo_inurba_marseille","lat":43.25585,"lon":5.38225,"is_reserved":false,"is_disabled":false,"rental_uris":{"android":"levelo://app?vid=11b0540a-7a82-45af-9083-f88148393151","ios":"levelo://app?vid=11b0540a-7a82-45af-9083-f88148393151"},"vehicle_type_id":"4","last_reported":1761325759,"current_range_meters":16400,"station_id":"ce4bhih2rcd13ifvqfs0","pricing_plan_id":"cebpf4jnsgd1na2vs0mg"},{"bike_id":"69599b97-b573-4868-ae16-9bda40c9248f","system_id":"levelo_inurba_marseille","lat":43.21199,"lon":5.35092,"is_reserved":false,"is_disabled":false,"rental_uris":{"android":"levelo://app?vid=69599b97-b573-4868-ae16-9bda40c9248f","ios":"levelo://app?vid=69599b97-b573-4868-ae16-9bda40c9248f"},"vehicle_type_id":"4","last_reported":1761325759,"current_range_meters":16400,"station_id":"st_cvj6sg6p6f1abm77japg","pricing_plan_id":"cebpf4jnsgd1na2vs0mg"},{"bike_id":"5c0e1fad-1092-45f4-930f-73335d46d836","system_id":"levelo_inurba_marseille","lat":43.29763,"lon":5.38064,"is_reserved":false,"is_disabled":true,"rental_uris":{"android":"levelo://app?vid=5c0e1fad-1092-45f4-930f-73335d46d836","ios":"levelo://app?vid=5c0e1fad-1092-45f4-930f-73335d46d836"},"vehicle_type_id":"4","last_reported":1761325759,"current_range_meters":16400,"station_id":"","pricing_plan_id":"cebpf4jnsgd1na2vs0mg"},{"bike_id":"75eebb0f-2447-4bf8-b846-45b5b359059b","system_id":"levelo_inurba_marseille","lat":43.33769,"lon":5.37496,"is_reserved":false,"is_disabled":false,"rental_uris":{"android":"levelo://app?vid=75eebb0f-2447-4bf8-b846-45b5b359059b","ios":"levelo://app?vid=75eebb0f-2447-4bf8-b846-45b5b359059b"},"vehicle_type_id":"4","last_reported":1761325759,"current_range_meters":16400,"station_id":"","pricing_plan_id":"cebpf4jnsgd1na2vs0mg"},{"bike_id":"db538fcf-3842-41b6-a98e-d8b4a6da20a0","system_id":"levelo_inurba_marseille","lat":43.28033,"lon":5.36945,"is_reserved":false,"is_disabled":false,"rental_uris":{"android":"levelo://app?vid=db538fcf-3842-41b6-a98e-d8b4a6da20a0","ios":"levelo://app?vid=db538fcf-3842-41b6-a98e-d8b4a6da20a0"},"vehicle_type_id":"4","last_reported":1761325759,"current_range_meters":16400,"station_id":"ce4bha12rcd13ifvqef0","pricing_plan_id":"cebpf4jnsgd1na2vs0mg"},{"bike_id":"39cf7eea-63aa-4069-b905-5462ea0731d5","system_id":"levelo_inurba_marseille","lat":43.26704,"lon":5.39424,"is_reserved":false,"is_disabled":false,"rental_uris":{"android":"levelo://app?vid=39cf7eea-63aa-4069-b905-5462ea0731d5","ios":"levelo://app?vid=39cf7eea-63aa-4069-b905-5462ea0731d5"},"vehicle_type_id":"4","last_reported":1761325759,"current_range_meters":16400,"station_id":"","pricing_plan_id":"cebpf4jnsgd1na2vs0mg"},{"bike_id":"316e0718-e670-4e00-90c0-28a6cd44d492","system_id":"levelo_inurba_marseille","lat":43.29013,"lon":5.35614,"is_reserved":false,"is_disabled":false,"rental_uris":{"android":"levelo://app?vid=316e0718-e670-4e00-90c0-28a6cd44d492","ios":"levelo://app?vid=316e0718-e670-4e00-90c0-28a6cd44d492"},"vehicle_type_id":"4","last_reported":1761325759,"current_range_meters":16400,"station_id":"ce4bhb92rcd13ifvqen0","pricing_plan_id":"cebpf4jnsgd1na2vs0mg"},{"bike_id":"3e170631-ea89-4b01-b052-805c5e21a0e6","system_id":"levelo_inurba_marseille","lat":43.299674,"lon":5.384978,"is_reserved":false,"is_disabled":false,"rental_uris":{"android":"levelo://app?vid=3e170631-ea89-4b01-b052-805c5e21a0e6","ios":"levelo://app?vid=3e170631-ea89-4b01-b052-805c5e21a0e6"},"vehicle_type_id":"4","last_reported":1761325759,"current_range_meters":16800,"station_id":"ce4bgj92rcd13ifvqbd0","pricing_plan_id":"cebpf4jnsgd1na2vs0mg"},{"bike_id":"6861ce85-77a9-4d2e-a905-a525940c7a22","system_id":"levelo_inurba_marseille","lat":43.24674,"lon":5.38155,"is_reserved":false,"is_disabled":false,"rental_uris":{"android":"levelo://app?vid=6861ce85-77a9-4d2e-a905-a525940c7a22","ios":"levelo://app?vid=6861ce85-77a9-4d2e-a905-a525940c7a22"},"vehicle_type_id":"4","last_reported":1761325759,"current_range_meters":16800,"station_id":"ce4bhih2rcd13ifvqfr0","pricing_plan_id":"cebpf4jnsgd1na2vs0mg"},{"bike_id":"7a613ac7-5f9c-4357-a3b5-71997d80d88b","system_id":"levelo_inurba_marseille","lat":43.30602,"lon":5.40075,"is_reserved":false,"is_disabled":true,"rental_uris":{"android":"levelo://app?vid=7a613ac7-5f9c-4357-a3b5-71997d80d88b","ios":"levelo://app?vid=7a613ac7-5f9c-4357-a3b5-71997d80d88b"},"vehicle_type_id":"4","last_reported":1761325759,"current_range_meters":16800,"station_id":"ce4bh112rcd13ifvqda0","pricing_plan_id":"cebpf4jnsgd1na2vs0mg"},{"bike_id":"10042ca9-f926-4446-bc9f-e9e4d8b198ae","system_id":"levelo_inurba_marseille","lat":43.25336,"lon":5.42173,"is_reserved":false,"is_disabled":false,"rental_uris":{"android":"levelo://app?vid=10042ca9-f926-4446-bc9f-e9e4d8b198ae","ios":"levelo://app?vid=10042ca9-f926-4446-bc9f-e9e4d8b198ae"},"vehicle_type_id":"4","last_reported":1761325759,"current_range_meters":16800,"station_id":"st_d2m65c5bi1j21697t3ng","pricing_plan_id":"cebpf4jnsgd1na2vs0mg"},{"bike_id":"fef40594-8de0-44aa-a3c1-2116955da244","system_id":"levelo_inurba_marseille","lat":43.26186,"lon":5.41699,"is_reserved":false,"is_disabled":false,"rental_uris":{"android":"levelo://app?vid=fef40594-8de0-44aa-a3c1-2116955da244","ios":"levelo://app?vid=fef40594-8de0-44aa-a3c1-2116955da244"},"vehicle_type_id":"4","last_reported":1761325759,"current_range_meters":16800,"station_id":"","pricing_plan_id":"cebpf4jnsgd1na2vs0mg"},{"bike_id":"9d964ec4-c537-4f1d-b21c-451d3f46b1bf","system_id":"levelo_inurba_marseille","lat":43.29898,"lon":5.37855,"is_reserved":false,"is_disabled":false,"rental_uris":{"android":"levelo://app?vid=9d964ec4-c537-4f1d-b21c-451d3f46b1bf","ios":"levelo://app?vid=9d964ec4-c537-4f1d-b21c-451d3f46b1bf"},"vehicle_type_id":"4","last_reported":1761325759,"current_range_meters":16800,"station_id":"","pricing_plan_id":"cebpf4jnsgd1na2vs0mg"},{"bike_id":"2d761e84-dc6d-46c0-9e3c-c27ac29aa793","system_id":"levelo_inurba_marseille","lat":43.30532,"lon":5.36461,"is_reserved":false,"is_disabled":false,"rental_uris":{"android":"levelo://app?vid=2d761e84-dc6d-46c0-9e3c-c27ac29aa793","ios":"levelo://app?vid=2d761e84-dc6d-46c0-9e3c-c27ac29aa793"},"vehicle_type_id":"4","last_reported":1761325759,"current_range_meters":16800,"station_id":"ce4bgs12rcd13ifvqcag","pricing_plan_id":"cebpf4jnsgd1na2vs0mg"},{"bike_id":"b4700db0-764d-46f0-8011-f315501c558f","system_id":"levelo_inurba_marseille","lat":43.28473,"lon":5.35894,"is_reserved":false,"is_disabled":false,"rental_uris":{"android":"levelo://app?vid=b4700db0-764d-46f0-8011-f315501c558f","ios":"levelo://app?vid=b4700db0-764d-46f0-8011-f315501c558f"},"vehicle_type_id":"4","last_reported":1761325759,"current_range_meters":16800,"station_id":"ce4bhah2rcd13ifvqei0","pricing_plan_id":"cebpf4jnsgd1na2vs0mg"},{"bike_id":"ddf520e2-9a6c-4697-90ed-0af6771df0a8","system_id":"levelo_inurba_marseille","lat":43.24383,"lon":5.37054,"is_reserved":false,"is_disabled":false,"rental_uris":{"android":"levelo://app?vid=ddf520e2-9a6c-4697-90ed-0af6771df0a8","ios":"levelo://app?vid=ddf520e2-9a6c-4697-90ed-0af6771df0a8"},"vehicle_type_id":"4","last_reported":1761325759,"current_range_meters":17200,"station_id":"ce4bhhh2rcd13ifvqfk0","pricing_plan_id":"cebpf4jnsgd1na2vs0mg"},{"bike_id":"72595d14-8f84-4de5-a9ab-f8151c131960","system_id":"levelo_inurba_marseille","lat":43.22927,"lon":5.35375,"is_reserved":false,"is_disabled":false,"rental_uris":{"android":"levelo://app?vid=72595d14-8f84-4de5-a9ab-f8151c131960","ios":"levelo://app?vid=72595d14-8f84-4de5-a9ab-f8151c131960"},"vehicle_type_id":"4","last_reported":1761325759,"current_range_meters":17200,"station_id":"cpo3532slgdg3j2ikp40","pricing_plan_id":"cebpf4jnsgd1na2vs0mg"},{"bike_id":"85831b0c-ac03-4a31-ad4b-6acd383c62ca","system_id":"levelo_inurba_marseille","lat":43.277064,"lon":5.388196,"is_reserved":false,"is_disabled":false,"rental_uris":{"android":"levelo://app?vid=85831b0c-ac03-4a31-ad4b-6acd383c62ca","ios":"levelo://app?vid=85831b0c-ac03-4a31-ad4b-6acd383c62ca"},"vehicle_type_id":"4","last_reported":1761325759,"current_range_meters":17200,"station_id":"","pricing_plan_id":"cebpf4jnsgd1na2vs0mg"},{"bike_id":"2ff47830-7e6a-4642-8264-a2f4b08500d2","system_id":"levelo_inurba_marseille","lat":43.307923,"lon":5.401832,"is_reserved":false,"is_disabled":false,"rental_uris":{"android":"levelo://app?vid=2ff47830-7e6a-4642-8264-a2f4b08500d2","ios":"levelo://app?vid=2ff47830-7e6a-4642-8264-a2f4b08500d2"},"vehicle_type_id":"4","last_reported":1761325759,"current_range_meters":17200,"station_id":"","pricing_plan_id":"cebpf4jnsgd1na2vs0mg"},{"bike_id":"ca01d037-abe7-49fb-a78b-b4086a47cde3","system_id":"levelo_inurba_marseille","lat":43.29532,"lon":5.38547,"is_reserved":false,"is_disabled":false,"rental_uris":{"android":"levelo://app?vid=ca01d037-abe7-49fb-a78b-b4086a47cde3","ios":"levelo://app?vid=ca01d037-abe7-49fb-a78b-b4086a47cde3"},"vehicle_type_id":"4","last_reported":1761325759,"current_range_meters":17200,"station_id":"ce4bgih2rcd13ifvqba0","pricing_plan_id":"cebpf4jnsgd1na2vs0mg"},{"bike_id":"51d9e225-6bf4-4cb5-9328-b8a3b72bdac2","system_id":"levelo_inurba_marseille","lat":43.33013,"lon":5.39019,"is_reserved":false,"is_disabled":false,"rental_uris":{"android":"levelo://app?vid=51d9e225-6bf4-4cb5-9328-b8a3b72bdac2","ios":"levelo://app?vid=51d9e225-6bf4-4cb5-9328-b8a3b72bdac2"},"vehicle_type_id":"4","last_reported":1761325759,"current_range_meters":17200,"station_id":"ce4bhr92rcd13ifvqhrg","pricing_plan_id":"cebpf4jnsgd1na2vs0mg"},{"bike_id":"6f9bf46d-a346-4ecc-8366-50ae45e523f3","system_id":"levelo_inurba_marseille","lat":43.28005,"lon":5.40019,"is_reserved":false,"is_disabled":false,"rental_uris":{"android":"levelo://app?vid=6f9bf46d-a346-4ecc-8366-50ae45e523f3","ios":"levelo://app?vid=6f9bf46d-a346-4ecc-8366-50ae45e523f3"},"vehicle_type_id":"4","last_reported":1761325759,"current_range_meters":17200,"station_id":"ce4bho92rcd13ifvqh4g","pricing_plan_id":"cebpf4jnsgd1na2vs0mg"},{"bike_id":"43117888-69d1-4bc6-a73a-697554e4a08e","system_id":"levelo_inurba_marseille","lat":43.25262,"lon":5.378,"is_reserved":false,"is_disabled":false,"rental_uris":{"android":"levelo://app?vid=43117888-69d1-4bc6-a73a-697554e4a08e","ios":"levelo://app?vid=43117888-69d1-4bc6-a73a-697554e4a08e"},"vehicle_type_id":"4","last_reported":1761325759,"current_range_meters":17600,"station_id":"","pricing_plan_id":"cebpf4jnsgd1na2vs0mg"},{"bike_id":"1f6908b7-99d5-4228-9820-dbb50137291c","system_id":"levelo_inurba_marseille","lat":43.28626,"lon":5.35098,"is_reserved":false,"is_disabled":false,"rental_uris":{"android":"levelo://app?vid=1f6908b7-99d5-4228-9820-dbb50137291c","ios":"levelo://app?vid=1f6908b7-99d5-4228-9820-dbb50137291c"},"vehicle_type_id":"4","last_reported":1761325759,"current_range_meters":17600,"station_id":"ce4bhch2rcd13ifvqeug","pricing_plan_id":"cebpf4jnsgd1na2vs0mg"},{"bike_id":"439363e7-5d54-4730-a6ac-ddd270943cca","system_id":"levelo_inurba_marseille","lat":43.30957,"lon":5.39037,"is_reserved":false,"is_disabled":false,"rental_uris":{"android":"levelo://app?vid=439363e7-5d54-4730-a6ac-ddd270943cca","ios":"levelo://app?vid=439363e7-5d54-4730-a6ac-ddd270943cca"},"vehicle_type_id":"4","last_reported":1761325759,"current_range_meters":17600,"station_id":"ce4bgup2rcd13ifvqco0","pricing_plan_id":"cebpf4jnsgd1na2vs0mg"},{"bike_id":"b6559af0-e31e-415b-92a3-0988f7fc43ef","system_id":"levelo_inurba_marseille","lat":43.284141,"lon":5.375172,"is_reserved":false,"is_disabled":true,"rental_uris":{"android":"levelo://app?vid=b6559af0-e31e-415b-92a3-0988f7fc43ef","ios":"levelo://app?vid=b6559af0-e31e-415b-92a3-0988f7fc43ef"},"vehicle_type_id":"4","last_reported":1761325759,"current_range_meters":17600,"station_id":"","pricing_plan_id":"cebpf4jnsgd1na2vs0mg"},{"bike_id":"acd2d28d-acfa-4e3d-bbcc-5ee05f2b1014","system_id":"levelo_inurba_marseille","lat":43.29686,"lon":5.37296,"is_reserved":false,"is_disabled":false,"rental_uris":{"android":"levelo://app?vid=acd2d28d-acfa-4e3d-bbcc-5ee05f2b1014","ios":"levelo://app?vid=acd2d28d-acfa-4e3d-bbcc-5ee05f2b1014"},"vehicle_type_id":"4","last_reported":1761325759,"current_range_meters":17600,"station_id":"ce4bgk12rcd13ifvqbj0","pricing_plan_id":"cebpf4jnsgd1na2vs0mg"},{"bike_id":"16432431-0179-44f2-bdf1-d19b153b0a7b","system_id":"levelo_inurba_marseille","lat":43.28469,"lon":5.35894,"is_reserved":false,"is_disabled":false,"rental_uris":{"android":"levelo://app?vid=16432431-0179-44f2-bdf1-d19b153b0a7b","ios":"levelo://app?vid=16432431-0179-44f2-bdf1-d19b153b0a7b"},"vehicle_type_id":"4","last_reported":1761325759,"current_range_meters":17600,"station_id":"ce4bhah2rcd13ifvqei0","pricing_plan_id":"cebpf4jnsgd1na2vs0mg"},{"bike_id":"45d10f27-a3e0-470f-9577-5257a0c879a9","system_id":"levelo_inurba_marseille","lat":43.26186,"lon":5.37454,"is_reserved":false,"is_disabled":false,"rental_uris":{"android":"levelo://app?vid=45d10f27-a3e0-470f-9577-5257a0c879a9","ios":"levelo://app?vid=45d10f27-a3e0-470f-9577-5257a0c879a9"},"vehicle_type_id":"4","last_reported":1761325759,"current_range_meters":17600,"station_id":"ce4bhgp2rcd13ifvqfc0","pricing_plan_id":"cebpf4jnsgd1na2vs0mg"},{"bike_id":"e434f76b-df01-492f-b892-b9c2a15a8324","system_id":"levelo_inurba_marseille","lat":43.2509,"lon":5.39524,"is_reserved":false,"is_disabled":false,"rental_uris":{"android":"levelo://app?vid=e434f76b-df01-492f-b892-b9c2a15a8324","ios":"levelo://app?vid=e434f76b-df01-492f-b892-b9c2a15a8324"},"vehicle_type_id":"4","last_reported":1761325759,"current_range_meters":17600,"station_id":"ce4bhm12rcd13ifvqgkg","pricing_plan_id":"cebpf4jnsgd1na2vs0mg"},{"bike_id":"86ccf30d-b0d9-4b12-9a3f-af50a6dfc731","system_id":"levelo_inurba_marseille","lat":43.31549,"lon":5.38811,"is_reserved":false,"is_disabled":false,"rental_uris":{"android":"levelo://app?vid=86ccf30d-b0d9-4b12-9a3f-af50a6dfc731","ios":"levelo://app?vid=86ccf30d-b0d9-4b12-9a3f-af50a6dfc731"},"vehicle_type_id":"4","last_reported":1761325759,"current_range_meters":17600,"station_id":"","pricing_plan_id":"cebpf4jnsgd1na2vs0mg"},{"bike_id":"fc89f734-81cc-4172-87b4-aeeb6b9ffa3a","system_id":"levelo_inurba_marseille","lat":43.29602,"lon":5.38102,"is_reserved":false,"is_disabled":false,"rental_uris":{"android":"levelo://app?vid=fc89f734-81cc-4172-87b4-aeeb6b9ffa3a","ios":"levelo://app?vid=fc89f734-81cc-4172-87b4-aeeb6b9ffa3a"},"vehicle_type_id":"4","last_reported":1761325759,"current_range_meters":17600,"station_id":"ce4bgl12rcd13ifvqbo0","pricing_plan_id":"cebpf4jnsgd1na2vs0mg"},{"bike_id":"bfaea6f8-ccc6-44a7-83a6-9d7d9a7e60cc","system_id":"levelo_inurba_marseille","lat":43.26385,"lon":5.39765,"is_reserved":false,"is_disabled":false,"rental_uris":{"android":"levelo://app?vid=bfaea6f8-ccc6-44a7-83a6-9d7d9a7e60cc","ios":"levelo://app?vid=bfaea6f8-ccc6-44a7-83a6-9d7d9a7e60cc"},"vehicle_type_id":"4","last_reported":1761325759,"current_range_meters":18000,"station_id":"","pricing_plan_id":"cebpf4jnsgd1na2vs0mg"},{"bike_id":"386a9c87-6707-4c56-9410-3952ef242f20","system_id":"levelo_inurba_marseille","lat":43.24063,"lon":5.37788,"is_reserved":false,"is_disabled":false,"rental_uris":{"android":"levelo://app?vid=386a9c87-6707-4c56-9410-3952ef242f20","ios":"levelo://app?vid=386a9c87-6707-4c56-9410-3952ef242f20"},"vehicle_type_id":"4","last_reported":1761325759,"current_range_meters":18000,"station_id":"ce4bhnp2rcd13ifvqgvg","pricing_plan_id":"cebpf4jnsgd1na2vs0mg"},{"bike_id":"90c830ba-21ab-4a14-a1c7-0e8f65c0ef5d","system_id":"levelo_inurba_marseille","lat":43.25873,"lon":5.39896,"is_reserved":false,"is_disabled":false,"rental_uris":{"android":"levelo://app?vid=90c830ba-21ab-4a14-a1c7-0e8f65c0ef5d","ios":"levelo://app?vid=90c830ba-21ab-4a14-a1c7-0e8f65c0ef5d"},"vehicle_type_id":"4","last_reported":1761325759,"current_range_meters":18000,"station_id":"ce4bhl92rcd13ifvqghg","pricing_plan_id":"cebpf4jnsgd1na2vs0mg"},{"bike_id":"53b7dc64-3ea1-40c3-8e15-1ef2d7e26538","system_id":"levelo_inurba_marseille","lat":43.3013,"lon":5.39876,"is_reserved":false,"is_disabled":false,"rental_uris":{"android":"levelo://app?vid=53b7dc64-3ea1-40c3-8e15-1ef2d7e26538","ios":"levelo://app?vid=53b7dc64-3ea1-40c3-8e15-1ef2d7e26538"},"vehicle_type_id":"4","last_reported":1761325759,"current_range_meters":18000,"station_id":"ce4bh0h2rcd13ifvqd40","pricing_plan_id":"cebpf4jnsgd1na2vs0mg"},{"bike_id":"769482eb-677d-414c-ad42-0b3226290587","system_id":"levelo_inurba_marseille","lat":43.28692,"lon":5.3792,"is_reserved":false,"is_disabled":false,"rental_uris":{"android":"levelo://app?vid=769482eb-677d-414c-ad42-0b3226290587","ios":"levelo://app?vid=769482eb-677d-414c-ad42-0b3226290587"},"vehicle_type_id":"4","last_reported":1761325759,"current_range_meters":18000,"station_id":"ce4bh9p2rcd13ifvqec0","pricing_plan_id":"cebpf4jnsgd1na2vs0mg"},{"bike_id":"a9c1cf97-6ddd-4ae4-9982-d44b75108890","system_id":"levelo_inurba_marseille","lat":43.28009,"lon":5.36943,"is_reserved":false,"is_disabled":false,"rental_uris":{"android":"levelo://app?vid=a9c1cf97-6ddd-4ae4-9982-d44b75108890","ios":"levelo://app?vid=a9c1cf97-6ddd-4ae4-9982-d44b75108890"},"vehicle_type_id":"4","last_reported":1761325759,"current_range_meters":18000,"station_id":"ce4bha12rcd13ifvqef0","pricing_plan_id":"cebpf4jnsgd1na2vs0mg"},{"bike_id":"d4f34596-cd96-4004-af96-068144e0795b","system_id":"levelo_inurba_marseille","lat":43.30693,"lon":5.42226,"is_reserved":false,"is_disabled":false,"rental_uris":{"android":"levelo://app?vid=d4f34596-cd96-4004-af96-068144e0795b","ios":"levelo://app?vid=d4f34596-cd96-4004-af96-068144e0795b"},"vehicle_type_id":"4","last_reported":1761325759,"current_range_meters":18000,"station_id":"","pricing_plan_id":"cebpf4jnsgd1na2vs0mg"},{"bike_id":"5a5cfee1-6b66-4831-93ce-27de9eba9d78","system_id":"levelo_inurba_marseille","lat":43.29885,"lon":5.38906,"is_reserved":false,"is_disabled":false,"rental_uris":{"android":"levelo://app?vid=5a5cfee1-6b66-4831-93ce-27de9eba9d78","ios":"levelo://app?vid=5a5cfee1-6b66-4831-93ce-27de9eba9d78"},"vehicle_type_id":"4","last_reported":1761325759,"current_range_meters":18000,"station_id":"ce4bh392rcd13ifvqdl0","pricing_plan_id":"cebpf4jnsgd1na2vs0mg"},{"bike_id":"8e92164c-deff-4fbd-9f4e-43ff81933572","system_id":"levelo_inurba_marseille","lat":43.29824,"lon":5.42013,"is_reserved":false,"is_disabled":false,"rental_uris":{"android":"levelo://app?vid=8e92164c-deff-4fbd-9f4e-43ff81933572","ios":"levelo://app?vid=8e92164c-deff-4fbd-9f4e-43ff81933572"},"vehicle_type_id":"4","last_reported":1761325759,"current_range_meters":18000,"station_id":"","pricing_plan_id":"cebpf4jnsgd1na2vs0mg"},{"bike_id":"92daa984-8e26-4554-803d-f4689fef9d8d","system_id":"levelo_inurba_marseille","lat":43.24808,"lon":5.37458,"is_reserved":false,"is_disabled":false,"rental_uris":{"android":"levelo://app?vid=92daa984-8e26-4554-803d-f4689fef9d8d","ios":"levelo://app?vid=92daa984-8e26-4554-803d-f4689fef9d8d"},"vehicle_type_id":"4","last_reported":1761325759,"current_range_meters":18000,"station_id":"ce4bhgh2rcd13ifvqfb0","pricing_plan_id":"cebpf4jnsgd1na2vs0mg"},{"bike_id":"4ec0f8d4-daeb-4bf6-976f-fb253a80b76c","system_id":"levelo_inurba_marseille","lat":43.30952,"lon":5.39027,"is_reserved":false,"is_disabled":false,"rental_uris":{"android":"levelo://app?vid=4ec0f8d4-daeb-4bf6-976f-fb253a80b76c","ios":"levelo://app?vid=4ec0f8d4-daeb-4bf6-976f-fb253a80b76c"},"vehicle_type_id":"4","last_reported":1761325759,"current_range_meters":18800,"station_id":"ce4bgup2rcd13ifvqco0","pricing_plan_id":"cebpf4jnsgd1na2vs0mg"},{"bike_id":"4b9ea996-45d6-4c99-b9ff-af19c6118599","system_id":"levelo_inurba_marseille","lat":43.30545,"lon":5.36531,"is_reserved":false,"is_disabled":true,"rental_uris":{"android":"levelo://app?vid=4b9ea996-45d6-4c99-b9ff-af19c6118599","ios":"levelo://app?vid=4b9ea996-45d6-4c99-b9ff-af19c6118599"},"vehicle_type_id":"4","last_reported":1761325759,"current_range_meters":18800,"station_id":"ce4bgs12rcd13ifvqcag","pricing_plan_id":"cebpf4jnsgd1na2vs0mg"},{"bike_id":"2e5d3cf5-d48c-4b19-9f57-8a89c73fb238","system_id":"levelo_inurba_marseille","lat":43.29886,"lon":5.38895,"is_reserved":false,"is_disabled":false,"rental_uris":{"android":"levelo://app?vid=2e5d3cf5-d48c-4b19-9f57-8a89c73fb238","ios":"levelo://app?vid=2e5d3cf5-d48c-4b19-9f57-8a89c73fb238"},"vehicle_type_id":"4","last_reported":1761325759,"current_range_meters":18800,"station_id":"ce4bh392rcd13ifvqdl0","pricing_plan_id":"cebpf4jnsgd1na2vs0mg"},{"bike_id":"91fd2ddd-8ea0-482b-9561-dd1982e81f44","system_id":"levelo_inurba_marseille","lat":43.30123,"lon":5.38783,"is_reserved":false,"is_disabled":false,"rental_uris":{"android":"levelo://app?vid=91fd2ddd-8ea0-482b-9561-dd1982e81f44","ios":"levelo://app?vid=91fd2ddd-8ea0-482b-9561-dd1982e81f44"},"vehicle_type_id":"4","last_reported":1761325759,"current_range_meters":18800,"station_id":"ce4bghh2rcd13ifvqb60","pricing_plan_id":"cebpf4jnsgd1na2vs0mg"},{"bike_id":"bc805b80-3097-410f-b503-9e60f016e0de","system_id":"levelo_inurba_marseille","lat":43.2722,"lon":5.39201,"is_reserved":false,"is_disabled":true,"rental_uris":{"android":"levelo://app?vid=bc805b80-3097-410f-b503-9e60f016e0de","ios":"levelo://app?vid=bc805b80-3097-410f-b503-9e60f016e0de"},"vehicle_type_id":"4","last_reported":1761325759,"current_range_meters":18800,"station_id":"ce4bhhp2rcd13ifvqfm0","pricing_plan_id":"cebpf4jnsgd1na2vs0mg"},{"bike_id":"9489737c-7c2c-4f83-bc76-e520af4d2990","system_id":"levelo_inurba_marseille","lat":43.32358,"lon":5.38873,"is_reserved":false,"is_disabled":false,"rental_uris":{"android":"levelo://app?vid=9489737c-7c2c-4f83-bc76-e520af4d2990","ios":"levelo://app?vid=9489737c-7c2c-4f83-bc76-e520af4d2990"},