{"last_updated":1699765590,"ttl":30,"version":"2.2","data":{"bikes":[{"bike_id":"0714a2b5-d6d7-4501-9614-be245ffa29b2","system_id":"levelo_inurba_marseille","lat":43.314906,"lon":5.37302,"is_reserved":false,"is_disabled":false,"rental_uris":{"android":"levelo://app?vid=0714a2b5-d6d7-4501-9614-be245ffa29b2","ios":"levelo://app?vid=0714a2b5-d6d7-4501-9614-be245ffa29b2"},"vehicle_type_id":"4","last_reported":1699765590,"current_range_meters":30800,"station_id":"ce4bgt12rcd13ifvqcd0","pricing_plan_id":"free"},{"bike_id":"44edb680-07e8-4b90-a42c-41c221042e1c","system_id":"levelo_inurba_marseille","lat":43.31496,"lon":5.37301,"is_reserved":false,"is_disabled":false,"rental_uris":{"android":"levelo://app?vid=44edb680-07e8-4b90-a42c-41c221042e1c","ios":"levelo://app?vid=44edb680-07e8-4b90-a42c-41c221042e1c"},"vehicle_type_id":"4","last_reported":1699765590,"current_range_meters":27200,"station_id":"ce4bgt12rcd13ifvqcd0","pricing_plan_id":"free"},{"bike_id":"6014e2ea-8380-4cd2-bfb4-a3e1fffca1f5","system_id":"levelo_inurba_marseille","lat":43.31492,"lon":5.37308,"is_reserved":false,"is_disabled":false,"rental_uris":{"android":"levelo://app?vid=6014e2ea-8380-4cd2-bfb4-a3e1fffca1f5","ios":"levelo://app?vid=6014e2ea-8380-4cd2-bfb4-a3e1fffca1f5"},"vehicle_type_id":"4","last_reported":1699765590,"current_range_meters":31200,"station_id":"ce4bgt12rcd13ifvqcd0","pricing_plan_id":"free"},{"bike_id":"6de27ae7-7d5d-40f1-8137-b2f7c517f567","system_id":"levelo_inurba_marseille","lat":43.309039,"lon":5.371797,"is_reserved":false,"is_disabled":false,"rental_uris":{"android":"levelo://app?vid=6de27ae7-7d5d-40f1-8137-b2f7c517f567","ios":"levelo://app?vid=6de27ae7-7d5d-40f1-8137-b2f7c517f567"},"vehicle_type_id":"4","last_reported":1699765590,"current_range_meters":31600,"station_id":"ce4bguh2rcd13ifvqckg","pricing_plan_id":"free"},{"bike_id":"7bad2d53-a792-46fb-b6b2-1390b0613487","system_id":"levelo_inurba_marseille","lat":43.309039,"lon":5.371797,"is_reserved":false,"is_disabled":false,"rental_uris":{"android":"levelo://app?vid=7bad2d53-a792-46fb-b6b2-1390b0613487","ios":"levelo://app?vid=7bad2d53-a792-46fb-b6b2-1390b0613487"},"vehicle_type_id":"4","last_reported":1699765590,"current_range_meters":8000,"station_id":"ce4bguh2rcd13ifvqckg","pricing_plan_id":"free"},{"bike_id":"67b5fc20-e117-4a39-bfea-4617b74bf86c","system_id":"levelo_inurba_marseille","lat":43.305493,"lon":5.367127,"is_reserved":false,"is_disabled":false,"rental_uris":{"android":"levelo://app?vid=67b5fc20-e117-4a39-bfea-4617b74bf86c","ios":"levelo://app?vid=67b5fc20-e117-4a39-bfea-4617b74bf86c"},"vehicle_type_id":"4","last_reported":1699765590,"current_range_meters":26000,"station_id":"ce4bgrp2rcd13ifvqc9g","pricing_plan_id":"free"},{"bike_id":"2a0ced69-5c8a-40d3-b476-4cc31ee80063","system_id":"levelo_inurba_marseille","lat":43.305474,"lon":5.366943,"is_reserved":false,"is_disabled":false,"rental_uris":{"android":"levelo://app?vid=2a0ced69-5c8a-40d3-b476-4cc31ee80063","ios":"levelo://app?vid=2a0ced69-5c8a-40d3-b476-4cc31ee80063"},"vehicle_type_id":"4","last_reported":1699765590,"current_range_meters":31200,"station_id":"","pricing_plan_id":"free"},{"bike_id":"1fd9544a-2007-4312-b4cc-eaeca1c0f1a9","system_id":"levelo_inurba_marseille","lat":43.305714,"lon":5.365633,"is_reserved":false,"is_disabled":false,"rental_uris":{"android":"levelo://app?vid=1fd9544a-2007-4312-b4cc-eaeca1c0f1a9","ios":"levelo://app?vid=1fd9544a-2007-4312-b4cc-eaeca1c0f1a9"},"vehicle_type_id":"4","last_reported":1699765590,"current_range_meters":27600,"station_id":"ce4bgs12rcd13ifvqcag","pricing_plan_id":"free"},{"bike_id":"28619d59-ffc7-49b9-8ddb-e451710f05eb","system_id":"levelo_inurba_marseille","lat":43.30544,"lon":5.36535,"is_reserved":false,"is_disabled":false,"rental_uris":{"android":"levelo://app?vid=28619d59-ffc7-49b9-8ddb-e451710f05eb","ios":"levelo://app?vid=28619d59-ffc7-49b9-8ddb-e451710f05eb"},"vehicle_type_id":"4","last_reported":1699765590,"current_range_meters":24800,"station_id":"ce4bgs12rcd13ifvqcag","pricing_plan_id":"free"},{"bike_id":"308cc65d-6c90-44b0-af5e-26ff0f873c1c","system_id":"levelo_inurba_marseille","lat":43.305448,"lon":5.365285,"is_reserved":false,"is_disabled":false,"rental_uris":{"android":"levelo://app?vid=308cc65d-6c90-44b0-af5e-26ff0f873c1c","ios":"levelo://app?vid=308cc65d-6c90-44b0-af5e-26ff0f873c1c"},"vehicle_type_id":"4","last_reported":1699765590,"current_range_meters":18000,"station_id":"ce4bgs12rcd13ifvqcag","pricing_plan_id":"free"},{"bike_id":"7b883aae-c8c7-4406-b7e6-bb0b06f918ab","system_id":"levelo_inurba_marseille","lat":43.30543,"lon":5.36533,"is_reserved":false,"is_disabled":false,"rental_uris":{"android":"levelo://app?vid=7b883aae-c8c7-4406-b7e6-bb0b06f918ab","ios":"levelo://app?vid=7b883aae-c8c7-4406-b7e6-bb0b06f918ab"},"vehicle_type_id":"4","last_reported":1699765590,"current_range_meters":28400,"station_id":"ce4bgs12rcd13ifvqcag","pricing_plan_id":"free"},{"bike_id":"76b359af-c20b-45d0-a1df-78f4c9a6553a","system_id":"levelo_inurba_marseille","lat":43.305714,"lon":5.365633,"is_reserved":false,"is_disabled":false,"rental_uris":{"android":"levelo://app?vid=76b359af-c20b-45d0-a1df-78f4c9a6553a","ios":"levelo://app?vid=76b359af-c20b-45d0-a1df-78f4c9a6553a"},"vehicle_type_id":"4","last_reported":1699765590,"current_range_meters":16000,"station_id":"ce4bgs12rcd13ifvqcag","pricing_plan_id":"free"},{"bike_id":"d898fc2b-3eda-46d8-b10d-9d6a0b30af95","system_id":"levelo_inurba_marseille","lat":43.305714,"lon":5.365633,"is_reserved":false,"is_disabled":false,"rental_uris":{"android":"levelo://app?vid=d898fc2b-3eda-46d8-b10d-9d6a0b30af95","ios":"levelo://app?vid=d898fc2b-3eda-46d8-b10d-9d6a0b30af95"},"vehicle_type_id":"4","last_reported":1699765590,"current_range_meters":29600,"station_id":"ce4bgs12rcd13ifvqcag","pricing_plan_id":"free"},{"bike_id":"e7390b64-ec1f-4f29-ada8-1b6e50418f43","system_id":"levelo_inurba_marseille","lat":43.305989,"lon":5.37225,"is_reserved":false,"is_disabled":false,"rental_uris":{"android":"levelo://app?vid=e7390b64-ec1f-4f29-ada8-1b6e50418f43","ios":"levelo://app?vid=e7390b64-ec1f-4f29-ada8-1b6e50418f43"},"vehicle_type_id":"4","last_reported":1699765590,"current_range_meters":28400,"station_id":"ce4bgqh2rcd13ifvqc4g","pricing_plan_id":"free"},{"bike_id":"26c6f35e-5efb-416b-8f04-5d98fa06093e","system_id":"levelo_inurba_marseille","lat":43.305944,"lon":5.372306,"is_reserved":false,"is_disabled":false,"rental_uris":{"android":"levelo://app?vid=26c6f35e-5efb-416b-8f04-5d98fa06093e","ios":"levelo://app?vid=26c6f35e-5efb-416b-8f04-5d98fa06093e"},"vehicle_type_id":"4","last_reported":1699765590,"current_range_meters":30000,"station_id":"ce4bgqh2rcd13ifvqc4g","pricing_plan_id":"free"},{"bike_id":"18679bee-09b2-48d9-9154-895a30d97a5e","system_id":"levelo_inurba_marseille","lat":43.311131,"lon":5.377651,"is_reserved":false,"is_disabled":false,"rental_uris":{"android":"levelo://app?vid=18679bee-09b2-48d9-9154-895a30d97a5e","ios":"levelo://app?vid=18679bee-09b2-48d9-9154-895a30d97a5e"},"vehicle_type_id":"4","last_reported":1699765590,"current_range_meters":30400,"station_id":"ce4bgt92rcd13ifvqcg0","pricing_plan_id":"free"},{"bike_id":"08eeac99-4d3f-43fa-a64d-342b7acba7f7","system_id":"levelo_inurba_marseille","lat":43.311131,"lon":5.377651,"is_reserved":false,"is_disabled":false,"rental_uris":{"android":"levelo://app?vid=08eeac99-4d3f-43fa-a64d-342b7acba7f7","ios":"levelo://app?vid=08eeac99-4d3f-43fa-a64d-342b7acba7f7"},"vehicle_type_id":"4","last_reported":1699765590,"current_range_meters":31200,"station_id":"ce4bgt92rcd13ifvqcg0","pricing_plan_id":"free"},{"bike_id":"57053367-5328-4d78-8951-737f56b37ed9","system_id":"levelo_inurba_marseille","lat":43.319924,"lon":5.373389,"is_reserved":false,"is_disabled":false,"rental_uris":{"android":"levelo://app?vid=57053367-5328-4d78-8951-737f56b37ed9","ios":"levelo://app?vid=57053367-5328-4d78-8951-737f56b37ed9"},"vehicle_type_id":"4","last_reported":1699765590,"current_range_meters":16000,"station_id":"","pricing_plan_id":"free"},{"bike_id":"376f9c62-bfe6-4a65-827f-6dad0f919a97","system_id":"levelo_inurba_marseille","lat":43.317075,"lon":5.377367,"is_reserved":false,"is_disabled":false,"rental_uris":{"android":"levelo://app?vid=376f9c62-bfe6-4a65-827f-6dad0f919a97","ios":"levelo://app?vid=376f9c62-bfe6-4a65-827f-6dad0f919a97"},"vehicle_type_id":"4","last_reported":1699765590,"current_range_meters":15600,"station_id":"ce4bgth2rcd13ifvqch0","pricing_plan_id":"free"},{"bike_id":"a6966d37-fdb6-4a9e-9d84-f3e69daa40de","system_id":"levelo_inurba_marseille","lat":43.317075,"lon":5.377367,"is_reserved":false,"is_disabled":false,"rental_uris":{"android":"levelo://app?vid=a6966d37-fdb6-4a9e-9d84-f3e69daa40de","ios":"levelo://app?vid=a6966d37-fdb6-4a9e-9d84-f3e69daa40de"},"vehicle_type_id":"4","last_reported":1699765590,"current_range_meters":29200,"station_id":"ce4bgth2rcd13ifvqch0","pricing_plan_id":"free"},{"bike_id":"2bc62703-d3d0-4adf-8fcf-eab26ac973b6","system_id":"levelo_inurba_marseille","lat":43.317075,"lon":5.377367,"is_reserved":false,"is_disabled":false,"rental_uris":{"android":"levelo://app?vid=2bc62703-d3d0-4adf-8fcf-eab26ac973b6","ios":"levelo://app?vid=2bc62703-d3d0-4adf-8fcf-eab26ac973b6"},"vehicle_type_id":"4","last_reported":1699765590,"current_range_meters":29600,"station_id":"ce4bgth2rcd13ifvqch0","pricing_plan_id":"free"},{"bike_id":"94e917af-4d1f-4161-b297-0a40a42ba135","system_id":"levelo_inurba_marseille","lat":43.317075,"lon":5.377367,"is_reserved":false,"is_disabled":false,"rental_uris":{"android":"levelo://app?vid=94e917af-4d1f-4161-b297-0a40a42ba135","ios":"levelo://app?vid=94e917af-4d1f-4161-b297-0a40a42ba135"},"vehicle_type_id":"4","last_reported":1699765590,"current_range_meters":31200,"station_id":"ce4bgth2rcd13ifvqch0","pricing_plan_id":"free"},{"bike_id":"c3fdaca3-f200-4751-8746-9b1be9ab87a1","system_id":"levelo_inurba_marseille","lat":43.31531,"lon":5.38037,"is_reserved":false,"is_disabled":false,"rental_uris":{"android":"levelo://app?vid=c3fdaca3-f200-4751-8746-9b1be9ab87a1","ios":"levelo://app?vid=c3fdaca3-f200-4751-8746-9b1be9ab87a1"},"vehicle_type_id":"4","last_reported":1699765590,"current_range_meters":16000,"station_id":"ce4bhsp2rcd13ifvqi50","pricing_plan_id":"free"},{"bike_id":"f5d7923d-c0e3-4fbd-8c6e-7645d55b1746","system_id":"levelo_inurba_marseille","lat":43.301846,"lon":5.366112,"is_reserved":false,"is_disabled":false,"rental_uris":{"android":"levelo://app?vid=f5d7923d-c0e3-4fbd-8c6e-7645d55b1746","ios":"levelo://app?vid=f5d7923d-c0e3-4fbd-8c6e-7645d55b1746"},"vehicle_type_id":"4","last_reported":1699765590,"current_range_meters":29600,"station_id":"ce4bgrh2rcd13ifvqc8g","pricing_plan_id":"free"},{"bike_id":"a26a672c-8f86-40f5-9e8e-9856cf399a24","system_id":"levelo_inurba_marseille","lat":43.308012,"lon":5.381511,"is_reserved":false,"is_disabled":false,"rental_uris":{"android":"levelo://app?vid=a26a672c-8f86-40f5-9e8e-9856cf399a24","ios":"levelo://app?vid=a26a672c-8f86-40f5-9e8e-9856cf399a24"},"vehicle_type_id":"4","last_reported":1699765590,"current_range_meters":24000,"station_id":"ce4bgt12rcd13ifvqce0","pricing_plan_id":"free"},{"bike_id":"30080e41-84bd-4b91-bd5b-927b9f271757","system_id":"levelo_inurba_marseille","lat":43.308012,"lon":5.381511,"is_reserved":false,"is_disabled":false,"rental_uris":{"android":"levelo://app?vid=30080e41-84bd-4b91-bd5b-927b9f271757","ios":"levelo://app?vid=30080e41-84bd-4b91-bd5b-927b9f271757"},"vehicle_type_id":"4","last_reported":1699765590,"current_range_meters":29200,"station_id":"ce4bgt12rcd13ifvqce0","pricing_plan_id":"free"},{"bike_id":"1ef55c1d-c4db-4cec-ad1c-b341ea470969","system_id":"levelo_inurba_marseille","lat":43.308012,"lon":5.381511,"is_reserved":false,"is_disabled":false,"rental_uris":{"android":"levelo://app?vid=1ef55c1d-c4db-4cec-ad1c-b341ea470969","ios":"levelo://app?vid=1ef55c1d-c4db-4cec-ad1c-b341ea470969"},"vehicle_type_id":"4","last_reported":1699765590,"current_range_meters":2800,"station_id":"ce4bgt12rcd13ifvqce0","pricing_plan_id":"free"},{"bike_id":"fb5239a8-4e40-46ea-9f8d-e37b9c0de320","system_id":"levelo_inurba_marseille","lat":43.304606,"lon":5.379026,"is_reserved":false,"is_disabled":false,"rental_uris":{"android":"levelo://app?vid=fb5239a8-4e40-46ea-9f8d-e37b9c0de320","ios":"levelo://app?vid=fb5239a8-4e40-46ea-9f8d-e37b9c0de320"},"vehicle_type_id":"4","last_reported":1699765590,"current_range_meters":30800,"station_id":"ce4bgup2rcd13ifvqcn0","pricing_plan_id":"free"},{"bike_id":"22b650b1-22a9-4cb1-892b-fc635ad16fc9","system_id":"levelo_inurba_marseille","lat":43.304683,"lon":5.37895,"is_reserved":false,"is_disabled":false,"rental_uris":{"android":"levelo://app?vid=22b650b1-22a9-4cb1-892b-fc635ad16fc9","ios":"levelo://app?vid=22b650b1-22a9-4cb1-892b-fc635ad16fc9"},"vehicle_type_id":"4","last_reported":1699765590,"current_range_meters":31200,"station_id":"ce4bgup2rcd13ifvqcn0","pricing_plan_id":"free"},{"bike_id":"793a4be0-9d4c-4a82-926e-3e326c1ebf36","system_id":"levelo_inurba_marseille","lat":43.304606,"lon":5.379026,"is_reserved":false,"is_disabled":false,"rental_uris":{"android":"levelo://app?vid=793a4be0-9d4c-4a82-926e-3e326c1ebf36","ios":"levelo://app?vid=793a4be0-9d4c-4a82-926e-3e326c1ebf36"},"vehicle_type_id":"4","last_reported":1699765590,"current_range_meters":31200,"station_id":"ce4bgup2rcd13ifvqcn0","pricing_plan_id":"free"},{"bike_id":"6f7da8a8-ff17-49e7-b004-d155331dd92a","system_id":"levelo_inurba_marseille","lat":43.304606,"lon":5.379026,"is_reserved":false,"is_disabled":false,"rental_uris":{"android":"levelo://app?vid=6f7da8a8-ff17-49e7-b004-d155331dd92a","ios":"levelo://app?vid=6f7da8a8-ff17-49e7-b004-d155331dd92a"},"vehicle_type_id":"4","last_reported":1699765590,"current_range_meters":26800,"station_id":"ce4bgup2rcd13ifvqcn0","pricing_plan_id":"free"},{"bike_id":"8ef52193-4a3c-4256-8c92-d02dc1148f05","system_id":"levelo_inurba_marseille","lat":43.324795,"lon":5.365548,"is_reserved":false,"is_disabled":false,"rental_uris":{"android":"levelo://app?vid=8ef52193-4a3c-4256-8c92-d02dc1148f05","ios":"levelo://app?vid=8ef52193-4a3c-4256-8c92-d02dc1148f05"},"vehicle_type_id":"4","last_reported":1699765590,"current_range_meters":9200,"station_id":"ce4bhs12rcd13ifvqhvg","pricing_plan_id":"free"},{"bike_id":"3819deec-fe3d-41c7-8346-2b107cb07054","system_id":"levelo_inurba_marseille","lat":43.315237,"lon":5.383797,"is_reserved":false,"is_disabled":false,"rental_uris":{"android":"levelo://app?vid=3819deec-fe3d-41c7-8346-2b107cb07054","ios":"levelo://app?vid=3819deec-fe3d-41c7-8346-2b107cb07054"},"vehicle_type_id":"4","last_reported":1699765590,"current_range_meters":0,"station_id":"","pricing_plan_id":"free"},{"bike_id":"69166d53-ec8e-4a0a-864c-7a29f7650dd8","system_id":"levelo_inurba_marseille","lat":43.321119,"lon":5.380006,"is_reserved":false,"is_disabled":false,"rental_uris":{"android":"levelo://app?vid=69166d53-ec8e-4a0a-864c-7a29f7650dd8","ios":"levelo://app?vid=69166d53-ec8e-4a0a-864c-7a29f7650dd8"},"vehicle_type_id":"4","last_reported":1699765590,"current_range_meters":15600,"station_id":"","pricing_plan_id":"free"},{"bike_id":"a5bf0937-2ae8-4ff5-a635-54ed67a21f39","system_id":"levelo_inurba_marseille","lat":43.319935,"lon":5.381699,"is_reserved":false,"is_disabled":false,"rental_uris":{"android":"levelo://app?vid=a5bf0937-2ae8-4ff5-a635-54ed67a21f39","ios":"levelo://app?vid=a5bf0937-2ae8-4ff5-a635-54ed67a21f39"},"vehicle_type_id":"4","last_reported":1699765590,"current_range_meters":31200,"station_id":"ce4bhr12rcd13ifvqhpg","pricing_plan_id":"free"},{"bike_id":"c0985fbd-c500-46c9-aae5-e6275d5bf15c","system_id":"levelo_inurba_marseille","lat":43.319935,"lon":5.381699,"is_reserved":false,"is_disabled":false,"rental_uris":{"android":"levelo://app?vid=c0985fbd-c500-46c9-aae5-e6275d5bf15c","ios":"levelo://app?vid=c0985fbd-c500-46c9-aae5-e6275d5bf15c"},"vehicle_type_id":"4","last_reported":1699765590,"current_range_meters":18400,"station_id":"ce4bhr12rcd13ifvqhpg","pricing_plan_id":"free"},{"bike_id":"9a7153ac-30be-42fe-ada4-f2a89769d664","system_id":"levelo_inurba_marseille","lat":43.31999,"lon":5.38149,"is_reserved":false,"is_disabled":false,"rental_uris":{"android":"levelo://app?vid=9a7153ac-30be-42fe-ada4-f2a89769d664","ios":"levelo://app?vid=9a7153ac-30be-42fe-ada4-f2a89769d664"},"vehicle_type_id":"4","last_reported":1699765590,"current_range_meters":31200,"station_id":"ce4bhr12rcd13ifvqhpg","pricing_plan_id":"free"},{"bike_id":"13d78257-2559-4a10-97b8-aaa7032179bc","system_id":"levelo_inurba_marseille","lat":43.319975,"lon":5.381519,"is_reserved":false,"is_disabled":false,"rental_uris":{"android":"levelo://app?vid=13d78257-2559-4a10-97b8-aaa7032179bc","ios":"levelo://app?vid=13d78257-2559-4a10-97b8-aaa7032179bc"},"vehicle_type_id":"4","last_reported":1699765590,"current_range_meters":1600,"station_id":"","pricing_plan_id":"free"},{"bike_id":"5b15b8b2-a52d-474e-aa67-ca7d1ec7cbc3","system_id":"levelo_inurba_marseille","lat":43.32002,"lon":5.38155,"is_reserved":false,"is_disabled":false,"rental_uris":{"android":"levelo://app?vid=5b15b8b2-a52d-474e-aa67-ca7d1ec7cbc3","ios":"levelo://app?vid=5b15b8b2-a52d-474e-aa67-ca7d1ec7cbc3"},"vehicle_type_id":"4","last_reported":1699765590,"current_range_meters":9200,"station_id":"ce4bhr12rcd13ifvqhpg","pricing_plan_id":"free"},{"bike_id":"1d921255-533f-48bd-8878-e515e2bef460","system_id":"levelo_inurba_marseille","lat":43.313571,"lon":5.384829,"is_reserved":false,"is_disabled":false,"rental_uris":{"android":"levelo://app?vid=1d921255-533f-48bd-8878-e515e2bef460","ios":"levelo://app?vid=1d921255-533f-48bd-8878-e515e2bef460"},"vehicle_type_id":"4","last_reported":1699765590,"current_range_meters":4400,"station_id":"ce4bgt92rcd13ifvqcf0","pricing_plan_id":"free"},{"bike_id":"a678cb0e-45fe-467d-8cad-1f3df14661a8","system_id":"levelo_inurba_marseille","lat":43.313571,"lon":5.384829,"is_reserved":false,"is_disabled":false,"rental_uris":{"android":"levelo://app?vid=a678cb0e-45fe-467d-8cad-1f3df14661a8","ios":"levelo://app?vid=a678cb0e-45fe-467d-8cad-1f3df14661a8"},"vehicle_type_id":"4","last_reported":1699765590,"current_range_meters":29600,"station_id":"ce4bgt92rcd13ifvqcf0","pricing_plan_id":"free"},{"bike_id":"a9c938cf-63ee-4917-8361-966f42545def","system_id":"levelo_inurba_marseille","lat":43.299336,"lon":5.365562,"is_reserved":false,"is_disabled":false,"rental_uris":{"android":"levelo://app?vid=a9c938cf-63ee-4917-8361-966f42545def","ios":"levelo://app?vid=a9c938cf-63ee-4917-8361-966f42545def"},"vehicle_type_id":"4","last_reported":1699765590,"current_range_meters":31200,"station_id":"ce4bgm92rcd13ifvqbr0","pricing_plan_id":"free"},{"bike_id":"6f165245-3cc1-47e0-b1e0-77ebf2e97e65","system_id":"levelo_inurba_marseille","lat":43.305364,"lon":5.384119,"is_reserved":false,"is_disabled":false,"rental_uris":{"android":"levelo://app?vid=6f165245-3cc1-47e0-b1e0-77ebf2e97e65","ios":"levelo://app?vid=6f165245-3cc1-47e0-b1e0-77ebf2e97e65"},"vehicle_type_id":"4","last_reported":1699765590,"current_range_meters":22400,"station_id":"ce4bgg92rcd13ifvqb30","pricing_plan_id":"free"},{"bike_id":"2ad01e5c-9ab9-4f9b-8be6-72d687461a92","system_id":"levelo_inurba_marseille","lat":43.305364,"lon":5.384119,"is_reserved":false,"is_disabled":false,"rental_uris":{"android":"levelo://app?vid=2ad01e5c-9ab9-4f9b-8be6-72d687461a92","ios":"levelo://app?vid=2ad01e5c-9ab9-4f9b-8be6-72d687461a92"},"vehicle_type_id":"4","last_reported":1699765590,"current_range_meters":21600,"station_id":"ce4bgg92rcd13ifvqb30","pricing_plan_id":"free"},{"bike_id":"36a202bc-fecc-4559-b8dc-94fc1b7c22ed","system_id":"levelo_inurba_marseille","lat":43.311722,"lon":5.387247,"is_reserved":false,"is_disabled":false,"rental_uris":{"android":"levelo://app?vid=36a202bc-fecc-4559-b8dc-94fc1b7c22ed","ios":"levelo://app?vid=36a202bc-fecc-4559-b8dc-94fc1b7c22ed"},"vehicle_type_id":"4","last_reported":1699765590,"current_range_meters":29600,"station_id":"ce4bgv12rcd13ifvqcp0","pricing_plan_id":"free"},{"bike_id":"de86e3d1-a596-40c7-ba28-8077c5a08266","system_id":"levelo_inurba_marseille","lat":43.311722,"lon":5.387247,"is_reserved":false,"is_disabled":false,"rental_uris":{"android":"levelo://app?vid=de86e3d1-a596-40c7-ba28-8077c5a08266","ios":"levelo://app?vid=de86e3d1-a596-40c7-ba28-8077c5a08266"},"vehicle_type_id":"4","last_reported":1699765590,"current_range_meters":30800,"station_id":"ce4bgv12rcd13ifvqcp0","pricing_plan_id":"free"},{"bike_id":"8950f55a-e75d-4fac-9a7c-f529bc0580a5","system_id":"levelo_inurba_marseille","lat":43.320464,"lon":5.384144,"is_reserved":false,"is_disabled":false,"rental_uris":{"android":"levelo://app?vid=8950f55a-e75d-4fac-9a7c-f529bc0580a5","ios":"levelo://app?vid=8950f55a-e75d-4fac-9a7c-f529bc0580a5"},"vehicle_type_id":"4","last_reported":1699765590,"current_range_meters":10800,"station_id":"","pricing_plan_id":"free"},{"bike_id":"e710b9e5-c46c-4eec-91f2-e5ab5a0d7182","system_id":"levelo_inurba_marseille","lat":43.311722,"lon":5.387247,"is_reserved":false,"is_disabled":false,"rental_uris":{"android":"levelo://app?vid=e710b9e5-c46c-4eec-91f2-e5ab5a0d7182","ios":"levelo://app?vid=e710b9e5-c46c-4eec-91f2-e5ab5a0d7182"},"vehicle_type_id":"4","last_reported":1699765590,"current_range_meters":30000,"station_id":"ce4bgv12rcd13ifvqcp0","pricing_plan_id":"free"},{"bike_id":"5c3e0743-072d-4cad-b160-695f8676bfbf","system_id":"levelo_inurba_marseille","lat":43.311722,"lon":5.387247,"is_reserved":false,"is_disabled":false,"rental_uris":{"android":"levelo://app?vid=5c3e0743-072d-4cad-b160-695f8676bfbf","ios":"levelo://app?vid=5c3e0743-072d-4cad-b160-695f8676bfbf"},"vehicle_type_id":"4","last_reported":1699765590,"current_range_meters":24000,"station_id":"ce4bgv12rcd13ifvqcp0","pricing_plan_id":"free"},{"bike_id":"5d33c8da-15bc-40fe-b4eb-1d8d6465f82b","system_id":"levelo_inurba_marseille","lat":43.297794,"lon":5.370888,"is_reserved":false,"is_disabled":false,"rental_uris":{"android":"levelo://app?vid=5d33c8da-15bc-40fe-b4eb-1d8d6465f82b","ios":"levelo://app?vid=5d33c8da-15bc-40fe-b4eb-1d8d6465f82b"},"vehicle_type_id":"4","last_reported":1699765590,"current_range_meters":22000,"station_id":"ce4bgop2rcd13ifvqc1g","pricing_plan_id":"free"},{"bike_id":"bc65f8a5-589d-4ae1-8620-42d2c579e103","system_id":"levelo_inurba_marseille","lat":43.322872,"lon":5.382756,"is_reserved":false,"is_disabled":false,"rental_uris":{"android":"levelo://app?vid=bc65f8a5-589d-4ae1-8620-42d2c579e103","ios":"levelo://app?vid=bc65f8a5-589d-4ae1-8620-42d2c579e103"},"vehicle_type_id":"4","last_reported":1699765590,"current_range_meters":26400,"station_id":"ce4bhr12rcd13ifvqhqg","pricing_plan_id":"free"},{"bike_id":"1e65f059-8f9e-4f78-8b4e-b40aef3dca28","system_id":"levelo_inurba_marseille","lat":43.322872,"lon":5.382756,"is_reserved":false,"is_disabled":false,"rental_uris":{"android":"levelo://app?vid=1e65f059-8f9e-4f78-8b4e-b40aef3dca28","ios":"levelo://app?vid=1e65f059-8f9e-4f78-8b4e-b40aef3dca28"},"vehicle_type_id":"4","last_reported":1699765590,"current_range_meters":23200,"station_id":"ce4bhr12rcd13ifvqhqg","pricing_plan_id":"free"},{"bike_id":"1bb861ef-57bc-498b-b32e-a0eda2c305cb","system_id":"levelo_inurba_marseille","lat":43.32818,"lon":5.36689,"is_reserved":false,"is_disabled":false,"rental_uris":{"android":"levelo://app?vid=1bb861ef-57bc-498b-b32e-a0eda2c305cb","ios":"levelo://app?vid=1bb861ef-57bc-498b-b32e-a0eda2c305cb"},"vehicle_type_id":"4","last_reported":1699765590,"current_range_meters":12000,"station_id":"ce4bhs92rcd13ifvqi0g","pricing_plan_id":"free"},{"bike_id":"3acec72d-dace-40d0-ba68-5a09713c41d7","system_id":"levelo_inurba_marseille","lat":43.297163,"lon":5.365866,"is_reserved":false,"is_disabled":false,"rental_uris":{"android":"levelo://app?vid=3acec72d-dace-40d0-ba68-5a09713c41d7","ios":"levelo://app?vid=3acec72d-dace-40d0-ba68-5a09713c41d7"},"vehicle_type_id":"4","last_reported":1699765590,"current_range_meters":28000,"station_id":"ce4bgn12rcd13ifvqbt0","pricing_plan_id":"free"},{"bike_id":"a5f55da8-6724-472e-bcc9-c26d48cc07a7","system_id":"levelo_inurba_marseille","lat":43.32828,"lon":5.36681,"is_reserved":false,"is_disabled":false,"rental_uris":{"android":"levelo://app?vid=a5f55da8-6724-472e-bcc9-c26d48cc07a7","ios":"levelo://app?vid=a5f55da8-6724-472e-bcc9-c26d48cc07a7"},"vehicle_type_id":"4","last_reported":1699765590,"current_range_meters":4400,"station_id":"ce4bhs92rcd13ifvqi0g","pricing_plan_id":"free"},{"bike_id":"d2d0f7da-b236-4617-8f3a-aabe3bd3e52e","system_id":"levelo_inurba_marseille","lat":43.32831,"lon":5.36692,"is_reserved":false,"is_disabled":false,"rental_uris":{"android":"levelo://app?vid=d2d0f7da-b236-4617-8f3a-aabe3bd3e52e","ios":"levelo://app?vid=d2d0f7da-b236-4617-8f3a-aabe3bd3e52e"},"vehicle_type_id":"4","last_reported":1699765590,"current_range_meters":29200,"station_id":"ce4bhs92rcd13ifvqi0g","pricing_plan_id":"free"},{"bike_id":"6e7351e1-4cd5-4415-b20c-72cd66273662","system_id":"levelo_inurba_marseille","lat":43.32833,"lon":5.36681,"is_reserved":false,"is_disabled":false,"rental_uris":{"android":"levelo://app?vid=6e7351e1-4cd5-4415-b20c-72cd66273662","ios":"levelo://app?vid=6e7351e1-4cd5-4415-b20c-72cd66273662"},"vehicle_type_id":"4","last_reported":1699765590,"current_range_meters":27200,"station_id":"ce4bhs92rcd13ifvqi0g","pricing_plan_id":"free"},{"bike_id":"a46312e7-2ce8-4bc2-b854-62161f1506e5","system_id":"levelo_inurba_marseille","lat":43.32838,"lon":5.36689,"is_reserved":false,"is_disabled":false,"rental_uris":{"android":"levelo://app?vid=a46312e7-2ce8-4bc2-b854-62161f1506e5","ios":"levelo://app?vid=a46312e7-2ce8-4bc2-b854-62161f1506e5"},"vehicle_type_id":"4","last_reported":1699765590,"current_range_meters":30400,"station_id":"ce4bhs92rcd13ifvqi0g","pricing_plan_id":"free"},{"bike_id":"c1509f39-4313-42f4-ade0-998212a91056","system_id":"levelo_inurba_marseille","lat":43.296802,"lon":5.372844,"is_reserved":false,"is_disabled":false,"rental_uris":{"android":"levelo://app?vid=c1509f39-4313-42f4-ade0-998212a91056","ios":"levelo://app?vid=c1509f39-4313-42f4-ade0-998212a91056"},"vehicle_type_id":"4","last_reported":1699765590,"current_range_meters":31200,"station_id":"ce4bgk12rcd13ifvqbj0","pricing_plan_id":"free"},{"bike_id":"d447991a-59b4-4778-a190-7d2b0920a414","system_id":"levelo_inurba_marseille","lat":43.32215,"lon":5.38613,"is_reserved":false,"is_disabled":false,"rental_uris":{"android":"levelo://app?vid=d447991a-59b4-4778-a190-7d2b0920a414","ios":"levelo://app?vid=d447991a-59b4-4778-a190-7d2b0920a414"},"vehicle_type_id":"4","last_reported":1699765590,"current_range_meters":18000,"station_id":"","pricing_plan_id":"free"},{"bike_id":"480df4e3-56ad-4ea0-8935-fff2949cfa9c","system_id":"levelo_inurba_marseille","lat":43.29573,"lon":5.367355,"is_reserved":false,"is_disabled":false,"rental_uris":{"android":"levelo://app?vid=480df4e3-56ad-4ea0-8935-fff2949cfa9c","ios":"levelo://app?vid=480df4e3-56ad-4ea0-8935-fff2949cfa9c"},"vehicle_type_id":"4","last_reported":1699765590,"current_range_meters":29600,"station_id":"ce4bgph2rcd13ifvqc2g","pricing_plan_id":"free"},{"bike_id":"fc2a44f5-01b6-48b9-a513-cd451c3c3e48","system_id":"levelo_inurba_marseille","lat":43.29573,"lon":5.367355,"is_reserved":false,"is_disabled":false,"rental_uris":{"android":"levelo://app?vid=fc2a44f5-01b6-48b9-a513-cd451c3c3e48","ios":"levelo://app?vid=fc2a44f5-01b6-48b9-a513-cd451c3c3e48"},"vehicle_type_id":"4","last_reported":1699765590,"current_range_meters":31600,"station_id":"ce4bgph2rcd13ifvqc2g","pricing_plan_id":"free"},{"bike_id":"408e1bba-ac1b-479c-ad30-32026784c873","system_id":"levelo_inurba_marseille","lat":43.2966,"lon":5.37463,"is_reserved":false,"is_disabled":false,"rental_uris":{"android":"levelo://app?vid=408e1bba-ac1b-479c-ad30-32026784c873","ios":"levelo://app?vid=408e1bba-ac1b-479c-ad30-32026784c873"},"vehicle_type_id":"4","last_reported":1699765590,"current_range_meters":13200,"station_id":"","pricing_plan_id":"free"},{"bike_id":"00128090-6f59-490f-9c23-28d56ddfebd2","system_id":"levelo_inurba_marseille","lat":43.299028,"lon":5.381509,"is_reserved":false,"is_disabled":false,"rental_uris":{"android":"levelo://app?vid=00128090-6f59-490f-9c23-28d56ddfebd2","ios":"levelo://app?vid=00128090-6f59-490f-9c23-28d56ddfebd2"},"vehicle_type_id":"4","last_reported":1699765590,"current_range_meters":30400,"station_id":"ce4bgj12rcd13ifvqbc0","pricing_plan_id":"free"},{"bike_id":"67666d06-b522-43ec-9311-267b85d5c931","system_id":"levelo_inurba_marseille","lat":43.30945,"lon":5.39036,"is_reserved":false,"is_disabled":false,"rental_uris":{"android":"levelo://app?vid=67666d06-b522-43ec-9311-267b85d5c931","ios":"levelo://app?vid=67666d06-b522-43ec-9311-267b85d5c931"},"vehicle_type_id":"4","last_reported":1699765590,"current_range_meters":0,"station_id":"ce4bgup2rcd13ifvqco0","pricing_plan_id":"free"},{"bike_id":"b895c862-71d5-45b0-a93a-2984fba6e59b","system_id":"levelo_inurba_marseille","lat":43.317557,"lon":5.390173,"is_reserved":false,"is_disabled":false,"rental_uris":{"android":"levelo://app?vid=b895c862-71d5-45b0-a93a-2984fba6e59b","ios":"levelo://app?vid=b895c862-71d5-45b0-a93a-2984fba6e59b"},"vehicle_type_id":"4","last_reported":1699765590,"current_range_meters":31600,"station_id":"ce4bhqp2rcd13ifvqhng","pricing_plan_id":"free"},{"bike_id":"ee16c8e6-4080-4f1f-8d1e-e70a79ffc07f","system_id":"levelo_inurba_marseille","lat":43.317557,"lon":5.390173,"is_reserved":false,"is_disabled":false,"rental_uris":{"android":"levelo://app?vid=ee16c8e6-4080-4f1f-8d1e-e70a79ffc07f","ios":"levelo://app?vid=ee16c8e6-4080-4f1f-8d1e-e70a79ffc07f"},"vehicle_type_id":"4","last_reported":1699765590,"current_range_meters":31600,"station_id":"ce4bhqp2rcd13ifvqhng","pricing_plan_id":"free"},{"bike_id":"6eb543ca-2cb1-49ae-a045-513302c5e6e5","system_id":"levelo_inurba_marseille","lat":43.317557,"lon":5.390173,"is_reserved":false,"is_disabled":false,"rental_uris":{"android":"levelo://app?vid=6eb543ca-2cb1-49ae-a045-513302c5e6e5","ios":"levelo://app?vid=6eb543ca-2cb1-49ae-a045-513302c5e6e5"},"vehicle_type_id":"4","last_reported":1699765590,"current_range_meters":31600,"station_id":"ce4bhqp2rcd13ifvqhng","pricing_plan_id":"free"},{"bike_id":"feff7d8e-9456-4b4b-b917-4f91bb23e023","system_id":"levelo_inurba_marseille","lat":43.3175,"lon":5.39022,"is_reserved":false,"is_disabled":false,"rental_uris":{"android":"levelo://app?vid=feff7d8e-9456-4b4b-b917-4f91bb23e023","ios":"levelo://app?vid=feff7d8e-9456-4b4b-b917-4f91bb23e023"},"vehicle_type_id":"4","last_reported":1699765590,"current_range_meters":16000,"station_id":"","pricing_plan_id":"free"},{"bike_id":"86b77831-73b2-483e-9b0e-cc137d4a3525","system_id":"levelo_inurba_marseille","lat":43.317557,"lon":5.390173,"is_reserved":false,"is_disabled":false,"rental_uris":{"android":"levelo://app?vid=86b77831-73b2-483e-9b0e-cc137d4a3525","ios":"levelo://app?vid=86b77831-73b2-483e-9b0e-cc137d4a3525"},"vehicle_type_id":"4","last_reported":1699765590,"current_range_meters":31600,"station_id":"ce4bhqp2rcd13ifvqhng","pricing_plan_id":"free"},{"bike_id":"c78b0710-f41f-4b15-993f-3660ae388124","system_id":"levelo_inurba_marseille","lat":43.304274,"lon":5.388873,"is_reserved":false,"is_disabled":false,"rental_uris":{"android":"levelo://app?vid=c78b0710-f41f-4b15-993f-3660ae388124","ios":"levelo://app?vid=c78b0710-f41f-4b15-993f-3660ae388124"},"vehicle_type_id":"4","last_reported":1699765590,"current_range_meters":28000,"station_id":"ce4bgk12rcd13ifvqbi0","pricing_plan_id":"free"},{"bike_id":"c6098ff6-7247-4b4e-adb8-a5329818d5ab","system_id":"levelo_inurba_marseille","lat":43.296117,"lon":5.37714,"is_reserved":false,"is_disabled":false,"rental_uris":{"android":"levelo://app?vid=c6098ff6-7247-4b4e-adb8-a5329818d5ab","ios":"levelo://app?vid=c6098ff6-7247-4b4e-adb8-a5329818d5ab"},"vehicle_type_id":"4","last_reported":1699765590,"current_range_meters":30000,"station_id":"ce4bgi92rcd13ifvqb90","pricing_plan_id":"free"},{"bike_id":"bb2b0cba-7c81-4e90-bd86-4de247a97a64","system_id":"levelo_inurba_marseille","lat":43.295279,"lon":5.375048,"is_reserved":false,"is_disabled":false,"rental_uris":{"android":"levelo://app?vid=bb2b0cba-7c81-4e90-bd86-4de247a97a64","ios":"levelo://app?vid=bb2b0cba-7c81-4e90-bd86-4de247a97a64"},"vehicle_type_id":"4","last_reported":1699765590,"current_range_meters":30800,"station_id":"ce4bgkp2rcd13ifvqbmg","pricing_plan_id":"free"},{"bike_id":"7dea5bfe-b7b1-4d8e-b919-37fe5988879c","system_id":"levelo_inurba_marseille","lat":43.299717,"lon":5.384845,"is_reserved":false,"is_disabled":false,"rental_uris":{"android":"levelo://app?vid=7dea5bfe-b7b1-4d8e-b919-37fe5988879c","ios":"levelo://app?vid=7dea5bfe-b7b1-4d8e-b919-37fe5988879c"},"vehicle_type_id":"4","last_reported":1699765590,"current_range_meters":12000,"station_id":"ce4bgj92rcd13ifvqbd0","pricing_plan_id":"free"},{"bike_id":"031624b9-65a1-465d-afcb-2399d6424791","system_id":"levelo_inurba_marseille","lat":43.299717,"lon":5.384845,"is_reserved":false,"is_disabled":false,"rental_uris":{"android":"levelo://app?vid=031624b9-65a1-465d-afcb-2399d6424791","ios":"levelo://app?vid=031624b9-65a1-465d-afcb-2399d6424791"},"vehicle_type_id":"4","last_reported":1699765590,"current_range_meters":30400,"station_id":"ce4bgj92rcd13ifvqbd0","pricing_plan_id":"free"},{"bike_id":"6e50e984-6ebf-49a4-a2ab-ad86c0282cb2","system_id":"levelo_inurba_marseille","lat":43.31277,"lon":5.39389,"is_reserved":false,"is_disabled":false,"rental_uris":{"android":"levelo://app?vid=6e50e984-6ebf-49a4-a2ab-ad86c0282cb2","ios":"levelo://app?vid=6e50e984-6ebf-49a4-a2ab-ad86c0282cb2"},"vehicle_type_id":"4","last_reported":1699765590,"current_range_meters":0,"station_id":"","pricing_plan_id":"free"},{"bike_id":"c2b2b20a-5bab-4b3b-aeda-0405a69f3c90","system_id":"levelo_inurba_marseille","lat":43.293249,"lon":5.371578,"is_reserved":false,"is_disabled":false,"rental_uris":{"android":"levelo://app?vid=c2b2b20a-5bab-4b3b-aeda-0405a69f3c90","ios":"levelo://app?vid=c2b2b20a-5bab-4b3b-aeda-0405a69f3c90"},"vehicle_type_id":"4","last_reported":1699765590,"current_range_meters":27600,"station_id":"ce4bgh92rcd13ifvqb40","pricing_plan_id":"free"},{"bike_id":"1f2edeec-835f-4188-b75a-b19c37bb1dac","system_id":"levelo_inurba_marseille","lat":43.30109,"lon":5.3894,"is_reserved":false,"is_disabled":false,"rental_uris":{"android":"levelo://app?vid=1f2edeec-835f-4188-b75a-b19c37bb1dac","ios":"levelo://app?vid=1f2edeec-835f-4188-b75a-b19c37bb1dac"},"vehicle_type_id":"4","last_reported":1699765590,"current_range_meters":2800,"station_id":"","pricing_plan_id":"free"},{"bike_id":"81c88bbc-582c-4f35-9c76-0b0b9491d4c5","system_id":"levelo_inurba_marseille","lat":43.305994,"lon":5.393687,"is_reserved":false,"is_disabled":false,"rental_uris":{"android":"levelo://app?vid=81c88bbc-582c-4f35-9c76-0b0b9491d4c5","ios":"levelo://app?vid=81c88bbc-582c-4f35-9c76-0b0b9491d4c5"},"vehicle_type_id":"4","last_reported":1699765590,"current_range_meters":29200,"station_id":"ce4bh0p2rcd13ifvqd80","pricing_plan_id":"free"},{"bike_id":"97e8caca-0ff1-401e-a15c-7517318a2a0e","system_id":"levelo_inurba_marseille","lat":43.303002,"lon":5.392142,"is_reserved":false,"is_disabled":false,"rental_uris":{"android":"levelo://app?vid=97e8caca-0ff1-401e-a15c-7517318a2a0e","ios":"levelo://app?vid=97e8caca-0ff1-401e-a15c-7517318a2a0e"},"vehicle_type_id":"4","last_reported":1699765590,"current_range_meters":17600,"station_id":"ce4bgkh2rcd13ifvqbk0","pricing_plan_id":"free"},{"bike_id":"6554ea47-994b-414f-808c-a433e44531e7","system_id":"levelo_inurba_marseille","lat":43.298748,"lon":5.389131,"is_reserved":false,"is_disabled":false,"rental_uris":{"android":"levelo://app?vid=6554ea47-994b-414f-808c-a433e44531e7","ios":"levelo://app?vid=6554ea47-994b-414f-808c-a433e44531e7"},"vehicle_type_id":"4","last_reported":1699765590,"current_range_meters":28800,"station_id":"ce4bh392rcd13ifvqdl0","pricing_plan_id":"free"},{"bike_id":"721d2daf-e14c-4987-914c-99b76467732f","system_id":"levelo_inurba_marseille","lat":43.298681,"lon":5.389109,"is_reserved":false,"is_disabled":false,"rental_uris":{"android":"levelo://app?vid=721d2daf-e14c-4987-914c-99b76467732f","ios":"levelo://app?vid=721d2daf-e14c-4987-914c-99b76467732f"},"vehicle_type_id":"4","last_reported":1699765590,"current_range_meters":22800,"station_id":"ce4bh392rcd13ifvqdl0","pricing_plan_id":"free"},{"bike_id":"7c0838e6-a4d4-46eb-bc44-9b58ec1e90ee","system_id":"levelo_inurba_marseille","lat":43.313291,"lon":5.396838,"is_reserved":false,"is_disabled":false,"rental_uris":{"android":"levelo://app?vid=7c0838e6-a4d4-46eb-bc44-9b58ec1e90ee","ios":"levelo://app?vid=7c0838e6-a4d4-46eb-bc44-9b58ec1e90ee"},"vehicle_type_id":"4","last_reported":1699765590,"current_range_meters":25200,"station_id":"ce4bgvp2rcd13ifvqcu0","pricing_plan_id":"free"},{"bike_id":"57903118-0cf0-412a-8669-c8a0b0dd2dfb","system_id":"levelo_inurba_marseille","lat":43.31326,"lon":5.39689,"is_reserved":false,"is_disabled":false,"rental_uris":{"android":"levelo://app?vid=57903118-0cf0-412a-8669-c8a0b0dd2dfb","ios":"levelo://app?vid=57903118-0cf0-412a-8669-c8a0b0dd2dfb"},"vehicle_type_id":"4","last_reported":1699765590,"current_range_meters":30800,"station_id":"ce4bgvp2rcd13ifvqcu0","pricing_plan_id":"free"},{"bike_id":"173fa19f-be95-4252-9c41-a51cd0cc5b5f","system_id":"levelo_inurba_marseille","lat":43.313289,"lon":5.396907,"is_reserved":false,"is_disabled":false,"rental_uris":{"android":"levelo://app?vid=173fa19f-be95-4252-9c41-a51cd0cc5b5f","ios":"levelo://app?vid=173fa19f-be95-4252-9c41-a51cd0cc5b5f"},"vehicle_type_id":"4","last_reported":1699765590,"current_range_meters":24000,"station_id":"ce4bgvp2rcd13ifvqcu0","pricing_plan_id":"free"},{"bike_id":"313dd4a7-00cd-4a51-97c2-2bc4a19f8416","system_id":"levelo_inurba_marseille","lat":43.31329,"lon":5.39692,"is_reserved":false,"is_disabled":false,"rental_uris":{"android":"levelo://app?vid=313dd4a7-00cd-4a51-97c2-2bc4a19f8416","ios":"levelo://app?vid=313dd4a7-00cd-4a51-97c2-2bc4a19f8416"},"vehicle_type_id":"4","last_reported":1699765590,"current_range_meters":30400,"station_id":"ce4bgvp2rcd13ifvqcu0","pricing_plan_id":"free"},{"bike_id":"599ed252-0c21-4737-af2d-9cc63897e29d","system_id":"levelo_inurba_marseille","lat":43.309038,"lon":5.396546,"is_reserved":false,"is_disabled":false,"rental_uris":{"android":"levelo://app?vid=599ed252-0c21-4737-af2d-9cc63897e29d","ios":"levelo://app?vid=599ed252-0c21-4737-af2d-9cc63897e29d"},"vehicle_type_id":"4","last_reported":1699765590,"current_range_meters":31600,"station_id":"ce4bh012rcd13ifvqcv0","pricing_plan_id":"free"},{"bike_id":"fc5e01a8-0846-4c8d-b6bc-eb17c75bfbcf","system_id":"levelo_inurba_marseille","lat":43.31333,"lon":5.396952,"is_reserved":false,"is_disabled":false,"rental_uris":{"android":"levelo://app?vid=fc5e01a8-0846-4c8d-b6bc-eb17c75bfbcf","ios":"levelo://app?vid=fc5e01a8-0846-4c8d-b6bc-eb17c75bfbcf"},"vehicle_type_id":"4","last_reported":1699765590,"current_range_meters":30400,"station_id":"ce4bgvp2rcd13ifvqcu0","pricing_plan_id":"free"},{"bike_id":"54c2015a-8c0c-4d00-9b37-c79646c26110","system_id":"levelo_inurba_marseille","lat":43.313307,"lon":5.397004,"is_reserved":false,"is_disabled":false,"rental_uris":{"android":"levelo://app?vid=54c2015a-8c0c-4d00-9b37-c79646c26110","ios":"levelo://app?vid=54c2015a-8c0c-4d00-9b37-c79646c26110"},"vehicle_type_id":"4","last_reported":1699765590,"current_range_meters":6800,"station_id":"","pricing_plan_id":"free"},{"bike_id":"fb1d6f27-0146-4b7a-b69c-991acd1216ca","system_id":"levelo_inurba_marseille","lat":43.290375,"lon":5.375655,"is_reserved":false,"is_disabled":false,"rental_uris":{"android":"levelo://app?vid=fb1d6f27-0146-4b7a-b69c-991acd1216ca","ios":"levelo://app?vid=fb1d6f27-0146-4b7a-b69c-991acd1216ca"},"vehicle_type_id":"4","last_reported":1699765590,"current_range_meters":19600,"station_id":"ce4bh692rcd13ifvqe90","pricing_plan_id":"free"},{"bike_id":"cc1aa884-459e-464c-b00d-d06b3e9b2096","system_id":"levelo_inurba_marseille","lat":43.289468,"lon":5.363719,"is_reserved":false,"is_disabled":false,"rental_uris":{"android":"levelo://app?vid=cc1aa884-459e-464c-b00d-d06b3e9b2096","ios":"levelo://app?vid=cc1aa884-459e-464c-b00d-d06b3e9b2096"},"vehicle_type_id":"4","last_reported":1699765590,"current_range_meters":27200,"station_id":"ce4bhc92rcd13ifvqetg","pricing_plan_id":"free"},{"bike_id":"0a085a8c-c9f7-4cac-870f-87957dc89b10","system_id":"levelo_inurba_marseille","lat":43.292642,"lon":5.384254,"is_reserved":false,"is_disabled":false,"rental_uris":{"android":"levelo://app?vid=0a085a8c-c9f7-4cac-870f-87957dc89b10","ios":"levelo://app?vid=0a085a8c-c9f7-4cac-870f-87957dc89b10"},"vehicle_type_id":"4","last_reported":1699765590,"current_range_meters":23200,"station_id":"ce4bh692rcd13ifvqea0","pricing_plan_id":"free"},{"bike_id":"a0540e5c-bb0e-4720-b321-648d0b0822d9","system_id":"levelo_inurba_marseille","lat":43.304274,"lon":5.397513,"is_reserved":false,"is_disabled":false,"rental_uris":{"android":"levelo://app?vid=a0540e5c-bb0e-4720-b321-648d0b0822d9","ios":"levelo://app?vid=a0540e5c-bb0e-4720-b321-648d0b0822d9"},"vehicle_type_id":"4","last_reported":1699765590,"current_range_meters":29200,"station_id":"ce4bh092rcd13ifvqd20","pricing_plan_id":"free"},{"bike_id":"3ce855c2-5ea4-4f15-a71c-9659a00c30d1","system_id":"levelo_inurba_marseille","lat":43.297927,"lon":5.393544,"is_reserved":false,"is_disabled":false,"rental_uris":{"android":"levelo://app?vid=3ce855c2-5ea4-4f15-a71c-9659a00c30d1","ios":"levelo://app?vid=3ce855c2-5ea4-4f15-a71c-9659a00c30d1"},"vehicle_type_id":"4","last_reported":1699765590,"current_range_meters":26000,"station_id":"chh1huq6cuj3fo74tm60","pricing_plan_id":"free"},{"bike_id":"ecd11b57-7019-4432-bccd-4c8aca080b6f","system_id":"levelo_inurba_marseille","lat":43.295305,"lon":5.390356,"is_reserved":false,"is_disabled":false,"rental_uris":{"android":"levelo://app?vid=ecd11b57-7019-4432-bccd-4c8aca080b6f","ios":"levelo://app?vid=ecd11b57-7019-4432-bccd-4c8aca080b6f"},"vehicle_type_id":"4","last_reported":1699765590,"current_range_meters":27600,"station_id":"ce4bh3p2rcd13ifvqdp0","pricing_plan_id":"free"},{"bike_id":"eaea4368-c42e-4d29-bdcf-f6b7a85a1021","system_id":"levelo_inurba_marseille","lat":43.3126,"lon":5.40142,"is_reserved":false,"is_disabled":false,"rental_uris":{"android":"levelo://app?vid=eaea4368-c42e-4d29-bdcf-f6b7a85a1021","ios":"levelo://app?vid=eaea4368-c42e-4d29-bdcf-f6b7a85a1021"},"vehicle_type_id":"4","last_reported":1699765590,"current_range_meters":16000,"station_id":"ce4bh092rcd13ifvqd30","pricing_plan_id":"free"},{"bike_id":"7069865c-8ec8-421f-9325-ef00e54b0fd0","system_id":"levelo_inurba_marseille","lat":43.312609,"lon":5.401662,"is_reserved":false,"is_disabled":false,"rental_uris":{"android":"levelo://app?vid=7069865c-8ec8-421f-9325-ef00e54b0fd0","ios":"levelo://app?vid=7069865c-8ec8-421f-9325-ef00e54b0fd0"},"vehicle_type_id":"4","last_reported":1699765590,"current_range_meters":31200,"station_id":"ce4bh092rcd13ifvqd30","pricing_plan_id":"free"},{"bike_id":"0f4f5a74-c459-47a6-9034-b0e42af42ed6","system_id":"levelo_inurba_marseille","lat":43.312609,"lon":5.401662,"is_reserved":false,"is_disabled":false,"rental_uris":{"android":"levelo://app?vid=0f4f5a74-c459-47a6-9034-b0e42af42ed6","ios":"levelo://app?vid=0f4f5a74-c459-47a6-9034-b0e42af42ed6"},"vehicle_type_id":"4","last_reported":1699765590,"current_range_meters":31200,"station_id":"ce4bh092rcd13ifvqd30","pricing_plan_id":"free"},{"bike_id":"8d0e7d5a-a5e3-4a7e-b28e-96d761caf723","system_id":"levelo_inurba_marseille","lat":43.31282,"lon":5.401683,"is_reserved":false,"is_disabled":false,"rental_uris":{"android":"levelo://app?vid=8d0e7d5a-a5e3-4a7e-b28e-96d761caf723","ios":"levelo://app?vid=8d0e7d5a-a5e3-4a7e-b28e-96d761caf723"},"vehicle_type_id":"4","last_reported":1699765590,"current_range_meters":30400,"station_id":"ce4bh092rcd13ifvqd30","pricing_plan_id":"free"},{"bike_id":"8e8be408-3a3b-4ecf-ab7d-db5a7ae7b3f4","system_id":"levelo_inurba_marseille","lat":43.31279,"lon":5.4017,"is_reserved":false,"is_disabled":false,"rental_uris":{"android":"levelo://app?vid=8e8be408-3a3b-4ecf-ab7d-db5a7ae7b3f4","ios":"levelo://app?vid=8e8be408-3a3b-4ecf-ab7d-db5a7ae7b3f4"},"vehicle_type_id":"4","last_reported":1699765590,"current_range_meters":28000,"station_id":"ce4bh092rcd13ifvqd30","pricing_plan_id":"free"},{"bike_id":"9516bea0-980f-4069-940a-6400bc4cad62","system_id":"levelo_inurba_marseille","lat":43.309294,"lon":5.401414,"is_reserved":false,"is_disabled":false,"rental_uris":{"android":"levelo://app?vid=9516bea0-980f-4069-940a-6400bc4cad62","ios":"levelo://app?vid=9516bea0-980f-4069-940a-6400bc4cad62"},"vehicle_type_id":"4","last_reported":1699765590,"current_range_meters":30400,"station_id":"ce4bgvp2rcd13ifvqct0","pricing_plan_id":"free"},{"bike_id":"5ea13516-e705-4375-b063-528a8d99d9f2","system_id":"levelo_inurba_marseille","lat":43.30925,"lon":5.40141,"is_reserved":false,"is_disabled":false,"rental_uris":{"android":"levelo://app?vid=5ea13516-e705-4375-b063-528a8d99d9f2","ios":"levelo://app?vid=5ea13516-e705-4375-b063-528a8d99d9f2"},"vehicle_type_id":"4","last_reported":1699765590,"current_range_meters":26800,"station_id":"","pricing_plan_id":"free"},{"bike_id":"1fe4eea9-e9b1-4eec-a425-6616c56c856f","system_id":"levelo_inurba_marseille","lat":43.306412,"lon":5.401035,"is_reserved":false,"is_disabled":false,"rental_uris":{"android":"levelo://app?vid=1fe4eea9-e9b1-4eec-a425-6616c56c856f","ios":"levelo://app?vid=1fe4eea9-e9b1-4eec-a425-6616c56c856f"},"vehicle_type_id":"4","last_reported":1699765590,"current_range_meters":31600,"station_id":"ce4bh112rcd13ifvqda0","pricing_plan_id":"free"},{"bike_id":"cef397f5-a8b0-4133-839e-429572821167","system_id":"levelo_inurba_marseille","lat":43.309231,"lon":5.401441,"is_reserved":false,"is_disabled":false,"rental_uris":{"android":"levelo://app?vid=cef397f5-a8b0-4133-839e-429572821167","ios":"levelo://app?vid=cef397f5-a8b0-4133-839e-429572821167"},"vehicle_type_id":"4","last_reported":1699765590,"current_range_meters":31200,"station_id":"ce4bgvp2rcd13ifvqct0","pricing_plan_id":"free"},{"bike_id":"fda95fd6-7932-445d-b394-81373726a0f4","system_id":"levelo_inurba_marseille","lat":43.30642,"lon":5.401031,"is_reserved":false,"is_disabled":false,"rental_uris":{"android":"levelo://app?vid=fda95fd6-7932-445d-b394-81373726a0f4","ios":"levelo://app?vid=fda95fd6-7932-445d-b394-81373726a0f4"},"vehicle_type_id":"4","last_reported":1699765590,"current_range_meters":31200,"station_id":"ce4bh112rcd13ifvqda0","pricing_plan_id":"free"},{"bike_id":"aaa7d48e-0fa8-46bd-8c22-21a4e5928530","system_id":"levelo_inurba_marseille","lat":43.306412,"lon":5.401035,"is_reserved":false,"is_disabled":false,"rental_uris":{"android":"levelo://app?vid=aaa7d48e-0fa8-46bd-8c22-21a4e5928530","ios":"levelo://app?vid=aaa7d48e-0fa8-46bd-8c22-21a4e5928530"},"vehicle_type_id":"4","last_reported":1699765590,"current_range_meters":31600,"station_id":"ce4bh112rcd13ifvqda0","pricing_plan_id":"free"},{"bike_id":"f691344a-50b1-4798-bf1d-7392f5e2759c","system_id":"levelo_inurba_marseille","lat":43.309274,"lon":5.401485,"is_reserved":false,"is_disabled":false,"rental_uris":{"android":"levelo://app?vid=f691344a-50b1-4798-bf1d-7392f5e2759c","ios":"levelo://app?vid=f691344a-50b1-4798-bf1d-7392f5e2759c"},"vehicle_type_id":"4","last_reported":1699765590,"current_range_meters":28800,"station_id":"ce4bgvp2rcd13ifvqct0","pricing_plan_id":"free"},{"bike_id":"c0f81438-5037-4c1a-8b76-ce72bc1f5c4a","system_id":"levelo_inurba_marseille","lat":43.30922,"lon":5.40148,"is_reserved":false,"is_disabled":false,"rental_uris":{"android":"levelo://app?vid=c0f81438-5037-4c1a-8b76-ce72bc1f5c4a","ios":"levelo://app?vid=c0f81438-5037-4c1a-8b76-ce72bc1f5c4a"},"vehicle_type_id":"4","last_reported":1699765590,"current_range_meters":28400,"station_id":"ce4bgvp2rcd13ifvqct0","pricing_plan_id":"free"},{"bike_id":"9e325274-0641-47cd-8d27-8063a1651a50","system_id":"levelo_inurba_marseille","lat":43.30664,"lon":5.40089,"is_reserved":false,"is_disabled":false,"rental_uris":{"android":"levelo://app?vid=9e325274-0641-47cd-8d27-8063a1651a50","ios":"levelo://app?vid=9e325274-0641-47cd-8d27-8063a1651a50"},"vehicle_type_id":"4","last_reported":1699765590,"current_range_meters":21200,"station_id":"ce4bh112rcd13ifvqda0","pricing_plan_id":"free"},{"bike_id":"881ac259-fdd4-4544-989d-5537ec504001","system_id":"levelo_inurba_marseille","lat":43.30642,"lon":5.401031,"is_reserved":false,"is_disabled":false,"rental_uris":{"android":"levelo://app?vid=881ac259-fdd4-4544-989d-5537ec504001","ios":"levelo://app?vid=881ac259-fdd4-4544-989d-5537ec504001"},"vehicle_type_id":"4","last_reported":1699765590,"current_range_meters":28800,"station_id":"ce4bh112rcd13ifvqda0","pricing_plan_id":"free"},{"bike_id":"ddc0fc77-cf4a-4668-b9ec-19b533691c2f","system_id":"levelo_inurba_marseille","lat":43.306584,"lon":5.400911,"is_reserved":false,"is_disabled":false,"rental_uris":{"android":"levelo://app?vid=ddc0fc77-cf4a-4668-b9ec-19b533691c2f","ios":"levelo://app?vid=ddc0fc77-cf4a-4668-b9ec-19b533691c2f"},"vehicle_type_id":"4","last_reported":1699765590,"current_range_meters":31600,"station_id":"ce4bh112rcd13ifvqda0","pricing_plan_id":"free"},{"bike_id":"4fcd6969-d073-4555-b031-34f4c4fec1dd","system_id":"levelo_inurba_marseille","lat":43.306412,"lon":5.401035,"is_reserved":false,"is_disabled":false,"rental_uris":{"android":"levelo://app?vid=4fcd6969-d073-4555-b031-34f4c4fec1dd","ios":"levelo://app?vid=4fcd6969-d073-4555-b031-34f4c4fec1dd"},"vehicle_type_id":"4","last_reported":1699765590,"current_range_meters":12000,"station_id":"ce4bh112rcd13ifvqda0","pricing_plan_id":"free"},{"bike_id":"743f3bc5-43c9-45a3-8965-b67b169c6c30","system_id":"levelo_inurba_marseille","lat":43.30513,"lon":5.40077,"is_reserved":false,"is_disabled":false,"rental_uris":{"android":"levelo://app?vid=743f3bc5-43c9-45a3-8965-b67b169c6c30","ios":"levelo://app?vid=743f3bc5-43c9-45a3-8965-b67b169c6c30"},"vehicle_type_id":"4","last_reported":1699765590,"current_range_meters":8800,"station_id":"","pricing_plan_id":"free"},{"bike_id":"3c1c0f10-6987-41ea-84ca-e184a2f6ec51","system_id":"levelo_inurba_marseille","lat":43.301412,"lon":5.398768,"is_reserved":false,"is_disabled":false,"rental_uris":{"android":"levelo://app?vid=3c1c0f10-6987-41ea-84ca-e184a2f6ec51","ios":"levelo://app?vid=3c1c0f10-6987-41ea-84ca-e184a2f6ec51"},"vehicle_type_id":"4","last_reported":1699765590,"current_range_meters":20800,"station_id":"ce4bh0h2rcd13ifvqd40","pricing_plan_id":"free"},{"bike_id":"0ba76634-83ab-4ae2-956c-75edd8dd6ad8","system_id":"levelo_inurba_marseille","lat":43.28727,"lon":5.36078,"is_reserved":false,"is_disabled":false,"rental_uris":{"android":"levelo://app?vid=0ba76634-83ab-4ae2-956c-75edd8dd6ad8","ios":"levelo://app?vid=0ba76634-83ab-4ae2-956c-75edd8dd6ad8"},"vehicle_type_id":"4","last_reported":1699765590,"current_range_meters":5600,"station_id":"cki0cbj6b192h4jlfktg","pricing_plan_id":"free"},{"bike_id":"cc164c50-43f8-44cf-b6da-d795e8200570","system_id":"levelo_inurba_marseille","lat":43.28727,"lon":5.36078,"is_reserved":false,"is_disabled":false,"rental_uris":{"android":"levelo://app?vid=cc164c50-43f8-44cf-b6da-d795e8200570","ios":"levelo://app?vid=cc164c50-43f8-44cf-b6da-d795e8200570"},"vehicle_type_id":"4","last_reported":1699765590,"current_range_meters":31200,"station_id":"cki0cbj6b192h4jlfktg","pricing_plan_id":"free"},{"bike_id":"9288764c-722e-440e-9e6b-a36059f9dd21","system_id":"levelo_inurba_marseille","lat":43.287288,"lon":5.360784,"is_reserved":false,"is_disabled":false,"rental_uris":{"android":"levelo://app?vid=9288764c-722e-440e-9e6b-a36059f9dd21","ios":"levelo://app?vid=9288764c-722e-440e-9e6b-a36059f9dd21"},"vehicle_type_id":"4","last_reported":1699765590,"current_range_meters":31200,"station_id":"cki0cbj6b192h4jlfktg","pricing_plan_id":"free"},{"bike_id":"71f88df4-e774-4d97-b967-d5394a875906","system_id":"levelo_inurba_marseille","lat":43.28727,"lon":5.36078,"is_reserved":false,"is_disabled":false,"rental_uris":{"android":"levelo://app?vid=71f88df4-e774-4d97-b967-d5394a875906","ios":"levelo://app?vid=71f88df4-e774-4d97-b967-d5394a875906"},"vehicle_type_id":"4","last_reported":1699765590,"current_range_meters":31600,"station_id":"cki0cbj6b192h4jlfktg","pricing_plan_id":"free"},{"bike_id":"426fb9d9-2872-4baf-8787-f0f933cf3d67","system_id":"levelo_inurba_marseille","lat":43.295196,"lon":5.39397,"is_reserved":false,"is_disabled":false,"rental_uris":{"android":"levelo://app?vid=426fb9d9-2872-4baf-8787-f0f933cf3d67","ios":"levelo://app?vid=426fb9d9-2872-4baf-8787-f0f933cf3d67"},"vehicle_type_id":"4","last_reported":1699765590,"current_range_meters":16400,"station_id":"ce4bh292rcd13ifvqdf0","pricing_plan_id":"free"},{"bike_id":"50f8b893-0d71-4930-9e16-901f5d0d766c","system_id":"levelo_inurba_marseille","lat":43.29039,"lon":5.38641,"is_reserved":false,"is_disabled":false,"rental_uris":{"android":"levelo://app?vid=50f8b893-0d71-4930-9e16-901f5d0d766c","ios":"levelo://app?vid=50f8b893-0d71-4930-9e16-901f5d0d766c"},"vehicle_type_id":"4","last_reported":1699765590,"current_range_meters":17200,"station_id":"ce4bh4p2rcd13ifvqe0g","pricing_plan_id":"free"},{"bike_id":"46e5b569-0aea-4769-beee-1be1ded4f2a8","system_id":"levelo_inurba_marseille","lat":43.302578,"lon":5.400695,"is_reserved":false,"is_disabled":false,"rental_uris":{"android":"levelo://app?vid=46e5b569-0aea-4769-beee-1be1ded4f2a8","ios":"levelo://app?vid=46e5b569-0aea-4769-beee-1be1ded4f2a8"},"vehicle_type_id":"4","last_reported":1699765590,"current_range_meters":22000,"station_id":"ce4bgvh2rcd13ifvqcs0","pricing_plan_id":"free"},{"bike_id":"755c1b59-f233-40c3-b2ae-92e5e74d8a11","system_id":"levelo_inurba_marseille","lat":43.302759,"lon":5.400793,"is_reserved":false,"is_disabled":false,"rental_uris":{"android":"levelo://app?vid=755c1b59-f233-40c3-b2ae-92e5e74d8a11","ios":"levelo://app?vid=755c1b59-f233-40c3-b2ae-92e5e74d8a11"},"vehicle_type_id":"4","last_reported":1699765590,"current_range_meters":31600,"station_id":"ce4bgvh2rcd13ifvqcs0","pricing_plan_id":"free"},{"bike_id":"45675d66-35cb-4665-8cf1-2b2eff2590e1","system_id":"levelo_inurba_marseille","lat":43.302582,"lon":5.4008,"is_reserved":false,"is_disabled":false,"rental_uris":{"android":"levelo://app?vid=45675d66-35cb-4665-8cf1-2b2eff2590e1","ios":"levelo://app?vid=45675d66-35cb-4665-8cf1-2b2eff2590e1"},"vehicle_type_id":"4","last_reported":1699765590,"current_range_meters":30400,"station_id":"ce4bgvh2rcd13ifvqcs0","pricing_plan_id":"free"},{"bike_id":"7580b23e-b7fb-4907-b3d7-52d89b7bfb57","system_id":"levelo_inurba_marseille","lat":43.28856,"lon":5.358371,"is_reserved":false,"is_disabled":false,"rental_uris":{"android":"levelo://app?vid=7580b23e-b7fb-4907-b3d7-52d89b7bfb57","ios":"levelo://app?vid=7580b23e-b7fb-4907-b3d7-52d89b7bfb57"},"vehicle_type_id":"4","last_reported":1699765590,"current_range_meters":24800,"station_id":"ce4bhb12rcd13ifvqem0","pricing_plan_id":"free"},{"bike_id":"e1f2aa7e-c7dc-446f-b510-3a3a0c205417","system_id":"levelo_inurba_marseille","lat":43.31644,"lon":5.4043,"is_reserved":false,"is_disabled":false,"rental_uris":{"android":"levelo://app?vid=e1f2aa7e-c7dc-446f-b510-3a3a0c205417","ios":"levelo://app?vid=e1f2aa7e-c7dc-446f-b510-3a3a0c205417"},"vehicle_type_id":"4","last_reported":1699765590,"current_range_meters":27200,"station_id":"ce4bh012rcd13ifvqd00","pricing_plan_id":"free"},{"bike_id":"a1b39922-14c9-4573-8801-fb57b34fa119","system_id":"levelo_inurba_marseille","lat":43.316523,"lon":5.404367,"is_reserved":false,"is_disabled":false,"rental_uris":{"android":"levelo://app?vid=a1b39922-14c9-4573-8801-fb57b34fa119","ios":"levelo://app?vid=a1b39922-14c9-4573-8801-fb57b34fa119"},"vehicle_type_id":"4","last_reported":1699765590,"current_range_meters":30800,"station_id":"ce4bh012rcd13ifvqd00","pricing_plan_id":"free"},{"bike_id":"2de87aec-a4e7-42f2-a2a7-b182a0652196","system_id":"levelo_inurba_marseille","lat":43.31646,"lon":5.40434,"is_reserved":false,"is_disabled":false,"rental_uris":{"android":"levelo://app?vid=2de87aec-a4e7-42f2-a2a7-b182a0652196","ios":"levelo://app?vid=2de87aec-a4e7-42f2-a2a7-b182a0652196"},"vehicle_type_id":"4","last_reported":1699765590,"current_range_meters":29600,"station_id":"ce4bh012rcd13ifvqd00","pricing_plan_id":"free"},{"bike_id":"10c3658b-4879-46c4-9c64-c9f6b65a4980","system_id":"levelo_inurba_marseille","lat":43.316457,"lon":5.404407,"is_reserved":false,"is_disabled":false,"rental_uris":{"android":"levelo://app?vid=10c3658b-4879-46c4-9c64-c9f6b65a4980","ios":"levelo://app?vid=10c3658b-4879-46c4-9c64-c9f6b65a4980"},"vehicle_type_id":"4","last_reported":1699765590,"current_range_meters":30400,"station_id":"ce4bh012rcd13ifvqd00","pricing_plan_id":"free"},{"bike_id":"7b515ad7-8382-468f-8226-53251379577f","system_id":"levelo_inurba_marseille","lat":43.3164,"lon":5.40444,"is_reserved":false,"is_disabled":false,"rental_uris":{"android":"levelo://app?vid=7b515ad7-8382-468f-8226-53251379577f","ios":"levelo://app?vid=7b515ad7-8382-468f-8226-53251379577f"},"vehicle_type_id":"4","last_reported":1699765590,"current_range_meters":11200,"station_id":"ce4bh012rcd13ifvqd00","pricing_plan_id":"free"},{"bike_id":"e57449c2-d088-47cf-8bf2-271593713c89","system_id":"levelo_inurba_marseille","lat":43.328576,"lon":5.398841,"is_reserved":false,"is_disabled":false,"rental_uris":{"android":"levelo://app?vid=e57449c2-d088-47cf-8bf2-271593713c89","ios":"levelo://app?vid=e57449c2-d088-47cf-8bf2-271593713c89"},"vehicle_type_id":"4","last_reported":1699765590,"current_range_meters":5600,"station_id":"","pricing_plan_id":"free"},{"bike_id":"e247165b-34f2-4b94-bf65-9db047e64375","system_id":"levelo_inurba_marseille","lat":43.29206,"lon":5.393286,"is_reserved":false,"is_disabled":false,"rental_uris":{"android":"levelo://app?vid=e247165b-34f2-4b94-bf65-9db047e64375","ios":"levelo://app?vid=e247165b-34f2-4b94-bf65-9db047e64375"},"vehicle_type_id":"4","last_reported":1699765590,"current_range_meters":31200,"station_id":"ce4bh192rcd13ifvqdd0","pricing_plan_id":"free"},{"bike_id":"fcbc09d0-a56e-44b1-8f38-8e6d5183a315","system_id":"levelo_inurba_marseille","lat":43.294314,"lon":5.397498,"is_reserved":false,"is_disabled":false,"rental_uris":{"android":"levelo://app?vid=fcbc09d0-a56e-44b1-8f38-8e6d5183a315","ios":"levelo://app?vid=fcbc09d0-a56e-44b1-8f38-8e6d5183a315"},"vehicle_type_id":"4","last_reported":1699765590,"current_range_meters":27200,"station_id":"ce4bh3h2rcd13ifvqdo0","pricing_plan_id":"free"},{"bike_id":"1acc4e6e-f83b-4934-aabf-b5a819736f72","system_id":"levelo_inurba_marseille","lat":43.294314,"lon":5.397498,"is_reserved":false,"is_disabled":false,"rental_uris":{"android":"levelo://app?vid=1acc4e6e-f83b-4934-aabf-b5a819736f72","ios":"levelo://app?vid=1acc4e6e-f83b-4934-aabf-b5a819736f72"},"vehicle_type_id":"4","last_reported":1699765590,"current_range_meters":26400,"station_id":"ce4bh3h2rcd13ifvqdo0","pricing_plan_id":"free"},{"bike_id":"da2a4076-eb32-4a7c-974a-b1513619f5bb","system_id":"levelo_inurba_marseille","lat":43.294314,"lon":5.397498,"is_reserved":false,"is_disabled":false,"rental_uris":{"android":"levelo://app?vid=da2a4076-eb32-4a7c-974a-b1513619f5bb","ios":"levelo://app?vid=da2a4076-eb32-4a7c-974a-b1513619f5bb"},"vehicle_type_id":"4","last_reported":1699765590,"current_range_meters":28400,"station_id":"ce4bh3h2rcd13ifvqdo0","pricing_plan_id":"free"},{"bike_id":"dbf9ae63-dcdb-40b8-8e30-e8cd72f23f04","system_id":"levelo_inurba_marseille","lat":43.29582,"lon":5.3998,"is_reserved":false,"is_disabled":false,"rental_uris":{"android":"levelo://app?vid=dbf9ae63-dcdb-40b8-8e30-e8cd72f23f04","ios":"levelo://app?vid=dbf9ae63-dcdb-40b8-8e30-e8cd72f23f04"},"vehicle_type_id":"4","last_reported":1699765590,"current_range_meters":15600,"station_id":"ce4bh312rcd13ifvqdj0","pricing_plan_id":"free"},{"bike_id":"af8958e4-6d20-4165-af2e-1de4e3cc023e","system_id":"levelo_inurba_marseille","lat":43.295713,"lon":5.399639,"is_reserved":false,"is_disabled":false,"rental_uris":{"android":"levelo://app?vid=af8958e4-6d20-4165-af2e-1de4e3cc023e","ios":"levelo://app?vid=af8958e4-6d20-4165-af2e-1de4e3cc023e"},"vehicle_type_id":"4","last_reported":1699765590,"current_range_meters":30800,"station_id":"ce4bh312rcd13ifvqdj0","pricing_plan_id":"free"},{"bike_id":"668f3b8b-5568-40c9-bdba-842f1492b355","system_id":"levelo_inurba_marseille","lat":43.295713,"lon":5.399639,"is_reserved":false,"is_disabled":false,"rental_uris":{"android":"levelo://app?vid=668f3b8b-5568-40c9-bdba-842f1492b355","ios":"levelo://app?vid=668f3b8b-5568-40c9-bdba-842f1492b355"},"vehicle_type_id":"4","last_reported":1699765590,"current_range_meters":26000,"station_id":"ce4bh312rcd13ifvqdj0","pricing_plan_id":"free"},{"bike_id":"70adb5b1-274a-437e-91ee-0d828abcebb8","system_id":"levelo_inurba_marseille","lat":43.295713,"lon":5.399639,"is_reserved":false,"is_disabled":false,"rental_uris":{"android":"levelo://app?vid=70adb5b1-274a-437e-91ee-0d828abcebb8","ios":"levelo://app?vid=70adb5b1-274a-437e-91ee-0d828abcebb8"},"vehicle_type_id":"4","last_reported":1699765590,"current_range_meters":31200,"station_id":"ce4bh312rcd13ifvqdj0","pricing_plan_id":"free"},{"bike_id":"15c91628-062a-4eb5-ac4b-f4e032f82faa","system_id":"levelo_inurba_marseille","lat":43.28694,"lon":5.38659,"is_reserved":false,"is_disabled":false,"rental_uris":{"android":"levelo://app?vid=15c91628-062a-4eb5-ac4b-f4e032f82faa","ios":"levelo://app?vid=15c91628-062a-4eb5-ac4b-f4e032f82faa"},"vehicle_type_id":"4","last_reported":1699765590,"current_range_meters":22400,"station_id":"ce4bhjp2rcd13ifvqga0","pricing_plan_id":"free"},{"bike_id":"95316cb1-4881-4213-8e57-a96ac18bed73","system_id":"levelo_inurba_marseille","lat":43.28681,"lon":5.38654,"is_reserved":false,"is_disabled":false,"rental_uris":{"android":"levelo://app?vid=95316cb1-4881-4213-8e57-a96ac18bed73","ios":"levelo://app?vid=95316cb1-4881-4213-8e57-a96ac18bed73"},"vehicle_type_id":"4","last_reported":1699765590,"current_range_meters":30400,"station_id":"ce4bh492rcd13ifvqdug","pricing_plan_id":"free"},{"bike_id":"8c9c22bd-fd23-4088-af6f-edeb1358f6ff","system_id":"levelo_inurba_marseille","lat":43.286595,"lon":5.386795,"is_reserved":false,"is_disabled":false,"rental_uris":{"android":"levelo://app?vid=8c9c22bd-fd23-4088-af6f-edeb1358f6ff","ios":"levelo://app?vid=8c9c22bd-fd23-4088-af6f-edeb1358f6ff"},"vehicle_type_id":"4","last_reported":1699765590,"current_range_meters":14800,"station_id":"ce4bh492rcd13ifvqdug","pricing_plan_id":"free"},{"bike_id":"cbfa83f2-9b8b-4245-ad19-8a87782a2866","system_id":"levelo_inurba_marseille","lat":43.2867,"lon":5.38657,"is_reserved":false,"is_disabled":false,"rental_uris":{"android":"levelo://app?vid=cbfa83f2-9b8b-4245-ad19-8a87782a2866","ios":"levelo://app?vid=cbfa83f2-9b8b-4245-ad19-8a87782a2866"},"vehicle_type_id":"4","last_reported":1699765590,"current_range_meters":31200,"station_id":"ce4bh492rcd13ifvqdug","pricing_plan_id":"free"},{"bike_id":"c9982d22-c49f-43d9-bfbb-1ef6adfe757a","system_id":"levelo_inurba_marseille","lat":43.319179,"lon":5.407725,"is_reserved":false,"is_disabled":false,"rental_uris":{"android":"levelo://app?vid=c9982d22-c49f-43d9-bfbb-1ef6adfe757a","ios":"levelo://app?vid=c9982d22-c49f-43d9-bfbb-1ef6adfe757a"},"vehicle_type_id":"4","last_reported":1699765590,"current_range_meters":31600,"station_id":"ce4bhq12rcd13ifvqhig","pricing_plan_id":"free"},{"bike_id":"08295c26-f27a-4ede-85e5-385b363c2964","system_id":"levelo_inurba_marseille","lat":43.319179,"lon":5.407725,"is_reserved":false,"is_disabled":false,"rental_uris":{"android":"levelo://app?vid=08295c26-f27a-4ede-85e5-385b363c2964","ios":"levelo://app?vid=08295c26-f27a-4ede-85e5-385b363c2964"},"vehicle_type_id":"4","last_reported":1699765590,"current_range_meters":31600,"station_id":"ce4bhq12rcd13ifvqhig","pricing_plan_id":"free"},{"bike_id":"4ceb9844-97ef-48a3-b818-6ef9565de886","system_id":"levelo_inurba_marseille","lat":43.319179,"lon":5.407725,"is_reserved":false,"is_disabled":false,"rental_uris":{"android":"levelo://app?vid=4ceb9844-97ef-48a3-b818-6ef9565de886","ios":"levelo://app?vid=4ceb9844-97ef-48a3-b818-6ef9565de886"},"vehicle_type_id":"4","last_reported":1699765590,"current_range_meters":23200,"station_id":"ce4bhq12rcd13ifvqhig","pricing_plan_id":"free"},{"bike_id":"f0f283f2-bb6c-4724-afe8-19f46cefa39d","system_id":"levelo_inurba_marseille","lat":43.318908,"lon":5.407341,"is_reserved":false,"is_disabled":false,"rental_uris":{"android":"levelo://app?vid=f0f283f2-bb6c-4724-afe8-19f46cefa39d","ios":"levelo://app?vid=f0f283f2-bb6c-4724-afe8-19f46cefa39d"},"vehicle_type_id":"4","last_reported":1699765590,"current_range_meters":30400,"station_id":"ce4bhq12rcd13ifvqhig","pricing_plan_id":"free"},{"bike_id":"030625bd-f8ba-4389-9944-df2973894a22","system_id":"levelo_inurba_marseille","lat":43.325731,"lon":5.404186,"is_reserved":false,"is_disabled":false,"rental_uris":{"android":"levelo://app?vid=030625bd-f8ba-4389-9944-df2973894a22","ios":"levelo://app?vid=030625bd-f8ba-4389-9944-df2973894a22"},"vehicle_type_id":"4","last_reported":1699765590,"current_range_meters":1200,"station_id":"","pricing_plan_id":"free"},{"bike_id":"92905be3-3ac9-48a9-81f5-f31dfa311c3b","system_id":"levelo_inurba_marseille","lat":43.33717,"lon":5.391857,"is_reserved":false,"is_disabled":false,"rental_uris":{"android":"levelo://app?vid=92905be3-3ac9-48a9-81f5-f31dfa311c3b","ios":"levelo://app?vid=92905be3-3ac9-48a9-81f5-f31dfa311c3b"},"vehicle_type_id":"4","last_reported":1699765590,"current_range_meters":28000,"station_id":"ce4bhr92rcd13ifvqhsg","pricing_plan_id":"free"},{"bike_id":"4059a96c-410f-44e5-aa76-510671624795","system_id":"levelo_inurba_marseille","lat":43.323464,"lon":5.406297,"is_reserved":false,"is_disabled":false,"rental_uris":{"android":"levelo://app?vid=4059a96c-410f-44e5-aa76-510671624795","ios":"levelo://app?vid=4059a96c-410f-44e5-aa76-510671624795"},"vehicle_type_id":"4","last_reported":1699765590,"current_range_meters":26800,"station_id":"ce4bhq92rcd13ifvqhjg","pricing_plan_id":"free"},{"bike_id":"27511aab-823c-465b-826c-e631eb925b28","system_id":"levelo_inurba_marseille","lat":43.33717,"lon":5.391857,"is_reserved":false,"is_disabled":false,"rental_uris":{"android":"levelo://app?vid=27511aab-823c-465b-826c-e631eb925b28","ios":"levelo://app?vid=27511aab-823c-465b-826c-e631eb925b28"},"vehicle_type_id":"4","last_reported":1699765590,"current_range_meters":29200,"station_id":"ce4bhr92rcd13ifvqhsg","pricing_plan_id":"free"},{"bike_id":"8f73f349-a272-4ad6-b8fd-7b017ee1ab31","system_id":"levelo_inurba_marseille","lat":43.337168,"lon":5.391825,"is_reserved":false,"is_disabled":false,"rental_uris":{"android":"levelo://app?vid=8f73f349-a272-4ad6-b8fd-7b017ee1ab31","ios":"levelo://app?vid=8f73f349-a272-4ad6-b8fd-7b017ee1ab31"},"vehicle_type_id":"4","last_reported":1699765590,"current_range_meters":30800,"station_id":"ce4bhr92rcd13ifvqhsg","pricing_plan_id":"free"},{"bike_id":"0ea42eb7-d94a-4ce4-b101-6b35a0334432","system_id":"levelo_inurba_marseille","lat":43.323464,"lon":5.406297,"is_reserved":false,"is_disabled":false,"rental_uris":{"android":"levelo://app?vid=0ea42eb7-d94a-4ce4-b101-6b35a0334432","ios":"levelo://app?vid=0ea42eb7-d94a-4ce4-b101-6b35a0334432"},"vehicle_type_id":"4","last_reported":1699765590,"current_range_meters":31600,"station_id":"ce4bhq92rcd13ifvqhjg","pricing_plan_id":"free"},{"bike_id":"d6800d33-a473-44e6-81a3-6e502f9aa7af","system_id":"levelo_inurba_marseille","lat":43.284793,"lon":5.384113,"is_reserved":false,"is_disabled":false,"rental_uris":{"android":"levelo://app?vid=d6800d33-a473-44e6-81a3-6e502f9aa7af","ios":"levelo://app?vid=d6800d33-a473-44e6-81a3-6e502f9aa7af"},"vehicle_type_id":"4","last_reported":1699765590,"current_range_meters":30400,"station_id":"ce4bh512rcd13ifvqe3g","pricing_plan_id":"free"},{"bike_id":"1f2f8dac-2f75-4a82-a7a3-5f258845ecfe","system_id":"levelo_inurba_marseille","lat":43.288497,"lon":5.393089,"is_reserved":false,"is_disabled":false,"rental_uris":{"android":"levelo://app?vid=1f2f8dac-2f75-4a82-a7a3-5f258845ecfe","ios":"levelo://app?vid=1f2f8dac-2f75-4a82-a7a3-5f258845ecfe"},"vehicle_type_id":"4","last_reported":1699765590,"current_range_meters":30400,"station_id":"ce4bh2p2rcd13ifvqdi0","pricing_plan_id":"free"},{"bike_id":"cd91dd56-5fc2-4595-a9dd-faf2c2c2f4ed","system_id":"levelo_inurba_marseille","lat":43.297946,"lon":5.404063,"is_reserved":false,"is_disabled":false,"rental_uris":{"android":"levelo://app?vid=cd91dd56-5fc2-4595-a9dd-faf2c2c2f4ed","ios":"levelo://app?vid=cd91dd56-5fc2-4595-a9dd-faf2c2c2f4ed"},"vehicle_type_id":"4","last_reported":1699765590,"current_range_meters":28800,"station_id":"ce4bh112rcd13ifvqd90","pricing_plan_id":"free"},{"bike_id":"bfabb695-6f85-47ee-97fb-e81604c4a605","system_id":"levelo_inurba_marseille","lat":43.28942,"lon":5.39633,"is_reserved":false,"is_disabled":false,"rental_uris":{"android":"levelo://app?vid=bfabb695-6f85-47ee-97fb-e81604c4a605","ios":"levelo://app?vid=bfabb695-6f85-47ee-97fb-e81604c4a605"},"vehicle_type_id":"4","last_reported":1699765590,"current_range_meters":0,"station_id":"ce4bh3h2rcd13ifvqdn0","pricing_plan_id":"free"},{"bike_id":"694cc18d-6823-481a-9d09-67d990c2d197","system_id":"levelo_inurba_marseille","lat":43.324289,"lon":5.407562,"is_reserved":false,"is_disabled":false,"rental_uris":{"android":"levelo://app?vid=694cc18d-6823-481a-9d09-67d990c2d197","ios":"levelo://app?vid=694cc18d-6823-481a-9d09-67d990c2d197"},"vehicle_type_id":"4","last_reported":1699765590,"current_range_meters":0,"station_id":"","pricing_plan_id":"free"},{"bike_id":"75a51756-3a89-4978-a732-7af5fa80704d","system_id":"levelo_inurba_marseille","lat":43.29285,"lon":5.40115,"is_reserved":false,"is_disabled":false,"rental_uris":{"android":"levelo://app?vid=75a51756-3a89-4978-a732-7af5fa80704d","ios":"levelo://app?vid=75a51756-3a89-4978-a732-7af5fa80704d"},"vehicle_type_id":"4","last_reported":1699765590,"current_range_meters":18000,"station_id":"ce4bh312rcd13ifvqdk0","pricing_plan_id":"free"},{"bike_id":"d40f8495-fd01-4e6a-b2e9-49fbec0045ed","system_id":"levelo_inurba_marseille","lat":43.292724,"lon":5.401131,"is_reserved":false,"is_disabled":false,"rental_uris":{"android":"levelo://app?vid=d40f8495-fd01-4e6a-b2e9-49fbec0045ed","ios":"levelo://app?vid=d40f8495-fd01-4e6a-b2e9-49fbec0045ed"},"vehicle_type_id":"4","last_reported":1699765590,"current_range_meters":27200,"station_id":"ce4bh312rcd13ifvqdk0","pricing_plan_id":"free"},{"bike_id":"432ad7c0-c091-4db3-bee6-1975f7d19759","system_id":"levelo_inurba_marseille","lat":43.292724,"lon":5.401131,"is_reserved":false,"is_disabled":false,"rental_uris":{"android":"levelo://app?vid=432ad7c0-c091-4db3-bee6-1975f7d19759","ios":"levelo://app?vid=432ad7c0-c091-4db3-bee6-1975f7d19759"},"vehicle_type_id":"4","last_reported":1699765590,"current_range_meters":24400,"station_id":"ce4bh312rcd13ifvqdk0","pricing_plan_id":"free"},{"bike_id":"cf4444bc-a8a7-4c52-9c6d-d70a42b0c5b9","system_id":"levelo_inurba_marseille","lat":43.292724,"lon":5.401131,"is_reserved":false,"is_disabled":false,"rental_uris":{"android":"levelo://app?vid=cf4444bc-a8a7-4c52-9c6d-d70a42b0c5b9","ios":"levelo://app?vid=cf4444bc-a8a7-4c52-9c6d-d70a42b0c5b9"},"vehicle_type_id":"4","last_reported":1699765590,"current_range_meters":28400,"station_id":"ce4bh312rcd13ifvqdk0","pricing_plan_id":"free"},{"bike_id":"12306468-1d20-416c-9379-1f5e2b1e7e90","system_id":"levelo_inurba_marseille","lat":43.280382,"lon":5.369291,"is_reserved":false,"is_disabled":false,"rental_uris":{"android":"levelo://app?vid=12306468-1d20-416c-9379-1f5e2b1e7e90","ios":"levelo://app?vid=12306468-1d20-416c-9379-1f5e2b1e7e90"},"vehicle_type_id":"4","last_reported":1699765590,"current_range_meters":30400,"station_id":"ce4bha12rcd13ifvqef0","pricing_plan_id":"free"},{"bike_id":"a8865373-4942-421b-be93-97e2a9367cce","system_id":"levelo_inurba_marseille","lat":43.28039,"lon":5.369297,"is_reserved":false,"is_disabled":false,"rental_uris":{"android":"levelo://app?vid=a8865373-4942-421b-be93-97e2a9367cce","ios":"levelo://app?vid=a8865373-4942-421b-be93-97e2a9367cce"},"vehicle_type_id":"4","last_reported":1699765590,"current_range_meters":24800,"station_id":"ce4bha12rcd13ifvqef0","pricing_plan_id":"free"},{"bike_id":"f1a93f85-0e79-46e3-a658-b31ac797422d","system_id":"levelo_inurba_marseille","lat":43.28039,"lon":5.369297,"is_reserved":false,"is_disabled":false,"rental_uris":{"android":"levelo://app?vid=f1a93f85-0e79-46e3-a658-b31ac797422d","ios":"levelo://app?vid=f1a93f85-0e79-46e3-a658-b31ac797422d"},"vehicle_type_id":"4","last_reported":1699765590,"current_range_meters":3600,"station_id":"ce4bha12rcd13ifvqef0","pricing_plan_id":"free"},{"bike_id":"381f479f-98e3-420f-a35b-8f63d09ecba7","system_id":"levelo_inurba_marseille","lat":43.290424,"lon":5.399406,"is_reserved":false,"is_disabled":false,"rental_uris":{"android":"levelo://app?vid=381f479f-98e3-420f-a35b-8f63d09ecba7","ios":"levelo://app?vid=381f479f-98e3-420f-a35b-8f63d09ecba7"},"vehicle_type_id":"4","last_reported":1699765590,"current_range_meters":22800,"station_id":"ce4bh392rcd13ifvqdm0","pricing_plan_id":"free"},{"bike_id":"fb1c5c17-dc7a-425a-8091-857d6e9cde1f","system_id":"levelo_inurba_marseille","lat":43.290418,"lon":5.399544,"is_reserved":false,"is_disabled":false,"rental_uris":{"android":"levelo://app?vid=fb1c5c17-dc7a-425a-8091-857d6e9cde1f","ios":"levelo://app?vid=fb1c5c17-dc7a-425a-8091-857d6e9cde1f"},"vehicle_type_id":"4","last_reported":1699765590,"current_range_meters":0,"station_id":"ce4bh392rcd13ifvqdm0","pricing_plan_id":"free"},{"bike_id":"306e4c5f-b4f0-4876-ad06-b1c9a3a9d055","system_id":"levelo_inurba_marseille","lat":43.290482,"lon":5.399655,"is_reserved":false,"is_disabled":false,"rental_uris":{"android":"levelo://app?vid=306e4c5f-b4f0-4876-ad06-b1c9a3a9d055","ios":"levelo://app?vid=306e4c5f-b4f0-4876-ad06-b1c9a3a9d055"},"vehicle_type_id":"4","last_reported":1699765590,"current_range_meters":31200,"station_id":"ce4bh392rcd13ifvqdm0","pricing_plan_id":"free"},{"bike_id":"c9a81dd2-fae8-4325-b501-4012c0511cf5","system_id":"levelo_inurba_marseille","lat":43.290405,"lon":5.39956,"is_reserved":false,"is_disabled":false,"rental_uris":{"android":"levelo://app?vid=c9a81dd2-fae8-4325-b501-4012c0511cf5","ios":"levelo://app?vid=c9a81dd2-fae8-4325-b501-4012c0511cf5"},"vehicle_type_id":"4","last_reported":1699765590,"current_range_meters":14400,"station_id":"ce4bh392rcd13ifvqdm0","pricing_plan_id":"free"},{"bike_id":"7e031646-afa4-4ea3-885f-f1482267ff5d","system_id":"levelo_inurba_marseille","lat":43.29047,"lon":5.39966,"is_reserved":false,"is_disabled":false,"rental_uris":{"android":"levelo://app?vid=7e031646-afa4-4ea3-885f-f1482267ff5d","ios":"levelo://app?vid=7e031646-afa4-4ea3-885f-f1482267ff5d"},"vehicle_type_id":"4","last_reported":1699765590,"current_range_meters":30800,"station_id":"ce4bh392rcd13ifvqdm0","pricing_plan_id":"free"},{"bike_id":"d4f75060-cd9a-4da8-84f5-a57e25c2d749","system_id":"levelo_inurba_marseille","lat":43.29037,"lon":5.39956,"is_reserved":false,"is_disabled":false,"rental_uris":{"android":"levelo://app?vid=d4f75060-cd9a-4da8-84f5-a57e25c2d749","ios":"levelo://app?vid=d4f75060-cd9a-4da8-84f5-a57e25c2d749"},"vehicle_type_id":"4","last_reported":1699765590,"current_range_meters":20400,"station_id":"ce4bh392rcd13ifvqdm0","pricing_plan_id":"free"},{"bike_id":"df3d9d92-b15f-4045-b142-6498f570e1a8","system_id":"levelo_inurba_marseille","lat":43.29038,"lon":5.39962,"is_reserved":false,"is_disabled":false,"rental_uris":{"android":"levelo://app?vid=df3d9d92-b15f-4045-b142-6498f570e1a8","ios":"levelo://app?vid=df3d9d92-b15f-4045-b142-6498f570e1a8"},"vehicle_type_id":"4","last_reported":1699765590,"current_range_meters":31200,"station_id":"ce4bh392rcd13ifvqdm0","pricing_plan_id":"free"},{"bike_id":"84fdd310-b6c4-4824-ba30-a8673539b410","system_id":"levelo_inurba_marseille","lat":43.296263,"lon":5.40601,"is_reserved":false,"is_disabled":false,"rental_uris":{"android":"levelo://app?vid=84fdd310-b6c4-4824-ba30-a8673539b410","ios":"levelo://app?vid=84fdd310-b6c4-4824-ba30-a8673539b410"},"vehicle_type_id":"4","last_reported":1699765590,"current_range_meters":30400,"station_id":"ce4bh0h2rcd13ifvqd60","pricing_plan_id":"free"},{"bike_id":"b35e6659-d289-4c23-b25c-c0be4cd11147","system_id":"levelo_inurba_marseille","lat":43.296263,"lon":5.40601,"is_reserved":false,"is_disabled":false,"rental_uris":{"android":"levelo://app?vid=b35e6659-d289-4c23-b25c-c0be4cd11147","ios":"levelo://app?vid=b35e6659-d289-4c23-b25c-c0be4cd11147"},"vehicle_type_id":"4","last_reported":1699765590,"current_range_meters":29600,"station_id":"ce4bh0h2rcd13ifvqd60","pricing_plan_id":"free"},{"bike_id":"c5269fde-c094-4163-a2ac-a6350e774e3c","system_id":"levelo_inurba_marseille","lat":43.323447,"lon":5.41003,"is_reserved":false,"is_disabled":false,"rental_uris":{"android":"levelo://app?vid=c5269fde-c094-4163-a2ac-a6350e774e3c","ios":"levelo://app?vid=c5269fde-c094-4163-a2ac-a6350e774e3c"},"vehicle_type_id":"4","last_reported":1699765590,"current_range_meters":2800,"station_id":"","pricing_plan_id":"free"},{"bike_id":"a7a718c5-ee63-4243-a2aa-d5332bbd0e52","system_id":"levelo_inurba_marseille","lat":43.284462,"lon":5.392121,"is_reserved":false,"is_disabled":false,"rental_uris":{"android":"levelo://app?vid=a7a718c5-ee63-4243-a2aa-d5332bbd0e52","ios":"levelo://app?vid=a7a718c5-ee63-4243-a2aa-d5332bbd0e52"},"vehicle_type_id":"4","last_reported":1699765590,"current_range_meters":26400,"station_id":"ce4bhoh2rcd13ifvqh5g","pricing_plan_id":"free"},{"bike_id":"3174f05f-5ad4-4a14-b725-25d2dbd60472","system_id":"levelo_inurba_marseille","lat":43.28573,"lon":5.394992,"is_reserved":false,"is_disabled":false,"rental_uris":{"android":"levelo://app?vid=3174f05f-5ad4-4a14-b725-25d2dbd60472","ios":"levelo://app?vid=3174f05f-5ad4-4a14-b725-25d2dbd60472"},"vehicle_type_id":"4","last_reported":1699765590,"current_range_meters":28400,"station_id":"ce4bh292rcd13ifvqdg0","pricing_plan_id":"free"},{"bike_id":"1117b9a7-7693-4138-9782-62063356de7d","system_id":"levelo_inurba_marseille","lat":43.285742,"lon":5.395004,"is_reserved":false,"is_disabled":false,"rental_uris":{"android":"levelo://app?vid=1117b9a7-7693-4138-9782-62063356de7d","ios":"levelo://app?vid=1117b9a7-7693-4138-9782-62063356de7d"},"vehicle_type_id":"4","last_reported":1699765590,"current_range_meters":26400,"station_id":"ce4bh292rcd13ifvqdg0","pricing_plan_id":"free"},{"bike_id":"aca80618-b48e-4f2d-ae6a-3957117fd225","system_id":"levelo_inurba_marseille","lat":43.28573,"lon":5.394992,"is_reserved":false,"is_disabled":false,"rental_uris":{"android":"levelo://app?vid=aca80618-b48e-4f2d-ae6a-3957117fd225","ios":"levelo://app?vid=aca80618-b48e-4f2d-ae6a-3957117fd225"},"vehicle_type_id":"4","last_reported":1699765590,"current_range_meters":31600,"station_id":"ce4bh292rcd13ifvqdg0","pricing_plan_id":"free"},{"bike_id":"f9b238b3-ce91-46fe-a65f-e1771ef13ae2","system_id":"levelo_inurba_marseille","lat":43.28573,"lon":5.394992,"is_reserved":false,"is_disabled":false,"rental_uris":{"android":"levelo://app?vid=f9b238b3-ce91-46fe-a65f-e1771ef13ae2","ios":"levelo://app?vid=f9b238b3-ce91-46fe-a65f-e1771ef13ae2"},"vehicle_type_id":"4","last_reported":1699765590,"current_range_meters":16400,"station_id":"ce4bh292rcd13ifvqdg0","pricing_plan_id":"free"},{"bike_id":"bee3532d-37c5-4101-870a-5a61bd21bd3b","system_id":"levelo_inurba_marseille","lat":43.304188,"lon":5.412904,"is_reserved":false,"is_disabled":false,"rental_uris":{"android":"levelo://app?vid=bee3532d-37c5-4101-870a-5a61bd21bd3b","ios":"levelo://app?vid=bee3532d-37c5-4101-870a-5a61bd21bd3b"},"vehicle_type_id":"4","last_reported":1699765590,"current_range_meters":30800,"station_id":"ce4bhop2rcd13ifvqh8g","pricing_plan_id":"free"},{"bike_id":"8753fbf8-8786-4ee7-8f02-556c941e2086","system_id":"levelo_inurba_marseille","lat":43.304188,"lon":5.412904,"is_reserved":false,"is_disabled":false,"rental_uris":{"android":"levelo://app?vid=8753fbf8-8786-4ee7-8f02-556c941e2086","ios":"levelo://app?vid=8753fbf8-8786-4ee7-8f02-556c941e2086"},"vehicle_type_id":"4","last_reported":1699765590,"current_range_meters":31600,"station_id":"ce4bhop2rcd13ifvqh8g","pricing_plan_id":"free"},{"bike_id":"51e46aad-dfc3-4443-8816-a5e3d0c00f46","system_id":"levelo_inurba_marseille","lat":43.304188,"lon":5.412904,"is_reserved":false,"is_disabled":false,"rental_uris":{"android":"levelo://app?vid=51e46aad-dfc3-4443-8816-a5e3d0c00f46","ios":"levelo://app?vid=51e46aad-dfc3-4443-8816-a5e3d0c00f46"},"vehicle_type_id":"4","last_reported":1699765590,"current_range_meters":26400,"station_id":"ce4bhop2rcd13ifvqh8g","pricing_plan_id":"free"},{"bike_id":"5e9c99ea-9137-41c6-a0e7-03f126e9dc5d","system_id":"levelo_inurba_marseille","lat":43.279087,"lon":5.380114,"is_reserved":false,"is_disabled":false,"rental_uris":{"android":"levelo://app?vid=5e9c99ea-9137-41c6-a0e7-03f126e9dc5d","ios":"levelo://app?vid=5e9c99ea-9137-41c6-a0e7-03f126e9dc5d"},"vehicle_type_id":"4","last_reported":1699765590,"current_range_meters":28400,"station_id":"ce4bhf92rcd13ifvqf50","pricing_plan_id":"free"},{"bike_id":"e8c48250-3110-44db-a25d-3084fdc7cb9b","system_id":"levelo_inurba_marseille","lat":43.287154,"lon":5.399979,"is_reserved":false,"is_disabled":false,"rental_uris":{"android":"levelo://app?vid=e8c48250-3110-44db-a25d-3084fdc7cb9b","ios":"levelo://app?vid=e8c48250-3110-44db-a25d-3084fdc7cb9b"},"vehicle_type_id":"4","last_reported":1699765590,"current_range_meters":29600,"station_id":"ce4bho92rcd13ifvqh3g","pricing_plan_id":"free"},{"bike_id":"a36c42f0-31f6-4776-919a-6e5f675caef7","system_id":"levelo_inurba_marseille","lat":43.32983,"lon":5.41003,"is_reserved":false,"is_disabled":false,"rental_uris":{"android":"levelo://app?vid=a36c42f0-31f6-4776-919a-6e5f675caef7","ios":"levelo://app?vid=a36c42f0-31f6-4776-919a-6e5f675caef7"},"vehicle_type_id":"4","last_reported":1699765590,"current_range_meters":25200,"station_id":"","pricing_plan_id":"free"},{"bike_id":"feca28d2-7019-4e39-96be-d7938cc29597","system_id":"levelo_inurba_marseille","lat":43.32435,"lon":5.4137,"is_reserved":false,"is_disabled":false,"rental_uris":{"android":"levelo://app?vid=feca28d2-7019-4e39-96be-d7938cc29597","ios":"levelo://app?vid=feca28d2-7019-4e39-96be-d7938cc29597"},"vehicle_type_id":"4","last_reported":1699765590,"current_range_meters":18800,"station_id":"","pricing_plan_id":"free"},{"bike_id":"56b68e60-f683-491b-9a9e-e214c40b6dea","system_id":"levelo_inurba_marseille","lat":43.320045,"lon":5.415046,"is_reserved":false,"is_disabled":false,"rental_uris":{"android":"levelo://app?vid=56b68e60-f683-491b-9a9e-e214c40b6dea","ios":"levelo://app?vid=56b68e60-f683-491b-9a9e-e214c40b6dea"},"vehicle_type_id":"4","last_reported":1699765590,"current_range_meters":28800,"station_id":"ce4bhq92rcd13ifvqhkg","pricing_plan_id":"free"},{"bike_id":"cbfb428b-2688-4fa3-a6b6-cc6e65173eaa","system_id":"levelo_inurba_marseille","lat":43.279742,"lon":5.38744,"is_reserved":false,"is_disabled":false,"rental_uris":{"android":"levelo://app?vid=cbfb428b-2688-4fa3-a6b6-cc6e65173eaa","ios":"levelo://app?vid=cbfb428b-2688-4fa3-a6b6-cc6e65173eaa"},"vehicle_type_id":"4","last_reported":1699765590,"current_range_meters":30800,"station_id":"ce4bhg12rcd13ifvqf80","pricing_plan_id":"free"},{"bike_id":"88d0d1e9-c471-49d1-8778-7693699a7adc","system_id":"levelo_inurba_marseille","lat":43.279742,"lon":5.38744,"is_reserved":false,"is_disabled":false,"rental_uris":{"android":"levelo://app?vid=88d0d1e9-c471-49d1-8778-7693699a7adc","ios":"levelo://app?vid=88d0d1e9-c471-49d1-8778-7693699a7adc"},"vehicle_type_id":"4","last_reported":1699765590,"current_range_meters":31600,"station_id":"ce4bhg12rcd13ifvqf80","pricing_plan_id":"free"},{"bike_id":"d9e9ee34-133c-47f1-a184-e85055e680c0","system_id":"levelo_inurba_marseille","lat":43.279742,"lon":5.38744,"is_reserved":false,"is_disabled":false,"rental_uris":{"android":"levelo://app?vid=d9e9ee34-133c-47f1-a184-e85055e680c0","ios":"levelo://app?vid=d9e9ee34-133c-47f1-a184-e85055e680c0"},"vehicle_type_id":"4","last_reported":1699765590,"current_range_meters":9200,"station_id":"ce4bhg12rcd13ifvqf80","pricing_plan_id":"free"},{"bike_id":"0779d43e-fe69-423b-a527-8860d39e5292","system_id":"levelo_inurba_marseille","lat":43.279742,"lon":5.38744,"is_reserved":false,"is_disabled":false,"rental_uris":{"android":"levelo://app?vid=0779d43e-fe69-423b-a527-8860d39e5292","ios":"levelo://app?vid=0779d43e-fe69-423b-a527-8860d39e5292"},"vehicle_type_id":"4","last_reported":1699765590,"current_range_meters":30000,"station_id":"ce4bhg12rcd13ifvqf80","pricing_plan_id":"free"},{"bike_id":"8dff6f37-5746-4b78-9561-223c62d49d42","system_id":"levelo_inurba_marseille","lat":43.320045,"lon":5.415048,"is_reserved":false,"is_disabled":false,"rental_uris":{"android":"levelo://app?vid=8dff6f37-5746-4b78-9561-223c62d49d42","ios":"levelo://app?vid=8dff6f37-5746-4b78-9561-223c62d49d42"},"vehicle_type_id":"4","last_reported":1699765590,"current_range_meters":27600,"station_id":"ce4bhq92rcd13ifvqhkg","pricing_plan_id":"free"},{"bike_id":"a39b0790-082e-48cf-b1eb-b4c0e2dc2675","system_id":"levelo_inurba_marseille","lat":43.279742,"lon":5.38744,"is_reserved":false,"is_disabled":false,"rental_uris":{"android":"levelo://app?vid=a39b0790-082e-48cf-b1eb-b4c0e2dc2675","ios":"levelo://app?vid=a39b0790-082e-48cf-b1eb-b4c0e2dc2675"},"vehicle_type_id":"4","last_reported":1699765590,"current_range_meters":29200,"station_id":"ce4bhg12rcd13ifvqf80","pricing_plan_id":"free"},{"bike_id":"4da7f432-0155-408b-8ec6-786c976dc9ac","system_id":"levelo_inurba_marseille","lat":43.279742,"lon":5.38744,"is_reserved":false,"is_disabled":false,"rental_uris":{"android":"levelo://app?vid=4da7f432-0155-408b-8ec6-786c976dc9ac","ios":"levelo://app?vid=4da7f432-0155-408b-8ec6-786c976dc9ac"},"vehicle_type_id":"4","last_reported":1699765590,"current_range_meters":28800,"station_id":"ce4bhg12rcd13ifvqf80","pricing_plan_id":"free"},{"bike_id":"a9d56fa8-9aa6-41c4-b7af-6df95e957368","system_id":"levelo_inurba_marseille","lat":43.320497,"lon":5.415747,"is_reserved":false,"is_disabled":false,"rental_uris":{"android":"levelo://app?vid=a9d56fa8-9aa6-41c4-b7af-6df95e957368","ios":"levelo://app?vid=a9d56fa8-9aa6-41c4-b7af-6df95e957368"},"vehicle_type_id":"4","last_reported":1699765590,"current_range_meters":25600,"station_id":"ce4bhq92rcd13ifvqhkg","pricing_plan_id":"free"},{"bike_id":"51e39558-6fce-4d4a-807a-0fa0031da8af","system_id":"levelo_inurba_marseille","lat":43.292571,"lon":5.409107,"is_reserved":false,"is_disabled":false,"rental_uris":{"android":"levelo://app?vid=51e39558-6fce-4d4a-807a-0fa0031da8af","ios":"levelo://app?vid=51e39558-6fce-4d4a-807a-0fa0031da8af"},"vehicle_type_id":"4","last_reported":1699765590,"current_range_meters":28000,"station_id":"ce4bh192rcd13ifvqdc0","pricing_plan_id":"free"},{"bike_id":"06b94600-95a5-4ab7-8bc0-a183d84abc7e","system_id":"levelo_inurba_marseille","lat":43.292569,"lon":5.409107,"is_reserved":false,"is_disabled":false,"rental_uris":{"android":"levelo://app?vid=06b94600-95a5-4ab7-8bc0-a183d84abc7e","ios":"levelo://app?vid=06b94600-95a5-4ab7-8bc0-a183d84abc7e"},"vehicle_type_id":"4","last_reported":1699765590,"current_range_meters":31600,"station_id":"ce4bh192rcd13ifvqdc0","pricing_plan_id":"free"},{"bike_id":"48c00647-4111-4a89-8f4b-6cf4b68213f2","system_id":"levelo_inurba_marseille","lat":43.292569,"lon":5.409107,"is_reserved":false,"is_disabled":false,"rental_uris":{"android":"levelo://app?vid=48c00647-4111-4a89-8f4b-6cf4b68213f2","ios":"levelo://app?vid=48c00647-4111-4a89-8f4b-6cf4b68213f2"},"vehicle_type_id":"4","last_reported":1699765590,"current_range_meters":29200,"station_id":"ce4bh192rcd13ifvqdc0","pricing_plan_id":"free"},{"bike_id":"1175369e-2db2-41fb-94dc-5c32f20abd64","system_id":"levelo_inurba_marseille","lat":43.2926,"lon":5.40914,"is_reserved":false,"is_disabled":false,"rental_uris":{"android":"levelo://app?vid=1175369e-2db2-41fb-94dc-5c32f20abd64","ios":"levelo://app?vid=1175369e-2db2-41fb-94dc-5c32f20abd64"},"vehicle_type_id":"4","last_reported":1699765590,"current_range_meters":31200,"station_id":"ce4bh192rcd13ifvqdc0","pricing_plan_id":"free"},{"bike_id":"3ba97417-810b-4ddb-bd2d-96fba8f7873c","system_id":"levelo_inurba_marseille","lat":43.276228,"lon":5.361179,"is_reserved":false,"is_disabled":false,"rental_uris":{"android":"levelo://app?vid=3ba97417-810b-4ddb-bd2d-96fba8f7873c","ios":"levelo://app?vid=3ba97417-810b-4ddb-bd2d-96fba8f7873c"},"vehicle_type_id":"4","last_reported":1699765590,"current_range_meters":28000,"station_id":"ce4bgj92rcd13ifvqbe0","pricing_plan_id":"free"},{"bike_id":"e4a19567-06a0-4d1b-98ea-632ee0682def","system_id":"levelo_inurba_marseille","lat":43.27618,"lon":5.361009,"is_reserved":false,"is_disabled":false,"rental_uris":{"android":"levelo://app?vid=e4a19567-06a0-4d1b-98ea-632ee0682def","ios":"levelo://app?vid=e4a19567-06a0-4d1b-98ea-632ee0682def"},"vehicle_type_id":"4","last_reported":1699765590,"current_range_meters":22400,"station_id":"ce4bgj92rcd13ifvqbe0","pricing_plan_id":"free"},{"bike_id":"85e9b556-fd01-44a1-a96b-a6581d302ffa","system_id":"levelo_inurba_marseille","lat":43.325233,"lon":5.414318,"is_reserved":false,"is_disabled":false,"rental_uris":{"android":"levelo://app?vid=85e9b556-fd01-44a1-a96b-a6581d302ffa","ios":"levelo://app?vid=85e9b556-fd01-44a1-a96b-a6581d302ffa"},"vehicle_type_id":"4","last_reported":1699765590,"current_range_meters":30400,"station_id":"ce4bhq12rcd13ifvqhhg","pricing_plan_id":"free"},{"bike_id":"9b317e32-ce46-4553-8b47-f8ff080d430a","system_id":"levelo_inurba_marseille","lat":43.2761,"lon":5.36114,"is_reserved":false,"is_disabled":false,"rental_uris":{"android":"levelo://app?vid=9b317e32-ce46-4553-8b47-f8ff080d430a","ios":"levelo://app?vid=9b317e32-ce46-4553-8b47-f8ff080d430a"},"vehicle_type_id":"4","last_reported":1699765590,"current_range_meters":6800,"station_id":"ce4bgj92rcd13ifvqbe0","pricing_plan_id":"free"},{"bike_id":"ff1d36f2-94a1-4cf2-9aa0-202365e5981d","system_id":"levelo_inurba_marseille","lat":43.280784,"lon":5.396622,"is_reserved":false,"is_disabled":false,"rental_uris":{"android":"levelo://app?vid=ff1d36f2-94a1-4cf2-9aa0-202365e5981d","ios":"levelo://app?vid=ff1d36f2-94a1-4cf2-9aa0-202365e5981d"},"vehicle_type_id":"4","last_reported":1699765590,"current_range_meters":31600,"station_id":"ce4bho12rcd13ifvqh2g","pricing_plan_id":"free"},{"bike_id":"9e646433-ac65-43e2-9dad-e9efdc502b21","system_id":"levelo_inurba_marseille","lat":43.303837,"lon":5.418724,"is_reserved":false,"is_disabled":false,"rental_uris":{"android":"levelo://app?vid=9e646433-ac65-43e2-9dad-e9efdc502b21","ios":"levelo://app?vid=9e646433-ac65-43e2-9dad-e9efdc502b21"},"vehicle_type_id":"4","last_reported":1699765590,"current_range_meters":18000,"station_id":"ce4bhop2rcd13ifvqh7g","pricing_plan_id":"free"},{"bike_id":"7c112e6a-ec57-4d77-96db-4118a8fc598d","system_id":"levelo_inurba_marseille","lat":43.278285,"lon":5.392073,"is_reserved":false,"is_disabled":false,"rental_uris":{"android":"levelo://app?vid=7c112e6a-ec57-4d77-96db-4118a8fc598d","ios":"levelo://app?vid=7c112e6a-ec57-4d77-96db-4118a8fc598d"},"vehicle_type_id":"4","last_reported":1699765590,"current_range_meters":29600,"station_id":"ce4bhjp2rcd13ifvqga0","pricing_plan_id":"free"},{"bike_id":"cc611fd9-094b-4b4e-a5e7-61d8177b473a","system_id":"levelo_inurba_marseille","lat":43.273613,"lon":5.362705,"is_reserved":false,"is_disabled":false,"rental_uris":{"android":"levelo://app?vid=cc611fd9-094b-4b4e-a5e7-61d8177b473a","ios":"levelo://app?vid=cc611fd9-094b-4b4e-a5e7-61d8177b473a"},"vehicle_type_id":"4","last_reported":1699765590,"current_range_meters":31200,"station_id":"ce4bhbh2rcd13ifvqeo0","pricing_plan_id":"free"},{"bike_id":"087ae938-5fe8-462b-b10d-05b58d1a973d","system_id":"levelo_inurba_marseille","lat":43.275625,"lon":5.384392,"is_reserved":false,"is_disabled":false,"rental_uris":{"android":"levelo://app?vid=087ae938-5fe8-462b-b10d-05b58d1a973d","ios":"levelo://app?vid=087ae938-5fe8-462b-b10d-05b58d1a973d"},"vehicle_type_id":"4","last_reported":1699765590,"current_range_meters":30000,"station_id":"ce4bhh92rcd13ifvqfi0","pricing_plan_id":"free"},{"bike_id":"2e385f44-e589-4e63-8afa-a1d938e2ab74","system_id":"levelo_inurba_marseille","lat":43.273737,"lon":5.362635,"is_reserved":false,"is_disabled":false,"rental_uris":{"android":"levelo://app?vid=2e385f44-e589-4e63-8afa-a1d938e2ab74","ios":"levelo://app?vid=2e385f44-e589-4e63-8afa-a1d938e2ab74"},"vehicle_type_id":"4","last_reported":1699765590,"current_range_meters":0,"station_id":"ce4bhbh2rcd13ifvqeo0","pricing_plan_id":"free"},{"bike_id":"a9bdb548-b338-43ad-a2a2-3e3fe9cd0e15","system_id":"levelo_inurba_marseille","lat":43.275646,"lon":5.38418,"is_reserved":false,"is_disabled":false,"rental_uris":{"android":"levelo://app?vid=a9bdb548-b338-43ad-a2a2-3e3fe9cd0e15","ios":"levelo://app?vid=a9bdb548-b338-43ad-a2a2-3e3fe9cd0e15"},"vehicle_type_id":"4","last_reported":1699765590,"current_range_meters":4000,"station_id":"ce4bhh92rcd13ifvqfi0","pricing_plan_id":"free"},{"bike_id":"30b8a61b-a048-475c-a678-6286a5aa4aa6","system_id":"levelo_inurba_marseille","lat":43.273609,"lon":5.362708,"is_reserved":false,"is_disabled":false,"rental_uris":{"android":"levelo://app?vid=30b8a61b-a048-475c-a678-6286a5aa4aa6","ios":"levelo://app?vid=30b8a61b-a048-475c-a678-6286a5aa4aa6"},"vehicle_type_id":"4","last_reported":1699765590,"current_range_meters":9200,"station_id":"ce4bhbh2rcd13ifvqeo0","pricing_plan_id":"free"},{"bike_id":"74426711-c575-43c1-be92-c3d5c7022cad","system_id":"levelo_inurba_marseille","lat":43.275625,"lon":5.384392,"is_reserved":false,"is_disabled":false,"rental_uris":{"android":"levelo://app?vid=74426711-c575-43c1-be92-c3d5c7022cad","ios":"levelo://app?vid=74426711-c575-43c1-be92-c3d5c7022cad"},"vehicle_type_id":"4","last_reported":1699765590,"current_range_meters":27600,"station_id":"ce4bhh92rcd13ifvqfi0","pricing_plan_id":"free"},{"bike_id":"79e9bba1-99d7-49b4-8631-493e1c610912","system_id":"levelo_inurba_marseille","lat":43.33607,"lon":5.41022,"is_reserved":false,"is_disabled":false,"rental_uris":{"android":"levelo://app?vid=79e9bba1-99d7-49b4-8631-493e1c610912","ios":"levelo://app?vid=79e9bba1-99d7-49b4-8631-493e1c610912"},"vehicle_type_id":"4","last_reported":1699765590,"current_range_meters":30000,"station_id":"","pricing_plan_id":"free"},{"bike_id":"31213c42-fd39-44c9-ab64-8587e44cbb68","system_id":"levelo_inurba_marseille","lat":43.33612,"lon":5.410321,"is_reserved":false,"is_disabled":false,"rental_uris":{"android":"levelo://app?vid=31213c42-fd39-44c9-ab64-8587e44cbb68","ios":"levelo://app?vid=31213c42-fd39-44c9-ab64-8587e44cbb68"},"vehicle_type_id":"4","last_reported":1699765590,"current_range_meters":31600,"station_id":"ce4bhqh2rcd13ifvqhmg","pricing_plan_id":"free"},{"bike_id":"42d5e417-09c2-4405-add5-d6e0158c88dc","system_id":"levelo_inurba_marseille","lat":43.33612,"lon":5.410321,"is_reserved":false,"is_disabled":false,"rental_uris":{"android":"levelo://app?vid=42d5e417-09c2-4405-add5-d6e0158c88dc","ios":"levelo://app?vid=42d5e417-09c2-4405-add5-d6e0158c88dc"},"vehicle_type_id":"4","last_reported":1699765590,"current_range_meters":27600,"station_id":"ce4bhqh2rcd13ifvqhmg","pricing_plan_id":"free"},{"bike_id":"e9a5b566-3224-4a1c-bcf8-d2a9a42b6590","system_id":"levelo_inurba_marseille","lat":43.33601,"lon":5.41035,"is_reserved":false,"is_disabled":false,"rental_uris":{"android":"levelo://app?vid=e9a5b566-3224-4a1c-bcf8-d2a9a42b6590","ios":"levelo://app?vid=e9a5b566-3224-4a1c-bcf8-d2a9a42b6590"},"vehicle_type_id":"4","last_reported":1699765590,"current_range_meters":13200,"station_id":"","pricing_plan_id":"free"},{"bike_id":"20065e28-63b5-49fd-8bda-4f488a826029","system_id":"levelo_inurba_marseille","lat":43.33608,"lon":5.4103,"is_reserved":false,"is_disabled":false,"rental_uris":{"android":"levelo://app?vid=20065e28-63b5-49fd-8bda-4f488a826029","ios":"levelo://app?vid=20065e28-63b5-49fd-8bda-4f488a826029"},"vehicle_type_id":"4","last_reported":1699765590,"current_range_meters":27200,"station_id":"","pricing_plan_id":"free"},{"bike_id":"68ffca5c-f92e-4d2b-b812-3edfa190d5ea","system_id":"levelo_inurba_marseille","lat":43.278275,"lon":5.396505,"is_reserved":false,"is_disabled":false,"rental_uris":{"android":"levelo://app?vid=68ffca5c-f92e-4d2b-b812-3edfa190d5ea","ios":"levelo://app?vid=68ffca5c-f92e-4d2b-b812-3edfa190d5ea"},"vehicle_type_id":"4","last_reported":1699765590,"current_range_meters":6000,"station_id":"","pricing_plan_id":"free"},{"bike_id":"fb678694-b49f-4fb3-ad47-4f150f1527d7","system_id":"levelo_inurba_marseille","lat":43.279952,"lon":5.400085,"is_reserved":false,"is_disabled":false,"rental_uris":{"android":"levelo://app?vid=fb678694-b49f-4fb3-ad47-4f150f1527d7","ios":"levelo://app?vid=fb678694-b49f-4fb3-ad47-4f150f1527d7"},"vehicle_type_id":"4","last_reported":1699765590,"current_range_meters":31600,"station_id":"ce4bho92rcd13ifvqh4g","pricing_plan_id":"free"},{"bike_id":"6a67f168-92cd-4ba4-bbe7-e0d5add12544","system_id":"levelo_inurba_marseille","lat":43.279952,"lon":5.400085,"is_reserved":false,"is_disabled":false,"rental_uris":{"android":"levelo://app?vid=6a67f168-92cd-4ba4-bbe7-e0d5add12544","ios":"levelo://app?vid=6a67f168-92cd-4ba4-bbe7-e0d5add12544"},"vehicle_type_id":"4","last_reported":1699765590,"current_range_meters":31600,"station_id":"ce4bho92rcd13ifvqh4g","pricing_plan_id":"free"},{"bike_id":"3a740c5c-b5c6-48b8-8736-3c09a24decaa","system_id":"levelo_inurba_marseille","lat":43.279952,"lon":5.400085,"is_reserved":false,"is_disabled":false,"rental_uris":{"android":"levelo://app?vid=3a740c5c-b5c6-48b8-8736-3c09a24decaa","ios":"levelo://app?vid=3a740c5c-b5c6-48b8-8736-3c09a24decaa"},"vehicle_type_id":"4","last_reported":1699765590,"current_range_meters":31600,"station_id":"ce4bho92rcd13ifvqh4g","pricing_plan_id":"free"},{"bike_id":"a0514d4c-4605-4875-9c27-d322cd2d7c43","system_id":"levelo_inurba_marseille","lat":43.317121,"lon":5.423936,"is_reserved":false,"is_disabled":false,"rental_uris":{"android":"levelo://app?vid=a0514d4c-4605-4875-9c27-d322cd2d7c43","ios":"levelo://app?vid=a0514d4c-4605-4875-9c27-d322cd2d7c43"},"vehicle_type_id":"4","last_reported":1699765590,"current_range_meters":14400,"station_id":"ce4bhp92rcd13ifvqhbg","pricing_plan_id":"free"},{"bike_id":"c2fc3bad-d6f3-44af-aa68-4b442aac0a94","system_id":"levelo_inurba_marseille","lat":43.317121,"lon":5.423936,"is_reserved":false,"is_disabled":false,"rental_uris":{"android":"levelo://app?vid=c2fc3bad-d6f3-44af-aa68-4b442aac0a94","ios":"levelo://app?vid=c2fc3bad-d6f3-44af-aa68-4b442aac0a94"},"vehicle_type_id":"4","last_reported":1699765590,"current_range_meters":27600,"station_id":"ce4bhp92rcd13ifvqhbg","pricing_plan_id":"free"},{"bike_id":"3a1d316d-e271-415d-9afd-81db9736cf60","system_id":"levelo_inurba_marseille","lat":43.310785,"lon":5.424305,"is_reserved":false,"is_disabled":false,"rental_uris":{"android":"levelo://app?vid=3a1d316d-e271-415d-9afd-81db9736cf60","ios":"levelo://app?vid=3a1d316d-e271-415d-9afd-81db9736cf60"},"vehicle_type_id":"4","last_reported":1699765590,"current_range_meters":24800,"station_id":"ce4bhp92rcd13ifvqhag","pricing_plan_id":"free"},{"bike_id":"77c59f63-8910-4269-9a34-abac7d281bd2","system_id":"levelo_inurba_marseille","lat":43.340804,"lon":5.410219,"is_reserved":false,"is_disabled":false,"rental_uris":{"android":"levelo://app?vid=77c59f63-8910-4269-9a34-abac7d281bd2","ios":"levelo://app?vid=77c59f63-8910-4269-9a34-abac7d281bd2"},"vehicle_type_id":"4","last_reported":1699765590,"current_range_meters":12800,"station_id":"ce4bhqh2rcd13ifvqhlg","pricing_plan_id":"free"},{"bike_id":"2e6c6616-bc87-409d-9cb7-3ec51b5a775a","system_id":"levelo_inurba_marseille","lat":43.340804,"lon":5.410219,"is_reserved":false,"is_disabled":false,"rental_uris":{"android":"levelo://app?vid=2e6c6616-bc87-409d-9cb7-3ec51b5a775a","ios":"levelo://app?vid=2e6c6616-bc87-409d-9cb7-3ec51b5a775a"},"vehicle_type_id":"4","last_reported":1699765590,"current_range_meters":26800,"station_id":"ce4bhqh2rcd13ifvqhlg","pricing_plan_id":"free"},{"bike_id":"3ff75dc1-a336-4195-b5b8-760ffaefca40","system_id":"levelo_inurba_marseille","lat":43.340804,"lon":5.410219,"is_reserved":false,"is_disabled":false,"rental_uris":{"android":"levelo://app?vid=3ff75dc1-a336-4195-b5b8-760ffaefca40","ios":"levelo://app?vid=3ff75dc1-a336-4195-b5b8-760ffaefca40"},"vehicle_type_id":"4","last_reported":1699765590,"current_range_meters":31600,"station_id":"ce4bhqh2rcd13ifvqhlg","pricing_plan_id":"free"},