{"last_updated":1746544434,"ttl":60,"version":"2.2","data":{"bikes":[{"bike_id":"9e9cef51-32a9-4c1a-9fba-33634c2fbc69","system_id":"levelo_inurba_marseille","lat":43.26495,"lon":5.39568,"is_reserved":false,"is_disabled":false,"rental_uris":{"android":"levelo://app?vid=9e9cef51-32a9-4c1a-9fba-33634c2fbc69","ios":"levelo://app?vid=9e9cef51-32a9-4c1a-9fba-33634c2fbc69"},"vehicle_type_id":"4","last_reported":1746544434,"current_range_meters":2800,"station_id":"ce4bhi12rcd13ifvqfq0","pricing_plan_id":"cebpf4jnsgd1na2vs0mg"},{"bike_id":"58b39c50-fa86-4ab1-95fc-0bbf75860a2c","system_id":"levelo_inurba_marseille","lat":43.29606,"lon":5.38103,"is_reserved":false,"is_disabled":false,"rental_uris":{"android":"levelo://app?vid=58b39c50-fa86-4ab1-95fc-0bbf75860a2c","ios":"levelo://app?vid=58b39c50-fa86-4ab1-95fc-0bbf75860a2c"},"vehicle_type_id":"4","last_reported":1746544434,"current_range_meters":2800,"station_id":"ce4bgl12rcd13ifvqbo0","pricing_plan_id":"cebpf4jnsgd1na2vs0mg"},{"bike_id":"66b646b3-6352-44bb-9bfb-21570512e3e5","system_id":"levelo_inurba_marseille","lat":43.281206,"lon":5.403996,"is_reserved":false,"is_disabled":false,"rental_uris":{"android":"levelo://app?vid=66b646b3-6352-44bb-9bfb-21570512e3e5","ios":"levelo://app?vid=66b646b3-6352-44bb-9bfb-21570512e3e5"},"vehicle_type_id":"4","last_reported":1746544434,"current_range_meters":3200,"station_id":"","pricing_plan_id":"cebpf4jnsgd1na2vs0mg"},{"bike_id":"6e9ced7c-0768-41b2-b593-c795e6d6f423","system_id":"levelo_inurba_marseille","lat":43.28683,"lon":5.38655,"is_reserved":false,"is_disabled":false,"rental_uris":{"android":"levelo://app?vid=6e9ced7c-0768-41b2-b593-c795e6d6f423","ios":"levelo://app?vid=6e9ced7c-0768-41b2-b593-c795e6d6f423"},"vehicle_type_id":"4","last_reported":1746544434,"current_range_meters":6000,"station_id":"ce4bh492rcd13ifvqdug","pricing_plan_id":"cebpf4jnsgd1na2vs0mg"},{"bike_id":"29276fe1-716f-4d7c-85e5-74486d79c622","system_id":"levelo_inurba_marseille","lat":43.29595,"lon":5.38105,"is_reserved":false,"is_disabled":false,"rental_uris":{"android":"levelo://app?vid=29276fe1-716f-4d7c-85e5-74486d79c622","ios":"levelo://app?vid=29276fe1-716f-4d7c-85e5-74486d79c622"},"vehicle_type_id":"4","last_reported":1746544434,"current_range_meters":3600,"station_id":"ce4bgl12rcd13ifvqbo0","pricing_plan_id":"cebpf4jnsgd1na2vs0mg"},{"bike_id":"6636a3e1-0193-4da1-8d5e-54e4fa1ff328","system_id":"levelo_inurba_marseille","lat":43.313599,"lon":5.384924,"is_reserved":false,"is_disabled":false,"rental_uris":{"android":"levelo://app?vid=6636a3e1-0193-4da1-8d5e-54e4fa1ff328","ios":"levelo://app?vid=6636a3e1-0193-4da1-8d5e-54e4fa1ff328"},"vehicle_type_id":"4","last_reported":1746544434,"current_range_meters":3600,"station_id":"ce4bgt92rcd13ifvqcf0","pricing_plan_id":"cebpf4jnsgd1na2vs0mg"},{"bike_id":"ef09462a-e08c-4c79-97cc-c946f961e19e","system_id":"levelo_inurba_marseille","lat":43.26944,"lon":5.40246,"is_reserved":false,"is_disabled":false,"rental_uris":{"android":"levelo://app?vid=ef09462a-e08c-4c79-97cc-c946f961e19e","ios":"levelo://app?vid=ef09462a-e08c-4c79-97cc-c946f961e19e"},"vehicle_type_id":"4","last_reported":1746544434,"current_range_meters":4000,"station_id":"cjm6bp8fraef2m0cb0m0","pricing_plan_id":"cebpf4jnsgd1na2vs0mg"},{"bike_id":"713addbb-83ed-4bb4-8953-037e3c486bd4","system_id":"levelo_inurba_marseille","lat":43.241668,"lon":5.363897,"is_reserved":false,"is_disabled":false,"rental_uris":{"android":"levelo://app?vid=713addbb-83ed-4bb4-8953-037e3c486bd4","ios":"levelo://app?vid=713addbb-83ed-4bb4-8953-037e3c486bd4"},"vehicle_type_id":"4","last_reported":1746544434,"current_range_meters":4000,"station_id":"cpo36qri1sfpv3e86is0","pricing_plan_id":"cebpf4jnsgd1na2vs0mg"},{"bike_id":"88c3c6c1-a33a-48ed-b2a4-48c16332184c","system_id":"levelo_inurba_marseille","lat":43.29011,"lon":5.38139,"is_reserved":false,"is_disabled":false,"rental_uris":{"android":"levelo://app?vid=88c3c6c1-a33a-48ed-b2a4-48c16332184c","ios":"levelo://app?vid=88c3c6c1-a33a-48ed-b2a4-48c16332184c"},"vehicle_type_id":"4","last_reported":1746544434,"current_range_meters":4000,"station_id":"","pricing_plan_id":"cebpf4jnsgd1na2vs0mg"},{"bike_id":"0d3a894c-50b1-4279-b8b7-969bf2c8dcc4","system_id":"levelo_inurba_marseille","lat":43.28934,"lon":5.39638,"is_reserved":false,"is_disabled":false,"rental_uris":{"android":"levelo://app?vid=0d3a894c-50b1-4279-b8b7-969bf2c8dcc4","ios":"levelo://app?vid=0d3a894c-50b1-4279-b8b7-969bf2c8dcc4"},"vehicle_type_id":"4","last_reported":1746544434,"current_range_meters":3600,"station_id":"ce4bh3h2rcd13ifvqdn0","pricing_plan_id":"cebpf4jnsgd1na2vs0mg"},{"bike_id":"5c7249a3-596f-4101-8dbd-1087a1f3b438","system_id":"levelo_inurba_marseille","lat":43.23185,"lon":5.355537,"is_reserved":false,"is_disabled":false,"rental_uris":{"android":"levelo://app?vid=5c7249a3-596f-4101-8dbd-1087a1f3b438","ios":"levelo://app?vid=5c7249a3-596f-4101-8dbd-1087a1f3b438"},"vehicle_type_id":"4","last_reported":1746544434,"current_range_meters":4400,"station_id":"ce4bhu92rcd13ifvqi70","pricing_plan_id":"cebpf4jnsgd1na2vs0mg"},{"bike_id":"482344f1-460c-48ea-83dd-01b9a385e5cf","system_id":"levelo_inurba_marseille","lat":43.30647,"lon":5.36871,"is_reserved":false,"is_disabled":false,"rental_uris":{"android":"levelo://app?vid=482344f1-460c-48ea-83dd-01b9a385e5cf","ios":"levelo://app?vid=482344f1-460c-48ea-83dd-01b9a385e5cf"},"vehicle_type_id":"4","last_reported":1746544434,"current_range_meters":4800,"station_id":"","pricing_plan_id":"cebpf4jnsgd1na2vs0mg"},{"bike_id":"fba86cbc-be98-4d37-8c32-868c729760a0","system_id":"levelo_inurba_marseille","lat":43.28463,"lon":5.35887,"is_reserved":false,"is_disabled":false,"rental_uris":{"android":"levelo://app?vid=fba86cbc-be98-4d37-8c32-868c729760a0","ios":"levelo://app?vid=fba86cbc-be98-4d37-8c32-868c729760a0"},"vehicle_type_id":"4","last_reported":1746544434,"current_range_meters":8000,"station_id":"ce4bhah2rcd13ifvqei0","pricing_plan_id":"cebpf4jnsgd1na2vs0mg"},{"bike_id":"ceb35a1a-2775-4aae-bc07-6ee4efa0fdc1","system_id":"levelo_inurba_marseille","lat":43.30323,"lon":5.40429,"is_reserved":false,"is_disabled":false,"rental_uris":{"android":"levelo://app?vid=ceb35a1a-2775-4aae-bc07-6ee4efa0fdc1","ios":"levelo://app?vid=ceb35a1a-2775-4aae-bc07-6ee4efa0fdc1"},"vehicle_type_id":"4","last_reported":1746544434,"current_range_meters":3200,"station_id":"ce4bh012rcd13ifvqd10","pricing_plan_id":"cebpf4jnsgd1na2vs0mg"},{"bike_id":"dee248e6-0df0-47c6-9893-0f635e2dc5bf","system_id":"levelo_inurba_marseille","lat":43.29204,"lon":5.35795,"is_reserved":false,"is_disabled":false,"rental_uris":{"android":"levelo://app?vid=dee248e6-0df0-47c6-9893-0f635e2dc5bf","ios":"levelo://app?vid=dee248e6-0df0-47c6-9893-0f635e2dc5bf"},"vehicle_type_id":"4","last_reported":1746544434,"current_range_meters":5600,"station_id":"ce4bhb12rcd13ifvqel0","pricing_plan_id":"cebpf4jnsgd1na2vs0mg"},{"bike_id":"86565a1f-c744-4230-a2ed-acff21e926e4","system_id":"levelo_inurba_marseille","lat":43.27816,"lon":5.40717,"is_reserved":false,"is_disabled":false,"rental_uris":{"android":"levelo://app?vid=86565a1f-c744-4230-a2ed-acff21e926e4","ios":"levelo://app?vid=86565a1f-c744-4230-a2ed-acff21e926e4"},"vehicle_type_id":"4","last_reported":1746544434,"current_range_meters":4400,"station_id":"ce4bhnh2rcd13ifvqgtg","pricing_plan_id":"cebpf4jnsgd1na2vs0mg"},{"bike_id":"bcbfd365-e927-4a5d-b350-0c729f9bb013","system_id":"levelo_inurba_marseille","lat":43.24665,"lon":5.38125,"is_reserved":false,"is_disabled":false,"rental_uris":{"android":"levelo://app?vid=bcbfd365-e927-4a5d-b350-0c729f9bb013","ios":"levelo://app?vid=bcbfd365-e927-4a5d-b350-0c729f9bb013"},"vehicle_type_id":"4","last_reported":1746544434,"current_range_meters":6000,"station_id":"ce4bhih2rcd13ifvqfr0","pricing_plan_id":"cebpf4jnsgd1na2vs0mg"},{"bike_id":"caf17245-f6cd-451d-8c71-3a739aa40846","system_id":"levelo_inurba_marseille","lat":43.25505,"lon":5.3765,"is_reserved":false,"is_disabled":false,"rental_uris":{"android":"levelo://app?vid=caf17245-f6cd-451d-8c71-3a739aa40846","ios":"levelo://app?vid=caf17245-f6cd-451d-8c71-3a739aa40846"},"vehicle_type_id":"4","last_reported":1746544434,"current_range_meters":6000,"station_id":"ce4bhh12rcd13ifvqff0","pricing_plan_id":"cebpf4jnsgd1na2vs0mg"},{"bike_id":"eaa62096-f1c1-4470-95b2-b8424fcaf6a6","system_id":"levelo_inurba_marseille","lat":43.290134,"lon":5.379593,"is_reserved":false,"is_disabled":false,"rental_uris":{"android":"levelo://app?vid=eaa62096-f1c1-4470-95b2-b8424fcaf6a6","ios":"levelo://app?vid=eaa62096-f1c1-4470-95b2-b8424fcaf6a6"},"vehicle_type_id":"4","last_reported":1746544434,"current_range_meters":6400,"station_id":"ce4bh2h2rcd13ifvqdh0","pricing_plan_id":"cebpf4jnsgd1na2vs0mg"},{"bike_id":"903d6e82-3c48-467a-b65c-eac4b14802bb","system_id":"levelo_inurba_marseille","lat":43.28921,"lon":5.38408,"is_reserved":false,"is_disabled":true,"rental_uris":{"android":"levelo://app?vid=903d6e82-3c48-467a-b65c-eac4b14802bb","ios":"levelo://app?vid=903d6e82-3c48-467a-b65c-eac4b14802bb"},"vehicle_type_id":"4","last_reported":1746544434,"current_range_meters":6400,"station_id":"ce4bh612rcd13ifvqe6g","pricing_plan_id":"cebpf4jnsgd1na2vs0mg"},{"bike_id":"6e83f44a-1132-4efb-972a-62e0a9b6f62a","system_id":"levelo_inurba_marseille","lat":43.295319,"lon":5.385441,"is_reserved":false,"is_disabled":false,"rental_uris":{"android":"levelo://app?vid=6e83f44a-1132-4efb-972a-62e0a9b6f62a","ios":"levelo://app?vid=6e83f44a-1132-4efb-972a-62e0a9b6f62a"},"vehicle_type_id":"4","last_reported":1746544434,"current_range_meters":6000,"station_id":"ce4bgih2rcd13ifvqba0","pricing_plan_id":"cebpf4jnsgd1na2vs0mg"},{"bike_id":"80b129ba-3a10-4583-8683-ae259e414111","system_id":"levelo_inurba_marseille","lat":43.30133,"lon":5.38792,"is_reserved":false,"is_disabled":false,"rental_uris":{"android":"levelo://app?vid=80b129ba-3a10-4583-8683-ae259e414111","ios":"levelo://app?vid=80b129ba-3a10-4583-8683-ae259e414111"},"vehicle_type_id":"4","last_reported":1746544434,"current_range_meters":6400,"station_id":"ce4bghh2rcd13ifvqb60","pricing_plan_id":"cebpf4jnsgd1na2vs0mg"},{"bike_id":"2266d3a0-9d4e-48a4-aa89-0951a4229dc2","system_id":"levelo_inurba_marseille","lat":43.2439,"lon":5.37052,"is_reserved":false,"is_disabled":false,"rental_uris":{"android":"levelo://app?vid=2266d3a0-9d4e-48a4-aa89-0951a4229dc2","ios":"levelo://app?vid=2266d3a0-9d4e-48a4-aa89-0951a4229dc2"},"vehicle_type_id":"4","last_reported":1746544434,"current_range_meters":6000,"station_id":"ce4bhhh2rcd13ifvqfk0","pricing_plan_id":"cebpf4jnsgd1na2vs0mg"},{"bike_id":"83cc1842-773c-46bc-8be1-caa63d83c3c2","system_id":"levelo_inurba_marseille","lat":43.259207,"lon":5.395263,"is_reserved":false,"is_disabled":false,"rental_uris":{"android":"levelo://app?vid=83cc1842-773c-46bc-8be1-caa63d83c3c2","ios":"levelo://app?vid=83cc1842-773c-46bc-8be1-caa63d83c3c2"},"vehicle_type_id":"4","last_reported":1746544434,"current_range_meters":6400,"station_id":"","pricing_plan_id":"cebpf4jnsgd1na2vs0mg"},{"bike_id":"d04d7ece-9743-4082-921c-d82936d530e8","system_id":"levelo_inurba_marseille","lat":43.3133,"lon":5.39689,"is_reserved":false,"is_disabled":false,"rental_uris":{"android":"levelo://app?vid=d04d7ece-9743-4082-921c-d82936d530e8","ios":"levelo://app?vid=d04d7ece-9743-4082-921c-d82936d530e8"},"vehicle_type_id":"4","last_reported":1746544434,"current_range_meters":6800,"station_id":"ce4bgvp2rcd13ifvqcu0","pricing_plan_id":"cebpf4jnsgd1na2vs0mg"},{"bike_id":"99921604-b743-4104-a514-220f34624c12","system_id":"levelo_inurba_marseille","lat":43.323657,"lon":5.388826,"is_reserved":false,"is_disabled":false,"rental_uris":{"android":"levelo://app?vid=99921604-b743-4104-a514-220f34624c12","ios":"levelo://app?vid=99921604-b743-4104-a514-220f34624c12"},"vehicle_type_id":"4","last_reported":1746544434,"current_range_meters":6800,"station_id":"ce4bhqp2rcd13ifvqhog","pricing_plan_id":"cebpf4jnsgd1na2vs0mg"},{"bike_id":"416f578b-a76d-4698-b5ca-69135ef4b579","system_id":"levelo_inurba_marseille","lat":43.241657,"lon":5.36392,"is_reserved":false,"is_disabled":false,"rental_uris":{"android":"levelo://app?vid=416f578b-a76d-4698-b5ca-69135ef4b579","ios":"levelo://app?vid=416f578b-a76d-4698-b5ca-69135ef4b579"},"vehicle_type_id":"4","last_reported":1746544434,"current_range_meters":6800,"station_id":"cpo36qri1sfpv3e86is0","pricing_plan_id":"cebpf4jnsgd1na2vs0mg"},{"bike_id":"9986821b-08c7-46f5-b234-9a0355d17eff","system_id":"levelo_inurba_marseille","lat":43.29782,"lon":5.3934,"is_reserved":false,"is_disabled":false,"rental_uris":{"android":"levelo://app?vid=9986821b-08c7-46f5-b234-9a0355d17eff","ios":"levelo://app?vid=9986821b-08c7-46f5-b234-9a0355d17eff"},"vehicle_type_id":"4","last_reported":1746544434,"current_range_meters":6800,"station_id":"chh1huq6cuj3fo74tm60","pricing_plan_id":"cebpf4jnsgd1na2vs0mg"},{"bike_id":"d4425f0e-7361-41b6-9e91-df057029635e","system_id":"levelo_inurba_marseille","lat":43.27057,"lon":5.40257,"is_reserved":false,"is_disabled":false,"rental_uris":{"android":"levelo://app?vid=d4425f0e-7361-41b6-9e91-df057029635e","ios":"levelo://app?vid=d4425f0e-7361-41b6-9e91-df057029635e"},"vehicle_type_id":"4","last_reported":1746544434,"current_range_meters":7200,"station_id":"ce4bhk92rcd13ifvqgc0","pricing_plan_id":"cebpf4jnsgd1na2vs0mg"},{"bike_id":"10d92f11-64e9-4cfb-a33f-925ac5e58673","system_id":"levelo_inurba_marseille","lat":43.29651,"lon":5.37474,"is_reserved":false,"is_disabled":false,"rental_uris":{"android":"levelo://app?vid=10d92f11-64e9-4cfb-a33f-925ac5e58673","ios":"levelo://app?vid=10d92f11-64e9-4cfb-a33f-925ac5e58673"},"vehicle_type_id":"4","last_reported":1746544434,"current_range_meters":8000,"station_id":"","pricing_plan_id":"cebpf4jnsgd1na2vs0mg"},{"bike_id":"5ee644b7-a561-4416-b93b-7609e0531786","system_id":"levelo_inurba_marseille","lat":43.30784,"lon":5.37645,"is_reserved":false,"is_disabled":false,"rental_uris":{"android":"levelo://app?vid=5ee644b7-a561-4416-b93b-7609e0531786","ios":"levelo://app?vid=5ee644b7-a561-4416-b93b-7609e0531786"},"vehicle_type_id":"4","last_reported":1746544434,"current_range_meters":7200,"station_id":"ce4bgv92rcd13ifvqcq0","pricing_plan_id":"cebpf4jnsgd1na2vs0mg"},{"bike_id":"e843751d-a677-49e1-9348-63a988665403","system_id":"levelo_inurba_marseille","lat":43.25872,"lon":5.39897,"is_reserved":false,"is_disabled":false,"rental_uris":{"android":"levelo://app?vid=e843751d-a677-49e1-9348-63a988665403","ios":"levelo://app?vid=e843751d-a677-49e1-9348-63a988665403"},"vehicle_type_id":"4","last_reported":1746544434,"current_range_meters":7200,"station_id":"ce4bhl92rcd13ifvqghg","pricing_plan_id":"cebpf4jnsgd1na2vs0mg"},{"bike_id":"15766b34-1ffa-48b4-bcdc-1037197cdcf9","system_id":"levelo_inurba_marseille","lat":43.32377,"lon":5.36697,"is_reserved":false,"is_disabled":false,"rental_uris":{"android":"levelo://app?vid=15766b34-1ffa-48b4-bcdc-1037197cdcf9","ios":"levelo://app?vid=15766b34-1ffa-48b4-bcdc-1037197cdcf9"},"vehicle_type_id":"4","last_reported":1746544434,"current_range_meters":7200,"station_id":"ce4bhsh2rcd13ifvqi2g","pricing_plan_id":"cebpf4jnsgd1na2vs0mg"},{"bike_id":"4d9a67e4-53f1-4624-ab22-0ed208cc8c0d","system_id":"levelo_inurba_marseille","lat":43.2416,"lon":5.36407,"is_reserved":false,"is_disabled":false,"rental_uris":{"android":"levelo://app?vid=4d9a67e4-53f1-4624-ab22-0ed208cc8c0d","ios":"levelo://app?vid=4d9a67e4-53f1-4624-ab22-0ed208cc8c0d"},"vehicle_type_id":"4","last_reported":1746544434,"current_range_meters":8000,"station_id":"cpo36qri1sfpv3e86is0","pricing_plan_id":"cebpf4jnsgd1na2vs0mg"},{"bike_id":"3dd12319-a366-4c8f-bcb9-97e8c47ccd85","system_id":"levelo_inurba_marseille","lat":43.30413,"lon":5.41285,"is_reserved":false,"is_disabled":false,"rental_uris":{"android":"levelo://app?vid=3dd12319-a366-4c8f-bcb9-97e8c47ccd85","ios":"levelo://app?vid=3dd12319-a366-4c8f-bcb9-97e8c47ccd85"},"vehicle_type_id":"4","last_reported":1746544434,"current_range_meters":9600,"station_id":"ce4bhop2rcd13ifvqh8g","pricing_plan_id":"cebpf4jnsgd1na2vs0mg"},{"bike_id":"377cba4d-c532-4b1a-90e4-12937369a524","system_id":"levelo_inurba_marseille","lat":43.25077,"lon":5.40395,"is_reserved":false,"is_disabled":false,"rental_uris":{"android":"levelo://app?vid=377cba4d-c532-4b1a-90e4-12937369a524","ios":"levelo://app?vid=377cba4d-c532-4b1a-90e4-12937369a524"},"vehicle_type_id":"4","last_reported":1746544434,"current_range_meters":8400,"station_id":"","pricing_plan_id":"cebpf4jnsgd1na2vs0mg"},{"bike_id":"54bb3de6-8cee-41ec-95a2-c810bb00428c","system_id":"levelo_inurba_marseille","lat":43.30147,"lon":5.38084,"is_reserved":false,"is_disabled":false,"rental_uris":{"android":"levelo://app?vid=54bb3de6-8cee-41ec-95a2-c810bb00428c","ios":"levelo://app?vid=54bb3de6-8cee-41ec-95a2-c810bb00428c"},"vehicle_type_id":"4","last_reported":1746544434,"current_range_meters":8400,"station_id":"ce4bgjp2rcd13ifvqbh0","pricing_plan_id":"cebpf4jnsgd1na2vs0mg"},{"bike_id":"c79aa5d5-39b5-4c94-8271-fc9c2b218625","system_id":"levelo_inurba_marseille","lat":43.26809,"lon":5.40275,"is_reserved":false,"is_disabled":false,"rental_uris":{"android":"levelo://app?vid=c79aa5d5-39b5-4c94-8271-fc9c2b218625","ios":"levelo://app?vid=c79aa5d5-39b5-4c94-8271-fc9c2b218625"},"vehicle_type_id":"4","last_reported":1746544434,"current_range_meters":8400,"station_id":"ce501612rcd8frsf0b60","pricing_plan_id":"cebpf4jnsgd1na2vs0mg"},{"bike_id":"d24dd53f-85aa-43a7-a325-641d6df8520f","system_id":"levelo_inurba_marseille","lat":43.32669,"lon":5.40942,"is_reserved":false,"is_disabled":false,"rental_uris":{"android":"levelo://app?vid=d24dd53f-85aa-43a7-a325-641d6df8520f","ios":"levelo://app?vid=d24dd53f-85aa-43a7-a325-641d6df8520f"},"vehicle_type_id":"4","last_reported":1746544434,"current_range_meters":8400,"station_id":"ce4bhpp2rcd13ifvqhgg","pricing_plan_id":"cebpf4jnsgd1na2vs0mg"},{"bike_id":"f9652d2f-0d0b-4efd-a574-e747d402ae12","system_id":"levelo_inurba_marseille","lat":43.29522,"lon":5.39033,"is_reserved":false,"is_disabled":false,"rental_uris":{"android":"levelo://app?vid=f9652d2f-0d0b-4efd-a574-e747d402ae12","ios":"levelo://app?vid=f9652d2f-0d0b-4efd-a574-e747d402ae12"},"vehicle_type_id":"4","last_reported":1746544434,"current_range_meters":8800,"station_id":"ce4bh3p2rcd13ifvqdp0","pricing_plan_id":"cebpf4jnsgd1na2vs0mg"},{"bike_id":"f78038f2-5c33-424d-80c4-5c29f9f6f715","system_id":"levelo_inurba_marseille","lat":43.30426,"lon":5.38879,"is_reserved":false,"is_disabled":false,"rental_uris":{"android":"levelo://app?vid=f78038f2-5c33-424d-80c4-5c29f9f6f715","ios":"levelo://app?vid=f78038f2-5c33-424d-80c4-5c29f9f6f715"},"vehicle_type_id":"4","last_reported":1746544434,"current_range_meters":8800,"station_id":"ce4bgk12rcd13ifvqbi0","pricing_plan_id":"cebpf4jnsgd1na2vs0mg"},{"bike_id":"9d8f73eb-df09-4699-86a7-d631e2319093","system_id":"levelo_inurba_marseille","lat":43.262595,"lon":5.374332,"is_reserved":false,"is_disabled":false,"rental_uris":{"android":"levelo://app?vid=9d8f73eb-df09-4699-86a7-d631e2319093","ios":"levelo://app?vid=9d8f73eb-df09-4699-86a7-d631e2319093"},"vehicle_type_id":"4","last_reported":1746544434,"current_range_meters":8800,"station_id":"","pricing_plan_id":"cebpf4jnsgd1na2vs0mg"},{"bike_id":"2e685f50-d3a9-4898-b677-650427ccf280","system_id":"levelo_inurba_marseille","lat":43.29197,"lon":5.35806,"is_reserved":false,"is_disabled":false,"rental_uris":{"android":"levelo://app?vid=2e685f50-d3a9-4898-b677-650427ccf280","ios":"levelo://app?vid=2e685f50-d3a9-4898-b677-650427ccf280"},"vehicle_type_id":"4","last_reported":1746544434,"current_range_meters":8400,"station_id":"ce4bhb12rcd13ifvqel0","pricing_plan_id":"cebpf4jnsgd1na2vs0mg"},{"bike_id":"47bbb4f4-4057-4514-981f-489467111366","system_id":"levelo_inurba_marseille","lat":43.25123,"lon":5.40319,"is_reserved":false,"is_disabled":false,"rental_uris":{"android":"levelo://app?vid=47bbb4f4-4057-4514-981f-489467111366","ios":"levelo://app?vid=47bbb4f4-4057-4514-981f-489467111366"},"vehicle_type_id":"4","last_reported":1746544434,"current_range_meters":9200,"station_id":"ce4bhlh2rcd13ifvqgig","pricing_plan_id":"cebpf4jnsgd1na2vs0mg"},{"bike_id":"f22b893a-edbc-4848-9006-00f02f19930c","system_id":"levelo_inurba_marseille","lat":43.2815,"lon":5.42649,"is_reserved":false,"is_disabled":false,"rental_uris":{"android":"levelo://app?vid=f22b893a-edbc-4848-9006-00f02f19930c","ios":"levelo://app?vid=f22b893a-edbc-4848-9006-00f02f19930c"},"vehicle_type_id":"4","last_reported":1746544434,"current_range_meters":9200,"station_id":"ce4bhnh2rcd13ifvqgug","pricing_plan_id":"cebpf4jnsgd1na2vs0mg"},{"bike_id":"47956ac4-b384-4e4d-8f86-d31ccfb14679","system_id":"levelo_inurba_marseille","lat":43.26197,"lon":5.37441,"is_reserved":false,"is_disabled":true,"rental_uris":{"android":"levelo://app?vid=47956ac4-b384-4e4d-8f86-d31ccfb14679","ios":"levelo://app?vid=47956ac4-b384-4e4d-8f86-d31ccfb14679"},"vehicle_type_id":"4","last_reported":1746544434,"current_range_meters":9200,"station_id":"ce4bhgp2rcd13ifvqfc0","pricing_plan_id":"cebpf4jnsgd1na2vs0mg"},{"bike_id":"7b1d4429-c7a9-4c7a-ae34-e99c15c546a7","system_id":"levelo_inurba_marseille","lat":43.27557,"lon":5.38429,"is_reserved":false,"is_disabled":false,"rental_uris":{"android":"levelo://app?vid=7b1d4429-c7a9-4c7a-ae34-e99c15c546a7","ios":"levelo://app?vid=7b1d4429-c7a9-4c7a-ae34-e99c15c546a7"},"vehicle_type_id":"4","last_reported":1746544434,"current_range_meters":9200,"station_id":"ce4bhh92rcd13ifvqfi0","pricing_plan_id":"cebpf4jnsgd1na2vs0mg"},{"bike_id":"c2fff035-6128-402a-b38b-ebc94261b3d8","system_id":"levelo_inurba_marseille","lat":43.21191,"lon":5.35063,"is_reserved":false,"is_disabled":false,"rental_uris":{"android":"levelo://app?vid=c2fff035-6128-402a-b38b-ebc94261b3d8","ios":"levelo://app?vid=c2fff035-6128-402a-b38b-ebc94261b3d8"},"vehicle_type_id":"4","last_reported":1746544434,"current_range_meters":9200,"station_id":"st_cvj6sg6p6f1abm77japg","pricing_plan_id":"cebpf4jnsgd1na2vs0mg"},{"bike_id":"bf0223c6-6c46-453d-80b4-0d94c197c934","system_id":"levelo_inurba_marseille","lat":43.24807,"lon":5.3745,"is_reserved":false,"is_disabled":false,"rental_uris":{"android":"levelo://app?vid=bf0223c6-6c46-453d-80b4-0d94c197c934","ios":"levelo://app?vid=bf0223c6-6c46-453d-80b4-0d94c197c934"},"vehicle_type_id":"4","last_reported":1746544434,"current_range_meters":9200,"station_id":"ce4bhgh2rcd13ifvqfb0","pricing_plan_id":"cebpf4jnsgd1na2vs0mg"},{"bike_id":"0c377d9d-9a3a-47a7-9944-6039314b5e15","system_id":"levelo_inurba_marseille","lat":43.24586,"lon":5.40503,"is_reserved":false,"is_disabled":false,"rental_uris":{"android":"levelo://app?vid=0c377d9d-9a3a-47a7-9944-6039314b5e15","ios":"levelo://app?vid=0c377d9d-9a3a-47a7-9944-6039314b5e15"},"vehicle_type_id":"4","last_reported":1746544434,"current_range_meters":9200,"station_id":"","pricing_plan_id":"cebpf4jnsgd1na2vs0mg"},{"bike_id":"503569af-07db-461f-918e-29f89d0c1c24","system_id":"levelo_inurba_marseille","lat":43.22541,"lon":5.34748,"is_reserved":false,"is_disabled":false,"rental_uris":{"android":"levelo://app?vid=503569af-07db-461f-918e-29f89d0c1c24","ios":"levelo://app?vid=503569af-07db-461f-918e-29f89d0c1c24"},"vehicle_type_id":"4","last_reported":1746544434,"current_range_meters":9200,"station_id":"","pricing_plan_id":"cebpf4jnsgd1na2vs0mg"},{"bike_id":"05a84f69-0592-442a-b098-6253d0b70e9e","system_id":"levelo_inurba_marseille","lat":43.29985,"lon":5.37216,"is_reserved":false,"is_disabled":false,"rental_uris":{"android":"levelo://app?vid=05a84f69-0592-442a-b098-6253d0b70e9e","ios":"levelo://app?vid=05a84f69-0592-442a-b098-6253d0b70e9e"},"vehicle_type_id":"4","last_reported":1746544434,"current_range_meters":9200,"station_id":"ce4bgr92rcd13ifvqc7g","pricing_plan_id":"cebpf4jnsgd1na2vs0mg"},{"bike_id":"cdd9eb01-4835-49d7-b438-c2f26bc17ee3","system_id":"levelo_inurba_marseille","lat":43.29939,"lon":5.36545,"is_reserved":false,"is_disabled":false,"rental_uris":{"android":"levelo://app?vid=cdd9eb01-4835-49d7-b438-c2f26bc17ee3","ios":"levelo://app?vid=cdd9eb01-4835-49d7-b438-c2f26bc17ee3"},"vehicle_type_id":"4","last_reported":1746544434,"current_range_meters":9200,"station_id":"ce4bgm92rcd13ifvqbr0","pricing_plan_id":"cebpf4jnsgd1na2vs0mg"},{"bike_id":"faac1b8d-e7cb-4eaf-bcde-86ae13b648ad","system_id":"levelo_inurba_marseille","lat":43.29621,"lon":5.37715,"is_reserved":false,"is_disabled":false,"rental_uris":{"android":"levelo://app?vid=faac1b8d-e7cb-4eaf-bcde-86ae13b648ad","ios":"levelo://app?vid=faac1b8d-e7cb-4eaf-bcde-86ae13b648ad"},"vehicle_type_id":"4","last_reported":1746544434,"current_range_meters":9600,"station_id":"ce4bgi92rcd13ifvqb90","pricing_plan_id":"cebpf4jnsgd1na2vs0mg"},{"bike_id":"2376685e-e1ca-4728-9c8b-09642df1a9ba","system_id":"levelo_inurba_marseille","lat":43.31759,"lon":5.39015,"is_reserved":false,"is_disabled":false,"rental_uris":{"android":"levelo://app?vid=2376685e-e1ca-4728-9c8b-09642df1a9ba","ios":"levelo://app?vid=2376685e-e1ca-4728-9c8b-09642df1a9ba"},"vehicle_type_id":"4","last_reported":1746544434,"current_range_meters":9600,"station_id":"ce4bhqp2rcd13ifvqhng","pricing_plan_id":"cebpf4jnsgd1na2vs0mg"},{"bike_id":"4be95b90-db9a-4205-9ad8-468cfd9c87c9","system_id":"levelo_inurba_marseille","lat":43.25494,"lon":5.37647,"is_reserved":false,"is_disabled":false,"rental_uris":{"android":"levelo://app?vid=4be95b90-db9a-4205-9ad8-468cfd9c87c9","ios":"levelo://app?vid=4be95b90-db9a-4205-9ad8-468cfd9c87c9"},"vehicle_type_id":"4","last_reported":1746544434,"current_range_meters":9600,"station_id":"ce4bhh12rcd13ifvqff0","pricing_plan_id":"cebpf4jnsgd1na2vs0mg"},{"bike_id":"37b80a7b-fd0f-49f3-81ae-7c49c154529e","system_id":"levelo_inurba_marseille","lat":43.25085,"lon":5.39511,"is_reserved":false,"is_disabled":false,"rental_uris":{"android":"levelo://app?vid=37b80a7b-fd0f-49f3-81ae-7c49c154529e","ios":"levelo://app?vid=37b80a7b-fd0f-49f3-81ae-7c49c154529e"},"vehicle_type_id":"4","last_reported":1746544434,"current_range_meters":9600,"station_id":"ce4bhm12rcd13ifvqgkg","pricing_plan_id":"cebpf4jnsgd1na2vs0mg"},{"bike_id":"b28405b5-70bb-48fb-8ecb-ee0f63090bc4","system_id":"levelo_inurba_marseille","lat":43.28409,"lon":5.37512,"is_reserved":false,"is_disabled":false,"rental_uris":{"android":"levelo://app?vid=b28405b5-70bb-48fb-8ecb-ee0f63090bc4","ios":"levelo://app?vid=b28405b5-70bb-48fb-8ecb-ee0f63090bc4"},"vehicle_type_id":"4","last_reported":1746544434,"current_range_meters":9600,"station_id":"ce4bh412rcd13ifvqds0","pricing_plan_id":"cebpf4jnsgd1na2vs0mg"},{"bike_id":"c9592205-9409-4f74-aed1-7c4141a58caa","system_id":"levelo_inurba_marseille","lat":43.27134,"lon":5.36372,"is_reserved":false,"is_disabled":false,"rental_uris":{"android":"levelo://app?vid=c9592205-9409-4f74-aed1-7c4141a58caa","ios":"levelo://app?vid=c9592205-9409-4f74-aed1-7c4141a58caa"},"vehicle_type_id":"4","last_reported":1746544434,"current_range_meters":10000,"station_id":"","pricing_plan_id":"cebpf4jnsgd1na2vs0mg"},{"bike_id":"f114007a-660f-43c5-8c13-8d300dcccb30","system_id":"levelo_inurba_marseille","lat":43.27997,"lon":5.41688,"is_reserved":false,"is_disabled":false,"rental_uris":{"android":"levelo://app?vid=f114007a-660f-43c5-8c13-8d300dcccb30","ios":"levelo://app?vid=f114007a-660f-43c5-8c13-8d300dcccb30"},"vehicle_type_id":"4","last_reported":1746544434,"current_range_meters":10000,"station_id":"ce4bho12rcd13ifvqh1g","pricing_plan_id":"cebpf4jnsgd1na2vs0mg"},{"bike_id":"509b0ef3-d0d0-4422-a6f0-b6a2a96ef480","system_id":"levelo_inurba_marseille","lat":43.292322,"lon":5.360738,"is_reserved":false,"is_disabled":false,"rental_uris":{"android":"levelo://app?vid=509b0ef3-d0d0-4422-a6f0-b6a2a96ef480","ios":"levelo://app?vid=509b0ef3-d0d0-4422-a6f0-b6a2a96ef480"},"vehicle_type_id":"4","last_reported":1746544434,"current_range_meters":10000,"station_id":"ce4bhbh2rcd13ifvqeqg","pricing_plan_id":"cebpf4jnsgd1na2vs0mg"},{"bike_id":"85c13bd7-934f-40ed-bfce-fdd9f554ccfe","system_id":"levelo_inurba_marseille","lat":43.30425,"lon":5.38889,"is_reserved":false,"is_disabled":false,"rental_uris":{"android":"levelo://app?vid=85c13bd7-934f-40ed-bfce-fdd9f554ccfe","ios":"levelo://app?vid=85c13bd7-934f-40ed-bfce-fdd9f554ccfe"},"vehicle_type_id":"4","last_reported":1746544434,"current_range_meters":10000,"station_id":"ce4bgk12rcd13ifvqbi0","pricing_plan_id":"cebpf4jnsgd1na2vs0mg"},{"bike_id":"943d0601-5d73-468b-922c-7ef604961a21","system_id":"levelo_inurba_marseille","lat":43.21187,"lon":5.35071,"is_reserved":false,"is_disabled":false,"rental_uris":{"android":"levelo://app?vid=943d0601-5d73-468b-922c-7ef604961a21","ios":"levelo://app?vid=943d0601-5d73-468b-922c-7ef604961a21"},"vehicle_type_id":"4","last_reported":1746544434,"current_range_meters":10000,"station_id":"st_cvj6sg6p6f1abm77japg","pricing_plan_id":"cebpf4jnsgd1na2vs0mg"},{"bike_id":"88f36705-3ec0-4e92-ab4c-415c0eab97dc","system_id":"levelo_inurba_marseille","lat":43.25873,"lon":5.39892,"is_reserved":false,"is_disabled":false,"rental_uris":{"android":"levelo://app?vid=88f36705-3ec0-4e92-ab4c-415c0eab97dc","ios":"levelo://app?vid=88f36705-3ec0-4e92-ab4c-415c0eab97dc"},"vehicle_type_id":"4","last_reported":1746544434,"current_range_meters":10000,"station_id":"ce4bhl92rcd13ifvqghg","pricing_plan_id":"cebpf4jnsgd1na2vs0mg"},{"bike_id":"4d50b4f2-6315-4255-9100-b3ebf41620f9","system_id":"levelo_inurba_marseille","lat":43.279996,"lon":5.400134,"is_reserved":false,"is_disabled":false,"rental_uris":{"android":"levelo://app?vid=4d50b4f2-6315-4255-9100-b3ebf41620f9","ios":"levelo://app?vid=4d50b4f2-6315-4255-9100-b3ebf41620f9"},"vehicle_type_id":"4","last_reported":1746544434,"current_range_meters":10000,"station_id":"ce4bho92rcd13ifvqh4g","pricing_plan_id":"cebpf4jnsgd1na2vs0mg"},{"bike_id":"fc453207-e37b-4b13-ae20-4430b65eb533","system_id":"levelo_inurba_marseille","lat":43.32442,"lon":5.39127,"is_reserved":false,"is_disabled":false,"rental_uris":{"android":"levelo://app?vid=fc453207-e37b-4b13-ae20-4430b65eb533","ios":"levelo://app?vid=fc453207-e37b-4b13-ae20-4430b65eb533"},"vehicle_type_id":"4","last_reported":1746544434,"current_range_meters":10800,"station_id":"","pricing_plan_id":"cebpf4jnsgd1na2vs0mg"},{"bike_id":"967e90ac-3fe4-40f2-be41-e31e7d2e1c72","system_id":"levelo_inurba_marseille","lat":43.29792,"lon":5.3934,"is_reserved":false,"is_disabled":false,"rental_uris":{"android":"levelo://app?vid=967e90ac-3fe4-40f2-be41-e31e7d2e1c72","ios":"levelo://app?vid=967e90ac-3fe4-40f2-be41-e31e7d2e1c72"},"vehicle_type_id":"4","last_reported":1746544434,"current_range_meters":10800,"station_id":"chh1huq6cuj3fo74tm60","pricing_plan_id":"cebpf4jnsgd1na2vs0mg"},{"bike_id":"5ddefc4f-4d54-4431-8325-199eb4dfc7ff","system_id":"levelo_inurba_marseille","lat":43.31481,"lon":5.37314,"is_reserved":false,"is_disabled":false,"rental_uris":{"android":"levelo://app?vid=5ddefc4f-4d54-4431-8325-199eb4dfc7ff","ios":"levelo://app?vid=5ddefc4f-4d54-4431-8325-199eb4dfc7ff"},"vehicle_type_id":"4","last_reported":1746544434,"current_range_meters":10800,"station_id":"ce4bgt12rcd13ifvqcd0","pricing_plan_id":"cebpf4jnsgd1na2vs0mg"},{"bike_id":"8a5554a2-b62f-4371-8d49-519ad97fb9f1","system_id":"levelo_inurba_marseille","lat":43.33021,"lon":5.39043,"is_reserved":false,"is_disabled":false,"rental_uris":{"android":"levelo://app?vid=8a5554a2-b62f-4371-8d49-519ad97fb9f1","ios":"levelo://app?vid=8a5554a2-b62f-4371-8d49-519ad97fb9f1"},"vehicle_type_id":"4","last_reported":1746544434,"current_range_meters":10800,"station_id":"ce4bhr92rcd13ifvqhrg","pricing_plan_id":"cebpf4jnsgd1na2vs0mg"},{"bike_id":"6ff1d853-5859-4cfc-be25-8708181d13bd","system_id":"levelo_inurba_marseille","lat":43.30359,"lon":5.41877,"is_reserved":false,"is_disabled":false,"rental_uris":{"android":"levelo://app?vid=6ff1d853-5859-4cfc-be25-8708181d13bd","ios":"levelo://app?vid=6ff1d853-5859-4cfc-be25-8708181d13bd"},"vehicle_type_id":"4","last_reported":1746544434,"current_range_meters":11200,"station_id":"ce4bhop2rcd13ifvqh7g","pricing_plan_id":"cebpf4jnsgd1na2vs0mg"},{"bike_id":"6e38a9aa-f9fb-4ff5-9b61-430be0af254d","system_id":"levelo_inurba_marseille","lat":43.28428,"lon":5.35884,"is_reserved":false,"is_disabled":false,"rental_uris":{"android":"levelo://app?vid=6e38a9aa-f9fb-4ff5-9b61-430be0af254d","ios":"levelo://app?vid=6e38a9aa-f9fb-4ff5-9b61-430be0af254d"},"vehicle_type_id":"4","last_reported":1746544434,"current_range_meters":11200,"station_id":"ce4bhah2rcd13ifvqei0","pricing_plan_id":"cebpf4jnsgd1na2vs0mg"},{"bike_id":"7741eb2f-ded3-431c-8ebd-463181bdc6e9","system_id":"levelo_inurba_marseille","lat":43.25502,"lon":5.37652,"is_reserved":false,"is_disabled":false,"rental_uris":{"android":"levelo://app?vid=7741eb2f-ded3-431c-8ebd-463181bdc6e9","ios":"levelo://app?vid=7741eb2f-ded3-431c-8ebd-463181bdc6e9"},"vehicle_type_id":"4","last_reported":1746544434,"current_range_meters":11200,"station_id":"ce4bhh12rcd13ifvqff0","pricing_plan_id":"cebpf4jnsgd1na2vs0mg"},{"bike_id":"81e27c8e-0bba-4836-b34d-7c99540ae227","system_id":"levelo_inurba_marseille","lat":43.30435,"lon":5.38881,"is_reserved":false,"is_disabled":false,"rental_uris":{"android":"levelo://app?vid=81e27c8e-0bba-4836-b34d-7c99540ae227","ios":"levelo://app?vid=81e27c8e-0bba-4836-b34d-7c99540ae227"},"vehicle_type_id":"4","last_reported":1746544434,"current_range_meters":11200,"station_id":"ce4bgk12rcd13ifvqbi0","pricing_plan_id":"cebpf4jnsgd1na2vs0mg"},{"bike_id":"86d40b18-c032-4c64-adcb-e28b5c303de8","system_id":"levelo_inurba_marseille","lat":43.31363,"lon":5.38486,"is_reserved":false,"is_disabled":false,"rental_uris":{"android":"levelo://app?vid=86d40b18-c032-4c64-adcb-e28b5c303de8","ios":"levelo://app?vid=86d40b18-c032-4c64-adcb-e28b5c303de8"},"vehicle_type_id":"4","last_reported":1746544434,"current_range_meters":11600,"station_id":"ce4bgt92rcd13ifvqcf0","pricing_plan_id":"cebpf4jnsgd1na2vs0mg"},{"bike_id":"5c0f2d8c-2ea4-44eb-83e2-2dcd246a5d47","system_id":"levelo_inurba_marseille","lat":43.21752,"lon":5.34601,"is_reserved":false,"is_disabled":false,"rental_uris":{"android":"levelo://app?vid=5c0f2d8c-2ea4-44eb-83e2-2dcd246a5d47","ios":"levelo://app?vid=5c0f2d8c-2ea4-44eb-83e2-2dcd246a5d47"},"vehicle_type_id":"4","last_reported":1746544434,"current_range_meters":11600,"station_id":"st_cvj6r9ubvosntc0bgbag","pricing_plan_id":"cebpf4jnsgd1na2vs0mg"},{"bike_id":"f28a909f-3bb4-4d95-a4f0-baf9c89503e9","system_id":"levelo_inurba_marseille","lat":43.279514,"lon":5.410417,"is_reserved":false,"is_disabled":false,"rental_uris":{"android":"levelo://app?vid=f28a909f-3bb4-4d95-a4f0-baf9c89503e9","ios":"levelo://app?vid=f28a909f-3bb4-4d95-a4f0-baf9c89503e9"},"vehicle_type_id":"4","last_reported":1746544434,"current_range_meters":11600,"station_id":"ce4bhnp2rcd13ifvqh0g","pricing_plan_id":"cebpf4jnsgd1na2vs0mg"},{"bike_id":"3f84d55c-f7b3-443f-a8ba-1f83ba8291a2","system_id":"levelo_inurba_marseille","lat":43.21189,"lon":5.35082,"is_reserved":false,"is_disabled":false,"rental_uris":{"android":"levelo://app?vid=3f84d55c-f7b3-443f-a8ba-1f83ba8291a2","ios":"levelo://app?vid=3f84d55c-f7b3-443f-a8ba-1f83ba8291a2"},"vehicle_type_id":"4","last_reported":1746544434,"current_range_meters":11600,"station_id":"st_cvj6sg6p6f1abm77japg","pricing_plan_id":"cebpf4jnsgd1na2vs0mg"},{"bike_id":"af2cc196-ac59-4977-8744-d1e3947ed9ee","system_id":"levelo_inurba_marseille","lat":43.26806,"lon":5.40267,"is_reserved":false,"is_disabled":false,"rental_uris":{"android":"levelo://app?vid=af2cc196-ac59-4977-8744-d1e3947ed9ee","ios":"levelo://app?vid=af2cc196-ac59-4977-8744-d1e3947ed9ee"},"vehicle_type_id":"4","last_reported":1746544434,"current_range_meters":11600,"station_id":"ce501612rcd8frsf0b60","pricing_plan_id":"cebpf4jnsgd1na2vs0mg"},{"bike_id":"6b2282fa-8b4d-45d5-8e04-e81b2afab092","system_id":"levelo_inurba_marseille","lat":43.299655,"lon":5.413128,"is_reserved":false,"is_disabled":false,"rental_uris":{"android":"levelo://app?vid=6b2282fa-8b4d-45d5-8e04-e81b2afab092","ios":"levelo://app?vid=6b2282fa-8b4d-45d5-8e04-e81b2afab092"},"vehicle_type_id":"4","last_reported":1746544434,"current_range_meters":8000,"station_id":"ce4bhp12rcd13ifvqh9g","pricing_plan_id":"cebpf4jnsgd1na2vs0mg"},{"bike_id":"676f4378-a74f-4542-a5f7-affa60e73336","system_id":"levelo_inurba_marseille","lat":43.29533,"lon":5.38546,"is_reserved":false,"is_disabled":false,"rental_uris":{"android":"levelo://app?vid=676f4378-a74f-4542-a5f7-affa60e73336","ios":"levelo://app?vid=676f4378-a74f-4542-a5f7-affa60e73336"},"vehicle_type_id":"4","last_reported":1746544434,"current_range_meters":12000,"station_id":"ce4bgih2rcd13ifvqba0","pricing_plan_id":"cebpf4jnsgd1na2vs0mg"},{"bike_id":"f947aff3-757c-4c70-8e1b-429bb0a79976","system_id":"levelo_inurba_marseille","lat":43.28971,"lon":5.37835,"is_reserved":false,"is_disabled":false,"rental_uris":{"android":"levelo://app?vid=f947aff3-757c-4c70-8e1b-429bb0a79976","ios":"levelo://app?vid=f947aff3-757c-4c70-8e1b-429bb0a79976"},"vehicle_type_id":"4","last_reported":1746544434,"current_range_meters":12000,"station_id":"ce4bh9p2rcd13ifvqed0","pricing_plan_id":"cebpf4jnsgd1na2vs0mg"},{"bike_id":"a9e2ed5f-77e5-494d-a2d2-fa1c5f2bd4a2","system_id":"levelo_inurba_marseille","lat":43.26502,"lon":5.39531,"is_reserved":false,"is_disabled":false,"rental_uris":{"android":"levelo://app?vid=a9e2ed5f-77e5-494d-a2d2-fa1c5f2bd4a2","ios":"levelo://app?vid=a9e2ed5f-77e5-494d-a2d2-fa1c5f2bd4a2"},"vehicle_type_id":"4","last_reported":1746544434,"current_range_meters":12000,"station_id":"ce4bhi12rcd13ifvqfq0","pricing_plan_id":"cebpf4jnsgd1na2vs0mg"},{"bike_id":"2bb087de-c062-4087-ac80-eec85ebe6d0c","system_id":"levelo_inurba_marseille","lat":43.31078,"lon":5.38345,"is_reserved":false,"is_disabled":false,"rental_uris":{"android":"levelo://app?vid=2bb087de-c062-4087-ac80-eec85ebe6d0c","ios":"levelo://app?vid=2bb087de-c062-4087-ac80-eec85ebe6d0c"},"vehicle_type_id":"4","last_reported":1746544434,"current_range_meters":12000,"station_id":"ce4bgv92rcd13ifvqcr0","pricing_plan_id":"cebpf4jnsgd1na2vs0mg"},{"bike_id":"58411efa-40b6-47e6-84fd-2de00c33f67c","system_id":"levelo_inurba_marseille","lat":43.330205,"lon":5.390393,"is_reserved":false,"is_disabled":false,"rental_uris":{"android":"levelo://app?vid=58411efa-40b6-47e6-84fd-2de00c33f67c","ios":"levelo://app?vid=58411efa-40b6-47e6-84fd-2de00c33f67c"},"vehicle_type_id":"4","last_reported":1746544434,"current_range_meters":12000,"station_id":"ce4bhr92rcd13ifvqhrg","pricing_plan_id":"cebpf4jnsgd1na2vs0mg"},{"bike_id":"f99fdee5-5b55-42ed-9d73-33e198c34b10","system_id":"levelo_inurba_marseille","lat":43.29305,"lon":5.37172,"is_reserved":false,"is_disabled":false,"rental_uris":{"android":"levelo://app?vid=f99fdee5-5b55-42ed-9d73-33e198c34b10","ios":"levelo://app?vid=f99fdee5-5b55-42ed-9d73-33e198c34b10"},"vehicle_type_id":"4","last_reported":1746544434,"current_range_meters":12000,"station_id":"ce4bgh92rcd13ifvqb40","pricing_plan_id":"cebpf4jnsgd1na2vs0mg"},{"bike_id":"acde0277-27e2-418e-8580-c980dfd88096","system_id":"levelo_inurba_marseille","lat":43.31169,"lon":5.38721,"is_reserved":false,"is_disabled":false,"rental_uris":{"android":"levelo://app?vid=acde0277-27e2-418e-8580-c980dfd88096","ios":"levelo://app?vid=acde0277-27e2-418e-8580-c980dfd88096"},"vehicle_type_id":"4","last_reported":1746544434,"current_range_meters":14400,"station_id":"ce4bgv12rcd13ifvqcp0","pricing_plan_id":"cebpf4jnsgd1na2vs0mg"},{"bike_id":"0e2c8b0b-b25d-4ebd-8283-fe96647d9239","system_id":"levelo_inurba_marseille","lat":43.269435,"lon":5.4025,"is_reserved":false,"is_disabled":false,"rental_uris":{"android":"levelo://app?vid=0e2c8b0b-b25d-4ebd-8283-fe96647d9239","ios":"levelo://app?vid=0e2c8b0b-b25d-4ebd-8283-fe96647d9239"},"vehicle_type_id":"4","last_reported":1746544434,"current_range_meters":12400,"station_id":"cjm6bp8fraef2m0cb0m0","pricing_plan_id":"cebpf4jnsgd1na2vs0mg"},{"bike_id":"701841e0-810b-49d4-9f53-514308839156","system_id":"levelo_inurba_marseille","lat":43.2656,"lon":5.37283,"is_reserved":false,"is_disabled":false,"rental_uris":{"android":"levelo://app?vid=701841e0-810b-49d4-9f53-514308839156","ios":"levelo://app?vid=701841e0-810b-49d4-9f53-514308839156"},"vehicle_type_id":"4","last_reported":1746544434,"current_range_meters":12400,"station_id":"ce4bhg12rcd13ifvqf70","pricing_plan_id":"cebpf4jnsgd1na2vs0mg"},{"bike_id":"fe69aa06-a399-4878-8ffb-10ae7ba7bd81","system_id":"levelo_inurba_marseille","lat":43.27067,"lon":5.40254,"is_reserved":false,"is_disabled":false,"rental_uris":{"android":"levelo://app?vid=fe69aa06-a399-4878-8ffb-10ae7ba7bd81","ios":"levelo://app?vid=fe69aa06-a399-4878-8ffb-10ae7ba7bd81"},"vehicle_type_id":"4","last_reported":1746544434,"current_range_meters":12800,"station_id":"ce4bhk92rcd13ifvqgc0","pricing_plan_id":"cebpf4jnsgd1na2vs0mg"},{"bike_id":"6356634d-6ce8-4c6c-ae68-3f3bbfb0683b","system_id":"levelo_inurba_marseille","lat":43.29973,"lon":5.38496,"is_reserved":false,"is_disabled":false,"rental_uris":{"android":"levelo://app?vid=6356634d-6ce8-4c6c-ae68-3f3bbfb0683b","ios":"levelo://app?vid=6356634d-6ce8-4c6c-ae68-3f3bbfb0683b"},"vehicle_type_id":"4","last_reported":1746544434,"current_range_meters":13600,"station_id":"ce4bgj92rcd13ifvqbd0","pricing_plan_id":"cebpf4jnsgd1na2vs0mg"},{"bike_id":"961e477c-afaf-4034-99dd-403eb1597523","system_id":"levelo_inurba_marseille","lat":43.31726,"lon":5.42369,"is_reserved":false,"is_disabled":false,"rental_uris":{"android":"levelo://app?vid=961e477c-afaf-4034-99dd-403eb1597523","ios":"levelo://app?vid=961e477c-afaf-4034-99dd-403eb1597523"},"vehicle_type_id":"4","last_reported":1746544434,"current_range_meters":14000,"station_id":"ce4bhp92rcd13ifvqhbg","pricing_plan_id":"cebpf4jnsgd1na2vs0mg"},{"bike_id":"776ce2e3-d3eb-4c8d-8939-fbec936f08ff","system_id":"levelo_inurba_marseille","lat":43.25102,"lon":5.40347,"is_reserved":false,"is_disabled":false,"rental_uris":{"android":"levelo://app?vid=776ce2e3-d3eb-4c8d-8939-fbec936f08ff","ios":"levelo://app?vid=776ce2e3-d3eb-4c8d-8939-fbec936f08ff"},"vehicle_type_id":"4","last_reported":1746544434,"current_range_meters":14000,"station_id":"ce4bhlh2rcd13ifvqgig","pricing_plan_id":"cebpf4jnsgd1na2vs0mg"},{"bike_id":"299d3321-bb95-4b06-aa4e-c49e33e80db1","system_id":"levelo_inurba_marseille","lat":43.322848,"lon":5.382762,"is_reserved":false,"is_disabled":false,"rental_uris":{"android":"levelo://app?vid=299d3321-bb95-4b06-aa4e-c49e33e80db1","ios":"levelo://app?vid=299d3321-bb95-4b06-aa4e-c49e33e80db1"},"vehicle_type_id":"4","last_reported":1746544434,"current_range_meters":14400,"station_id":"ce4bhr12rcd13ifvqhqg","pricing_plan_id":"cebpf4jnsgd1na2vs0mg"},{"bike_id":"b20b13e1-551c-4f9d-b936-982fd039d887","system_id":"levelo_inurba_marseille","lat":43.2513,"lon":5.4033,"is_reserved":false,"is_disabled":false,"rental_uris":{"android":"levelo://app?vid=b20b13e1-551c-4f9d-b936-982fd039d887","ios":"levelo://app?vid=b20b13e1-551c-4f9d-b936-982fd039d887"},"vehicle_type_id":"4","last_reported":1746544434,"current_range_meters":14400,"station_id":"ce4bhlh2rcd13ifvqgig","pricing_plan_id":"cebpf4jnsgd1na2vs0mg"},{"bike_id":"7a202064-469c-40e2-9a8b-f64ccd3509a4","system_id":"levelo_inurba_marseille","lat":43.292014,"lon":5.357979,"is_reserved":false,"is_disabled":false,"rental_uris":{"android":"levelo://app?vid=7a202064-469c-40e2-9a8b-f64ccd3509a4","ios":"levelo://app?vid=7a202064-469c-40e2-9a8b-f64ccd3509a4"},"vehicle_type_id":"4","last_reported":1746544434,"current_range_meters":14000,"station_id":"ce4bhb12rcd13ifvqel0","pricing_plan_id":"cebpf4jnsgd1na2vs0mg"},{"bike_id":"694470a2-67f7-40da-896f-c9b5ccd524a6","system_id":"levelo_inurba_marseille","lat":43.29716,"lon":5.37692,"is_reserved":false,"is_disabled":false,"rental_uris":{"android":"levelo://app?vid=694470a2-67f7-40da-896f-c9b5ccd524a6","ios":"levelo://app?vid=694470a2-67f7-40da-896f-c9b5ccd524a6"},"vehicle_type_id":"4","last_reported":1746544434,"current_range_meters":14400,"station_id":"ce4bgkh2rcd13ifvqbl0","pricing_plan_id":"cebpf4jnsgd1na2vs0mg"},{"bike_id":"b9d889a1-6f8f-4145-8432-407a3df656c7","system_id":"levelo_inurba_marseille","lat":43.2416,"lon":5.36413,"is_reserved":false,"is_disabled":false,"rental_uris":{"android":"levelo://app?vid=b9d889a1-6f8f-4145-8432-407a3df656c7","ios":"levelo://app?vid=b9d889a1-6f8f-4145-8432-407a3df656c7"},"vehicle_type_id":"4","last_reported":1746544434,"current_range_meters":15200,"station_id":"cpo36qri1sfpv3e86is0","pricing_plan_id":"cebpf4jnsgd1na2vs0mg"},{"bike_id":"b4bac287-3615-423a-bca2-a11fb80cb066","system_id":"levelo_inurba_marseille","lat":43.230536,"lon":5.354868,"is_reserved":false,"is_disabled":false,"rental_uris":{"android":"levelo://app?vid=b4bac287-3615-423a-bca2-a11fb80cb066","ios":"levelo://app?vid=b4bac287-3615-423a-bca2-a11fb80cb066"},"vehicle_type_id":"4","last_reported":1746544434,"current_range_meters":14400,"station_id":"cpo3342slgdg3j2ifvpg","pricing_plan_id":"cebpf4jnsgd1na2vs0mg"},{"bike_id":"78c9e89b-dc21-401f-8652-6b26fd1feba4","system_id":"levelo_inurba_marseille","lat":43.28659,"lon":5.36353,"is_reserved":false,"is_disabled":false,"rental_uris":{"android":"levelo://app?vid=78c9e89b-dc21-401f-8652-6b26fd1feba4","ios":"levelo://app?vid=78c9e89b-dc21-401f-8652-6b26fd1feba4"},"vehicle_type_id":"4","last_reported":1746544434,"current_range_meters":14000,"station_id":"ce4bhah2rcd13ifvqej0","pricing_plan_id":"cebpf4jnsgd1na2vs0mg"},{"bike_id":"03bb5049-51e5-461e-8353-3cc13edfbfb8","system_id":"levelo_inurba_marseille","lat":43.23961,"lon":5.36629,"is_reserved":false,"is_disabled":false,"rental_uris":{"android":"levelo://app?vid=03bb5049-51e5-461e-8353-3cc13edfbfb8","ios":"levelo://app?vid=03bb5049-51e5-461e-8353-3cc13edfbfb8"},"vehicle_type_id":"4","last_reported":1746544434,"current_range_meters":14800,"station_id":"ce4bhi12rcd13ifvqfp0","pricing_plan_id":"cebpf4jnsgd1na2vs0mg"},{"bike_id":"741922f7-49ff-4751-a228-5a73f2c8c24d","system_id":"levelo_inurba_marseille","lat":43.241688,"lon":5.364004,"is_reserved":false,"is_disabled":false,"rental_uris":{"android":"levelo://app?vid=741922f7-49ff-4751-a228-5a73f2c8c24d","ios":"levelo://app?vid=741922f7-49ff-4751-a228-5a73f2c8c24d"},"vehicle_type_id":"4","last_reported":1746544434,"current_range_meters":14800,"station_id":"cpo36qri1sfpv3e86is0","pricing_plan_id":"cebpf4jnsgd1na2vs0mg"},{"bike_id":"c65b64f5-a38f-4b33-a48f-6bb6c6b32a53","system_id":"levelo_inurba_marseille","lat":43.211912,"lon":5.350707,"is_reserved":false,"is_disabled":false,"rental_uris":{"android":"levelo://app?vid=c65b64f5-a38f-4b33-a48f-6bb6c6b32a53","ios":"levelo://app?vid=c65b64f5-a38f-4b33-a48f-6bb6c6b32a53"},"vehicle_type_id":"4","last_reported":1746544434,"current_range_meters":14800,"station_id":"st_cvj6sg6p6f1abm77japg","pricing_plan_id":"cebpf4jnsgd1na2vs0mg"},{"bike_id":"fd115f1c-0f89-48b7-b0d3-cf9b2c4a2df1","system_id":"levelo_inurba_marseille","lat":43.29612,"lon":5.38102,"is_reserved":false,"is_disabled":false,"rental_uris":{"android":"levelo://app?vid=fd115f1c-0f89-48b7-b0d3-cf9b2c4a2df1","ios":"levelo://app?vid=fd115f1c-0f89-48b7-b0d3-cf9b2c4a2df1"},"vehicle_type_id":"4","last_reported":1746544434,"current_range_meters":14800,"station_id":"ce4bgl12rcd13ifvqbo0","pricing_plan_id":"cebpf4jnsgd1na2vs0mg"},{"bike_id":"1900e395-19ba-404e-aa6a-262b7656599d","system_id":"levelo_inurba_marseille","lat":43.2888,"lon":5.43707,"is_reserved":false,"is_disabled":false,"rental_uris":{"android":"levelo://app?vid=1900e395-19ba-404e-aa6a-262b7656599d","ios":"levelo://app?vid=1900e395-19ba-404e-aa6a-262b7656599d"},"vehicle_type_id":"4","last_reported":1746544434,"current_range_meters":14800,"station_id":"","pricing_plan_id":"cebpf4jnsgd1na2vs0mg"},{"bike_id":"cf623488-d5a9-4d66-ba74-f2706a4b3e35","system_id":"levelo_inurba_marseille","lat":43.260595,"lon":5.393953,"is_reserved":false,"is_disabled":false,"rental_uris":{"android":"levelo://app?vid=cf623488-d5a9-4d66-ba74-f2706a4b3e35","ios":"levelo://app?vid=cf623488-d5a9-4d66-ba74-f2706a4b3e35"},"vehicle_type_id":"4","last_reported":1746544434,"current_range_meters":15200,"station_id":"ce4bhh92rcd13ifvqfj0","pricing_plan_id":"cebpf4jnsgd1na2vs0mg"},{"bike_id":"8628899e-76bf-4794-9773-2f5cc2bf87c0","system_id":"levelo_inurba_marseille","lat":43.272,"lon":5.40954,"is_reserved":false,"is_disabled":false,"rental_uris":{"android":"levelo://app?vid=8628899e-76bf-4794-9773-2f5cc2bf87c0","ios":"levelo://app?vid=8628899e-76bf-4794-9773-2f5cc2bf87c0"},"vehicle_type_id":"4","last_reported":1746544434,"current_range_meters":15200,"station_id":"ce4bhl12rcd13ifvqgf0","pricing_plan_id":"cebpf4jnsgd1na2vs0mg"},{"bike_id":"56872225-b661-4424-a875-139bc3099fb5","system_id":"levelo_inurba_marseille","lat":43.32367,"lon":5.38883,"is_reserved":false,"is_disabled":false,"rental_uris":{"android":"levelo://app?vid=56872225-b661-4424-a875-139bc3099fb5","ios":"levelo://app?vid=56872225-b661-4424-a875-139bc3099fb5"},"vehicle_type_id":"4","last_reported":1746544434,"current_range_meters":16000,"station_id":"ce4bhqp2rcd13ifvqhog","pricing_plan_id":"cebpf4jnsgd1na2vs0mg"},{"bike_id":"d2125939-b570-4b67-9cb5-f5a5bc562ba6","system_id":"levelo_inurba_marseille","lat":43.31716,"lon":5.43711,"is_reserved":false,"is_disabled":false,"rental_uris":{"android":"levelo://app?vid=d2125939-b570-4b67-9cb5-f5a5bc562ba6","ios":"levelo://app?vid=d2125939-b570-4b67-9cb5-f5a5bc562ba6"},"vehicle_type_id":"4","last_reported":1746544434,"current_range_meters":16000,"station_id":"ce4bhp92rcd13ifvqhcg","pricing_plan_id":"cebpf4jnsgd1na2vs0mg"},{"bike_id":"e0e33155-3006-414b-9041-b401316445dc","system_id":"levelo_inurba_marseille","lat":43.29948,"lon":5.41316,"is_reserved":false,"is_disabled":false,"rental_uris":{"android":"levelo://app?vid=e0e33155-3006-414b-9041-b401316445dc","ios":"levelo://app?vid=e0e33155-3006-414b-9041-b401316445dc"},"vehicle_type_id":"4","last_reported":1746544434,"current_range_meters":16000,"station_id":"ce4bhp12rcd13ifvqh9g","pricing_plan_id":"cebpf4jnsgd1na2vs0mg"},{"bike_id":"c761457c-43c6-4500-9aec-e5e2c152850c","system_id":"levelo_inurba_marseille","lat":43.31537,"lon":5.38043,"is_reserved":false,"is_disabled":true,"rental_uris":{"android":"levelo://app?vid=c761457c-43c6-4500-9aec-e5e2c152850c","ios":"levelo://app?vid=c761457c-43c6-4500-9aec-e5e2c152850c"},"vehicle_type_id":"4","last_reported":1746544434,"current_range_meters":16000,"station_id":"ce4bhsp2rcd13ifvqi50","pricing_plan_id":"cebpf4jnsgd1na2vs0mg"},{"bike_id":"182c9755-0951-45f2-b2be-e70bed8a512b","system_id":"levelo_inurba_marseille","lat":43.29705,"lon":5.37634,"is_reserved":false,"is_disabled":false,"rental_uris":{"android":"levelo://app?vid=182c9755-0951-45f2-b2be-e70bed8a512b","ios":"levelo://app?vid=182c9755-0951-45f2-b2be-e70bed8a512b"},"vehicle_type_id":"4","last_reported":1746544434,"current_range_meters":16000,"station_id":"ce4bgkh2rcd13ifvqbl0","pricing_plan_id":"cebpf4jnsgd1na2vs0mg"},{"bike_id":"c7b82644-65d4-44f8-947a-3832680ba7b3","system_id":"levelo_inurba_marseille","lat":43.31758,"lon":5.39017,"is_reserved":false,"is_disabled":false,"rental_uris":{"android":"levelo://app?vid=c7b82644-65d4-44f8-947a-3832680ba7b3","ios":"levelo://app?vid=c7b82644-65d4-44f8-947a-3832680ba7b3"},"vehicle_type_id":"4","last_reported":1746544434,"current_range_meters":16000,"station_id":"ce4bhqp2rcd13ifvqhng","pricing_plan_id":"cebpf4jnsgd1na2vs0mg"},{"bike_id":"7c0cb758-4d23-4fd5-87e8-32dc74a29d90","system_id":"levelo_inurba_marseille","lat":43.297971,"lon":5.363394,"is_reserved":false,"is_disabled":false,"rental_uris":{"android":"levelo://app?vid=7c0cb758-4d23-4fd5-87e8-32dc74a29d90","ios":"levelo://app?vid=7c0cb758-4d23-4fd5-87e8-32dc74a29d90"},"vehicle_type_id":"4","last_reported":1746544434,"current_range_meters":16400,"station_id":"ce4bgh92rcd13ifvqb50","pricing_plan_id":"cebpf4jnsgd1na2vs0mg"},{"bike_id":"7d966754-7962-4af3-81dc-767029adfe48","system_id":"levelo_inurba_marseille","lat":43.28465,"lon":5.35888,"is_reserved":false,"is_disabled":false,"rental_uris":{"android":"levelo://app?vid=7d966754-7962-4af3-81dc-767029adfe48","ios":"levelo://app?vid=7d966754-7962-4af3-81dc-767029adfe48"},"vehicle_type_id":"4","last_reported":1746544434,"current_range_meters":16400,"station_id":"ce4bhah2rcd13ifvqei0","pricing_plan_id":"cebpf4jnsgd1na2vs0mg"},{"bike_id":"b4b50c42-5465-4b2f-ae97-3e0e7a83d27e","system_id":"levelo_inurba_marseille","lat":43.31059,"lon":5.38382,"is_reserved":false,"is_disabled":false,"rental_uris":{"android":"levelo://app?vid=b4b50c42-5465-4b2f-ae97-3e0e7a83d27e","ios":"levelo://app?vid=b4b50c42-5465-4b2f-ae97-3e0e7a83d27e"},"vehicle_type_id":"4","last_reported":1746544434,"current_range_meters":16800,"station_id":"ce4bgv92rcd13ifvqcr0","pricing_plan_id":"cebpf4jnsgd1na2vs0mg"},{"bike_id":"ddfa2126-636d-4687-b176-901499c9d70d","system_id":"levelo_inurba_marseille","lat":43.27373,"lon":5.36254,"is_reserved":false,"is_disabled":false,"rental_uris":{"android":"levelo://app?vid=ddfa2126-636d-4687-b176-901499c9d70d","ios":"levelo://app?vid=ddfa2126-636d-4687-b176-901499c9d70d"},"vehicle_type_id":"4","last_reported":1746544434,"current_range_meters":16800,"station_id":"ce4bhbh2rcd13ifvqeo0","pricing_plan_id":"cebpf4jnsgd1na2vs0mg"},{"bike_id":"2714f713-c769-4f6a-ac44-441a635e9cba","system_id":"levelo_inurba_marseille","lat":43.216122,"lon":5.34263,"is_reserved":false,"is_disabled":false,"rental_uris":{"android":"levelo://app?vid=2714f713-c769-4f6a-ac44-441a635e9cba","ios":"levelo://app?vid=2714f713-c769-4f6a-ac44-441a635e9cba"},"vehicle_type_id":"4","last_reported":1746544434,"current_range_meters":16800,"station_id":"","pricing_plan_id":"cebpf4jnsgd1na2vs0mg"},{"bike_id":"56e89ff6-beb2-49d9-99a8-e69488cfd0f5","system_id":"levelo_inurba_marseille","lat":43.28622,"lon":5.35115,"is_reserved":false,"is_disabled":false,"rental_uris":{"android":"levelo://app?vid=56e89ff6-beb2-49d9-99a8-e69488cfd0f5","ios":"levelo://app?vid=56e89ff6-beb2-49d9-99a8-e69488cfd0f5"},"vehicle_type_id":"4","last_reported":1746544434,"current_range_meters":17200,"station_id":"ce4bhch2rcd13ifvqeug","pricing_plan_id":"cebpf4jnsgd1na2vs0mg"},{"bike_id":"5638fae2-2e1b-469b-8abd-91d7d799618a","system_id":"levelo_inurba_marseille","lat":43.321036,"lon":5.367737,"is_reserved":false,"is_disabled":false,"rental_uris":{"android":"levelo://app?vid=5638fae2-2e1b-469b-8abd-91d7d799618a","ios":"levelo://app?vid=5638fae2-2e1b-469b-8abd-91d7d799618a"},"vehicle_type_id":"4","last_reported":1746544434,"current_range_meters":17200,"station_id":"ce4bhrh2rcd13ifvqhug","pricing_plan_id":"cebpf4jnsgd1na2vs0mg"},{"bike_id":"965da70f-545b-43fa-bc3a-87259172dd6a","system_id":"levelo_inurba_marseille","lat":43.309139,"lon":5.368581,"is_reserved":false,"is_disabled":false,"rental_uris":{"android":"levelo://app?vid=965da70f-545b-43fa-bc3a-87259172dd6a","ios":"levelo://app?vid=965da70f-545b-43fa-bc3a-87259172dd6a"},"vehicle_type_id":"4","last_reported":1746544434,"current_range_meters":17200,"station_id":"ce4bgn92rcd13ifvqbvg","pricing_plan_id":"cebpf4jnsgd1na2vs0mg"},{"bike_id":"40fd1688-c944-4cf2-9591-74e6a15d7419","system_id":"levelo_inurba_marseille","lat":43.3179,"lon":5.37465,"is_reserved":false,"is_disabled":false,"rental_uris":{"android":"levelo://app?vid=40fd1688-c944-4cf2-9591-74e6a15d7419","ios":"levelo://app?vid=40fd1688-c944-4cf2-9591-74e6a15d7419"},"vehicle_type_id":"4","last_reported":1746544434,"current_range_meters":17200,"station_id":"","pricing_plan_id":"cebpf4jnsgd1na2vs0mg"},{"bike_id":"d665b931-805d-4172-822c-1be6af513662","system_id":"levelo_inurba_marseille","lat":43.243875,"lon":5.370646,"is_reserved":false,"is_disabled":false,"rental_uris":{"android":"levelo://app?vid=d665b931-805d-4172-822c-1be6af513662","ios":"levelo://app?vid=d665b931-805d-4172-822c-1be6af513662"},"vehicle_type_id":"4","last_reported":1746544434,"current_range_meters":17200,"station_id":"ce4bhhh2rcd13ifvqfk0","pricing_plan_id":"cebpf4jnsgd1na2vs0mg"},{"bike_id":"d6d43850-c392-4e05-bd8e-d9f637332061","system_id":"levelo_inurba_marseille","lat":43.27954,"lon":5.41037,"is_reserved":false,"is_disabled":false,"rental_uris":{"android":"levelo://app?vid=d6d43850-c392-4e05-bd8e-d9f637332061","ios":"levelo://app?vid=d6d43850-c392-4e05-bd8e-d9f637332061"},"vehicle_type_id":"4","last_reported":1746544434,"current_range_meters":17600,"station_id":"ce4bhnp2rcd13ifvqh0g","pricing_plan_id":"cebpf4jnsgd1na2vs0mg"},{"bike_id":"deba0b43-7b30-4aeb-b97f-047239b98fc8","system_id":"levelo_inurba_marseille","lat":43.27989,"lon":5.417,"is_reserved":false,"is_disabled":false,"rental_uris":{"android":"levelo://app?vid=deba0b43-7b30-4aeb-b97f-047239b98fc8","ios":"levelo://app?vid=deba0b43-7b30-4aeb-b97f-047239b98fc8"},"vehicle_type_id":"4","last_reported":1746544434,"current_range_meters":17200,"station_id":"ce4bho12rcd13ifvqh1g","pricing_plan_id":"cebpf4jnsgd1na2vs0mg"},{"bike_id":"aae78705-7aae-48e9-8c18-bc4726a7f8d8","system_id":"levelo_inurba_marseille","lat":43.32105,"lon":5.36811,"is_reserved":false,"is_disabled":false,"rental_uris":{"android":"levelo://app?vid=aae78705-7aae-48e9-8c18-bc4726a7f8d8","ios":"levelo://app?vid=aae78705-7aae-48e9-8c18-bc4726a7f8d8"},"vehicle_type_id":"4","last_reported":1746544434,"current_range_meters":17600,"station_id":"ce4bhrh2rcd13ifvqhug","pricing_plan_id":"cebpf4jnsgd1na2vs0mg"},{"bike_id":"cab3fb7b-47c3-404c-a8dc-80f54b39d4cd","system_id":"levelo_inurba_marseille","lat":43.29517,"lon":5.39028,"is_reserved":false,"is_disabled":true,"rental_uris":{"android":"levelo://app?vid=cab3fb7b-47c3-404c-a8dc-80f54b39d4cd","ios":"levelo://app?vid=cab3fb7b-47c3-404c-a8dc-80f54b39d4cd"},"vehicle_type_id":"4","last_reported":1746544434,"current_range_meters":17600,"station_id":"ce4bh3p2rcd13ifvqdp0","pricing_plan_id":"cebpf4jnsgd1na2vs0mg"},{"bike_id":"cec131e7-69ec-44da-a5f5-54447f8e08f7","system_id":"levelo_inurba_marseille","lat":43.26226,"lon":5.40479,"is_reserved":false,"is_disabled":false,"rental_uris":{"android":"levelo://app?vid=cec131e7-69ec-44da-a5f5-54447f8e08f7","ios":"levelo://app?vid=cec131e7-69ec-44da-a5f5-54447f8e08f7"},"vehicle_type_id":"4","last_reported":1746544434,"current_range_meters":18000,"station_id":"ce4bhmh2rcd13ifvqgmg","pricing_plan_id":"cebpf4jnsgd1na2vs0mg"},{"bike_id":"0e87f288-e8c8-42f7-9b45-5d07827eac14","system_id":"levelo_inurba_marseille","lat":43.323563,"lon":5.367567,"is_reserved":false,"is_disabled":false,"rental_uris":{"android":"levelo://app?vid=0e87f288-e8c8-42f7-9b45-5d07827eac14","ios":"levelo://app?vid=0e87f288-e8c8-42f7-9b45-5d07827eac14"},"vehicle_type_id":"4","last_reported":1746544434,"current_range_meters":18000,"station_id":"ce4bhsh2rcd13ifvqi2g","pricing_plan_id":"cebpf4jnsgd1na2vs0mg"},{"bike_id":"ac700e2e-c129-4f82-a3c3-f628077933a6","system_id":"levelo_inurba_marseille","lat":43.21211,"lon":5.350812,"is_reserved":false,"is_disabled":false,"rental_uris":{"android":"levelo://app?vid=ac700e2e-c129-4f82-a3c3-f628077933a6","ios":"levelo://app?vid=ac700e2e-c129-4f82-a3c3-f628077933a6"},"vehicle_type_id":"4","last_reported":1746544434,"current_range_meters":18000,"station_id":"st_cvj6sg6p6f1abm77japg","pricing_plan_id":"cebpf4jnsgd1na2vs0mg"},{"bike_id":"9089d44c-26d5-4197-b335-0a6f91cfc4c7","system_id":"levelo_inurba_marseille","lat":43.29943,"lon":5.36542,"is_reserved":false,"is_disabled":false,"rental_uris":{"android":"levelo://app?vid=9089d44c-26d5-4197-b335-0a6f91cfc4c7","ios":"levelo://app?vid=9089d44c-26d5-4197-b335-0a6f91cfc4c7"},"vehicle_type_id":"4","last_reported":1746544434,"current_range_meters":18800,"station_id":"ce4bgm92rcd13ifvqbr0","pricing_plan_id":"cebpf4jnsgd1na2vs0mg"},{"bike_id":"02c3f926-1654-43a5-bdd5-0ab5d6602055","system_id":"levelo_inurba_marseille","lat":43.28281,"lon":5.35065,"is_reserved":false,"is_disabled":false,"rental_uris":{"android":"levelo://app?vid=02c3f926-1654-43a5-bdd5-0ab5d6602055","ios":"levelo://app?vid=02c3f926-1654-43a5-bdd5-0ab5d6602055"},"vehicle_type_id":"4","last_reported":1746544434,"current_range_meters":18800,"station_id":"ce4bhbp2rcd13ifvqerg","pricing_plan_id":"cebpf4jnsgd1na2vs0mg"},{"bike_id":"cad73dbd-538c-461e-8f5d-9f9cb63b32c3","system_id":"levelo_inurba_marseille","lat":43.21191,"lon":5.350749,"is_reserved":false,"is_disabled":true,"rental_uris":{"android":"levelo://app?vid=cad73dbd-538c-461e-8f5d-9f9cb63b32c3","ios":"levelo://app?vid=cad73dbd-538c-461e-8f5d-9f9cb63b32c3"},"vehicle_type_id":"4","last_reported":1746544434,"current_range_meters":18800,"station_id":"st_cvj6sg6p6f1abm77japg","pricing_plan_id":"cebpf4jnsgd1na2vs0mg"},{"bike_id":"b249b3b2-2621-4adf-9b94-a4a9522fd71b","system_id":"levelo_inurba_marseille","lat":43.29039,"lon":5.37565,"is_reserved":false,"is_disabled":false,"rental_uris":{"android":"levelo://app?vid=b249b3b2-2621-4adf-9b94-a4a9522fd71b","ios":"levelo://app?vid=b249b3b2-2621-4adf-9b94-a4a9522fd71b"},"vehicle_type_id":"4","last_reported":1746544434,"current_range_meters":17600,"station_id":"ce4bh692rcd13ifvqe90","pricing_plan_id":"cebpf4jnsgd1na2vs0mg"},{"bike_id":"f45321ad-a54b-404d-981b-802d3c9e0607","system_id":"levelo_inurba_marseille","lat":43.212054,"lon":5.350793,"is_reserved":false,"is_disabled":true,"rental_uris":{"android":"levelo://app?vid=f45321ad-a54b-404d-981b-802d3c9e0607","ios":"levelo://app?vid=f45321ad-a54b-404d-981b-802d3c9e0607"},"vehicle_type_id":"4","last_reported":1746544434,"current_range_meters":19200,"station_id":"st_cvj6sg6p6f1abm77japg","pricing_plan_id":"cebpf4jnsgd1na2vs0mg"},{"bike_id":"4fa44a4d-c738-41bc-9022-213fbeae4065","system_id":"levelo_inurba_marseille","lat":43.23188,"lon":5.39986,"is_reserved":false,"is_disabled":false,"rental_uris":{"android":"levelo://app?vid=4fa44a4d-c738-41bc-9022-213fbeae4065","ios":"levelo://app?vid=4fa44a4d-c738-41bc-9022-213fbeae4065"},"vehicle_type_id":"4","last_reported":1746544434,"current_range_meters":19200,"station_id":"ce4bhn12rcd13ifvqgqg","pricing_plan_id":"cebpf4jnsgd1na2vs0mg"},{"bike_id":"89ece56e-adcc-4e88-809c-505018689e21","system_id":"levelo_inurba_marseille","lat":43.29419,"lon":5.38624,"is_reserved":false,"is_disabled":false,"rental_uris":{"android":"levelo://app?vid=89ece56e-adcc-4e88-809c-505018689e21","ios":"levelo://app?vid=89ece56e-adcc-4e88-809c-505018689e21"},"vehicle_type_id":"4","last_reported":1746544434,"current_range_meters":19600,"station_id":"ce4bh2h2rcd13ifvqdh0","pricing_plan_id":"cebpf4jnsgd1na2vs0mg"},{"bike_id":"889f93ac-20a4-4c3c-902f-8323c8899426","system_id":"levelo_inurba_marseille","lat":43.28485,"lon":5.38551,"is_reserved":false,"is_disabled":false,"rental_uris":{"android":"levelo://app?vid=889f93ac-20a4-4c3c-902f-8323c8899426","ios":"levelo://app?vid=889f93ac-20a4-4c3c-902f-8323c8899426"},"vehicle_type_id":"4","last_reported":1746544434,"current_range_meters":19600,"station_id":"ce4bh8p2rcd13ifvqeb0","pricing_plan_id":"cebpf4jnsgd1na2vs0mg"},{"bike_id":"58cdc5fa-ecff-44fc-a963-e740d4aa3a82","system_id":"levelo_inurba_marseille","lat":43.2846,"lon":5.35893,"is_reserved":false,"is_disabled":false,"rental_uris":{"android":"levelo://app?vid=58cdc5fa-ecff-44fc-a963-e740d4aa3a82","ios":"levelo://app?vid=58cdc5fa-ecff-44fc-a963-e740d4aa3a82"},"vehicle_type_id":"4","last_reported":1746544434,"current_range_meters":19600,"station_id":"ce4bhah2rcd13ifvqei0","pricing_plan_id":"cebpf4jnsgd1na2vs0mg"},{"bike_id":"cfa48441-2949-4753-a9d0-3172cb79d096","system_id":"levelo_inurba_marseille","lat":43.31298,"lon":5.3755,"is_reserved":false,"is_disabled":false,"rental_uris":{"android":"levelo://app?vid=cfa48441-2949-4753-a9d0-3172cb79d096","ios":"levelo://app?vid=cfa48441-2949-4753-a9d0-3172cb79d096"},"vehicle_type_id":"4","last_reported":1746544434,"current_range_meters":19600,"station_id":"","pricing_plan_id":"cebpf4jnsgd1na2vs0mg"},{"bike_id":"daa095e1-0dbd-4d03-bafa-0c1f111250ea","system_id":"levelo_inurba_marseille","lat":43.25497,"lon":5.37653,"is_reserved":false,"is_disabled":false,"rental_uris":{"android":"levelo://app?vid=daa095e1-0dbd-4d03-bafa-0c1f111250ea","ios":"levelo://app?vid=daa095e1-0dbd-4d03-bafa-0c1f111250ea"},"vehicle_type_id":"4","last_reported":1746544434,"current_range_meters":20000,"station_id":"ce4bhh12rcd13ifvqff0","pricing_plan_id":"cebpf4jnsgd1na2vs0mg"},{"bike_id":"2ce609b1-6e99-4e61-b27d-e4e4d61afca4","system_id":"levelo_inurba_marseille","lat":43.28702,"lon":5.39981,"is_reserved":false,"is_disabled":false,"rental_uris":{"android":"levelo://app?vid=2ce609b1-6e99-4e61-b27d-e4e4d61afca4","ios":"levelo://app?vid=2ce609b1-6e99-4e61-b27d-e4e4d61afca4"},"vehicle_type_id":"4","last_reported":1746544434,"current_range_meters":20000,"station_id":"ce4bho92rcd13ifvqh3g","pricing_plan_id":"cebpf4jnsgd1na2vs0mg"},{"bike_id":"51ba27c4-112d-40aa-a4c6-6cdffe0a9e67","system_id":"levelo_inurba_marseille","lat":43.26562,"lon":5.39042,"is_reserved":false,"is_disabled":false,"rental_uris":{"android":"levelo://app?vid=51ba27c4-112d-40aa-a4c6-6cdffe0a9e67","ios":"levelo://app?vid=51ba27c4-112d-40aa-a4c6-6cdffe0a9e67"},"vehicle_type_id":"4","last_reported":1746544434,"current_range_meters":20000,"station_id":"ce4bhe12rcd13ifvqf30","pricing_plan_id":"cebpf4jnsgd1na2vs0mg"},{"bike_id":"75228fa3-a894-467a-9341-0044b112fae2","system_id":"levelo_inurba_marseille","lat":43.295355,"lon":5.38539,"is_reserved":false,"is_disabled":false,"rental_uris":{"android":"levelo://app?vid=75228fa3-a894-467a-9341-0044b112fae2","ios":"levelo://app?vid=75228fa3-a894-467a-9341-0044b112fae2"},"vehicle_type_id":"4","last_reported":1746544434,"current_range_meters":19600,"station_id":"ce4bgih2rcd13ifvqba0","pricing_plan_id":"cebpf4jnsgd1na2vs0mg"},{"bike_id":"87caab99-62d5-4a33-88b1-fc6bd4f4c922","system_id":"levelo_inurba_marseille","lat":43.21748,"lon":5.346017,"is_reserved":false,"is_disabled":false,"rental_uris":{"android":"levelo://app?vid=87caab99-62d5-4a33-88b1-fc6bd4f4c922","ios":"levelo://app?vid=87caab99-62d5-4a33-88b1-fc6bd4f4c922"},"vehicle_type_id":"4","last_reported":1746544434,"current_range_meters":20000,"station_id":"","pricing_plan_id":"cebpf4jnsgd1na2vs0mg"},{"bike_id":"fba46af6-bd29-4600-9566-1b4640a615bd","system_id":"levelo_inurba_marseille","lat":43.28265,"lon":5.35061,"is_reserved":false,"is_disabled":false,"rental_uris":{"android":"levelo://app?vid=fba46af6-bd29-4600-9566-1b4640a615bd","ios":"levelo://app?vid=fba46af6-bd29-4600-9566-1b4640a615bd"},"vehicle_type_id":"4","last_reported":1746544434,"current_range_meters":20000,"station_id":"ce4bhbp2rcd13ifvqerg","pricing_plan_id":"cebpf4jnsgd1na2vs0mg"},{"bike_id":"2f41933e-5b81-4767-a682-59c6ab616448","system_id":"levelo_inurba_marseille","lat":43.31762,"lon":5.39012,"is_reserved":false,"is_disabled":false,"rental_uris":{"android":"levelo://app?vid=2f41933e-5b81-4767-a682-59c6ab616448","ios":"levelo://app?vid=2f41933e-5b81-4767-a682-59c6ab616448"},"vehicle_type_id":"4","last_reported":1746544434,"current_range_meters":20400,"station_id":"ce4bhqp2rcd13ifvqhng","pricing_plan_id":"cebpf4jnsgd1na2vs0mg"},{"bike_id":"553d0511-4ee8-47c9-aca1-1f66f7af1fcd","system_id":"levelo_inurba_marseille","lat":43.30134,"lon":5.39852,"is_reserved":false,"is_disabled":false,"rental_uris":{"android":"levelo://app?vid=553d0511-4ee8-47c9-aca1-1f66f7af1fcd","ios":"levelo://app?vid=553d0511-4ee8-47c9-aca1-1f66f7af1fcd"},"vehicle_type_id":"4","last_reported":1746544434,"current_range_meters":20400,"station_id":"ce4bh0h2rcd13ifvqd40","pricing_plan_id":"cebpf4jnsgd1na2vs0mg"},{"bike_id":"24384f0e-408a-42ee-9dc0-46996d573e79","system_id":"levelo_inurba_marseille","lat":43.225125,"lon":5.348256,"is_reserved":false,"is_disabled":false,"rental_uris":{"android":"levelo://app?vid=24384f0e-408a-42ee-9dc0-46996d573e79","ios":"levelo://app?vid=24384f0e-408a-42ee-9dc0-46996d573e79"},"vehicle_type_id":"4","last_reported":1746544434,"current_range_meters":20400,"station_id":"","pricing_plan_id":"cebpf4jnsgd1na2vs0mg"},{"bike_id":"7eb8d23f-c392-4f4d-993a-a7c1c3f41d4b","system_id":"levelo_inurba_marseille","lat":43.25495,"lon":5.37645,"is_reserved":false,"is_disabled":false,"rental_uris":{"android":"levelo://app?vid=7eb8d23f-c392-4f4d-993a-a7c1c3f41d4b","ios":"levelo://app?vid=7eb8d23f-c392-4f4d-993a-a7c1c3f41d4b"},"vehicle_type_id":"4","last_reported":1746544434,"current_range_meters":20400,"station_id":"ce4bhh12rcd13ifvqff0","pricing_plan_id":"cebpf4jnsgd1na2vs0mg"},{"bike_id":"9ee63bdb-e6f1-47c2-a610-eb13b8646cc3","system_id":"levelo_inurba_marseille","lat":43.29533,"lon":5.38535,"is_reserved":false,"is_disabled":false,"rental_uris":{"android":"levelo://app?vid=9ee63bdb-e6f1-47c2-a610-eb13b8646cc3","ios":"levelo://app?vid=9ee63bdb-e6f1-47c2-a610-eb13b8646cc3"},"vehicle_type_id":"4","last_reported":1746544434,"current_range_meters":20400,"station_id":"ce4bgih2rcd13ifvqba0","pricing_plan_id":"cebpf4jnsgd1na2vs0mg"},{"bike_id":"81dd1c4b-6a3b-4570-b1e2-1c9b93ab7410","system_id":"levelo_inurba_marseille","lat":43.22502,"lon":5.34793,"is_reserved":false,"is_disabled":false,"rental_uris":{"android":"levelo://app?vid=81dd1c4b-6a3b-4570-b1e2-1c9b93ab7410","ios":"levelo://app?vid=81dd1c4b-6a3b-4570-b1e2-1c9b93ab7410"},"vehicle_type_id":"4","last_reported":1746544434,"current_range_meters":20400,"station_id":"st_cvj5dfep6f1abm77gieg","pricing_plan_id":"cebpf4jnsgd1na2vs0mg"},{"bike_id":"2952a110-3659-4e52-bfe6-92dc33b5975b","system_id":"levelo_inurba_marseille","lat":43.30363,"lon":5.42481,"is_reserved":false,"is_disabled":false,"rental_uris":{"android":"levelo://app?vid=2952a110-3659-4e52-bfe6-92dc33b5975b","ios":"levelo://app?vid=2952a110-3659-4e52-bfe6-92dc33b5975b"},"vehicle_type_id":"4","last_reported":1746544434,"current_range_meters":20800,"station_id":"ce4bhoh2rcd13ifvqh6g","pricing_plan_id":"cebpf4jnsgd1na2vs0mg"},{"bike_id":"47ff4043-7a53-44d9-9e14-252216e20bba","system_id":"levelo_inurba_marseille","lat":43.29902,"lon":5.37487,"is_reserved":false,"is_disabled":false,"rental_uris":{"android":"levelo://app?vid=47ff4043-7a53-44d9-9e14-252216e20bba","ios":"levelo://app?vid=47ff4043-7a53-44d9-9e14-252216e20bba"},"vehicle_type_id":"4","last_reported":1746544434,"current_range_meters":20800,"station_id":"ce4bgjh2rcd13ifvqbg0","pricing_plan_id":"cebpf4jnsgd1na2vs0mg"},{"bike_id":"8cc36731-ed2d-4099-ab3b-f284def3c98a","system_id":"levelo_inurba_marseille","lat":43.2511,"lon":5.4032,"is_reserved":false,"is_disabled":false,"rental_uris":{"android":"levelo://app?vid=8cc36731-ed2d-4099-ab3b-f284def3c98a","ios":"levelo://app?vid=8cc36731-ed2d-4099-ab3b-f284def3c98a"},"vehicle_type_id":"4","last_reported":1746544434,"current_range_meters":20800,"station_id":"ce4bhlh2rcd13ifvqgig","pricing_plan_id":"cebpf4jnsgd1na2vs0mg"},{"bike_id":"cd6e9da1-1a57-4033-b74d-fc1f1e7f9686","system_id":"levelo_inurba_marseille","lat":43.2512,"lon":5.40317,"is_reserved":false,"is_disabled":false,"rental_uris":{"android":"levelo://app?vid=cd6e9da1-1a57-4033-b74d-fc1f1e7f9686","ios":"levelo://app?vid=cd6e9da1-1a57-4033-b74d-fc1f1e7f9686"},"vehicle_type_id":"4","last_reported":1746544434,"current_range_meters":20400,"station_id":"ce4bhlh2rcd13ifvqgig","pricing_plan_id":"cebpf4jnsgd1na2vs0mg"},{"bike_id":"458d6573-5330-40b5-a49c-93d9da65c829","system_id":"levelo_inurba_marseille","lat":43.28854,"lon":5.3584,"is_reserved":false,"is_disabled":false,"rental_uris":{"android":"levelo://app?vid=458d6573-5330-40b5-a49c-93d9da65c829","ios":"levelo://app?vid=458d6573-5330-40b5-a49c-93d9da65c829"},"vehicle_type_id":"4","last_reported":1746544434,"current_range_meters":20800,"station_id":"ce4bhb12rcd13ifvqem0","pricing_plan_id":"cebpf4jnsgd1na2vs0mg"},{"bike_id":"74aaa382-3065-44e2-91dd-b0356dbf3fc1","system_id":"levelo_inurba_marseille","lat":43.28663,"lon":5.36342,"is_reserved":false,"is_disabled":false,"rental_uris":{"android":"levelo://app?vid=74aaa382-3065-44e2-91dd-b0356dbf3fc1","ios":"levelo://app?vid=74aaa382-3065-44e2-91dd-b0356dbf3fc1"},"vehicle_type_id":"4","last_reported":1746544434,"current_range_meters":20800,"station_id":"ce4bhah2rcd13ifvqej0","pricing_plan_id":"cebpf4jnsgd1na2vs0mg"},{"bike_id":"253c33f9-f8e4-4014-8dcb-d8bb55e7390c","system_id":"levelo_inurba_marseille","lat":43.23152,"lon":5.43722,"is_reserved":false,"is_disabled":false,"rental_uris":{"android":"levelo://app?vid=253c33f9-f8e4-4014-8dcb-d8bb55e7390c","ios":"levelo://app?vid=253c33f9-f8e4-4014-8dcb-d8bb55e7390c"},"vehicle_type_id":"4","last_reported":1746544434,"current_range_meters":20400,"station_id":"ce4bhmp2rcd13ifvqgog","pricing_plan_id":"cebpf4jnsgd1na2vs0mg"},{"bike_id":"220afae3-856b-4ede-bf5d-e2a1a6a28ebf","system_id":"levelo_inurba_marseille","lat":43.31169,"lon":5.38719,"is_reserved":false,"is_disabled":false,"rental_uris":{"android":"levelo://app?vid=220afae3-856b-4ede-bf5d-e2a1a6a28ebf","ios":"levelo://app?vid=220afae3-856b-4ede-bf5d-e2a1a6a28ebf"},"vehicle_type_id":"4","last_reported":1746544434,"current_range_meters":21600,"station_id":"ce4bgv12rcd13ifvqcp0","pricing_plan_id":"cebpf4jnsgd1na2vs0mg"},{"bike_id":"84f8c261-9ab4-407b-907f-fd7935f09f33","system_id":"levelo_inurba_marseille","lat":43.29542,"lon":5.38556,"is_reserved":false,"is_disabled":false,"rental_uris":{"android":"levelo://app?vid=84f8c261-9ab4-407b-907f-fd7935f09f33","ios":"levelo://app?vid=84f8c261-9ab4-407b-907f-fd7935f09f33"},"vehicle_type_id":"4","last_reported":1746544434,"current_range_meters":21600,"station_id":"ce4bgih2rcd13ifvqba0","pricing_plan_id":"cebpf4jnsgd1na2vs0mg"},{"bike_id":"350a16a1-ddb7-40d4-8afa-e26d243001ff","system_id":"levelo_inurba_marseille","lat":43.24806,"lon":5.37453,"is_reserved":false,"is_disabled":false,"rental_uris":{"android":"levelo://app?vid=350a16a1-ddb7-40d4-8afa-e26d243001ff","ios":"levelo://app?vid=350a16a1-ddb7-40d4-8afa-e26d243001ff"},"vehicle_type_id":"4","last_reported":1746544434,"current_range_meters":21600,"station_id":"ce4bhgh2rcd13ifvqfb0","pricing_plan_id":"cebpf4jnsgd1na2vs0mg"},{"bike_id":"08021587-cae8-4f69-ac1d-802da7dd4319","system_id":"levelo_inurba_marseille","lat":43.2796,"lon":5.41752,"is_reserved":false,"is_disabled":false,"rental_uris":{"android":"levelo://app?vid=08021587-cae8-4f69-ac1d-802da7dd4319","ios":"levelo://app?vid=08021587-cae8-4f69-ac1d-802da7dd4319"},"vehicle_type_id":"4","last_reported":1746544434,"current_range_meters":21600,"station_id":"","pricing_plan_id":"cebpf4jnsgd1na2vs0mg"},{"bike_id":"645d7b0f-9b4d-498f-af9a-e201bc57083c","system_id":"levelo_inurba_marseille","lat":43.26855,"lon":5.40361,"is_reserved":false,"is_disabled":false,"rental_uris":{"android":"levelo://app?vid=645d7b0f-9b4d-498f-af9a-e201bc57083c","ios":"levelo://app?vid=645d7b0f-9b4d-498f-af9a-e201bc57083c"},"vehicle_type_id":"4","last_reported":1746544434,"current_range_meters":22000,"station_id":"cjm6bp8fraef2m0cb0m0","pricing_plan_id":"cebpf4jnsgd1na2vs0mg"},{"bike_id":"a3ed077e-760f-4bb6-b7f5-6ec386df71d4","system_id":"levelo_inurba_marseille","lat":43.21752,"lon":5.34606,"is_reserved":false,"is_disabled":false,"rental_uris":{"android":"levelo://app?vid=a3ed077e-760f-4bb6-b7f5-6ec386df71d4","ios":"levelo://app?vid=a3ed077e-760f-4bb6-b7f5-6ec386df71d4"},"vehicle_type_id":"4","last_reported":1746544434,"current_range_meters":22000,"station_id":"st_cvj6r9ubvosntc0bgbag","pricing_plan_id":"cebpf4jnsgd1na2vs0mg"},{"bike_id":"1fe0f32f-9a81-46fb-a0f2-ce89164b5cb2","system_id":"levelo_inurba_marseille","lat":43.27681,"lon":5.38924,"is_reserved":false,"is_disabled":false,"rental_uris":{"android":"levelo://app?vid=1fe0f32f-9a81-46fb-a0f2-ce89164b5cb2","ios":"levelo://app?vid=1fe0f32f-9a81-46fb-a0f2-ce89164b5cb2"},"vehicle_type_id":"4","last_reported":1746544434,"current_range_meters":22400,"station_id":"ce4bhi12rcd13ifvqfo0","pricing_plan_id":"cebpf4jnsgd1na2vs0mg"},{"bike_id":"63af6f78-57d5-4f3d-9494-a6d72ff84dc1","system_id":"levelo_inurba_marseille","lat":43.21193,"lon":5.35073,"is_reserved":false,"is_disabled":false,"rental_uris":{"android":"levelo://app?vid=63af6f78-57d5-4f3d-9494-a6d72ff84dc1","ios":"levelo://app?vid=63af6f78-57d5-4f3d-9494-a6d72ff84dc1"},"vehicle_type_id":"4","last_reported":1746544434,"current_range_meters":22400,"station_id":"st_cvj6sg6p6f1abm77japg","pricing_plan_id":"cebpf4jnsgd1na2vs0mg"},{"bike_id":"1fb6ed5d-5810-42a4-9b9d-1471f7d6df42","system_id":"levelo_inurba_marseille","lat":43.30093,"lon":5.39083,"is_reserved":false,"is_disabled":false,"rental_uris":{"android":"levelo://app?vid=1fb6ed5d-5810-42a4-9b9d-1471f7d6df42","ios":"levelo://app?vid=1fb6ed5d-5810-42a4-9b9d-1471f7d6df42"},"vehicle_type_id":"4","last_reported":1746544434,"current_range_meters":22400,"station_id":"ce4bh192rcd13ifvqdb0","pricing_plan_id":"cebpf4jnsgd1na2vs0mg"},{"bike_id":"590f7011-30f3-42bb-bf26-b73853bffde3","system_id":"levelo_inurba_marseille","lat":43.25866,"lon":5.39899,"is_reserved":false,"is_disabled":false,"rental_uris":{"android":"levelo://app?vid=590f7011-30f3-42bb-bf26-b73853bffde3","ios":"levelo://app?vid=590f7011-30f3-42bb-bf26-b73853bffde3"},"vehicle_type_id":"4","last_reported":1746544434,"current_range_meters":22000,"station_id":"ce4bhl92rcd13ifvqghg","pricing_plan_id":"cebpf4jnsgd1na2vs0mg"},{"bike_id":"2eb3d361-bef7-434c-b276-83e4ab877b28","system_id":"levelo_inurba_marseille","lat":43.2705,"lon":5.40268,"is_reserved":false,"is_disabled":false,"rental_uris":{"android":"levelo://app?vid=2eb3d361-bef7-434c-b276-83e4ab877b28","ios":"levelo://app?vid=2eb3d361-bef7-434c-b276-83e4ab877b28"},"vehicle_type_id":"4","last_reported":1746544434,"current_range_meters":22400,"station_id":"ce4bhk92rcd13ifvqgc0","pricing_plan_id":"cebpf4jnsgd1na2vs0mg"},{"bike_id":"0df3111c-fd99-4e63-915e-e7763d46bb1b","system_id":"levelo_inurba_marseille","lat":43.28501,"lon":5.37068,"is_reserved":false,"is_disabled":false,"rental_uris":{"android":"levelo://app?vid=0df3111c-fd99-4e63-915e-e7763d46bb1b","ios":"levelo://app?vid=0df3111c-fd99-4e63-915e-e7763d46bb1b"},"vehicle_type_id":"4","last_reported":1746544434,"current_range_meters":22800,"station_id":"","pricing_plan_id":"cebpf4jnsgd1na2vs0mg"},{"bike_id":"60689545-5d60-47bd-8c83-dfeb87ae92a6","system_id":"levelo_inurba_marseille","lat":43.230493,"lon":5.354984,"is_reserved":false,"is_disabled":false,"rental_uris":{"android":"levelo://app?vid=60689545-5d60-47bd-8c83-dfeb87ae92a6","ios":"levelo://app?vid=60689545-5d60-47bd-8c83-dfeb87ae92a6"},"vehicle_type_id":"4","last_reported":1746544434,"current_range_meters":22800,"station_id":"cpo3342slgdg3j2ifvpg","pricing_plan_id":"cebpf4jnsgd1na2vs0mg"},{"bike_id":"7b738901-cd52-46ef-a198-d572103b0d61","system_id":"levelo_inurba_marseille","lat":43.28928,"lon":5.37746,"is_reserved":false,"is_disabled":false,"rental_uris":{"android":"levelo://app?vid=7b738901-cd52-46ef-a198-d572103b0d61","ios":"levelo://app?vid=7b738901-cd52-46ef-a198-d572103b0d61"},"vehicle_type_id":"4","last_reported":1746544434,"current_range_meters":22800,"station_id":"ce4bh9p2rcd13ifvqed0","pricing_plan_id":"cebpf4jnsgd1na2vs0mg"},{"bike_id":"d32e25f1-cdc0-4001-9811-c3e89d6047f7","system_id":"levelo_inurba_marseille","lat":43.299343,"lon":5.365373,"is_reserved":false,"is_disabled":false,"rental_uris":{"android":"levelo://app?vid=d32e25f1-cdc0-4001-9811-c3e89d6047f7","ios":"levelo://app?vid=d32e25f1-cdc0-4001-9811-c3e89d6047f7"},"vehicle_type_id":"4","last_reported":1746544434,"current_range_meters":22800,"station_id":"ce4bgm92rcd13ifvqbr0","pricing_plan_id":"cebpf4jnsgd1na2vs0mg"},{"bike_id":"d5ab06e3-e77d-4b7f-a195-6a14c71353d9","system_id":"levelo_inurba_marseille","lat":43.262187,"lon":5.404557,"is_reserved":false,"is_disabled":false,"rental_uris":{"android":"levelo://app?vid=d5ab06e3-e77d-4b7f-a195-6a14c71353d9","ios":"levelo://app?vid=d5ab06e3-e77d-4b7f-a195-6a14c71353d9"},"vehicle_type_id":"4","last_reported":1746544434,"current_range_meters":22800,"station_id":"ce4bhmh2rcd13ifvqgmg","pricing_plan_id":"cebpf4jnsgd1na2vs0mg"},{"bike_id":"1157cec8-17f8-4a5a-a659-a3ccbb2b94d0","system_id":"levelo_inurba_marseille","lat":43.25108,"lon":5.40328,"is_reserved":false,"is_disabled":false,"rental_uris":{"android":"levelo://app?vid=1157cec8-17f8-4a5a-a659-a3ccbb2b94d0","ios":"levelo://app?vid=1157cec8-17f8-4a5a-a659-a3ccbb2b94d0"},"vehicle_type_id":"4","last_reported":1746544434,"current_range_meters":22800,"station_id":"ce4bhlh2rcd13ifvqgig","pricing_plan_id":"cebpf4jnsgd1na2vs0mg"},{"bike_id":"681511f7-2b41-4422-a8df-16fb0a20a225","system_id":"levelo_inurba_marseille","lat":43.28667,"lon":5.38673,"is_reserved":false,"is_disabled":false,"rental_uris":{"android":"levelo://app?vid=681511f7-2b41-4422-a8df-16fb0a20a225","ios":"levelo://app?vid=681511f7-2b41-4422-a8df-16fb0a20a225"},"vehicle_type_id":"4","last_reported":1746544434,"current_range_meters":22800,"station_id":"ce4bh492rcd13ifvqdug","pricing_plan_id":"cebpf4jnsgd1na2vs0mg"},{"bike_id":"e5de2e02-a449-4ba8-a7ca-a78e01cb0bc6","system_id":"levelo_inurba_marseille","lat":43.304166,"lon":5.412844,"is_reserved":false,"is_disabled":false,"rental_uris":{"android":"levelo://app?vid=e5de2e02-a449-4ba8-a7ca-a78e01cb0bc6","ios":"levelo://app?vid=e5de2e02-a449-4ba8-a7ca-a78e01cb0bc6"},"vehicle_type_id":"4","last_reported":1746544434,"current_range_meters":23200,"station_id":"ce4bhop2rcd13ifvqh8g","pricing_plan_id":"cebpf4jnsgd1na2vs0mg"},{"bike_id":"bbeccd5c-acf0-41e0-b66a-0a86f41df192","system_id":"levelo_inurba_marseille","lat":43.32477,"lon":5.36564,"is_reserved":false,"is_disabled":false,"rental_uris":{"android":"levelo://app?vid=bbeccd5c-acf0-41e0-b66a-0a86f41df192","ios":"levelo://app?vid=bbeccd5c-acf0-41e0-b66a-0a86f41df192"},"vehicle_type_id":"4","last_reported":1746544434,"current_range_meters":23200,"station_id":"ce4bhs12rcd13ifvqhvg","pricing_plan_id":"cebpf4jnsgd1na2vs0mg"},{"bike_id":"093bc92b-961f-454d-8133-dea8cd80ec3f","system_id":"levelo_inurba_marseille","lat":43.28435,"lon":5.39187,"is_reserved":false,"is_disabled":false,"rental_uris":{"android":"levelo://app?vid=093bc92b-961f-454d-8133-dea8cd80ec3f","ios":"levelo://app?vid=093bc92b-961f-454d-8133-dea8cd80ec3f"},"vehicle_type_id":"4","last_reported":1746544434,"current_range_meters":23200,"station_id":"ce4bhoh2rcd13ifvqh5g","pricing_plan_id":"cebpf4jnsgd1na2vs0mg"},{"bike_id":"0b68d3fc-bc9b-4361-acee-382551bcb902","system_id":"levelo_inurba_marseille","lat":43.25115,"lon":5.40322,"is_reserved":false,"is_disabled":false,"rental_uris":{"android":"levelo://app?vid=0b68d3fc-bc9b-4361-acee-382551bcb902","ios":"levelo://app?vid=0b68d3fc-bc9b-4361-acee-382551bcb902"},"vehicle_type_id":"4","last_reported":1746544434,"current_range_meters":24000,"station_id":"","pricing_plan_id":"cebpf4jnsgd1na2vs0mg"},{"bike_id":"7241216c-c95b-41a2-83d7-197ae0415ef7","system_id":"levelo_inurba_marseille","lat":43.24401,"lon":5.37042,"is_reserved":false,"is_disabled":false,"rental_uris":{"android":"levelo://app?vid=7241216c-c95b-41a2-83d7-197ae0415ef7","ios":"levelo://app?vid=7241216c-c95b-41a2-83d7-197ae0415ef7"},"vehicle_type_id":"4","last_reported":1746544434,"current_range_meters":24000,"station_id":"ce4bhhh2rcd13ifvqfk0","pricing_plan_id":"cebpf4jnsgd1na2vs0mg"},{"bike_id":"28a7f838-9368-4e50-9e2b-95c101991c2b","system_id":"levelo_inurba_marseille","lat":43.28662,"lon":5.36342,"is_reserved":false,"is_disabled":false,"rental_uris":{"android":"levelo://app?vid=28a7f838-9368-4e50-9e2b-95c101991c2b","ios":"levelo://app?vid=28a7f838-9368-4e50-9e2b-95c101991c2b"},"vehicle_type_id":"4","last_reported":1746544434,"current_range_meters":23200,"station_id":"ce4bhah2rcd13ifvqej0","pricing_plan_id":"cebpf4jnsgd1na2vs0mg"},{"bike_id":"18644f67-72ce-4631-9d9d-aa6cb4af4f83","system_id":"levelo_inurba_marseille","lat":43.21201,"lon":5.3506,"is_reserved":false,"is_disabled":false,"rental_uris":{"android":"levelo://app?vid=18644f67-72ce-4631-9d9d-aa6cb4af4f83","ios":"levelo://app?vid=18644f67-72ce-4631-9d9d-aa6cb4af4f83"},"vehicle_type_id":"4","last_reported":1746544434,"current_range_meters":24000,"station_id":"st_cvj6sg6p6f1abm77japg","pricing_plan_id":"cebpf4jnsgd1na2vs0mg"},{"bike_id":"98154f32-a2a4-44c1-8b3b-8d3825fc3ba6","system_id":"levelo_inurba_marseille","lat":43.26224,"lon":5.40463,"is_reserved":false,"is_disabled":false,"rental_uris":{"android":"levelo://app?vid=98154f32-a2a4-44c1-8b3b-8d3825fc3ba6","ios":"levelo://app?vid=98154f32-a2a4-44c1-8b3b-8d3825fc3ba6"},"vehicle_type_id":"4","last_reported":1746544434,"current_range_meters":24000,"station_id":"ce4bhmh2rcd13ifvqgmg","pricing_plan_id":"cebpf4jnsgd1na2vs0mg"},{"bike_id":"e0b0e3d5-b1ee-4ed7-a825-16df8b745043","system_id":"levelo_inurba_marseille","lat":43.28637,"lon":5.35054,"is_reserved":false,"is_disabled":false,"rental_uris":{"android":"levelo://app?vid=e0b0e3d5-b1ee-4ed7-a825-16df8b745043","ios":"levelo://app?vid=e0b0e3d5-b1ee-4ed7-a825-16df8b745043"},"vehicle_type_id":"4","last_reported":1746544434,"current_range_meters":24000,"station_id":"ce4bhch2rcd13ifvqeug","pricing_plan_id":"cebpf4jnsgd1na2vs0mg"},{"bike_id":"e2c98964-43bf-458f-b53a-50d86412a28d","system_id":"levelo_inurba_marseille","lat":43.29852,"lon":5.36283,"is_reserved":false,"is_disabled":false,"rental_uris":{"android":"levelo://app?vid=e2c98964-43bf-458f-b53a-50d86412a28d","ios":"levelo://app?vid=e2c98964-43bf-458f-b53a-50d86412a28d"},"vehicle_type_id":"4","last_reported":1746544434,"current_range_meters":24000,"station_id":"ce4bgpp2rcd13ifvqc3g","pricing_plan_id":"cebpf4jnsgd1na2vs0mg"},{"bike_id":"0b12f0e3-e251-4518-bf15-d1d78e594999","system_id":"levelo_inurba_marseille","lat":43.296035,"lon":5.37709,"is_reserved":false,"is_disabled":false,"rental_uris":{"android":"levelo://app?vid=0b12f0e3-e251-4518-bf15-d1d78e594999","ios":"levelo://app?vid=0b12f0e3-e251-4518-bf15-d1d78e594999"},"vehicle_type_id":"4","last_reported":1746544434,"current_range_meters":24400,"station_id":"ce4bgi92rcd13ifvqb90","pricing_plan_id":"cebpf4jnsgd1na2vs0mg"},{"bike_id":"57a075ab-58f9-4336-b622-3fa123a6cf43","system_id":"levelo_inurba_marseille","lat":43.265527,"lon":5.372943,"is_reserved":false,"is_disabled":false,"rental_uris":{"android":"levelo://app?vid=57a075ab-58f9-4336-b622-3fa123a6cf43","ios":"levelo://app?vid=57a075ab-58f9-4336-b622-3fa123a6cf43"},"vehicle_type_id":"4","last_reported":1746544434,"current_range_meters":24400,"station_id":"ce4bhg12rcd13ifvqf70","pricing_plan_id":"cebpf4jnsgd1na2vs0mg"},{"bike_id":"baa0990c-63b8-40f5-9c59-db7c8b182c0e","system_id":"levelo_inurba_marseille","lat":43.321041,"lon":5.367861,"is_reserved":false,"is_disabled":false,"rental_uris":{"android":"levelo://app?vid=baa0990c-63b8-40f5-9c59-db7c8b182c0e","ios":"levelo://app?vid=baa0990c-63b8-40f5-9c59-db7c8b182c0e"},"vehicle_type_id":"4","last_reported":1746544434,"current_range_meters":24400,"station_id":"ce4bhrh2rcd13ifvqhug","pricing_plan_id":"cebpf4jnsgd1na2vs0mg"},{"bike_id":"be14af02-7701-4605-b2d6-5fd0439029d8","system_id":"levelo_inurba_marseille","lat":43.21205,"lon":5.35059,"is_reserved":false,"is_disabled":false,"rental_uris":{"android":"levelo://app?vid=be14af02-7701-4605-b2d6-5fd0439029d8","ios":"levelo://app?vid=be14af02-7701-4605-b2d6-5fd0439029d8"},"vehicle_type_id":"4","last_reported":1746544434,"current_range_meters":24400,"station_id":"st_cvj6sg6p6f1abm77japg","pricing_plan_id":"cebpf4jnsgd1na2vs0mg"},{"bike_id":"4943aaff-c800-4e9a-bffe-aacef57a5114","system_id":"levelo_inurba_marseille","lat":43.211921,"lon":5.350726,"is_reserved":false,"is_disabled":false,"rental_uris":{"android":"levelo://app?vid=4943aaff-c800-4e9a-bffe-aacef57a5114","ios":"levelo://app?vid=4943aaff-c800-4e9a-bffe-aacef57a5114"},"vehicle_type_id":"4","last_reported":1746544434,"current_range_meters":24800,"station_id":"st_cvj6sg6p6f1abm77japg","pricing_plan_id":"cebpf4jnsgd1na2vs0mg"},{"bike_id":"6f2f6b92-9c54-4464-86a7-2d7df482b80a","system_id":"levelo_inurba_marseille","lat":43.32469,"lon":5.36565,"is_reserved":false,"is_disabled":false,"rental_uris":{"android":"levelo://app?vid=6f2f6b92-9c54-4464-86a7-2d7df482b80a","ios":"levelo://app?vid=6f2f6b92-9c54-4464-86a7-2d7df482b80a"},"vehicle_type_id":"4","last_reported":1746544434,"current_range_meters":24800,"station_id":"ce4bhs12rcd13ifvqhvg","pricing_plan_id":"cebpf4jnsgd1na2vs0mg"},{"bike_id":"a265f57c-9342-462b-81c9-6f5f0c502bc3","system_id":"levelo_inurba_marseille","lat":43.21195,"lon":5.35072,"is_reserved":false,"is_disabled":false,"rental_uris":{"android":"levelo://app?vid=a265f57c-9342-462b-81c9-6f5f0c502bc3","ios":"levelo://app?vid=a265f57c-9342-462b-81c9-6f5f0c502bc3"},"vehicle_type_id":"4","last_reported":1746544434,"current_range_meters":24800,"station_id":"st_cvj6sg6p6f1abm77japg","pricing_plan_id":"cebpf4jnsgd1na2vs0mg"},{"bike_id":"3fb117eb-34cc-4c9f-acbc-229ec2b0b3a4","system_id":"levelo_inurba_marseille","lat":43.30535,"lon":5.36554,"is_reserved":false,"is_disabled":false,"rental_uris":{"android":"levelo://app?vid=3fb117eb-34cc-4c9f-acbc-229ec2b0b3a4","ios":"levelo://app?vid=3fb117eb-34cc-4c9f-acbc-229ec2b0b3a4"},"vehicle_type_id":"4","last_reported":1746544434,"current_range_meters":22400,"station_id":"ce4bgs12rcd13ifvqcag","pricing_plan_id":"cebpf4jnsgd1na2vs0mg"},{"bike_id":"e4820203-c1cc-47e3-b31e-153e346eb62b","system_id":"levelo_inurba_marseille","lat":43.3212,"lon":5.36792,"is_reserved":false,"is_disabled":false,"rental_uris":{"android":"levelo://app?vid=e4820203-c1cc-47e3-b31e-153e346eb62b","ios":"levelo://app?vid=e4820203-c1cc-47e3-b31e-153e346eb62b"},"vehicle_type_id":"4","last_reported":1746544434,"current_range_meters":24800,"station_id":"ce4bhrh2rcd13ifvqhug","pricing_plan_id":"cebpf4jnsgd1na2vs0mg"},{"bike_id":"fd6b5876-9637-4641-b6a9-ef917a25d7e7","system_id":"levelo_inurba_marseille","lat":43.299667,"lon":5.413112,"is_reserved":false,"is_disabled":false,"rental_uris":{"android":"levelo://app?vid=fd6b5876-9637-4641-b6a9-ef917a25d7e7","ios":"levelo://app?vid=fd6b5876-9637-4641-b6a9-ef917a25d7e7"},"vehicle_type_id":"4","last_reported":1746544434,"current_range_meters":24800,"station_id":"ce4bhp12rcd13ifvqh9g","pricing_plan_id":"cebpf4jnsgd1na2vs0mg"},{"bike_id":"70a29a45-574c-4ff1-aca3-740aa0e705be","system_id":"levelo_inurba_marseille","lat":43.24162,"lon":5.36428,"is_reserved":false,"is_disabled":false,"rental_uris":{"android":"levelo://app?vid=70a29a45-574c-4ff1-aca3-740aa0e705be","ios":"levelo://app?vid=70a29a45-574c-4ff1-aca3-740aa0e705be"},"vehicle_type_id":"4","last_reported":1746544434,"current_range_meters":25200,"station_id":"cpo36qri1sfpv3e86is0","pricing_plan_id":"cebpf4jnsgd1na2vs0mg"},{"bike_id":"c057e067-9454-496f-a3c5-09af2a3d7b6a","system_id":"levelo_inurba_marseille","lat":43.25115,"lon":5.40324,"is_reserved":false,"is_disabled":false,"rental_uris":{"android":"levelo://app?vid=c057e067-9454-496f-a3c5-09af2a3d7b6a","ios":"levelo://app?vid=c057e067-9454-496f-a3c5-09af2a3d7b6a"},"vehicle_type_id":"4","last_reported":1746544434,"current_range_meters":25200,"station_id":"ce4bhlh2rcd13ifvqgig","pricing_plan_id":"cebpf4jnsgd1na2vs0mg"},{"bike_id":"89b5c51b-cd9c-475c-ba7a-726b12d22f75","system_id":"levelo_inurba_marseille","lat":43.21191,"lon":5.35076,"is_reserved":false,"is_disabled":false,"rental_uris":{"android":"levelo://app?vid=89b5c51b-cd9c-475c-ba7a-726b12d22f75","ios":"levelo://app?vid=89b5c51b-cd9c-475c-ba7a-726b12d22f75"},"vehicle_type_id":"4","last_reported":1746544434,"current_range_meters":25200,"station_id":"st_cvj6sg6p6f1abm77japg","pricing_plan_id":"cebpf4jnsgd1na2vs0mg"},{"bike_id":"d8f88875-a7cc-47c3-af3f-78a6a0241b9d","system_id":"levelo_inurba_marseille","lat":43.25088,"lon":5.39518,"is_reserved":false,"is_disabled":false,"rental_uris":{"android":"levelo://app?vid=d8f88875-a7cc-47c3-af3f-78a6a0241b9d","ios":"levelo://app?vid=d8f88875-a7cc-47c3-af3f-78a6a0241b9d"},"vehicle_type_id":"4","last_reported":1746544434,"current_range_meters":25200,"station_id":"ce4bhm12rcd13ifvqgkg","pricing_plan_id":"cebpf4jnsgd1na2vs0mg"},{"bike_id":"a08a0869-c665-4ade-ba2a-454cf1a33937","system_id":"levelo_inurba_marseille","lat":43.250854,"lon":5.39524,"is_reserved":false,"is_disabled":false,"rental_uris":{"android":"levelo://app?vid=a08a0869-c665-4ade-ba2a-454cf1a33937","ios":"levelo://app?vid=a08a0869-c665-4ade-ba2a-454cf1a33937"},"vehicle_type_id":"4","last_reported":1746544434,"current_range_meters":25200,"station_id":"ce4bhm12rcd13ifvqgkg","pricing_plan_id":"cebpf4jnsgd1na2vs0mg"},{"bike_id":"2d60fc77-0789-4aa5-ae17-49c387a82783","system_id":"levelo_inurba_marseille","lat":43.21192,"lon":5.35083,"is_reserved":false,"is_disabled":false,"rental_uris":{"android":"levelo://app?vid=2d60fc77-0789-4aa5-ae17-49c387a82783","ios":"levelo://app?vid=2d60fc77-0789-4aa5-ae17-49c387a82783"},"vehicle_type_id":"4","last_reported":1746544434,"current_range_meters":25600,"station_id":"st_cvj6sg6p6f1abm77japg","pricing_plan_id":"cebpf4jnsgd1na2vs0mg"},{"bike_id":"9f245f51-9534-431f-8e0c-8268090a1b52","system_id":"levelo_inurba_marseille","lat":43.29267,"lon":5.38434,"is_reserved":false,"is_disabled":true,"rental_uris":{"android":"levelo://app?vid=9f245f51-9534-431f-8e0c-8268090a1b52","ios":"levelo://app?vid=9f245f51-9534-431f-8e0c-8268090a1b52"},"vehicle_type_id":"4","last_reported":1746544434,"current_range_meters":25600,"station_id":"ce4bh692rcd13ifvqea0","pricing_plan_id":"cebpf4jnsgd1na2vs0mg"},{"bike_id":"ee60b47f-1ff3-4493-addd-64d42c1a5ff6","system_id":"levelo_inurba_marseille","lat":43.27205,"lon":5.39198,"is_reserved":false,"is_disabled":true,"rental_uris":{"android":"levelo://app?vid=ee60b47f-1ff3-4493-addd-64d42c1a5ff6","ios":"levelo://app?vid=ee60b47f-1ff3-4493-addd-64d42c1a5ff6"},"vehicle_type_id":"4","last_reported":1746544434,"current_range_meters":25600,"station_id":"ce4bhhp2rcd13ifvqfm0","pricing_plan_id":"cebpf4jnsgd1na2vs0mg"},{"bike_id":"1ca9019e-6560-449e-a0d8-5e87180ed0f4","system_id":"levelo_inurba_marseille","lat":43.25109,"lon":5.40315,"is_reserved":false,"is_disabled":false,"rental_uris":{"android":"levelo://app?vid=1ca9019e-6560-449e-a0d8-5e87180ed0f4","ios":"levelo://app?vid=1ca9019e-6560-449e-a0d8-5e87180ed0f4"},"vehicle_type_id":"4","last_reported":1746544434,"current_range_meters":25600,"station_id":"ce4bhlh2rcd13ifvqgig","pricing_plan_id":"cebpf4jnsgd1na2vs0mg"},{"bike_id":"71c53763-d78e-468a-a150-3ae0ea6930da","system_id":"levelo_inurba_marseille","lat":43.22478,"lon":5.3482,"is_reserved":false,"is_disabled":false,"rental_uris":{"android":"levelo://app?vid=71c53763-d78e-468a-a150-3ae0ea6930da","ios":"levelo://app?vid=71c53763-d78e-468a-a150-3ae0ea6930da"},"vehicle_type_id":"4","last_reported":1746544434,"current_range_meters":25600,"station_id":"st_cvj5dfep6f1abm77gieg","pricing_plan_id":"cebpf4jnsgd1na2vs0mg"},{"bike_id":"032e54cf-f8eb-45e9-a2b5-3198defc852b","system_id":"levelo_inurba_marseille","lat":43.30335,"lon":5.40435,"is_reserved":false,"is_disabled":false,"rental_uris":{"android":"levelo://app?vid=032e54cf-f8eb-45e9-a2b5-3198defc852b","ios":"levelo://app?vid=032e54cf-f8eb-45e9-a2b5-3198defc852b"},"vehicle_type_id":"4","last_reported":1746544434,"current_range_meters":25600,"station_id":"ce4bh012rcd13ifvqd10","pricing_plan_id":"cebpf4jnsgd1na2vs0mg"},{"bike_id":"00d0d80a-6dcc-4772-99b2-90df44bca735","system_id":"levelo_inurba_marseille","lat":43.2623,"lon":5.40454,"is_reserved":false,"is_disabled":false,"rental_uris":{"android":"levelo://app?vid=00d0d80a-6dcc-4772-99b2-90df44bca735","ios":"levelo://app?vid=00d0d80a-6dcc-4772-99b2-90df44bca735"},"vehicle_type_id":"4","last_reported":1746544434,"current_range_meters":25600,"station_id":"ce4bhmh2rcd13ifvqgmg","pricing_plan_id":"cebpf4jnsgd1na2vs0mg"},{"bike_id":"b83d6932-990b-48e9-8535-52d696565d32","system_id":"levelo_inurba_marseille","lat":43.232014,"lon":5.355506,"is_reserved":false,"is_disabled":false,"rental_uris":{"android":"levelo://app?vid=b83d6932-990b-48e9-8535-52d696565d32","ios":"levelo://app?vid=b83d6932-990b-48e9-8535-52d696565d32"},"vehicle_type_id":"4","last_reported":1746544434,"current_range_meters":26000,"station_id":"ce4bhu92rcd13ifvqi70","pricing_plan_id":"cebpf4jnsgd1na2vs0mg"},{"bike_id":"5c24f9d2-ed66-4086-ad20-bf71d7c3f781","system_id":"levelo_inurba_marseille","lat":43.28001,"lon":5.40001,"is_reserved":false,"is_disabled":true,"rental_uris":{"android":"levelo://app?vid=5c24f9d2-ed66-4086-ad20-bf71d7c3f781","ios":"levelo://app?vid=5c24f9d2-ed66-4086-ad20-bf71d7c3f781"},"vehicle_type_id":"4","last_reported":1746544434,"current_range_meters":26000,"station_id":"ce4bho92rcd13ifvqh4g","pricing_plan_id":"cebpf4jnsgd1na2vs0mg"},{"bike_id":"3679c836-7ea8-44ee-9ccd-614597e34aa0","system_id":"levelo_inurba_marseille","lat":43.30369,"lon":5.42498,"is_reserved":false,"is_disabled":false,"rental_uris":{"android":"levelo://app?vid=3679c836-7ea8-44ee-9ccd-614597e34aa0","ios":"levelo://app?vid=3679c836-7ea8-44ee-9ccd-614597e34aa0"},"vehicle_type_id":"4","last_reported":1746544434,"current_range_meters":26000,"station_id":"ce4bhoh2rcd13ifvqh6g","pricing_plan_id":"cebpf4jnsgd1na2vs0mg"},{"bike_id":"632f3346-e78e-4a65-9fc1-3fdf6cd4055d","system_id":"levelo_inurba_marseille","lat":43.33039,"lon":5.39054,"is_reserved":false,"is_disabled":false,"rental_uris":{"android":"levelo://app?vid=632f3346-e78e-4a65-9fc1-3fdf6cd4055d","ios":"levelo://app?vid=632f3346-e78e-4a65-9fc1-3fdf6cd4055d"},"vehicle_type_id":"4","last_reported":1746544434,"current_range_meters":26800,"station_id":"ce4bhr92rcd13ifvqhrg","pricing_plan_id":"cebpf4jnsgd1na2vs0mg"},{"bike_id":"8ad56cc9-cea6-4761-89a9-4cef0c08578b","system_id":"levelo_inurba_marseille","lat":43.31357,"lon":5.3849,"is_reserved":false,"is_disabled":false,"rental_uris":{"android":"levelo://app?vid=8ad56cc9-cea6-4761-89a9-4cef0c08578b","ios":"levelo://app?vid=8ad56cc9-cea6-4761-89a9-4cef0c08578b"},"vehicle_type_id":"4","last_reported":1746544434,"current_range_meters":26800,"station_id":"ce4bgt92rcd13ifvqcf0","pricing_plan_id":"cebpf4jnsgd1na2vs0mg"},{"bike_id":"d4882ba5-cdd0-457d-bf01-aa39b2b3b1e7","system_id":"levelo_inurba_marseille","lat":43.282609,"lon":5.350655,"is_reserved":false,"is_disabled":false,"rental_uris":{"android":"levelo://app?vid=d4882ba5-cdd0-457d-bf01-aa39b2b3b1e7","ios":"levelo://app?vid=d4882ba5-cdd0-457d-bf01-aa39b2b3b1e7"},"vehicle_type_id":"4","last_reported":1746544434,"current_range_meters":26800,"station_id":"ce4bhbp2rcd13ifvqerg","pricing_plan_id":"cebpf4jnsgd1na2vs0mg"},{"bike_id":"21404e84-7941-4e33-a6e4-825624b18edf","system_id":"levelo_inurba_marseille","lat":43.23187,"lon":5.39978,"is_reserved":false,"is_disabled":false,"rental_uris":{"android":"levelo://app?vid=21404e84-7941-4e33-a6e4-825624b18edf","ios":"levelo://app?vid=21404e84-7941-4e33-a6e4-825624b18edf"},"vehicle_type_id":"4","last_reported":1746544434,"current_range_meters":26800,"station_id":"ce4bhn12rcd13ifvqgqg","pricing_plan_id":"cebpf4jnsgd1na2vs0mg"},{"bike_id":"71f1f02a-529f-4fe7-836a-e85196f5876c","system_id":"levelo_inurba_marseille","lat":43.29912,"lon":5.38725,"is_reserved":false,"is_disabled":false,"rental_uris":{"android":"levelo://app?vid=71f1f02a-529f-4fe7-836a-e85196f5876c","ios":"levelo://app?vid=71f1f02a-529f-4fe7-836a-e85196f5876c"},"vehicle_type_id":"4","last_reported":1746544434,"current_range_meters":26800,"station_id":"","pricing_plan_id":"cebpf4jnsgd1na2vs0mg"},{"bike_id":"ff807334-3ad3-4e40-bbde-648eb2b1c45b","system_id":"levelo_inurba_marseille","lat":43.21206,"lon":5.35108,"is_reserved":false,"is_disabled":false,"rental_uris":{"android":"levelo://app?vid=ff807334-3ad3-4e40-bbde-648eb2b1c45b","ios":"levelo://app?vid=ff807334-3ad3-4e40-bbde-648eb2b1c45b"},"vehicle_type_id":"4","last_reported":1746544434,"current_range_meters":26800,"station_id":"st_cvj6sg6p6f1abm77japg","pricing_plan_id":"cebpf4jnsgd1na2vs0mg"},{"bike_id":"76a94a31-f8ed-46f8-9a52-926c5bd8402a","system_id":"levelo_inurba_marseille","lat":43.25119,"lon":5.40313,"is_reserved":false,"is_disabled":false,"rental_uris":{"android":"levelo://app?vid=76a94a31-f8ed-46f8-9a52-926c5bd8402a","ios":"levelo://app?vid=76a94a31-f8ed-46f8-9a52-926c5bd8402a"},"vehicle_type_id":"4","last_reported":1746544434,"current_range_meters":26800,"station_id":"ce4bhlh2rcd13ifvqgig","pricing_plan_id":"cebpf4jnsgd1na2vs0mg"},{"bike_id":"d69d040c-1246-4ee1-a4c5-b8374db156e9","system_id":"levelo_inurba_marseille","lat":43.26225,"lon":5.40462,"is_reserved":false,"is_disabled":false,"rental_uris":{"android":"levelo://app?vid=d69d040c-1246-4ee1-a4c5-b8374db156e9","ios":"levelo://app?vid=d69d040c-1246-4ee1-a4c5-b8374db156e9"},"vehicle_type_id":"4","last_reported":1746544434,"current_range_meters":26800,"station_id":"ce4bhmh2rcd13ifvqgmg","pricing_plan_id":"cebpf4jnsgd1na2vs0mg"},