{"last_updated":1742044431,"ttl":60,"version":"2.2","data":{"bikes":[{"bike_id":"fb25c0f6-5882-4734-a76a-2aeb0b117f9b","system_id":"levelo_inurba_marseille","lat":43.31768,"lon":5.39016,"is_reserved":false,"is_disabled":false,"rental_uris":{"android":"levelo://app?vid=fb25c0f6-5882-4734-a76a-2aeb0b117f9b","ios":"levelo://app?vid=fb25c0f6-5882-4734-a76a-2aeb0b117f9b"},"vehicle_type_id":"4","last_reported":1742044431,"current_range_meters":3600,"station_id":"ce4bhqp2rcd13ifvqhng","pricing_plan_id":"cebpf4jnsgd1na2vs0mg"},{"bike_id":"7b4e0441-1f5a-43eb-adad-912ee9b61407","system_id":"levelo_inurba_marseille","lat":43.29278,"lon":5.3684,"is_reserved":false,"is_disabled":false,"rental_uris":{"android":"levelo://app?vid=7b4e0441-1f5a-43eb-adad-912ee9b61407","ios":"levelo://app?vid=7b4e0441-1f5a-43eb-adad-912ee9b61407"},"vehicle_type_id":"4","last_reported":1742044431,"current_range_meters":3600,"station_id":"ce4bhbp2rcd13ifvqesg","pricing_plan_id":"cebpf4jnsgd1na2vs0mg"},{"bike_id":"4eacd84f-522c-467d-9ad2-1278dc2d0f60","system_id":"levelo_inurba_marseille","lat":43.260143,"lon":5.40739,"is_reserved":false,"is_disabled":false,"rental_uris":{"android":"levelo://app?vid=4eacd84f-522c-467d-9ad2-1278dc2d0f60","ios":"levelo://app?vid=4eacd84f-522c-467d-9ad2-1278dc2d0f60"},"vehicle_type_id":"4","last_reported":1742044431,"current_range_meters":3600,"station_id":"ce4bhm92rcd13ifvqglg","pricing_plan_id":"cebpf4jnsgd1na2vs0mg"},{"bike_id":"2055c472-a02a-44d4-b19c-2952db8d94e2","system_id":"levelo_inurba_marseille","lat":43.29392,"lon":5.37852,"is_reserved":false,"is_disabled":false,"rental_uris":{"android":"levelo://app?vid=2055c472-a02a-44d4-b19c-2952db8d94e2","ios":"levelo://app?vid=2055c472-a02a-44d4-b19c-2952db8d94e2"},"vehicle_type_id":"4","last_reported":1742044431,"current_range_meters":4400,"station_id":"ce4bgjh2rcd13ifvqbf0","pricing_plan_id":"cebpf4jnsgd1na2vs0mg"},{"bike_id":"4496e8e5-dfd5-406c-9b0c-6bb025d1e8c1","system_id":"levelo_inurba_marseille","lat":43.23172,"lon":5.39973,"is_reserved":false,"is_disabled":false,"rental_uris":{"android":"levelo://app?vid=4496e8e5-dfd5-406c-9b0c-6bb025d1e8c1","ios":"levelo://app?vid=4496e8e5-dfd5-406c-9b0c-6bb025d1e8c1"},"vehicle_type_id":"4","last_reported":1742044431,"current_range_meters":4400,"station_id":"ce4bhn12rcd13ifvqgqg","pricing_plan_id":"cebpf4jnsgd1na2vs0mg"},{"bike_id":"782efdaf-2c70-4dcb-9d72-72a66a298053","system_id":"levelo_inurba_marseille","lat":43.24803,"lon":5.37456,"is_reserved":false,"is_disabled":false,"rental_uris":{"android":"levelo://app?vid=782efdaf-2c70-4dcb-9d72-72a66a298053","ios":"levelo://app?vid=782efdaf-2c70-4dcb-9d72-72a66a298053"},"vehicle_type_id":"4","last_reported":1742044431,"current_range_meters":4400,"station_id":"ce4bhgh2rcd13ifvqfb0","pricing_plan_id":"cebpf4jnsgd1na2vs0mg"},{"bike_id":"fcd963d1-d40f-446d-9f92-e5edf323f27d","system_id":"levelo_inurba_marseille","lat":43.24404,"lon":5.37061,"is_reserved":false,"is_disabled":false,"rental_uris":{"android":"levelo://app?vid=fcd963d1-d40f-446d-9f92-e5edf323f27d","ios":"levelo://app?vid=fcd963d1-d40f-446d-9f92-e5edf323f27d"},"vehicle_type_id":"4","last_reported":1742044431,"current_range_meters":4400,"station_id":"ce4bhhh2rcd13ifvqfk0","pricing_plan_id":"cebpf4jnsgd1na2vs0mg"},{"bike_id":"36ec5a15-215b-4367-a3ca-336aadd9a251","system_id":"levelo_inurba_marseille","lat":43.33746,"lon":5.3745,"is_reserved":false,"is_disabled":false,"rental_uris":{"android":"levelo://app?vid=36ec5a15-215b-4367-a3ca-336aadd9a251","ios":"levelo://app?vid=36ec5a15-215b-4367-a3ca-336aadd9a251"},"vehicle_type_id":"4","last_reported":1742044431,"current_range_meters":4400,"station_id":"","pricing_plan_id":"cebpf4jnsgd1na2vs0mg"},{"bike_id":"cb6ff553-cf2e-470f-b260-f6066168e71d","system_id":"levelo_inurba_marseille","lat":43.27206,"lon":5.39188,"is_reserved":false,"is_disabled":false,"rental_uris":{"android":"levelo://app?vid=cb6ff553-cf2e-470f-b260-f6066168e71d","ios":"levelo://app?vid=cb6ff553-cf2e-470f-b260-f6066168e71d"},"vehicle_type_id":"4","last_reported":1742044431,"current_range_meters":4800,"station_id":"ce4bhhp2rcd13ifvqfm0","pricing_plan_id":"cebpf4jnsgd1na2vs0mg"},{"bike_id":"4d26d788-f578-401a-a77d-fdf2c2b23fa1","system_id":"levelo_inurba_marseille","lat":43.22936,"lon":5.35368,"is_reserved":false,"is_disabled":false,"rental_uris":{"android":"levelo://app?vid=4d26d788-f578-401a-a77d-fdf2c2b23fa1","ios":"levelo://app?vid=4d26d788-f578-401a-a77d-fdf2c2b23fa1"},"vehicle_type_id":"4","last_reported":1742044431,"current_range_meters":4800,"station_id":"cpo3532slgdg3j2ikp40","pricing_plan_id":"cebpf4jnsgd1na2vs0mg"},{"bike_id":"13fe5e9e-7364-4de3-b9c5-30cc138ad733","system_id":"levelo_inurba_marseille","lat":43.24384,"lon":5.37058,"is_reserved":false,"is_disabled":false,"rental_uris":{"android":"levelo://app?vid=13fe5e9e-7364-4de3-b9c5-30cc138ad733","ios":"levelo://app?vid=13fe5e9e-7364-4de3-b9c5-30cc138ad733"},"vehicle_type_id":"4","last_reported":1742044431,"current_range_meters":5600,"station_id":"ce4bhhh2rcd13ifvqfk0","pricing_plan_id":"cebpf4jnsgd1na2vs0mg"},{"bike_id":"0d9f0cd5-f18b-4f54-8c81-9abf1ecddef1","system_id":"levelo_inurba_marseille","lat":43.31581,"lon":5.42272,"is_reserved":false,"is_disabled":false,"rental_uris":{"android":"levelo://app?vid=0d9f0cd5-f18b-4f54-8c81-9abf1ecddef1","ios":"levelo://app?vid=0d9f0cd5-f18b-4f54-8c81-9abf1ecddef1"},"vehicle_type_id":"4","last_reported":1742044431,"current_range_meters":5600,"station_id":"","pricing_plan_id":"cebpf4jnsgd1na2vs0mg"},{"bike_id":"703a27ab-78c1-4da2-9977-9c24f54834c8","system_id":"levelo_inurba_marseille","lat":43.32495,"lon":5.36561,"is_reserved":false,"is_disabled":false,"rental_uris":{"android":"levelo://app?vid=703a27ab-78c1-4da2-9977-9c24f54834c8","ios":"levelo://app?vid=703a27ab-78c1-4da2-9977-9c24f54834c8"},"vehicle_type_id":"4","last_reported":1742044431,"current_range_meters":5600,"station_id":"ce4bhs12rcd13ifvqhvg","pricing_plan_id":"cebpf4jnsgd1na2vs0mg"},{"bike_id":"92bd2e8f-197b-47ad-8530-ee4394b2ecce","system_id":"levelo_inurba_marseille","lat":43.24168,"lon":5.36409,"is_reserved":false,"is_disabled":false,"rental_uris":{"android":"levelo://app?vid=92bd2e8f-197b-47ad-8530-ee4394b2ecce","ios":"levelo://app?vid=92bd2e8f-197b-47ad-8530-ee4394b2ecce"},"vehicle_type_id":"4","last_reported":1742044431,"current_range_meters":5600,"station_id":"cpo36qri1sfpv3e86is0","pricing_plan_id":"cebpf4jnsgd1na2vs0mg"},{"bike_id":"a204f42b-736d-4f7b-a4ca-42286845f896","system_id":"levelo_inurba_marseille","lat":43.29839,"lon":5.36268,"is_reserved":false,"is_disabled":false,"rental_uris":{"android":"levelo://app?vid=a204f42b-736d-4f7b-a4ca-42286845f896","ios":"levelo://app?vid=a204f42b-736d-4f7b-a4ca-42286845f896"},"vehicle_type_id":"4","last_reported":1742044431,"current_range_meters":6000,"station_id":"ce4bgpp2rcd13ifvqc3g","pricing_plan_id":"cebpf4jnsgd1na2vs0mg"},{"bike_id":"99485a1b-3904-40c1-af3e-9197928cea69","system_id":"levelo_inurba_marseille","lat":43.24393,"lon":5.37057,"is_reserved":false,"is_disabled":false,"rental_uris":{"android":"levelo://app?vid=99485a1b-3904-40c1-af3e-9197928cea69","ios":"levelo://app?vid=99485a1b-3904-40c1-af3e-9197928cea69"},"vehicle_type_id":"4","last_reported":1742044431,"current_range_meters":6000,"station_id":"ce4bhhh2rcd13ifvqfk0","pricing_plan_id":"cebpf4jnsgd1na2vs0mg"},{"bike_id":"e725db21-0ea0-44e2-a274-943779b1e6a4","system_id":"levelo_inurba_marseille","lat":43.244,"lon":5.37038,"is_reserved":false,"is_disabled":false,"rental_uris":{"android":"levelo://app?vid=e725db21-0ea0-44e2-a274-943779b1e6a4","ios":"levelo://app?vid=e725db21-0ea0-44e2-a274-943779b1e6a4"},"vehicle_type_id":"4","last_reported":1742044431,"current_range_meters":6400,"station_id":"ce4bhhh2rcd13ifvqfk0","pricing_plan_id":"cebpf4jnsgd1na2vs0mg"},{"bike_id":"14686cda-0d1d-43d1-a7b7-3476257757d8","system_id":"levelo_inurba_marseille","lat":43.24403,"lon":5.37055,"is_reserved":false,"is_disabled":false,"rental_uris":{"android":"levelo://app?vid=14686cda-0d1d-43d1-a7b7-3476257757d8","ios":"levelo://app?vid=14686cda-0d1d-43d1-a7b7-3476257757d8"},"vehicle_type_id":"4","last_reported":1742044431,"current_range_meters":6400,"station_id":"ce4bhhh2rcd13ifvqfk0","pricing_plan_id":"cebpf4jnsgd1na2vs0mg"},{"bike_id":"4b664b54-5e4e-4fc9-a61a-c95c30a38846","system_id":"levelo_inurba_marseille","lat":43.2439,"lon":5.37073,"is_reserved":false,"is_disabled":false,"rental_uris":{"android":"levelo://app?vid=4b664b54-5e4e-4fc9-a61a-c95c30a38846","ios":"levelo://app?vid=4b664b54-5e4e-4fc9-a61a-c95c30a38846"},"vehicle_type_id":"4","last_reported":1742044431,"current_range_meters":6400,"station_id":"ce4bhhh2rcd13ifvqfk0","pricing_plan_id":"cebpf4jnsgd1na2vs0mg"},{"bike_id":"a833786f-2eb0-4d27-a6f1-c414a3ca83bf","system_id":"levelo_inurba_marseille","lat":43.29843,"lon":5.36277,"is_reserved":false,"is_disabled":false,"rental_uris":{"android":"levelo://app?vid=a833786f-2eb0-4d27-a6f1-c414a3ca83bf","ios":"levelo://app?vid=a833786f-2eb0-4d27-a6f1-c414a3ca83bf"},"vehicle_type_id":"4","last_reported":1742044431,"current_range_meters":6400,"station_id":"ce4bgpp2rcd13ifvqc3g","pricing_plan_id":"cebpf4jnsgd1na2vs0mg"},{"bike_id":"faf4c27a-d7eb-4435-bbca-3d07a59b2d3c","system_id":"levelo_inurba_marseille","lat":43.3129,"lon":5.40149,"is_reserved":false,"is_disabled":false,"rental_uris":{"android":"levelo://app?vid=faf4c27a-d7eb-4435-bbca-3d07a59b2d3c","ios":"levelo://app?vid=faf4c27a-d7eb-4435-bbca-3d07a59b2d3c"},"vehicle_type_id":"4","last_reported":1742044431,"current_range_meters":6400,"station_id":"ce4bh092rcd13ifvqd30","pricing_plan_id":"cebpf4jnsgd1na2vs0mg"},{"bike_id":"98d79f20-98cc-421a-8f6c-75ffdbfbf050","system_id":"levelo_inurba_marseille","lat":43.28266,"lon":5.35072,"is_reserved":false,"is_disabled":false,"rental_uris":{"android":"levelo://app?vid=98d79f20-98cc-421a-8f6c-75ffdbfbf050","ios":"levelo://app?vid=98d79f20-98cc-421a-8f6c-75ffdbfbf050"},"vehicle_type_id":"4","last_reported":1742044431,"current_range_meters":6800,"station_id":"ce4bhbp2rcd13ifvqerg","pricing_plan_id":"cebpf4jnsgd1na2vs0mg"},{"bike_id":"e7e70597-27c6-40d2-933e-14b37f695537","system_id":"levelo_inurba_marseille","lat":43.29174,"lon":5.37151,"is_reserved":false,"is_disabled":false,"rental_uris":{"android":"levelo://app?vid=e7e70597-27c6-40d2-933e-14b37f695537","ios":"levelo://app?vid=e7e70597-27c6-40d2-933e-14b37f695537"},"vehicle_type_id":"4","last_reported":1742044431,"current_range_meters":7200,"station_id":"ce4bha92rcd13ifvqeh0","pricing_plan_id":"cebpf4jnsgd1na2vs0mg"},{"bike_id":"48f968e9-2670-450c-9a50-b12a7ac1907f","system_id":"levelo_inurba_marseille","lat":43.257254,"lon":5.410999,"is_reserved":false,"is_disabled":false,"rental_uris":{"android":"levelo://app?vid=48f968e9-2670-450c-9a50-b12a7ac1907f","ios":"levelo://app?vid=48f968e9-2670-450c-9a50-b12a7ac1907f"},"vehicle_type_id":"4","last_reported":1742044431,"current_range_meters":7200,"station_id":"ce4bhkp2rcd13ifvqgd0","pricing_plan_id":"cebpf4jnsgd1na2vs0mg"},{"bike_id":"1a1b51da-024f-4ec8-8c6f-b1a07c695977","system_id":"levelo_inurba_marseille","lat":43.31162,"lon":5.3874,"is_reserved":false,"is_disabled":false,"rental_uris":{"android":"levelo://app?vid=1a1b51da-024f-4ec8-8c6f-b1a07c695977","ios":"levelo://app?vid=1a1b51da-024f-4ec8-8c6f-b1a07c695977"},"vehicle_type_id":"4","last_reported":1742044431,"current_range_meters":7200,"station_id":"ce4bgv12rcd13ifvqcp0","pricing_plan_id":"cebpf4jnsgd1na2vs0mg"},{"bike_id":"e2717333-7f78-44ab-8680-a22077ad0c39","system_id":"levelo_inurba_marseille","lat":43.28398,"lon":5.37519,"is_reserved":false,"is_disabled":false,"rental_uris":{"android":"levelo://app?vid=e2717333-7f78-44ab-8680-a22077ad0c39","ios":"levelo://app?vid=e2717333-7f78-44ab-8680-a22077ad0c39"},"vehicle_type_id":"4","last_reported":1742044431,"current_range_meters":7200,"station_id":"ce4bh412rcd13ifvqds0","pricing_plan_id":"cebpf4jnsgd1na2vs0mg"},{"bike_id":"a2f6aa0b-6d79-4c9e-9879-5de4d6f174f0","system_id":"levelo_inurba_marseille","lat":43.29805,"lon":5.40396,"is_reserved":false,"is_disabled":false,"rental_uris":{"android":"levelo://app?vid=a2f6aa0b-6d79-4c9e-9879-5de4d6f174f0","ios":"levelo://app?vid=a2f6aa0b-6d79-4c9e-9879-5de4d6f174f0"},"vehicle_type_id":"4","last_reported":1742044431,"current_range_meters":7200,"station_id":"ce4bh112rcd13ifvqd90","pricing_plan_id":"cebpf4jnsgd1na2vs0mg"},{"bike_id":"c9c74d99-aa43-4a44-be00-c68b1e959bc5","system_id":"levelo_inurba_marseille","lat":43.32482,"lon":5.36583,"is_reserved":false,"is_disabled":false,"rental_uris":{"android":"levelo://app?vid=c9c74d99-aa43-4a44-be00-c68b1e959bc5","ios":"levelo://app?vid=c9c74d99-aa43-4a44-be00-c68b1e959bc5"},"vehicle_type_id":"4","last_reported":1742044431,"current_range_meters":7200,"station_id":"ce4bhs12rcd13ifvqhvg","pricing_plan_id":"cebpf4jnsgd1na2vs0mg"},{"bike_id":"a8e67676-89ba-43e0-82dc-5ef4b0a5e328","system_id":"levelo_inurba_marseille","lat":43.3162,"lon":5.38609,"is_reserved":false,"is_disabled":false,"rental_uris":{"android":"levelo://app?vid=a8e67676-89ba-43e0-82dc-5ef4b0a5e328","ios":"levelo://app?vid=a8e67676-89ba-43e0-82dc-5ef4b0a5e328"},"vehicle_type_id":"4","last_reported":1742044431,"current_range_meters":7200,"station_id":"","pricing_plan_id":"cebpf4jnsgd1na2vs0mg"},{"bike_id":"1d4187bf-a623-4767-9c17-0b9ce44177a2","system_id":"levelo_inurba_marseille","lat":43.24393,"lon":5.37064,"is_reserved":false,"is_disabled":false,"rental_uris":{"android":"levelo://app?vid=1d4187bf-a623-4767-9c17-0b9ce44177a2","ios":"levelo://app?vid=1d4187bf-a623-4767-9c17-0b9ce44177a2"},"vehicle_type_id":"4","last_reported":1742044431,"current_range_meters":7200,"station_id":"ce4bhhh2rcd13ifvqfk0","pricing_plan_id":"cebpf4jnsgd1na2vs0mg"},{"bike_id":"2398a545-be6a-490e-bd1f-16e7b38d82a6","system_id":"levelo_inurba_marseille","lat":43.27854,"lon":5.3802,"is_reserved":false,"is_disabled":false,"rental_uris":{"android":"levelo://app?vid=2398a545-be6a-490e-bd1f-16e7b38d82a6","ios":"levelo://app?vid=2398a545-be6a-490e-bd1f-16e7b38d82a6"},"vehicle_type_id":"4","last_reported":1742044431,"current_range_meters":7200,"station_id":"","pricing_plan_id":"cebpf4jnsgd1na2vs0mg"},{"bike_id":"77f0430f-3350-4963-ac6b-e35c49a943e2","system_id":"levelo_inurba_marseille","lat":43.31666,"lon":5.39565,"is_reserved":false,"is_disabled":false,"rental_uris":{"android":"levelo://app?vid=77f0430f-3350-4963-ac6b-e35c49a943e2","ios":"levelo://app?vid=77f0430f-3350-4963-ac6b-e35c49a943e2"},"vehicle_type_id":"4","last_reported":1742044431,"current_range_meters":7200,"station_id":"","pricing_plan_id":"cebpf4jnsgd1na2vs0mg"},{"bike_id":"2f65ed80-6c16-4426-b63c-1981c1c225b9","system_id":"levelo_inurba_marseille","lat":43.29609,"lon":5.42287,"is_reserved":false,"is_disabled":false,"rental_uris":{"android":"levelo://app?vid=2f65ed80-6c16-4426-b63c-1981c1c225b9","ios":"levelo://app?vid=2f65ed80-6c16-4426-b63c-1981c1c225b9"},"vehicle_type_id":"4","last_reported":1742044431,"current_range_meters":8000,"station_id":"ce4bhph2rcd13ifvqhdg","pricing_plan_id":"cebpf4jnsgd1na2vs0mg"},{"bike_id":"f145fb8a-76ed-4610-9aa2-4cd4bb3e0bc9","system_id":"levelo_inurba_marseille","lat":43.28072,"lon":5.39649,"is_reserved":false,"is_disabled":false,"rental_uris":{"android":"levelo://app?vid=f145fb8a-76ed-4610-9aa2-4cd4bb3e0bc9","ios":"levelo://app?vid=f145fb8a-76ed-4610-9aa2-4cd4bb3e0bc9"},"vehicle_type_id":"4","last_reported":1742044431,"current_range_meters":8000,"station_id":"ce4bho12rcd13ifvqh2g","pricing_plan_id":"cebpf4jnsgd1na2vs0mg"},{"bike_id":"c0fd1815-42ed-4799-9204-bfc4a9051dd1","system_id":"levelo_inurba_marseille","lat":43.28417,"lon":5.375043,"is_reserved":false,"is_disabled":false,"rental_uris":{"android":"levelo://app?vid=c0fd1815-42ed-4799-9204-bfc4a9051dd1","ios":"levelo://app?vid=c0fd1815-42ed-4799-9204-bfc4a9051dd1"},"vehicle_type_id":"4","last_reported":1742044431,"current_range_meters":8000,"station_id":"ce4bh412rcd13ifvqds0","pricing_plan_id":"cebpf4jnsgd1na2vs0mg"},{"bike_id":"4369ac79-c74c-4075-9e0e-6b2be3455827","system_id":"levelo_inurba_marseille","lat":43.26566,"lon":5.39008,"is_reserved":false,"is_disabled":false,"rental_uris":{"android":"levelo://app?vid=4369ac79-c74c-4075-9e0e-6b2be3455827","ios":"levelo://app?vid=4369ac79-c74c-4075-9e0e-6b2be3455827"},"vehicle_type_id":"4","last_reported":1742044431,"current_range_meters":8000,"station_id":"ce4bhe12rcd13ifvqf30","pricing_plan_id":"cebpf4jnsgd1na2vs0mg"},{"bike_id":"c6b2e8e1-a9f2-4fdc-b2fb-e9795807d18f","system_id":"levelo_inurba_marseille","lat":43.28421,"lon":5.34976,"is_reserved":false,"is_disabled":false,"rental_uris":{"android":"levelo://app?vid=c6b2e8e1-a9f2-4fdc-b2fb-e9795807d18f","ios":"levelo://app?vid=c6b2e8e1-a9f2-4fdc-b2fb-e9795807d18f"},"vehicle_type_id":"4","last_reported":1742044431,"current_range_meters":8000,"station_id":"ce4bhbh2rcd13ifvqepg","pricing_plan_id":"cebpf4jnsgd1na2vs0mg"},{"bike_id":"d14a5963-8597-4a24-9eae-c38ec293dfdd","system_id":"levelo_inurba_marseille","lat":43.28395,"lon":5.37514,"is_reserved":false,"is_disabled":false,"rental_uris":{"android":"levelo://app?vid=d14a5963-8597-4a24-9eae-c38ec293dfdd","ios":"levelo://app?vid=d14a5963-8597-4a24-9eae-c38ec293dfdd"},"vehicle_type_id":"4","last_reported":1742044431,"current_range_meters":7200,"station_id":"ce4bh412rcd13ifvqds0","pricing_plan_id":"cebpf4jnsgd1na2vs0mg"},{"bike_id":"fd67027a-70b7-4eb6-a2b1-1c4abff60874","system_id":"levelo_inurba_marseille","lat":43.24174,"lon":5.39724,"is_reserved":false,"is_disabled":false,"rental_uris":{"android":"levelo://app?vid=fd67027a-70b7-4eb6-a2b1-1c4abff60874","ios":"levelo://app?vid=fd67027a-70b7-4eb6-a2b1-1c4abff60874"},"vehicle_type_id":"4","last_reported":1742044431,"current_range_meters":8000,"station_id":"ce4bhn12rcd13ifvqgpg","pricing_plan_id":"cebpf4jnsgd1na2vs0mg"},{"bike_id":"2ec0f046-4e68-4150-a618-5c892d6b2cb5","system_id":"levelo_inurba_marseille","lat":43.26238,"lon":5.40448,"is_reserved":false,"is_disabled":false,"rental_uris":{"android":"levelo://app?vid=2ec0f046-4e68-4150-a618-5c892d6b2cb5","ios":"levelo://app?vid=2ec0f046-4e68-4150-a618-5c892d6b2cb5"},"vehicle_type_id":"4","last_reported":1742044431,"current_range_meters":8000,"station_id":"ce4bhmh2rcd13ifvqgmg","pricing_plan_id":"cebpf4jnsgd1na2vs0mg"},{"bike_id":"d48badf8-f9ee-4833-b32a-a1ead714b7cc","system_id":"levelo_inurba_marseille","lat":43.26828,"lon":5.40233,"is_reserved":false,"is_disabled":false,"rental_uris":{"android":"levelo://app?vid=d48badf8-f9ee-4833-b32a-a1ead714b7cc","ios":"levelo://app?vid=d48badf8-f9ee-4833-b32a-a1ead714b7cc"},"vehicle_type_id":"4","last_reported":1742044431,"current_range_meters":8000,"station_id":"ce501612rcd8frsf0b60","pricing_plan_id":"cebpf4jnsgd1na2vs0mg"},{"bike_id":"97406f7b-a1de-428e-bd2c-80fea7e1962e","system_id":"levelo_inurba_marseille","lat":43.30894,"lon":5.36852,"is_reserved":false,"is_disabled":false,"rental_uris":{"android":"levelo://app?vid=97406f7b-a1de-428e-bd2c-80fea7e1962e","ios":"levelo://app?vid=97406f7b-a1de-428e-bd2c-80fea7e1962e"},"vehicle_type_id":"4","last_reported":1742044431,"current_range_meters":8400,"station_id":"ce4bha92rcd13ifvqeh0","pricing_plan_id":"cebpf4jnsgd1na2vs0mg"},{"bike_id":"97f656e4-2a27-4060-b702-06ed4d3ec6d3","system_id":"levelo_inurba_marseille","lat":43.28486,"lon":5.38411,"is_reserved":false,"is_disabled":false,"rental_uris":{"android":"levelo://app?vid=97f656e4-2a27-4060-b702-06ed4d3ec6d3","ios":"levelo://app?vid=97f656e4-2a27-4060-b702-06ed4d3ec6d3"},"vehicle_type_id":"4","last_reported":1742044431,"current_range_meters":8000,"station_id":"ce4bh512rcd13ifvqe3g","pricing_plan_id":"cebpf4jnsgd1na2vs0mg"},{"bike_id":"bd7fb638-a561-41df-90ca-f32685780427","system_id":"levelo_inurba_marseille","lat":43.22925,"lon":5.35377,"is_reserved":false,"is_disabled":false,"rental_uris":{"android":"levelo://app?vid=bd7fb638-a561-41df-90ca-f32685780427","ios":"levelo://app?vid=bd7fb638-a561-41df-90ca-f32685780427"},"vehicle_type_id":"4","last_reported":1742044431,"current_range_meters":8400,"station_id":"cpo3532slgdg3j2ikp40","pricing_plan_id":"cebpf4jnsgd1na2vs0mg"},{"bike_id":"70c64b6f-bec2-46ae-b5e9-8c0c29541837","system_id":"levelo_inurba_marseille","lat":43.27051,"lon":5.40263,"is_reserved":false,"is_disabled":false,"rental_uris":{"android":"levelo://app?vid=70c64b6f-bec2-46ae-b5e9-8c0c29541837","ios":"levelo://app?vid=70c64b6f-bec2-46ae-b5e9-8c0c29541837"},"vehicle_type_id":"4","last_reported":1742044431,"current_range_meters":8800,"station_id":"ce4bhk92rcd13ifvqgc0","pricing_plan_id":"cebpf4jnsgd1na2vs0mg"},{"bike_id":"d204464a-8fee-4ac2-b0dc-3fca17f4ec85","system_id":"levelo_inurba_marseille","lat":43.23196,"lon":5.35555,"is_reserved":false,"is_disabled":false,"rental_uris":{"android":"levelo://app?vid=d204464a-8fee-4ac2-b0dc-3fca17f4ec85","ios":"levelo://app?vid=d204464a-8fee-4ac2-b0dc-3fca17f4ec85"},"vehicle_type_id":"4","last_reported":1742044431,"current_range_meters":8800,"station_id":"ce4bhu92rcd13ifvqi70","pricing_plan_id":"cebpf4jnsgd1na2vs0mg"},{"bike_id":"8a5bd971-61c1-4475-933b-dffdb284dd01","system_id":"levelo_inurba_marseille","lat":43.2501,"lon":5.38921,"is_reserved":false,"is_disabled":false,"rental_uris":{"android":"levelo://app?vid=8a5bd971-61c1-4475-933b-dffdb284dd01","ios":"levelo://app?vid=8a5bd971-61c1-4475-933b-dffdb284dd01"},"vehicle_type_id":"4","last_reported":1742044431,"current_range_meters":8800,"station_id":"ce4bhgp2rcd13ifvqfd0","pricing_plan_id":"cebpf4jnsgd1na2vs0mg"},{"bike_id":"1fa2c054-0357-481f-bf32-afbe27f59e33","system_id":"levelo_inurba_marseille","lat":43.23164,"lon":5.43725,"is_reserved":false,"is_disabled":false,"rental_uris":{"android":"levelo://app?vid=1fa2c054-0357-481f-bf32-afbe27f59e33","ios":"levelo://app?vid=1fa2c054-0357-481f-bf32-afbe27f59e33"},"vehicle_type_id":"4","last_reported":1742044431,"current_range_meters":8800,"station_id":"ce4bhmp2rcd13ifvqgog","pricing_plan_id":"cebpf4jnsgd1na2vs0mg"},{"bike_id":"e63ffff4-c09c-4063-9cad-0b13b5d268fd","system_id":"levelo_inurba_marseille","lat":43.28347,"lon":5.38119,"is_reserved":false,"is_disabled":false,"rental_uris":{"android":"levelo://app?vid=e63ffff4-c09c-4063-9cad-0b13b5d268fd","ios":"levelo://app?vid=e63ffff4-c09c-4063-9cad-0b13b5d268fd"},"vehicle_type_id":"4","last_reported":1742044431,"current_range_meters":8800,"station_id":"ce4bh412rcd13ifvqdr0","pricing_plan_id":"cebpf4jnsgd1na2vs0mg"},{"bike_id":"9fd8a695-1141-48a7-a275-ae03aade4f9e","system_id":"levelo_inurba_marseille","lat":43.24557,"lon":5.39521,"is_reserved":false,"is_disabled":false,"rental_uris":{"android":"levelo://app?vid=9fd8a695-1141-48a7-a275-ae03aade4f9e","ios":"levelo://app?vid=9fd8a695-1141-48a7-a275-ae03aade4f9e"},"vehicle_type_id":"4","last_reported":1742044431,"current_range_meters":9200,"station_id":"ce4bhlp2rcd13ifvqgjg","pricing_plan_id":"cebpf4jnsgd1na2vs0mg"},{"bike_id":"c3072cf0-63d5-4526-871b-875836888b5c","system_id":"levelo_inurba_marseille","lat":43.262124,"lon":5.374341,"is_reserved":false,"is_disabled":false,"rental_uris":{"android":"levelo://app?vid=c3072cf0-63d5-4526-871b-875836888b5c","ios":"levelo://app?vid=c3072cf0-63d5-4526-871b-875836888b5c"},"vehicle_type_id":"4","last_reported":1742044431,"current_range_meters":9200,"station_id":"ce4bhnh2rcd13ifvqgtg","pricing_plan_id":"cebpf4jnsgd1na2vs0mg"},{"bike_id":"adcfcf3a-4d2a-4756-9614-56f9a7b093cb","system_id":"levelo_inurba_marseille","lat":43.23194,"lon":5.39954,"is_reserved":false,"is_disabled":false,"rental_uris":{"android":"levelo://app?vid=adcfcf3a-4d2a-4756-9614-56f9a7b093cb","ios":"levelo://app?vid=adcfcf3a-4d2a-4756-9614-56f9a7b093cb"},"vehicle_type_id":"4","last_reported":1742044431,"current_range_meters":9200,"station_id":"ce4bhn12rcd13ifvqgqg","pricing_plan_id":"cebpf4jnsgd1na2vs0mg"},{"bike_id":"8018d4c5-6b64-46d0-88b5-405a761adb17","system_id":"levelo_inurba_marseille","lat":43.31268,"lon":5.40168,"is_reserved":false,"is_disabled":false,"rental_uris":{"android":"levelo://app?vid=8018d4c5-6b64-46d0-88b5-405a761adb17","ios":"levelo://app?vid=8018d4c5-6b64-46d0-88b5-405a761adb17"},"vehicle_type_id":"4","last_reported":1742044431,"current_range_meters":9200,"station_id":"ce4bh092rcd13ifvqd30","pricing_plan_id":"cebpf4jnsgd1na2vs0mg"},{"bike_id":"1999cecf-f38c-4961-9580-ef6a50d3e0be","system_id":"levelo_inurba_marseille","lat":43.2417,"lon":5.36398,"is_reserved":false,"is_disabled":false,"rental_uris":{"android":"levelo://app?vid=1999cecf-f38c-4961-9580-ef6a50d3e0be","ios":"levelo://app?vid=1999cecf-f38c-4961-9580-ef6a50d3e0be"},"vehicle_type_id":"4","last_reported":1742044431,"current_range_meters":9200,"station_id":"cpo36qri1sfpv3e86is0","pricing_plan_id":"cebpf4jnsgd1na2vs0mg"},{"bike_id":"784767bd-cdc3-4edf-bf18-014146c8e838","system_id":"levelo_inurba_marseille","lat":43.23176,"lon":5.39977,"is_reserved":false,"is_disabled":false,"rental_uris":{"android":"levelo://app?vid=784767bd-cdc3-4edf-bf18-014146c8e838","ios":"levelo://app?vid=784767bd-cdc3-4edf-bf18-014146c8e838"},"vehicle_type_id":"4","last_reported":1742044431,"current_range_meters":9200,"station_id":"ce4bhn12rcd13ifvqgqg","pricing_plan_id":"cebpf4jnsgd1na2vs0mg"},{"bike_id":"385ae15c-2c3c-4490-a507-5eb20fb883a5","system_id":"levelo_inurba_marseille","lat":43.25978,"lon":5.40761,"is_reserved":false,"is_disabled":false,"rental_uris":{"android":"levelo://app?vid=385ae15c-2c3c-4490-a507-5eb20fb883a5","ios":"levelo://app?vid=385ae15c-2c3c-4490-a507-5eb20fb883a5"},"vehicle_type_id":"4","last_reported":1742044431,"current_range_meters":9200,"station_id":"ce4bhm92rcd13ifvqglg","pricing_plan_id":"cebpf4jnsgd1na2vs0mg"},{"bike_id":"66f7e32f-3c95-41de-a44e-cd8857d1a810","system_id":"levelo_inurba_marseille","lat":43.27218,"lon":5.39186,"is_reserved":false,"is_disabled":false,"rental_uris":{"android":"levelo://app?vid=66f7e32f-3c95-41de-a44e-cd8857d1a810","ios":"levelo://app?vid=66f7e32f-3c95-41de-a44e-cd8857d1a810"},"vehicle_type_id":"4","last_reported":1742044431,"current_range_meters":9200,"station_id":"ce4bhhp2rcd13ifvqfm0","pricing_plan_id":"cebpf4jnsgd1na2vs0mg"},{"bike_id":"1ac0ebad-6828-4242-99b2-14a9f8209f79","system_id":"levelo_inurba_marseille","lat":43.23198,"lon":5.35551,"is_reserved":false,"is_disabled":false,"rental_uris":{"android":"levelo://app?vid=1ac0ebad-6828-4242-99b2-14a9f8209f79","ios":"levelo://app?vid=1ac0ebad-6828-4242-99b2-14a9f8209f79"},"vehicle_type_id":"4","last_reported":1742044431,"current_range_meters":9600,"station_id":"ce4bhu92rcd13ifvqi70","pricing_plan_id":"cebpf4jnsgd1na2vs0mg"},{"bike_id":"676e66c6-8e50-404c-b512-5f94c7d6a8fc","system_id":"levelo_inurba_marseille","lat":43.24181,"lon":5.36376,"is_reserved":false,"is_disabled":false,"rental_uris":{"android":"levelo://app?vid=676e66c6-8e50-404c-b512-5f94c7d6a8fc","ios":"levelo://app?vid=676e66c6-8e50-404c-b512-5f94c7d6a8fc"},"vehicle_type_id":"4","last_reported":1742044431,"current_range_meters":9600,"station_id":"cpo36qri1sfpv3e86is0","pricing_plan_id":"cebpf4jnsgd1na2vs0mg"},{"bike_id":"2610bfa6-537c-44f6-ae39-c8db3f68d1a3","system_id":"levelo_inurba_marseille","lat":43.261921,"lon":5.374533,"is_reserved":false,"is_disabled":false,"rental_uris":{"android":"levelo://app?vid=2610bfa6-537c-44f6-ae39-c8db3f68d1a3","ios":"levelo://app?vid=2610bfa6-537c-44f6-ae39-c8db3f68d1a3"},"vehicle_type_id":"4","last_reported":1742044431,"current_range_meters":9600,"station_id":"ce4bhgp2rcd13ifvqfc0","pricing_plan_id":"cebpf4jnsgd1na2vs0mg"},{"bike_id":"b4616406-2d58-4f02-abf1-373bd2ebeed9","system_id":"levelo_inurba_marseille","lat":43.24405,"lon":5.37059,"is_reserved":false,"is_disabled":false,"rental_uris":{"android":"levelo://app?vid=b4616406-2d58-4f02-abf1-373bd2ebeed9","ios":"levelo://app?vid=b4616406-2d58-4f02-abf1-373bd2ebeed9"},"vehicle_type_id":"4","last_reported":1742044431,"current_range_meters":9600,"station_id":"ce4bhhh2rcd13ifvqfk0","pricing_plan_id":"cebpf4jnsgd1na2vs0mg"},{"bike_id":"2ada218c-4e3e-433b-a33e-91e0fed6090b","system_id":"levelo_inurba_marseille","lat":43.29445,"lon":5.39754,"is_reserved":false,"is_disabled":true,"rental_uris":{"android":"levelo://app?vid=2ada218c-4e3e-433b-a33e-91e0fed6090b","ios":"levelo://app?vid=2ada218c-4e3e-433b-a33e-91e0fed6090b"},"vehicle_type_id":"4","last_reported":1742044431,"current_range_meters":9600,"station_id":"ce4bh3h2rcd13ifvqdo0","pricing_plan_id":"cebpf4jnsgd1na2vs0mg"},{"bike_id":"4ac8c1b6-ca6d-4b44-acdc-92b6c4480949","system_id":"levelo_inurba_marseille","lat":43.28854,"lon":5.35863,"is_reserved":false,"is_disabled":false,"rental_uris":{"android":"levelo://app?vid=4ac8c1b6-ca6d-4b44-acdc-92b6c4480949","ios":"levelo://app?vid=4ac8c1b6-ca6d-4b44-acdc-92b6c4480949"},"vehicle_type_id":"4","last_reported":1742044431,"current_range_meters":9200,"station_id":"ce4bhb12rcd13ifvqem0","pricing_plan_id":"cebpf4jnsgd1na2vs0mg"},{"bike_id":"93cadb3d-8b33-4311-8ba3-aaa3811fbfc8","system_id":"levelo_inurba_marseille","lat":43.22837,"lon":5.40222,"is_reserved":false,"is_disabled":false,"rental_uris":{"android":"levelo://app?vid=93cadb3d-8b33-4311-8ba3-aaa3811fbfc8","ios":"levelo://app?vid=93cadb3d-8b33-4311-8ba3-aaa3811fbfc8"},"vehicle_type_id":"4","last_reported":1742044431,"current_range_meters":10000,"station_id":"ce4bhn12rcd13ifvqgqg","pricing_plan_id":"cebpf4jnsgd1na2vs0mg"},{"bike_id":"cd2eb4ba-77cf-40ae-a991-34cec5701430","system_id":"levelo_inurba_marseille","lat":43.23156,"lon":5.43716,"is_reserved":false,"is_disabled":false,"rental_uris":{"android":"levelo://app?vid=cd2eb4ba-77cf-40ae-a991-34cec5701430","ios":"levelo://app?vid=cd2eb4ba-77cf-40ae-a991-34cec5701430"},"vehicle_type_id":"4","last_reported":1742044431,"current_range_meters":10000,"station_id":"ce4bhmp2rcd13ifvqgog","pricing_plan_id":"cebpf4jnsgd1na2vs0mg"},{"bike_id":"d6709320-a06e-41cc-b4b7-1e67241b3c72","system_id":"levelo_inurba_marseille","lat":43.27616,"lon":5.36107,"is_reserved":false,"is_disabled":false,"rental_uris":{"android":"levelo://app?vid=d6709320-a06e-41cc-b4b7-1e67241b3c72","ios":"levelo://app?vid=d6709320-a06e-41cc-b4b7-1e67241b3c72"},"vehicle_type_id":"4","last_reported":1742044431,"current_range_meters":10000,"station_id":"ce4bgj92rcd13ifvqbe0","pricing_plan_id":"cebpf4jnsgd1na2vs0mg"},{"bike_id":"269491db-b98a-49e3-a3b5-e04159ff8cbf","system_id":"levelo_inurba_marseille","lat":43.26935,"lon":5.40247,"is_reserved":false,"is_disabled":false,"rental_uris":{"android":"levelo://app?vid=269491db-b98a-49e3-a3b5-e04159ff8cbf","ios":"levelo://app?vid=269491db-b98a-49e3-a3b5-e04159ff8cbf"},"vehicle_type_id":"4","last_reported":1742044431,"current_range_meters":10000,"station_id":"cjm6bp8fraef2m0cb0m0","pricing_plan_id":"cebpf4jnsgd1na2vs0mg"},{"bike_id":"3034db0c-7cfa-4361-a8e5-85d8b0635402","system_id":"levelo_inurba_marseille","lat":43.23962,"lon":5.36625,"is_reserved":false,"is_disabled":false,"rental_uris":{"android":"levelo://app?vid=3034db0c-7cfa-4361-a8e5-85d8b0635402","ios":"levelo://app?vid=3034db0c-7cfa-4361-a8e5-85d8b0635402"},"vehicle_type_id":"4","last_reported":1742044431,"current_range_meters":10000,"station_id":"ce4bhi12rcd13ifvqfp0","pricing_plan_id":"cebpf4jnsgd1na2vs0mg"},{"bike_id":"49a173d9-c0ae-4f30-8906-a1ef20c838ce","system_id":"levelo_inurba_marseille","lat":43.29604,"lon":5.37706,"is_reserved":false,"is_disabled":false,"rental_uris":{"android":"levelo://app?vid=49a173d9-c0ae-4f30-8906-a1ef20c838ce","ios":"levelo://app?vid=49a173d9-c0ae-4f30-8906-a1ef20c838ce"},"vehicle_type_id":"4","last_reported":1742044431,"current_range_meters":10000,"station_id":"ce4bgi92rcd13ifvqb90","pricing_plan_id":"cebpf4jnsgd1na2vs0mg"},{"bike_id":"ce1d1752-d2f2-4c79-8c54-141795a38941","system_id":"levelo_inurba_marseille","lat":43.29915,"lon":5.38159,"is_reserved":false,"is_disabled":false,"rental_uris":{"android":"levelo://app?vid=ce1d1752-d2f2-4c79-8c54-141795a38941","ios":"levelo://app?vid=ce1d1752-d2f2-4c79-8c54-141795a38941"},"vehicle_type_id":"4","last_reported":1742044431,"current_range_meters":10000,"station_id":"ce4bgj12rcd13ifvqbc0","pricing_plan_id":"cebpf4jnsgd1na2vs0mg"},{"bike_id":"470faf27-20d1-49a6-8359-d8a368483abf","system_id":"levelo_inurba_marseille","lat":43.29915,"lon":5.37481,"is_reserved":false,"is_disabled":false,"rental_uris":{"android":"levelo://app?vid=470faf27-20d1-49a6-8359-d8a368483abf","ios":"levelo://app?vid=470faf27-20d1-49a6-8359-d8a368483abf"},"vehicle_type_id":"4","last_reported":1742044431,"current_range_meters":10000,"station_id":"ce4bgjh2rcd13ifvqbg0","pricing_plan_id":"cebpf4jnsgd1na2vs0mg"},{"bike_id":"0b7bfdb8-fd03-4687-9225-8085184f929c","system_id":"levelo_inurba_marseille","lat":43.32358,"lon":5.36766,"is_reserved":false,"is_disabled":false,"rental_uris":{"android":"levelo://app?vid=0b7bfdb8-fd03-4687-9225-8085184f929c","ios":"levelo://app?vid=0b7bfdb8-fd03-4687-9225-8085184f929c"},"vehicle_type_id":"4","last_reported":1742044431,"current_range_meters":10800,"station_id":"ce4bhsh2rcd13ifvqi2g","pricing_plan_id":"cebpf4jnsgd1na2vs0mg"},{"bike_id":"50c97caa-ca8a-4b03-99d5-4678c955e14d","system_id":"levelo_inurba_marseille","lat":43.24807,"lon":5.37449,"is_reserved":false,"is_disabled":false,"rental_uris":{"android":"levelo://app?vid=50c97caa-ca8a-4b03-99d5-4678c955e14d","ios":"levelo://app?vid=50c97caa-ca8a-4b03-99d5-4678c955e14d"},"vehicle_type_id":"4","last_reported":1742044431,"current_range_meters":10800,"station_id":"ce4bhgh2rcd13ifvqfb0","pricing_plan_id":"cebpf4jnsgd1na2vs0mg"},{"bike_id":"d0915976-a2a8-41f1-a9d9-b0708b870040","system_id":"levelo_inurba_marseille","lat":43.23144,"lon":5.4373,"is_reserved":false,"is_disabled":false,"rental_uris":{"android":"levelo://app?vid=d0915976-a2a8-41f1-a9d9-b0708b870040","ios":"levelo://app?vid=d0915976-a2a8-41f1-a9d9-b0708b870040"},"vehicle_type_id":"4","last_reported":1742044431,"current_range_meters":10800,"station_id":"ce4bhmp2rcd13ifvqgog","pricing_plan_id":"cebpf4jnsgd1na2vs0mg"},{"bike_id":"83783ead-721f-4d82-86e9-a8ac641b2edd","system_id":"levelo_inurba_marseille","lat":43.26225,"lon":5.4046,"is_reserved":false,"is_disabled":false,"rental_uris":{"android":"levelo://app?vid=83783ead-721f-4d82-86e9-a8ac641b2edd","ios":"levelo://app?vid=83783ead-721f-4d82-86e9-a8ac641b2edd"},"vehicle_type_id":"4","last_reported":1742044431,"current_range_meters":10800,"station_id":"ce4bhmh2rcd13ifvqgmg","pricing_plan_id":"cebpf4jnsgd1na2vs0mg"},{"bike_id":"7969ff6a-16e3-4cd5-83c3-64031b84a702","system_id":"levelo_inurba_marseille","lat":43.30283,"lon":5.39732,"is_reserved":false,"is_disabled":false,"rental_uris":{"android":"levelo://app?vid=7969ff6a-16e3-4cd5-83c3-64031b84a702","ios":"levelo://app?vid=7969ff6a-16e3-4cd5-83c3-64031b84a702"},"vehicle_type_id":"4","last_reported":1742044431,"current_range_meters":11200,"station_id":"","pricing_plan_id":"cebpf4jnsgd1na2vs0mg"},{"bike_id":"e52b41b5-52df-4c67-a85c-3cebb3bf7504","system_id":"levelo_inurba_marseille","lat":43.32331,"lon":5.36781,"is_reserved":false,"is_disabled":false,"rental_uris":{"android":"levelo://app?vid=e52b41b5-52df-4c67-a85c-3cebb3bf7504","ios":"levelo://app?vid=e52b41b5-52df-4c67-a85c-3cebb3bf7504"},"vehicle_type_id":"4","last_reported":1742044431,"current_range_meters":11200,"station_id":"ce4bhsh2rcd13ifvqi2g","pricing_plan_id":"cebpf4jnsgd1na2vs0mg"},{"bike_id":"36d03943-6af9-4d01-8fa8-963f349fa116","system_id":"levelo_inurba_marseille","lat":43.28957,"lon":5.3639,"is_reserved":false,"is_disabled":false,"rental_uris":{"android":"levelo://app?vid=36d03943-6af9-4d01-8fa8-963f349fa116","ios":"levelo://app?vid=36d03943-6af9-4d01-8fa8-963f349fa116"},"vehicle_type_id":"4","last_reported":1742044431,"current_range_meters":11200,"station_id":"ce4bhc92rcd13ifvqetg","pricing_plan_id":"cebpf4jnsgd1na2vs0mg"},{"bike_id":"52cb1cd8-f5b7-45e2-a9ce-6a35a5e5ae5e","system_id":"levelo_inurba_marseille","lat":43.2957,"lon":5.37498,"is_reserved":false,"is_disabled":false,"rental_uris":{"android":"levelo://app?vid=52cb1cd8-f5b7-45e2-a9ce-6a35a5e5ae5e","ios":"levelo://app?vid=52cb1cd8-f5b7-45e2-a9ce-6a35a5e5ae5e"},"vehicle_type_id":"4","last_reported":1742044431,"current_range_meters":11200,"station_id":"ce4bgh92rcd13ifvqb50","pricing_plan_id":"cebpf4jnsgd1na2vs0mg"},{"bike_id":"9085bc9b-c962-47c8-afb9-3e8b21e30bc4","system_id":"levelo_inurba_marseille","lat":43.28416,"lon":5.34979,"is_reserved":false,"is_disabled":false,"rental_uris":{"android":"levelo://app?vid=9085bc9b-c962-47c8-afb9-3e8b21e30bc4","ios":"levelo://app?vid=9085bc9b-c962-47c8-afb9-3e8b21e30bc4"},"vehicle_type_id":"4","last_reported":1742044431,"current_range_meters":11200,"station_id":"ce4bhbh2rcd13ifvqepg","pricing_plan_id":"cebpf4jnsgd1na2vs0mg"},{"bike_id":"7c5f1502-63c8-4daa-994a-c3d2258588bf","system_id":"levelo_inurba_marseille","lat":43.2293,"lon":5.35373,"is_reserved":false,"is_disabled":false,"rental_uris":{"android":"levelo://app?vid=7c5f1502-63c8-4daa-994a-c3d2258588bf","ios":"levelo://app?vid=7c5f1502-63c8-4daa-994a-c3d2258588bf"},"vehicle_type_id":"4","last_reported":1742044431,"current_range_meters":11200,"station_id":"cpo3532slgdg3j2ikp40","pricing_plan_id":"cebpf4jnsgd1na2vs0mg"},{"bike_id":"5575c284-fe81-4b1f-a690-acfb139e1b48","system_id":"levelo_inurba_marseille","lat":43.26193,"lon":5.37447,"is_reserved":false,"is_disabled":false,"rental_uris":{"android":"levelo://app?vid=5575c284-fe81-4b1f-a690-acfb139e1b48","ios":"levelo://app?vid=5575c284-fe81-4b1f-a690-acfb139e1b48"},"vehicle_type_id":"4","last_reported":1742044431,"current_range_meters":11600,"station_id":"ce4bhgp2rcd13ifvqfc0","pricing_plan_id":"cebpf4jnsgd1na2vs0mg"},{"bike_id":"0ae3592b-68a1-48e4-a20c-864f2d68cf48","system_id":"levelo_inurba_marseille","lat":43.29277,"lon":5.3685,"is_reserved":false,"is_disabled":false,"rental_uris":{"android":"levelo://app?vid=0ae3592b-68a1-48e4-a20c-864f2d68cf48","ios":"levelo://app?vid=0ae3592b-68a1-48e4-a20c-864f2d68cf48"},"vehicle_type_id":"4","last_reported":1742044431,"current_range_meters":11600,"station_id":"ce4bhbp2rcd13ifvqesg","pricing_plan_id":"cebpf4jnsgd1na2vs0mg"},{"bike_id":"d3f6e1cb-1a86-49ae-ad05-aae63d8010ba","system_id":"levelo_inurba_marseille","lat":43.30415,"lon":5.4128,"is_reserved":false,"is_disabled":false,"rental_uris":{"android":"levelo://app?vid=d3f6e1cb-1a86-49ae-ad05-aae63d8010ba","ios":"levelo://app?vid=d3f6e1cb-1a86-49ae-ad05-aae63d8010ba"},"vehicle_type_id":"4","last_reported":1742044431,"current_range_meters":11600,"station_id":"ce4bhop2rcd13ifvqh8g","pricing_plan_id":"cebpf4jnsgd1na2vs0mg"},{"bike_id":"5efcdc6d-0fad-43e0-9e69-5807f2e3baf5","system_id":"levelo_inurba_marseille","lat":43.24802,"lon":5.3745,"is_reserved":false,"is_disabled":false,"rental_uris":{"android":"levelo://app?vid=5efcdc6d-0fad-43e0-9e69-5807f2e3baf5","ios":"levelo://app?vid=5efcdc6d-0fad-43e0-9e69-5807f2e3baf5"},"vehicle_type_id":"4","last_reported":1742044431,"current_range_meters":11600,"station_id":"ce4bhgh2rcd13ifvqfb0","pricing_plan_id":"cebpf4jnsgd1na2vs0mg"},{"bike_id":"0a7cc9fe-0520-4e8f-a42c-b3b6e03897c6","system_id":"levelo_inurba_marseille","lat":43.29104,"lon":5.38134,"is_reserved":false,"is_disabled":false,"rental_uris":{"android":"levelo://app?vid=0a7cc9fe-0520-4e8f-a42c-b3b6e03897c6","ios":"levelo://app?vid=0a7cc9fe-0520-4e8f-a42c-b3b6e03897c6"},"vehicle_type_id":"4","last_reported":1742044431,"current_range_meters":11600,"station_id":"ce4bh512rcd13ifvqe2g","pricing_plan_id":"cebpf4jnsgd1na2vs0mg"},{"bike_id":"207ff685-fea2-400d-a527-2ca50e85cc17","system_id":"levelo_inurba_marseille","lat":43.255,"lon":5.37651,"is_reserved":false,"is_disabled":false,"rental_uris":{"android":"levelo://app?vid=207ff685-fea2-400d-a527-2ca50e85cc17","ios":"levelo://app?vid=207ff685-fea2-400d-a527-2ca50e85cc17"},"vehicle_type_id":"4","last_reported":1742044431,"current_range_meters":12000,"station_id":"ce4bhh12rcd13ifvqff0","pricing_plan_id":"cebpf4jnsgd1na2vs0mg"},{"bike_id":"1742665e-3cf5-4d91-9f4d-8afacbb37c97","system_id":"levelo_inurba_marseille","lat":43.30299,"lon":5.39247,"is_reserved":false,"is_disabled":false,"rental_uris":{"android":"levelo://app?vid=1742665e-3cf5-4d91-9f4d-8afacbb37c97","ios":"levelo://app?vid=1742665e-3cf5-4d91-9f4d-8afacbb37c97"},"vehicle_type_id":"4","last_reported":1742044431,"current_range_meters":12000,"station_id":"ce4bgkh2rcd13ifvqbk0","pricing_plan_id":"cebpf4jnsgd1na2vs0mg"},{"bike_id":"57f16d46-9a26-4a0f-bbd4-4019fba41bd5","system_id":"levelo_inurba_marseille","lat":43.23967,"lon":5.36631,"is_reserved":false,"is_disabled":false,"rental_uris":{"android":"levelo://app?vid=57f16d46-9a26-4a0f-bbd4-4019fba41bd5","ios":"levelo://app?vid=57f16d46-9a26-4a0f-bbd4-4019fba41bd5"},"vehicle_type_id":"4","last_reported":1742044431,"current_range_meters":12000,"station_id":"ce4bhi12rcd13ifvqfp0","pricing_plan_id":"cebpf4jnsgd1na2vs0mg"},{"bike_id":"46ff52d3-5d32-4156-8670-e873addbe3c7","system_id":"levelo_inurba_marseille","lat":43.29223,"lon":5.36061,"is_reserved":false,"is_disabled":false,"rental_uris":{"android":"levelo://app?vid=46ff52d3-5d32-4156-8670-e873addbe3c7","ios":"levelo://app?vid=46ff52d3-5d32-4156-8670-e873addbe3c7"},"vehicle_type_id":"4","last_reported":1742044431,"current_range_meters":12000,"station_id":"ce4bhbh2rcd13ifvqeqg","pricing_plan_id":"cebpf4jnsgd1na2vs0mg"},{"bike_id":"3b004741-7683-4cd9-a9e4-276a9e3e0326","system_id":"levelo_inurba_marseille","lat":43.27619,"lon":5.36112,"is_reserved":false,"is_disabled":false,"rental_uris":{"android":"levelo://app?vid=3b004741-7683-4cd9-a9e4-276a9e3e0326","ios":"levelo://app?vid=3b004741-7683-4cd9-a9e4-276a9e3e0326"},"vehicle_type_id":"4","last_reported":1742044431,"current_range_meters":12000,"station_id":"ce4bgj92rcd13ifvqbe0","pricing_plan_id":"cebpf4jnsgd1na2vs0mg"},{"bike_id":"35170032-9fbd-466b-b080-21388ed7720a","system_id":"levelo_inurba_marseille","lat":43.25071,"lon":5.39507,"is_reserved":false,"is_disabled":false,"rental_uris":{"android":"levelo://app?vid=35170032-9fbd-466b-b080-21388ed7720a","ios":"levelo://app?vid=35170032-9fbd-466b-b080-21388ed7720a"},"vehicle_type_id":"4","last_reported":1742044431,"current_range_meters":12400,"station_id":"ce4bhm12rcd13ifvqgkg","pricing_plan_id":"cebpf4jnsgd1na2vs0mg"},{"bike_id":"92470e55-9ef4-4e62-8ace-777e6d5a53c4","system_id":"levelo_inurba_marseille","lat":43.25859,"lon":5.39902,"is_reserved":false,"is_disabled":false,"rental_uris":{"android":"levelo://app?vid=92470e55-9ef4-4e62-8ace-777e6d5a53c4","ios":"levelo://app?vid=92470e55-9ef4-4e62-8ace-777e6d5a53c4"},"vehicle_type_id":"4","last_reported":1742044431,"current_range_meters":12400,"station_id":"ce4bhl92rcd13ifvqghg","pricing_plan_id":"cebpf4jnsgd1na2vs0mg"},{"bike_id":"5f7f03a2-add7-44f0-9ebb-8428c5f0e58a","system_id":"levelo_inurba_marseille","lat":43.25932,"lon":5.40896,"is_reserved":false,"is_disabled":false,"rental_uris":{"android":"levelo://app?vid=5f7f03a2-add7-44f0-9ebb-8428c5f0e58a","ios":"levelo://app?vid=5f7f03a2-add7-44f0-9ebb-8428c5f0e58a"},"vehicle_type_id":"4","last_reported":1742044431,"current_range_meters":12400,"station_id":"ce4bhm92rcd13ifvqglg","pricing_plan_id":"cebpf4jnsgd1na2vs0mg"},{"bike_id":"ca91ac46-b4e6-4182-94f9-487dff58ecbe","system_id":"levelo_inurba_marseille","lat":43.24386,"lon":5.37068,"is_reserved":false,"is_disabled":false,"rental_uris":{"android":"levelo://app?vid=ca91ac46-b4e6-4182-94f9-487dff58ecbe","ios":"levelo://app?vid=ca91ac46-b4e6-4182-94f9-487dff58ecbe"},"vehicle_type_id":"4","last_reported":1742044431,"current_range_meters":12400,"station_id":"ce4bhhh2rcd13ifvqfk0","pricing_plan_id":"cebpf4jnsgd1na2vs0mg"},{"bike_id":"e2461e35-53b7-42f4-97f1-da527f694ed0","system_id":"levelo_inurba_marseille","lat":43.28419,"lon":5.34994,"is_reserved":false,"is_disabled":false,"rental_uris":{"android":"levelo://app?vid=e2461e35-53b7-42f4-97f1-da527f694ed0","ios":"levelo://app?vid=e2461e35-53b7-42f4-97f1-da527f694ed0"},"vehicle_type_id":"4","last_reported":1742044431,"current_range_meters":12400,"station_id":"ce4bhbh2rcd13ifvqepg","pricing_plan_id":"cebpf4jnsgd1na2vs0mg"},{"bike_id":"468fe531-6157-4d4b-99a2-cb4b1043fa5c","system_id":"levelo_inurba_marseille","lat":43.24394,"lon":5.37052,"is_reserved":false,"is_disabled":false,"rental_uris":{"android":"levelo://app?vid=468fe531-6157-4d4b-99a2-cb4b1043fa5c","ios":"levelo://app?vid=468fe531-6157-4d4b-99a2-cb4b1043fa5c"},"vehicle_type_id":"4","last_reported":1742044431,"current_range_meters":12800,"station_id":"ce4bhhh2rcd13ifvqfk0","pricing_plan_id":"cebpf4jnsgd1na2vs0mg"},{"bike_id":"d751a31e-a518-44cc-8641-315d036d1e06","system_id":"levelo_inurba_marseille","lat":43.29887,"lon":5.39756,"is_reserved":false,"is_disabled":false,"rental_uris":{"android":"levelo://app?vid=d751a31e-a518-44cc-8641-315d036d1e06","ios":"levelo://app?vid=d751a31e-a518-44cc-8641-315d036d1e06"},"vehicle_type_id":"4","last_reported":1742044431,"current_range_meters":12800,"station_id":"ce4bh0h2rcd13ifvqd50","pricing_plan_id":"cebpf4jnsgd1na2vs0mg"},{"bike_id":"3f51f1f5-7a39-4364-adc9-c4c0ef6e90b0","system_id":"levelo_inurba_marseille","lat":43.28616,"lon":5.35101,"is_reserved":false,"is_disabled":false,"rental_uris":{"android":"levelo://app?vid=3f51f1f5-7a39-4364-adc9-c4c0ef6e90b0","ios":"levelo://app?vid=3f51f1f5-7a39-4364-adc9-c4c0ef6e90b0"},"vehicle_type_id":"4","last_reported":1742044431,"current_range_meters":12800,"station_id":"ce4bhch2rcd13ifvqeug","pricing_plan_id":"cebpf4jnsgd1na2vs0mg"},{"bike_id":"9505eced-9fb3-43d1-aac0-f8fa2550951c","system_id":"levelo_inurba_marseille","lat":43.30575,"lon":5.41873,"is_reserved":false,"is_disabled":false,"rental_uris":{"android":"levelo://app?vid=9505eced-9fb3-43d1-aac0-f8fa2550951c","ios":"levelo://app?vid=9505eced-9fb3-43d1-aac0-f8fa2550951c"},"vehicle_type_id":"4","last_reported":1742044431,"current_range_meters":12800,"station_id":"","pricing_plan_id":"cebpf4jnsgd1na2vs0mg"},{"bike_id":"122f324b-9e2e-447e-869a-ada3577d317f","system_id":"levelo_inurba_marseille","lat":43.292484,"lon":5.361932,"is_reserved":false,"is_disabled":false,"rental_uris":{"android":"levelo://app?vid=122f324b-9e2e-447e-869a-ada3577d317f","ios":"levelo://app?vid=122f324b-9e2e-447e-869a-ada3577d317f"},"vehicle_type_id":"4","last_reported":1742044431,"current_range_meters":12800,"station_id":"ce4bhbp2rcd13ifvqesg","pricing_plan_id":"cebpf4jnsgd1na2vs0mg"},{"bike_id":"f847046e-aaf2-4cf3-86cc-828825753e44","system_id":"levelo_inurba_marseille","lat":43.3188,"lon":5.40737,"is_reserved":false,"is_disabled":false,"rental_uris":{"android":"levelo://app?vid=f847046e-aaf2-4cf3-86cc-828825753e44","ios":"levelo://app?vid=f847046e-aaf2-4cf3-86cc-828825753e44"},"vehicle_type_id":"4","last_reported":1742044431,"current_range_meters":12400,"station_id":"ce4bhq12rcd13ifvqhig","pricing_plan_id":"cebpf4jnsgd1na2vs0mg"},{"bike_id":"b195f66c-576e-4665-866b-689b7c9c318a","system_id":"levelo_inurba_marseille","lat":43.27318,"lon":5.39073,"is_reserved":false,"is_disabled":false,"rental_uris":{"android":"levelo://app?vid=b195f66c-576e-4665-866b-689b7c9c318a","ios":"levelo://app?vid=b195f66c-576e-4665-866b-689b7c9c318a"},"vehicle_type_id":"4","last_reported":1742044431,"current_range_meters":12800,"station_id":"ce4bhgp2rcd13ifvqfe0","pricing_plan_id":"cebpf4jnsgd1na2vs0mg"},{"bike_id":"31710fca-ccfa-43a5-ac6f-5ec923018ebf","system_id":"levelo_inurba_marseille","lat":43.27415,"lon":5.42058,"is_reserved":false,"is_disabled":false,"rental_uris":{"android":"levelo://app?vid=31710fca-ccfa-43a5-ac6f-5ec923018ebf","ios":"levelo://app?vid=31710fca-ccfa-43a5-ac6f-5ec923018ebf"},"vehicle_type_id":"4","last_reported":1742044431,"current_range_meters":12800,"station_id":"","pricing_plan_id":"cebpf4jnsgd1na2vs0mg"},{"bike_id":"5040a28b-2948-44a5-b2ab-78cb99e37b1a","system_id":"levelo_inurba_marseille","lat":43.26483,"lon":5.3957,"is_reserved":false,"is_disabled":false,"rental_uris":{"android":"levelo://app?vid=5040a28b-2948-44a5-b2ab-78cb99e37b1a","ios":"levelo://app?vid=5040a28b-2948-44a5-b2ab-78cb99e37b1a"},"vehicle_type_id":"4","last_reported":1742044431,"current_range_meters":13600,"station_id":"ce4bhi12rcd13ifvqfq0","pricing_plan_id":"cebpf4jnsgd1na2vs0mg"},{"bike_id":"c019f429-c762-4390-b156-7700d0359f38","system_id":"levelo_inurba_marseille","lat":43.29584,"lon":5.37514,"is_reserved":false,"is_disabled":false,"rental_uris":{"android":"levelo://app?vid=c019f429-c762-4390-b156-7700d0359f38","ios":"levelo://app?vid=c019f429-c762-4390-b156-7700d0359f38"},"vehicle_type_id":"4","last_reported":1742044431,"current_range_meters":13600,"station_id":"ce4bgh92rcd13ifvqb50","pricing_plan_id":"cebpf4jnsgd1na2vs0mg"},{"bike_id":"e02a9f6d-5ee3-4f34-9818-224fb6a8dd66","system_id":"levelo_inurba_marseille","lat":43.24388,"lon":5.37065,"is_reserved":false,"is_disabled":false,"rental_uris":{"android":"levelo://app?vid=e02a9f6d-5ee3-4f34-9818-224fb6a8dd66","ios":"levelo://app?vid=e02a9f6d-5ee3-4f34-9818-224fb6a8dd66"},"vehicle_type_id":"4","last_reported":1742044431,"current_range_meters":13600,"station_id":"ce4bhhh2rcd13ifvqfk0","pricing_plan_id":"cebpf4jnsgd1na2vs0mg"},{"bike_id":"a47e6c33-6f3e-4858-bb56-70e4acc391c5","system_id":"levelo_inurba_marseille","lat":43.23196,"lon":5.35557,"is_reserved":false,"is_disabled":false,"rental_uris":{"android":"levelo://app?vid=a47e6c33-6f3e-4858-bb56-70e4acc391c5","ios":"levelo://app?vid=a47e6c33-6f3e-4858-bb56-70e4acc391c5"},"vehicle_type_id":"4","last_reported":1742044431,"current_range_meters":13600,"station_id":"ce4bhu92rcd13ifvqi70","pricing_plan_id":"cebpf4jnsgd1na2vs0mg"},{"bike_id":"b1749b95-948e-48a3-828f-fc1248c6d71c","system_id":"levelo_inurba_marseille","lat":43.23967,"lon":5.3663,"is_reserved":false,"is_disabled":false,"rental_uris":{"android":"levelo://app?vid=b1749b95-948e-48a3-828f-fc1248c6d71c","ios":"levelo://app?vid=b1749b95-948e-48a3-828f-fc1248c6d71c"},"vehicle_type_id":"4","last_reported":1742044431,"current_range_meters":13600,"station_id":"ce4bhi12rcd13ifvqfp0","pricing_plan_id":"cebpf4jnsgd1na2vs0mg"},{"bike_id":"de993bef-b622-41a3-b542-0519e640e9d1","system_id":"levelo_inurba_marseille","lat":43.28941,"lon":5.36631,"is_reserved":false,"is_disabled":false,"rental_uris":{"android":"levelo://app?vid=de993bef-b622-41a3-b542-0519e640e9d1","ios":"levelo://app?vid=de993bef-b622-41a3-b542-0519e640e9d1"},"vehicle_type_id":"4","last_reported":1742044431,"current_range_meters":12800,"station_id":"ce4bhap2rcd13ifvqek0","pricing_plan_id":"cebpf4jnsgd1na2vs0mg"},{"bike_id":"a3ce399e-6803-44f4-a5da-ebc3a05bd7be","system_id":"levelo_inurba_marseille","lat":43.29296,"lon":5.42755,"is_reserved":false,"is_disabled":false,"rental_uris":{"android":"levelo://app?vid=a3ce399e-6803-44f4-a5da-ebc3a05bd7be","ios":"levelo://app?vid=a3ce399e-6803-44f4-a5da-ebc3a05bd7be"},"vehicle_type_id":"4","last_reported":1742044431,"current_range_meters":14000,"station_id":"","pricing_plan_id":"cebpf4jnsgd1na2vs0mg"},{"bike_id":"82de0703-de1d-4278-8ec2-c06289895ab8","system_id":"levelo_inurba_marseille","lat":43.301323,"lon":5.374207,"is_reserved":false,"is_disabled":false,"rental_uris":{"android":"levelo://app?vid=82de0703-de1d-4278-8ec2-c06289895ab8","ios":"levelo://app?vid=82de0703-de1d-4278-8ec2-c06289895ab8"},"vehicle_type_id":"4","last_reported":1742044431,"current_range_meters":14000,"station_id":"ce4bgs92rcd13ifvqcc0","pricing_plan_id":"cebpf4jnsgd1na2vs0mg"},{"bike_id":"74f2950d-f639-4809-bff2-7e52cd116e06","system_id":"levelo_inurba_marseille","lat":43.23143,"lon":5.43728,"is_reserved":false,"is_disabled":false,"rental_uris":{"android":"levelo://app?vid=74f2950d-f639-4809-bff2-7e52cd116e06","ios":"levelo://app?vid=74f2950d-f639-4809-bff2-7e52cd116e06"},"vehicle_type_id":"4","last_reported":1742044431,"current_range_meters":14000,"station_id":"ce4bhmp2rcd13ifvqgog","pricing_plan_id":"cebpf4jnsgd1na2vs0mg"},{"bike_id":"71b342b8-694b-40d5-99e8-310baf77a970","system_id":"levelo_inurba_marseille","lat":43.23056,"lon":5.3549,"is_reserved":false,"is_disabled":false,"rental_uris":{"android":"levelo://app?vid=71b342b8-694b-40d5-99e8-310baf77a970","ios":"levelo://app?vid=71b342b8-694b-40d5-99e8-310baf77a970"},"vehicle_type_id":"4","last_reported":1742044431,"current_range_meters":14000,"station_id":"cpo3342slgdg3j2ifvpg","pricing_plan_id":"cebpf4jnsgd1na2vs0mg"},{"bike_id":"e483982f-da76-4265-88e6-49e56c4e886b","system_id":"levelo_inurba_marseille","lat":43.29861,"lon":5.38192,"is_reserved":false,"is_disabled":false,"rental_uris":{"android":"levelo://app?vid=e483982f-da76-4265-88e6-49e56c4e886b","ios":"levelo://app?vid=e483982f-da76-4265-88e6-49e56c4e886b"},"vehicle_type_id":"4","last_reported":1742044431,"current_range_meters":14000,"station_id":"","pricing_plan_id":"cebpf4jnsgd1na2vs0mg"},{"bike_id":"7c5116d3-7c0e-4277-8d5d-4629e2e7f19e","system_id":"levelo_inurba_marseille","lat":43.24651,"lon":5.3889,"is_reserved":false,"is_disabled":false,"rental_uris":{"android":"levelo://app?vid=7c5116d3-7c0e-4277-8d5d-4629e2e7f19e","ios":"levelo://app?vid=7c5116d3-7c0e-4277-8d5d-4629e2e7f19e"},"vehicle_type_id":"4","last_reported":1742044431,"current_range_meters":14000,"station_id":"ce4bhg12rcd13ifvqf60","pricing_plan_id":"cebpf4jnsgd1na2vs0mg"},{"bike_id":"90c707aa-0edc-4e94-a911-252e6bd4d4c2","system_id":"levelo_inurba_marseille","lat":43.28623,"lon":5.3511,"is_reserved":false,"is_disabled":false,"rental_uris":{"android":"levelo://app?vid=90c707aa-0edc-4e94-a911-252e6bd4d4c2","ios":"levelo://app?vid=90c707aa-0edc-4e94-a911-252e6bd4d4c2"},"vehicle_type_id":"4","last_reported":1742044431,"current_range_meters":14000,"station_id":"ce4bhch2rcd13ifvqeug","pricing_plan_id":"cebpf4jnsgd1na2vs0mg"},{"bike_id":"fc071de1-2cc0-488a-a43e-f8037a5a9a49","system_id":"levelo_inurba_marseille","lat":43.23068,"lon":5.35474,"is_reserved":false,"is_disabled":false,"rental_uris":{"android":"levelo://app?vid=fc071de1-2cc0-488a-a43e-f8037a5a9a49","ios":"levelo://app?vid=fc071de1-2cc0-488a-a43e-f8037a5a9a49"},"vehicle_type_id":"4","last_reported":1742044431,"current_range_meters":14000,"station_id":"cpo3342slgdg3j2ifvpg","pricing_plan_id":"cebpf4jnsgd1na2vs0mg"},{"bike_id":"174c9c66-b172-484e-b7f9-5752aa18aabf","system_id":"levelo_inurba_marseille","lat":43.23071,"lon":5.35492,"is_reserved":false,"is_disabled":false,"rental_uris":{"android":"levelo://app?vid=174c9c66-b172-484e-b7f9-5752aa18aabf","ios":"levelo://app?vid=174c9c66-b172-484e-b7f9-5752aa18aabf"},"vehicle_type_id":"4","last_reported":1742044431,"current_range_meters":14000,"station_id":"cpo3342slgdg3j2ifvpg","pricing_plan_id":"cebpf4jnsgd1na2vs0mg"},{"bike_id":"f313e511-70a9-4d28-9105-f80f9ce3e50c","system_id":"levelo_inurba_marseille","lat":43.23946,"lon":5.36624,"is_reserved":false,"is_disabled":false,"rental_uris":{"android":"levelo://app?vid=f313e511-70a9-4d28-9105-f80f9ce3e50c","ios":"levelo://app?vid=f313e511-70a9-4d28-9105-f80f9ce3e50c"},"vehicle_type_id":"4","last_reported":1742044431,"current_range_meters":14000,"station_id":"ce4bhi12rcd13ifvqfp0","pricing_plan_id":"cebpf4jnsgd1na2vs0mg"},{"bike_id":"308caf01-1ffd-4b59-9b33-1a8cae2cad4b","system_id":"levelo_inurba_marseille","lat":43.24402,"lon":5.37061,"is_reserved":false,"is_disabled":false,"rental_uris":{"android":"levelo://app?vid=308caf01-1ffd-4b59-9b33-1a8cae2cad4b","ios":"levelo://app?vid=308caf01-1ffd-4b59-9b33-1a8cae2cad4b"},"vehicle_type_id":"4","last_reported":1742044431,"current_range_meters":14000,"station_id":"ce4bhhh2rcd13ifvqfk0","pricing_plan_id":"cebpf4jnsgd1na2vs0mg"},{"bike_id":"084e9cd0-ba7b-4410-911b-bd29122b16f6","system_id":"levelo_inurba_marseille","lat":43.24167,"lon":5.36401,"is_reserved":false,"is_disabled":false,"rental_uris":{"android":"levelo://app?vid=084e9cd0-ba7b-4410-911b-bd29122b16f6","ios":"levelo://app?vid=084e9cd0-ba7b-4410-911b-bd29122b16f6"},"vehicle_type_id":"4","last_reported":1742044431,"current_range_meters":14000,"station_id":"cpo36qri1sfpv3e86is0","pricing_plan_id":"cebpf4jnsgd1na2vs0mg"},{"bike_id":"3c50f47a-dcc6-4438-b0ef-14a2ec359a1b","system_id":"levelo_inurba_marseille","lat":43.23202,"lon":5.3556,"is_reserved":false,"is_disabled":false,"rental_uris":{"android":"levelo://app?vid=3c50f47a-dcc6-4438-b0ef-14a2ec359a1b","ios":"levelo://app?vid=3c50f47a-dcc6-4438-b0ef-14a2ec359a1b"},"vehicle_type_id":"4","last_reported":1742044431,"current_range_meters":14000,"station_id":"ce4bhu92rcd13ifvqi70","pricing_plan_id":"cebpf4jnsgd1na2vs0mg"},{"bike_id":"32b1f1a5-8dec-4b97-8e06-918863c4785e","system_id":"levelo_inurba_marseille","lat":43.30882,"lon":5.3719,"is_reserved":false,"is_disabled":false,"rental_uris":{"android":"levelo://app?vid=32b1f1a5-8dec-4b97-8e06-918863c4785e","ios":"levelo://app?vid=32b1f1a5-8dec-4b97-8e06-918863c4785e"},"vehicle_type_id":"4","last_reported":1742044431,"current_range_meters":14000,"station_id":"ce4bguh2rcd13ifvqckg","pricing_plan_id":"cebpf4jnsgd1na2vs0mg"},{"bike_id":"ce022a48-1357-45de-a1db-d68d8fb6a488","system_id":"levelo_inurba_marseille","lat":43.26194,"lon":5.37934,"is_reserved":false,"is_disabled":false,"rental_uris":{"android":"levelo://app?vid=ce022a48-1357-45de-a1db-d68d8fb6a488","ios":"levelo://app?vid=ce022a48-1357-45de-a1db-d68d8fb6a488"},"vehicle_type_id":"4","last_reported":1742044431,"current_range_meters":14000,"station_id":"ce4bhjp2rcd13ifvqg90","pricing_plan_id":"cebpf4jnsgd1na2vs0mg"},{"bike_id":"3a89315b-62de-4a2c-a0ba-c40dd86a913d","system_id":"levelo_inurba_marseille","lat":43.270609,"lon":5.402664,"is_reserved":false,"is_disabled":false,"rental_uris":{"android":"levelo://app?vid=3a89315b-62de-4a2c-a0ba-c40dd86a913d","ios":"levelo://app?vid=3a89315b-62de-4a2c-a0ba-c40dd86a913d"},"vehicle_type_id":"4","last_reported":1742044431,"current_range_meters":14000,"station_id":"ce4bhk92rcd13ifvqgc0","pricing_plan_id":"cebpf4jnsgd1na2vs0mg"},{"bike_id":"e1bc5517-89cc-4fbd-afdb-e8d3c61b8e55","system_id":"levelo_inurba_marseille","lat":43.32355,"lon":5.36761,"is_reserved":false,"is_disabled":false,"rental_uris":{"android":"levelo://app?vid=e1bc5517-89cc-4fbd-afdb-e8d3c61b8e55","ios":"levelo://app?vid=e1bc5517-89cc-4fbd-afdb-e8d3c61b8e55"},"vehicle_type_id":"4","last_reported":1742044431,"current_range_meters":14400,"station_id":"ce4bhsh2rcd13ifvqi2g","pricing_plan_id":"cebpf4jnsgd1na2vs0mg"},{"bike_id":"df2bd365-182b-4a07-b573-1593f98b410a","system_id":"levelo_inurba_marseille","lat":43.28731,"lon":5.36088,"is_reserved":false,"is_disabled":true,"rental_uris":{"android":"levelo://app?vid=df2bd365-182b-4a07-b573-1593f98b410a","ios":"levelo://app?vid=df2bd365-182b-4a07-b573-1593f98b410a"},"vehicle_type_id":"4","last_reported":1742044431,"current_range_meters":14400,"station_id":"cki0cbj6b192h4jlfktg","pricing_plan_id":"cebpf4jnsgd1na2vs0mg"},{"bike_id":"66ae631d-5139-4d1c-8748-baafb64bb7a5","system_id":"levelo_inurba_marseille","lat":43.31724,"lon":5.4239,"is_reserved":false,"is_disabled":false,"rental_uris":{"android":"levelo://app?vid=66ae631d-5139-4d1c-8748-baafb64bb7a5","ios":"levelo://app?vid=66ae631d-5139-4d1c-8748-baafb64bb7a5"},"vehicle_type_id":"4","last_reported":1742044431,"current_range_meters":14400,"station_id":"ce4bhp92rcd13ifvqhbg","pricing_plan_id":"cebpf4jnsgd1na2vs0mg"},{"bike_id":"7711086b-3ec1-4609-9af3-b653dd5d44b7","system_id":"levelo_inurba_marseille","lat":43.29843,"lon":5.36269,"is_reserved":false,"is_disabled":false,"rental_uris":{"android":"levelo://app?vid=7711086b-3ec1-4609-9af3-b653dd5d44b7","ios":"levelo://app?vid=7711086b-3ec1-4609-9af3-b653dd5d44b7"},"vehicle_type_id":"4","last_reported":1742044431,"current_range_meters":14400,"station_id":"ce4bgpp2rcd13ifvqc3g","pricing_plan_id":"cebpf4jnsgd1na2vs0mg"},{"bike_id":"46ac4266-d40a-45fe-9a61-3dc7528dabb0","system_id":"levelo_inurba_marseille","lat":43.30149,"lon":5.38097,"is_reserved":false,"is_disabled":false,"rental_uris":{"android":"levelo://app?vid=46ac4266-d40a-45fe-9a61-3dc7528dabb0","ios":"levelo://app?vid=46ac4266-d40a-45fe-9a61-3dc7528dabb0"},"vehicle_type_id":"4","last_reported":1742044431,"current_range_meters":14800,"station_id":"ce4bgjp2rcd13ifvqbh0","pricing_plan_id":"cebpf4jnsgd1na2vs0mg"},{"bike_id":"46d3c2d9-1401-49e9-abbd-72fb88572b1c","system_id":"levelo_inurba_marseille","lat":43.29845,"lon":5.36281,"is_reserved":false,"is_disabled":false,"rental_uris":{"android":"levelo://app?vid=46d3c2d9-1401-49e9-abbd-72fb88572b1c","ios":"levelo://app?vid=46d3c2d9-1401-49e9-abbd-72fb88572b1c"},"vehicle_type_id":"4","last_reported":1742044431,"current_range_meters":15200,"station_id":"ce4bgpp2rcd13ifvqc3g","pricing_plan_id":"cebpf4jnsgd1na2vs0mg"},{"bike_id":"f238c0df-d3c9-4577-a186-a5d3f05e229a","system_id":"levelo_inurba_marseille","lat":43.25826,"lon":5.3942,"is_reserved":false,"is_disabled":false,"rental_uris":{"android":"levelo://app?vid=f238c0df-d3c9-4577-a186-a5d3f05e229a","ios":"levelo://app?vid=f238c0df-d3c9-4577-a186-a5d3f05e229a"},"vehicle_type_id":"4","last_reported":1742044431,"current_range_meters":15200,"station_id":"ce4bhip2rcd13ifvqft0","pricing_plan_id":"cebpf4jnsgd1na2vs0mg"},{"bike_id":"f709cb7e-4bd4-4503-ab85-447b0bd380b5","system_id":"levelo_inurba_marseille","lat":43.32373,"lon":5.38892,"is_reserved":false,"is_disabled":false,"rental_uris":{"android":"levelo://app?vid=f709cb7e-4bd4-4503-ab85-447b0bd380b5","ios":"levelo://app?vid=f709cb7e-4bd4-4503-ab85-447b0bd380b5"},"vehicle_type_id":"4","last_reported":1742044431,"current_range_meters":15200,"station_id":"ce4bhqp2rcd13ifvqhog","pricing_plan_id":"cebpf4jnsgd1na2vs0mg"},{"bike_id":"efa182c5-e8bb-4316-9ac4-4d06270b10d4","system_id":"levelo_inurba_marseille","lat":43.32359,"lon":5.38901,"is_reserved":false,"is_disabled":false,"rental_uris":{"android":"levelo://app?vid=efa182c5-e8bb-4316-9ac4-4d06270b10d4","ios":"levelo://app?vid=efa182c5-e8bb-4316-9ac4-4d06270b10d4"},"vehicle_type_id":"4","last_reported":1742044431,"current_range_meters":15200,"station_id":"ce4bhqp2rcd13ifvqhog","pricing_plan_id":"cebpf4jnsgd1na2vs0mg"},{"bike_id":"4d20b878-6603-4328-ab6e-4a7ae0b08224","system_id":"levelo_inurba_marseille","lat":43.259401,"lon":5.408924,"is_reserved":false,"is_disabled":false,"rental_uris":{"android":"levelo://app?vid=4d20b878-6603-4328-ab6e-4a7ae0b08224","ios":"levelo://app?vid=4d20b878-6603-4328-ab6e-4a7ae0b08224"},"vehicle_type_id":"4","last_reported":1742044431,"current_range_meters":16000,"station_id":"ce4bhm92rcd13ifvqglg","pricing_plan_id":"cebpf4jnsgd1na2vs0mg"},{"bike_id":"cdf638cb-9734-436e-8417-ae7e9682febe","system_id":"levelo_inurba_marseille","lat":43.24396,"lon":5.37051,"is_reserved":false,"is_disabled":false,"rental_uris":{"android":"levelo://app?vid=cdf638cb-9734-436e-8417-ae7e9682febe","ios":"levelo://app?vid=cdf638cb-9734-436e-8417-ae7e9682febe"},"vehicle_type_id":"4","last_reported":1742044431,"current_range_meters":16000,"station_id":"","pricing_plan_id":"cebpf4jnsgd1na2vs0mg"},{"bike_id":"9b58a3d5-5d1a-4b7b-bd03-4c18297d7097","system_id":"levelo_inurba_marseille","lat":43.29232,"lon":5.36053,"is_reserved":false,"is_disabled":false,"rental_uris":{"android":"levelo://app?vid=9b58a3d5-5d1a-4b7b-bd03-4c18297d7097","ios":"levelo://app?vid=9b58a3d5-5d1a-4b7b-bd03-4c18297d7097"},"vehicle_type_id":"4","last_reported":1742044431,"current_range_meters":16000,"station_id":"ce4bhbh2rcd13ifvqeqg","pricing_plan_id":"cebpf4jnsgd1na2vs0mg"},{"bike_id":"25d0c1d8-6764-49ef-a6d8-1bed49df9fbd","system_id":"levelo_inurba_marseille","lat":43.25101,"lon":5.40321,"is_reserved":false,"is_disabled":false,"rental_uris":{"android":"levelo://app?vid=25d0c1d8-6764-49ef-a6d8-1bed49df9fbd","ios":"levelo://app?vid=25d0c1d8-6764-49ef-a6d8-1bed49df9fbd"},"vehicle_type_id":"4","last_reported":1742044431,"current_range_meters":16000,"station_id":"ce4bhlh2rcd13ifvqgig","pricing_plan_id":"cebpf4jnsgd1na2vs0mg"},{"bike_id":"ae17e381-6228-4f59-918a-def450ba8e17","system_id":"levelo_inurba_marseille","lat":43.28619,"lon":5.35104,"is_reserved":false,"is_disabled":false,"rental_uris":{"android":"levelo://app?vid=ae17e381-6228-4f59-918a-def450ba8e17","ios":"levelo://app?vid=ae17e381-6228-4f59-918a-def450ba8e17"},"vehicle_type_id":"4","last_reported":1742044431,"current_range_meters":16000,"station_id":"ce4bhch2rcd13ifvqeug","pricing_plan_id":"cebpf4jnsgd1na2vs0mg"},{"bike_id":"652231ff-3678-4454-9a1b-b4765150f893","system_id":"levelo_inurba_marseille","lat":43.24391,"lon":5.37066,"is_reserved":false,"is_disabled":false,"rental_uris":{"android":"levelo://app?vid=652231ff-3678-4454-9a1b-b4765150f893","ios":"levelo://app?vid=652231ff-3678-4454-9a1b-b4765150f893"},"vehicle_type_id":"4","last_reported":1742044431,"current_range_meters":16000,"station_id":"ce4bhhh2rcd13ifvqfk0","pricing_plan_id":"cebpf4jnsgd1na2vs0mg"},{"bike_id":"c7ab0012-4a01-4063-938d-fb961da94d4c","system_id":"levelo_inurba_marseille","lat":43.29889,"lon":5.38916,"is_reserved":false,"is_disabled":false,"rental_uris":{"android":"levelo://app?vid=c7ab0012-4a01-4063-938d-fb961da94d4c","ios":"levelo://app?vid=c7ab0012-4a01-4063-938d-fb961da94d4c"},"vehicle_type_id":"4","last_reported":1742044431,"current_range_meters":16000,"station_id":"ce4bh392rcd13ifvqdl0","pricing_plan_id":"cebpf4jnsgd1na2vs0mg"},{"bike_id":"5e2dce2e-feb3-40d7-8e02-e044cc5f4d95","system_id":"levelo_inurba_marseille","lat":43.2722,"lon":5.39202,"is_reserved":false,"is_disabled":false,"rental_uris":{"android":"levelo://app?vid=5e2dce2e-feb3-40d7-8e02-e044cc5f4d95","ios":"levelo://app?vid=5e2dce2e-feb3-40d7-8e02-e044cc5f4d95"},"vehicle_type_id":"4","last_reported":1742044431,"current_range_meters":16000,"station_id":"ce4bhhp2rcd13ifvqfm0","pricing_plan_id":"cebpf4jnsgd1na2vs0mg"},{"bike_id":"e51eba22-620f-4676-b932-36442a1f7348","system_id":"levelo_inurba_marseille","lat":43.2571,"lon":5.41077,"is_reserved":false,"is_disabled":false,"rental_uris":{"android":"levelo://app?vid=e51eba22-620f-4676-b932-36442a1f7348","ios":"levelo://app?vid=e51eba22-620f-4676-b932-36442a1f7348"},"vehicle_type_id":"4","last_reported":1742044431,"current_range_meters":16000,"station_id":"ce4bhkp2rcd13ifvqgd0","pricing_plan_id":"cebpf4jnsgd1na2vs0mg"},{"bike_id":"67ca7154-5ce7-4bfd-a5d8-c4711c5cc893","system_id":"levelo_inurba_marseille","lat":43.26801,"lon":5.40271,"is_reserved":false,"is_disabled":false,"rental_uris":{"android":"levelo://app?vid=67ca7154-5ce7-4bfd-a5d8-c4711c5cc893","ios":"levelo://app?vid=67ca7154-5ce7-4bfd-a5d8-c4711c5cc893"},"vehicle_type_id":"4","last_reported":1742044431,"current_range_meters":16000,"station_id":"ce501612rcd8frsf0b60","pricing_plan_id":"cebpf4jnsgd1na2vs0mg"},{"bike_id":"2fdacfed-fe11-45f6-92aa-7d6ee60d3da8","system_id":"levelo_inurba_marseille","lat":43.26797,"lon":5.40265,"is_reserved":false,"is_disabled":false,"rental_uris":{"android":"levelo://app?vid=2fdacfed-fe11-45f6-92aa-7d6ee60d3da8","ios":"levelo://app?vid=2fdacfed-fe11-45f6-92aa-7d6ee60d3da8"},"vehicle_type_id":"4","last_reported":1742044431,"current_range_meters":16000,"station_id":"ce501612rcd8frsf0b60","pricing_plan_id":"cebpf4jnsgd1na2vs0mg"},{"bike_id":"98ff64ff-7b5d-47f9-a3f8-3d24a2310956","system_id":"levelo_inurba_marseille","lat":43.28483,"lon":5.38556,"is_reserved":false,"is_disabled":false,"rental_uris":{"android":"levelo://app?vid=98ff64ff-7b5d-47f9-a3f8-3d24a2310956","ios":"levelo://app?vid=98ff64ff-7b5d-47f9-a3f8-3d24a2310956"},"vehicle_type_id":"4","last_reported":1742044431,"current_range_meters":16400,"station_id":"ce4bh8p2rcd13ifvqeb0","pricing_plan_id":"cebpf4jnsgd1na2vs0mg"},{"bike_id":"9ff6a2b3-d9b2-48b4-aa58-e09e09094e05","system_id":"levelo_inurba_marseille","lat":43.30887,"lon":5.37227,"is_reserved":false,"is_disabled":false,"rental_uris":{"android":"levelo://app?vid=9ff6a2b3-d9b2-48b4-aa58-e09e09094e05","ios":"levelo://app?vid=9ff6a2b3-d9b2-48b4-aa58-e09e09094e05"},"vehicle_type_id":"4","last_reported":1742044431,"current_range_meters":16400,"station_id":"ce4bguh2rcd13ifvqckg","pricing_plan_id":"cebpf4jnsgd1na2vs0mg"},{"bike_id":"1d7f8ff5-bcc8-4b92-a03a-ea3818b4617e","system_id":"levelo_inurba_marseille","lat":43.2902,"lon":5.38633,"is_reserved":false,"is_disabled":true,"rental_uris":{"android":"levelo://app?vid=1d7f8ff5-bcc8-4b92-a03a-ea3818b4617e","ios":"levelo://app?vid=1d7f8ff5-bcc8-4b92-a03a-ea3818b4617e"},"vehicle_type_id":"4","last_reported":1742044431,"current_range_meters":16400,"station_id":"ce4bh4p2rcd13ifvqe0g","pricing_plan_id":"cebpf4jnsgd1na2vs0mg"},{"bike_id":"3e685809-8a98-470b-b8d1-c028716361a7","system_id":"levelo_inurba_marseille","lat":43.23987,"lon":5.36614,"is_reserved":false,"is_disabled":false,"rental_uris":{"android":"levelo://app?vid=3e685809-8a98-470b-b8d1-c028716361a7","ios":"levelo://app?vid=3e685809-8a98-470b-b8d1-c028716361a7"},"vehicle_type_id":"4","last_reported":1742044431,"current_range_meters":16400,"station_id":"ce4bhi12rcd13ifvqfp0","pricing_plan_id":"cebpf4jnsgd1na2vs0mg"},{"bike_id":"9532dbbb-a4e4-4835-9b08-1a712cc3f75f","system_id":"levelo_inurba_marseille","lat":43.25118,"lon":5.40312,"is_reserved":false,"is_disabled":false,"rental_uris":{"android":"levelo://app?vid=9532dbbb-a4e4-4835-9b08-1a712cc3f75f","ios":"levelo://app?vid=9532dbbb-a4e4-4835-9b08-1a712cc3f75f"},"vehicle_type_id":"4","last_reported":1742044431,"current_range_meters":16400,"station_id":"ce4bhlh2rcd13ifvqgig","pricing_plan_id":"cebpf4jnsgd1na2vs0mg"},{"bike_id":"96744a18-3316-43e0-9153-7a6032ab1b09","system_id":"levelo_inurba_marseille","lat":43.25023,"lon":5.38909,"is_reserved":false,"is_disabled":false,"rental_uris":{"android":"levelo://app?vid=96744a18-3316-43e0-9153-7a6032ab1b09","ios":"levelo://app?vid=96744a18-3316-43e0-9153-7a6032ab1b09"},"vehicle_type_id":"4","last_reported":1742044431,"current_range_meters":16400,"station_id":"ce4bhgp2rcd13ifvqfd0","pricing_plan_id":"cebpf4jnsgd1na2vs0mg"},{"bike_id":"566e0489-1013-464c-941b-6fbcd4c26340","system_id":"levelo_inurba_marseille","lat":43.32128,"lon":5.3677,"is_reserved":false,"is_disabled":false,"rental_uris":{"android":"levelo://app?vid=566e0489-1013-464c-941b-6fbcd4c26340","ios":"levelo://app?vid=566e0489-1013-464c-941b-6fbcd4c26340"},"vehicle_type_id":"4","last_reported":1742044431,"current_range_meters":16400,"station_id":"ce4bhrh2rcd13ifvqhug","pricing_plan_id":"cebpf4jnsgd1na2vs0mg"},{"bike_id":"e047eb05-c84e-4eb9-a430-24d024850b6f","system_id":"levelo_inurba_marseille","lat":43.22943,"lon":5.35369,"is_reserved":false,"is_disabled":false,"rental_uris":{"android":"levelo://app?vid=e047eb05-c84e-4eb9-a430-24d024850b6f","ios":"levelo://app?vid=e047eb05-c84e-4eb9-a430-24d024850b6f"},"vehicle_type_id":"4","last_reported":1742044431,"current_range_meters":16400,"station_id":"cpo3532slgdg3j2ikp40","pricing_plan_id":"cebpf4jnsgd1na2vs0mg"},{"bike_id":"10a5dfbf-3aa3-4cf3-ac17-cd4d12fd6782","system_id":"levelo_inurba_marseille","lat":43.32361,"lon":5.36773,"is_reserved":false,"is_disabled":false,"rental_uris":{"android":"levelo://app?vid=10a5dfbf-3aa3-4cf3-ac17-cd4d12fd6782","ios":"levelo://app?vid=10a5dfbf-3aa3-4cf3-ac17-cd4d12fd6782"},"vehicle_type_id":"4","last_reported":1742044431,"current_range_meters":16400,"station_id":"ce4bhsh2rcd13ifvqi2g","pricing_plan_id":"cebpf4jnsgd1na2vs0mg"},{"bike_id":"be35cd0a-d434-4cec-9731-085508cb9d5a","system_id":"levelo_inurba_marseille","lat":43.28413,"lon":5.3498,"is_reserved":false,"is_disabled":false,"rental_uris":{"android":"levelo://app?vid=be35cd0a-d434-4cec-9731-085508cb9d5a","ios":"levelo://app?vid=be35cd0a-d434-4cec-9731-085508cb9d5a"},"vehicle_type_id":"4","last_reported":1742044431,"current_range_meters":16400,"station_id":"ce4bhbh2rcd13ifvqepg","pricing_plan_id":"cebpf4jnsgd1na2vs0mg"},{"bike_id":"7099c38a-2986-4dc9-9398-307b562f7d30","system_id":"levelo_inurba_marseille","lat":43.25937,"lon":5.40893,"is_reserved":false,"is_disabled":false,"rental_uris":{"android":"levelo://app?vid=7099c38a-2986-4dc9-9398-307b562f7d30","ios":"levelo://app?vid=7099c38a-2986-4dc9-9398-307b562f7d30"},"vehicle_type_id":"4","last_reported":1742044431,"current_range_meters":16400,"station_id":"ce4bhm92rcd13ifvqglg","pricing_plan_id":"cebpf4jnsgd1na2vs0mg"},{"bike_id":"3c528f7f-712c-435c-b5d4-a5694a485d73","system_id":"levelo_inurba_marseille","lat":43.29884,"lon":5.43677,"is_reserved":false,"is_disabled":false,"rental_uris":{"android":"levelo://app?vid=3c528f7f-712c-435c-b5d4-a5694a485d73","ios":"levelo://app?vid=3c528f7f-712c-435c-b5d4-a5694a485d73"},"vehicle_type_id":"4","last_reported":1742044431,"current_range_meters":16400,"station_id":"ce4bhpp2rcd13ifvqhfg","pricing_plan_id":"cebpf4jnsgd1na2vs0mg"},{"bike_id":"9fb11dda-dcd5-4b41-b556-eaba24efbe9b","system_id":"levelo_inurba_marseille","lat":43.31081,"lon":5.42422,"is_reserved":false,"is_disabled":false,"rental_uris":{"android":"levelo://app?vid=9fb11dda-dcd5-4b41-b556-eaba24efbe9b","ios":"levelo://app?vid=9fb11dda-dcd5-4b41-b556-eaba24efbe9b"},"vehicle_type_id":"4","last_reported":1742044431,"current_range_meters":16400,"station_id":"ce4bhp92rcd13ifvqhag","pricing_plan_id":"cebpf4jnsgd1na2vs0mg"},{"bike_id":"8735d2ad-6eef-43fd-9b71-2c40ced0f498","system_id":"levelo_inurba_marseille","lat":43.23182,"lon":5.40002,"is_reserved":false,"is_disabled":false,"rental_uris":{"android":"levelo://app?vid=8735d2ad-6eef-43fd-9b71-2c40ced0f498","ios":"levelo://app?vid=8735d2ad-6eef-43fd-9b71-2c40ced0f498"},"vehicle_type_id":"4","last_reported":1742044431,"current_range_meters":16400,"station_id":"ce4bhn12rcd13ifvqgqg","pricing_plan_id":"cebpf4jnsgd1na2vs0mg"},{"bike_id":"92a278b4-abee-47c0-88bb-c4d1d5585a2d","system_id":"levelo_inurba_marseille","lat":43.31707,"lon":5.377677,"is_reserved":false,"is_disabled":false,"rental_uris":{"android":"levelo://app?vid=92a278b4-abee-47c0-88bb-c4d1d5585a2d","ios":"levelo://app?vid=92a278b4-abee-47c0-88bb-c4d1d5585a2d"},"vehicle_type_id":"4","last_reported":1742044431,"current_range_meters":16000,"station_id":"ce4bgth2rcd13ifvqch0","pricing_plan_id":"cebpf4jnsgd1na2vs0mg"},{"bike_id":"7fe472b2-6267-43dd-ae42-b1829b606907","system_id":"levelo_inurba_marseille","lat":43.24805,"lon":5.37452,"is_reserved":false,"is_disabled":false,"rental_uris":{"android":"levelo://app?vid=7fe472b2-6267-43dd-ae42-b1829b606907","ios":"levelo://app?vid=7fe472b2-6267-43dd-ae42-b1829b606907"},"vehicle_type_id":"4","last_reported":1742044431,"current_range_meters":16400,"station_id":"ce4bhgh2rcd13ifvqfb0","pricing_plan_id":"cebpf4jnsgd1na2vs0mg"},{"bike_id":"21ad9322-1064-49ce-881f-b98a92db1bc0","system_id":"levelo_inurba_marseille","lat":43.27423,"lon":5.39455,"is_reserved":false,"is_disabled":false,"rental_uris":{"android":"levelo://app?vid=21ad9322-1064-49ce-881f-b98a92db1bc0","ios":"levelo://app?vid=21ad9322-1064-49ce-881f-b98a92db1bc0"},"vehicle_type_id":"4","last_reported":1742044431,"current_range_meters":16400,"station_id":"ce4bhdp2rcd13ifvqf20","pricing_plan_id":"cebpf4jnsgd1na2vs0mg"},{"bike_id":"75123447-2b69-42e2-be90-9aa99ce954e5","system_id":"levelo_inurba_marseille","lat":43.32367,"lon":5.38878,"is_reserved":false,"is_disabled":false,"rental_uris":{"android":"levelo://app?vid=75123447-2b69-42e2-be90-9aa99ce954e5","ios":"levelo://app?vid=75123447-2b69-42e2-be90-9aa99ce954e5"},"vehicle_type_id":"4","last_reported":1742044431,"current_range_meters":16800,"station_id":"ce4bhqp2rcd13ifvqhog","pricing_plan_id":"cebpf4jnsgd1na2vs0mg"},{"bike_id":"b881a216-a8e0-47ad-9c6d-ce879391627c","system_id":"levelo_inurba_marseille","lat":43.29946,"lon":5.36519,"is_reserved":false,"is_disabled":true,"rental_uris":{"android":"levelo://app?vid=b881a216-a8e0-47ad-9c6d-ce879391627c","ios":"levelo://app?vid=b881a216-a8e0-47ad-9c6d-ce879391627c"},"vehicle_type_id":"4","last_reported":1742044431,"current_range_meters":16800,"station_id":"ce4bgm92rcd13ifvqbr0","pricing_plan_id":"cebpf4jnsgd1na2vs0mg"},{"bike_id":"bc38ec1f-0ac6-4da4-bdfb-a8bd1a951ab0","system_id":"levelo_inurba_marseille","lat":43.29077,"lon":5.37178,"is_reserved":false,"is_disabled":false,"rental_uris":{"android":"levelo://app?vid=bc38ec1f-0ac6-4da4-bdfb-a8bd1a951ab0","ios":"levelo://app?vid=bc38ec1f-0ac6-4da4-bdfb-a8bd1a951ab0"},"vehicle_type_id":"4","last_reported":1742044431,"current_range_meters":16800,"station_id":"ce4bh5p2rcd13ifvqe4g","pricing_plan_id":"cebpf4jnsgd1na2vs0mg"},{"bike_id":"b1260397-4c19-4dc3-9255-ff51e7cc5615","system_id":"levelo_inurba_marseille","lat":43.29281,"lon":5.36843,"is_reserved":false,"is_disabled":false,"rental_uris":{"android":"levelo://app?vid=b1260397-4c19-4dc3-9255-ff51e7cc5615","ios":"levelo://app?vid=b1260397-4c19-4dc3-9255-ff51e7cc5615"},"vehicle_type_id":"4","last_reported":1742044431,"current_range_meters":16800,"station_id":"ce4bhbp2rcd13ifvqesg","pricing_plan_id":"cebpf4jnsgd1na2vs0mg"},{"bike_id":"72e0b978-d2df-4180-a272-35356a966f65","system_id":"levelo_inurba_marseille","lat":43.30897,"lon":5.37191,"is_reserved":false,"is_disabled":false,"rental_uris":{"android":"levelo://app?vid=72e0b978-d2df-4180-a272-35356a966f65","ios":"levelo://app?vid=72e0b978-d2df-4180-a272-35356a966f65"},"vehicle_type_id":"4","last_reported":1742044431,"current_range_meters":16800,"station_id":"ce4bguh2rcd13ifvqckg","pricing_plan_id":"cebpf4jnsgd1na2vs0mg"},{"bike_id":"da1f546f-c0f5-41cc-9417-9aca6339f250","system_id":"levelo_inurba_marseille","lat":43.30781,"lon":5.37635,"is_reserved":false,"is_disabled":false,"rental_uris":{"android":"levelo://app?vid=da1f546f-c0f5-41cc-9417-9aca6339f250","ios":"levelo://app?vid=da1f546f-c0f5-41cc-9417-9aca6339f250"},"vehicle_type_id":"4","last_reported":1742044431,"current_range_meters":16400,"station_id":"ce4bgv92rcd13ifvqcq0","pricing_plan_id":"cebpf4jnsgd1na2vs0mg"},{"bike_id":"bafd57f9-42ca-4d51-b0a0-95f66f340e25","system_id":"levelo_inurba_marseille","lat":43.2584,"lon":5.39438,"is_reserved":false,"is_disabled":false,"rental_uris":{"android":"levelo://app?vid=bafd57f9-42ca-4d51-b0a0-95f66f340e25","ios":"levelo://app?vid=bafd57f9-42ca-4d51-b0a0-95f66f340e25"},"vehicle_type_id":"4","last_reported":1742044431,"current_range_meters":16800,"station_id":"ce4bhip2rcd13ifvqft0","pricing_plan_id":"cebpf4jnsgd1na2vs0mg"},{"bike_id":"efb53dda-871b-483c-8dec-e716116f9234","system_id":"levelo_inurba_marseille","lat":43.29528,"lon":5.36466,"is_reserved":false,"is_disabled":false,"rental_uris":{"android":"levelo://app?vid=efb53dda-871b-483c-8dec-e716116f9234","ios":"levelo://app?vid=efb53dda-871b-483c-8dec-e716116f9234"},"vehicle_type_id":"4","last_reported":1742044431,"current_range_meters":16800,"station_id":"","pricing_plan_id":"cebpf4jnsgd1na2vs0mg"},{"bike_id":"0da1c770-5687-4af1-9877-11ab2a164fbc","system_id":"levelo_inurba_marseille","lat":43.28274,"lon":5.35072,"is_reserved":false,"is_disabled":false,"rental_uris":{"android":"levelo://app?vid=0da1c770-5687-4af1-9877-11ab2a164fbc","ios":"levelo://app?vid=0da1c770-5687-4af1-9877-11ab2a164fbc"},"vehicle_type_id":"4","last_reported":1742044431,"current_range_meters":16800,"station_id":"ce4bhbp2rcd13ifvqerg","pricing_plan_id":"cebpf4jnsgd1na2vs0mg"},{"bike_id":"ec08f8b9-de41-4107-b8af-c8ce02b832a6","system_id":"levelo_inurba_marseille","lat":43.296337,"lon":5.376986,"is_reserved":false,"is_disabled":false,"rental_uris":{"android":"levelo://app?vid=ec08f8b9-de41-4107-b8af-c8ce02b832a6","ios":"levelo://app?vid=ec08f8b9-de41-4107-b8af-c8ce02b832a6"},"vehicle_type_id":"4","last_reported":1742044431,"current_range_meters":17200,"station_id":"ce4bgvh2rcd13ifvqcs0","pricing_plan_id":"cebpf4jnsgd1na2vs0mg"},{"bike_id":"19d9ce3c-8bc6-4336-96d5-f5a8f0d3c924","system_id":"levelo_inurba_marseille","lat":43.28608,"lon":5.37059,"is_reserved":false,"is_disabled":false,"rental_uris":{"android":"levelo://app?vid=19d9ce3c-8bc6-4336-96d5-f5a8f0d3c924","ios":"levelo://app?vid=19d9ce3c-8bc6-4336-96d5-f5a8f0d3c924"},"vehicle_type_id":"4","last_reported":1742044431,"current_range_meters":17200,"station_id":"ce4bht12rcd13ifvqi60","pricing_plan_id":"cebpf4jnsgd1na2vs0mg"},{"bike_id":"60a00a63-9870-46af-b5d2-407d1cdf8dee","system_id":"levelo_inurba_marseille","lat":43.28731,"lon":5.36084,"is_reserved":false,"is_disabled":false,"rental_uris":{"android":"levelo://app?vid=60a00a63-9870-46af-b5d2-407d1cdf8dee","ios":"levelo://app?vid=60a00a63-9870-46af-b5d2-407d1cdf8dee"},"vehicle_type_id":"4","last_reported":1742044431,"current_range_meters":17200,"station_id":"cki0cbj6b192h4jlfktg","pricing_plan_id":"cebpf4jnsgd1na2vs0mg"},{"bike_id":"5a61a616-683f-484d-83ae-d7f61143d634","system_id":"levelo_inurba_marseille","lat":43.29517,"lon":5.42463,"is_reserved":false,"is_disabled":false,"rental_uris":{"android":"levelo://app?vid=5a61a616-683f-484d-83ae-d7f61143d634","ios":"levelo://app?vid=5a61a616-683f-484d-83ae-d7f61143d634"},"vehicle_type_id":"4","last_reported":1742044431,"current_range_meters":17200,"station_id":"","pricing_plan_id":"cebpf4jnsgd1na2vs0mg"},{"bike_id":"09217766-4f65-47b7-bd76-63ccd980dcf1","system_id":"levelo_inurba_marseille","lat":43.30533,"lon":5.36547,"is_reserved":false,"is_disabled":false,"rental_uris":{"android":"levelo://app?vid=09217766-4f65-47b7-bd76-63ccd980dcf1","ios":"levelo://app?vid=09217766-4f65-47b7-bd76-63ccd980dcf1"},"vehicle_type_id":"4","last_reported":1742044431,"current_range_meters":17200,"station_id":"ce4bgs12rcd13ifvqcag","pricing_plan_id":"cebpf4jnsgd1na2vs0mg"},{"bike_id":"7d21a7b7-6be3-4a10-b2d3-7de6a8f8f733","system_id":"levelo_inurba_marseille","lat":43.30605,"lon":5.37228,"is_reserved":false,"is_disabled":false,"rental_uris":{"android":"levelo://app?vid=7d21a7b7-6be3-4a10-b2d3-7de6a8f8f733","ios":"levelo://app?vid=7d21a7b7-6be3-4a10-b2d3-7de6a8f8f733"},"vehicle_type_id":"4","last_reported":1742044431,"current_range_meters":17200,"station_id":"ce4bgqh2rcd13ifvqc4g","pricing_plan_id":"cebpf4jnsgd1na2vs0mg"},{"bike_id":"ea3faa2e-2727-4cd3-a354-57574da4893b","system_id":"levelo_inurba_marseille","lat":43.24169,"lon":5.36399,"is_reserved":false,"is_disabled":false,"rental_uris":{"android":"levelo://app?vid=ea3faa2e-2727-4cd3-a354-57574da4893b","ios":"levelo://app?vid=ea3faa2e-2727-4cd3-a354-57574da4893b"},"vehicle_type_id":"4","last_reported":1742044431,"current_range_meters":17200,"station_id":"cpo36qri1sfpv3e86is0","pricing_plan_id":"cebpf4jnsgd1na2vs0mg"},{"bike_id":"24eabb97-bbbd-4071-946e-7be7578ed00c","system_id":"levelo_inurba_marseille","lat":43.26569,"lon":5.39009,"is_reserved":false,"is_disabled":false,"rental_uris":{"android":"levelo://app?vid=24eabb97-bbbd-4071-946e-7be7578ed00c","ios":"levelo://app?vid=24eabb97-bbbd-4071-946e-7be7578ed00c"},"vehicle_type_id":"4","last_reported":1742044431,"current_range_meters":17200,"station_id":"ce4bhe12rcd13ifvqf30","pricing_plan_id":"cebpf4jnsgd1na2vs0mg"},{"bike_id":"827d67f0-08ee-4725-8eea-a095e8fb4263","system_id":"levelo_inurba_marseille","lat":43.302069,"lon":5.394694,"is_reserved":false,"is_disabled":false,"rental_uris":{"android":"levelo://app?vid=827d67f0-08ee-4725-8eea-a095e8fb4263","ios":"levelo://app?vid=827d67f0-08ee-4725-8eea-a095e8fb4263"},"vehicle_type_id":"4","last_reported":1742044431,"current_range_meters":17200,"station_id":"ce4bh0p2rcd13ifvqd70","pricing_plan_id":"cebpf4jnsgd1na2vs0mg"},{"bike_id":"47db6e8c-157e-4dec-a0ff-49f6be9d3d8a","system_id":"levelo_inurba_marseille","lat":43.30209,"lon":5.39457,"is_reserved":false,"is_disabled":false,"rental_uris":{"android":"levelo://app?vid=47db6e8c-157e-4dec-a0ff-49f6be9d3d8a","ios":"levelo://app?vid=47db6e8c-157e-4dec-a0ff-49f6be9d3d8a"},"vehicle_type_id":"4","last_reported":1742044431,"current_range_meters":17600,"station_id":"ce4bh0p2rcd13ifvqd70","pricing_plan_id":"cebpf4jnsgd1na2vs0mg"},{"bike_id":"fe6def30-ee62-4eb9-9889-39812a3b08c0","system_id":"levelo_inurba_marseille","lat":43.27214,"lon":5.39186,"is_reserved":false,"is_disabled":false,"rental_uris":{"android":"levelo://app?vid=fe6def30-ee62-4eb9-9889-39812a3b08c0","ios":"levelo://app?vid=fe6def30-ee62-4eb9-9889-39812a3b08c0"},"vehicle_type_id":"4","last_reported":1742044431,"current_range_meters":17600,"station_id":"ce4bhhp2rcd13ifvqfm0","pricing_plan_id":"cebpf4jnsgd1na2vs0mg"},{"bike_id":"a524570e-f10e-4565-90b6-06d4307a7b3c","system_id":"levelo_inurba_marseille","lat":43.29028,"lon":5.38613,"is_reserved":false,"is_disabled":false,"rental_uris":{"android":"levelo://app?vid=a524570e-f10e-4565-90b6-06d4307a7b3c","ios":"levelo://app?vid=a524570e-f10e-4565-90b6-06d4307a7b3c"},"vehicle_type_id":"4","last_reported":1742044431,"current_range_meters":17600,"station_id":"ce4bh4p2rcd13ifvqe0g","pricing_plan_id":"cebpf4jnsgd1na2vs0mg"},{"bike_id":"75d0e3cf-ed7a-46ff-863d-0e0be3a1c082","system_id":"levelo_inurba_marseille","lat":43.26209,"lon":5.37442,"is_reserved":false,"is_disabled":false,"rental_uris":{"android":"levelo://app?vid=75d0e3cf-ed7a-46ff-863d-0e0be3a1c082","ios":"levelo://app?vid=75d0e3cf-ed7a-46ff-863d-0e0be3a1c082"},"vehicle_type_id":"4","last_reported":1742044431,"current_range_meters":17600,"station_id":"ce4bhgp2rcd13ifvqfc0","pricing_plan_id":"cebpf4jnsgd1na2vs0mg"},{"bike_id":"2bb33ae4-5e06-4ee2-916d-fd424c62e390","system_id":"levelo_inurba_marseille","lat":43.26189,"lon":5.37936,"is_reserved":false,"is_disabled":false,"rental_uris":{"android":"levelo://app?vid=2bb33ae4-5e06-4ee2-916d-fd424c62e390","ios":"levelo://app?vid=2bb33ae4-5e06-4ee2-916d-fd424c62e390"},"vehicle_type_id":"4","last_reported":1742044431,"current_range_meters":17600,"station_id":"ce4bhjp2rcd13ifvqg90","pricing_plan_id":"cebpf4jnsgd1na2vs0mg"},{"bike_id":"280f652d-8f5c-420f-9165-441ddcb8015a","system_id":"levelo_inurba_marseille","lat":43.26057,"lon":5.39398,"is_reserved":false,"is_disabled":false,"rental_uris":{"android":"levelo://app?vid=280f652d-8f5c-420f-9165-441ddcb8015a","ios":"levelo://app?vid=280f652d-8f5c-420f-9165-441ddcb8015a"},"vehicle_type_id":"4","last_reported":1742044431,"current_range_meters":17600,"station_id":"ce4bhh92rcd13ifvqfj0","pricing_plan_id":"cebpf4jnsgd1na2vs0mg"},{"bike_id":"5add3064-8388-4e9f-88f4-44eba9984748","system_id":"levelo_inurba_marseille","lat":43.29014,"lon":5.38626,"is_reserved":false,"is_disabled":false,"rental_uris":{"android":"levelo://app?vid=5add3064-8388-4e9f-88f4-44eba9984748","ios":"levelo://app?vid=5add3064-8388-4e9f-88f4-44eba9984748"},"vehicle_type_id":"4","last_reported":1742044431,"current_range_meters":17600,"station_id":"ce4bh4p2rcd13ifvqe0g","pricing_plan_id":"cebpf4jnsgd1na2vs0mg"},{"bike_id":"1992154a-c251-4624-b081-4d6c3e4978c8","system_id":"levelo_inurba_marseille","lat":43.31079,"lon":5.38359,"is_reserved":false,"is_disabled":false,"rental_uris":{"android":"levelo://app?vid=1992154a-c251-4624-b081-4d6c3e4978c8","ios":"levelo://app?vid=1992154a-c251-4624-b081-4d6c3e4978c8"},"vehicle_type_id":"4","last_reported":1742044431,"current_range_meters":17600,"station_id":"ce4bgv92rcd13ifvqcr0","pricing_plan_id":"cebpf4jnsgd1na2vs0mg"},{"bike_id":"e431f6e7-c256-4a03-81b2-9044257b3488","system_id":"levelo_inurba_marseille","lat":43.239649,"lon":5.366257,"is_reserved":false,"is_disabled":false,"rental_uris":{"android":"levelo://app?vid=e431f6e7-c256-4a03-81b2-9044257b3488","ios":"levelo://app?vid=e431f6e7-c256-4a03-81b2-9044257b3488"},"vehicle_type_id":"4","last_reported":1742044431,"current_range_meters":17600,"station_id":"ce4bhi12rcd13ifvqfp0","pricing_plan_id":"cebpf4jnsgd1na2vs0mg"},{"bike_id":"53ebb5d4-620d-4d5e-be51-076c0178dde1","system_id":"levelo_inurba_marseille","lat":43.24389,"lon":5.37058,"is_reserved":false,"is_disabled":false,"rental_uris":{"android":"levelo://app?vid=53ebb5d4-620d-4d5e-be51-076c0178dde1","ios":"levelo://app?vid=53ebb5d4-620d-4d5e-be51-076c0178dde1"},"vehicle_type_id":"4","last_reported":1742044431,"current_range_meters":17600,"station_id":"","pricing_plan_id":"cebpf4jnsgd1na2vs0mg"},{"bike_id":"87640605-a17a-4301-b0d5-41cc63ff5e06","system_id":"levelo_inurba_marseille","lat":43.27687,"lon":5.3888,"is_reserved":false,"is_disabled":false,"rental_uris":{"android":"levelo://app?vid=87640605-a17a-4301-b0d5-41cc63ff5e06","ios":"levelo://app?vid=87640605-a17a-4301-b0d5-41cc63ff5e06"},"vehicle_type_id":"4","last_reported":1742044431,"current_range_meters":17200,"station_id":"ce4bhi12rcd13ifvqfo0","pricing_plan_id":"cebpf4jnsgd1na2vs0mg"},{"bike_id":"5deff3b1-7de0-4233-8bbb-77cee504cc6e","system_id":"levelo_inurba_marseille","lat":43.28611,"lon":5.35005,"is_reserved":false,"is_disabled":true,"rental_uris":{"android":"levelo://app?vid=5deff3b1-7de0-4233-8bbb-77cee504cc6e","ios":"levelo://app?vid=5deff3b1-7de0-4233-8bbb-77cee504cc6e"},"vehicle_type_id":"4","last_reported":1742044431,"current_range_meters":17600,"station_id":"","pricing_plan_id":"cebpf4jnsgd1na2vs0mg"},{"bike_id":"41d856e8-014d-42b4-85e9-2a0a980f469f","system_id":"levelo_inurba_marseille","lat":43.232,"lon":5.35549,"is_reserved":false,"is_disabled":false,"rental_uris":{"android":"levelo://app?vid=41d856e8-014d-42b4-85e9-2a0a980f469f","ios":"levelo://app?vid=41d856e8-014d-42b4-85e9-2a0a980f469f"},"vehicle_type_id":"4","last_reported":1742044431,"current_range_meters":18000,"station_id":"ce4bhu92rcd13ifvqi70","pricing_plan_id":"cebpf4jnsgd1na2vs0mg"},{"bike_id":"90eab5de-acc2-4968-b6cd-ff1e879f7183","system_id":"levelo_inurba_marseille","lat":43.28265,"lon":5.35058,"is_reserved":false,"is_disabled":false,"rental_uris":{"android":"levelo://app?vid=90eab5de-acc2-4968-b6cd-ff1e879f7183","ios":"levelo://app?vid=90eab5de-acc2-4968-b6cd-ff1e879f7183"},"vehicle_type_id":"4","last_reported":1742044431,"current_range_meters":18000,"station_id":"ce4bhbp2rcd13ifvqerg","pricing_plan_id":"cebpf4jnsgd1na2vs0mg"},{"bike_id":"c26fa516-f57c-4bce-a77d-bd553ee40fa2","system_id":"levelo_inurba_marseille","lat":43.30244,"lon":5.40053,"is_reserved":false,"is_disabled":false,"rental_uris":{"android":"levelo://app?vid=c26fa516-f57c-4bce-a77d-bd553ee40fa2","ios":"levelo://app?vid=c26fa516-f57c-4bce-a77d-bd553ee40fa2"},"vehicle_type_id":"4","last_reported":1742044431,"current_range_meters":18000,"station_id":"ce4bgvh2rcd13ifvqcs0","pricing_plan_id":"cebpf4jnsgd1na2vs0mg"},{"bike_id":"54d721d0-4b47-449f-bbc9-1ee8f6e1d2a4","system_id":"levelo_inurba_marseille","lat":43.2985,"lon":5.36286,"is_reserved":false,"is_disabled":false,"rental_uris":{"android":"levelo://app?vid=54d721d0-4b47-449f-bbc9-1ee8f6e1d2a4","ios":"levelo://app?vid=54d721d0-4b47-449f-bbc9-1ee8f6e1d2a4"},"vehicle_type_id":"4","last_reported":1742044431,"current_range_meters":18000,"station_id":"ce4bgpp2rcd13ifvqc3g","pricing_plan_id":"cebpf4jnsgd1na2vs0mg"},{"bike_id":"d261395a-d173-485a-98fd-3bc6c9cddfe8","system_id":"levelo_inurba_marseille","lat":43.25721,"lon":5.41117,"is_reserved":false,"is_disabled":false,"rental_uris":{"android":"levelo://app?vid=d261395a-d173-485a-98fd-3bc6c9cddfe8","ios":"levelo://app?vid=d261395a-d173-485a-98fd-3bc6c9cddfe8"},"vehicle_type_id":"4","last_reported":1742044431,"current_range_meters":18000,"station_id":"ce4bhkp2rcd13ifvqgd0","pricing_plan_id":"cebpf4jnsgd1na2vs0mg"},{"bike_id":"286d7721-054b-4740-a2b2-5984308b555e","system_id":"levelo_inurba_marseille","lat":43.30554,"lon":5.36519,"is_reserved":false,"is_disabled":false,"rental_uris":{"android":"levelo://app?vid=286d7721-054b-4740-a2b2-5984308b555e","ios":"levelo://app?vid=286d7721-054b-4740-a2b2-5984308b555e"},"vehicle_type_id":"4","last_reported":1742044431,"current_range_meters":18000,"station_id":"ce4bgs12rcd13ifvqcag","pricing_plan_id":"cebpf4jnsgd1na2vs0mg"},{"bike_id":"65357cc7-2329-424b-b711-99eb17da523d","system_id":"levelo_inurba_marseille","lat":43.30533,"lon":5.36535,"is_reserved":false,"is_disabled":false,"rental_uris":{"android":"levelo://app?vid=65357cc7-2329-424b-b711-99eb17da523d","ios":"levelo://app?vid=65357cc7-2329-424b-b711-99eb17da523d"},"vehicle_type_id":"4","last_reported":1742044431,"current_range_meters":18000,"station_id":"ce4bgs12rcd13ifvqcag","pricing_plan_id":"cebpf4jnsgd1na2vs0mg"},{"bike_id":"84236ef6-e6d5-46cb-a70a-850be618151c","system_id":"levelo_inurba_marseille","lat":43.28154,"lon":5.42646,"is_reserved":false,"is_disabled":false,"rental_uris":{"android":"levelo://app?vid=84236ef6-e6d5-46cb-a70a-850be618151c","ios":"levelo://app?vid=84236ef6-e6d5-46cb-a70a-850be618151c"},"vehicle_type_id":"4","last_reported":1742044431,"current_range_meters":18000,"station_id":"ce4bhnh2rcd13ifvqgug","pricing_plan_id":"cebpf4jnsgd1na2vs0mg"},{"bike_id":"64091344-5384-4f02-9835-225c433bcb72","system_id":"levelo_inurba_marseille","lat":43.30949,"lon":5.3903,"is_reserved":false,"is_disabled":false,"rental_uris":{"android":"levelo://app?vid=64091344-5384-4f02-9835-225c433bcb72","ios":"levelo://app?vid=64091344-5384-4f02-9835-225c433bcb72"},"vehicle_type_id":"4","last_reported":1742044431,"current_range_meters":18000,"station_id":"ce4bgup2rcd13ifvqco0","pricing_plan_id":"cebpf4jnsgd1na2vs0mg"},{"bike_id":"81ee246f-1f57-4d9f-80d6-a6a8a0c42a0e","system_id":"levelo_inurba_marseille","lat":43.26209,"lon":5.37445,"is_reserved":false,"is_disabled":false,"rental_uris":{"android":"levelo://app?vid=81ee246f-1f57-4d9f-80d6-a6a8a0c42a0e","ios":"levelo://app?vid=81ee246f-1f57-4d9f-80d6-a6a8a0c42a0e"},"vehicle_type_id":"4","last_reported":1742044431,"current_range_meters":18000,"station_id":"ce4bhgp2rcd13ifvqfc0","pricing_plan_id":"cebpf4jnsgd1na2vs0mg"},{"bike_id":"15114da5-30fb-4fb1-9632-866a9f4be863","system_id":"levelo_inurba_marseille","lat":43.29652,"lon":5.36535,"is_reserved":false,"is_disabled":false,"rental_uris":{"android":"levelo://app?vid=15114da5-30fb-4fb1-9632-866a9f4be863","ios":"levelo://app?vid=15114da5-30fb-4fb1-9632-866a9f4be863"},"vehicle_type_id":"4","last_reported":1742044431,"current_range_meters":18000,"station_id":"","pricing_plan_id":"cebpf4jnsgd1na2vs0mg"},{"bike_id":"9f04d485-83b4-42da-a2bd-0b827863014b","system_id":"levelo_inurba_marseille","lat":43.24999,"lon":5.38967,"is_reserved":false,"is_disabled":false,"rental_uris":{"android":"levelo://app?vid=9f04d485-83b4-42da-a2bd-0b827863014b","ios":"levelo://app?vid=9f04d485-83b4-42da-a2bd-0b827863014b"},"vehicle_type_id":"4","last_reported":1742044431,"current_range_meters":18000,"station_id":"ce4bhgp2rcd13ifvqfd0","pricing_plan_id":"cebpf4jnsgd1na2vs0mg"},{"bike_id":"0ecddd1e-d75c-4f93-a687-e4251d0b2e4e","system_id":"levelo_inurba_marseille","lat":43.29301,"lon":5.37458,"is_reserved":false,"is_disabled":false,"rental_uris":{"android":"levelo://app?vid=0ecddd1e-d75c-4f93-a687-e4251d0b2e4e","ios":"levelo://app?vid=0ecddd1e-d75c-4f93-a687-e4251d0b2e4e"},"vehicle_type_id":"4","last_reported":1742044431,"current_range_meters":18000,"station_id":"ce4bgi12rcd13ifvqb70","pricing_plan_id":"cebpf4jnsgd1na2vs0mg"},{"bike_id":"7fdaba83-9e71-4d79-962d-8e9bcb4ba61b","system_id":"levelo_inurba_marseille","lat":43.23197,"lon":5.35548,"is_reserved":false,"is_disabled":false,"rental_uris":{"android":"levelo://app?vid=7fdaba83-9e71-4d79-962d-8e9bcb4ba61b","ios":"levelo://app?vid=7fdaba83-9e71-4d79-962d-8e9bcb4ba61b"},"vehicle_type_id":"4","last_reported":1742044431,"current_range_meters":18800,"station_id":"ce4bhu92rcd13ifvqi70","pricing_plan_id":"cebpf4jnsgd1na2vs0mg"},{"bike_id":"5e38c7b0-6a9e-407e-a84d-d1972caa478e","system_id":"levelo_inurba_marseille","lat":43.24411,"lon":5.37027,"is_reserved":false,"is_disabled":false,"rental_uris":{"android":"levelo://app?vid=5e38c7b0-6a9e-407e-a84d-d1972caa478e","ios":"levelo://app?vid=5e38c7b0-6a9e-407e-a84d-d1972caa478e"},"vehicle_type_id":"4","last_reported":1742044431,"current_range_meters":18800,"station_id":"ce4bhhh2rcd13ifvqfk0","pricing_plan_id":"cebpf4jnsgd1na2vs0mg"},{"bike_id":"318a3f30-1c9a-4f79-8dbe-deddfb5d92b5","system_id":"levelo_inurba_marseille","lat":43.23972,"lon":5.36642,"is_reserved":false,"is_disabled":false,"rental_uris":{"android":"levelo://app?vid=318a3f30-1c9a-4f79-8dbe-deddfb5d92b5","ios":"levelo://app?vid=318a3f30-1c9a-4f79-8dbe-deddfb5d92b5"},"vehicle_type_id":"4","last_reported":1742044431,"current_range_meters":18800,"station_id":"ce4bhi12rcd13ifvqfp0","pricing_plan_id":"cebpf4jnsgd1na2vs0mg"},{"bike_id":"21c3a2d0-9cfc-4e59-8b86-d2bafeea2019","system_id":"levelo_inurba_marseille","lat":43.31685,"lon":5.40475,"is_reserved":false,"is_disabled":false,"rental_uris":{"android":"levelo://app?vid=21c3a2d0-9cfc-4e59-8b86-d2bafeea2019","ios":"levelo://app?vid=21c3a2d0-9cfc-4e59-8b86-d2bafeea2019"},"vehicle_type_id":"4","last_reported":1742044431,"current_range_meters":18800,"station_id":"ce4bh012rcd13ifvqd00","pricing_plan_id":"cebpf4jnsgd1na2vs0mg"},{"bike_id":"2ca212a6-04e0-424d-956f-72d600a1dc86","system_id":"levelo_inurba_marseille","lat":43.29187,"lon":5.35803,"is_reserved":false,"is_disabled":false,"rental_uris":{"android":"levelo://app?vid=2ca212a6-04e0-424d-956f-72d600a1dc86","ios":"levelo://app?vid=2ca212a6-04e0-424d-956f-72d600a1dc86"},"vehicle_type_id":"4","last_reported":1742044431,"current_range_meters":18800,"station_id":"ce4bhb12rcd13ifvqel0","pricing_plan_id":"cebpf4jnsgd1na2vs0mg"},{"bike_id":"7ee3c943-f024-4bb5-a448-51b6e2f48655","system_id":"levelo_inurba_marseille","lat":43.30598,"lon":5.37207,"is_reserved":false,"is_disabled":false,"rental_uris":{"android":"levelo://app?vid=7ee3c943-f024-4bb5-a448-51b6e2f48655","ios":"levelo://app?vid=7ee3c943-f024-4bb5-a448-51b6e2f48655"},"vehicle_type_id":"4","last_reported":1742044431,"current_range_meters":19200,"station_id":"ce4bgqh2rcd13ifvqc4g","pricing_plan_id":"cebpf4jnsgd1na2vs0mg"},{"bike_id":"1d5f439a-1516-44cf-9f77-fdf0d5bb6883","system_id":"levelo_inurba_marseille","lat":43.27322,"lon":5.3909,"is_reserved":false,"is_disabled":false,"rental_uris":{"android":"levelo://app?vid=1d5f439a-1516-44cf-9f77-fdf0d5bb6883","ios":"levelo://app?vid=1d5f439a-1516-44cf-9f77-fdf0d5bb6883"},"vehicle_type_id":"4","last_reported":1742044431,"current_range_meters":19200,"station_id":"ce4bhgp2rcd13ifvqfe0","pricing_plan_id":"cebpf4jnsgd1na2vs0mg"},{"bike_id":"afbb2afe-b65d-4f6e-bf3f-b29ba40c094b","system_id":"levelo_inurba_marseille","lat":43.27205,"lon":5.39191,"is_reserved":false,"is_disabled":false,"rental_uris":{"android":"levelo://app?vid=afbb2afe-b65d-4f6e-bf3f-b29ba40c094b","ios":"levelo://app?vid=afbb2afe-b65d-4f6e-bf3f-b29ba40c094b"},"vehicle_type_id":"4","last_reported":1742044431,"current_range_meters":19200,"station_id":"ce4bhhp2rcd13ifvqfm0","pricing_plan_id":"cebpf4jnsgd1na2vs0mg"},{"bike_id":"5a4a7d35-0ef8-41e9-9195-6b8c171d9e40","system_id":"levelo_inurba_marseille","lat":43.25918,"lon":5.40904,"is_reserved":false,"is_disabled":false,"rental_uris":{"android":"levelo://app?vid=5a4a7d35-0ef8-41e9-9195-6b8c171d9e40","ios":"levelo://app?vid=5a4a7d35-0ef8-41e9-9195-6b8c171d9e40"},"vehicle_type_id":"4","last_reported":1742044431,"current_range_meters":19200,"station_id":"ce4bhm92rcd13ifvqglg","pricing_plan_id":"cebpf4jnsgd1na2vs0mg"},{"bike_id":"ce461d73-d5ef-47e5-bd96-066feda10ed7","system_id":"levelo_inurba_marseille","lat":43.23195,"lon":5.35536,"is_reserved":false,"is_disabled":false,"rental_uris":{"android":"levelo://app?vid=ce461d73-d5ef-47e5-bd96-066feda10ed7","ios":"levelo://app?vid=ce461d73-d5ef-47e5-bd96-066feda10ed7"},"vehicle_type_id":"4","last_reported":1742044431,"current_range_meters":19200,"station_id":"ce4bhu92rcd13ifvqi70","pricing_plan_id":"cebpf4jnsgd1na2vs0mg"},{"bike_id":"cc25066a-82d0-46ee-8c2a-846c11b5f03e","system_id":"levelo_inurba_marseille","lat":43.25023,"lon":5.38898,"is_reserved":false,"is_disabled":false,"rental_uris":{"android":"levelo://app?vid=cc25066a-82d0-46ee-8c2a-846c11b5f03e","ios":"levelo://app?vid=cc25066a-82d0-46ee-8c2a-846c11b5f03e"},"vehicle_type_id":"4","last_reported":1742044431,"current_range_meters":19200,"station_id":"ce4bhgp2rcd13ifvqfd0","pricing_plan_id":"cebpf4jnsgd1na2vs0mg"},{"bike_id":"5189287a-880a-46a1-bc5e-d4c1d9f06a31","system_id":"levelo_inurba_marseille","lat":43.24104,"lon":5.37722,"is_reserved":false,"is_disabled":false,"rental_uris":{"android":"levelo://app?vid=5189287a-880a-46a1-bc5e-d4c1d9f06a31","ios":"levelo://app?vid=5189287a-880a-46a1-bc5e-d4c1d9f06a31"},"vehicle_type_id":"4","last_reported":1742044431,"current_range_meters":19200,"station_id":"ce4bhnp2rcd13ifvqgvg","pricing_plan_id":"cebpf4jnsgd1na2vs0mg"},{"bike_id":"bae91207-c53c-4099-b67b-b81c091dbd2c","system_id":"levelo_inurba_marseille","lat":43.32358,"lon":5.36769,"is_reserved":false,"is_disabled":false,"rental_uris":{"android":"levelo://app?vid=bae91207-c53c-4099-b67b-b81c091dbd2c","ios":"levelo://app?vid=bae91207-c53c-4099-b67b-b81c091dbd2c"},"vehicle_type_id":"4","last_reported":1742044431,"current_range_meters":19200,"station_id":"ce4bhsh2rcd13ifvqi2g","pricing_plan_id":"cebpf4jnsgd1na2vs0mg"},