{"last_updated":1726175273,"ttl":30,"version":"2.2","data":{"bikes":[{"bike_id":"5bf687b2-d448-4537-a802-6ca69f538405","system_id":"levelo_inurba_marseille","lat":43.26946,"lon":5.38641,"is_reserved":false,"is_disabled":false,"rental_uris":{"android":"levelo://app?vid=5bf687b2-d448-4537-a802-6ca69f538405","ios":"levelo://app?vid=5bf687b2-d448-4537-a802-6ca69f538405"},"vehicle_type_id":"4","last_reported":1726175274,"current_range_meters":28800,"station_id":"ce4bhh92rcd13ifvqfh0","pricing_plan_id":"cebpf4jnsgd1na2vs0mg"},{"bike_id":"2ca2fd52-6283-4397-ac7e-8db28b0c8f78","system_id":"levelo_inurba_marseille","lat":43.23202,"lon":5.35541,"is_reserved":false,"is_disabled":false,"rental_uris":{"android":"levelo://app?vid=2ca2fd52-6283-4397-ac7e-8db28b0c8f78","ios":"levelo://app?vid=2ca2fd52-6283-4397-ac7e-8db28b0c8f78"},"vehicle_type_id":"4","last_reported":1726175274,"current_range_meters":16400,"station_id":"ce4bhu92rcd13ifvqi70","pricing_plan_id":"cebpf4jnsgd1na2vs0mg"},{"bike_id":"9b633d55-16bf-493b-aaf9-bf563c4bdace","system_id":"levelo_inurba_marseille","lat":43.28455,"lon":5.35899,"is_reserved":false,"is_disabled":false,"rental_uris":{"android":"levelo://app?vid=9b633d55-16bf-493b-aaf9-bf563c4bdace","ios":"levelo://app?vid=9b633d55-16bf-493b-aaf9-bf563c4bdace"},"vehicle_type_id":"4","last_reported":1726175274,"current_range_meters":39200,"station_id":"ce4bhah2rcd13ifvqei0","pricing_plan_id":"cebpf4jnsgd1na2vs0mg"},{"bike_id":"1011e5a5-f680-4ee4-b3f0-be000e3839ff","system_id":"levelo_inurba_marseille","lat":43.2994,"lon":5.3654,"is_reserved":false,"is_disabled":false,"rental_uris":{"android":"levelo://app?vid=1011e5a5-f680-4ee4-b3f0-be000e3839ff","ios":"levelo://app?vid=1011e5a5-f680-4ee4-b3f0-be000e3839ff"},"vehicle_type_id":"4","last_reported":1726175274,"current_range_meters":2800,"station_id":"ce4bgm92rcd13ifvqbr0","pricing_plan_id":"cebpf4jnsgd1na2vs0mg"},{"bike_id":"f88a018b-ad33-45da-9f69-40b516a58ee7","system_id":"levelo_inurba_marseille","lat":43.24072,"lon":5.37746,"is_reserved":false,"is_disabled":false,"rental_uris":{"android":"levelo://app?vid=f88a018b-ad33-45da-9f69-40b516a58ee7","ios":"levelo://app?vid=f88a018b-ad33-45da-9f69-40b516a58ee7"},"vehicle_type_id":"4","last_reported":1726175274,"current_range_meters":26000,"station_id":"ce4bhnp2rcd13ifvqgvg","pricing_plan_id":"cebpf4jnsgd1na2vs0mg"},{"bike_id":"a0f1c08c-5556-4f01-8611-b1c4e72fa96a","system_id":"levelo_inurba_marseille","lat":43.28939,"lon":5.39634,"is_reserved":false,"is_disabled":false,"rental_uris":{"android":"levelo://app?vid=a0f1c08c-5556-4f01-8611-b1c4e72fa96a","ios":"levelo://app?vid=a0f1c08c-5556-4f01-8611-b1c4e72fa96a"},"vehicle_type_id":"4","last_reported":1726175274,"current_range_meters":14400,"station_id":"ce4bh3h2rcd13ifvqdn0","pricing_plan_id":"cebpf4jnsgd1na2vs0mg"},{"bike_id":"ae8c7bd4-e320-4650-aaec-5acdea38c512","system_id":"levelo_inurba_marseille","lat":43.28074,"lon":5.38723,"is_reserved":false,"is_disabled":false,"rental_uris":{"android":"levelo://app?vid=ae8c7bd4-e320-4650-aaec-5acdea38c512","ios":"levelo://app?vid=ae8c7bd4-e320-4650-aaec-5acdea38c512"},"vehicle_type_id":"4","last_reported":1726175274,"current_range_meters":24400,"station_id":"","pricing_plan_id":"cebpf4jnsgd1na2vs0mg"},{"bike_id":"4559dba1-b0cb-4c88-804d-ea24100e4a9a","system_id":"levelo_inurba_marseille","lat":43.292,"lon":5.39323,"is_reserved":false,"is_disabled":false,"rental_uris":{"android":"levelo://app?vid=4559dba1-b0cb-4c88-804d-ea24100e4a9a","ios":"levelo://app?vid=4559dba1-b0cb-4c88-804d-ea24100e4a9a"},"vehicle_type_id":"4","last_reported":1726175274,"current_range_meters":38800,"station_id":"ce4bh192rcd13ifvqdd0","pricing_plan_id":"cebpf4jnsgd1na2vs0mg"},{"bike_id":"0ac293a5-409b-4c77-9d1b-336bd09deec1","system_id":"levelo_inurba_marseille","lat":43.31517,"lon":5.37303,"is_reserved":false,"is_disabled":false,"rental_uris":{"android":"levelo://app?vid=0ac293a5-409b-4c77-9d1b-336bd09deec1","ios":"levelo://app?vid=0ac293a5-409b-4c77-9d1b-336bd09deec1"},"vehicle_type_id":"4","last_reported":1726175274,"current_range_meters":38800,"station_id":"ce4bgt12rcd13ifvqcd0","pricing_plan_id":"cebpf4jnsgd1na2vs0mg"},{"bike_id":"6857c5d1-5581-450d-a969-e54e4e134161","system_id":"levelo_inurba_marseille","lat":43.27585,"lon":5.38416,"is_reserved":false,"is_disabled":false,"rental_uris":{"android":"levelo://app?vid=6857c5d1-5581-450d-a969-e54e4e134161","ios":"levelo://app?vid=6857c5d1-5581-450d-a969-e54e4e134161"},"vehicle_type_id":"4","last_reported":1726175274,"current_range_meters":32800,"station_id":"ce4bhh92rcd13ifvqfi0","pricing_plan_id":"cebpf4jnsgd1na2vs0mg"},{"bike_id":"9d4efc16-5364-4647-b094-23661087b1a5","system_id":"levelo_inurba_marseille","lat":43.29878,"lon":5.38908,"is_reserved":false,"is_disabled":false,"rental_uris":{"android":"levelo://app?vid=9d4efc16-5364-4647-b094-23661087b1a5","ios":"levelo://app?vid=9d4efc16-5364-4647-b094-23661087b1a5"},"vehicle_type_id":"4","last_reported":1726175274,"current_range_meters":38800,"station_id":"ce4bh392rcd13ifvqdl0","pricing_plan_id":"cebpf4jnsgd1na2vs0mg"},{"bike_id":"5fd28eeb-a17f-4521-95fc-452850faa45e","system_id":"levelo_inurba_marseille","lat":43.29544,"lon":5.39032,"is_reserved":false,"is_disabled":false,"rental_uris":{"android":"levelo://app?vid=5fd28eeb-a17f-4521-95fc-452850faa45e","ios":"levelo://app?vid=5fd28eeb-a17f-4521-95fc-452850faa45e"},"vehicle_type_id":"4","last_reported":1726175274,"current_range_meters":30800,"station_id":"ce4bh3p2rcd13ifvqdp0","pricing_plan_id":"cebpf4jnsgd1na2vs0mg"},{"bike_id":"d965a696-db9d-4364-84dc-dd64b965c8ce","system_id":"levelo_inurba_marseille","lat":43.29193,"lon":5.39317,"is_reserved":false,"is_disabled":false,"rental_uris":{"android":"levelo://app?vid=d965a696-db9d-4364-84dc-dd64b965c8ce","ios":"levelo://app?vid=d965a696-db9d-4364-84dc-dd64b965c8ce"},"vehicle_type_id":"4","last_reported":1726175274,"current_range_meters":38800,"station_id":"ce4bh192rcd13ifvqdd0","pricing_plan_id":"cebpf4jnsgd1na2vs0mg"},{"bike_id":"b7989343-5246-407a-b930-d10e6ab1df20","system_id":"levelo_inurba_marseille","lat":43.29034,"lon":5.35908,"is_reserved":false,"is_disabled":false,"rental_uris":{"android":"levelo://app?vid=b7989343-5246-407a-b930-d10e6ab1df20","ios":"levelo://app?vid=b7989343-5246-407a-b930-d10e6ab1df20"},"vehicle_type_id":"4","last_reported":1726175274,"current_range_meters":39200,"station_id":"ce4bha92rcd13ifvqeg0","pricing_plan_id":"cebpf4jnsgd1na2vs0mg"},{"bike_id":"eb225b3e-21ad-41be-b065-c447ddef92f2","system_id":"levelo_inurba_marseille","lat":43.294645,"lon":5.397311,"is_reserved":false,"is_disabled":false,"rental_uris":{"android":"levelo://app?vid=eb225b3e-21ad-41be-b065-c447ddef92f2","ios":"levelo://app?vid=eb225b3e-21ad-41be-b065-c447ddef92f2"},"vehicle_type_id":"4","last_reported":1726175274,"current_range_meters":26800,"station_id":"ce4bh3h2rcd13ifvqdo0","pricing_plan_id":"cebpf4jnsgd1na2vs0mg"},{"bike_id":"e47b7ac8-925d-4859-9d8d-e98952a0499a","system_id":"levelo_inurba_marseille","lat":43.24806,"lon":5.37458,"is_reserved":false,"is_disabled":false,"rental_uris":{"android":"levelo://app?vid=e47b7ac8-925d-4859-9d8d-e98952a0499a","ios":"levelo://app?vid=e47b7ac8-925d-4859-9d8d-e98952a0499a"},"vehicle_type_id":"4","last_reported":1726175274,"current_range_meters":12800,"station_id":"ce4bhgh2rcd13ifvqfb0","pricing_plan_id":"cebpf4jnsgd1na2vs0mg"},{"bike_id":"f8d0fba0-b375-496d-9fb6-aac6b8a7715f","system_id":"levelo_inurba_marseille","lat":43.31703,"lon":5.37755,"is_reserved":false,"is_disabled":false,"rental_uris":{"android":"levelo://app?vid=f8d0fba0-b375-496d-9fb6-aac6b8a7715f","ios":"levelo://app?vid=f8d0fba0-b375-496d-9fb6-aac6b8a7715f"},"vehicle_type_id":"4","last_reported":1726175274,"current_range_meters":12800,"station_id":"ce4bgth2rcd13ifvqch0","pricing_plan_id":"cebpf4jnsgd1na2vs0mg"},{"bike_id":"5153a7af-9d3d-4a28-aa5e-32bc2777baff","system_id":"levelo_inurba_marseille","lat":43.2512,"lon":5.4032,"is_reserved":false,"is_disabled":false,"rental_uris":{"android":"levelo://app?vid=5153a7af-9d3d-4a28-aa5e-32bc2777baff","ios":"levelo://app?vid=5153a7af-9d3d-4a28-aa5e-32bc2777baff"},"vehicle_type_id":"4","last_reported":1726175274,"current_range_meters":37600,"station_id":"ce4bhlh2rcd13ifvqgig","pricing_plan_id":"cebpf4jnsgd1na2vs0mg"},{"bike_id":"4e378ba7-e144-417b-bddf-998c558952c0","system_id":"levelo_inurba_marseille","lat":43.26212,"lon":5.37937,"is_reserved":false,"is_disabled":false,"rental_uris":{"android":"levelo://app?vid=4e378ba7-e144-417b-bddf-998c558952c0","ios":"levelo://app?vid=4e378ba7-e144-417b-bddf-998c558952c0"},"vehicle_type_id":"4","last_reported":1726175274,"current_range_meters":6400,"station_id":"ce4bhjp2rcd13ifvqg90","pricing_plan_id":"cebpf4jnsgd1na2vs0mg"},{"bike_id":"13ec4916-f0ea-4897-8afc-596425b42c42","system_id":"levelo_inurba_marseille","lat":43.23195,"lon":5.35551,"is_reserved":false,"is_disabled":false,"rental_uris":{"android":"levelo://app?vid=13ec4916-f0ea-4897-8afc-596425b42c42","ios":"levelo://app?vid=13ec4916-f0ea-4897-8afc-596425b42c42"},"vehicle_type_id":"4","last_reported":1726175274,"current_range_meters":36000,"station_id":"ce4bhu92rcd13ifvqi70","pricing_plan_id":"cebpf4jnsgd1na2vs0mg"},{"bike_id":"b620d509-8da0-4979-9d23-fef6c70ac3cc","system_id":"levelo_inurba_marseille","lat":43.28409,"lon":5.37514,"is_reserved":false,"is_disabled":false,"rental_uris":{"android":"levelo://app?vid=b620d509-8da0-4979-9d23-fef6c70ac3cc","ios":"levelo://app?vid=b620d509-8da0-4979-9d23-fef6c70ac3cc"},"vehicle_type_id":"4","last_reported":1726175274,"current_range_meters":38400,"station_id":"ce4bh412rcd13ifvqds0","pricing_plan_id":"cebpf4jnsgd1na2vs0mg"},{"bike_id":"d6317b62-4510-4ed3-aefd-feea6e1502be","system_id":"levelo_inurba_marseille","lat":43.30264,"lon":5.40096,"is_reserved":false,"is_disabled":false,"rental_uris":{"android":"levelo://app?vid=d6317b62-4510-4ed3-aefd-feea6e1502be","ios":"levelo://app?vid=d6317b62-4510-4ed3-aefd-feea6e1502be"},"vehicle_type_id":"4","last_reported":1726175274,"current_range_meters":38400,"station_id":"ce4bgvh2rcd13ifvqcs0","pricing_plan_id":"cebpf4jnsgd1na2vs0mg"},{"bike_id":"f19eec8e-9a77-4128-864b-267db058fb23","system_id":"levelo_inurba_marseille","lat":43.30072,"lon":5.380644,"is_reserved":false,"is_disabled":false,"rental_uris":{"android":"levelo://app?vid=f19eec8e-9a77-4128-864b-267db058fb23","ios":"levelo://app?vid=f19eec8e-9a77-4128-864b-267db058fb23"},"vehicle_type_id":"4","last_reported":1726175274,"current_range_meters":37600,"station_id":"ce4bhhh2rcd13ifvqfl0","pricing_plan_id":"cebpf4jnsgd1na2vs0mg"},{"bike_id":"d13844ac-d8d5-4630-a735-d14a8cd8cfc2","system_id":"levelo_inurba_marseille","lat":43.2468,"lon":5.38157,"is_reserved":false,"is_disabled":false,"rental_uris":{"android":"levelo://app?vid=d13844ac-d8d5-4630-a735-d14a8cd8cfc2","ios":"levelo://app?vid=d13844ac-d8d5-4630-a735-d14a8cd8cfc2"},"vehicle_type_id":"4","last_reported":1726175274,"current_range_meters":37600,"station_id":"ce4bhih2rcd13ifvqfr0","pricing_plan_id":"cebpf4jnsgd1na2vs0mg"},{"bike_id":"a59d64a6-0c90-478e-8726-6eda2f84c2f7","system_id":"levelo_inurba_marseille","lat":43.26032,"lon":5.37548,"is_reserved":false,"is_disabled":false,"rental_uris":{"android":"levelo://app?vid=a59d64a6-0c90-478e-8726-6eda2f84c2f7","ios":"levelo://app?vid=a59d64a6-0c90-478e-8726-6eda2f84c2f7"},"vehicle_type_id":"4","last_reported":1726175274,"current_range_meters":8000,"station_id":"ce4bhgh2rcd13ifvqfa0","pricing_plan_id":"cebpf4jnsgd1na2vs0mg"},{"bike_id":"d035d579-2e69-4a79-8e97-e3875f643f43","system_id":"levelo_inurba_marseille","lat":43.2583,"lon":5.39435,"is_reserved":false,"is_disabled":false,"rental_uris":{"android":"levelo://app?vid=d035d579-2e69-4a79-8e97-e3875f643f43","ios":"levelo://app?vid=d035d579-2e69-4a79-8e97-e3875f643f43"},"vehicle_type_id":"4","last_reported":1726175274,"current_range_meters":34000,"station_id":"ce4bhip2rcd13ifvqft0","pricing_plan_id":"cebpf4jnsgd1na2vs0mg"},{"bike_id":"acd8a3d5-a9db-4ea3-b234-2a790cfd605a","system_id":"levelo_inurba_marseille","lat":43.23957,"lon":5.36633,"is_reserved":false,"is_disabled":false,"rental_uris":{"android":"levelo://app?vid=acd8a3d5-a9db-4ea3-b234-2a790cfd605a","ios":"levelo://app?vid=acd8a3d5-a9db-4ea3-b234-2a790cfd605a"},"vehicle_type_id":"4","last_reported":1726175274,"current_range_meters":18800,"station_id":"ce4bhi12rcd13ifvqfp0","pricing_plan_id":"cebpf4jnsgd1na2vs0mg"},{"bike_id":"ace0ecad-0c66-4c3c-adfb-8d60c244cb6d","system_id":"levelo_inurba_marseille","lat":43.32,"lon":5.38155,"is_reserved":false,"is_disabled":false,"rental_uris":{"android":"levelo://app?vid=ace0ecad-0c66-4c3c-adfb-8d60c244cb6d","ios":"levelo://app?vid=ace0ecad-0c66-4c3c-adfb-8d60c244cb6d"},"vehicle_type_id":"4","last_reported":1726175274,"current_range_meters":32000,"station_id":"ce4bhr12rcd13ifvqhpg","pricing_plan_id":"cebpf4jnsgd1na2vs0mg"},{"bike_id":"6c33dae3-fcf3-499f-846d-c96896dd451f","system_id":"levelo_inurba_marseille","lat":43.23191,"lon":5.39984,"is_reserved":false,"is_disabled":false,"rental_uris":{"android":"levelo://app?vid=6c33dae3-fcf3-499f-846d-c96896dd451f","ios":"levelo://app?vid=6c33dae3-fcf3-499f-846d-c96896dd451f"},"vehicle_type_id":"4","last_reported":1726175274,"current_range_meters":32800,"station_id":"ce4bhn12rcd13ifvqgqg","pricing_plan_id":"cebpf4jnsgd1na2vs0mg"},{"bike_id":"ee5bd0a5-1257-48de-9343-ea8521c36cdd","system_id":"levelo_inurba_marseille","lat":43.23203,"lon":5.35555,"is_reserved":false,"is_disabled":false,"rental_uris":{"android":"levelo://app?vid=ee5bd0a5-1257-48de-9343-ea8521c36cdd","ios":"levelo://app?vid=ee5bd0a5-1257-48de-9343-ea8521c36cdd"},"vehicle_type_id":"4","last_reported":1726175274,"current_range_meters":7200,"station_id":"ce4bhu92rcd13ifvqi70","pricing_plan_id":"cebpf4jnsgd1na2vs0mg"},{"bike_id":"995d3a7e-289e-4ebd-b785-9d2da426ad57","system_id":"levelo_inurba_marseille","lat":43.23202,"lon":5.35548,"is_reserved":false,"is_disabled":false,"rental_uris":{"android":"levelo://app?vid=995d3a7e-289e-4ebd-b785-9d2da426ad57","ios":"levelo://app?vid=995d3a7e-289e-4ebd-b785-9d2da426ad57"},"vehicle_type_id":"4","last_reported":1726175274,"current_range_meters":27600,"station_id":"ce4bhu92rcd13ifvqi70","pricing_plan_id":"cebpf4jnsgd1na2vs0mg"},{"bike_id":"74c67d55-8a5f-40c9-8066-d68354718f8c","system_id":"levelo_inurba_marseille","lat":43.23198,"lon":5.35551,"is_reserved":false,"is_disabled":false,"rental_uris":{"android":"levelo://app?vid=74c67d55-8a5f-40c9-8066-d68354718f8c","ios":"levelo://app?vid=74c67d55-8a5f-40c9-8066-d68354718f8c"},"vehicle_type_id":"4","last_reported":1726175274,"current_range_meters":30000,"station_id":"ce4bhu92rcd13ifvqi70","pricing_plan_id":"cebpf4jnsgd1na2vs0mg"},{"bike_id":"86a397a5-5a46-427a-884b-f528ef77038a","system_id":"levelo_inurba_marseille","lat":43.28623,"lon":5.35108,"is_reserved":false,"is_disabled":false,"rental_uris":{"android":"levelo://app?vid=86a397a5-5a46-427a-884b-f528ef77038a","ios":"levelo://app?vid=86a397a5-5a46-427a-884b-f528ef77038a"},"vehicle_type_id":"4","last_reported":1726175274,"current_range_meters":16800,"station_id":"ce4bhch2rcd13ifvqeug","pricing_plan_id":"cebpf4jnsgd1na2vs0mg"},{"bike_id":"f49285f2-c96a-4629-9c9e-8992440fa281","system_id":"levelo_inurba_marseille","lat":43.30649,"lon":5.4009,"is_reserved":false,"is_disabled":false,"rental_uris":{"android":"levelo://app?vid=f49285f2-c96a-4629-9c9e-8992440fa281","ios":"levelo://app?vid=f49285f2-c96a-4629-9c9e-8992440fa281"},"vehicle_type_id":"4","last_reported":1726175274,"current_range_meters":33200,"station_id":"ce4bh112rcd13ifvqda0","pricing_plan_id":"cebpf4jnsgd1na2vs0mg"},{"bike_id":"03700b80-744f-470e-981c-03002de9fd01","system_id":"levelo_inurba_marseille","lat":43.24081,"lon":5.37743,"is_reserved":false,"is_disabled":false,"rental_uris":{"android":"levelo://app?vid=03700b80-744f-470e-981c-03002de9fd01","ios":"levelo://app?vid=03700b80-744f-470e-981c-03002de9fd01"},"vehicle_type_id":"4","last_reported":1726175274,"current_range_meters":38000,"station_id":"ce4bhnp2rcd13ifvqgvg","pricing_plan_id":"cebpf4jnsgd1na2vs0mg"},{"bike_id":"c7a72c95-d3e6-46b3-8c83-3114a189ce35","system_id":"levelo_inurba_marseille","lat":43.2558,"lon":5.38242,"is_reserved":false,"is_disabled":false,"rental_uris":{"android":"levelo://app?vid=c7a72c95-d3e6-46b3-8c83-3114a189ce35","ios":"levelo://app?vid=c7a72c95-d3e6-46b3-8c83-3114a189ce35"},"vehicle_type_id":"4","last_reported":1726175274,"current_range_meters":12000,"station_id":"ce4bhih2rcd13ifvqfs0","pricing_plan_id":"cebpf4jnsgd1na2vs0mg"},{"bike_id":"2518b103-2087-4e9f-ada3-03685009aa2b","system_id":"levelo_inurba_marseille","lat":43.32003,"lon":5.3816,"is_reserved":false,"is_disabled":false,"rental_uris":{"android":"levelo://app?vid=2518b103-2087-4e9f-ada3-03685009aa2b","ios":"levelo://app?vid=2518b103-2087-4e9f-ada3-03685009aa2b"},"vehicle_type_id":"4","last_reported":1726175274,"current_range_meters":17600,"station_id":"ce4bhr12rcd13ifvqhpg","pricing_plan_id":"cebpf4jnsgd1na2vs0mg"},{"bike_id":"f61bc5ff-0ca9-4a0a-9ac8-51023b441bc8","system_id":"levelo_inurba_marseille","lat":43.30878,"lon":5.39661,"is_reserved":false,"is_disabled":false,"rental_uris":{"android":"levelo://app?vid=f61bc5ff-0ca9-4a0a-9ac8-51023b441bc8","ios":"levelo://app?vid=f61bc5ff-0ca9-4a0a-9ac8-51023b441bc8"},"vehicle_type_id":"4","last_reported":1726175274,"current_range_meters":38000,"station_id":"ce4bh012rcd13ifvqcv0","pricing_plan_id":"cebpf4jnsgd1na2vs0mg"},{"bike_id":"107e7e4f-6de5-4f61-88a2-ed4c72f010c0","system_id":"levelo_inurba_marseille","lat":43.29977,"lon":5.38501,"is_reserved":false,"is_disabled":false,"rental_uris":{"android":"levelo://app?vid=107e7e4f-6de5-4f61-88a2-ed4c72f010c0","ios":"levelo://app?vid=107e7e4f-6de5-4f61-88a2-ed4c72f010c0"},"vehicle_type_id":"4","last_reported":1726175274,"current_range_meters":37600,"station_id":"ce4bgj92rcd13ifvqbd0","pricing_plan_id":"cebpf4jnsgd1na2vs0mg"},{"bike_id":"9e1990ee-f9cd-4f72-942d-e0669ce7ac13","system_id":"levelo_inurba_marseille","lat":43.3113,"lon":5.37776,"is_reserved":false,"is_disabled":false,"rental_uris":{"android":"levelo://app?vid=9e1990ee-f9cd-4f72-942d-e0669ce7ac13","ios":"levelo://app?vid=9e1990ee-f9cd-4f72-942d-e0669ce7ac13"},"vehicle_type_id":"4","last_reported":1726175274,"current_range_meters":38800,"station_id":"ce4bgt92rcd13ifvqcg0","pricing_plan_id":"cebpf4jnsgd1na2vs0mg"},{"bike_id":"f5b9c6b1-f198-40ef-b943-e34975f08636","system_id":"levelo_inurba_marseille","lat":43.30284,"lon":5.37705,"is_reserved":false,"is_disabled":false,"rental_uris":{"android":"levelo://app?vid=f5b9c6b1-f198-40ef-b943-e34975f08636","ios":"levelo://app?vid=f5b9c6b1-f198-40ef-b943-e34975f08636"},"vehicle_type_id":"4","last_reported":1726175274,"current_range_meters":26800,"station_id":"ce4bguh2rcd13ifvqcj0","pricing_plan_id":"cebpf4jnsgd1na2vs0mg"},{"bike_id":"6e60b6e8-db02-40bf-839f-032c2b1282c4","system_id":"levelo_inurba_marseille","lat":43.27989,"lon":5.38732,"is_reserved":false,"is_disabled":false,"rental_uris":{"android":"levelo://app?vid=6e60b6e8-db02-40bf-839f-032c2b1282c4","ios":"levelo://app?vid=6e60b6e8-db02-40bf-839f-032c2b1282c4"},"vehicle_type_id":"4","last_reported":1726175274,"current_range_meters":34800,"station_id":"ce4bhg12rcd13ifvqf80","pricing_plan_id":"cebpf4jnsgd1na2vs0mg"},{"bike_id":"10a91319-b90e-4912-be8e-1cffd731bab1","system_id":"levelo_inurba_marseille","lat":43.2808,"lon":5.39656,"is_reserved":false,"is_disabled":false,"rental_uris":{"android":"levelo://app?vid=10a91319-b90e-4912-be8e-1cffd731bab1","ios":"levelo://app?vid=10a91319-b90e-4912-be8e-1cffd731bab1"},"vehicle_type_id":"4","last_reported":1726175274,"current_range_meters":28000,"station_id":"ce4bho12rcd13ifvqh2g","pricing_plan_id":"cebpf4jnsgd1na2vs0mg"},{"bike_id":"a8d39514-1139-4cf4-8414-bd44e6257a36","system_id":"levelo_inurba_marseille","lat":43.28367,"lon":5.38646,"is_reserved":false,"is_disabled":false,"rental_uris":{"android":"levelo://app?vid=a8d39514-1139-4cf4-8414-bd44e6257a36","ios":"levelo://app?vid=a8d39514-1139-4cf4-8414-bd44e6257a36"},"vehicle_type_id":"4","last_reported":1726175274,"current_range_meters":38800,"station_id":"ce4bh492rcd13ifvqdvg","pricing_plan_id":"cebpf4jnsgd1na2vs0mg"},{"bike_id":"414f5e7e-3903-4c7e-9e13-9530da24b6b1","system_id":"levelo_inurba_marseille","lat":43.29199,"lon":5.3932,"is_reserved":false,"is_disabled":false,"rental_uris":{"android":"levelo://app?vid=414f5e7e-3903-4c7e-9e13-9530da24b6b1","ios":"levelo://app?vid=414f5e7e-3903-4c7e-9e13-9530da24b6b1"},"vehicle_type_id":"4","last_reported":1726175274,"current_range_meters":38800,"station_id":"ce4bh192rcd13ifvqdd0","pricing_plan_id":"cebpf4jnsgd1na2vs0mg"},{"bike_id":"281115a1-44c2-45f0-84b6-2e74cc57714a","system_id":"levelo_inurba_marseille","lat":43.32472,"lon":5.40731,"is_reserved":false,"is_disabled":false,"rental_uris":{"android":"levelo://app?vid=281115a1-44c2-45f0-84b6-2e74cc57714a","ios":"levelo://app?vid=281115a1-44c2-45f0-84b6-2e74cc57714a"},"vehicle_type_id":"4","last_reported":1726175274,"current_range_meters":27200,"station_id":"","pricing_plan_id":"cebpf4jnsgd1na2vs0mg"},{"bike_id":"d54209f6-3398-4e00-8b3a-a3ed0a88f3b6","system_id":"levelo_inurba_marseille","lat":43.24564,"lon":5.3732,"is_reserved":false,"is_disabled":false,"rental_uris":{"android":"levelo://app?vid=d54209f6-3398-4e00-8b3a-a3ed0a88f3b6","ios":"levelo://app?vid=d54209f6-3398-4e00-8b3a-a3ed0a88f3b6"},"vehicle_type_id":"4","last_reported":1726175274,"current_range_meters":31200,"station_id":"","pricing_plan_id":"cebpf4jnsgd1na2vs0mg"},{"bike_id":"8f8acd34-b5ec-42d7-8eff-8a3155e32c59","system_id":"levelo_inurba_marseille","lat":43.28617,"lon":5.35105,"is_reserved":false,"is_disabled":false,"rental_uris":{"android":"levelo://app?vid=8f8acd34-b5ec-42d7-8eff-8a3155e32c59","ios":"levelo://app?vid=8f8acd34-b5ec-42d7-8eff-8a3155e32c59"},"vehicle_type_id":"4","last_reported":1726175274,"current_range_meters":27600,"station_id":"ce4bhch2rcd13ifvqeug","pricing_plan_id":"cebpf4jnsgd1na2vs0mg"},{"bike_id":"d648aedf-2021-469e-8817-c4c25919a239","system_id":"levelo_inurba_marseille","lat":43.27953,"lon":5.41048,"is_reserved":false,"is_disabled":false,"rental_uris":{"android":"levelo://app?vid=d648aedf-2021-469e-8817-c4c25919a239","ios":"levelo://app?vid=d648aedf-2021-469e-8817-c4c25919a239"},"vehicle_type_id":"4","last_reported":1726175274,"current_range_meters":11200,"station_id":"ce4bh312rcd13ifvqdj0","pricing_plan_id":"cebpf4jnsgd1na2vs0mg"},{"bike_id":"9d302fd2-cf2d-4d06-b7d7-4f621dedcd6a","system_id":"levelo_inurba_marseille","lat":43.32371,"lon":5.38884,"is_reserved":false,"is_disabled":false,"rental_uris":{"android":"levelo://app?vid=9d302fd2-cf2d-4d06-b7d7-4f621dedcd6a","ios":"levelo://app?vid=9d302fd2-cf2d-4d06-b7d7-4f621dedcd6a"},"vehicle_type_id":"4","last_reported":1726175274,"current_range_meters":24400,"station_id":"ce4bhqp2rcd13ifvqhog","pricing_plan_id":"cebpf4jnsgd1na2vs0mg"},{"bike_id":"8263ea4a-64d0-4c72-9510-874ccbb3b8e8","system_id":"levelo_inurba_marseille","lat":43.28669,"lon":5.36351,"is_reserved":false,"is_disabled":false,"rental_uris":{"android":"levelo://app?vid=8263ea4a-64d0-4c72-9510-874ccbb3b8e8","ios":"levelo://app?vid=8263ea4a-64d0-4c72-9510-874ccbb3b8e8"},"vehicle_type_id":"4","last_reported":1726175274,"current_range_meters":4400,"station_id":"ce4bhah2rcd13ifvqej0","pricing_plan_id":"cebpf4jnsgd1na2vs0mg"},{"bike_id":"d80f338e-c7b9-4843-a0cc-56dcfe3a81de","system_id":"levelo_inurba_marseille","lat":43.26216,"lon":5.37439,"is_reserved":false,"is_disabled":false,"rental_uris":{"android":"levelo://app?vid=d80f338e-c7b9-4843-a0cc-56dcfe3a81de","ios":"levelo://app?vid=d80f338e-c7b9-4843-a0cc-56dcfe3a81de"},"vehicle_type_id":"4","last_reported":1726175274,"current_range_meters":38800,"station_id":"ce4bhgp2rcd13ifvqfc0","pricing_plan_id":"cebpf4jnsgd1na2vs0mg"},{"bike_id":"3fd95b83-0fdb-4146-a785-5a14738680ad","system_id":"levelo_inurba_marseille","lat":43.25724,"lon":5.41118,"is_reserved":false,"is_disabled":false,"rental_uris":{"android":"levelo://app?vid=3fd95b83-0fdb-4146-a785-5a14738680ad","ios":"levelo://app?vid=3fd95b83-0fdb-4146-a785-5a14738680ad"},"vehicle_type_id":"4","last_reported":1726175274,"current_range_meters":28000,"station_id":"ce4bhkp2rcd13ifvqgd0","pricing_plan_id":"cebpf4jnsgd1na2vs0mg"},{"bike_id":"9ced008f-ae08-4331-b6bc-4d140a97a4b2","system_id":"levelo_inurba_marseille","lat":43.31539,"lon":5.38033,"is_reserved":false,"is_disabled":false,"rental_uris":{"android":"levelo://app?vid=9ced008f-ae08-4331-b6bc-4d140a97a4b2","ios":"levelo://app?vid=9ced008f-ae08-4331-b6bc-4d140a97a4b2"},"vehicle_type_id":"4","last_reported":1726175274,"current_range_meters":38800,"station_id":"ce4bhsp2rcd13ifvqi50","pricing_plan_id":"cebpf4jnsgd1na2vs0mg"},{"bike_id":"d4ca384e-a23d-4802-be23-f450736c27cb","system_id":"levelo_inurba_marseille","lat":43.27902,"lon":5.38005,"is_reserved":false,"is_disabled":false,"rental_uris":{"android":"levelo://app?vid=d4ca384e-a23d-4802-be23-f450736c27cb","ios":"levelo://app?vid=d4ca384e-a23d-4802-be23-f450736c27cb"},"vehicle_type_id":"4","last_reported":1726175274,"current_range_meters":26000,"station_id":"ce4bhf92rcd13ifvqf50","pricing_plan_id":"cebpf4jnsgd1na2vs0mg"},{"bike_id":"8e3fa3c4-0578-445b-a91d-9a9f0137a0dd","system_id":"levelo_inurba_marseille","lat":43.266785,"lon":5.382743,"is_reserved":false,"is_disabled":false,"rental_uris":{"android":"levelo://app?vid=8e3fa3c4-0578-445b-a91d-9a9f0137a0dd","ios":"levelo://app?vid=8e3fa3c4-0578-445b-a91d-9a9f0137a0dd"},"vehicle_type_id":"4","last_reported":1726175274,"current_range_meters":18800,"station_id":"ce4bhg92rcd13ifvqf90","pricing_plan_id":"cebpf4jnsgd1na2vs0mg"},{"bike_id":"36aa17cd-22df-4662-99fa-5bd9b2a70cea","system_id":"levelo_inurba_marseille","lat":43.29102,"lon":5.38131,"is_reserved":false,"is_disabled":false,"rental_uris":{"android":"levelo://app?vid=36aa17cd-22df-4662-99fa-5bd9b2a70cea","ios":"levelo://app?vid=36aa17cd-22df-4662-99fa-5bd9b2a70cea"},"vehicle_type_id":"4","last_reported":1726175274,"current_range_meters":9200,"station_id":"ce4bh512rcd13ifvqe2g","pricing_plan_id":"cebpf4jnsgd1na2vs0mg"},{"bike_id":"0a1f63c4-8197-4edd-9c0f-886e05340093","system_id":"levelo_inurba_marseille","lat":43.26217,"lon":5.37443,"is_reserved":false,"is_disabled":false,"rental_uris":{"android":"levelo://app?vid=0a1f63c4-8197-4edd-9c0f-886e05340093","ios":"levelo://app?vid=0a1f63c4-8197-4edd-9c0f-886e05340093"},"vehicle_type_id":"4","last_reported":1726175274,"current_range_meters":37600,"station_id":"ce4bhgp2rcd13ifvqfc0","pricing_plan_id":"cebpf4jnsgd1na2vs0mg"},{"bike_id":"c5cba1c4-5d62-494b-9dbe-75faa51bf8d0","system_id":"levelo_inurba_marseille","lat":43.2804,"lon":5.36952,"is_reserved":false,"is_disabled":false,"rental_uris":{"android":"levelo://app?vid=c5cba1c4-5d62-494b-9dbe-75faa51bf8d0","ios":"levelo://app?vid=c5cba1c4-5d62-494b-9dbe-75faa51bf8d0"},"vehicle_type_id":"4","last_reported":1726175274,"current_range_meters":10000,"station_id":"ce4bha12rcd13ifvqef0","pricing_plan_id":"cebpf4jnsgd1na2vs0mg"},{"bike_id":"79014cf8-254b-4f38-8393-5fe1636c6f47","system_id":"levelo_inurba_marseille","lat":43.30307,"lon":5.392135,"is_reserved":false,"is_disabled":false,"rental_uris":{"android":"levelo://app?vid=79014cf8-254b-4f38-8393-5fe1636c6f47","ios":"levelo://app?vid=79014cf8-254b-4f38-8393-5fe1636c6f47"},"vehicle_type_id":"4","last_reported":1726175274,"current_range_meters":33200,"station_id":"ce4bgkh2rcd13ifvqbk0","pricing_plan_id":"cebpf4jnsgd1na2vs0mg"},{"bike_id":"91255cdc-760a-4ed0-b345-ff505f8ca388","system_id":"levelo_inurba_marseille","lat":43.299735,"lon":5.387178,"is_reserved":false,"is_disabled":false,"rental_uris":{"android":"levelo://app?vid=91255cdc-760a-4ed0-b345-ff505f8ca388","ios":"levelo://app?vid=91255cdc-760a-4ed0-b345-ff505f8ca388"},"vehicle_type_id":"4","last_reported":1726175274,"current_range_meters":20800,"station_id":"ce4bh4p2rcd13ifvqe0g","pricing_plan_id":"cebpf4jnsgd1na2vs0mg"},{"bike_id":"86b6a2b1-86a4-46ee-8c7e-90cb86d3d820","system_id":"levelo_inurba_marseille","lat":43.31331,"lon":5.39693,"is_reserved":false,"is_disabled":false,"rental_uris":{"android":"levelo://app?vid=86b6a2b1-86a4-46ee-8c7e-90cb86d3d820","ios":"levelo://app?vid=86b6a2b1-86a4-46ee-8c7e-90cb86d3d820"},"vehicle_type_id":"4","last_reported":1726175274,"current_range_meters":38800,"station_id":"ce4bgvp2rcd13ifvqcu0","pricing_plan_id":"cebpf4jnsgd1na2vs0mg"},{"bike_id":"e955429b-7a23-4da4-9748-7b8987eb3393","system_id":"levelo_inurba_marseille","lat":43.29442,"lon":5.39753,"is_reserved":false,"is_disabled":false,"rental_uris":{"android":"levelo://app?vid=e955429b-7a23-4da4-9748-7b8987eb3393","ios":"levelo://app?vid=e955429b-7a23-4da4-9748-7b8987eb3393"},"vehicle_type_id":"4","last_reported":1726175274,"current_range_meters":17200,"station_id":"ce4bh3h2rcd13ifvqdo0","pricing_plan_id":"cebpf4jnsgd1na2vs0mg"},{"bike_id":"6a81ada9-c4f5-4d4c-acd0-9aa1a1ab1123","system_id":"levelo_inurba_marseille","lat":43.28018,"lon":5.40616,"is_reserved":false,"is_disabled":false,"rental_uris":{"android":"levelo://app?vid=6a81ada9-c4f5-4d4c-acd0-9aa1a1ab1123","ios":"levelo://app?vid=6a81ada9-c4f5-4d4c-acd0-9aa1a1ab1123"},"vehicle_type_id":"4","last_reported":1726175274,"current_range_meters":28800,"station_id":"","pricing_plan_id":"cebpf4jnsgd1na2vs0mg"},{"bike_id":"8e98efbc-337e-43f7-aebb-3708ed1326a7","system_id":"levelo_inurba_marseille","lat":43.28413,"lon":5.37521,"is_reserved":false,"is_disabled":false,"rental_uris":{"android":"levelo://app?vid=8e98efbc-337e-43f7-aebb-3708ed1326a7","ios":"levelo://app?vid=8e98efbc-337e-43f7-aebb-3708ed1326a7"},"vehicle_type_id":"4","last_reported":1726175274,"current_range_meters":25200,"station_id":"ce4bh412rcd13ifvqds0","pricing_plan_id":"cebpf4jnsgd1na2vs0mg"},{"bike_id":"7a1438cb-49ef-45e0-b4f2-8d8919c254de","system_id":"levelo_inurba_marseille","lat":43.307739,"lon":5.400801,"is_reserved":false,"is_disabled":false,"rental_uris":{"android":"levelo://app?vid=7a1438cb-49ef-45e0-b4f2-8d8919c254de","ios":"levelo://app?vid=7a1438cb-49ef-45e0-b4f2-8d8919c254de"},"vehicle_type_id":"4","last_reported":1726175274,"current_range_meters":36800,"station_id":"ce4bgvp2rcd13ifvqct0","pricing_plan_id":"cebpf4jnsgd1na2vs0mg"},{"bike_id":"af86506f-f8fe-4c34-9939-464ebed8523b","system_id":"levelo_inurba_marseille","lat":43.31761,"lon":5.39006,"is_reserved":false,"is_disabled":false,"rental_uris":{"android":"levelo://app?vid=af86506f-f8fe-4c34-9939-464ebed8523b","ios":"levelo://app?vid=af86506f-f8fe-4c34-9939-464ebed8523b"},"vehicle_type_id":"4","last_reported":1726175274,"current_range_meters":38800,"station_id":"ce4bhqp2rcd13ifvqhng","pricing_plan_id":"cebpf4jnsgd1na2vs0mg"},{"bike_id":"4067cf6c-6e3d-4ac9-99bf-c1b92b69f736","system_id":"levelo_inurba_marseille","lat":43.32487,"lon":5.36568,"is_reserved":false,"is_disabled":false,"rental_uris":{"android":"levelo://app?vid=4067cf6c-6e3d-4ac9-99bf-c1b92b69f736","ios":"levelo://app?vid=4067cf6c-6e3d-4ac9-99bf-c1b92b69f736"},"vehicle_type_id":"4","last_reported":1726175274,"current_range_meters":27600,"station_id":"ce4bhs12rcd13ifvqhvg","pricing_plan_id":"cebpf4jnsgd1na2vs0mg"},{"bike_id":"790bd815-cb1d-4d38-9b83-3c4bf066e581","system_id":"levelo_inurba_marseille","lat":43.29196,"lon":5.3932,"is_reserved":false,"is_disabled":false,"rental_uris":{"android":"levelo://app?vid=790bd815-cb1d-4d38-9b83-3c4bf066e581","ios":"levelo://app?vid=790bd815-cb1d-4d38-9b83-3c4bf066e581"},"vehicle_type_id":"4","last_reported":1726175274,"current_range_meters":39200,"station_id":"ce4bh192rcd13ifvqdd0","pricing_plan_id":"cebpf4jnsgd1na2vs0mg"},{"bike_id":"b4690210-bc85-4d1c-b4b2-bd188e8e13d0","system_id":"levelo_inurba_marseille","lat":43.30789,"lon":5.3764,"is_reserved":false,"is_disabled":false,"rental_uris":{"android":"levelo://app?vid=b4690210-bc85-4d1c-b4b2-bd188e8e13d0","ios":"levelo://app?vid=b4690210-bc85-4d1c-b4b2-bd188e8e13d0"},"vehicle_type_id":"4","last_reported":1726175274,"current_range_meters":6000,"station_id":"ce4bgv92rcd13ifvqcq0","pricing_plan_id":"cebpf4jnsgd1na2vs0mg"},{"bike_id":"57a663f3-b9a2-494a-aab2-5e9fe0eddaba","system_id":"levelo_inurba_marseille","lat":43.29386,"lon":5.37841,"is_reserved":false,"is_disabled":false,"rental_uris":{"android":"levelo://app?vid=57a663f3-b9a2-494a-aab2-5e9fe0eddaba","ios":"levelo://app?vid=57a663f3-b9a2-494a-aab2-5e9fe0eddaba"},"vehicle_type_id":"4","last_reported":1726175274,"current_range_meters":35200,"station_id":"ce4bgjh2rcd13ifvqbf0","pricing_plan_id":"cebpf4jnsgd1na2vs0mg"},{"bike_id":"02388115-3e7a-485f-9e4c-ab36cd10850f","system_id":"levelo_inurba_marseille","lat":43.28668,"lon":5.36357,"is_reserved":false,"is_disabled":false,"rental_uris":{"android":"levelo://app?vid=02388115-3e7a-485f-9e4c-ab36cd10850f","ios":"levelo://app?vid=02388115-3e7a-485f-9e4c-ab36cd10850f"},"vehicle_type_id":"4","last_reported":1726175274,"current_range_meters":6000,"station_id":"ce4bhah2rcd13ifvqej0","pricing_plan_id":"cebpf4jnsgd1na2vs0mg"},{"bike_id":"eaf3218e-3b2a-4dde-9c15-99a6c4254e56","system_id":"levelo_inurba_marseille","lat":43.29905,"lon":5.43661,"is_reserved":false,"is_disabled":false,"rental_uris":{"android":"levelo://app?vid=eaf3218e-3b2a-4dde-9c15-99a6c4254e56","ios":"levelo://app?vid=eaf3218e-3b2a-4dde-9c15-99a6c4254e56"},"vehicle_type_id":"4","last_reported":1726175274,"current_range_meters":36800,"station_id":"ce4bhpp2rcd13ifvqhfg","pricing_plan_id":"cebpf4jnsgd1na2vs0mg"},{"bike_id":"e457aa6e-9797-4725-bcb7-f770893e3247","system_id":"levelo_inurba_marseille","lat":43.32348,"lon":5.40617,"is_reserved":false,"is_disabled":false,"rental_uris":{"android":"levelo://app?vid=e457aa6e-9797-4725-bcb7-f770893e3247","ios":"levelo://app?vid=e457aa6e-9797-4725-bcb7-f770893e3247"},"vehicle_type_id":"4","last_reported":1726175274,"current_range_meters":28000,"station_id":"ce4bhq92rcd13ifvqhjg","pricing_plan_id":"cebpf4jnsgd1na2vs0mg"},{"bike_id":"167a750e-1c21-46ee-9197-5070ccc4b67c","system_id":"levelo_inurba_marseille","lat":43.304199,"lon":5.378927,"is_reserved":false,"is_disabled":false,"rental_uris":{"android":"levelo://app?vid=167a750e-1c21-46ee-9197-5070ccc4b67c","ios":"levelo://app?vid=167a750e-1c21-46ee-9197-5070ccc4b67c"},"vehicle_type_id":"4","last_reported":1726175274,"current_range_meters":19200,"station_id":"ce4bgj12rcd13ifvqbc0","pricing_plan_id":"cebpf4jnsgd1na2vs0mg"},{"bike_id":"cecface1-56d7-4ab5-8598-175ab47731bd","system_id":"levelo_inurba_marseille","lat":43.2963,"lon":5.406,"is_reserved":false,"is_disabled":false,"rental_uris":{"android":"levelo://app?vid=cecface1-56d7-4ab5-8598-175ab47731bd","ios":"levelo://app?vid=cecface1-56d7-4ab5-8598-175ab47731bd"},"vehicle_type_id":"4","last_reported":1726175274,"current_range_meters":22000,"station_id":"ce4bh0h2rcd13ifvqd60","pricing_plan_id":"cebpf4jnsgd1na2vs0mg"},{"bike_id":"edbe1f8b-915d-43a4-9fc1-ed7dc36e34fc","system_id":"levelo_inurba_marseille","lat":43.29896,"lon":5.389,"is_reserved":false,"is_disabled":false,"rental_uris":{"android":"levelo://app?vid=edbe1f8b-915d-43a4-9fc1-ed7dc36e34fc","ios":"levelo://app?vid=edbe1f8b-915d-43a4-9fc1-ed7dc36e34fc"},"vehicle_type_id":"4","last_reported":1726175274,"current_range_meters":31200,"station_id":"ce4bh392rcd13ifvqdl0","pricing_plan_id":"cebpf4jnsgd1na2vs0mg"},{"bike_id":"e1a7639c-7174-475c-ad2b-19afe11370ad","system_id":"levelo_inurba_marseille","lat":43.309245,"lon":5.401355,"is_reserved":false,"is_disabled":false,"rental_uris":{"android":"levelo://app?vid=e1a7639c-7174-475c-ad2b-19afe11370ad","ios":"levelo://app?vid=e1a7639c-7174-475c-ad2b-19afe11370ad"},"vehicle_type_id":"4","last_reported":1726175274,"current_range_meters":28800,"station_id":"ce4bgvp2rcd13ifvqct0","pricing_plan_id":"cebpf4jnsgd1na2vs0mg"},{"bike_id":"4db079ec-c65a-43df-bfcc-9b7a2e2d7a2a","system_id":"levelo_inurba_marseille","lat":43.28444,"lon":5.39188,"is_reserved":false,"is_disabled":false,"rental_uris":{"android":"levelo://app?vid=4db079ec-c65a-43df-bfcc-9b7a2e2d7a2a","ios":"levelo://app?vid=4db079ec-c65a-43df-bfcc-9b7a2e2d7a2a"},"vehicle_type_id":"4","last_reported":1726175274,"current_range_meters":5600,"station_id":"ce4bhoh2rcd13ifvqh5g","pricing_plan_id":"cebpf4jnsgd1na2vs0mg"},{"bike_id":"ed2556c2-3ae8-4cd9-96da-9d8dfef2b271","system_id":"levelo_inurba_marseille","lat":43.277496,"lon":5.395256,"is_reserved":false,"is_disabled":false,"rental_uris":{"android":"levelo://app?vid=ed2556c2-3ae8-4cd9-96da-9d8dfef2b271","ios":"levelo://app?vid=ed2556c2-3ae8-4cd9-96da-9d8dfef2b271"},"vehicle_type_id":"4","last_reported":1726175274,"current_range_meters":30400,"station_id":"","pricing_plan_id":"cebpf4jnsgd1na2vs0mg"},{"bike_id":"89b52cf9-f28f-4fbf-9f58-9f98a82c41c7","system_id":"levelo_inurba_marseille","lat":43.28467,"lon":5.3589,"is_reserved":false,"is_disabled":false,"rental_uris":{"android":"levelo://app?vid=89b52cf9-f28f-4fbf-9f58-9f98a82c41c7","ios":"levelo://app?vid=89b52cf9-f28f-4fbf-9f58-9f98a82c41c7"},"vehicle_type_id":"4","last_reported":1726175274,"current_range_meters":5600,"station_id":"ce4bhah2rcd13ifvqei0","pricing_plan_id":"cebpf4jnsgd1na2vs0mg"},{"bike_id":"46cf5587-ec03-47b0-9a29-cf537021b470","system_id":"levelo_inurba_marseille","lat":43.3238,"lon":5.38896,"is_reserved":false,"is_disabled":false,"rental_uris":{"android":"levelo://app?vid=46cf5587-ec03-47b0-9a29-cf537021b470","ios":"levelo://app?vid=46cf5587-ec03-47b0-9a29-cf537021b470"},"vehicle_type_id":"4","last_reported":1726175274,"current_range_meters":20000,"station_id":"ce4bhqp2rcd13ifvqhog","pricing_plan_id":"cebpf4jnsgd1na2vs0mg"},{"bike_id":"2d268ce5-dbf0-407b-a13d-a0a8eb5d7803","system_id":"levelo_inurba_marseille","lat":43.30138,"lon":5.39869,"is_reserved":false,"is_disabled":false,"rental_uris":{"android":"levelo://app?vid=2d268ce5-dbf0-407b-a13d-a0a8eb5d7803","ios":"levelo://app?vid=2d268ce5-dbf0-407b-a13d-a0a8eb5d7803"},"vehicle_type_id":"4","last_reported":1726175274,"current_range_meters":17600,"station_id":"ce4bh0h2rcd13ifvqd40","pricing_plan_id":"cebpf4jnsgd1na2vs0mg"},{"bike_id":"8764129a-9b8d-4490-a1c9-f9fa60b4a560","system_id":"levelo_inurba_marseille","lat":43.33622,"lon":5.41043,"is_reserved":false,"is_disabled":false,"rental_uris":{"android":"levelo://app?vid=8764129a-9b8d-4490-a1c9-f9fa60b4a560","ios":"levelo://app?vid=8764129a-9b8d-4490-a1c9-f9fa60b4a560"},"vehicle_type_id":"4","last_reported":1726175274,"current_range_meters":28400,"station_id":"ce4bhqh2rcd13ifvqhmg","pricing_plan_id":"cebpf4jnsgd1na2vs0mg"},{"bike_id":"cdb7f7b4-ad89-4f18-9858-49d0e878e14f","system_id":"levelo_inurba_marseille","lat":43.3255,"lon":5.41443,"is_reserved":false,"is_disabled":false,"rental_uris":{"android":"levelo://app?vid=cdb7f7b4-ad89-4f18-9858-49d0e878e14f","ios":"levelo://app?vid=cdb7f7b4-ad89-4f18-9858-49d0e878e14f"},"vehicle_type_id":"4","last_reported":1726175274,"current_range_meters":3600,"station_id":"ce4bhq12rcd13ifvqhhg","pricing_plan_id":"cebpf4jnsgd1na2vs0mg"},{"bike_id":"6516f0c6-d4ca-4768-a850-967ced0d59bb","system_id":"levelo_inurba_marseille","lat":43.29789,"lon":5.39354,"is_reserved":false,"is_disabled":false,"rental_uris":{"android":"levelo://app?vid=6516f0c6-d4ca-4768-a850-967ced0d59bb","ios":"levelo://app?vid=6516f0c6-d4ca-4768-a850-967ced0d59bb"},"vehicle_type_id":"4","last_reported":1726175274,"current_range_meters":24000,"station_id":"chh1huq6cuj3fo74tm60","pricing_plan_id":"cebpf4jnsgd1na2vs0mg"},{"bike_id":"96cb29cb-8da1-4dd6-bd35-ee190827a973","system_id":"levelo_inurba_marseille","lat":43.26563,"lon":5.37283,"is_reserved":false,"is_disabled":false,"rental_uris":{"android":"levelo://app?vid=96cb29cb-8da1-4dd6-bd35-ee190827a973","ios":"levelo://app?vid=96cb29cb-8da1-4dd6-bd35-ee190827a973"},"vehicle_type_id":"4","last_reported":1726175274,"current_range_meters":9200,"station_id":"ce4bhg12rcd13ifvqf70","pricing_plan_id":"cebpf4jnsgd1na2vs0mg"},{"bike_id":"a61c9e04-bce5-4e44-99ea-7dd65bcde295","system_id":"levelo_inurba_marseille","lat":43.2901,"lon":5.35616,"is_reserved":false,"is_disabled":false,"rental_uris":{"android":"levelo://app?vid=a61c9e04-bce5-4e44-99ea-7dd65bcde295","ios":"levelo://app?vid=a61c9e04-bce5-4e44-99ea-7dd65bcde295"},"vehicle_type_id":"4","last_reported":1726175274,"current_range_meters":28400,"station_id":"ce4bhb92rcd13ifvqen0","pricing_plan_id":"cebpf4jnsgd1na2vs0mg"},{"bike_id":"cd75701b-d41a-41fb-929e-c69d8fbf02a7","system_id":"levelo_inurba_marseille","lat":43.23972,"lon":5.36632,"is_reserved":false,"is_disabled":false,"rental_uris":{"android":"levelo://app?vid=cd75701b-d41a-41fb-929e-c69d8fbf02a7","ios":"levelo://app?vid=cd75701b-d41a-41fb-929e-c69d8fbf02a7"},"vehicle_type_id":"4","last_reported":1726175274,"current_range_meters":30400,"station_id":"ce4bhi12rcd13ifvqfp0","pricing_plan_id":"cebpf4jnsgd1na2vs0mg"},{"bike_id":"012e77e7-347d-4ec8-8319-260ab680b165","system_id":"levelo_inurba_marseille","lat":43.28103,"lon":5.37843,"is_reserved":false,"is_disabled":false,"rental_uris":{"android":"levelo://app?vid=012e77e7-347d-4ec8-8319-260ab680b165","ios":"levelo://app?vid=012e77e7-347d-4ec8-8319-260ab680b165"},"vehicle_type_id":"4","last_reported":1726175274,"current_range_meters":14400,"station_id":"ce4bha12rcd13ifvqee0","pricing_plan_id":"cebpf4jnsgd1na2vs0mg"},{"bike_id":"7cb88d9c-4fcb-4cf8-989f-12f6d423e8b3","system_id":"levelo_inurba_marseille","lat":43.27074,"lon":5.42279,"is_reserved":false,"is_disabled":false,"rental_uris":{"android":"levelo://app?vid=7cb88d9c-4fcb-4cf8-989f-12f6d423e8b3","ios":"levelo://app?vid=7cb88d9c-4fcb-4cf8-989f-12f6d423e8b3"},"vehicle_type_id":"4","last_reported":1726175274,"current_range_meters":32000,"station_id":"ce4bhk92rcd13ifvqgb0","pricing_plan_id":"cebpf4jnsgd1na2vs0mg"},{"bike_id":"2a5b8669-a39c-418c-95de-04ed7a3b697d","system_id":"levelo_inurba_marseille","lat":43.28109,"lon":5.37839,"is_reserved":false,"is_disabled":false,"rental_uris":{"android":"levelo://app?vid=2a5b8669-a39c-418c-95de-04ed7a3b697d","ios":"levelo://app?vid=2a5b8669-a39c-418c-95de-04ed7a3b697d"},"vehicle_type_id":"4","last_reported":1726175274,"current_range_meters":32000,"station_id":"ce4bha12rcd13ifvqee0","pricing_plan_id":"cebpf4jnsgd1na2vs0mg"},{"bike_id":"34ede407-fce7-4386-8202-618277aaeb81","system_id":"levelo_inurba_marseille","lat":43.27818,"lon":5.40712,"is_reserved":false,"is_disabled":false,"rental_uris":{"android":"levelo://app?vid=34ede407-fce7-4386-8202-618277aaeb81","ios":"levelo://app?vid=34ede407-fce7-4386-8202-618277aaeb81"},"vehicle_type_id":"4","last_reported":1726175274,"current_range_meters":10800,"station_id":"ce4bhnh2rcd13ifvqgtg","pricing_plan_id":"cebpf4jnsgd1na2vs0mg"},{"bike_id":"a9537a4b-a7c4-46fd-ac30-52f5354b0ad6","system_id":"levelo_inurba_marseille","lat":43.31696,"lon":5.40482,"is_reserved":false,"is_disabled":false,"rental_uris":{"android":"levelo://app?vid=a9537a4b-a7c4-46fd-ac30-52f5354b0ad6","ios":"levelo://app?vid=a9537a4b-a7c4-46fd-ac30-52f5354b0ad6"},"vehicle_type_id":"4","last_reported":1726175274,"current_range_meters":38800,"station_id":"ce4bh012rcd13ifvqd00","pricing_plan_id":"cebpf4jnsgd1na2vs0mg"},{"bike_id":"98c41a42-a764-442b-bc30-ebd49030c355","system_id":"levelo_inurba_marseille","lat":43.28465,"lon":5.35882,"is_reserved":false,"is_disabled":false,"rental_uris":{"android":"levelo://app?vid=98c41a42-a764-442b-bc30-ebd49030c355","ios":"levelo://app?vid=98c41a42-a764-442b-bc30-ebd49030c355"},"vehicle_type_id":"4","last_reported":1726175274,"current_range_meters":36400,"station_id":"ce4bhah2rcd13ifvqei0","pricing_plan_id":"cebpf4jnsgd1na2vs0mg"},{"bike_id":"226e0a85-18b1-486b-bf74-1b56430bd1bf","system_id":"levelo_inurba_marseille","lat":43.26495,"lon":5.39541,"is_reserved":false,"is_disabled":false,"rental_uris":{"android":"levelo://app?vid=226e0a85-18b1-486b-bf74-1b56430bd1bf","ios":"levelo://app?vid=226e0a85-18b1-486b-bf74-1b56430bd1bf"},"vehicle_type_id":"4","last_reported":1726175274,"current_range_meters":38800,"station_id":"ce4bhi12rcd13ifvqfq0","pricing_plan_id":"cebpf4jnsgd1na2vs0mg"},{"bike_id":"4d128cdd-31dd-4351-924e-8767472eb71e","system_id":"levelo_inurba_marseille","lat":43.30318,"lon":5.40447,"is_reserved":false,"is_disabled":false,"rental_uris":{"android":"levelo://app?vid=4d128cdd-31dd-4351-924e-8767472eb71e","ios":"levelo://app?vid=4d128cdd-31dd-4351-924e-8767472eb71e"},"vehicle_type_id":"4","last_reported":1726175274,"current_range_meters":38800,"station_id":"ce4bh012rcd13ifvqd10","pricing_plan_id":"cebpf4jnsgd1na2vs0mg"},{"bike_id":"eb01f971-c89c-4dfc-9a31-66ce9efd20ca","system_id":"levelo_inurba_marseille","lat":43.27186,"lon":5.40994,"is_reserved":false,"is_disabled":false,"rental_uris":{"android":"levelo://app?vid=eb01f971-c89c-4dfc-9a31-66ce9efd20ca","ios":"levelo://app?vid=eb01f971-c89c-4dfc-9a31-66ce9efd20ca"},"vehicle_type_id":"4","last_reported":1726175274,"current_range_meters":33200,"station_id":"ce4bhl12rcd13ifvqgf0","pricing_plan_id":"cebpf4jnsgd1na2vs0mg"},{"bike_id":"cac78a6e-a1e0-4f97-9b48-10fba0a2004d","system_id":"levelo_inurba_marseille","lat":43.23199,"lon":5.35551,"is_reserved":false,"is_disabled":false,"rental_uris":{"android":"levelo://app?vid=cac78a6e-a1e0-4f97-9b48-10fba0a2004d","ios":"levelo://app?vid=cac78a6e-a1e0-4f97-9b48-10fba0a2004d"},"vehicle_type_id":"4","last_reported":1726175274,"current_range_meters":5600,"station_id":"ce4bhu92rcd13ifvqi70","pricing_plan_id":"cebpf4jnsgd1na2vs0mg"},{"bike_id":"87106bbb-5858-42a8-85c6-232aa030bbd4","system_id":"levelo_inurba_marseille","lat":43.25721,"lon":5.41114,"is_reserved":false,"is_disabled":false,"rental_uris":{"android":"levelo://app?vid=87106bbb-5858-42a8-85c6-232aa030bbd4","ios":"levelo://app?vid=87106bbb-5858-42a8-85c6-232aa030bbd4"},"vehicle_type_id":"4","last_reported":1726175274,"current_range_meters":20800,"station_id":"ce4bhkp2rcd13ifvqgd0","pricing_plan_id":"cebpf4jnsgd1na2vs0mg"},{"bike_id":"5969c9fb-1a4e-44e7-9a7a-83c73b1c5d8d","system_id":"levelo_inurba_marseille","lat":43.28685,"lon":5.38674,"is_reserved":false,"is_disabled":false,"rental_uris":{"android":"levelo://app?vid=5969c9fb-1a4e-44e7-9a7a-83c73b1c5d8d","ios":"levelo://app?vid=5969c9fb-1a4e-44e7-9a7a-83c73b1c5d8d"},"vehicle_type_id":"4","last_reported":1726175274,"current_range_meters":36400,"station_id":"ce4bh492rcd13ifvqdug","pricing_plan_id":"cebpf4jnsgd1na2vs0mg"},{"bike_id":"72b517d2-6987-46d8-857e-779bc7604f01","system_id":"levelo_inurba_marseille","lat":43.26027,"lon":5.37554,"is_reserved":false,"is_disabled":false,"rental_uris":{"android":"levelo://app?vid=72b517d2-6987-46d8-857e-779bc7604f01","ios":"levelo://app?vid=72b517d2-6987-46d8-857e-779bc7604f01"},"vehicle_type_id":"4","last_reported":1726175274,"current_range_meters":24000,"station_id":"ce4bhgh2rcd13ifvqfa0","pricing_plan_id":"cebpf4jnsgd1na2vs0mg"},{"bike_id":"53d2bf3d-4905-49f9-89c4-324506aca78e","system_id":"levelo_inurba_marseille","lat":43.31851,"lon":5.40925,"is_reserved":false,"is_disabled":false,"rental_uris":{"android":"levelo://app?vid=53d2bf3d-4905-49f9-89c4-324506aca78e","ios":"levelo://app?vid=53d2bf3d-4905-49f9-89c4-324506aca78e"},"vehicle_type_id":"4","last_reported":1726175274,"current_range_meters":20800,"station_id":"","pricing_plan_id":"cebpf4jnsgd1na2vs0mg"},{"bike_id":"a9aacdc8-9eab-40f7-915c-925d17df7020","system_id":"levelo_inurba_marseille","lat":43.30362,"lon":5.41888,"is_reserved":false,"is_disabled":false,"rental_uris":{"android":"levelo://app?vid=a9aacdc8-9eab-40f7-915c-925d17df7020","ios":"levelo://app?vid=a9aacdc8-9eab-40f7-915c-925d17df7020"},"vehicle_type_id":"4","last_reported":1726175274,"current_range_meters":29600,"station_id":"ce4bhop2rcd13ifvqh7g","pricing_plan_id":"cebpf4jnsgd1na2vs0mg"},{"bike_id":"305f8fcc-dafb-4f16-b7bc-8693ccbd4dec","system_id":"levelo_inurba_marseille","lat":43.27659,"lon":5.39755,"is_reserved":false,"is_disabled":false,"rental_uris":{"android":"levelo://app?vid=305f8fcc-dafb-4f16-b7bc-8693ccbd4dec","ios":"levelo://app?vid=305f8fcc-dafb-4f16-b7bc-8693ccbd4dec"},"vehicle_type_id":"4","last_reported":1726175274,"current_range_meters":22800,"station_id":"","pricing_plan_id":"cebpf4jnsgd1na2vs0mg"},{"bike_id":"a2cd8b1a-5149-423f-b006-3a9bf1a7a464","system_id":"levelo_inurba_marseille","lat":43.27504,"lon":5.42449,"is_reserved":false,"is_disabled":false,"rental_uris":{"android":"levelo://app?vid=a2cd8b1a-5149-423f-b006-3a9bf1a7a464","ios":"levelo://app?vid=a2cd8b1a-5149-423f-b006-3a9bf1a7a464"},"vehicle_type_id":"4","last_reported":1726175274,"current_range_meters":18800,"station_id":"ce4bhn92rcd13ifvqgrg","pricing_plan_id":"cebpf4jnsgd1na2vs0mg"},{"bike_id":"34657d35-d936-4f69-90d2-9138dbc7b9fc","system_id":"levelo_inurba_marseille","lat":43.31186,"lon":5.38715,"is_reserved":false,"is_disabled":false,"rental_uris":{"android":"levelo://app?vid=34657d35-d936-4f69-90d2-9138dbc7b9fc","ios":"levelo://app?vid=34657d35-d936-4f69-90d2-9138dbc7b9fc"},"vehicle_type_id":"4","last_reported":1726175274,"current_range_meters":36400,"station_id":"ce4bgv12rcd13ifvqcp0","pricing_plan_id":"cebpf4jnsgd1na2vs0mg"},{"bike_id":"2c4577b3-3689-495e-a3c3-a78eafd4dc43","system_id":"levelo_inurba_marseille","lat":43.26555,"lon":5.37285,"is_reserved":false,"is_disabled":false,"rental_uris":{"android":"levelo://app?vid=2c4577b3-3689-495e-a3c3-a78eafd4dc43","ios":"levelo://app?vid=2c4577b3-3689-495e-a3c3-a78eafd4dc43"},"vehicle_type_id":"4","last_reported":1726175274,"current_range_meters":25200,"station_id":"ce4bhg12rcd13ifvqf70","pricing_plan_id":"cebpf4jnsgd1na2vs0mg"},{"bike_id":"6a0efc9e-376c-4a3c-8555-ac984ccedccc","system_id":"levelo_inurba_marseille","lat":43.29886,"lon":5.38904,"is_reserved":false,"is_disabled":false,"rental_uris":{"android":"levelo://app?vid=6a0efc9e-376c-4a3c-8555-ac984ccedccc","ios":"levelo://app?vid=6a0efc9e-376c-4a3c-8555-ac984ccedccc"},"vehicle_type_id":"4","last_reported":1726175274,"current_range_meters":24400,"station_id":"ce4bh392rcd13ifvqdl0","pricing_plan_id":"cebpf4jnsgd1na2vs0mg"},{"bike_id":"6c9ac6be-0029-4a2d-bb72-5c51035bba42","system_id":"levelo_inurba_marseille","lat":43.33614,"lon":5.41019,"is_reserved":false,"is_disabled":false,"rental_uris":{"android":"levelo://app?vid=6c9ac6be-0029-4a2d-bb72-5c51035bba42","ios":"levelo://app?vid=6c9ac6be-0029-4a2d-bb72-5c51035bba42"},"vehicle_type_id":"4","last_reported":1726175274,"current_range_meters":38400,"station_id":"ce4bhqh2rcd13ifvqhmg","pricing_plan_id":"cebpf4jnsgd1na2vs0mg"},{"bike_id":"a5f7f5e4-b979-4b26-85be-224ef2ad84cd","system_id":"levelo_inurba_marseille","lat":43.29571,"lon":5.3997,"is_reserved":false,"is_disabled":false,"rental_uris":{"android":"levelo://app?vid=a5f7f5e4-b979-4b26-85be-224ef2ad84cd","ios":"levelo://app?vid=a5f7f5e4-b979-4b26-85be-224ef2ad84cd"},"vehicle_type_id":"4","last_reported":1726175274,"current_range_meters":34000,"station_id":"ce4bh312rcd13ifvqdj0","pricing_plan_id":"cebpf4jnsgd1na2vs0mg"},{"bike_id":"a7a63bcc-485a-458b-bd7a-820f59d6b41a","system_id":"levelo_inurba_marseille","lat":43.25092,"lon":5.39514,"is_reserved":false,"is_disabled":false,"rental_uris":{"android":"levelo://app?vid=a7a63bcc-485a-458b-bd7a-820f59d6b41a","ios":"levelo://app?vid=a7a63bcc-485a-458b-bd7a-820f59d6b41a"},"vehicle_type_id":"4","last_reported":1726175274,"current_range_meters":38800,"station_id":"ce4bhm12rcd13ifvqgkg","pricing_plan_id":"cebpf4jnsgd1na2vs0mg"},{"bike_id":"7dea9175-0fb5-4d49-ac6e-d13b7c47ac00","system_id":"levelo_inurba_marseille","lat":43.25724,"lon":5.41115,"is_reserved":false,"is_disabled":false,"rental_uris":{"android":"levelo://app?vid=7dea9175-0fb5-4d49-ac6e-d13b7c47ac00","ios":"levelo://app?vid=7dea9175-0fb5-4d49-ac6e-d13b7c47ac00"},"vehicle_type_id":"4","last_reported":1726175274,"current_range_meters":38800,"station_id":"ce4bhkp2rcd13ifvqgd0","pricing_plan_id":"cebpf4jnsgd1na2vs0mg"},{"bike_id":"60d5bda9-f640-405a-935d-62d1314e50fa","system_id":"levelo_inurba_marseille","lat":43.23966,"lon":5.36638,"is_reserved":false,"is_disabled":false,"rental_uris":{"android":"levelo://app?vid=60d5bda9-f640-405a-935d-62d1314e50fa","ios":"levelo://app?vid=60d5bda9-f640-405a-935d-62d1314e50fa"},"vehicle_type_id":"4","last_reported":1726175274,"current_range_meters":28000,"station_id":"ce4bhi12rcd13ifvqfp0","pricing_plan_id":"cebpf4jnsgd1na2vs0mg"},{"bike_id":"33f03670-cf2a-43f9-bafe-26c48df8fd80","system_id":"levelo_inurba_marseille","lat":43.31082,"lon":5.42428,"is_reserved":false,"is_disabled":false,"rental_uris":{"android":"levelo://app?vid=33f03670-cf2a-43f9-bafe-26c48df8fd80","ios":"levelo://app?vid=33f03670-cf2a-43f9-bafe-26c48df8fd80"},"vehicle_type_id":"4","last_reported":1726175274,"current_range_meters":35200,"station_id":"ce4bhp92rcd13ifvqhag","pricing_plan_id":"cebpf4jnsgd1na2vs0mg"},{"bike_id":"8761f521-f54e-423f-9730-c275c561095d","system_id":"levelo_inurba_marseille","lat":43.3133,"lon":5.39691,"is_reserved":false,"is_disabled":false,"rental_uris":{"android":"levelo://app?vid=8761f521-f54e-423f-9730-c275c561095d","ios":"levelo://app?vid=8761f521-f54e-423f-9730-c275c561095d"},"vehicle_type_id":"4","last_reported":1726175274,"current_range_meters":14400,"station_id":"ce4bgvp2rcd13ifvqcu0","pricing_plan_id":"cebpf4jnsgd1na2vs0mg"},{"bike_id":"1f0d280d-cb62-4cf3-9345-e479b5302a1c","system_id":"levelo_inurba_marseille","lat":43.25574,"lon":5.38214,"is_reserved":false,"is_disabled":false,"rental_uris":{"android":"levelo://app?vid=1f0d280d-cb62-4cf3-9345-e479b5302a1c","ios":"levelo://app?vid=1f0d280d-cb62-4cf3-9345-e479b5302a1c"},"vehicle_type_id":"4","last_reported":1726175274,"current_range_meters":28800,"station_id":"ce4bhih2rcd13ifvqfs0","pricing_plan_id":"cebpf4jnsgd1na2vs0mg"},{"bike_id":"fdbc97ec-803f-46e4-a9de-7a9ae950442b","system_id":"levelo_inurba_marseille","lat":43.30091,"lon":5.39088,"is_reserved":false,"is_disabled":false,"rental_uris":{"android":"levelo://app?vid=fdbc97ec-803f-46e4-a9de-7a9ae950442b","ios":"levelo://app?vid=fdbc97ec-803f-46e4-a9de-7a9ae950442b"},"vehicle_type_id":"4","last_reported":1726175274,"current_range_meters":20000,"station_id":"ce4bh192rcd13ifvqdb0","pricing_plan_id":"cebpf4jnsgd1na2vs0mg"},{"bike_id":"423a4cab-8a31-4718-8b7a-239bcdca67af","system_id":"levelo_inurba_marseille","lat":43.24187,"lon":5.39726,"is_reserved":false,"is_disabled":false,"rental_uris":{"android":"levelo://app?vid=423a4cab-8a31-4718-8b7a-239bcdca67af","ios":"levelo://app?vid=423a4cab-8a31-4718-8b7a-239bcdca67af"},"vehicle_type_id":"4","last_reported":1726175274,"current_range_meters":38800,"station_id":"ce4bhn12rcd13ifvqgpg","pricing_plan_id":"cebpf4jnsgd1na2vs0mg"},{"bike_id":"9163cc20-d457-4a59-bb69-e012a5ecf5a9","system_id":"levelo_inurba_marseille","lat":43.28459,"lon":5.35891,"is_reserved":false,"is_disabled":false,"rental_uris":{"android":"levelo://app?vid=9163cc20-d457-4a59-bb69-e012a5ecf5a9","ios":"levelo://app?vid=9163cc20-d457-4a59-bb69-e012a5ecf5a9"},"vehicle_type_id":"4","last_reported":1726175274,"current_range_meters":38400,"station_id":"ce4bhah2rcd13ifvqei0","pricing_plan_id":"cebpf4jnsgd1na2vs0mg"},{"bike_id":"7d9e718d-8ff6-4fb2-bd50-448d074a86d8","system_id":"levelo_inurba_marseille","lat":43.2481,"lon":5.37457,"is_reserved":false,"is_disabled":false,"rental_uris":{"android":"levelo://app?vid=7d9e718d-8ff6-4fb2-bd50-448d074a86d8","ios":"levelo://app?vid=7d9e718d-8ff6-4fb2-bd50-448d074a86d8"},"vehicle_type_id":"4","last_reported":1726175274,"current_range_meters":19200,"station_id":"ce4bhgh2rcd13ifvqfb0","pricing_plan_id":"cebpf4jnsgd1na2vs0mg"},{"bike_id":"dfc9cf73-a2cd-49c0-8d70-ad70a845f0ed","system_id":"levelo_inurba_marseille","lat":43.30433,"lon":5.39755,"is_reserved":false,"is_disabled":false,"rental_uris":{"android":"levelo://app?vid=dfc9cf73-a2cd-49c0-8d70-ad70a845f0ed","ios":"levelo://app?vid=dfc9cf73-a2cd-49c0-8d70-ad70a845f0ed"},"vehicle_type_id":"4","last_reported":1726175274,"current_range_meters":28400,"station_id":"ce4bh092rcd13ifvqd20","pricing_plan_id":"cebpf4jnsgd1na2vs0mg"},{"bike_id":"0f5d1e4e-5cdd-41aa-9f16-247b92ec8386","system_id":"levelo_inurba_marseille","lat":43.29965,"lon":5.41328,"is_reserved":false,"is_disabled":false,"rental_uris":{"android":"levelo://app?vid=0f5d1e4e-5cdd-41aa-9f16-247b92ec8386","ios":"levelo://app?vid=0f5d1e4e-5cdd-41aa-9f16-247b92ec8386"},"vehicle_type_id":"4","last_reported":1726175274,"current_range_meters":38800,"station_id":"ce4bhp12rcd13ifvqh9g","pricing_plan_id":"cebpf4jnsgd1na2vs0mg"},{"bike_id":"96296b06-953b-4a27-8f25-5de1930132b9","system_id":"levelo_inurba_marseille","lat":43.29533,"lon":5.38544,"is_reserved":false,"is_disabled":false,"rental_uris":{"android":"levelo://app?vid=96296b06-953b-4a27-8f25-5de1930132b9","ios":"levelo://app?vid=96296b06-953b-4a27-8f25-5de1930132b9"},"vehicle_type_id":"4","last_reported":1726175274,"current_range_meters":39200,"station_id":"ce4bgih2rcd13ifvqba0","pricing_plan_id":"cebpf4jnsgd1na2vs0mg"},{"bike_id":"d54606db-b8a9-4fd9-8161-d0537b37344e","system_id":"levelo_inurba_marseille","lat":43.31539,"lon":5.38029,"is_reserved":false,"is_disabled":false,"rental_uris":{"android":"levelo://app?vid=d54606db-b8a9-4fd9-8161-d0537b37344e","ios":"levelo://app?vid=d54606db-b8a9-4fd9-8161-d0537b37344e"},"vehicle_type_id":"4","last_reported":1726175274,"current_range_meters":30800,"station_id":"ce4bhsp2rcd13ifvqi50","pricing_plan_id":"cebpf4jnsgd1na2vs0mg"},{"bike_id":"2d9f6a36-1e8d-46ce-8819-b2bb04006d43","system_id":"levelo_inurba_marseille","lat":43.25589,"lon":5.38221,"is_reserved":false,"is_disabled":false,"rental_uris":{"android":"levelo://app?vid=2d9f6a36-1e8d-46ce-8819-b2bb04006d43","ios":"levelo://app?vid=2d9f6a36-1e8d-46ce-8819-b2bb04006d43"},"vehicle_type_id":"4","last_reported":1726175274,"current_range_meters":35200,"station_id":"ce4bhih2rcd13ifvqfs0","pricing_plan_id":"cebpf4jnsgd1na2vs0mg"},{"bike_id":"a23e80f1-de4d-445e-8443-cf95d257caa5","system_id":"levelo_inurba_marseille","lat":43.28458,"lon":5.35894,"is_reserved":false,"is_disabled":false,"rental_uris":{"android":"levelo://app?vid=a23e80f1-de4d-445e-8443-cf95d257caa5","ios":"levelo://app?vid=a23e80f1-de4d-445e-8443-cf95d257caa5"},"vehicle_type_id":"4","last_reported":1726175274,"current_range_meters":37600,"station_id":"ce4bhah2rcd13ifvqei0","pricing_plan_id":"cebpf4jnsgd1na2vs0mg"},{"bike_id":"0a5a12b3-5d22-4e5d-b7e5-ed6a2bf9ffdc","system_id":"levelo_inurba_marseille","lat":43.2884,"lon":5.35884,"is_reserved":false,"is_disabled":false,"rental_uris":{"android":"levelo://app?vid=0a5a12b3-5d22-4e5d-b7e5-ed6a2bf9ffdc","ios":"levelo://app?vid=0a5a12b3-5d22-4e5d-b7e5-ed6a2bf9ffdc"},"vehicle_type_id":"4","last_reported":1726175274,"current_range_meters":17200,"station_id":"ce4bhb12rcd13ifvqem0","pricing_plan_id":"cebpf4jnsgd1na2vs0mg"},{"bike_id":"c39b024e-1649-48fb-802d-6735c6caa472","system_id":"levelo_inurba_marseille","lat":43.31711,"lon":5.3775,"is_reserved":false,"is_disabled":false,"rental_uris":{"android":"levelo://app?vid=c39b024e-1649-48fb-802d-6735c6caa472","ios":"levelo://app?vid=c39b024e-1649-48fb-802d-6735c6caa472"},"vehicle_type_id":"4","last_reported":1726175274,"current_range_meters":36800,"station_id":"ce4bgth2rcd13ifvqch0","pricing_plan_id":"cebpf4jnsgd1na2vs0mg"},{"bike_id":"1e0df5ba-fa4d-4573-807a-e855b81fe691","system_id":"levelo_inurba_marseille","lat":43.23963,"lon":5.36639,"is_reserved":false,"is_disabled":false,"rental_uris":{"android":"levelo://app?vid=1e0df5ba-fa4d-4573-807a-e855b81fe691","ios":"levelo://app?vid=1e0df5ba-fa4d-4573-807a-e855b81fe691"},"vehicle_type_id":"4","last_reported":1726175274,"current_range_meters":33200,"station_id":"ce4bhi12rcd13ifvqfp0","pricing_plan_id":"cebpf4jnsgd1na2vs0mg"},{"bike_id":"e62c8c71-b14f-4c94-8aa4-e0afcaaf93b6","system_id":"levelo_inurba_marseille","lat":43.24818,"lon":5.37464,"is_reserved":false,"is_disabled":false,"rental_uris":{"android":"levelo://app?vid=e62c8c71-b14f-4c94-8aa4-e0afcaaf93b6","ios":"levelo://app?vid=e62c8c71-b14f-4c94-8aa4-e0afcaaf93b6"},"vehicle_type_id":"4","last_reported":1726175274,"current_range_meters":36000,"station_id":"ce4bhgh2rcd13ifvqfb0","pricing_plan_id":"cebpf4jnsgd1na2vs0mg"},{"bike_id":"9a667fe3-33aa-400f-a26f-60d230d85838","system_id":"levelo_inurba_marseille","lat":43.25006,"lon":5.38941,"is_reserved":false,"is_disabled":false,"rental_uris":{"android":"levelo://app?vid=9a667fe3-33aa-400f-a26f-60d230d85838","ios":"levelo://app?vid=9a667fe3-33aa-400f-a26f-60d230d85838"},"vehicle_type_id":"4","last_reported":1726175274,"current_range_meters":31200,"station_id":"ce4bhgp2rcd13ifvqfd0","pricing_plan_id":"cebpf4jnsgd1na2vs0mg"},{"bike_id":"2d93f995-060e-401b-affd-9b2062ea63fb","system_id":"levelo_inurba_marseille","lat":43.28376,"lon":5.38634,"is_reserved":false,"is_disabled":false,"rental_uris":{"android":"levelo://app?vid=2d93f995-060e-401b-affd-9b2062ea63fb","ios":"levelo://app?vid=2d93f995-060e-401b-affd-9b2062ea63fb"},"vehicle_type_id":"4","last_reported":1726175274,"current_range_meters":20000,"station_id":"ce4bh492rcd13ifvqdvg","pricing_plan_id":"cebpf4jnsgd1na2vs0mg"},{"bike_id":"855c9669-ee80-44f9-a556-b4aa9420133c","system_id":"levelo_inurba_marseille","lat":43.25497,"lon":5.37646,"is_reserved":false,"is_disabled":false,"rental_uris":{"android":"levelo://app?vid=855c9669-ee80-44f9-a556-b4aa9420133c","ios":"levelo://app?vid=855c9669-ee80-44f9-a556-b4aa9420133c"},"vehicle_type_id":"4","last_reported":1726175274,"current_range_meters":30400,"station_id":"ce4bhh12rcd13ifvqff0","pricing_plan_id":"cebpf4jnsgd1na2vs0mg"},{"bike_id":"768174ed-8e87-4dfb-8f24-a534a0005560","system_id":"levelo_inurba_marseille","lat":43.29002,"lon":5.35616,"is_reserved":false,"is_disabled":false,"rental_uris":{"android":"levelo://app?vid=768174ed-8e87-4dfb-8f24-a534a0005560","ios":"levelo://app?vid=768174ed-8e87-4dfb-8f24-a534a0005560"},"vehicle_type_id":"4","last_reported":1726175274,"current_range_meters":38800,"station_id":"ce4bhb92rcd13ifvqen0","pricing_plan_id":"cebpf4jnsgd1na2vs0mg"},{"bike_id":"d518f3f0-7f37-42db-ae5d-86cbc8a01b57","system_id":"levelo_inurba_marseille","lat":43.28855,"lon":5.39303,"is_reserved":false,"is_disabled":false,"rental_uris":{"android":"levelo://app?vid=d518f3f0-7f37-42db-ae5d-86cbc8a01b57","ios":"levelo://app?vid=d518f3f0-7f37-42db-ae5d-86cbc8a01b57"},"vehicle_type_id":"4","last_reported":1726175274,"current_range_meters":8800,"station_id":"ce4bh2p2rcd13ifvqdi0","pricing_plan_id":"cebpf4jnsgd1na2vs0mg"},{"bike_id":"59a2b5a9-0f56-40d5-a59c-cb2592419b75","system_id":"levelo_inurba_marseille","lat":43.25582,"lon":5.38261,"is_reserved":false,"is_disabled":false,"rental_uris":{"android":"levelo://app?vid=59a2b5a9-0f56-40d5-a59c-cb2592419b75","ios":"levelo://app?vid=59a2b5a9-0f56-40d5-a59c-cb2592419b75"},"vehicle_type_id":"4","last_reported":1726175274,"current_range_meters":38800,"station_id":"ce4bhih2rcd13ifvqfs0","pricing_plan_id":"cebpf4jnsgd1na2vs0mg"},{"bike_id":"7dc55c88-404a-433c-90d5-05daf2e2d002","system_id":"levelo_inurba_marseille","lat":43.28271,"lon":5.35066,"is_reserved":false,"is_disabled":false,"rental_uris":{"android":"levelo://app?vid=7dc55c88-404a-433c-90d5-05daf2e2d002","ios":"levelo://app?vid=7dc55c88-404a-433c-90d5-05daf2e2d002"},"vehicle_type_id":"4","last_reported":1726175274,"current_range_meters":35600,"station_id":"ce4bhbp2rcd13ifvqerg","pricing_plan_id":"cebpf4jnsgd1na2vs0mg"},{"bike_id":"91ce77ce-18ef-47d8-9533-f401393ecd0b","system_id":"levelo_inurba_marseille","lat":43.28626,"lon":5.35108,"is_reserved":false,"is_disabled":false,"rental_uris":{"android":"levelo://app?vid=91ce77ce-18ef-47d8-9533-f401393ecd0b","ios":"levelo://app?vid=91ce77ce-18ef-47d8-9533-f401393ecd0b"},"vehicle_type_id":"4","last_reported":1726175274,"current_range_meters":20800,"station_id":"ce4bhch2rcd13ifvqeug","pricing_plan_id":"cebpf4jnsgd1na2vs0mg"},{"bike_id":"0b2e3ab5-2f8d-4606-8fb4-a82b9c34be48","system_id":"levelo_inurba_marseille","lat":43.28714,"lon":5.39994,"is_reserved":false,"is_disabled":false,"rental_uris":{"android":"levelo://app?vid=0b2e3ab5-2f8d-4606-8fb4-a82b9c34be48","ios":"levelo://app?vid=0b2e3ab5-2f8d-4606-8fb4-a82b9c34be48"},"vehicle_type_id":"4","last_reported":1726175274,"current_range_meters":6800,"station_id":"ce4bho92rcd13ifvqh3g","pricing_plan_id":"cebpf4jnsgd1na2vs0mg"},{"bike_id":"40d214a7-3f5c-47db-a6ce-57c2b9914a32","system_id":"levelo_inurba_marseille","lat":43.31336,"lon":5.3969,"is_reserved":false,"is_disabled":false,"rental_uris":{"android":"levelo://app?vid=40d214a7-3f5c-47db-a6ce-57c2b9914a32","ios":"levelo://app?vid=40d214a7-3f5c-47db-a6ce-57c2b9914a32"},"vehicle_type_id":"4","last_reported":1726175274,"current_range_meters":13600,"station_id":"ce4bgvp2rcd13ifvqcu0","pricing_plan_id":"cebpf4jnsgd1na2vs0mg"},{"bike_id":"b6a55e8b-3ff3-46c8-a72a-6c10f7cc2db1","system_id":"levelo_inurba_marseille","lat":43.29969,"lon":5.41321,"is_reserved":false,"is_disabled":false,"rental_uris":{"android":"levelo://app?vid=b6a55e8b-3ff3-46c8-a72a-6c10f7cc2db1","ios":"levelo://app?vid=b6a55e8b-3ff3-46c8-a72a-6c10f7cc2db1"},"vehicle_type_id":"4","last_reported":1726175274,"current_range_meters":26000,"station_id":"ce4bhp12rcd13ifvqh9g","pricing_plan_id":"cebpf4jnsgd1na2vs0mg"},{"bike_id":"6f94ccb4-e5b0-4f7a-90a2-94c6f5d54a44","system_id":"levelo_inurba_marseille","lat":43.28378,"lon":5.38635,"is_reserved":false,"is_disabled":false,"rental_uris":{"android":"levelo://app?vid=6f94ccb4-e5b0-4f7a-90a2-94c6f5d54a44","ios":"levelo://app?vid=6f94ccb4-e5b0-4f7a-90a2-94c6f5d54a44"},"vehicle_type_id":"4","last_reported":1726175274,"current_range_meters":33600,"station_id":"ce4bh492rcd13ifvqdvg","pricing_plan_id":"cebpf4jnsgd1na2vs0mg"},{"bike_id":"9725210e-fb7f-4a86-85f3-a0efeaa8cb23","system_id":"levelo_inurba_marseille","lat":43.31488,"lon":5.37288,"is_reserved":false,"is_disabled":false,"rental_uris":{"android":"levelo://app?vid=9725210e-fb7f-4a86-85f3-a0efeaa8cb23","ios":"levelo://app?vid=9725210e-fb7f-4a86-85f3-a0efeaa8cb23"},"vehicle_type_id":"4","last_reported":1726175274,"current_range_meters":5600,"station_id":"ce4bgt12rcd13ifvqcd0","pricing_plan_id":"cebpf4jnsgd1na2vs0mg"},{"bike_id":"a7225787-a1fe-4f9c-8189-093e4e1002aa","system_id":"levelo_inurba_marseille","lat":43.29,"lon":5.35612,"is_reserved":false,"is_disabled":false,"rental_uris":{"android":"levelo://app?vid=a7225787-a1fe-4f9c-8189-093e4e1002aa","ios":"levelo://app?vid=a7225787-a1fe-4f9c-8189-093e4e1002aa"},"vehicle_type_id":"4","last_reported":1726175274,"current_range_meters":40000,"station_id":"ce4bhb92rcd13ifvqen0","pricing_plan_id":"cebpf4jnsgd1na2vs0mg"},{"bike_id":"383d2392-a0e2-409f-a9b7-7f6af8c905cb","system_id":"levelo_inurba_marseille","lat":43.25115,"lon":5.40323,"is_reserved":false,"is_disabled":false,"rental_uris":{"android":"levelo://app?vid=383d2392-a0e2-409f-a9b7-7f6af8c905cb","ios":"levelo://app?vid=383d2392-a0e2-409f-a9b7-7f6af8c905cb"},"vehicle_type_id":"4","last_reported":1726175274,"current_range_meters":31200,"station_id":"ce4bhlh2rcd13ifvqgig","pricing_plan_id":"cebpf4jnsgd1na2vs0mg"},{"bike_id":"dc5dca54-8ebf-43b2-acf8-9ae498c9992e","system_id":"levelo_inurba_marseille","lat":43.29534,"lon":5.3855,"is_reserved":false,"is_disabled":false,"rental_uris":{"android":"levelo://app?vid=dc5dca54-8ebf-43b2-acf8-9ae498c9992e","ios":"levelo://app?vid=dc5dca54-8ebf-43b2-acf8-9ae498c9992e"},"vehicle_type_id":"4","last_reported":1726175274,"current_range_meters":33200,"station_id":"ce4bgih2rcd13ifvqba0","pricing_plan_id":"cebpf4jnsgd1na2vs0mg"},{"bike_id":"bfd2a3d6-ad57-4d1a-86b2-4eeb3c6695bb","system_id":"levelo_inurba_marseille","lat":43.3107,"lon":5.3836,"is_reserved":false,"is_disabled":false,"rental_uris":{"android":"levelo://app?vid=bfd2a3d6-ad57-4d1a-86b2-4eeb3c6695bb","ios":"levelo://app?vid=bfd2a3d6-ad57-4d1a-86b2-4eeb3c6695bb"},"vehicle_type_id":"4","last_reported":1726175274,"current_range_meters":38800,"station_id":"ce4bgv92rcd13ifvqcr0","pricing_plan_id":"cebpf4jnsgd1na2vs0mg"},{"bike_id":"deaeb920-23ab-4b51-a90a-3a4d369b9959","system_id":"levelo_inurba_marseille","lat":43.26552,"lon":5.37281,"is_reserved":false,"is_disabled":false,"rental_uris":{"android":"levelo://app?vid=deaeb920-23ab-4b51-a90a-3a4d369b9959","ios":"levelo://app?vid=deaeb920-23ab-4b51-a90a-3a4d369b9959"},"vehicle_type_id":"4","last_reported":1726175274,"current_range_meters":10000,"station_id":"ce4bhg12rcd13ifvqf70","pricing_plan_id":"cebpf4jnsgd1na2vs0mg"},{"bike_id":"2978c8ef-7735-4057-b33e-747fe355072e","system_id":"levelo_inurba_marseille","lat":43.25909,"lon":5.37601,"is_reserved":false,"is_disabled":false,"rental_uris":{"android":"levelo://app?vid=2978c8ef-7735-4057-b33e-747fe355072e","ios":"levelo://app?vid=2978c8ef-7735-4057-b33e-747fe355072e"},"vehicle_type_id":"4","last_reported":1726175274,"current_range_meters":4000,"station_id":"","pricing_plan_id":"cebpf4jnsgd1na2vs0mg"},{"bike_id":"a1059e3e-1f13-4c6e-b9aa-ae2ce9790d5c","system_id":"levelo_inurba_marseille","lat":43.23182,"lon":5.39992,"is_reserved":false,"is_disabled":false,"rental_uris":{"android":"levelo://app?vid=a1059e3e-1f13-4c6e-b9aa-ae2ce9790d5c","ios":"levelo://app?vid=a1059e3e-1f13-4c6e-b9aa-ae2ce9790d5c"},"vehicle_type_id":"4","last_reported":1726175274,"current_range_meters":9600,"station_id":"ce4bhn12rcd13ifvqgqg","pricing_plan_id":"cebpf4jnsgd1na2vs0mg"},{"bike_id":"3eeb48c1-864f-4164-85f1-eb4bf2655da1","system_id":"levelo_inurba_marseille","lat":43.30926,"lon":5.40143,"is_reserved":false,"is_disabled":false,"rental_uris":{"android":"levelo://app?vid=3eeb48c1-864f-4164-85f1-eb4bf2655da1","ios":"levelo://app?vid=3eeb48c1-864f-4164-85f1-eb4bf2655da1"},"vehicle_type_id":"4","last_reported":1726175274,"current_range_meters":38000,"station_id":"ce4bgvp2rcd13ifvqct0","pricing_plan_id":"cebpf4jnsgd1na2vs0mg"},{"bike_id":"77e8c26c-edd1-4069-ab96-9ed9fd81b42a","system_id":"levelo_inurba_marseille","lat":43.31084,"lon":5.42432,"is_reserved":false,"is_disabled":false,"rental_uris":{"android":"levelo://app?vid=77e8c26c-edd1-4069-ab96-9ed9fd81b42a","ios":"levelo://app?vid=77e8c26c-edd1-4069-ab96-9ed9fd81b42a"},"vehicle_type_id":"4","last_reported":1726175274,"current_range_meters":12800,"station_id":"ce4bhp92rcd13ifvqhag","pricing_plan_id":"cebpf4jnsgd1na2vs0mg"},{"bike_id":"0a5c7982-28f1-44b8-a901-7e32bdbe3e0d","system_id":"levelo_inurba_marseille","lat":43.25498,"lon":5.37647,"is_reserved":false,"is_disabled":false,"rental_uris":{"android":"levelo://app?vid=0a5c7982-28f1-44b8-a901-7e32bdbe3e0d","ios":"levelo://app?vid=0a5c7982-28f1-44b8-a901-7e32bdbe3e0d"},"vehicle_type_id":"4","last_reported":1726175274,"current_range_meters":33600,"station_id":"ce4bhh12rcd13ifvqff0","pricing_plan_id":"cebpf4jnsgd1na2vs0mg"},{"bike_id":"4803fd1e-7b74-4c02-8e24-055c99930fd0","system_id":"levelo_inurba_marseille","lat":43.29008,"lon":5.35606,"is_reserved":false,"is_disabled":false,"rental_uris":{"android":"levelo://app?vid=4803fd1e-7b74-4c02-8e24-055c99930fd0","ios":"levelo://app?vid=4803fd1e-7b74-4c02-8e24-055c99930fd0"},"vehicle_type_id":"4","last_reported":1726175274,"current_range_meters":36400,"station_id":"ce4bhb92rcd13ifvqen0","pricing_plan_id":"cebpf4jnsgd1na2vs0mg"},{"bike_id":"819826e9-9ed2-47d7-9c3f-7b5d1ce2de7d","system_id":"levelo_inurba_marseille","lat":43.25868,"lon":5.39903,"is_reserved":false,"is_disabled":false,"rental_uris":{"android":"levelo://app?vid=819826e9-9ed2-47d7-9c3f-7b5d1ce2de7d","ios":"levelo://app?vid=819826e9-9ed2-47d7-9c3f-7b5d1ce2de7d"},"vehicle_type_id":"4","last_reported":1726175274,"current_range_meters":38400,"station_id":"ce4bhl92rcd13ifvqghg","pricing_plan_id":"cebpf4jnsgd1na2vs0mg"},{"bike_id":"ebb26061-cbc8-4868-81ab-d8f7a9a42e1c","system_id":"levelo_inurba_marseille","lat":43.3266,"lon":5.40998,"is_reserved":false,"is_disabled":false,"rental_uris":{"android":"levelo://app?vid=ebb26061-cbc8-4868-81ab-d8f7a9a42e1c","ios":"levelo://app?vid=ebb26061-cbc8-4868-81ab-d8f7a9a42e1c"},"vehicle_type_id":"4","last_reported":1726175274,"current_range_meters":9200,"station_id":"ce4bhpp2rcd13ifvqhgg","pricing_plan_id":"cebpf4jnsgd1na2vs0mg"},{"bike_id":"72df3874-5dfe-44ee-9e81-04009badb2c2","system_id":"levelo_inurba_marseille","lat":43.29976,"lon":5.38496,"is_reserved":false,"is_disabled":false,"rental_uris":{"android":"levelo://app?vid=72df3874-5dfe-44ee-9e81-04009badb2c2","ios":"levelo://app?vid=72df3874-5dfe-44ee-9e81-04009badb2c2"},"vehicle_type_id":"4","last_reported":1726175274,"current_range_meters":37600,"station_id":"ce4bgj92rcd13ifvqbd0","pricing_plan_id":"cebpf4jnsgd1na2vs0mg"},{"bike_id":"c5e96473-727a-418c-919e-8d3acae62332","system_id":"levelo_inurba_marseille","lat":43.29228,"lon":5.36058,"is_reserved":false,"is_disabled":false,"rental_uris":{"android":"levelo://app?vid=c5e96473-727a-418c-919e-8d3acae62332","ios":"levelo://app?vid=c5e96473-727a-418c-919e-8d3acae62332"},"vehicle_type_id":"4","last_reported":1726175274,"current_range_meters":38800,"station_id":"ce4bhbh2rcd13ifvqeqg","pricing_plan_id":"cebpf4jnsgd1na2vs0mg"},{"bike_id":"586a8a04-2bc4-442a-9e9b-fc6e8ce7cc89","system_id":"levelo_inurba_marseille","lat":43.29193,"lon":5.39322,"is_reserved":false,"is_disabled":false,"rental_uris":{"android":"levelo://app?vid=586a8a04-2bc4-442a-9e9b-fc6e8ce7cc89","ios":"levelo://app?vid=586a8a04-2bc4-442a-9e9b-fc6e8ce7cc89"},"vehicle_type_id":"4","last_reported":1726175274,"current_range_meters":38800,"station_id":"ce4bh192rcd13ifvqdd0","pricing_plan_id":"cebpf4jnsgd1na2vs0mg"},{"bike_id":"1b6b4677-9c6b-4e29-9bf6-abb793cfb377","system_id":"levelo_inurba_marseille","lat":43.29221,"lon":5.36057,"is_reserved":false,"is_disabled":false,"rental_uris":{"android":"levelo://app?vid=1b6b4677-9c6b-4e29-9bf6-abb793cfb377","ios":"levelo://app?vid=1b6b4677-9c6b-4e29-9bf6-abb793cfb377"},"vehicle_type_id":"4","last_reported":1726175274,"current_range_meters":38800,"station_id":"ce4bhbh2rcd13ifvqeqg","pricing_plan_id":"cebpf4jnsgd1na2vs0mg"},{"bike_id":"42730b64-4326-485c-ac36-4ff31138a499","system_id":"levelo_inurba_marseille","lat":43.31334,"lon":5.39698,"is_reserved":false,"is_disabled":false,"rental_uris":{"android":"levelo://app?vid=42730b64-4326-485c-ac36-4ff31138a499","ios":"levelo://app?vid=42730b64-4326-485c-ac36-4ff31138a499"},"vehicle_type_id":"4","last_reported":1726175274,"current_range_meters":9600,"station_id":"ce4bgvp2rcd13ifvqcu0","pricing_plan_id":"cebpf4jnsgd1na2vs0mg"},{"bike_id":"9cb9ab69-3148-4b2f-a970-03143086caba","system_id":"levelo_inurba_marseille","lat":43.29012,"lon":5.3562,"is_reserved":false,"is_disabled":false,"rental_uris":{"android":"levelo://app?vid=9cb9ab69-3148-4b2f-a970-03143086caba","ios":"levelo://app?vid=9cb9ab69-3148-4b2f-a970-03143086caba"},"vehicle_type_id":"4","last_reported":1726175274,"current_range_meters":40000,"station_id":"ce4bhb92rcd13ifvqen0","pricing_plan_id":"cebpf4jnsgd1na2vs0mg"},{"bike_id":"4afb8b00-be3a-4d15-9b8b-47916e625762","system_id":"levelo_inurba_marseille","lat":43.28541,"lon":5.44227,"is_reserved":false,"is_disabled":false,"rental_uris":{"android":"levelo://app?vid=4afb8b00-be3a-4d15-9b8b-47916e625762","ios":"levelo://app?vid=4afb8b00-be3a-4d15-9b8b-47916e625762"},"vehicle_type_id":"4","last_reported":1726175274,"current_range_meters":30400,"station_id":"","pricing_plan_id":"cebpf4jnsgd1na2vs0mg"},{"bike_id":"bb7acf50-b6bc-4b2d-adf4-833abc23b24c","system_id":"levelo_inurba_marseille","lat":43.23206,"lon":5.3555,"is_reserved":false,"is_disabled":false,"rental_uris":{"android":"levelo://app?vid=bb7acf50-b6bc-4b2d-adf4-833abc23b24c","ios":"levelo://app?vid=bb7acf50-b6bc-4b2d-adf4-833abc23b24c"},"vehicle_type_id":"4","last_reported":1726175274,"current_range_meters":38800,"station_id":"ce4bhu92rcd13ifvqi70","pricing_plan_id":"cebpf4jnsgd1na2vs0mg"},{"bike_id":"fc784f68-bfd0-4228-9221-7332d746f9e7","system_id":"levelo_inurba_marseille","lat":43.30266,"lon":5.40084,"is_reserved":false,"is_disabled":false,"rental_uris":{"android":"levelo://app?vid=fc784f68-bfd0-4228-9221-7332d746f9e7","ios":"levelo://app?vid=fc784f68-bfd0-4228-9221-7332d746f9e7"},"vehicle_type_id":"4","last_reported":1726175274,"current_range_meters":16800,"station_id":"ce4bgvh2rcd13ifvqcs0","pricing_plan_id":"cebpf4jnsgd1na2vs0mg"},{"bike_id":"8eff384a-46bc-44b5-a7c3-c23a94eadd4c","system_id":"levelo_inurba_marseille","lat":43.24391,"lon":5.37056,"is_reserved":false,"is_disabled":false,"rental_uris":{"android":"levelo://app?vid=8eff384a-46bc-44b5-a7c3-c23a94eadd4c","ios":"levelo://app?vid=8eff384a-46bc-44b5-a7c3-c23a94eadd4c"},"vehicle_type_id":"4","last_reported":1726175274,"current_range_meters":30000,"station_id":"ce4bhhh2rcd13ifvqfk0","pricing_plan_id":"cebpf4jnsgd1na2vs0mg"},{"bike_id":"f0688d67-cf24-485f-b6eb-5709935e8360","system_id":"levelo_inurba_marseille","lat":43.31334,"lon":5.39701,"is_reserved":false,"is_disabled":false,"rental_uris":{"android":"levelo://app?vid=f0688d67-cf24-485f-b6eb-5709935e8360","ios":"levelo://app?vid=f0688d67-cf24-485f-b6eb-5709935e8360"},"vehicle_type_id":"4","last_reported":1726175274,"current_range_meters":38800,"station_id":"ce4bgvp2rcd13ifvqcu0","pricing_plan_id":"cebpf4jnsgd1na2vs0mg"},{"bike_id":"60347762-8015-44ff-b3f6-749b7ab61b1b","system_id":"levelo_inurba_marseille","lat":43.30891,"lon":5.39664,"is_reserved":false,"is_disabled":false,"rental_uris":{"android":"levelo://app?vid=60347762-8015-44ff-b3f6-749b7ab61b1b","ios":"levelo://app?vid=60347762-8015-44ff-b3f6-749b7ab61b1b"},"vehicle_type_id":"4","last_reported":1726175274,"current_range_meters":24400,"station_id":"ce4bh012rcd13ifvqcv0","pricing_plan_id":"cebpf4jnsgd1na2vs0mg"},{"bike_id":"86f19a36-bb1a-4269-88e8-5864eaf9f751","system_id":"levelo_inurba_marseille","lat":43.25086,"lon":5.3951,"is_reserved":false,"is_disabled":false,"rental_uris":{"android":"levelo://app?vid=86f19a36-bb1a-4269-88e8-5864eaf9f751","ios":"levelo://app?vid=86f19a36-bb1a-4269-88e8-5864eaf9f751"},"vehicle_type_id":"4","last_reported":1726175274,"current_range_meters":38800,"station_id":"ce4bhm12rcd13ifvqgkg","pricing_plan_id":"cebpf4jnsgd1na2vs0mg"},{"bike_id":"d5954809-ca2d-4528-a01d-e23be78340b0","system_id":"levelo_inurba_marseille","lat":43.2894,"lon":5.39632,"is_reserved":false,"is_disabled":false,"rental_uris":{"android":"levelo://app?vid=d5954809-ca2d-4528-a01d-e23be78340b0","ios":"levelo://app?vid=d5954809-ca2d-4528-a01d-e23be78340b0"},"vehicle_type_id":"4","last_reported":1726175274,"current_range_meters":26000,"station_id":"ce4bh3h2rcd13ifvqdn0","pricing_plan_id":"cebpf4jnsgd1na2vs0mg"},{"bike_id":"122a7256-bb08-44be-a52d-61d7798a2fb3","system_id":"levelo_inurba_marseille","lat":43.2903,"lon":5.38648,"is_reserved":false,"is_disabled":false,"rental_uris":{"android":"levelo://app?vid=122a7256-bb08-44be-a52d-61d7798a2fb3","ios":"levelo://app?vid=122a7256-bb08-44be-a52d-61d7798a2fb3"},"vehicle_type_id":"4","last_reported":1726175274,"current_range_meters":38800,"station_id":"ce4bh4p2rcd13ifvqe0g","pricing_plan_id":"cebpf4jnsgd1na2vs0mg"},{"bike_id":"96e5fa71-72f8-4fee-b693-67ac33f6098f","system_id":"levelo_inurba_marseille","lat":43.23185,"lon":5.39989,"is_reserved":false,"is_disabled":false,"rental_uris":{"android":"levelo://app?vid=96e5fa71-72f8-4fee-b693-67ac33f6098f","ios":"levelo://app?vid=96e5fa71-72f8-4fee-b693-67ac33f6098f"},"vehicle_type_id":"4","last_reported":1726175274,"current_range_meters":38800,"station_id":"ce4bhn12rcd13ifvqgqg","pricing_plan_id":"cebpf4jnsgd1na2vs0mg"},{"bike_id":"4718f576-3563-4264-b290-0b60da9587fa","system_id":"levelo_inurba_marseille","lat":43.30424,"lon":5.41299,"is_reserved":false,"is_disabled":false,"rental_uris":{"android":"levelo://app?vid=4718f576-3563-4264-b290-0b60da9587fa","ios":"levelo://app?vid=4718f576-3563-4264-b290-0b60da9587fa"},"vehicle_type_id":"4","last_reported":1726175274,"current_range_meters":39200,"station_id":"ce4bhop2rcd13ifvqh8g","pricing_plan_id":"cebpf4jnsgd1na2vs0mg"},{"bike_id":"80a1e38e-0713-4fd0-b0c2-78281e4d4d93","system_id":"levelo_inurba_marseille","lat":43.31503,"lon":5.37306,"is_reserved":false,"is_disabled":false,"rental_uris":{"android":"levelo://app?vid=80a1e38e-0713-4fd0-b0c2-78281e4d4d93","ios":"levelo://app?vid=80a1e38e-0713-4fd0-b0c2-78281e4d4d93"},"vehicle_type_id":"4","last_reported":1726175274,"current_range_meters":34000,"station_id":"ce4bgt12rcd13ifvqcd0","pricing_plan_id":"cebpf4jnsgd1na2vs0mg"},{"bike_id":"dd2d66a6-976d-43e6-83be-d6211ff78acc","system_id":"levelo_inurba_marseille","lat":43.33729,"lon":5.39183,"is_reserved":false,"is_disabled":false,"rental_uris":{"android":"levelo://app?vid=dd2d66a6-976d-43e6-83be-d6211ff78acc","ios":"levelo://app?vid=dd2d66a6-976d-43e6-83be-d6211ff78acc"},"vehicle_type_id":"4","last_reported":1726175274,"current_range_meters":9600,"station_id":"ce4bhr92rcd13ifvqhsg","pricing_plan_id":"cebpf4jnsgd1na2vs0mg"},{"bike_id":"5ef7b96a-1cb8-4f42-af16-3a0d049b19cc","system_id":"levelo_inurba_marseille","lat":43.29563,"lon":5.42285,"is_reserved":false,"is_disabled":false,"rental_uris":{"android":"levelo://app?vid=5ef7b96a-1cb8-4f42-af16-3a0d049b19cc","ios":"levelo://app?vid=5ef7b96a-1cb8-4f42-af16-3a0d049b19cc"},"vehicle_type_id":"4","last_reported":1726175274,"current_range_meters":13600,"station_id":"ce4bhph2rcd13ifvqhdg","pricing_plan_id":"cebpf4jnsgd1na2vs0mg"},{"bike_id":"200d1151-465e-4703-b028-ddf270223516","system_id":"levelo_inurba_marseille","lat":43.30358,"lon":5.41883,"is_reserved":false,"is_disabled":false,"rental_uris":{"android":"levelo://app?vid=200d1151-465e-4703-b028-ddf270223516","ios":"levelo://app?vid=200d1151-465e-4703-b028-ddf270223516"},"vehicle_type_id":"4","last_reported":1726175274,"current_range_meters":17200,"station_id":"ce4bhop2rcd13ifvqh7g","pricing_plan_id":"cebpf4jnsgd1na2vs0mg"},{"bike_id":"a4134a87-ba6c-4a20-99b8-e34d44318498","system_id":"levelo_inurba_marseille","lat":43.25114,"lon":5.40322,"is_reserved":false,"is_disabled":false,"rental_uris":{"android":"levelo://app?vid=a4134a87-ba6c-4a20-99b8-e34d44318498","ios":"levelo://app?vid=a4134a87-ba6c-4a20-99b8-e34d44318498"},"vehicle_type_id":"4","last_reported":1726175274,"current_range_meters":32000,"station_id":"ce4bhlh2rcd13ifvqgig","pricing_plan_id":"cebpf4jnsgd1na2vs0mg"},{"bike_id":"70d01362-c996-4b67-a938-62813ca3d0c5","system_id":"levelo_inurba_marseille","lat":43.33035,"lon":5.39048,"is_reserved":false,"is_disabled":false,"rental_uris":{"android":"levelo://app?vid=70d01362-c996-4b67-a938-62813ca3d0c5","ios":"levelo://app?vid=70d01362-c996-4b67-a938-62813ca3d0c5"},"vehicle_type_id":"4","last_reported":1726175274,"current_range_meters":8000,"station_id":"ce4bhr92rcd13ifvqhrg","pricing_plan_id":"cebpf4jnsgd1na2vs0mg"},{"bike_id":"8e19fff8-1be8-4961-882f-4a24d631ba21","system_id":"levelo_inurba_marseille","lat":43.28679,"lon":5.3867,"is_reserved":false,"is_disabled":false,"rental_uris":{"android":"levelo://app?vid=8e19fff8-1be8-4961-882f-4a24d631ba21","ios":"levelo://app?vid=8e19fff8-1be8-4961-882f-4a24d631ba21"},"vehicle_type_id":"4","last_reported":1726175274,"current_range_meters":22400,"station_id":"ce4bh492rcd13ifvqdug","pricing_plan_id":"cebpf4jnsgd1na2vs0mg"},{"bike_id":"c28ff0f1-1713-431a-bccf-4e7a21e8e39b","system_id":"levelo_inurba_marseille","lat":43.2551,"lon":5.3765,"is_reserved":false,"is_disabled":false,"rental_uris":{"android":"levelo://app?vid=c28ff0f1-1713-431a-bccf-4e7a21e8e39b","ios":"levelo://app?vid=c28ff0f1-1713-431a-bccf-4e7a21e8e39b"},"vehicle_type_id":"4","last_reported":1726175274,"current_range_meters":32800,"station_id":"ce4bhh12rcd13ifvqff0","pricing_plan_id":"cebpf4jnsgd1na2vs0mg"},{"bike_id":"df6f412c-9695-40ef-9db4-7bd907155eb7","system_id":"levelo_inurba_marseille","lat":43.30799,"lon":5.38152,"is_reserved":false,"is_disabled":false,"rental_uris":{"android":"levelo://app?vid=df6f412c-9695-40ef-9db4-7bd907155eb7","ios":"levelo://app?vid=df6f412c-9695-40ef-9db4-7bd907155eb7"},"vehicle_type_id":"4","last_reported":1726175274,"current_range_meters":36800,"station_id":"ce4bgt12rcd13ifvqce0","pricing_plan_id":"cebpf4jnsgd1na2vs0mg"},{"bike_id":"9cf18e02-8b94-4e24-8189-214854e5562b","system_id":"levelo_inurba_marseille","lat":43.268,"lon":5.4027,"is_reserved":false,"is_disabled":false,"rental_uris":{"android":"levelo://app?vid=9cf18e02-8b94-4e24-8189-214854e5562b","ios":"levelo://app?vid=9cf18e02-8b94-4e24-8189-214854e5562b"},"vehicle_type_id":"4","last_reported":1726175274,"current_range_meters":23200,"station_id":"ce501612rcd8frsf0b60","pricing_plan_id":"cebpf4jnsgd1na2vs0mg"},{"bike_id":"d63b08fd-7716-422a-94e4-8f1dfff5bb11","system_id":"levelo_inurba_marseille","lat":43.28616,"lon":5.35102,"is_reserved":false,"is_disabled":false,"rental_uris":{"android":"levelo://app?vid=d63b08fd-7716-422a-94e4-8f1dfff5bb11","ios":"levelo://app?vid=d63b08fd-7716-422a-94e4-8f1dfff5bb11"},"vehicle_type_id":"4","last_reported":1726175274,"current_range_meters":16800,"station_id":"ce4bhch2rcd13ifvqeug","pricing_plan_id":"cebpf4jnsgd1na2vs0mg"},{"bike_id":"f5548eb8-9c38-48ce-979e-38bdd5c931fd","system_id":"levelo_inurba_marseille","lat":43.2843,"lon":5.37525,"is_reserved":false,"is_disabled":false,"rental_uris":{"android":"levelo://app?vid=f5548eb8-9c38-48ce-979e-38bdd5c931fd","ios":"levelo://app?vid=f5548eb8-9c38-48ce-979e-38bdd5c931fd"},"vehicle_type_id":"4","last_reported":1726175274,"current_range_meters":33600,"station_id":"ce4bh412rcd13ifvqds0","pricing_plan_id":"cebpf4jnsgd1na2vs0mg"},{"bike_id":"599eaaf8-a1b9-4b78-8074-8ec83fd4d3da","system_id":"levelo_inurba_marseille","lat":43.23203,"lon":5.3555,"is_reserved":false,"is_disabled":false,"rental_uris":{"android":"levelo://app?vid=599eaaf8-a1b9-4b78-8074-8ec83fd4d3da","ios":"levelo://app?vid=599eaaf8-a1b9-4b78-8074-8ec83fd4d3da"},"vehicle_type_id":"4","last_reported":1726175274,"current_range_meters":6800,"station_id":"ce4bhu92rcd13ifvqi70","pricing_plan_id":"cebpf4jnsgd1na2vs0mg"},{"bike_id":"de08438d-31dc-40ef-9e7c-cfcbba2ce204","system_id":"levelo_inurba_marseille","lat":43.29524,"lon":5.39028,"is_reserved":false,"is_disabled":false,"rental_uris":{"android":"levelo://app?vid=de08438d-31dc-40ef-9e7c-cfcbba2ce204","ios":"levelo://app?vid=de08438d-31dc-40ef-9e7c-cfcbba2ce204"},"vehicle_type_id":"4","last_reported":1726175274,"current_range_meters":38800,"station_id":"ce4bh3p2rcd13ifvqdp0","pricing_plan_id":"cebpf4jnsgd1na2vs0mg"},{"bike_id":"fd57e850-8129-4b66-93b6-0f950cd67d59","system_id":"levelo_inurba_marseille","lat":43.284054,"lon":5.37506,"is_reserved":false,"is_disabled":false,"rental_uris":{"android":"levelo://app?vid=fd57e850-8129-4b66-93b6-0f950cd67d59","ios":"levelo://app?vid=fd57e850-8129-4b66-93b6-0f950cd67d59"},"vehicle_type_id":"4","last_reported":1726175274,"current_range_meters":30800,"station_id":"ce4bh412rcd13ifvqds0","pricing_plan_id":"cebpf4jnsgd1na2vs0mg"},{"bike_id":"ec83ece0-f6b8-417e-b90b-210d2964a1fe","system_id":"levelo_inurba_marseille","lat":43.28677,"lon":5.38659,"is_reserved":false,"is_disabled":false,"rental_uris":{"android":"levelo://app?vid=ec83ece0-f6b8-417e-b90b-210d2964a1fe","ios":"levelo://app?vid=ec83ece0-f6b8-417e-b90b-210d2964a1fe"},"vehicle_type_id":"4","last_reported":1726175274,"current_range_meters":24800,"station_id":"ce4bh492rcd13ifvqdug","pricing_plan_id":"cebpf4jnsgd1na2vs0mg"},{"bike_id":"680dc768-0acb-456e-8ccd-04aa53eb4c6d","system_id":"levelo_inurba_marseille","lat":43.31335,"lon":5.39694,"is_reserved":false,"is_disabled":false,"rental_uris":{"android":"levelo://app?vid=680dc768-0acb-456e-8ccd-04aa53eb4c6d","ios":"levelo://app?vid=680dc768-0acb-456e-8ccd-04aa53eb4c6d"},"vehicle_type_id":"4","last_reported":1726175274,"current_range_meters":18800,"station_id":"ce4bgvp2rcd13ifvqcu0","pricing_plan_id":"cebpf4jnsgd1na2vs0mg"},{"bike_id":"71e5bd5f-9941-45ed-83eb-1729c01b5303","system_id":"levelo_inurba_marseille","lat":43.22925,"lon":5.35386,"is_reserved":false,"is_disabled":false,"rental_uris":{"android":"levelo://app?vid=71e5bd5f-9941-45ed-83eb-1729c01b5303","ios":"levelo://app?vid=71e5bd5f-9941-45ed-83eb-1729c01b5303"},"vehicle_type_id":"4","last_reported":1726175274,"current_range_meters":38000,"station_id":"cpo3532slgdg3j2ikp40","pricing_plan_id":"cebpf4jnsgd1na2vs0mg"},{"bike_id":"f40d933f-001d-480a-9c32-a9179a899c6d","system_id":"levelo_inurba_marseille","lat":43.31761,"lon":5.39021,"is_reserved":false,"is_disabled":false,"rental_uris":{"android":"levelo://app?vid=f40d933f-001d-480a-9c32-a9179a899c6d","ios":"levelo://app?vid=f40d933f-001d-480a-9c32-a9179a899c6d"},"vehicle_type_id":"4","last_reported":1726175274,"current_range_meters":9200,"station_id":"ce4bhqp2rcd13ifvqhng","pricing_plan_id":"cebpf4jnsgd1na2vs0mg"},{"bike_id":"e338fa51-8016-4c55-ab8d-ca674b9118dc","system_id":"levelo_inurba_marseille","lat":43.24668,"lon":5.3816,"is_reserved":false,"is_disabled":false,"rental_uris":{"android":"levelo://app?vid=e338fa51-8016-4c55-ab8d-ca674b9118dc","ios":"levelo://app?vid=e338fa51-8016-4c55-ab8d-ca674b9118dc"},"vehicle_type_id":"4","last_reported":1726175274,"current_range_meters":28800,"station_id":"ce4bhih2rcd13ifvqfr0","pricing_plan_id":"cebpf4jnsgd1na2vs0mg"},{"bike_id":"9ea8aca6-f5ec-4ff6-beaf-942b44fef44f","system_id":"levelo_inurba_marseille","lat":43.30898,"lon":5.37196,"is_reserved":false,"is_disabled":false,"rental_uris":{"android":"levelo://app?vid=9ea8aca6-f5ec-4ff6-beaf-942b44fef44f","ios":"levelo://app?vid=9ea8aca6-f5ec-4ff6-beaf-942b44fef44f"},"vehicle_type_id":"4","last_reported":1726175274,"current_range_meters":38800,"station_id":"ce4bguh2rcd13ifvqckg","pricing_plan_id":"cebpf4jnsgd1na2vs0mg"},{"bike_id":"e307b25e-5f61-43a7-a3cc-d604c4b40b20","system_id":"levelo_inurba_marseille","lat":43.28935,"lon":5.36405,"is_reserved":false,"is_disabled":false,"rental_uris":{"android":"levelo://app?vid=e307b25e-5f61-43a7-a3cc-d604c4b40b20","ios":"levelo://app?vid=e307b25e-5f61-43a7-a3cc-d604c4b40b20"},"vehicle_type_id":"4","last_reported":1726175274,"current_range_meters":38800,"station_id":"ce4bhc92rcd13ifvqetg","pricing_plan_id":"cebpf4jnsgd1na2vs0mg"},{"bike_id":"3b0c53d2-9201-42e3-b67f-16f9629ce883","system_id":"levelo_inurba_marseille","lat":43.2862,"lon":5.35104,"is_reserved":false,"is_disabled":false,"rental_uris":{"android":"levelo://app?vid=3b0c53d2-9201-42e3-b67f-16f9629ce883","ios":"levelo://app?vid=3b0c53d2-9201-42e3-b67f-16f9629ce883"},"vehicle_type_id":"4","last_reported":1726175274,"current_range_meters":38800,"station_id":"ce4bhch2rcd13ifvqeug","pricing_plan_id":"cebpf4jnsgd1na2vs0mg"},{"bike_id":"7be74bb0-00e6-4937-9d6f-cdfee1742dd7","system_id":"levelo_inurba_marseille","lat":43.295362,"lon":5.38545,"is_reserved":false,"is_disabled":false,"rental_uris":{"android":"levelo://app?vid=7be74bb0-00e6-4937-9d6f-cdfee1742dd7","ios":"levelo://app?vid=7be74bb0-00e6-4937-9d6f-cdfee1742dd7"},"vehicle_type_id":"4","last_reported":1726175274,"current_range_meters":38800,"station_id":"ce4bgih2rcd13ifvqba0","pricing_plan_id":"cebpf4jnsgd1na2vs0mg"},{"bike_id":"4501ade5-14f2-4760-a406-df8c308f4bfa","system_id":"levelo_inurba_marseille","lat":43.30796,"lon":5.38152,"is_reserved":false,"is_disabled":false,"rental_uris":{"android":"levelo://app?vid=4501ade5-14f2-4760-a406-df8c308f4bfa","ios":"levelo://app?vid=4501ade5-14f2-4760-a406-df8c308f4bfa"},"vehicle_type_id":"4","last_reported":1726175274,"current_range_meters":35200,"station_id":"ce4bgt12rcd13ifvqce0","pricing_plan_id":"cebpf4jnsgd1na2vs0mg"},{"bike_id":"fa02e1ab-12a4-42d7-99e9-040959fdad4f","system_id":"levelo_inurba_marseille","lat":43.22931,"lon":5.35374,"is_reserved":false,"is_disabled":false,"rental_uris":{"android":"levelo://app?vid=fa02e1ab-12a4-42d7-99e9-040959fdad4f","ios":"levelo://app?vid=fa02e1ab-12a4-42d7-99e9-040959fdad4f"},"vehicle_type_id":"4","last_reported":1726175274,"current_range_meters":30400,"station_id":"cpo3532slgdg3j2ikp40","pricing_plan_id":"cebpf4jnsgd1na2vs0mg"},{"bike_id":"cd7a17d5-ac03-424f-bca6-691b3cbbc859","system_id":"levelo_inurba_marseille","lat":43.31358,"lon":5.38488,"is_reserved":false,"is_disabled":false,"rental_uris":{"android":"levelo://app?vid=cd7a17d5-ac03-424f-bca6-691b3cbbc859","ios":"levelo://app?vid=cd7a17d5-ac03-424f-bca6-691b3cbbc859"},"vehicle_type_id":"4","last_reported":1726175274,"current_range_meters":37600,"station_id":"ce4bgt92rcd13ifvqcf0","pricing_plan_id":"cebpf4jnsgd1na2vs0mg"},{"bike_id":"6919ba37-28ae-40fa-ab40-de8efedd78ab","system_id":"levelo_inurba_marseille","lat":43.3013,"lon":5.38776,"is_reserved":false,"is_disabled":false,"rental_uris":{"android":"levelo://app?vid=6919ba37-28ae-40fa-ab40-de8efedd78ab","ios":"levelo://app?vid=6919ba37-28ae-40fa-ab40-de8efedd78ab"},"vehicle_type_id":"4","last_reported":1726175274,"current_range_meters":36800,"station_id":"ce4bghh2rcd13ifvqb60","pricing_plan_id":"cebpf4jnsgd1na2vs0mg"},{"bike_id":"6a8c3e6d-d1b0-4792-9d73-bc3adada54f9","system_id":"levelo_inurba_marseille","lat":43.28671,"lon":5.3636,"is_reserved":false,"is_disabled":false,"rental_uris":{"android":"levelo://app?vid=6a8c3e6d-d1b0-4792-9d73-bc3adada54f9","ios":"levelo://app?vid=6a8c3e6d-d1b0-4792-9d73-bc3adada54f9"},"vehicle_type_id":"4","last_reported":1726175274,"current_range_meters":16000,"station_id":"ce4bhah2rcd13ifvqej0","pricing_plan_id":"cebpf4jnsgd1na2vs0mg"},{"bike_id":"dc686f47-01f5-4a98-ac1c-77d1cebffb8c","system_id":"levelo_inurba_marseille","lat":43.23964,"lon":5.36635,"is_reserved":false,"is_disabled":false,"rental_uris":{"android":"levelo://app?vid=dc686f47-01f5-4a98-ac1c-77d1cebffb8c","ios":"levelo://app?vid=dc686f47-01f5-4a98-ac1c-77d1cebffb8c"},"vehicle_type_id":"4","last_reported":1726175274,"current_range_meters":25200,"station_id":"ce4bhi12rcd13ifvqfp0","pricing_plan_id":"cebpf4jnsgd1na2vs0mg"},{"bike_id":"6beb15ed-2c8d-4076-af9f-d4d302e6aee1","system_id":"levelo_inurba_marseille","lat":43.24086,"lon":5.37739,"is_reserved":false,"is_disabled":false,"rental_uris":{"android":"levelo://app?vid=6beb15ed-2c8d-4076-af9f-d4d302e6aee1","ios":"levelo://app?vid=6beb15ed-2c8d-4076-af9f-d4d302e6aee1"},"vehicle_type_id":"4","last_reported":1726175274,"current_range_meters":37600,"station_id":"ce4bhnp2rcd13ifvqgvg","pricing_plan_id":"cebpf4jnsgd1na2vs0mg"},{"bike_id":"8499aa7d-3df7-4854-8a3b-728308216b5a","system_id":"levelo_inurba_marseille","lat":43.25503,"lon":5.37652,"is_reserved":false,"is_disabled":false,"rental_uris":{"android":"levelo://app?vid=8499aa7d-3df7-4854-8a3b-728308216b5a","ios":"levelo://app?vid=8499aa7d-3df7-4854-8a3b-728308216b5a"},"vehicle_type_id":"4","last_reported":1726175274,"current_range_meters":39200,"station_id":"ce4bhh12rcd13ifvqff0","pricing_plan_id":"cebpf4jnsgd1na2vs0mg"},{"bike_id":"61374e87-d3a5-4240-95eb-9cad321a82d2","system_id":"levelo_inurba_marseille","lat":43.26795,"lon":5.39409,"is_reserved":false,"is_disabled":false,"rental_uris":{"android":"levelo://app?vid=61374e87-d3a5-4240-95eb-9cad321a82d2","ios":"levelo://app?vid=61374e87-d3a5-4240-95eb-9cad321a82d2"},"vehicle_type_id":"4","last_reported":1726175274,"current_range_meters":37600,"station_id":"ce4bhh12rcd13ifvqfg0","pricing_plan_id":"cebpf4jnsgd1na2vs0mg"},{"bike_id":"2fe0da17-0f0b-45d7-811f-03523afc60fc","system_id":"levelo_inurba_marseille","lat":43.302627,"lon":5.400837,"is_reserved":false,"is_disabled":false,"rental_uris":{"android":"levelo://app?vid=2fe0da17-0f0b-45d7-811f-03523afc60fc","ios":"levelo://app?vid=2fe0da17-0f0b-45d7-811f-03523afc60fc"},"vehicle_type_id":"4","last_reported":1726175274,"current_range_meters":38800,"station_id":"ce4bgvh2rcd13ifvqcs0","pricing_plan_id":"cebpf4jnsgd1na2vs0mg"},{"bike_id":"12df3275-0cb4-4e83-8178-90b631f0fc86","system_id":"levelo_inurba_marseille","lat":43.27445,"lon":5.39399,"is_reserved":false,"is_disabled":false,"rental_uris":{"android":"levelo://app?vid=12df3275-0cb4-4e83-8178-90b631f0fc86","ios":"levelo://app?vid=12df3275-0cb4-4e83-8178-90b631f0fc86"},"vehicle_type_id":"4","last_reported":1726175274,"current_range_meters":0,"station_id":"ce4bhdp2rcd13ifvqf20","pricing_plan_id":"cebpf4jnsgd1na2vs0mg"},{"bike_id":"779b71c2-951f-404c-a646-27ac10427914","system_id":"levelo_inurba_marseille","lat":43.28373,"lon":5.38632,"is_reserved":false,"is_disabled":false,"rental_uris":{"android":"levelo://app?vid=779b71c2-951f-404c-a646-27ac10427914","ios":"levelo://app?vid=779b71c2-951f-404c-a646-27ac10427914"},"vehicle_type_id":"4","last_reported":1726175274,"current_range_meters":36400,"station_id":"ce4bh492rcd13ifvqdvg","pricing_plan_id":"cebpf4jnsgd1na2vs0mg"},{"bike_id":"f45769ef-0f02-498b-9a98-96e1092cb42f","system_id":"levelo_inurba_marseille","lat":43.29706,"lon":5.36606,"is_reserved":false,"is_disabled":false,"rental_uris":{"android":"levelo://app?vid=f45769ef-0f02-498b-9a98-96e1092cb42f","ios":"levelo://app?vid=f45769ef-0f02-498b-9a98-96e1092cb42f"},"vehicle_type_id":"4","last_reported":1726175274,"current_range_meters":32000,"station_id":"ce4bgn12rcd13ifvqbt0","pricing_plan_id":"cebpf4jnsgd1na2vs0mg"},{"bike_id":"09ba8945-a48c-4076-a723-c8b4a259d6ac","system_id":"levelo_inurba_marseille","lat":43.25574,"lon":5.38231,"is_reserved":false,"is_disabled":false,"rental_uris":{"android":"levelo://app?vid=09ba8945-a48c-4076-a723-c8b4a259d6ac","ios":"levelo://app?vid=09ba8945-a48c-4076-a723-c8b4a259d6ac"},"vehicle_type_id":"4","last_reported":1726175274,"current_range_meters":36400,"station_id":"ce4bhih2rcd13ifvqfs0","pricing_plan_id":"cebpf4jnsgd1na2vs0mg"},{"bike_id":"a1091efe-c138-41d2-96bf-7a1d952b7a7b","system_id":"levelo_inurba_marseille","lat":43.29016,"lon":5.35619,"is_reserved":false,"is_disabled":false,"rental_uris":{"android":"levelo://app?vid=a1091efe-c138-41d2-96bf-7a1d952b7a7b","ios":"levelo://app?vid=a1091efe-c138-41d2-96bf-7a1d952b7a7b"},"vehicle_type_id":"4","last_reported":1726175274,"current_range_meters":24000,"station_id":"ce4bhb92rcd13ifvqen0","pricing_plan_id":"cebpf4jnsgd1na2vs0mg"},{"bike_id":"6f49b873-2817-4614-9d3a-6a2d8b030432","system_id":"levelo_inurba_marseille","lat":43.29317,"lon":5.3717,"is_reserved":false,"is_disabled":false,"rental_uris":{"android":"levelo://app?vid=6f49b873-2817-4614-9d3a-6a2d8b030432","ios":"levelo://app?vid=6f49b873-2817-4614-9d3a-6a2d8b030432"},"vehicle_type_id":"4","last_reported":1726175274,"current_range_meters":36800,"station_id":"ce4bgh92rcd13ifvqb40","pricing_plan_id":"cebpf4jnsgd1na2vs0mg"},{"bike_id":"b99b60ed-e9da-40e0-8a7c-83f99dcfb1b6","system_id":"levelo_inurba_marseille","lat":43.31331,"lon":5.39693,"is_reserved":false,"is_disabled":false,"rental_uris":{"android":"levelo://app?vid=b99b60ed-e9da-40e0-8a7c-83f99dcfb1b6","ios":"levelo://app?vid=b99b60ed-e9da-40e0-8a7c-83f99dcfb1b6"},"vehicle_type_id":"4","last_reported":1726175274,"current_range_meters":30800,"station_id":"ce4bgvp2rcd13ifvqcu0","pricing_plan_id":"cebpf4jnsgd1na2vs0mg"},{"bike_id":"9739960b-b845-432a-82dd-6d308bb842f0","system_id":"levelo_inurba_marseille","lat":43.30799,"lon":5.38157,"is_reserved":false,"is_disabled":false,"rental_uris":{"android":"levelo://app?vid=9739960b-b845-432a-82dd-6d308bb842f0","ios":"levelo://app?vid=9739960b-b845-432a-82dd-6d308bb842f0"},"vehicle_type_id":"4","last_reported":1726175274,"current_range_meters":25600,"station_id":"ce4bgt12rcd13ifvqce0","pricing_plan_id":"cebpf4jnsgd1na2vs0mg"},{"bike_id":"61e00977-be43-400f-99ea-3c33330f7657","system_id":"levelo_inurba_marseille","lat":43.25006,"lon":5.38915,"is_reserved":false,"is_disabled":false,"rental_uris":{"android":"levelo://app?vid=61e00977-be43-400f-99ea-3c33330f7657","ios":"levelo://app?vid=61e00977-be43-400f-99ea-3c33330f7657"},"vehicle_type_id":"4","last_reported":1726175274,"current_range_meters":28400,"station_id":"ce4bhgp2rcd13ifvqfd0","pricing_plan_id":"cebpf4jnsgd1na2vs0mg"},{"bike_id":"0b1fc2ff-ef0a-4143-8d31-4748c7f0d12c","system_id":"levelo_inurba_marseille","lat":43.23963,"lon":5.36644,"is_reserved":false,"is_disabled":false,"rental_uris":{"android":"levelo://app?vid=0b1fc2ff-ef0a-4143-8d31-4748c7f0d12c","ios":"levelo://app?vid=0b1fc2ff-ef0a-4143-8d31-4748c7f0d12c"},"vehicle_type_id":"4","last_reported":1726175274,"current_range_meters":25600,"station_id":"ce4bhi12rcd13ifvqfp0","pricing_plan_id":"cebpf4jnsgd1na2vs0mg"},{"bike_id":"6d1393c4-a903-430b-a02d-3babfc707d67","system_id":"levelo_inurba_marseille","lat":43.28004,"lon":5.40011,"is_reserved":false,"is_disabled":false,"rental_uris":{"android":"levelo://app?vid=6d1393c4-a903-430b-a02d-3babfc707d67","ios":"levelo://app?vid=6d1393c4-a903-430b-a02d-3babfc707d67"},"vehicle_type_id":"4","last_reported":1726175274,"current_range_meters":33200,"station_id":"ce4bho92rcd13ifvqh4g","pricing_plan_id":"cebpf4jnsgd1na2vs0mg"},