{"last_updated":1736690842,"ttl":60,"version":"2.2","data":{"bikes":[{"bike_id":"a45576f7-42f1-4909-b017-bd1e8379966a","system_id":"levelo_inurba_marseille","lat":43.30022,"lon":5.44023,"is_reserved":false,"is_disabled":false,"rental_uris":{"android":"levelo://app?vid=a45576f7-42f1-4909-b017-bd1e8379966a","ios":"levelo://app?vid=a45576f7-42f1-4909-b017-bd1e8379966a"},"vehicle_type_id":"4","last_reported":1736690842,"current_range_meters":21600,"station_id":"","pricing_plan_id":"cebpf4jnsgd1na2vs0mg"},{"bike_id":"d4acb1e7-6657-4c60-803c-5aabd44a82c5","system_id":"levelo_inurba_marseille","lat":43.27998,"lon":5.40031,"is_reserved":false,"is_disabled":false,"rental_uris":{"android":"levelo://app?vid=d4acb1e7-6657-4c60-803c-5aabd44a82c5","ios":"levelo://app?vid=d4acb1e7-6657-4c60-803c-5aabd44a82c5"},"vehicle_type_id":"4","last_reported":1736690842,"current_range_meters":38000,"station_id":"ce4bho92rcd13ifvqh4g","pricing_plan_id":"cebpf4jnsgd1na2vs0mg"},{"bike_id":"2587d0b2-2762-427c-a939-7d2926b57403","system_id":"levelo_inurba_marseille","lat":43.28843,"lon":5.39307,"is_reserved":false,"is_disabled":false,"rental_uris":{"android":"levelo://app?vid=2587d0b2-2762-427c-a939-7d2926b57403","ios":"levelo://app?vid=2587d0b2-2762-427c-a939-7d2926b57403"},"vehicle_type_id":"4","last_reported":1736690842,"current_range_meters":19200,"station_id":"ce4bh2p2rcd13ifvqdi0","pricing_plan_id":"cebpf4jnsgd1na2vs0mg"},{"bike_id":"8ec1251a-8baf-4d63-8b7a-28e608dd863b","system_id":"levelo_inurba_marseille","lat":43.23963,"lon":5.36645,"is_reserved":false,"is_disabled":false,"rental_uris":{"android":"levelo://app?vid=8ec1251a-8baf-4d63-8b7a-28e608dd863b","ios":"levelo://app?vid=8ec1251a-8baf-4d63-8b7a-28e608dd863b"},"vehicle_type_id":"4","last_reported":1736690842,"current_range_meters":27200,"station_id":"ce4bhi12rcd13ifvqfp0","pricing_plan_id":"cebpf4jnsgd1na2vs0mg"},{"bike_id":"ddca97d7-b7b1-48ff-88b8-3c9fefa123b6","system_id":"levelo_inurba_marseille","lat":43.30971,"lon":5.39054,"is_reserved":false,"is_disabled":false,"rental_uris":{"android":"levelo://app?vid=ddca97d7-b7b1-48ff-88b8-3c9fefa123b6","ios":"levelo://app?vid=ddca97d7-b7b1-48ff-88b8-3c9fefa123b6"},"vehicle_type_id":"4","last_reported":1736690842,"current_range_meters":39200,"station_id":"ce4bgup2rcd13ifvqco0","pricing_plan_id":"cebpf4jnsgd1na2vs0mg"},{"bike_id":"0ea60a2f-cda4-4308-83fa-1ed45460e073","system_id":"levelo_inurba_marseille","lat":43.32287,"lon":5.38297,"is_reserved":false,"is_disabled":false,"rental_uris":{"android":"levelo://app?vid=0ea60a2f-cda4-4308-83fa-1ed45460e073","ios":"levelo://app?vid=0ea60a2f-cda4-4308-83fa-1ed45460e073"},"vehicle_type_id":"4","last_reported":1736690842,"current_range_meters":37600,"station_id":"ce4bhr12rcd13ifvqhqg","pricing_plan_id":"cebpf4jnsgd1na2vs0mg"},{"bike_id":"03082523-27ee-4172-aa26-ed74a79a8f2e","system_id":"levelo_inurba_marseille","lat":43.30951,"lon":5.39051,"is_reserved":false,"is_disabled":false,"rental_uris":{"android":"levelo://app?vid=03082523-27ee-4172-aa26-ed74a79a8f2e","ios":"levelo://app?vid=03082523-27ee-4172-aa26-ed74a79a8f2e"},"vehicle_type_id":"4","last_reported":1736690842,"current_range_meters":24000,"station_id":"ce4bgup2rcd13ifvqco0","pricing_plan_id":"cebpf4jnsgd1na2vs0mg"},{"bike_id":"705a64db-6ba3-4327-aff7-80d2de17d629","system_id":"levelo_inurba_marseille","lat":43.24985,"lon":5.38943,"is_reserved":false,"is_disabled":false,"rental_uris":{"android":"levelo://app?vid=705a64db-6ba3-4327-aff7-80d2de17d629","ios":"levelo://app?vid=705a64db-6ba3-4327-aff7-80d2de17d629"},"vehicle_type_id":"4","last_reported":1736690842,"current_range_meters":28000,"station_id":"ce4bhgp2rcd13ifvqfd0","pricing_plan_id":"cebpf4jnsgd1na2vs0mg"},{"bike_id":"51552a4b-874a-45d6-8a00-6c24cfee1729","system_id":"levelo_inurba_marseille","lat":43.2558,"lon":5.38211,"is_reserved":false,"is_disabled":false,"rental_uris":{"android":"levelo://app?vid=51552a4b-874a-45d6-8a00-6c24cfee1729","ios":"levelo://app?vid=51552a4b-874a-45d6-8a00-6c24cfee1729"},"vehicle_type_id":"4","last_reported":1736690842,"current_range_meters":10800,"station_id":"ce4bhih2rcd13ifvqfs0","pricing_plan_id":"cebpf4jnsgd1na2vs0mg"},{"bike_id":"16a0ec8c-48c2-474f-a5c0-6c5a74010f79","system_id":"levelo_inurba_marseille","lat":43.24804,"lon":5.37456,"is_reserved":false,"is_disabled":false,"rental_uris":{"android":"levelo://app?vid=16a0ec8c-48c2-474f-a5c0-6c5a74010f79","ios":"levelo://app?vid=16a0ec8c-48c2-474f-a5c0-6c5a74010f79"},"vehicle_type_id":"4","last_reported":1736690842,"current_range_meters":22800,"station_id":"ce4bhgh2rcd13ifvqfb0","pricing_plan_id":"cebpf4jnsgd1na2vs0mg"},{"bike_id":"acb9a0a1-214f-4876-8bd7-0f333a94cc78","system_id":"levelo_inurba_marseille","lat":43.25497,"lon":5.3765,"is_reserved":false,"is_disabled":false,"rental_uris":{"android":"levelo://app?vid=acb9a0a1-214f-4876-8bd7-0f333a94cc78","ios":"levelo://app?vid=acb9a0a1-214f-4876-8bd7-0f333a94cc78"},"vehicle_type_id":"4","last_reported":1736690842,"current_range_meters":31200,"station_id":"ce4bhh12rcd13ifvqff0","pricing_plan_id":"cebpf4jnsgd1na2vs0mg"},{"bike_id":"a610ea43-a813-46ec-bea0-c126f765053d","system_id":"levelo_inurba_marseille","lat":43.28949,"lon":5.3664,"is_reserved":false,"is_disabled":false,"rental_uris":{"android":"levelo://app?vid=a610ea43-a813-46ec-bea0-c126f765053d","ios":"levelo://app?vid=a610ea43-a813-46ec-bea0-c126f765053d"},"vehicle_type_id":"4","last_reported":1736690842,"current_range_meters":36400,"station_id":"ce4bhap2rcd13ifvqek0","pricing_plan_id":"cebpf4jnsgd1na2vs0mg"},{"bike_id":"6b0a0c2b-5dc2-4816-8588-830866ec023a","system_id":"levelo_inurba_marseille","lat":43.29156,"lon":5.37166,"is_reserved":false,"is_disabled":false,"rental_uris":{"android":"levelo://app?vid=6b0a0c2b-5dc2-4816-8588-830866ec023a","ios":"levelo://app?vid=6b0a0c2b-5dc2-4816-8588-830866ec023a"},"vehicle_type_id":"4","last_reported":1736690842,"current_range_meters":38800,"station_id":"ce4bha92rcd13ifvqeh0","pricing_plan_id":"cebpf4jnsgd1na2vs0mg"},{"bike_id":"ca8ec9f9-5806-4919-8dc4-652edccc4112","system_id":"levelo_inurba_marseille","lat":43.26766,"lon":5.39435,"is_reserved":false,"is_disabled":false,"rental_uris":{"android":"levelo://app?vid=ca8ec9f9-5806-4919-8dc4-652edccc4112","ios":"levelo://app?vid=ca8ec9f9-5806-4919-8dc4-652edccc4112"},"vehicle_type_id":"4","last_reported":1736690842,"current_range_meters":18000,"station_id":"ce4bhh12rcd13ifvqfg0","pricing_plan_id":"cebpf4jnsgd1na2vs0mg"},{"bike_id":"1bd06e3d-7c15-4512-a3a0-cc887dd7d42f","system_id":"levelo_inurba_marseille","lat":43.28029,"lon":5.36948,"is_reserved":false,"is_disabled":false,"rental_uris":{"android":"levelo://app?vid=1bd06e3d-7c15-4512-a3a0-cc887dd7d42f","ios":"levelo://app?vid=1bd06e3d-7c15-4512-a3a0-cc887dd7d42f"},"vehicle_type_id":"4","last_reported":1736690842,"current_range_meters":29600,"station_id":"ce4bha12rcd13ifvqef0","pricing_plan_id":"cebpf4jnsgd1na2vs0mg"},{"bike_id":"004c2ac5-7f25-4e48-8a80-9a02537f6ba6","system_id":"levelo_inurba_marseille","lat":43.32101,"lon":5.36785,"is_reserved":false,"is_disabled":false,"rental_uris":{"android":"levelo://app?vid=004c2ac5-7f25-4e48-8a80-9a02537f6ba6","ios":"levelo://app?vid=004c2ac5-7f25-4e48-8a80-9a02537f6ba6"},"vehicle_type_id":"4","last_reported":1736690842,"current_range_meters":25600,"station_id":"ce4bhrh2rcd13ifvqhug","pricing_plan_id":"cebpf4jnsgd1na2vs0mg"},{"bike_id":"6a8dc65c-8c47-4239-8815-8efa2acdc338","system_id":"levelo_inurba_marseille","lat":43.27988,"lon":5.41667,"is_reserved":false,"is_disabled":true,"rental_uris":{"android":"levelo://app?vid=6a8dc65c-8c47-4239-8815-8efa2acdc338","ios":"levelo://app?vid=6a8dc65c-8c47-4239-8815-8efa2acdc338"},"vehicle_type_id":"4","last_reported":1736690842,"current_range_meters":8000,"station_id":"ce4bho12rcd13ifvqh1g","pricing_plan_id":"cebpf4jnsgd1na2vs0mg"},{"bike_id":"882fcee4-5901-42da-9df5-6fcfae88cad0","system_id":"levelo_inurba_marseille","lat":43.33722,"lon":5.3919,"is_reserved":false,"is_disabled":false,"rental_uris":{"android":"levelo://app?vid=882fcee4-5901-42da-9df5-6fcfae88cad0","ios":"levelo://app?vid=882fcee4-5901-42da-9df5-6fcfae88cad0"},"vehicle_type_id":"4","last_reported":1736690842,"current_range_meters":30800,"station_id":"ce4bhr92rcd13ifvqhsg","pricing_plan_id":"cebpf4jnsgd1na2vs0mg"},{"bike_id":"94d00723-79f7-443c-bc62-0c89ddbb1d1c","system_id":"levelo_inurba_marseille","lat":43.28158,"lon":5.42643,"is_reserved":false,"is_disabled":true,"rental_uris":{"android":"levelo://app?vid=94d00723-79f7-443c-bc62-0c89ddbb1d1c","ios":"levelo://app?vid=94d00723-79f7-443c-bc62-0c89ddbb1d1c"},"vehicle_type_id":"4","last_reported":1736690842,"current_range_meters":25600,"station_id":"ce4bhnh2rcd13ifvqgug","pricing_plan_id":"cebpf4jnsgd1na2vs0mg"},{"bike_id":"23c60bcc-fe0d-41d1-83ce-c4de70ad2a46","system_id":"levelo_inurba_marseille","lat":43.31161,"lon":5.38729,"is_reserved":false,"is_disabled":false,"rental_uris":{"android":"levelo://app?vid=23c60bcc-fe0d-41d1-83ce-c4de70ad2a46","ios":"levelo://app?vid=23c60bcc-fe0d-41d1-83ce-c4de70ad2a46"},"vehicle_type_id":"4","last_reported":1736690842,"current_range_meters":38800,"station_id":"ce4bgv12rcd13ifvqcp0","pricing_plan_id":"cebpf4jnsgd1na2vs0mg"},{"bike_id":"e35d110b-0ca6-4c99-b711-04ba364d3860","system_id":"levelo_inurba_marseille","lat":43.23191,"lon":5.35589,"is_reserved":false,"is_disabled":true,"rental_uris":{"android":"levelo://app?vid=e35d110b-0ca6-4c99-b711-04ba364d3860","ios":"levelo://app?vid=e35d110b-0ca6-4c99-b711-04ba364d3860"},"vehicle_type_id":"4","last_reported":1736690842,"current_range_meters":800,"station_id":"ce4bhu92rcd13ifvqi70","pricing_plan_id":"cebpf4jnsgd1na2vs0mg"},{"bike_id":"c1dea8eb-dedb-48c3-82b9-ba4d059a0755","system_id":"levelo_inurba_marseille","lat":43.26552,"lon":5.37292,"is_reserved":false,"is_disabled":true,"rental_uris":{"android":"levelo://app?vid=c1dea8eb-dedb-48c3-82b9-ba4d059a0755","ios":"levelo://app?vid=c1dea8eb-dedb-48c3-82b9-ba4d059a0755"},"vehicle_type_id":"4","last_reported":1736690842,"current_range_meters":38800,"station_id":"ce4bhg12rcd13ifvqf70","pricing_plan_id":"cebpf4jnsgd1na2vs0mg"},{"bike_id":"f7253ea7-1840-46d0-b4c6-8bc8303cef00","system_id":"levelo_inurba_marseille","lat":43.24391,"lon":5.37059,"is_reserved":false,"is_disabled":false,"rental_uris":{"android":"levelo://app?vid=f7253ea7-1840-46d0-b4c6-8bc8303cef00","ios":"levelo://app?vid=f7253ea7-1840-46d0-b4c6-8bc8303cef00"},"vehicle_type_id":"4","last_reported":1736690842,"current_range_meters":38800,"station_id":"ce4bhhh2rcd13ifvqfk0","pricing_plan_id":"cebpf4jnsgd1na2vs0mg"},{"bike_id":"f07cf1e5-2261-46e4-9c9d-059f12c56910","system_id":"levelo_inurba_marseille","lat":43.25498,"lon":5.37655,"is_reserved":false,"is_disabled":false,"rental_uris":{"android":"levelo://app?vid=f07cf1e5-2261-46e4-9c9d-059f12c56910","ios":"levelo://app?vid=f07cf1e5-2261-46e4-9c9d-059f12c56910"},"vehicle_type_id":"4","last_reported":1736690842,"current_range_meters":23200,"station_id":"ce4bhh12rcd13ifvqff0","pricing_plan_id":"cebpf4jnsgd1na2vs0mg"},{"bike_id":"08ae3915-17de-4a4c-8174-f5e8b0a6a997","system_id":"levelo_inurba_marseille","lat":43.28276,"lon":5.35076,"is_reserved":false,"is_disabled":false,"rental_uris":{"android":"levelo://app?vid=08ae3915-17de-4a4c-8174-f5e8b0a6a997","ios":"levelo://app?vid=08ae3915-17de-4a4c-8174-f5e8b0a6a997"},"vehicle_type_id":"4","last_reported":1736690842,"current_range_meters":25200,"station_id":"ce4bhbp2rcd13ifvqerg","pricing_plan_id":"cebpf4jnsgd1na2vs0mg"},{"bike_id":"7f2aa2eb-72bb-4498-b8f3-da220d430db2","system_id":"levelo_inurba_marseille","lat":43.26538,"lon":5.39059,"is_reserved":false,"is_disabled":false,"rental_uris":{"android":"levelo://app?vid=7f2aa2eb-72bb-4498-b8f3-da220d430db2","ios":"levelo://app?vid=7f2aa2eb-72bb-4498-b8f3-da220d430db2"},"vehicle_type_id":"4","last_reported":1736690842,"current_range_meters":25600,"station_id":"ce4bhe12rcd13ifvqf30","pricing_plan_id":"cebpf4jnsgd1na2vs0mg"},{"bike_id":"5048781b-c4ca-44b4-a7cb-93ad5e27618d","system_id":"levelo_inurba_marseille","lat":43.31203,"lon":5.38707,"is_reserved":false,"is_disabled":false,"rental_uris":{"android":"levelo://app?vid=5048781b-c4ca-44b4-a7cb-93ad5e27618d","ios":"levelo://app?vid=5048781b-c4ca-44b4-a7cb-93ad5e27618d"},"vehicle_type_id":"4","last_reported":1736690842,"current_range_meters":24400,"station_id":"ce4bgv12rcd13ifvqcp0","pricing_plan_id":"cebpf4jnsgd1na2vs0mg"},{"bike_id":"850ed40c-31ca-4de8-b2b0-407aee01e9e0","system_id":"levelo_inurba_marseille","lat":43.30545,"lon":5.36537,"is_reserved":false,"is_disabled":false,"rental_uris":{"android":"levelo://app?vid=850ed40c-31ca-4de8-b2b0-407aee01e9e0","ios":"levelo://app?vid=850ed40c-31ca-4de8-b2b0-407aee01e9e0"},"vehicle_type_id":"4","last_reported":1736690842,"current_range_meters":12400,"station_id":"ce4bgs12rcd13ifvqcag","pricing_plan_id":"cebpf4jnsgd1na2vs0mg"},{"bike_id":"44ad9bf6-9550-4530-b74c-7606b4dfb73a","system_id":"levelo_inurba_marseille","lat":43.27367,"lon":5.39086,"is_reserved":false,"is_disabled":false,"rental_uris":{"android":"levelo://app?vid=44ad9bf6-9550-4530-b74c-7606b4dfb73a","ios":"levelo://app?vid=44ad9bf6-9550-4530-b74c-7606b4dfb73a"},"vehicle_type_id":"4","last_reported":1736690842,"current_range_meters":12800,"station_id":"","pricing_plan_id":"cebpf4jnsgd1na2vs0mg"},{"bike_id":"6b750947-fb43-40e2-9931-495446cc2b3f","system_id":"levelo_inurba_marseille","lat":43.22929,"lon":5.35381,"is_reserved":false,"is_disabled":false,"rental_uris":{"android":"levelo://app?vid=6b750947-fb43-40e2-9931-495446cc2b3f","ios":"levelo://app?vid=6b750947-fb43-40e2-9931-495446cc2b3f"},"vehicle_type_id":"4","last_reported":1736690842,"current_range_meters":33600,"station_id":"cpo3532slgdg3j2ikp40","pricing_plan_id":"cebpf4jnsgd1na2vs0mg"},{"bike_id":"c8e997c0-8580-4d0f-8d9f-0766596381e1","system_id":"levelo_inurba_marseille","lat":43.34032,"lon":5.37556,"is_reserved":false,"is_disabled":true,"rental_uris":{"android":"levelo://app?vid=c8e997c0-8580-4d0f-8d9f-0766596381e1","ios":"levelo://app?vid=c8e997c0-8580-4d0f-8d9f-0766596381e1"},"vehicle_type_id":"4","last_reported":1736690842,"current_range_meters":800,"station_id":"","pricing_plan_id":"cebpf4jnsgd1na2vs0mg"},{"bike_id":"ba5df164-d25c-4a1c-8679-1bd1a1db0642","system_id":"levelo_inurba_marseille","lat":43.33735,"lon":5.39186,"is_reserved":false,"is_disabled":false,"rental_uris":{"android":"levelo://app?vid=ba5df164-d25c-4a1c-8679-1bd1a1db0642","ios":"levelo://app?vid=ba5df164-d25c-4a1c-8679-1bd1a1db0642"},"vehicle_type_id":"4","last_reported":1736690842,"current_range_meters":24400,"station_id":"ce4bhr92rcd13ifvqhsg","pricing_plan_id":"cebpf4jnsgd1na2vs0mg"},{"bike_id":"087f784c-6451-4665-896b-9e7c7cacc314","system_id":"levelo_inurba_marseille","lat":43.30061,"lon":5.37548,"is_reserved":false,"is_disabled":true,"rental_uris":{"android":"levelo://app?vid=087f784c-6451-4665-896b-9e7c7cacc314","ios":"levelo://app?vid=087f784c-6451-4665-896b-9e7c7cacc314"},"vehicle_type_id":"4","last_reported":1736690842,"current_range_meters":1200,"station_id":"","pricing_plan_id":"cebpf4jnsgd1na2vs0mg"},{"bike_id":"249034b8-f0c3-4069-8e65-c30b90ee6427","system_id":"levelo_inurba_marseille","lat":43.2559,"lon":5.38246,"is_reserved":false,"is_disabled":false,"rental_uris":{"android":"levelo://app?vid=249034b8-f0c3-4069-8e65-c30b90ee6427","ios":"levelo://app?vid=249034b8-f0c3-4069-8e65-c30b90ee6427"},"vehicle_type_id":"4","last_reported":1736690842,"current_range_meters":36800,"station_id":"ce4bhih2rcd13ifvqfs0","pricing_plan_id":"cebpf4jnsgd1na2vs0mg"},{"bike_id":"eb9b2df2-fdc1-4d66-abed-6bda4748c4f1","system_id":"levelo_inurba_marseille","lat":43.26214,"lon":5.37923,"is_reserved":false,"is_disabled":false,"rental_uris":{"android":"levelo://app?vid=eb9b2df2-fdc1-4d66-abed-6bda4748c4f1","ios":"levelo://app?vid=eb9b2df2-fdc1-4d66-abed-6bda4748c4f1"},"vehicle_type_id":"4","last_reported":1736690842,"current_range_meters":23200,"station_id":"ce4bhjp2rcd13ifvqg90","pricing_plan_id":"cebpf4jnsgd1na2vs0mg"},{"bike_id":"7dd5dd5e-1d75-4c5b-b5b8-248a34302cca","system_id":"levelo_inurba_marseille","lat":43.30466,"lon":5.379,"is_reserved":false,"is_disabled":true,"rental_uris":{"android":"levelo://app?vid=7dd5dd5e-1d75-4c5b-b5b8-248a34302cca","ios":"levelo://app?vid=7dd5dd5e-1d75-4c5b-b5b8-248a34302cca"},"vehicle_type_id":"4","last_reported":1736690842,"current_range_meters":30000,"station_id":"ce4bgup2rcd13ifvqcn0","pricing_plan_id":"cebpf4jnsgd1na2vs0mg"},{"bike_id":"4e6a1fdd-84f1-4ff7-9556-c133bbbd986f","system_id":"levelo_inurba_marseille","lat":43.26191,"lon":5.3746,"is_reserved":false,"is_disabled":false,"rental_uris":{"android":"levelo://app?vid=4e6a1fdd-84f1-4ff7-9556-c133bbbd986f","ios":"levelo://app?vid=4e6a1fdd-84f1-4ff7-9556-c133bbbd986f"},"vehicle_type_id":"4","last_reported":1736690842,"current_range_meters":28800,"station_id":"ce4bhgp2rcd13ifvqfc0","pricing_plan_id":"cebpf4jnsgd1na2vs0mg"},{"bike_id":"226e6ef0-a4fc-4895-9ad6-89f66438544b","system_id":"levelo_inurba_marseille","lat":43.29004,"lon":5.35607,"is_reserved":false,"is_disabled":false,"rental_uris":{"android":"levelo://app?vid=226e6ef0-a4fc-4895-9ad6-89f66438544b","ios":"levelo://app?vid=226e6ef0-a4fc-4895-9ad6-89f66438544b"},"vehicle_type_id":"4","last_reported":1736690842,"current_range_meters":39200,"station_id":"ce4bhb92rcd13ifvqen0","pricing_plan_id":"cebpf4jnsgd1na2vs0mg"},{"bike_id":"d8327471-e10e-4e1d-a46b-c43156fc0620","system_id":"levelo_inurba_marseille","lat":43.26781,"lon":5.39428,"is_reserved":false,"is_disabled":true,"rental_uris":{"android":"levelo://app?vid=d8327471-e10e-4e1d-a46b-c43156fc0620","ios":"levelo://app?vid=d8327471-e10e-4e1d-a46b-c43156fc0620"},"vehicle_type_id":"4","last_reported":1736690842,"current_range_meters":0,"station_id":"ce4bhh12rcd13ifvqfg0","pricing_plan_id":"cebpf4jnsgd1na2vs0mg"},{"bike_id":"386ac3bc-e258-4c08-a4d7-50b536e1fb73","system_id":"levelo_inurba_marseille","lat":43.25824,"lon":5.39438,"is_reserved":false,"is_disabled":false,"rental_uris":{"android":"levelo://app?vid=386ac3bc-e258-4c08-a4d7-50b536e1fb73","ios":"levelo://app?vid=386ac3bc-e258-4c08-a4d7-50b536e1fb73"},"vehicle_type_id":"4","last_reported":1736690842,"current_range_meters":28800,"station_id":"ce4bhip2rcd13ifvqft0","pricing_plan_id":"cebpf4jnsgd1na2vs0mg"},{"bike_id":"88a901cb-7f74-4019-a0f1-f661d13208c8","system_id":"levelo_inurba_marseille","lat":43.32449,"lon":5.36578,"is_reserved":false,"is_disabled":false,"rental_uris":{"android":"levelo://app?vid=88a901cb-7f74-4019-a0f1-f661d13208c8","ios":"levelo://app?vid=88a901cb-7f74-4019-a0f1-f661d13208c8"},"vehicle_type_id":"4","last_reported":1736690842,"current_range_meters":36800,"station_id":"ce4bhs12rcd13ifvqhvg","pricing_plan_id":"cebpf4jnsgd1na2vs0mg"},{"bike_id":"7d959c37-4d60-4094-901d-194afd224ca0","system_id":"levelo_inurba_marseille","lat":43.28364,"lon":5.38635,"is_reserved":false,"is_disabled":true,"rental_uris":{"android":"levelo://app?vid=7d959c37-4d60-4094-901d-194afd224ca0","ios":"levelo://app?vid=7d959c37-4d60-4094-901d-194afd224ca0"},"vehicle_type_id":"4","last_reported":1736690842,"current_range_meters":10800,"station_id":"ce4bh492rcd13ifvqdvg","pricing_plan_id":"cebpf4jnsgd1na2vs0mg"},{"bike_id":"af7da63a-a92e-4736-945a-b59a40bedecb","system_id":"levelo_inurba_marseille","lat":43.30946,"lon":5.39021,"is_reserved":false,"is_disabled":false,"rental_uris":{"android":"levelo://app?vid=af7da63a-a92e-4736-945a-b59a40bedecb","ios":"levelo://app?vid=af7da63a-a92e-4736-945a-b59a40bedecb"},"vehicle_type_id":"4","last_reported":1736690842,"current_range_meters":38800,"station_id":"ce4bgup2rcd13ifvqco0","pricing_plan_id":"cebpf4jnsgd1na2vs0mg"},{"bike_id":"2f89f973-f79d-4481-ae53-58827e22969c","system_id":"levelo_inurba_marseille","lat":43.2558,"lon":5.38241,"is_reserved":false,"is_disabled":false,"rental_uris":{"android":"levelo://app?vid=2f89f973-f79d-4481-ae53-58827e22969c","ios":"levelo://app?vid=2f89f973-f79d-4481-ae53-58827e22969c"},"vehicle_type_id":"4","last_reported":1736690842,"current_range_meters":19200,"station_id":"ce4bhih2rcd13ifvqfs0","pricing_plan_id":"cebpf4jnsgd1na2vs0mg"},{"bike_id":"426ee80e-06b0-4d0f-86a5-ea8ad64aaa11","system_id":"levelo_inurba_marseille","lat":43.28915,"lon":5.43806,"is_reserved":false,"is_disabled":false,"rental_uris":{"android":"levelo://app?vid=426ee80e-06b0-4d0f-86a5-ea8ad64aaa11","ios":"levelo://app?vid=426ee80e-06b0-4d0f-86a5-ea8ad64aaa11"},"vehicle_type_id":"4","last_reported":1736690842,"current_range_meters":12400,"station_id":"","pricing_plan_id":"cebpf4jnsgd1na2vs0mg"},{"bike_id":"be336945-5568-43dd-8e7d-85c12348a127","system_id":"levelo_inurba_marseille","lat":43.28268,"lon":5.35087,"is_reserved":false,"is_disabled":false,"rental_uris":{"android":"levelo://app?vid=be336945-5568-43dd-8e7d-85c12348a127","ios":"levelo://app?vid=be336945-5568-43dd-8e7d-85c12348a127"},"vehicle_type_id":"4","last_reported":1736690842,"current_range_meters":39200,"station_id":"ce4bhbp2rcd13ifvqerg","pricing_plan_id":"cebpf4jnsgd1na2vs0mg"},{"bike_id":"b29dca30-1f99-4556-8d02-1cd94cfb8ea1","system_id":"levelo_inurba_marseille","lat":43.324802,"lon":5.365667,"is_reserved":false,"is_disabled":false,"rental_uris":{"android":"levelo://app?vid=b29dca30-1f99-4556-8d02-1cd94cfb8ea1","ios":"levelo://app?vid=b29dca30-1f99-4556-8d02-1cd94cfb8ea1"},"vehicle_type_id":"4","last_reported":1736690842,"current_range_meters":14000,"station_id":"ce4bhs12rcd13ifvqhvg","pricing_plan_id":"cebpf4jnsgd1na2vs0mg"},{"bike_id":"2b8ddac0-7918-454e-af5a-f9c04a1d3f9e","system_id":"levelo_inurba_marseille","lat":43.29771,"lon":5.37892,"is_reserved":false,"is_disabled":false,"rental_uris":{"android":"levelo://app?vid=2b8ddac0-7918-454e-af5a-f9c04a1d3f9e","ios":"levelo://app?vid=2b8ddac0-7918-454e-af5a-f9c04a1d3f9e"},"vehicle_type_id":"4","last_reported":1736690842,"current_range_meters":5600,"station_id":"","pricing_plan_id":"cebpf4jnsgd1na2vs0mg"},{"bike_id":"969e27ab-5a9e-459e-9526-3b57e6f57682","system_id":"levelo_inurba_marseille","lat":43.22924,"lon":5.35376,"is_reserved":false,"is_disabled":false,"rental_uris":{"android":"levelo://app?vid=969e27ab-5a9e-459e-9526-3b57e6f57682","ios":"levelo://app?vid=969e27ab-5a9e-459e-9526-3b57e6f57682"},"vehicle_type_id":"4","last_reported":1736690842,"current_range_meters":8800,"station_id":"cpo3532slgdg3j2ikp40","pricing_plan_id":"cebpf4jnsgd1na2vs0mg"},{"bike_id":"9fa5613d-39b6-40e4-be80-3428e5831144","system_id":"levelo_inurba_marseille","lat":43.25865,"lon":5.39929,"is_reserved":false,"is_disabled":false,"rental_uris":{"android":"levelo://app?vid=9fa5613d-39b6-40e4-be80-3428e5831144","ios":"levelo://app?vid=9fa5613d-39b6-40e4-be80-3428e5831144"},"vehicle_type_id":"4","last_reported":1736690842,"current_range_meters":38800,"station_id":"ce4bhl92rcd13ifvqghg","pricing_plan_id":"cebpf4jnsgd1na2vs0mg"},{"bike_id":"825d93ed-f9a6-4914-b504-6941ccd1a32c","system_id":"levelo_inurba_marseille","lat":43.28142,"lon":5.42637,"is_reserved":false,"is_disabled":false,"rental_uris":{"android":"levelo://app?vid=825d93ed-f9a6-4914-b504-6941ccd1a32c","ios":"levelo://app?vid=825d93ed-f9a6-4914-b504-6941ccd1a32c"},"vehicle_type_id":"4","last_reported":1736690842,"current_range_meters":9600,"station_id":"ce4bhnh2rcd13ifvqgug","pricing_plan_id":"cebpf4jnsgd1na2vs0mg"},{"bike_id":"c57472a4-4d7d-4e98-a197-dfe0bfa4547f","system_id":"levelo_inurba_marseille","lat":43.28612,"lon":5.35103,"is_reserved":false,"is_disabled":false,"rental_uris":{"android":"levelo://app?vid=c57472a4-4d7d-4e98-a197-dfe0bfa4547f","ios":"levelo://app?vid=c57472a4-4d7d-4e98-a197-dfe0bfa4547f"},"vehicle_type_id":"4","last_reported":1736690842,"current_range_meters":30800,"station_id":"ce4bhch2rcd13ifvqeug","pricing_plan_id":"cebpf4jnsgd1na2vs0mg"},{"bike_id":"251bcb32-9754-4a96-be14-f473e0e9719e","system_id":"levelo_inurba_marseille","lat":43.32546,"lon":5.38028,"is_reserved":false,"is_disabled":false,"rental_uris":{"android":"levelo://app?vid=251bcb32-9754-4a96-be14-f473e0e9719e","ios":"levelo://app?vid=251bcb32-9754-4a96-be14-f473e0e9719e"},"vehicle_type_id":"4","last_reported":1736690842,"current_range_meters":4000,"station_id":"","pricing_plan_id":"cebpf4jnsgd1na2vs0mg"},{"bike_id":"878c9653-a54a-440f-99c2-bfaa16bfe19f","system_id":"levelo_inurba_marseille","lat":43.29195,"lon":5.39325,"is_reserved":false,"is_disabled":true,"rental_uris":{"android":"levelo://app?vid=878c9653-a54a-440f-99c2-bfaa16bfe19f","ios":"levelo://app?vid=878c9653-a54a-440f-99c2-bfaa16bfe19f"},"vehicle_type_id":"4","last_reported":1736690842,"current_range_meters":24000,"station_id":"ce4bh192rcd13ifvqdd0","pricing_plan_id":"cebpf4jnsgd1na2vs0mg"},{"bike_id":"f4dbc556-58b0-4dfd-be99-18a51c032520","system_id":"levelo_inurba_marseille","lat":43.24188,"lon":5.39715,"is_reserved":false,"is_disabled":true,"rental_uris":{"android":"levelo://app?vid=f4dbc556-58b0-4dfd-be99-18a51c032520","ios":"levelo://app?vid=f4dbc556-58b0-4dfd-be99-18a51c032520"},"vehicle_type_id":"4","last_reported":1736690842,"current_range_meters":35600,"station_id":"ce4bhn12rcd13ifvqgpg","pricing_plan_id":"cebpf4jnsgd1na2vs0mg"},{"bike_id":"9c62e164-6cf9-4292-996f-7c2ed5673e8e","system_id":"levelo_inurba_marseille","lat":43.23952,"lon":5.3664,"is_reserved":false,"is_disabled":false,"rental_uris":{"android":"levelo://app?vid=9c62e164-6cf9-4292-996f-7c2ed5673e8e","ios":"levelo://app?vid=9c62e164-6cf9-4292-996f-7c2ed5673e8e"},"vehicle_type_id":"4","last_reported":1736690842,"current_range_meters":27200,"station_id":"ce4bhi12rcd13ifvqfp0","pricing_plan_id":"cebpf4jnsgd1na2vs0mg"},{"bike_id":"017022fd-dfa9-45f9-bad9-de1885e08fc8","system_id":"levelo_inurba_marseille","lat":43.305521,"lon":5.365378,"is_reserved":false,"is_disabled":false,"rental_uris":{"android":"levelo://app?vid=017022fd-dfa9-45f9-bad9-de1885e08fc8","ios":"levelo://app?vid=017022fd-dfa9-45f9-bad9-de1885e08fc8"},"vehicle_type_id":"4","last_reported":1736690842,"current_range_meters":27600,"station_id":"ce4bgs12rcd13ifvqcag","pricing_plan_id":"cebpf4jnsgd1na2vs0mg"},{"bike_id":"8610cda6-1dd0-4e55-b94f-628d98cb13f9","system_id":"levelo_inurba_marseille","lat":43.26564,"lon":5.39019,"is_reserved":false,"is_disabled":false,"rental_uris":{"android":"levelo://app?vid=8610cda6-1dd0-4e55-b94f-628d98cb13f9","ios":"levelo://app?vid=8610cda6-1dd0-4e55-b94f-628d98cb13f9"},"vehicle_type_id":"4","last_reported":1736690842,"current_range_meters":17600,"station_id":"ce4bhe12rcd13ifvqf30","pricing_plan_id":"cebpf4jnsgd1na2vs0mg"},{"bike_id":"45636413-29bd-43b6-bd8b-1246eb3c7c1a","system_id":"levelo_inurba_marseille","lat":43.27132,"lon":5.38511,"is_reserved":false,"is_disabled":false,"rental_uris":{"android":"levelo://app?vid=45636413-29bd-43b6-bd8b-1246eb3c7c1a","ios":"levelo://app?vid=45636413-29bd-43b6-bd8b-1246eb3c7c1a"},"vehicle_type_id":"4","last_reported":1736690842,"current_range_meters":8400,"station_id":"","pricing_plan_id":"cebpf4jnsgd1na2vs0mg"},{"bike_id":"4d2f8fd0-21ed-4425-9dc5-0ad45a59fb73","system_id":"levelo_inurba_marseille","lat":43.2465,"lon":5.38174,"is_reserved":false,"is_disabled":false,"rental_uris":{"android":"levelo://app?vid=4d2f8fd0-21ed-4425-9dc5-0ad45a59fb73","ios":"levelo://app?vid=4d2f8fd0-21ed-4425-9dc5-0ad45a59fb73"},"vehicle_type_id":"4","last_reported":1736690842,"current_range_meters":38800,"station_id":"ce4bhih2rcd13ifvqfr0","pricing_plan_id":"cebpf4jnsgd1na2vs0mg"},{"bike_id":"c1424551-ffe9-44cb-8151-458a215afc78","system_id":"levelo_inurba_marseille","lat":43.27609,"lon":5.36118,"is_reserved":false,"is_disabled":false,"rental_uris":{"android":"levelo://app?vid=c1424551-ffe9-44cb-8151-458a215afc78","ios":"levelo://app?vid=c1424551-ffe9-44cb-8151-458a215afc78"},"vehicle_type_id":"4","last_reported":1736690842,"current_range_meters":38800,"station_id":"ce4bgj92rcd13ifvqbe0","pricing_plan_id":"cebpf4jnsgd1na2vs0mg"},{"bike_id":"80609ff8-7d7d-4ae2-9159-aea837c7c52b","system_id":"levelo_inurba_marseille","lat":43.23952,"lon":5.36642,"is_reserved":false,"is_disabled":false,"rental_uris":{"android":"levelo://app?vid=80609ff8-7d7d-4ae2-9159-aea837c7c52b","ios":"levelo://app?vid=80609ff8-7d7d-4ae2-9159-aea837c7c52b"},"vehicle_type_id":"4","last_reported":1736690842,"current_range_meters":7200,"station_id":"ce4bhi12rcd13ifvqfp0","pricing_plan_id":"cebpf4jnsgd1na2vs0mg"},{"bike_id":"93a6957d-6e97-47d8-aa06-3e9ef7485399","system_id":"levelo_inurba_marseille","lat":43.23058,"lon":5.35494,"is_reserved":false,"is_disabled":false,"rental_uris":{"android":"levelo://app?vid=93a6957d-6e97-47d8-aa06-3e9ef7485399","ios":"levelo://app?vid=93a6957d-6e97-47d8-aa06-3e9ef7485399"},"vehicle_type_id":"4","last_reported":1736690842,"current_range_meters":3600,"station_id":"cpo3342slgdg3j2ifvpg","pricing_plan_id":"cebpf4jnsgd1na2vs0mg"},{"bike_id":"c2b657e0-67fb-4721-a4d6-0ebb2fa0fcbe","system_id":"levelo_inurba_marseille","lat":43.28618,"lon":5.35096,"is_reserved":false,"is_disabled":false,"rental_uris":{"android":"levelo://app?vid=c2b657e0-67fb-4721-a4d6-0ebb2fa0fcbe","ios":"levelo://app?vid=c2b657e0-67fb-4721-a4d6-0ebb2fa0fcbe"},"vehicle_type_id":"4","last_reported":1736690842,"current_range_meters":36800,"station_id":"ce4bhch2rcd13ifvqeug","pricing_plan_id":"cebpf4jnsgd1na2vs0mg"},{"bike_id":"d94721b4-6dca-4810-bc47-4db500525280","system_id":"levelo_inurba_marseille","lat":43.2549,"lon":5.376495,"is_reserved":false,"is_disabled":false,"rental_uris":{"android":"levelo://app?vid=d94721b4-6dca-4810-bc47-4db500525280","ios":"levelo://app?vid=d94721b4-6dca-4810-bc47-4db500525280"},"vehicle_type_id":"4","last_reported":1736690842,"current_range_meters":8400,"station_id":"ce4bhh12rcd13ifvqff0","pricing_plan_id":"cebpf4jnsgd1na2vs0mg"},{"bike_id":"3bf91848-c5d0-4524-ac3b-a43d812f5094","system_id":"levelo_inurba_marseille","lat":43.23064,"lon":5.35494,"is_reserved":false,"is_disabled":false,"rental_uris":{"android":"levelo://app?vid=3bf91848-c5d0-4524-ac3b-a43d812f5094","ios":"levelo://app?vid=3bf91848-c5d0-4524-ac3b-a43d812f5094"},"vehicle_type_id":"4","last_reported":1736690842,"current_range_meters":37600,"station_id":"cpo3342slgdg3j2ifvpg","pricing_plan_id":"cebpf4jnsgd1na2vs0mg"},{"bike_id":"1d92b4a0-d38e-4db6-8ea6-24954ceab268","system_id":"levelo_inurba_marseille","lat":43.25864,"lon":5.39912,"is_reserved":false,"is_disabled":false,"rental_uris":{"android":"levelo://app?vid=1d92b4a0-d38e-4db6-8ea6-24954ceab268","ios":"levelo://app?vid=1d92b4a0-d38e-4db6-8ea6-24954ceab268"},"vehicle_type_id":"4","last_reported":1736690842,"current_range_meters":36800,"station_id":"ce4bhl92rcd13ifvqghg","pricing_plan_id":"cebpf4jnsgd1na2vs0mg"},{"bike_id":"aa4fa961-77ec-4d6f-875d-5cba342b5b27","system_id":"levelo_inurba_marseille","lat":43.2559,"lon":5.38248,"is_reserved":false,"is_disabled":false,"rental_uris":{"android":"levelo://app?vid=aa4fa961-77ec-4d6f-875d-5cba342b5b27","ios":"levelo://app?vid=aa4fa961-77ec-4d6f-875d-5cba342b5b27"},"vehicle_type_id":"4","last_reported":1736690842,"current_range_meters":38800,"station_id":"ce4bhih2rcd13ifvqfs0","pricing_plan_id":"cebpf4jnsgd1na2vs0mg"},{"bike_id":"33f772a9-3316-47c9-ba2c-b8bb5b0473dc","system_id":"levelo_inurba_marseille","lat":43.29634,"lon":5.36703,"is_reserved":false,"is_disabled":true,"rental_uris":{"android":"levelo://app?vid=33f772a9-3316-47c9-ba2c-b8bb5b0473dc","ios":"levelo://app?vid=33f772a9-3316-47c9-ba2c-b8bb5b0473dc"},"vehicle_type_id":"4","last_reported":1736690842,"current_range_meters":38800,"station_id":"ce4bgph2rcd13ifvqc2g","pricing_plan_id":"cebpf4jnsgd1na2vs0mg"},{"bike_id":"5d7be82b-0ad1-4043-83db-163f64996ea8","system_id":"levelo_inurba_marseille","lat":43.30969,"lon":5.39042,"is_reserved":false,"is_disabled":false,"rental_uris":{"android":"levelo://app?vid=5d7be82b-0ad1-4043-83db-163f64996ea8","ios":"levelo://app?vid=5d7be82b-0ad1-4043-83db-163f64996ea8"},"vehicle_type_id":"4","last_reported":1736690842,"current_range_meters":9200,"station_id":"ce4bgup2rcd13ifvqco0","pricing_plan_id":"cebpf4jnsgd1na2vs0mg"},{"bike_id":"9c8c0f19-6acd-4047-9b73-cd2d2daf7c61","system_id":"levelo_inurba_marseille","lat":43.321057,"lon":5.367733,"is_reserved":false,"is_disabled":false,"rental_uris":{"android":"levelo://app?vid=9c8c0f19-6acd-4047-9b73-cd2d2daf7c61","ios":"levelo://app?vid=9c8c0f19-6acd-4047-9b73-cd2d2daf7c61"},"vehicle_type_id":"4","last_reported":1736690842,"current_range_meters":22400,"station_id":"ce4bhrh2rcd13ifvqhug","pricing_plan_id":"cebpf4jnsgd1na2vs0mg"},{"bike_id":"8f52b658-e721-4ac1-9b5e-2b1ca9e5b89a","system_id":"levelo_inurba_marseille","lat":43.28934,"lon":5.36631,"is_reserved":false,"is_disabled":false,"rental_uris":{"android":"levelo://app?vid=8f52b658-e721-4ac1-9b5e-2b1ca9e5b89a","ios":"levelo://app?vid=8f52b658-e721-4ac1-9b5e-2b1ca9e5b89a"},"vehicle_type_id":"4","last_reported":1736690842,"current_range_meters":17600,"station_id":"ce4bhap2rcd13ifvqek0","pricing_plan_id":"cebpf4jnsgd1na2vs0mg"},{"bike_id":"26c5223b-4cbb-486f-943d-e7ba13209535","system_id":"levelo_inurba_marseille","lat":43.31721,"lon":5.4241,"is_reserved":false,"is_disabled":false,"rental_uris":{"android":"levelo://app?vid=26c5223b-4cbb-486f-943d-e7ba13209535","ios":"levelo://app?vid=26c5223b-4cbb-486f-943d-e7ba13209535"},"vehicle_type_id":"4","last_reported":1736690842,"current_range_meters":24800,"station_id":"ce4bhp92rcd13ifvqhbg","pricing_plan_id":"cebpf4jnsgd1na2vs0mg"},{"bike_id":"23fa248b-a29f-4809-83a2-8dfa8df2caa7","system_id":"levelo_inurba_marseille","lat":43.28613,"lon":5.35101,"is_reserved":false,"is_disabled":false,"rental_uris":{"android":"levelo://app?vid=23fa248b-a29f-4809-83a2-8dfa8df2caa7","ios":"levelo://app?vid=23fa248b-a29f-4809-83a2-8dfa8df2caa7"},"vehicle_type_id":"4","last_reported":1736690842,"current_range_meters":12800,"station_id":"ce4bhch2rcd13ifvqeug","pricing_plan_id":"cebpf4jnsgd1na2vs0mg"},{"bike_id":"7b261aa7-24b1-4708-affc-c989a7ec797a","system_id":"levelo_inurba_marseille","lat":43.2841,"lon":5.34997,"is_reserved":false,"is_disabled":false,"rental_uris":{"android":"levelo://app?vid=7b261aa7-24b1-4708-affc-c989a7ec797a","ios":"levelo://app?vid=7b261aa7-24b1-4708-affc-c989a7ec797a"},"vehicle_type_id":"4","last_reported":1736690842,"current_range_meters":32000,"station_id":"ce4bhbh2rcd13ifvqepg","pricing_plan_id":"cebpf4jnsgd1na2vs0mg"},{"bike_id":"066fc890-cce1-4b7e-a941-320c51e991c9","system_id":"levelo_inurba_marseille","lat":43.2396,"lon":5.36654,"is_reserved":false,"is_disabled":false,"rental_uris":{"android":"levelo://app?vid=066fc890-cce1-4b7e-a941-320c51e991c9","ios":"levelo://app?vid=066fc890-cce1-4b7e-a941-320c51e991c9"},"vehicle_type_id":"4","last_reported":1736690842,"current_range_meters":17200,"station_id":"ce4bhi12rcd13ifvqfp0","pricing_plan_id":"cebpf4jnsgd1na2vs0mg"},{"bike_id":"4100518d-ec21-4c20-9cbc-a715dd414659","system_id":"levelo_inurba_marseille","lat":43.27841,"lon":5.39197,"is_reserved":false,"is_disabled":false,"rental_uris":{"android":"levelo://app?vid=4100518d-ec21-4c20-9cbc-a715dd414659","ios":"levelo://app?vid=4100518d-ec21-4c20-9cbc-a715dd414659"},"vehicle_type_id":"4","last_reported":1736690842,"current_range_meters":38800,"station_id":"ce4bhjp2rcd13ifvqga0","pricing_plan_id":"cebpf4jnsgd1na2vs0mg"},{"bike_id":"c4a9f4d8-3097-4c73-b16c-f476d0136944","system_id":"levelo_inurba_marseille","lat":43.24995,"lon":5.38938,"is_reserved":false,"is_disabled":false,"rental_uris":{"android":"levelo://app?vid=c4a9f4d8-3097-4c73-b16c-f476d0136944","ios":"levelo://app?vid=c4a9f4d8-3097-4c73-b16c-f476d0136944"},"vehicle_type_id":"4","last_reported":1736690842,"current_range_meters":17600,"station_id":"ce4bhgp2rcd13ifvqfd0","pricing_plan_id":"cebpf4jnsgd1na2vs0mg"},{"bike_id":"f30cb7b0-bac8-46ac-92c6-53aa90cba244","system_id":"levelo_inurba_marseille","lat":43.317245,"lon":5.424002,"is_reserved":false,"is_disabled":false,"rental_uris":{"android":"levelo://app?vid=f30cb7b0-bac8-46ac-92c6-53aa90cba244","ios":"levelo://app?vid=f30cb7b0-bac8-46ac-92c6-53aa90cba244"},"vehicle_type_id":"4","last_reported":1736690842,"current_range_meters":38000,"station_id":"ce4bhp92rcd13ifvqhbg","pricing_plan_id":"cebpf4jnsgd1na2vs0mg"},{"bike_id":"a93f552d-b365-4ed0-9344-b6eeb5fc5fbc","system_id":"levelo_inurba_marseille","lat":43.24378,"lon":5.37067,"is_reserved":false,"is_disabled":false,"rental_uris":{"android":"levelo://app?vid=a93f552d-b365-4ed0-9344-b6eeb5fc5fbc","ios":"levelo://app?vid=a93f552d-b365-4ed0-9344-b6eeb5fc5fbc"},"vehicle_type_id":"4","last_reported":1736690842,"current_range_meters":18000,"station_id":"ce4bhhh2rcd13ifvqfk0","pricing_plan_id":"cebpf4jnsgd1na2vs0mg"},{"bike_id":"c95bc832-31da-4dbf-928e-6859377c632f","system_id":"levelo_inurba_marseille","lat":43.26203,"lon":5.37925,"is_reserved":false,"is_disabled":false,"rental_uris":{"android":"levelo://app?vid=c95bc832-31da-4dbf-928e-6859377c632f","ios":"levelo://app?vid=c95bc832-31da-4dbf-928e-6859377c632f"},"vehicle_type_id":"4","last_reported":1736690842,"current_range_meters":35200,"station_id":"ce4bhjp2rcd13ifvqg90","pricing_plan_id":"cebpf4jnsgd1na2vs0mg"},{"bike_id":"dc388f0e-5ba4-4401-b2b7-3e59da087469","system_id":"levelo_inurba_marseille","lat":43.28618,"lon":5.35102,"is_reserved":false,"is_disabled":false,"rental_uris":{"android":"levelo://app?vid=dc388f0e-5ba4-4401-b2b7-3e59da087469","ios":"levelo://app?vid=dc388f0e-5ba4-4401-b2b7-3e59da087469"},"vehicle_type_id":"4","last_reported":1736690842,"current_range_meters":17200,"station_id":"ce4bhch2rcd13ifvqeug","pricing_plan_id":"cebpf4jnsgd1na2vs0mg"},{"bike_id":"809dff1c-84f5-4e72-a4c0-e6de089c0ca9","system_id":"levelo_inurba_marseille","lat":43.22932,"lon":5.35378,"is_reserved":false,"is_disabled":false,"rental_uris":{"android":"levelo://app?vid=809dff1c-84f5-4e72-a4c0-e6de089c0ca9","ios":"levelo://app?vid=809dff1c-84f5-4e72-a4c0-e6de089c0ca9"},"vehicle_type_id":"4","last_reported":1736690842,"current_range_meters":16400,"station_id":"cpo3532slgdg3j2ikp40","pricing_plan_id":"cebpf4jnsgd1na2vs0mg"},{"bike_id":"ddde0ec8-3285-4ac3-8fd6-b9b318e04594","system_id":"levelo_inurba_marseille","lat":43.31992,"lon":5.38165,"is_reserved":false,"is_disabled":false,"rental_uris":{"android":"levelo://app?vid=ddde0ec8-3285-4ac3-8fd6-b9b318e04594","ios":"levelo://app?vid=ddde0ec8-3285-4ac3-8fd6-b9b318e04594"},"vehicle_type_id":"4","last_reported":1736690842,"current_range_meters":38800,"station_id":"ce4bhr12rcd13ifvqhpg","pricing_plan_id":"cebpf4jnsgd1na2vs0mg"},{"bike_id":"c84c60ce-c7f6-42eb-bb3c-f11a697bd396","system_id":"levelo_inurba_marseille","lat":43.29956,"lon":5.38489,"is_reserved":false,"is_disabled":true,"rental_uris":{"android":"levelo://app?vid=c84c60ce-c7f6-42eb-bb3c-f11a697bd396","ios":"levelo://app?vid=c84c60ce-c7f6-42eb-bb3c-f11a697bd396"},"vehicle_type_id":"4","last_reported":1736690842,"current_range_meters":5600,"station_id":"ce4bgj92rcd13ifvqbd0","pricing_plan_id":"cebpf4jnsgd1na2vs0mg"},{"bike_id":"a1b8dac3-f278-4729-8b07-e796d545a439","system_id":"levelo_inurba_marseille","lat":43.30958,"lon":5.39035,"is_reserved":false,"is_disabled":false,"rental_uris":{"android":"levelo://app?vid=a1b8dac3-f278-4729-8b07-e796d545a439","ios":"levelo://app?vid=a1b8dac3-f278-4729-8b07-e796d545a439"},"vehicle_type_id":"4","last_reported":1736690842,"current_range_meters":35200,"station_id":"ce4bgup2rcd13ifvqco0","pricing_plan_id":"cebpf4jnsgd1na2vs0mg"},{"bike_id":"bb0e6924-db68-45ea-bc51-679d076199dc","system_id":"levelo_inurba_marseille","lat":43.27987,"lon":5.4002,"is_reserved":false,"is_disabled":false,"rental_uris":{"android":"levelo://app?vid=bb0e6924-db68-45ea-bc51-679d076199dc","ios":"levelo://app?vid=bb0e6924-db68-45ea-bc51-679d076199dc"},"vehicle_type_id":"4","last_reported":1736690842,"current_range_meters":38800,"station_id":"ce4bho92rcd13ifvqh4g","pricing_plan_id":"cebpf4jnsgd1na2vs0mg"},{"bike_id":"125e826f-483b-47dc-9a84-f3a82cf45a8e","system_id":"levelo_inurba_marseille","lat":43.30089,"lon":5.37832,"is_reserved":false,"is_disabled":false,"rental_uris":{"android":"levelo://app?vid=125e826f-483b-47dc-9a84-f3a82cf45a8e","ios":"levelo://app?vid=125e826f-483b-47dc-9a84-f3a82cf45a8e"},"vehicle_type_id":"4","last_reported":1736690842,"current_range_meters":7200,"station_id":"","pricing_plan_id":"cebpf4jnsgd1na2vs0mg"},{"bike_id":"58ba27ab-c124-4665-ba9c-8ac9098850f3","system_id":"levelo_inurba_marseille","lat":43.26554,"lon":5.3729,"is_reserved":false,"is_disabled":false,"rental_uris":{"android":"levelo://app?vid=58ba27ab-c124-4665-ba9c-8ac9098850f3","ios":"levelo://app?vid=58ba27ab-c124-4665-ba9c-8ac9098850f3"},"vehicle_type_id":"4","last_reported":1736690842,"current_range_meters":38000,"station_id":"ce4bhg12rcd13ifvqf70","pricing_plan_id":"cebpf4jnsgd1na2vs0mg"},{"bike_id":"c1c51f67-6348-4482-a3d4-31704cefaf37","system_id":"levelo_inurba_marseille","lat":43.28604,"lon":5.35103,"is_reserved":false,"is_disabled":false,"rental_uris":{"android":"levelo://app?vid=c1c51f67-6348-4482-a3d4-31704cefaf37","ios":"levelo://app?vid=c1c51f67-6348-4482-a3d4-31704cefaf37"},"vehicle_type_id":"4","last_reported":1736690842,"current_range_meters":37600,"station_id":"ce4bhch2rcd13ifvqeug","pricing_plan_id":"cebpf4jnsgd1na2vs0mg"},{"bike_id":"e6e9b5e2-bb45-4e07-81f8-c3bf3f52838d","system_id":"levelo_inurba_marseille","lat":43.26582,"lon":5.39014,"is_reserved":false,"is_disabled":false,"rental_uris":{"android":"levelo://app?vid=e6e9b5e2-bb45-4e07-81f8-c3bf3f52838d","ios":"levelo://app?vid=e6e9b5e2-bb45-4e07-81f8-c3bf3f52838d"},"vehicle_type_id":"4","last_reported":1736690842,"current_range_meters":28400,"station_id":"ce4bhe12rcd13ifvqf30","pricing_plan_id":"cebpf4jnsgd1na2vs0mg"},{"bike_id":"a1f1f268-04ca-4934-a758-448d0aeedcd1","system_id":"levelo_inurba_marseille","lat":43.28707,"lon":5.39993,"is_reserved":false,"is_disabled":true,"rental_uris":{"android":"levelo://app?vid=a1f1f268-04ca-4934-a758-448d0aeedcd1","ios":"levelo://app?vid=a1f1f268-04ca-4934-a758-448d0aeedcd1"},"vehicle_type_id":"4","last_reported":1736690842,"current_range_meters":37600,"station_id":"ce4bho92rcd13ifvqh3g","pricing_plan_id":"cebpf4jnsgd1na2vs0mg"},{"bike_id":"33c87823-2705-45d7-be26-e69b67e27da7","system_id":"levelo_inurba_marseille","lat":43.3028,"lon":5.37689,"is_reserved":false,"is_disabled":false,"rental_uris":{"android":"levelo://app?vid=33c87823-2705-45d7-be26-e69b67e27da7","ios":"levelo://app?vid=33c87823-2705-45d7-be26-e69b67e27da7"},"vehicle_type_id":"4","last_reported":1736690842,"current_range_meters":31200,"station_id":"ce4bguh2rcd13ifvqcj0","pricing_plan_id":"cebpf4jnsgd1na2vs0mg"},{"bike_id":"1a93e2db-cfef-44c3-88cb-cf63f25e1865","system_id":"levelo_inurba_marseille","lat":43.2438,"lon":5.37062,"is_reserved":false,"is_disabled":false,"rental_uris":{"android":"levelo://app?vid=1a93e2db-cfef-44c3-88cb-cf63f25e1865","ios":"levelo://app?vid=1a93e2db-cfef-44c3-88cb-cf63f25e1865"},"vehicle_type_id":"4","last_reported":1736690842,"current_range_meters":28800,"station_id":"ce4bhhh2rcd13ifvqfk0","pricing_plan_id":"cebpf4jnsgd1na2vs0mg"},{"bike_id":"3db15e78-0259-4d3a-9775-04349b1aed30","system_id":"levelo_inurba_marseille","lat":43.30569,"lon":5.36519,"is_reserved":false,"is_disabled":true,"rental_uris":{"android":"levelo://app?vid=3db15e78-0259-4d3a-9775-04349b1aed30","ios":"levelo://app?vid=3db15e78-0259-4d3a-9775-04349b1aed30"},"vehicle_type_id":"4","last_reported":1736690842,"current_range_meters":27200,"station_id":"ce4bgs12rcd13ifvqcag","pricing_plan_id":"cebpf4jnsgd1na2vs0mg"},{"bike_id":"a754abf4-87cb-4915-a97f-0b4d0e8971f5","system_id":"levelo_inurba_marseille","lat":43.28625,"lon":5.35101,"is_reserved":false,"is_disabled":false,"rental_uris":{"android":"levelo://app?vid=a754abf4-87cb-4915-a97f-0b4d0e8971f5","ios":"levelo://app?vid=a754abf4-87cb-4915-a97f-0b4d0e8971f5"},"vehicle_type_id":"4","last_reported":1736690842,"current_range_meters":37600,"station_id":"ce4bhch2rcd13ifvqeug","pricing_plan_id":"cebpf4jnsgd1na2vs0mg"},{"bike_id":"b51b8509-c21e-40ac-802b-edd56e55cdd0","system_id":"levelo_inurba_marseille","lat":43.3037,"lon":5.41909,"is_reserved":false,"is_disabled":true,"rental_uris":{"android":"levelo://app?vid=b51b8509-c21e-40ac-802b-edd56e55cdd0","ios":"levelo://app?vid=b51b8509-c21e-40ac-802b-edd56e55cdd0"},"vehicle_type_id":"4","last_reported":1736690842,"current_range_meters":26800,"station_id":"ce4bhop2rcd13ifvqh7g","pricing_plan_id":"cebpf4jnsgd1na2vs0mg"},{"bike_id":"f8e0c834-efc6-4ba0-aee6-be64686d4dd0","system_id":"levelo_inurba_marseille","lat":43.287104,"lon":5.373878,"is_reserved":false,"is_disabled":false,"rental_uris":{"android":"levelo://app?vid=f8e0c834-efc6-4ba0-aee6-be64686d4dd0","ios":"levelo://app?vid=f8e0c834-efc6-4ba0-aee6-be64686d4dd0"},"vehicle_type_id":"4","last_reported":1736690842,"current_range_meters":38800,"station_id":"ce4bh3p2rcd13ifvqdq0","pricing_plan_id":"cebpf4jnsgd1na2vs0mg"},{"bike_id":"78fc2529-851e-44ea-9e17-e5a76c9197b1","system_id":"levelo_inurba_marseille","lat":43.29697,"lon":5.37706,"is_reserved":false,"is_disabled":true,"rental_uris":{"android":"levelo://app?vid=78fc2529-851e-44ea-9e17-e5a76c9197b1","ios":"levelo://app?vid=78fc2529-851e-44ea-9e17-e5a76c9197b1"},"vehicle_type_id":"4","last_reported":1736690842,"current_range_meters":33200,"station_id":"ce4bgkh2rcd13ifvqbl0","pricing_plan_id":"cebpf4jnsgd1na2vs0mg"},{"bike_id":"6e0b7390-3f03-4896-850a-30b735b3a5fe","system_id":"levelo_inurba_marseille","lat":43.25481,"lon":5.37654,"is_reserved":false,"is_disabled":false,"rental_uris":{"android":"levelo://app?vid=6e0b7390-3f03-4896-850a-30b735b3a5fe","ios":"levelo://app?vid=6e0b7390-3f03-4896-850a-30b735b3a5fe"},"vehicle_type_id":"4","last_reported":1736690842,"current_range_meters":16400,"station_id":"ce4bhh12rcd13ifvqff0","pricing_plan_id":"cebpf4jnsgd1na2vs0mg"},{"bike_id":"b1d9940e-7d69-40ab-afd5-a3d7055a81ec","system_id":"levelo_inurba_marseille","lat":43.28415,"lon":5.37512,"is_reserved":false,"is_disabled":false,"rental_uris":{"android":"levelo://app?vid=b1d9940e-7d69-40ab-afd5-a3d7055a81ec","ios":"levelo://app?vid=b1d9940e-7d69-40ab-afd5-a3d7055a81ec"},"vehicle_type_id":"4","last_reported":1736690842,"current_range_meters":32400,"station_id":"ce4bh412rcd13ifvqds0","pricing_plan_id":"cebpf4jnsgd1na2vs0mg"},{"bike_id":"ebc55eb9-194f-4e99-8e23-b42fca6cc43d","system_id":"levelo_inurba_marseille","lat":43.27675,"lon":5.38914,"is_reserved":false,"is_disabled":true,"rental_uris":{"android":"levelo://app?vid=ebc55eb9-194f-4e99-8e23-b42fca6cc43d","ios":"levelo://app?vid=ebc55eb9-194f-4e99-8e23-b42fca6cc43d"},"vehicle_type_id":"4","last_reported":1736690842,"current_range_meters":36800,"station_id":"ce4bhi12rcd13ifvqfo0","pricing_plan_id":"cebpf4jnsgd1na2vs0mg"},{"bike_id":"599c608e-05d5-4297-84a8-b009d19cf393","system_id":"levelo_inurba_marseille","lat":43.284,"lon":5.34996,"is_reserved":false,"is_disabled":false,"rental_uris":{"android":"levelo://app?vid=599c608e-05d5-4297-84a8-b009d19cf393","ios":"levelo://app?vid=599c608e-05d5-4297-84a8-b009d19cf393"},"vehicle_type_id":"4","last_reported":1736690842,"current_range_meters":29600,"station_id":"ce4bhbh2rcd13ifvqepg","pricing_plan_id":"cebpf4jnsgd1na2vs0mg"},{"bike_id":"61d782ba-8128-4912-b047-ce80212c83da","system_id":"levelo_inurba_marseille","lat":43.23178,"lon":5.39982,"is_reserved":false,"is_disabled":false,"rental_uris":{"android":"levelo://app?vid=61d782ba-8128-4912-b047-ce80212c83da","ios":"levelo://app?vid=61d782ba-8128-4912-b047-ce80212c83da"},"vehicle_type_id":"4","last_reported":1736690842,"current_range_meters":38800,"station_id":"ce4bhn12rcd13ifvqgqg","pricing_plan_id":"cebpf4jnsgd1na2vs0mg"},{"bike_id":"81894d57-6961-4ca9-8a73-3302ecbe940c","system_id":"levelo_inurba_marseille","lat":43.24809,"lon":5.3746,"is_reserved":false,"is_disabled":false,"rental_uris":{"android":"levelo://app?vid=81894d57-6961-4ca9-8a73-3302ecbe940c","ios":"levelo://app?vid=81894d57-6961-4ca9-8a73-3302ecbe940c"},"vehicle_type_id":"4","last_reported":1736690842,"current_range_meters":14800,"station_id":"ce4bhgh2rcd13ifvqfb0","pricing_plan_id":"cebpf4jnsgd1na2vs0mg"},{"bike_id":"d679e8ad-e35b-4604-a475-064f331d9c01","system_id":"levelo_inurba_marseille","lat":43.31534,"lon":5.37998,"is_reserved":false,"is_disabled":true,"rental_uris":{"android":"levelo://app?vid=d679e8ad-e35b-4604-a475-064f331d9c01","ios":"levelo://app?vid=d679e8ad-e35b-4604-a475-064f331d9c01"},"vehicle_type_id":"4","last_reported":1736690842,"current_range_meters":38800,"station_id":"ce4bhsp2rcd13ifvqi50","pricing_plan_id":"cebpf4jnsgd1na2vs0mg"},{"bike_id":"45324790-abcf-4a91-8b9e-6b7c17eae013","system_id":"levelo_inurba_marseille","lat":43.2737,"lon":5.36242,"is_reserved":false,"is_disabled":false,"rental_uris":{"android":"levelo://app?vid=45324790-abcf-4a91-8b9e-6b7c17eae013","ios":"levelo://app?vid=45324790-abcf-4a91-8b9e-6b7c17eae013"},"vehicle_type_id":"4","last_reported":1736690842,"current_range_meters":14800,"station_id":"ce4bhbh2rcd13ifvqeo0","pricing_plan_id":"cebpf4jnsgd1na2vs0mg"},{"bike_id":"975c723a-17e0-40ad-b7a9-299782054501","system_id":"levelo_inurba_marseille","lat":43.23182,"lon":5.39985,"is_reserved":false,"is_disabled":false,"rental_uris":{"android":"levelo://app?vid=975c723a-17e0-40ad-b7a9-299782054501","ios":"levelo://app?vid=975c723a-17e0-40ad-b7a9-299782054501"},"vehicle_type_id":"4","last_reported":1736690842,"current_range_meters":6400,"station_id":"ce4bhn12rcd13ifvqgqg","pricing_plan_id":"cebpf4jnsgd1na2vs0mg"},{"bike_id":"276dee2f-07ac-4822-b59d-be2a0db8b38a","system_id":"levelo_inurba_marseille","lat":43.27206,"lon":5.39182,"is_reserved":false,"is_disabled":false,"rental_uris":{"android":"levelo://app?vid=276dee2f-07ac-4822-b59d-be2a0db8b38a","ios":"levelo://app?vid=276dee2f-07ac-4822-b59d-be2a0db8b38a"},"vehicle_type_id":"4","last_reported":1736690842,"current_range_meters":10000,"station_id":"ce4bhhp2rcd13ifvqfm0","pricing_plan_id":"cebpf4jnsgd1na2vs0mg"},{"bike_id":"64ed8bf6-6839-4de7-ba28-514995754dc2","system_id":"levelo_inurba_marseille","lat":43.25585,"lon":5.38225,"is_reserved":false,"is_disabled":false,"rental_uris":{"android":"levelo://app?vid=64ed8bf6-6839-4de7-ba28-514995754dc2","ios":"levelo://app?vid=64ed8bf6-6839-4de7-ba28-514995754dc2"},"vehicle_type_id":"4","last_reported":1736690842,"current_range_meters":1600,"station_id":"ce4bhih2rcd13ifvqfs0","pricing_plan_id":"cebpf4jnsgd1na2vs0mg"},{"bike_id":"d9edb216-ee47-40a8-8ccd-82ecd79a1993","system_id":"levelo_inurba_marseille","lat":43.29024,"lon":5.38171,"is_reserved":false,"is_disabled":true,"rental_uris":{"android":"levelo://app?vid=d9edb216-ee47-40a8-8ccd-82ecd79a1993","ios":"levelo://app?vid=d9edb216-ee47-40a8-8ccd-82ecd79a1993"},"vehicle_type_id":"4","last_reported":1736690842,"current_range_meters":38400,"station_id":"ce4bh4p2rcd13ifvqe1g","pricing_plan_id":"cebpf4jnsgd1na2vs0mg"},{"bike_id":"7190806d-6efc-4d5f-adc8-8e7c04344e9c","system_id":"levelo_inurba_marseille","lat":43.30556,"lon":5.36525,"is_reserved":false,"is_disabled":true,"rental_uris":{"android":"levelo://app?vid=7190806d-6efc-4d5f-adc8-8e7c04344e9c","ios":"levelo://app?vid=7190806d-6efc-4d5f-adc8-8e7c04344e9c"},"vehicle_type_id":"4","last_reported":1736690842,"current_range_meters":0,"station_id":"ce4bgs12rcd13ifvqcag","pricing_plan_id":"cebpf4jnsgd1na2vs0mg"},{"bike_id":"717c9b7d-e3d6-441e-a2b5-35caee37f8e8","system_id":"levelo_inurba_marseille","lat":43.28619,"lon":5.35114,"is_reserved":false,"is_disabled":false,"rental_uris":{"android":"levelo://app?vid=717c9b7d-e3d6-441e-a2b5-35caee37f8e8","ios":"levelo://app?vid=717c9b7d-e3d6-441e-a2b5-35caee37f8e8"},"vehicle_type_id":"4","last_reported":1736690842,"current_range_meters":36800,"station_id":"ce4bhch2rcd13ifvqeug","pricing_plan_id":"cebpf4jnsgd1na2vs0mg"},{"bike_id":"4e123c34-fb49-4378-a4d0-63a96b4c120e","system_id":"levelo_inurba_marseille","lat":43.29007,"lon":5.35614,"is_reserved":false,"is_disabled":false,"rental_uris":{"android":"levelo://app?vid=4e123c34-fb49-4378-a4d0-63a96b4c120e","ios":"levelo://app?vid=4e123c34-fb49-4378-a4d0-63a96b4c120e"},"vehicle_type_id":"4","last_reported":1736690842,"current_range_meters":38800,"station_id":"ce4bhb92rcd13ifvqen0","pricing_plan_id":"cebpf4jnsgd1na2vs0mg"},{"bike_id":"1ff4d6af-d168-4206-80a1-8f85ab0c0a00","system_id":"levelo_inurba_marseille","lat":43.2586,"lon":5.39931,"is_reserved":false,"is_disabled":true,"rental_uris":{"android":"levelo://app?vid=1ff4d6af-d168-4206-80a1-8f85ab0c0a00","ios":"levelo://app?vid=1ff4d6af-d168-4206-80a1-8f85ab0c0a00"},"vehicle_type_id":"4","last_reported":1736690842,"current_range_meters":12400,"station_id":"ce4bhl92rcd13ifvqghg","pricing_plan_id":"cebpf4jnsgd1na2vs0mg"},{"bike_id":"a16fd609-1fc6-4798-b9e0-3ea7526c402a","system_id":"levelo_inurba_marseille","lat":43.23564,"lon":5.37862,"is_reserved":false,"is_disabled":false,"rental_uris":{"android":"levelo://app?vid=a16fd609-1fc6-4798-b9e0-3ea7526c402a","ios":"levelo://app?vid=a16fd609-1fc6-4798-b9e0-3ea7526c402a"},"vehicle_type_id":"4","last_reported":1736690842,"current_range_meters":27600,"station_id":"","pricing_plan_id":"cebpf4jnsgd1na2vs0mg"},{"bike_id":"55e10a13-573c-4876-a3f3-1d7244726716","system_id":"levelo_inurba_marseille","lat":43.24817,"lon":5.37461,"is_reserved":false,"is_disabled":false,"rental_uris":{"android":"levelo://app?vid=55e10a13-573c-4876-a3f3-1d7244726716","ios":"levelo://app?vid=55e10a13-573c-4876-a3f3-1d7244726716"},"vehicle_type_id":"4","last_reported":1736690842,"current_range_meters":39200,"station_id":"ce4bhgh2rcd13ifvqfb0","pricing_plan_id":"cebpf4jnsgd1na2vs0mg"},{"bike_id":"86abeea7-c434-4e10-8df8-12c24097eeb0","system_id":"levelo_inurba_marseille","lat":43.30407,"lon":5.39791,"is_reserved":false,"is_disabled":true,"rental_uris":{"android":"levelo://app?vid=86abeea7-c434-4e10-8df8-12c24097eeb0","ios":"levelo://app?vid=86abeea7-c434-4e10-8df8-12c24097eeb0"},"vehicle_type_id":"4","last_reported":1736690842,"current_range_meters":20800,"station_id":"ce4bh092rcd13ifvqd20","pricing_plan_id":"cebpf4jnsgd1na2vs0mg"},{"bike_id":"9e4b700b-0bd2-4742-b6bd-c75a8782c39a","system_id":"levelo_inurba_marseille","lat":43.26924,"lon":5.38942,"is_reserved":false,"is_disabled":false,"rental_uris":{"android":"levelo://app?vid=9e4b700b-0bd2-4742-b6bd-c75a8782c39a","ios":"levelo://app?vid=9e4b700b-0bd2-4742-b6bd-c75a8782c39a"},"vehicle_type_id":"4","last_reported":1736690842,"current_range_meters":16000,"station_id":"ce4bhhh2rcd13ifvqfl0","pricing_plan_id":"cebpf4jnsgd1na2vs0mg"},{"bike_id":"311416b5-73b1-46de-9478-39cfbd47dd40","system_id":"levelo_inurba_marseille","lat":43.28829,"lon":5.35861,"is_reserved":false,"is_disabled":false,"rental_uris":{"android":"levelo://app?vid=311416b5-73b1-46de-9478-39cfbd47dd40","ios":"levelo://app?vid=311416b5-73b1-46de-9478-39cfbd47dd40"},"vehicle_type_id":"4","last_reported":1736690842,"current_range_meters":38800,"station_id":"ce4bhb12rcd13ifvqem0","pricing_plan_id":"cebpf4jnsgd1na2vs0mg"},{"bike_id":"43bc34ed-a41e-4475-88af-9ba4016b7a24","system_id":"levelo_inurba_marseille","lat":43.30958,"lon":5.39046,"is_reserved":false,"is_disabled":false,"rental_uris":{"android":"levelo://app?vid=43bc34ed-a41e-4475-88af-9ba4016b7a24","ios":"levelo://app?vid=43bc34ed-a41e-4475-88af-9ba4016b7a24"},"vehicle_type_id":"4","last_reported":1736690842,"current_range_meters":27600,"station_id":"ce4bgup2rcd13ifvqco0","pricing_plan_id":"cebpf4jnsgd1na2vs0mg"},{"bike_id":"3211fae0-33b8-4e87-b044-5eb59338f4b9","system_id":"levelo_inurba_marseille","lat":43.2842,"lon":5.34981,"is_reserved":false,"is_disabled":true,"rental_uris":{"android":"levelo://app?vid=3211fae0-33b8-4e87-b044-5eb59338f4b9","ios":"levelo://app?vid=3211fae0-33b8-4e87-b044-5eb59338f4b9"},"vehicle_type_id":"4","last_reported":1736690842,"current_range_meters":0,"station_id":"ce4bhbh2rcd13ifvqepg","pricing_plan_id":"cebpf4jnsgd1na2vs0mg"},{"bike_id":"c7a817d3-63e5-4652-8814-98e74bb31058","system_id":"levelo_inurba_marseille","lat":43.23969,"lon":5.36624,"is_reserved":false,"is_disabled":false,"rental_uris":{"android":"levelo://app?vid=c7a817d3-63e5-4652-8814-98e74bb31058","ios":"levelo://app?vid=c7a817d3-63e5-4652-8814-98e74bb31058"},"vehicle_type_id":"4","last_reported":1736690842,"current_range_meters":38800,"station_id":"ce4bhi12rcd13ifvqfp0","pricing_plan_id":"cebpf4jnsgd1na2vs0mg"},{"bike_id":"10f7d31a-ef8d-4e8a-acbf-8aa9a8c72143","system_id":"levelo_inurba_marseille","lat":43.24392,"lon":5.37065,"is_reserved":false,"is_disabled":false,"rental_uris":{"android":"levelo://app?vid=10f7d31a-ef8d-4e8a-acbf-8aa9a8c72143","ios":"levelo://app?vid=10f7d31a-ef8d-4e8a-acbf-8aa9a8c72143"},"vehicle_type_id":"4","last_reported":1736690842,"current_range_meters":12000,"station_id":"ce4bhhh2rcd13ifvqfk0","pricing_plan_id":"cebpf4jnsgd1na2vs0mg"},{"bike_id":"1fedc598-f70f-4c41-a2c3-d78b434b4e36","system_id":"levelo_inurba_marseille","lat":43.26179,"lon":5.37476,"is_reserved":false,"is_disabled":false,"rental_uris":{"android":"levelo://app?vid=1fedc598-f70f-4c41-a2c3-d78b434b4e36","ios":"levelo://app?vid=1fedc598-f70f-4c41-a2c3-d78b434b4e36"},"vehicle_type_id":"4","last_reported":1736690842,"current_range_meters":20000,"station_id":"ce4bhgp2rcd13ifvqfc0","pricing_plan_id":"cebpf4jnsgd1na2vs0mg"},{"bike_id":"488e5d3f-7080-456a-8875-7f1a5dce4fa1","system_id":"levelo_inurba_marseille","lat":43.30137,"lon":5.3878,"is_reserved":false,"is_disabled":true,"rental_uris":{"android":"levelo://app?vid=488e5d3f-7080-456a-8875-7f1a5dce4fa1","ios":"levelo://app?vid=488e5d3f-7080-456a-8875-7f1a5dce4fa1"},"vehicle_type_id":"4","last_reported":1736690842,"current_range_meters":32400,"station_id":"ce4bghh2rcd13ifvqb60","pricing_plan_id":"cebpf4jnsgd1na2vs0mg"},{"bike_id":"7dddf046-49bb-48ea-8919-198c071f50ec","system_id":"levelo_inurba_marseille","lat":43.29946,"lon":5.3654,"is_reserved":false,"is_disabled":false,"rental_uris":{"android":"levelo://app?vid=7dddf046-49bb-48ea-8919-198c071f50ec","ios":"levelo://app?vid=7dddf046-49bb-48ea-8919-198c071f50ec"},"vehicle_type_id":"4","last_reported":1736690842,"current_range_meters":8800,"station_id":"ce4bgm92rcd13ifvqbr0","pricing_plan_id":"cebpf4jnsgd1na2vs0mg"},{"bike_id":"295bd26f-64bb-4f9a-b1ce-9227768f18ec","system_id":"levelo_inurba_marseille","lat":43.29151,"lon":5.37166,"is_reserved":false,"is_disabled":true,"rental_uris":{"android":"levelo://app?vid=295bd26f-64bb-4f9a-b1ce-9227768f18ec","ios":"levelo://app?vid=295bd26f-64bb-4f9a-b1ce-9227768f18ec"},"vehicle_type_id":"4","last_reported":1736690842,"current_range_meters":33200,"station_id":"ce4bha92rcd13ifvqeh0","pricing_plan_id":"cebpf4jnsgd1na2vs0mg"},{"bike_id":"da9fd4d4-b5c9-4d92-ad54-1700633fae40","system_id":"levelo_inurba_marseille","lat":43.28154,"lon":5.42651,"is_reserved":false,"is_disabled":false,"rental_uris":{"android":"levelo://app?vid=da9fd4d4-b5c9-4d92-ad54-1700633fae40","ios":"levelo://app?vid=da9fd4d4-b5c9-4d92-ad54-1700633fae40"},"vehicle_type_id":"4","last_reported":1736690842,"current_range_meters":20000,"station_id":"ce4bhnh2rcd13ifvqgug","pricing_plan_id":"cebpf4jnsgd1na2vs0mg"},{"bike_id":"1bff2bac-4883-4019-adbe-2dc598af8aad","system_id":"levelo_inurba_marseille","lat":43.27425,"lon":5.39403,"is_reserved":false,"is_disabled":true,"rental_uris":{"android":"levelo://app?vid=1bff2bac-4883-4019-adbe-2dc598af8aad","ios":"levelo://app?vid=1bff2bac-4883-4019-adbe-2dc598af8aad"},"vehicle_type_id":"4","last_reported":1736690842,"current_range_meters":25600,"station_id":"ce4bhdp2rcd13ifvqf20","pricing_plan_id":"cebpf4jnsgd1na2vs0mg"},{"bike_id":"ae29e0de-7b5a-45d6-ace3-313c5e88010a","system_id":"levelo_inurba_marseille","lat":43.27995,"lon":5.41665,"is_reserved":false,"is_disabled":true,"rental_uris":{"android":"levelo://app?vid=ae29e0de-7b5a-45d6-ace3-313c5e88010a","ios":"levelo://app?vid=ae29e0de-7b5a-45d6-ace3-313c5e88010a"},"vehicle_type_id":"4","last_reported":1736690842,"current_range_meters":0,"station_id":"ce4bho12rcd13ifvqh1g","pricing_plan_id":"cebpf4jnsgd1na2vs0mg"},{"bike_id":"0bc3f5f5-60c2-41a0-a6ff-a38fba6be8aa","system_id":"levelo_inurba_marseille","lat":43.2549,"lon":5.3765,"is_reserved":false,"is_disabled":true,"rental_uris":{"android":"levelo://app?vid=0bc3f5f5-60c2-41a0-a6ff-a38fba6be8aa","ios":"levelo://app?vid=0bc3f5f5-60c2-41a0-a6ff-a38fba6be8aa"},"vehicle_type_id":"4","last_reported":1736690842,"current_range_meters":30000,"station_id":"ce4bhh12rcd13ifvqff0","pricing_plan_id":"cebpf4jnsgd1na2vs0mg"},{"bike_id":"572f0254-11cf-4ef2-b3f9-66737ed8298a","system_id":"levelo_inurba_marseille","lat":43.28427,"lon":5.34981,"is_reserved":false,"is_disabled":true,"rental_uris":{"android":"levelo://app?vid=572f0254-11cf-4ef2-b3f9-66737ed8298a","ios":"levelo://app?vid=572f0254-11cf-4ef2-b3f9-66737ed8298a"},"vehicle_type_id":"4","last_reported":1736690842,"current_range_meters":0,"station_id":"ce4bhbh2rcd13ifvqepg","pricing_plan_id":"cebpf4jnsgd1na2vs0mg"},{"bike_id":"62415d9d-489c-4e8c-b8c9-3fa376066a1b","system_id":"levelo_inurba_marseille","lat":43.29001,"lon":5.35611,"is_reserved":false,"is_disabled":false,"rental_uris":{"android":"levelo://app?vid=62415d9d-489c-4e8c-b8c9-3fa376066a1b","ios":"levelo://app?vid=62415d9d-489c-4e8c-b8c9-3fa376066a1b"},"vehicle_type_id":"4","last_reported":1736690842,"current_range_meters":38800,"station_id":"ce4bhb92rcd13ifvqen0","pricing_plan_id":"cebpf4jnsgd1na2vs0mg"},{"bike_id":"bd282491-ac7e-4fa8-b03f-68721e0da76a","system_id":"levelo_inurba_marseille","lat":43.25858,"lon":5.39907,"is_reserved":false,"is_disabled":false,"rental_uris":{"android":"levelo://app?vid=bd282491-ac7e-4fa8-b03f-68721e0da76a","ios":"levelo://app?vid=bd282491-ac7e-4fa8-b03f-68721e0da76a"},"vehicle_type_id":"4","last_reported":1736690842,"current_range_meters":8000,"station_id":"ce4bhl92rcd13ifvqghg","pricing_plan_id":"cebpf4jnsgd1na2vs0mg"},{"bike_id":"6845255b-3748-47a8-80ff-32e6d62dd708","system_id":"levelo_inurba_marseille","lat":43.23182,"lon":5.39998,"is_reserved":false,"is_disabled":false,"rental_uris":{"android":"levelo://app?vid=6845255b-3748-47a8-80ff-32e6d62dd708","ios":"levelo://app?vid=6845255b-3748-47a8-80ff-32e6d62dd708"},"vehicle_type_id":"4","last_reported":1736690842,"current_range_meters":38400,"station_id":"ce4bhn12rcd13ifvqgqg","pricing_plan_id":"cebpf4jnsgd1na2vs0mg"},{"bike_id":"136c61aa-a244-4f82-9113-620a348666ce","system_id":"levelo_inurba_marseille","lat":43.27577,"lon":5.38432,"is_reserved":false,"is_disabled":true,"rental_uris":{"android":"levelo://app?vid=136c61aa-a244-4f82-9113-620a348666ce","ios":"levelo://app?vid=136c61aa-a244-4f82-9113-620a348666ce"},"vehicle_type_id":"4","last_reported":1736690842,"current_range_meters":28800,"station_id":"ce4bhh92rcd13ifvqfi0","pricing_plan_id":"cebpf4jnsgd1na2vs0mg"},{"bike_id":"df8d44e7-98ed-4ac2-abe3-56f51d98aba5","system_id":"levelo_inurba_marseille","lat":43.29934,"lon":5.36532,"is_reserved":false,"is_disabled":false,"rental_uris":{"android":"levelo://app?vid=df8d44e7-98ed-4ac2-abe3-56f51d98aba5","ios":"levelo://app?vid=df8d44e7-98ed-4ac2-abe3-56f51d98aba5"},"vehicle_type_id":"4","last_reported":1736690842,"current_range_meters":33600,"station_id":"ce4bgm92rcd13ifvqbr0","pricing_plan_id":"cebpf4jnsgd1na2vs0mg"},{"bike_id":"42ecc464-da44-487e-b0da-d25d9d2043d6","system_id":"levelo_inurba_marseille","lat":43.25732,"lon":5.4111,"is_reserved":false,"is_disabled":false,"rental_uris":{"android":"levelo://app?vid=42ecc464-da44-487e-b0da-d25d9d2043d6","ios":"levelo://app?vid=42ecc464-da44-487e-b0da-d25d9d2043d6"},"vehicle_type_id":"4","last_reported":1736690842,"current_range_meters":38400,"station_id":"ce4bhkp2rcd13ifvqgd0","pricing_plan_id":"cebpf4jnsgd1na2vs0mg"},{"bike_id":"41e61eda-8e18-417d-ba17-05b57138ef96","system_id":"levelo_inurba_marseille","lat":43.30949,"lon":5.39041,"is_reserved":false,"is_disabled":false,"rental_uris":{"android":"levelo://app?vid=41e61eda-8e18-417d-ba17-05b57138ef96","ios":"levelo://app?vid=41e61eda-8e18-417d-ba17-05b57138ef96"},"vehicle_type_id":"4","last_reported":1736690842,"current_range_meters":29600,"station_id":"ce4bgup2rcd13ifvqco0","pricing_plan_id":"cebpf4jnsgd1na2vs0mg"},{"bike_id":"b7e8dd08-60c6-4ec8-95ea-61794c9f9e48","system_id":"levelo_inurba_marseille","lat":43.25508,"lon":5.37628,"is_reserved":false,"is_disabled":false,"rental_uris":{"android":"levelo://app?vid=b7e8dd08-60c6-4ec8-95ea-61794c9f9e48","ios":"levelo://app?vid=b7e8dd08-60c6-4ec8-95ea-61794c9f9e48"},"vehicle_type_id":"4","last_reported":1736690842,"current_range_meters":39200,"station_id":"ce4bhh12rcd13ifvqff0","pricing_plan_id":"cebpf4jnsgd1na2vs0mg"},{"bike_id":"65e8b99d-cb00-44f8-a57f-7740743f51e0","system_id":"levelo_inurba_marseille","lat":43.25009,"lon":5.38916,"is_reserved":false,"is_disabled":true,"rental_uris":{"android":"levelo://app?vid=65e8b99d-cb00-44f8-a57f-7740743f51e0","ios":"levelo://app?vid=65e8b99d-cb00-44f8-a57f-7740743f51e0"},"vehicle_type_id":"4","last_reported":1736690842,"current_range_meters":28000,"station_id":"ce4bhgp2rcd13ifvqfd0","pricing_plan_id":"cebpf4jnsgd1na2vs0mg"},{"bike_id":"e7bed24c-76b8-4bfe-8ea5-51efa81df6c2","system_id":"levelo_inurba_marseille","lat":43.27502,"lon":5.42447,"is_reserved":false,"is_disabled":true,"rental_uris":{"android":"levelo://app?vid=e7bed24c-76b8-4bfe-8ea5-51efa81df6c2","ios":"levelo://app?vid=e7bed24c-76b8-4bfe-8ea5-51efa81df6c2"},"vehicle_type_id":"4","last_reported":1736690842,"current_range_meters":0,"station_id":"ce4bhn92rcd13ifvqgrg","pricing_plan_id":"cebpf4jnsgd1na2vs0mg"},{"bike_id":"88ea733e-9923-4730-81cf-fcad73d6b080","system_id":"levelo_inurba_marseille","lat":43.30783,"lon":5.37644,"is_reserved":false,"is_disabled":false,"rental_uris":{"android":"levelo://app?vid=88ea733e-9923-4730-81cf-fcad73d6b080","ios":"levelo://app?vid=88ea733e-9923-4730-81cf-fcad73d6b080"},"vehicle_type_id":"4","last_reported":1736690842,"current_range_meters":36800,"station_id":"ce4bgv92rcd13ifvqcq0","pricing_plan_id":"cebpf4jnsgd1na2vs0mg"},{"bike_id":"73dbc47e-0fb6-4b0d-8f73-46b1e7929e10","system_id":"levelo_inurba_marseille","lat":43.2842,"lon":5.34999,"is_reserved":false,"is_disabled":false,"rental_uris":{"android":"levelo://app?vid=73dbc47e-0fb6-4b0d-8f73-46b1e7929e10","ios":"levelo://app?vid=73dbc47e-0fb6-4b0d-8f73-46b1e7929e10"},"vehicle_type_id":"4","last_reported":1736690842,"current_range_meters":22000,"station_id":"ce4bhbh2rcd13ifvqepg","pricing_plan_id":"cebpf4jnsgd1na2vs0mg"},{"bike_id":"cc464ccb-457a-4c65-bb12-9e9cbd11ca96","system_id":"levelo_inurba_marseille","lat":43.24994,"lon":5.38935,"is_reserved":false,"is_disabled":false,"rental_uris":{"android":"levelo://app?vid=cc464ccb-457a-4c65-bb12-9e9cbd11ca96","ios":"levelo://app?vid=cc464ccb-457a-4c65-bb12-9e9cbd11ca96"},"vehicle_type_id":"4","last_reported":1736690842,"current_range_meters":32800,"station_id":"ce4bhgp2rcd13ifvqfd0","pricing_plan_id":"cebpf4jnsgd1na2vs0mg"},{"bike_id":"0e61ec43-c876-45d3-a431-7ad6cb87fc6c","system_id":"levelo_inurba_marseille","lat":43.25717,"lon":5.41115,"is_reserved":false,"is_disabled":false,"rental_uris":{"android":"levelo://app?vid=0e61ec43-c876-45d3-a431-7ad6cb87fc6c","ios":"levelo://app?vid=0e61ec43-c876-45d3-a431-7ad6cb87fc6c"},"vehicle_type_id":"4","last_reported":1736690842,"current_range_meters":38800,"station_id":"ce4bhkp2rcd13ifvqgd0","pricing_plan_id":"cebpf4jnsgd1na2vs0mg"},{"bike_id":"b704bf42-2bc7-4506-b669-8ca7a3330fef","system_id":"levelo_inurba_marseille","lat":43.28176,"lon":5.42722,"is_reserved":false,"is_disabled":true,"rental_uris":{"android":"levelo://app?vid=b704bf42-2bc7-4506-b669-8ca7a3330fef","ios":"levelo://app?vid=b704bf42-2bc7-4506-b669-8ca7a3330fef"},"vehicle_type_id":"4","last_reported":1736690842,"current_range_meters":28000,"station_id":"","pricing_plan_id":"cebpf4jnsgd1na2vs0mg"},{"bike_id":"47acb79a-0f81-4da9-859c-6e37370247aa","system_id":"levelo_inurba_marseille","lat":43.2958,"lon":5.36745,"is_reserved":false,"is_disabled":false,"rental_uris":{"android":"levelo://app?vid=47acb79a-0f81-4da9-859c-6e37370247aa","ios":"levelo://app?vid=47acb79a-0f81-4da9-859c-6e37370247aa"},"vehicle_type_id":"4","last_reported":1736690842,"current_range_meters":38000,"station_id":"ce4bgph2rcd13ifvqc2g","pricing_plan_id":"cebpf4jnsgd1na2vs0mg"},{"bike_id":"52cb6240-5285-4796-91cf-940d48fc7b61","system_id":"levelo_inurba_marseille","lat":43.24558,"lon":5.39523,"is_reserved":false,"is_disabled":false,"rental_uris":{"android":"levelo://app?vid=52cb6240-5285-4796-91cf-940d48fc7b61","ios":"levelo://app?vid=52cb6240-5285-4796-91cf-940d48fc7b61"},"vehicle_type_id":"4","last_reported":1736690842,"current_range_meters":26800,"station_id":"ce4bhlp2rcd13ifvqgjg","pricing_plan_id":"cebpf4jnsgd1na2vs0mg"},{"bike_id":"b599845f-207b-48ae-bfa3-e63f031f4dd8","system_id":"levelo_inurba_marseille","lat":43.32546,"lon":5.41458,"is_reserved":false,"is_disabled":false,"rental_uris":{"android":"levelo://app?vid=b599845f-207b-48ae-bfa3-e63f031f4dd8","ios":"levelo://app?vid=b599845f-207b-48ae-bfa3-e63f031f4dd8"},"vehicle_type_id":"4","last_reported":1736690842,"current_range_meters":25600,"station_id":"ce4bhq12rcd13ifvqhhg","pricing_plan_id":"cebpf4jnsgd1na2vs0mg"},{"bike_id":"99992ce0-e13f-4dee-95af-06d78d23df51","system_id":"levelo_inurba_marseille","lat":43.25945,"lon":5.40911,"is_reserved":false,"is_disabled":false,"rental_uris":{"android":"levelo://app?vid=99992ce0-e13f-4dee-95af-06d78d23df51","ios":"levelo://app?vid=99992ce0-e13f-4dee-95af-06d78d23df51"},"vehicle_type_id":"4","last_reported":1736690842,"current_range_meters":18000,"station_id":"ce4bhm92rcd13ifvqglg","pricing_plan_id":"cebpf4jnsgd1na2vs0mg"},{"bike_id":"f62a7ed4-7c80-4ed8-9568-a4dea62069d1","system_id":"levelo_inurba_marseille","lat":43.28079,"lon":5.39665,"is_reserved":false,"is_disabled":true,"rental_uris":{"android":"levelo://app?vid=f62a7ed4-7c80-4ed8-9568-a4dea62069d1","ios":"levelo://app?vid=f62a7ed4-7c80-4ed8-9568-a4dea62069d1"},"vehicle_type_id":"4","last_reported":1736690842,"current_range_meters":32800,"station_id":"ce4bho12rcd13ifvqh2g","pricing_plan_id":"cebpf4jnsgd1na2vs0mg"},{"bike_id":"e2744ec8-2f1a-4025-9ec0-6a07f5db3fc4","system_id":"levelo_inurba_marseille","lat":43.25509,"lon":5.37647,"is_reserved":false,"is_disabled":false,"rental_uris":{"android":"levelo://app?vid=e2744ec8-2f1a-4025-9ec0-6a07f5db3fc4","ios":"levelo://app?vid=e2744ec8-2f1a-4025-9ec0-6a07f5db3fc4"},"vehicle_type_id":"4","last_reported":1736690842,"current_range_meters":39200,"station_id":"ce4bhh12rcd13ifvqff0","pricing_plan_id":"cebpf4jnsgd1na2vs0mg"},{"bike_id":"326f525b-d004-4932-8bbe-cac5fddeff14","system_id":"levelo_inurba_marseille","lat":43.29059,"lon":5.37174,"is_reserved":false,"is_disabled":false,"rental_uris":{"android":"levelo://app?vid=326f525b-d004-4932-8bbe-cac5fddeff14","ios":"levelo://app?vid=326f525b-d004-4932-8bbe-cac5fddeff14"},"vehicle_type_id":"4","last_reported":1736690842,"current_range_meters":38400,"station_id":"ce4bh5p2rcd13ifvqe4g","pricing_plan_id":"cebpf4jnsgd1na2vs0mg"},{"bike_id":"83002655-3f4d-4960-a72b-86780f5ebf8c","system_id":"levelo_inurba_marseille","lat":43.27423,"lon":5.39418,"is_reserved":false,"is_disabled":false,"rental_uris":{"android":"levelo://app?vid=83002655-3f4d-4960-a72b-86780f5ebf8c","ios":"levelo://app?vid=83002655-3f4d-4960-a72b-86780f5ebf8c"},"vehicle_type_id":"4","last_reported":1736690842,"current_range_meters":38000,"station_id":"ce4bhdp2rcd13ifvqf20","pricing_plan_id":"cebpf4jnsgd1na2vs0mg"},{"bike_id":"b66352f5-3d9c-44c6-87f0-f24e0cb0aab8","system_id":"levelo_inurba_marseille","lat":43.28614,"lon":5.35108,"is_reserved":false,"is_disabled":false,"rental_uris":{"android":"levelo://app?vid=b66352f5-3d9c-44c6-87f0-f24e0cb0aab8","ios":"levelo://app?vid=b66352f5-3d9c-44c6-87f0-f24e0cb0aab8"},"vehicle_type_id":"4","last_reported":1736690842,"current_range_meters":25600,"station_id":"ce4bhch2rcd13ifvqeug","pricing_plan_id":"cebpf4jnsgd1na2vs0mg"},{"bike_id":"79a6c167-29fc-4727-9530-0f2c5abf20a9","system_id":"levelo_inurba_marseille","lat":43.27986,"lon":5.40025,"is_reserved":false,"is_disabled":false,"rental_uris":{"android":"levelo://app?vid=79a6c167-29fc-4727-9530-0f2c5abf20a9","ios":"levelo://app?vid=79a6c167-29fc-4727-9530-0f2c5abf20a9"},"vehicle_type_id":"4","last_reported":1736690842,"current_range_meters":39200,"station_id":"ce4bho92rcd13ifvqh4g","pricing_plan_id":"cebpf4jnsgd1na2vs0mg"},{"bike_id":"a600f163-9520-4043-bbca-7e042ce60e39","system_id":"levelo_inurba_marseille","lat":43.28621,"lon":5.35108,"is_reserved":false,"is_disabled":false,"rental_uris":{"android":"levelo://app?vid=a600f163-9520-4043-bbca-7e042ce60e39","ios":"levelo://app?vid=a600f163-9520-4043-bbca-7e042ce60e39"},"vehicle_type_id":"4","last_reported":1736690842,"current_range_meters":27600,"station_id":"ce4bhch2rcd13ifvqeug","pricing_plan_id":"cebpf4jnsgd1na2vs0mg"},{"bike_id":"c0554c14-b732-413c-8451-54f8ec41ea32","system_id":"levelo_inurba_marseille","lat":43.27223,"lon":5.40959,"is_reserved":false,"is_disabled":false,"rental_uris":{"android":"levelo://app?vid=c0554c14-b732-413c-8451-54f8ec41ea32","ios":"levelo://app?vid=c0554c14-b732-413c-8451-54f8ec41ea32"},"vehicle_type_id":"4","last_reported":1736690842,"current_range_meters":38800,"station_id":"ce4bhl12rcd13ifvqgf0","pricing_plan_id":"cebpf4jnsgd1na2vs0mg"},{"bike_id":"1990bb14-66ae-4b28-bee5-b6a8a1fef50d","system_id":"levelo_inurba_marseille","lat":43.26055,"lon":5.39394,"is_reserved":false,"is_disabled":false,"rental_uris":{"android":"levelo://app?vid=1990bb14-66ae-4b28-bee5-b6a8a1fef50d","ios":"levelo://app?vid=1990bb14-66ae-4b28-bee5-b6a8a1fef50d"},"vehicle_type_id":"4","last_reported":1736690842,"current_range_meters":28800,"station_id":"ce4bhh92rcd13ifvqfj0","pricing_plan_id":"cebpf4jnsgd1na2vs0mg"},{"bike_id":"31240ca4-9f64-4406-9c52-14b4354e548c","system_id":"levelo_inurba_marseille","lat":43.28608,"lon":5.35111,"is_reserved":false,"is_disabled":false,"rental_uris":{"android":"levelo://app?vid=31240ca4-9f64-4406-9c52-14b4354e548c","ios":"levelo://app?vid=31240ca4-9f64-4406-9c52-14b4354e548c"},"vehicle_type_id":"4","last_reported":1736690842,"current_range_meters":36800,"station_id":"ce4bhch2rcd13ifvqeug","pricing_plan_id":"cebpf4jnsgd1na2vs0mg"},{"bike_id":"d9b042e2-bbf3-47bf-851f-426caf4d0e01","system_id":"levelo_inurba_marseille","lat":43.248113,"lon":5.374597,"is_reserved":false,"is_disabled":false,"rental_uris":{"android":"levelo://app?vid=d9b042e2-bbf3-47bf-851f-426caf4d0e01","ios":"levelo://app?vid=d9b042e2-bbf3-47bf-851f-426caf4d0e01"},"vehicle_type_id":"4","last_reported":1736690842,"current_range_meters":37600,"station_id":"ce4bhgh2rcd13ifvqfb0","pricing_plan_id":"cebpf4jnsgd1na2vs0mg"},{"bike_id":"712fb1ac-a49b-4a1d-bf83-b2682dda137c","system_id":"levelo_inurba_marseille","lat":43.3046,"lon":5.36978,"is_reserved":false,"is_disabled":true,"rental_uris":{"android":"levelo://app?vid=712fb1ac-a49b-4a1d-bf83-b2682dda137c","ios":"levelo://app?vid=712fb1ac-a49b-4a1d-bf83-b2682dda137c"},"vehicle_type_id":"4","last_reported":1736690842,"current_range_meters":38000,"station_id":"","pricing_plan_id":"cebpf4jnsgd1na2vs0mg"},{"bike_id":"1e2223a2-c032-49e7-8dbf-982df86a0520","system_id":"levelo_inurba_marseille","lat":43.22916,"lon":5.35368,"is_reserved":false,"is_disabled":false,"rental_uris":{"android":"levelo://app?vid=1e2223a2-c032-49e7-8dbf-982df86a0520","ios":"levelo://app?vid=1e2223a2-c032-49e7-8dbf-982df86a0520"},"vehicle_type_id":"4","last_reported":1736690842,"current_range_meters":24800,"station_id":"cpo3532slgdg3j2ikp40","pricing_plan_id":"cebpf4jnsgd1na2vs0mg"},{"bike_id":"6771989f-277f-4450-9e44-1cdb8ae49ed9","system_id":"levelo_inurba_marseille","lat":43.28847,"lon":5.35853,"is_reserved":false,"is_disabled":false,"rental_uris":{"android":"levelo://app?vid=6771989f-277f-4450-9e44-1cdb8ae49ed9","ios":"levelo://app?vid=6771989f-277f-4450-9e44-1cdb8ae49ed9"},"vehicle_type_id":"4","last_reported":1736690842,"current_range_meters":34800,"station_id":"ce4bhb12rcd13ifvqem0","pricing_plan_id":"cebpf4jnsgd1na2vs0mg"},{"bike_id":"5f2cf356-122a-4d24-85ba-e38bc4612223","system_id":"levelo_inurba_marseille","lat":43.2558,"lon":5.3824,"is_reserved":false,"is_disabled":true,"rental_uris":{"android":"levelo://app?vid=5f2cf356-122a-4d24-85ba-e38bc4612223","ios":"levelo://app?vid=5f2cf356-122a-4d24-85ba-e38bc4612223"},"vehicle_type_id":"4","last_reported":1736690842,"current_range_meters":28800,"station_id":"ce4bhih2rcd13ifvqfs0","pricing_plan_id":"cebpf4jnsgd1na2vs0mg"},{"bike_id":"49c31dee-4966-44dd-a7c4-6161c98f5965","system_id":"levelo_inurba_marseille","lat":43.231893,"lon":5.355657,"is_reserved":false,"is_disabled":false,"rental_uris":{"android":"levelo://app?vid=49c31dee-4966-44dd-a7c4-6161c98f5965","ios":"levelo://app?vid=49c31dee-4966-44dd-a7c4-6161c98f5965"},"vehicle_type_id":"4","last_reported":1736690842,"current_range_meters":4000,"station_id":"ce4bhu92rcd13ifvqi70","pricing_plan_id":"cebpf4jnsgd1na2vs0mg"},{"bike_id":"ac5ad7d8-ccea-458d-83e0-31976cff9c0d","system_id":"levelo_inurba_marseille","lat":43.2572,"lon":5.41116,"is_reserved":false,"is_disabled":false,"rental_uris":{"android":"levelo://app?vid=ac5ad7d8-ccea-458d-83e0-31976cff9c0d","ios":"levelo://app?vid=ac5ad7d8-ccea-458d-83e0-31976cff9c0d"},"vehicle_type_id":"4","last_reported":1736690842,"current_range_meters":38800,"station_id":"ce4bhkp2rcd13ifvqgd0","pricing_plan_id":"cebpf4jnsgd1na2vs0mg"},{"bike_id":"1e313a6e-293a-4f01-8ccd-c37b047b8991","system_id":"levelo_inurba_marseille","lat":43.23959,"lon":5.36628,"is_reserved":false,"is_disabled":false,"rental_uris":{"android":"levelo://app?vid=1e313a6e-293a-4f01-8ccd-c37b047b8991","ios":"levelo://app?vid=1e313a6e-293a-4f01-8ccd-c37b047b8991"},"vehicle_type_id":"4","last_reported":1736690842,"current_range_meters":24000,"station_id":"ce4bhi12rcd13ifvqfp0","pricing_plan_id":"cebpf4jnsgd1na2vs0mg"},{"bike_id":"39c3c4a5-d4ec-4fce-95db-3823db8f6b82","system_id":"levelo_inurba_marseille","lat":43.25717,"lon":5.41117,"is_reserved":false,"is_disabled":false,"rental_uris":{"android":"levelo://app?vid=39c3c4a5-d4ec-4fce-95db-3823db8f6b82","ios":"levelo://app?vid=39c3c4a5-d4ec-4fce-95db-3823db8f6b82"},"vehicle_type_id":"4","last_reported":1736690842,"current_range_meters":31200,"station_id":"ce4bhkp2rcd13ifvqgd0","pricing_plan_id":"cebpf4jnsgd1na2vs0mg"},{"bike_id":"7343ce72-68f4-483e-beb4-fa08ab8b104a","system_id":"levelo_inurba_marseille","lat":43.30787,"lon":5.37653,"is_reserved":false,"is_disabled":true,"rental_uris":{"android":"levelo://app?vid=7343ce72-68f4-483e-beb4-fa08ab8b104a","ios":"levelo://app?vid=7343ce72-68f4-483e-beb4-fa08ab8b104a"},"vehicle_type_id":"4","last_reported":1736690842,"current_range_meters":0,"station_id":"ce4bgv92rcd13ifvqcq0","pricing_plan_id":"cebpf4jnsgd1na2vs0mg"},{"bike_id":"f3242b66-117d-4557-8198-68b40f6fc725","system_id":"levelo_inurba_marseille","lat":43.30945,"lon":5.39028,"is_reserved":false,"is_disabled":false,"rental_uris":{"android":"levelo://app?vid=f3242b66-117d-4557-8198-68b40f6fc725","ios":"levelo://app?vid=f3242b66-117d-4557-8198-68b40f6fc725"},"vehicle_type_id":"4","last_reported":1736690842,"current_range_meters":16000,"station_id":"ce4bgup2rcd13ifvqco0","pricing_plan_id":"cebpf4jnsgd1na2vs0mg"},{"bike_id":"8242826e-ab20-43ea-95c1-e76b426a119e","system_id":"levelo_inurba_marseille","lat":43.33754,"lon":5.37428,"is_reserved":false,"is_disabled":false,"rental_uris":{"android":"levelo://app?vid=8242826e-ab20-43ea-95c1-e76b426a119e","ios":"levelo://app?vid=8242826e-ab20-43ea-95c1-e76b426a119e"},"vehicle_type_id":"4","last_reported":1736690842,"current_range_meters":14000,"station_id":"","pricing_plan_id":"cebpf4jnsgd1na2vs0mg"},{"bike_id":"57f5a8a9-f2e5-4673-966d-ca04b8d8c8e6","system_id":"levelo_inurba_marseille","lat":43.31103,"lon":5.37774,"is_reserved":false,"is_disabled":true,"rental_uris":{"android":"levelo://app?vid=57f5a8a9-f2e5-4673-966d-ca04b8d8c8e6","ios":"levelo://app?vid=57f5a8a9-f2e5-4673-966d-ca04b8d8c8e6"},"vehicle_type_id":"4","last_reported":1736690842,"current_range_meters":1200,"station_id":"ce4bgt92rcd13ifvqcg0","pricing_plan_id":"cebpf4jnsgd1na2vs0mg"},{"bike_id":"41922604-c7b8-4e93-9da5-3903771d7233","system_id":"levelo_inurba_marseille","lat":43.24815,"lon":5.37462,"is_reserved":false,"is_disabled":false,"rental_uris":{"android":"levelo://app?vid=41922604-c7b8-4e93-9da5-3903771d7233","ios":"levelo://app?vid=41922604-c7b8-4e93-9da5-3903771d7233"},"vehicle_type_id":"4","last_reported":1736690842,"current_range_meters":30400,"station_id":"ce4bhgh2rcd13ifvqfb0","pricing_plan_id":"cebpf4jnsgd1na2vs0mg"},{"bike_id":"c327d484-c524-4142-9386-6268c4e1d223","system_id":"levelo_inurba_marseille","lat":43.25581,"lon":5.3823,"is_reserved":false,"is_disabled":false,"rental_uris":{"android":"levelo://app?vid=c327d484-c524-4142-9386-6268c4e1d223","ios":"levelo://app?vid=c327d484-c524-4142-9386-6268c4e1d223"},"vehicle_type_id":"4","last_reported":1736690842,"current_range_meters":24400,"station_id":"ce4bhih2rcd13ifvqfs0","pricing_plan_id":"cebpf4jnsgd1na2vs0mg"},{"bike_id":"9343157b-1c2d-4548-bf4c-6991e6c0cdde","system_id":"levelo_inurba_marseille","lat":43.29756,"lon":5.37125,"is_reserved":false,"is_disabled":true,"rental_uris":{"android":"levelo://app?vid=9343157b-1c2d-4548-bf4c-6991e6c0cdde","ios":"levelo://app?vid=9343157b-1c2d-4548-bf4c-6991e6c0cdde"},"vehicle_type_id":"4","last_reported":1736690842,"current_range_meters":27200,"station_id":"ce4bgop2rcd13ifvqc1g","pricing_plan_id":"cebpf4jnsgd1na2vs0mg"},{"bike_id":"75eb4b0e-9faa-4746-8599-bbbb9b8b0b44","system_id":"levelo_inurba_marseille","lat":43.27208,"lon":5.39191,"is_reserved":false,"is_disabled":false,"rental_uris":{"android":"levelo://app?vid=75eb4b0e-9faa-4746-8599-bbbb9b8b0b44","ios":"levelo://app?vid=75eb4b0e-9faa-4746-8599-bbbb9b8b0b44"},"vehicle_type_id":"4","last_reported":1736690842,"current_range_meters":10000,"station_id":"ce4bhhp2rcd13ifvqfm0","pricing_plan_id":"cebpf4jnsgd1na2vs0mg"},{"bike_id":"f3d63fbe-0b15-4d5a-b8ba-74356810cdf7","system_id":"levelo_inurba_marseille","lat":43.27068,"lon":5.42279,"is_reserved":false,"is_disabled":false,"rental_uris":{"android":"levelo://app?vid=f3d63fbe-0b15-4d5a-b8ba-74356810cdf7","ios":"levelo://app?vid=f3d63fbe-0b15-4d5a-b8ba-74356810cdf7"},"vehicle_type_id":"4","last_reported":1736690842,"current_range_meters":39200,"station_id":"ce4bhk92rcd13ifvqgb0","pricing_plan_id":"cebpf4jnsgd1na2vs0mg"},{"bike_id":"6f8d5613-68e8-453b-9903-0b6c2da05e2d","system_id":"levelo_inurba_marseille","lat":43.241673,"lon":5.364089,"is_reserved":false,"is_disabled":false,"rental_uris":{"android":"levelo://app?vid=6f8d5613-68e8-453b-9903-0b6c2da05e2d","ios":"levelo://app?vid=6f8d5613-68e8-453b-9903-0b6c2da05e2d"},"vehicle_type_id":"4","last_reported":1736690842,"current_range_meters":36400,"station_id":"cpo36qri1sfpv3e86is0","pricing_plan_id":"cebpf4jnsgd1na2vs0mg"},{"bike_id":"804fe36e-ea1c-4465-8e5b-90d1eea05181","system_id":"levelo_inurba_marseille","lat":43.24389,"lon":5.3706,"is_reserved":false,"is_disabled":false,"rental_uris":{"android":"levelo://app?vid=804fe36e-ea1c-4465-8e5b-90d1eea05181","ios":"levelo://app?vid=804fe36e-ea1c-4465-8e5b-90d1eea05181"},"vehicle_type_id":"4","last_reported":1736690842,"current_range_meters":20000,"station_id":"ce4bhhh2rcd13ifvqfk0","pricing_plan_id":"cebpf4jnsgd1na2vs0mg"},{"bike_id":"cf11e11e-1e8b-42f7-a7ea-4ab24cbbde4c","system_id":"levelo_inurba_marseille","lat":43.28612,"lon":5.35103,"is_reserved":false,"is_disabled":false,"rental_uris":{"android":"levelo://app?vid=cf11e11e-1e8b-42f7-a7ea-4ab24cbbde4c","ios":"levelo://app?vid=cf11e11e-1e8b-42f7-a7ea-4ab24cbbde4c"},"vehicle_type_id":"4","last_reported":1736690842,"current_range_meters":33600,"station_id":"ce4bhch2rcd13ifvqeug","pricing_plan_id":"cebpf4jnsgd1na2vs0mg"},{"bike_id":"4ea89943-560f-4480-a533-4fe6664bd873","system_id":"levelo_inurba_marseille","lat":43.26183,"lon":5.37453,"is_reserved":false,"is_disabled":false,"rental_uris":{"android":"levelo://app?vid=4ea89943-560f-4480-a533-4fe6664bd873","ios":"levelo://app?vid=4ea89943-560f-4480-a533-4fe6664bd873"},"vehicle_type_id":"4","last_reported":1736690842,"current_range_meters":14400,"station_id":"ce4bhgp2rcd13ifvqfc0","pricing_plan_id":"cebpf4jnsgd1na2vs0mg"},{"bike_id":"85603f95-286b-4848-8682-ec6ae6094237","system_id":"levelo_inurba_marseille","lat":43.27051,"lon":5.40264,"is_reserved":false,"is_disabled":true,"rental_uris":{"android":"levelo://app?vid=85603f95-286b-4848-8682-ec6ae6094237","ios":"levelo://app?vid=85603f95-286b-4848-8682-ec6ae6094237"},"vehicle_type_id":"4","last_reported":1736690842,"current_range_meters":8000,"station_id":"ce4bhk92rcd13ifvqgc0","pricing_plan_id":"cebpf4jnsgd1na2vs0mg"},{"bike_id":"b52cf5d7-d0ff-45b3-ac5b-ffe5c33591d4","system_id":"levelo_inurba_marseille","lat":43.23061,"lon":5.35496,"is_reserved":false,"is_disabled":true,"rental_uris":{"android":"levelo://app?vid=b52cf5d7-d0ff-45b3-ac5b-ffe5c33591d4","ios":"levelo://app?vid=b52cf5d7-d0ff-45b3-ac5b-ffe5c33591d4"},"vehicle_type_id":"4","last_reported":1736690842,"current_range_meters":1200,"station_id":"cpo3342slgdg3j2ifvpg","pricing_plan_id":"cebpf4jnsgd1na2vs0mg"},{"bike_id":"38be114b-470e-4111-93c3-2817f11b13a6","system_id":"levelo_inurba_marseille","lat":43.30571,"lon":5.36534,"is_reserved":false,"is_disabled":false,"rental_uris":{"android":"levelo://app?vid=38be114b-470e-4111-93c3-2817f11b13a6","ios":"levelo://app?vid=38be114b-470e-4111-93c3-2817f11b13a6"},"vehicle_type_id":"4","last_reported":1736690842,"current_range_meters":38800,"station_id":"ce4bgs12rcd13ifvqcag","pricing_plan_id":"cebpf4jnsgd1na2vs0mg"},{"bike_id":"8b88170d-e695-4530-8583-a66b3ec41a93","system_id":"levelo_inurba_marseille","lat":43.336138,"lon":5.410229,"is_reserved":false,"is_disabled":true,"rental_uris":{"android":"levelo://app?vid=8b88170d-e695-4530-8583-a66b3ec41a93","ios":"levelo://app?vid=8b88170d-e695-4530-8583-a66b3ec41a93"},"vehicle_type_id":"4","last_reported":1736690842,"current_range_meters":8400,"station_id":"ce4bhqh2rcd13ifvqhmg","pricing_plan_id":"cebpf4jnsgd1na2vs0mg"},{"bike_id":"05da1427-11d2-409f-b1a9-8274ceefa2b5","system_id":"levelo_inurba_marseille","lat":43.29265,"lon":5.36843,"is_reserved":false,"is_disabled":true,"rental_uris":{"android":"levelo://app?vid=05da1427-11d2-409f-b1a9-8274ceefa2b5","ios":"levelo://app?vid=05da1427-11d2-409f-b1a9-8274ceefa2b5"},"vehicle_type_id":"4","last_reported":1736690842,"current_range_meters":18800,"station_id":"ce4bhbp2rcd13ifvqesg","pricing_plan_id":"cebpf4jnsgd1na2vs0mg"},{"bike_id":"f4934656-738f-4662-97a8-3698094ebacb","system_id":"levelo_inurba_marseille","lat":43.28261,"lon":5.35075,"is_reserved":false,"is_disabled":false,"rental_uris":{"android":"levelo://app?vid=f4934656-738f-4662-97a8-3698094ebacb","ios":"levelo://app?vid=f4934656-738f-4662-97a8-3698094ebacb"},"vehicle_type_id":"4","last_reported":1736690842,"current_range_meters":38400,"station_id":"ce4bhbp2rcd13ifvqerg","pricing_plan_id":"cebpf4jnsgd1na2vs0mg"},{"bike_id":"b8acbba0-a715-4ced-a2aa-0517db10ac9d","system_id":"levelo_inurba_marseille","lat":43.22929,"lon":5.35381,"is_reserved":false,"is_disabled":true,"rental_uris":{"android":"levelo://app?vid=b8acbba0-a715-4ced-a2aa-0517db10ac9d","ios":"levelo://app?vid=b8acbba0-a715-4ced-a2aa-0517db10ac9d"},"vehicle_type_id":"4","last_reported":1736690842,"current_range_meters":31200,"station_id":"cpo3532slgdg3j2ikp40","pricing_plan_id":"cebpf4jnsgd1na2vs0mg"},{"bike_id":"76f6d3e5-4e43-48bf-b9a9-cb42c72509df","system_id":"levelo_inurba_marseille","lat":43.30974,"lon":5.39038,"is_reserved":false,"is_disabled":false,"rental_uris":{"android":"levelo://app?vid=76f6d3e5-4e43-48bf-b9a9-cb42c72509df","ios":"levelo://app?vid=76f6d3e5-4e43-48bf-b9a9-cb42c72509df"},"vehicle_type_id":"4","last_reported":1736690842,"current_range_meters":21600,"station_id":"ce4bgup2rcd13ifvqco0","pricing_plan_id":"cebpf4jnsgd1na2vs0mg"},{"bike_id":"74dc7ce0-eba1-4612-8ac3-30db9f174f56","system_id":"levelo_inurba_marseille","lat":43.22931,"lon":5.35381,"is_reserved":false,"is_disabled":false,"rental_uris":{"android":"levelo://app?vid=74dc7ce0-eba1-4612-8ac3-30db9f174f56","ios":"levelo://app?vid=74dc7ce0-eba1-4612-8ac3-30db9f174f56"},"vehicle_type_id":"4","last_reported":1736690842,"current_range_meters":12000,"station_id":"cpo3532slgdg3j2ikp40","pricing_plan_id":"cebpf4jnsgd1na2vs0mg"},{"bike_id":"1d1bf384-b950-43e6-a473-c903425185d1","system_id":"levelo_inurba_marseille","lat":43.23142,"lon":5.43721,"is_reserved":false,"is_disabled":false,"rental_uris":{"android":"levelo://app?vid=1d1bf384-b950-43e6-a473-c903425185d1","ios":"levelo://app?vid=1d1bf384-b950-43e6-a473-c903425185d1"},"vehicle_type_id":"4","last_reported":1736690842,"current_range_meters":12000,"station_id":"ce4bhmp2rcd13ifvqgog","pricing_plan_id":"cebpf4jnsgd1na2vs0mg"},{"bike_id":"b570ec5e-60fc-4629-819d-b32caf44ad24","system_id":"levelo_inurba_marseille","lat":43.29552,"lon":5.42282,"is_reserved":false,"is_disabled":false,"rental_uris":{"android":"levelo://app?vid=b570ec5e-60fc-4629-819d-b32caf44ad24","ios":"levelo://app?vid=b570ec5e-60fc-4629-819d-b32caf44ad24"},"vehicle_type_id":"4","last_reported":1736690842,"current_range_meters":38800,"station_id":"ce4bhph2rcd13ifvqhdg","pricing_plan_id":"cebpf4jnsgd1na2vs0mg"},{"bike_id":"05397833-93b9-47ea-9ffe-77ff186af919","system_id":"levelo_inurba_marseille","lat":43.29007,"lon":5.35612,"is_reserved":false,"is_disabled":false,"rental_uris":{"android":"levelo://app?vid=05397833-93b9-47ea-9ffe-77ff186af919","ios":"levelo://app?vid=05397833-93b9-47ea-9ffe-77ff186af919"},"vehicle_type_id":"4","last_reported":1736690842,"current_range_meters":30400,"station_id":"ce4bhb92rcd13ifvqen0","pricing_plan_id":"cebpf4jnsgd1na2vs0mg"},{"bike_id":"92c30b42-081d-4e76-8d30-e6b28eedfec0","system_id":"levelo_inurba_marseille","lat":43.30961,"lon":5.39048,"is_reserved":false,"is_disabled":false,"rental_uris":{"android":"levelo://app?vid=92c30b42-081d-4e76-8d30-e6b28eedfec0","ios":"levelo://app?vid=92c30b42-081d-4e76-8d30-e6b28eedfec0"},"vehicle_type_id":"4","last_reported":1736690842,"current_range_meters":20000,"station_id":"ce4bgup2rcd13ifvqco0","pricing_plan_id":"cebpf4jnsgd1na2vs0mg"},{"bike_id":"a5698a19-52c1-45d9-b6a6-bd07a196dc04","system_id":"levelo_inurba_marseille","lat":43.25582,"lon":5.38232,"is_reserved":false,"is_disabled":true,"rental_uris":{"android":"levelo://app?vid=a5698a19-52c1-45d9-b6a6-bd07a196dc04","ios":"levelo://app?vid=a5698a19-52c1-45d9-b6a6-bd07a196dc04"},"vehicle_type_id":"4","last_reported":1736690842,"current_range_meters":25600,"station_id":"ce4bhih2rcd13ifvqfs0","pricing_plan_id":"cebpf4jnsgd1na2vs0mg"},{"bike_id":"377730c6-0336-4c78-9c46-cdee41ff19a9","system_id":"levelo_inurba_marseille","lat":43.28033,"lon":5.41093,"is_reserved":false,"is_disabled":true,"rental_uris":{"android":"levelo://app?vid=377730c6-0336-4c78-9c46-cdee41ff19a9","ios":"levelo://app?vid=377730c6-0336-4c78-9c46-cdee41ff19a9"},"vehicle_type_id":"4","last_reported":1736690842,"current_range_meters":0,"station_id":"","pricing_plan_id":"cebpf4jnsgd1na2vs0mg"},{"bike_id":"58305ada-76af-4b92-b6f0-864e3082be19","system_id":"levelo_inurba_marseille","lat":43.297537,"lon":5.433836,"is_reserved":false,"is_disabled":false,"rental_uris":{"android":"levelo://app?vid=58305ada-76af-4b92-b6f0-864e3082be19","ios":"levelo://app?vid=58305ada-76af-4b92-b6f0-864e3082be19"},"vehicle_type_id":"4","last_reported":1736690842,"current_range_meters":36800,"station_id":"ce4bhpp2rcd13ifvqhfg","pricing_plan_id":"cebpf4jnsgd1na2vs0mg"},{"bike_id":"054cd636-1c92-4b02-9f52-65bb09761079","system_id":"levelo_inurba_marseille","lat":43.27615,"lon":5.36123,"is_reserved":false,"is_disabled":true,"rental_uris":{"android":"levelo://app?vid=054cd636-1c92-4b02-9f52-65bb09761079","ios":"levelo://app?vid=054cd636-1c92-4b02-9f52-65bb09761079"},"vehicle_type_id":"4","last_reported":1736690842,"current_range_meters":38800,"station_id":"ce4bgj92rcd13ifvqbe0","pricing_plan_id":"cebpf4jnsgd1na2vs0mg"},{"bike_id":"266859f2-18fe-482a-8c9f-5bdad982c716","system_id":"levelo_inurba_marseille","lat":43.28042,"lon":5.41129,"is_reserved":false,"is_disabled":true,"rental_uris":{"android":"levelo://app?vid=266859f2-18fe-482a-8c9f-5bdad982c716","ios":"levelo://app?vid=266859f2-18fe-482a-8c9f-5bdad982c716"},"vehicle_type_id":"4","last_reported":1736690842,"current_range_meters":0,"station_id":"","pricing_plan_id":"cebpf4jnsgd1na2vs0mg"},{"bike_id":"fd01bc8c-af59-4352-a996-47a66c3328f9","system_id":"levelo_inurba_marseille","lat":43.29888,"lon":5.38143,"is_reserved":false,"is_disabled":true,"rental_uris":{"android":"levelo://app?vid=fd01bc8c-af59-4352-a996-47a66c3328f9","ios":"levelo://app?vid=fd01bc8c-af59-4352-a996-47a66c3328f9"},"vehicle_type_id":"4","last_reported":1736690842,"current_range_meters":38800,"station_id":"ce4bgj12rcd13ifvqbc0","pricing_plan_id":"cebpf4jnsgd1na2vs0mg"},{"bike_id":"2141e171-b184-4371-b07b-85e44d6f176a","system_id":"levelo_inurba_marseille","lat":43.29681,"lon":5.37751,"is_reserved":false,"is_disabled":false,"rental_uris":{"android":"levelo://app?vid=2141e171-b184-4371-b07b-85e44d6f176a","ios":"levelo://app?vid=2141e171-b184-4371-b07b-85e44d6f176a"},"vehicle_type_id":"4","last_reported":1736690842,"current_range_meters":26800,"station_id":"","pricing_plan_id":"cebpf4jnsgd1na2vs0mg"},{"bike_id":"eaf47db3-b877-4d32-a4e7-0a6eaabd994f","system_id":"levelo_inurba_marseille","lat":43.24813,"lon":5.37456,"is_reserved":false,"is_disabled":false,"rental_uris":{"android":"levelo://app?vid=eaf47db3-b877-4d32-a4e7-0a6eaabd994f","ios":"levelo://app?vid=eaf47db3-b877-4d32-a4e7-0a6eaabd994f"},"vehicle_type_id":"4","last_reported":1736690842,"current_range_meters":38800,"station_id":"ce4bhgh2rcd13ifvqfb0","pricing_plan_id":"cebpf4jnsgd1na2vs0mg"},{"bike_id":"f42d734e-e823-4062-a48f-6086e5240da7","system_id":"levelo_inurba_marseille","lat":43.24405,"lon":5.37048,"is_reserved":false,"is_disabled":false,"rental_uris":{"android":"levelo://app?vid=f42d734e-e823-4062-a48f-6086e5240da7","ios":"levelo://app?vid=f42d734e-e823-4062-a48f-6086e5240da7"},"vehicle_type_id":"4","last_reported":1736690842,"current_range_meters":11600,"station_id":"ce4bhhh2rcd13ifvqfk0","pricing_plan_id":"cebpf4jnsgd1na2vs0mg"},{"bike_id":"9174e29b-6f6e-439c-84cd-ac01f0575f83","system_id":"levelo_inurba_marseille","lat":43.30316,"lon":5.36924,"is_reserved":false,"is_disabled":false,"rental_uris":{"android":"levelo://app?vid=9174e29b-6f6e-439c-84cd-ac01f0575f83","ios":"levelo://app?vid=9174e29b-6f6e-439c-84cd-ac01f0575f83"},"vehicle_type_id":"4","last_reported":1736690842,"current_range_meters":28800,"station_id":"ce4bgqh2rcd13ifvqc5g","pricing_plan_id":"cebpf4jnsgd1na2vs0mg"},{"bike_id":"b31c05a9-6487-4217-80a6-25821a78c060","system_id":"levelo_inurba_marseille","lat":43.23191,"lon":5.35561,"is_reserved":false,"is_disabled":false,"rental_uris":{"android":"levelo://app?vid=b31c05a9-6487-4217-80a6-25821a78c060","ios":"levelo://app?vid=b31c05a9-6487-4217-80a6-25821a78c060"},"vehicle_type_id":"4","last_reported":1736690842,"current_range_meters":38000,"station_id":"ce4bhu92rcd13ifvqi70","pricing_plan_id":"cebpf4jnsgd1na2vs0mg"},{"bike_id":"f23647a8-ac32-4e08-be8d-dff2e243f4ac","system_id":"levelo_inurba_marseille","lat":43.29459,"lon":5.38675,"is_reserved":false,"is_disabled":true,"rental_uris":{"android":"levelo://app?vid=f23647a8-ac32-4e08-be8d-dff2e243f4ac","ios":"levelo://app?vid=f23647a8-ac32-4e08-be8d-dff2e243f4ac"},"vehicle_type_id":"4","last_reported":1736690842,"current_range_meters":0,"station_id":"","pricing_plan_id":"cebpf4jnsgd1na2vs0mg"},{"bike_id":"78273c24-b9b9-430b-8842-172918655610","system_id":"levelo_inurba_marseille","lat":43.30945,"lon":5.39059,"is_reserved":false,"is_disabled":false,"rental_uris":{"android":"levelo://app?vid=78273c24-b9b9-430b-8842-172918655610","ios":"levelo://app?vid=78273c24-b9b9-430b-8842-172918655610"},"vehicle_type_id":"4","last_reported":1736690842,"current_range_meters":24800,"station_id":"ce4bgup2rcd13ifvqco0","pricing_plan_id":"cebpf4jnsgd1na2vs0mg"},{"bike_id":"e32d9925-9081-45b5-ade3-00e86a942480","system_id":"levelo_inurba_marseille","lat":43.3042,"lon":5.41292,"is_reserved":false,"is_disabled":false,"rental_uris":{"android":"levelo://app?vid=e32d9925-9081-45b5-ade3-00e86a942480","ios":"levelo://app?vid=e32d9925-9081-45b5-ade3-00e86a942480"},"vehicle_type_id":"4","last_reported":1736690842,"current_range_meters":27200,"station_id":"ce4bhop2rcd13ifvqh8g","pricing_plan_id":"cebpf4jnsgd1na2vs0mg"},{"bike_id":"8ff7acc2-ff6e-4e40-87ae-e7c2e621a984","system_id":"levelo_inurba_marseille","lat":43.3307,"lon":5.408,"is_reserved":false,"is_disabled":false,"rental_uris":{"android":"levelo://app?vid=8ff7acc2-ff6e-4e40-87ae-e7c2e621a984","ios":"levelo://app?vid=8ff7acc2-ff6e-4e40-87ae-e7c2e621a984"},"vehicle_type_id":"4","last_reported":1736690842,"current_range_meters":22000,"station_id":"","pricing_plan_id":"cebpf4jnsgd1na2vs0mg"},{"bike_id":"00046a4b-2768-432b-adb4-66738feaf613","system_id":"levelo_inurba_marseille","lat":43.24999,"lon":5.38929,"is_reserved":false,"is_disabled":false,"rental_uris":{"android":"levelo://app?vid=00046a4b-2768-432b-adb4-66738feaf613","ios":"levelo://app?vid=00046a4b-2768-432b-adb4-66738feaf613"},"vehicle_type_id":"4","last_reported":1736690842,"current_range_meters":26800,"station_id":"ce4bhgp2rcd13ifvqfd0","pricing_plan_id":"cebpf4jnsgd1na2vs0mg"},{"bike_id":"ee58db82-3c20-440a-b6f1-5585669164a8","system_id":"levelo_inurba_marseille","lat":43.23197,"lon":5.35541,"is_reserved":false,"is_disabled":false,"rental_uris":{"android":"levelo://app?vid=ee58db82-3c20-440a-b6f1-5585669164a8","ios":"levelo://app?vid=ee58db82-3c20-440a-b6f1-5585669164a8"},"vehicle_type_id":"4","last_reported":1736690842,"current_range_meters":38800,"station_id":"ce4bhu92rcd13ifvqi70","pricing_plan_id":"cebpf4jnsgd1na2vs0mg"},{"bike_id":"3e8b7527-e89d-4d31-a3a1-bab5d9961c5a","system_id":"levelo_inurba_marseille","lat":43.33608,"lon":5.41024,"is_reserved":false,"is_disabled":true,"rental_uris":{"android":"levelo://app?vid=3e8b7527-e89d-4d31-a3a1-bab5d9961c5a","ios":"levelo://app?vid=3e8b7527-e89d-4d31-a3a1-bab5d9961c5a"},"vehicle_type_id":"4","last_reported":1736690842,"current_range_meters":31200,"station_id":"ce4bhqh2rcd13ifvqhmg","pricing_plan_id":"cebpf4jnsgd1na2vs0mg"},{"bike_id":"e025d307-62f1-4c92-af27-b157591c30d8","system_id":"levelo_inurba_marseille","lat":43.26924,"lon":5.38918,"is_reserved":false,"is_disabled":false,"rental_uris":{"android":"levelo://app?vid=e025d307-62f1-4c92-af27-b157591c30d8","ios":"levelo://app?vid=e025d307-62f1-4c92-af27-b157591c30d8"},"vehicle_type_id":"4","last_reported":1736690842,"current_range_meters":36400,"station_id":"ce4bhhh2rcd13ifvqfl0","pricing_plan_id":"cebpf4jnsgd1na2vs0mg"},{"bike_id":"69017611-1cb3-4401-b23a-d9704926a9da","system_id":"levelo_inurba_marseille","lat":43.25854,"lon":5.39908,"is_reserved":false,"is_disabled":false,"rental_uris":{"android":"levelo://app?vid=69017611-1cb3-4401-b23a-d9704926a9da","ios":"levelo://app?vid=69017611-1cb3-4401-b23a-d9704926a9da"},"vehicle_type_id":"4","last_reported":1736690842,"current_range_meters":20800,"station_id":"ce4bhl92rcd13ifvqghg","pricing_plan_id":"cebpf4jnsgd1na2vs0mg"},{"bike_id":"b2054a0d-0582-426d-811a-d84fea83a1ab","system_id":"levelo_inurba_marseille","lat":43.28272,"lon":5.35067,"is_reserved":false,"is_disabled":false,"rental_uris":{"android":"levelo://app?vid=b2054a0d-0582-426d-811a-d84fea83a1ab","ios":"levelo://app?vid=b2054a0d-0582-426d-811a-d84fea83a1ab"},"vehicle_type_id":"4","last_reported":1736690842,"current_range_meters":11200,"station_id":"ce4bhbp2rcd13ifvqerg","pricing_plan_id":"cebpf4jnsgd1na2vs0mg"},{"bike_id":"bdb1c890-ea13-43dd-b9f0-110fc71298fe","system_id":"levelo_inurba_marseille","lat":43.2293,"lon":5.35379,"is_reserved":false,"is_disabled":false,"rental_uris":{"android":"levelo://app?vid=bdb1c890-ea13-43dd-b9f0-110fc71298fe","ios":"levelo://app?vid=bdb1c890-ea13-43dd-b9f0-110fc71298fe"},"vehicle_type_id":"4","last_reported":1736690842,"current_range_meters":16000,"station_id":"cpo3532slgdg3j2ikp40","pricing_plan_id":"cebpf4jnsgd1na2vs0mg"},{"bike_id":"8118962d-013c-4f3a-876b-1df593122c3a","system_id":"levelo_inurba_marseille","lat":43.29039,"lon":5.3866,"is_reserved":false,"is_disabled":true,"rental_uris":{"android":"levelo://app?vid=8118962d-013c-4f3a-876b-1df593122c3a","ios":"levelo://app?vid=8118962d-013c-4f3a-876b-1df593122c3a"},