{"last_updated":1732057739,"ttl":60,"version":"2.2","data":{"bikes":[{"bike_id":"cacde89c-5086-4b87-8bcd-a2b586b3345d","system_id":"levelo_inurba_marseille","lat":43.30154,"lon":5.38098,"is_reserved":false,"is_disabled":true,"rental_uris":{"android":"levelo://app?vid=cacde89c-5086-4b87-8bcd-a2b586b3345d","ios":"levelo://app?vid=cacde89c-5086-4b87-8bcd-a2b586b3345d"},"vehicle_type_id":"4","last_reported":1732057739,"current_range_meters":38000,"station_id":"ce4bgjp2rcd13ifvqbh0","pricing_plan_id":"cebpf4jnsgd1na2vs0mg"},{"bike_id":"b175d5bb-03ad-44f1-b783-42a9a5a5f9b8","system_id":"levelo_inurba_marseille","lat":43.31117,"lon":5.37765,"is_reserved":false,"is_disabled":false,"rental_uris":{"android":"levelo://app?vid=b175d5bb-03ad-44f1-b783-42a9a5a5f9b8","ios":"levelo://app?vid=b175d5bb-03ad-44f1-b783-42a9a5a5f9b8"},"vehicle_type_id":"4","last_reported":1732057739,"current_range_meters":22000,"station_id":"ce4bgt92rcd13ifvqcg0","pricing_plan_id":"cebpf4jnsgd1na2vs0mg"},{"bike_id":"b21da081-9879-40dd-84c5-23f42e6f5e53","system_id":"levelo_inurba_marseille","lat":43.27954,"lon":5.4105,"is_reserved":false,"is_disabled":true,"rental_uris":{"android":"levelo://app?vid=b21da081-9879-40dd-84c5-23f42e6f5e53","ios":"levelo://app?vid=b21da081-9879-40dd-84c5-23f42e6f5e53"},"vehicle_type_id":"4","last_reported":1732057739,"current_range_meters":16800,"station_id":"ce4bhnp2rcd13ifvqh0g","pricing_plan_id":"cebpf4jnsgd1na2vs0mg"},{"bike_id":"98fd58c5-ee32-4fee-a47c-fb865a30b758","system_id":"levelo_inurba_marseille","lat":43.25867,"lon":5.39904,"is_reserved":false,"is_disabled":false,"rental_uris":{"android":"levelo://app?vid=98fd58c5-ee32-4fee-a47c-fb865a30b758","ios":"levelo://app?vid=98fd58c5-ee32-4fee-a47c-fb865a30b758"},"vehicle_type_id":"4","last_reported":1732057739,"current_range_meters":39200,"station_id":"ce4bhl92rcd13ifvqghg","pricing_plan_id":"cebpf4jnsgd1na2vs0mg"},{"bike_id":"bbb8ca39-1b90-4589-848d-0929855b549f","system_id":"levelo_inurba_marseille","lat":43.28437,"lon":5.39195,"is_reserved":false,"is_disabled":false,"rental_uris":{"android":"levelo://app?vid=bbb8ca39-1b90-4589-848d-0929855b549f","ios":"levelo://app?vid=bbb8ca39-1b90-4589-848d-0929855b549f"},"vehicle_type_id":"4","last_reported":1732057739,"current_range_meters":36800,"station_id":"ce4bhoh2rcd13ifvqh5g","pricing_plan_id":"cebpf4jnsgd1na2vs0mg"},{"bike_id":"dc94fd26-5f8e-4f9c-bc63-4eeb71a922dd","system_id":"levelo_inurba_marseille","lat":43.25003,"lon":5.38924,"is_reserved":false,"is_disabled":false,"rental_uris":{"android":"levelo://app?vid=dc94fd26-5f8e-4f9c-bc63-4eeb71a922dd","ios":"levelo://app?vid=dc94fd26-5f8e-4f9c-bc63-4eeb71a922dd"},"vehicle_type_id":"4","last_reported":1732057739,"current_range_meters":40000,"station_id":"ce4bhgp2rcd13ifvqfd0","pricing_plan_id":"cebpf4jnsgd1na2vs0mg"},{"bike_id":"bb9ea763-6e93-4922-b0c2-ce9421dca49b","system_id":"levelo_inurba_marseille","lat":43.259294,"lon":5.409055,"is_reserved":false,"is_disabled":false,"rental_uris":{"android":"levelo://app?vid=bb9ea763-6e93-4922-b0c2-ce9421dca49b","ios":"levelo://app?vid=bb9ea763-6e93-4922-b0c2-ce9421dca49b"},"vehicle_type_id":"4","last_reported":1732057739,"current_range_meters":38800,"station_id":"ce4bhm92rcd13ifvqglg","pricing_plan_id":"cebpf4jnsgd1na2vs0mg"},{"bike_id":"df89f28d-09ef-4d95-998a-b310ab3afea0","system_id":"levelo_inurba_marseille","lat":43.33021,"lon":5.39048,"is_reserved":false,"is_disabled":false,"rental_uris":{"android":"levelo://app?vid=df89f28d-09ef-4d95-998a-b310ab3afea0","ios":"levelo://app?vid=df89f28d-09ef-4d95-998a-b310ab3afea0"},"vehicle_type_id":"4","last_reported":1732057739,"current_range_meters":10000,"station_id":"ce4bhr92rcd13ifvqhrg","pricing_plan_id":"cebpf4jnsgd1na2vs0mg"},{"bike_id":"c6c66ad2-83bc-4848-80f7-003c393ff533","system_id":"levelo_inurba_marseille","lat":43.3024,"lon":5.40077,"is_reserved":false,"is_disabled":false,"rental_uris":{"android":"levelo://app?vid=c6c66ad2-83bc-4848-80f7-003c393ff533","ios":"levelo://app?vid=c6c66ad2-83bc-4848-80f7-003c393ff533"},"vehicle_type_id":"4","last_reported":1732057739,"current_range_meters":38000,"station_id":"ce4bgvh2rcd13ifvqcs0","pricing_plan_id":"cebpf4jnsgd1na2vs0mg"},{"bike_id":"856b10ac-f957-4680-ad21-eedd2d56a724","system_id":"levelo_inurba_marseille","lat":43.25823,"lon":5.39439,"is_reserved":false,"is_disabled":false,"rental_uris":{"android":"levelo://app?vid=856b10ac-f957-4680-ad21-eedd2d56a724","ios":"levelo://app?vid=856b10ac-f957-4680-ad21-eedd2d56a724"},"vehicle_type_id":"4","last_reported":1732057739,"current_range_meters":22000,"station_id":"ce4bhip2rcd13ifvqft0","pricing_plan_id":"cebpf4jnsgd1na2vs0mg"},{"bike_id":"e01787d3-18f5-4b67-acfd-ea3f2d46ea51","system_id":"levelo_inurba_marseille","lat":43.30887,"lon":5.39647,"is_reserved":false,"is_disabled":false,"rental_uris":{"android":"levelo://app?vid=e01787d3-18f5-4b67-acfd-ea3f2d46ea51","ios":"levelo://app?vid=e01787d3-18f5-4b67-acfd-ea3f2d46ea51"},"vehicle_type_id":"4","last_reported":1732057739,"current_range_meters":9200,"station_id":"ce4bh012rcd13ifvqcv0","pricing_plan_id":"cebpf4jnsgd1na2vs0mg"},{"bike_id":"d9c5e426-f6d4-4e69-9b89-ae80ad47cc4f","system_id":"levelo_inurba_marseille","lat":43.27948,"lon":5.41047,"is_reserved":false,"is_disabled":false,"rental_uris":{"android":"levelo://app?vid=d9c5e426-f6d4-4e69-9b89-ae80ad47cc4f","ios":"levelo://app?vid=d9c5e426-f6d4-4e69-9b89-ae80ad47cc4f"},"vehicle_type_id":"4","last_reported":1732057739,"current_range_meters":36800,"station_id":"ce4bhnp2rcd13ifvqh0g","pricing_plan_id":"cebpf4jnsgd1na2vs0mg"},{"bike_id":"a8842fca-8834-42c5-a8c2-8425007cda29","system_id":"levelo_inurba_marseille","lat":43.30887,"lon":5.39644,"is_reserved":false,"is_disabled":false,"rental_uris":{"android":"levelo://app?vid=a8842fca-8834-42c5-a8c2-8425007cda29","ios":"levelo://app?vid=a8842fca-8834-42c5-a8c2-8425007cda29"},"vehicle_type_id":"4","last_reported":1732057739,"current_range_meters":26800,"station_id":"ce4bh012rcd13ifvqcv0","pricing_plan_id":"cebpf4jnsgd1na2vs0mg"},{"bike_id":"122b8c9f-821b-4320-8f89-f1c7267f8d64","system_id":"levelo_inurba_marseille","lat":43.32536,"lon":5.41448,"is_reserved":false,"is_disabled":false,"rental_uris":{"android":"levelo://app?vid=122b8c9f-821b-4320-8f89-f1c7267f8d64","ios":"levelo://app?vid=122b8c9f-821b-4320-8f89-f1c7267f8d64"},"vehicle_type_id":"4","last_reported":1732057739,"current_range_meters":36400,"station_id":"ce4bhq12rcd13ifvqhhg","pricing_plan_id":"cebpf4jnsgd1na2vs0mg"},{"bike_id":"f15b25c1-4ac5-48f3-9bc4-bf7f4729c1c6","system_id":"levelo_inurba_marseille","lat":43.31325,"lon":5.39694,"is_reserved":false,"is_disabled":false,"rental_uris":{"android":"levelo://app?vid=f15b25c1-4ac5-48f3-9bc4-bf7f4729c1c6","ios":"levelo://app?vid=f15b25c1-4ac5-48f3-9bc4-bf7f4729c1c6"},"vehicle_type_id":"4","last_reported":1732057739,"current_range_meters":38000,"station_id":"ce4bgvp2rcd13ifvqcu0","pricing_plan_id":"cebpf4jnsgd1na2vs0mg"},{"bike_id":"0ea93326-5034-4b5e-97b8-0a33b4d38611","system_id":"levelo_inurba_marseille","lat":43.3015,"lon":5.38097,"is_reserved":false,"is_disabled":true,"rental_uris":{"android":"levelo://app?vid=0ea93326-5034-4b5e-97b8-0a33b4d38611","ios":"levelo://app?vid=0ea93326-5034-4b5e-97b8-0a33b4d38611"},"vehicle_type_id":"4","last_reported":1732057739,"current_range_meters":0,"station_id":"ce4bgjp2rcd13ifvqbh0","pricing_plan_id":"cebpf4jnsgd1na2vs0mg"},{"bike_id":"68dfa3dd-d21d-4b5d-bb73-d0b0d42d18cb","system_id":"levelo_inurba_marseille","lat":43.29869,"lon":5.39735,"is_reserved":false,"is_disabled":false,"rental_uris":{"android":"levelo://app?vid=68dfa3dd-d21d-4b5d-bb73-d0b0d42d18cb","ios":"levelo://app?vid=68dfa3dd-d21d-4b5d-bb73-d0b0d42d18cb"},"vehicle_type_id":"4","last_reported":1732057739,"current_range_meters":38800,"station_id":"ce4bh0h2rcd13ifvqd50","pricing_plan_id":"cebpf4jnsgd1na2vs0mg"},{"bike_id":"25909b36-472f-423d-a882-20b903a3d85e","system_id":"levelo_inurba_marseille","lat":43.284631,"lon":5.358825,"is_reserved":false,"is_disabled":false,"rental_uris":{"android":"levelo://app?vid=25909b36-472f-423d-a882-20b903a3d85e","ios":"levelo://app?vid=25909b36-472f-423d-a882-20b903a3d85e"},"vehicle_type_id":"4","last_reported":1732057739,"current_range_meters":23200,"station_id":"","pricing_plan_id":"cebpf4jnsgd1na2vs0mg"},{"bike_id":"92ed161b-7532-4432-a194-1fd992bd18c4","system_id":"levelo_inurba_marseille","lat":43.28458,"lon":5.35887,"is_reserved":false,"is_disabled":false,"rental_uris":{"android":"levelo://app?vid=92ed161b-7532-4432-a194-1fd992bd18c4","ios":"levelo://app?vid=92ed161b-7532-4432-a194-1fd992bd18c4"},"vehicle_type_id":"4","last_reported":1732057739,"current_range_meters":38000,"station_id":"ce4bhah2rcd13ifvqei0","pricing_plan_id":"cebpf4jnsgd1na2vs0mg"},{"bike_id":"0729225f-edb5-4541-b6d9-a2bc5d69ccda","system_id":"levelo_inurba_marseille","lat":43.25082,"lon":5.39515,"is_reserved":false,"is_disabled":false,"rental_uris":{"android":"levelo://app?vid=0729225f-edb5-4541-b6d9-a2bc5d69ccda","ios":"levelo://app?vid=0729225f-edb5-4541-b6d9-a2bc5d69ccda"},"vehicle_type_id":"4","last_reported":1732057739,"current_range_meters":34000,"station_id":"ce4bhm12rcd13ifvqgkg","pricing_plan_id":"cebpf4jnsgd1na2vs0mg"},{"bike_id":"a977b746-1ded-41bb-8696-691cc9d5cea1","system_id":"levelo_inurba_marseille","lat":43.298742,"lon":5.397328,"is_reserved":false,"is_disabled":false,"rental_uris":{"android":"levelo://app?vid=a977b746-1ded-41bb-8696-691cc9d5cea1","ios":"levelo://app?vid=a977b746-1ded-41bb-8696-691cc9d5cea1"},"vehicle_type_id":"4","last_reported":1732057739,"current_range_meters":18800,"station_id":"ce4bh0h2rcd13ifvqd50","pricing_plan_id":"cebpf4jnsgd1na2vs0mg"},{"bike_id":"91caabd5-6273-4215-a259-d5923fc587e5","system_id":"levelo_inurba_marseille","lat":43.30803,"lon":5.38155,"is_reserved":false,"is_disabled":false,"rental_uris":{"android":"levelo://app?vid=91caabd5-6273-4215-a259-d5923fc587e5","ios":"levelo://app?vid=91caabd5-6273-4215-a259-d5923fc587e5"},"vehicle_type_id":"4","last_reported":1732057739,"current_range_meters":36800,"station_id":"ce4bgt12rcd13ifvqce0","pricing_plan_id":"cebpf4jnsgd1na2vs0mg"},{"bike_id":"dbe74249-58cd-403e-a63d-5e0a1c17b552","system_id":"levelo_inurba_marseille","lat":43.24093,"lon":5.37745,"is_reserved":false,"is_disabled":true,"rental_uris":{"android":"levelo://app?vid=dbe74249-58cd-403e-a63d-5e0a1c17b552","ios":"levelo://app?vid=dbe74249-58cd-403e-a63d-5e0a1c17b552"},"vehicle_type_id":"4","last_reported":1732057739,"current_range_meters":0,"station_id":"","pricing_plan_id":"cebpf4jnsgd1na2vs0mg"},{"bike_id":"e60464c7-4f69-4dba-8efb-ce097bdab541","system_id":"levelo_inurba_marseille","lat":43.32376,"lon":5.38877,"is_reserved":false,"is_disabled":false,"rental_uris":{"android":"levelo://app?vid=e60464c7-4f69-4dba-8efb-ce097bdab541","ios":"levelo://app?vid=e60464c7-4f69-4dba-8efb-ce097bdab541"},"vehicle_type_id":"4","last_reported":1732057739,"current_range_meters":38400,"station_id":"ce4bhqp2rcd13ifvqhog","pricing_plan_id":"cebpf4jnsgd1na2vs0mg"},{"bike_id":"f9c46bd4-8acb-43a5-8bdb-0cce732d8090","system_id":"levelo_inurba_marseille","lat":43.27825,"lon":5.3921,"is_reserved":false,"is_disabled":false,"rental_uris":{"android":"levelo://app?vid=f9c46bd4-8acb-43a5-8bdb-0cce732d8090","ios":"levelo://app?vid=f9c46bd4-8acb-43a5-8bdb-0cce732d8090"},"vehicle_type_id":"4","last_reported":1732057739,"current_range_meters":30400,"station_id":"ce4bhjp2rcd13ifvqga0","pricing_plan_id":"cebpf4jnsgd1na2vs0mg"},{"bike_id":"55f48d79-d1ec-4213-82b5-d4d82a77bc53","system_id":"levelo_inurba_marseille","lat":43.31761,"lon":5.39017,"is_reserved":false,"is_disabled":false,"rental_uris":{"android":"levelo://app?vid=55f48d79-d1ec-4213-82b5-d4d82a77bc53","ios":"levelo://app?vid=55f48d79-d1ec-4213-82b5-d4d82a77bc53"},"vehicle_type_id":"4","last_reported":1732057739,"current_range_meters":20400,"station_id":"ce4bhqp2rcd13ifvqhng","pricing_plan_id":"cebpf4jnsgd1na2vs0mg"},{"bike_id":"5c3000a0-a190-4007-a723-aa2707fd1ce3","system_id":"levelo_inurba_marseille","lat":43.22926,"lon":5.35369,"is_reserved":false,"is_disabled":false,"rental_uris":{"android":"levelo://app?vid=5c3000a0-a190-4007-a723-aa2707fd1ce3","ios":"levelo://app?vid=5c3000a0-a190-4007-a723-aa2707fd1ce3"},"vehicle_type_id":"4","last_reported":1732057739,"current_range_meters":38800,"station_id":"cpo3532slgdg3j2ikp40","pricing_plan_id":"cebpf4jnsgd1na2vs0mg"},{"bike_id":"ed2082b4-7132-4717-96e4-72bf267e4a42","system_id":"levelo_inurba_marseille","lat":43.30304,"lon":5.39219,"is_reserved":false,"is_disabled":true,"rental_uris":{"android":"levelo://app?vid=ed2082b4-7132-4717-96e4-72bf267e4a42","ios":"levelo://app?vid=ed2082b4-7132-4717-96e4-72bf267e4a42"},"vehicle_type_id":"4","last_reported":1732057739,"current_range_meters":8400,"station_id":"ce4bgkh2rcd13ifvqbk0","pricing_plan_id":"cebpf4jnsgd1na2vs0mg"},{"bike_id":"25d2012a-bc68-4733-8ef9-7e23adebd322","system_id":"levelo_inurba_marseille","lat":43.3133,"lon":5.39696,"is_reserved":false,"is_disabled":false,"rental_uris":{"android":"levelo://app?vid=25d2012a-bc68-4733-8ef9-7e23adebd322","ios":"levelo://app?vid=25d2012a-bc68-4733-8ef9-7e23adebd322"},"vehicle_type_id":"4","last_reported":1732057739,"current_range_meters":37600,"station_id":"ce4bgvp2rcd13ifvqcu0","pricing_plan_id":"cebpf4jnsgd1na2vs0mg"},{"bike_id":"25785704-760b-4f4e-938c-5137c82d51e5","system_id":"levelo_inurba_marseille","lat":43.30779,"lon":5.3765,"is_reserved":false,"is_disabled":false,"rental_uris":{"android":"levelo://app?vid=25785704-760b-4f4e-938c-5137c82d51e5","ios":"levelo://app?vid=25785704-760b-4f4e-938c-5137c82d51e5"},"vehicle_type_id":"4","last_reported":1732057739,"current_range_meters":38800,"station_id":"ce4bgv92rcd13ifvqcq0","pricing_plan_id":"cebpf4jnsgd1na2vs0mg"},{"bike_id":"e68eafa6-5e9c-416f-9321-af780aefb27a","system_id":"levelo_inurba_marseille","lat":43.23965,"lon":5.36638,"is_reserved":false,"is_disabled":false,"rental_uris":{"android":"levelo://app?vid=e68eafa6-5e9c-416f-9321-af780aefb27a","ios":"levelo://app?vid=e68eafa6-5e9c-416f-9321-af780aefb27a"},"vehicle_type_id":"4","last_reported":1732057739,"current_range_meters":39200,"station_id":"ce4bhi12rcd13ifvqfp0","pricing_plan_id":"cebpf4jnsgd1na2vs0mg"},{"bike_id":"12b1e5ed-6fe3-452d-a7bb-1572617bbee2","system_id":"levelo_inurba_marseille","lat":43.27985,"lon":5.41658,"is_reserved":false,"is_disabled":false,"rental_uris":{"android":"levelo://app?vid=12b1e5ed-6fe3-452d-a7bb-1572617bbee2","ios":"levelo://app?vid=12b1e5ed-6fe3-452d-a7bb-1572617bbee2"},"vehicle_type_id":"4","last_reported":1732057739,"current_range_meters":38800,"station_id":"ce4bho12rcd13ifvqh1g","pricing_plan_id":"cebpf4jnsgd1na2vs0mg"},{"bike_id":"34dc7f9f-3043-4ea3-80cf-8a7fd6ab2ab9","system_id":"levelo_inurba_marseille","lat":43.31355,"lon":5.3849,"is_reserved":false,"is_disabled":false,"rental_uris":{"android":"levelo://app?vid=34dc7f9f-3043-4ea3-80cf-8a7fd6ab2ab9","ios":"levelo://app?vid=34dc7f9f-3043-4ea3-80cf-8a7fd6ab2ab9"},"vehicle_type_id":"4","last_reported":1732057739,"current_range_meters":26000,"station_id":"ce4bgt92rcd13ifvqcf0","pricing_plan_id":"cebpf4jnsgd1na2vs0mg"},{"bike_id":"c11cab47-114d-4710-96fb-eb8c5e914a6b","system_id":"levelo_inurba_marseille","lat":43.30942,"lon":5.40155,"is_reserved":false,"is_disabled":false,"rental_uris":{"android":"levelo://app?vid=c11cab47-114d-4710-96fb-eb8c5e914a6b","ios":"levelo://app?vid=c11cab47-114d-4710-96fb-eb8c5e914a6b"},"vehicle_type_id":"4","last_reported":1732057739,"current_range_meters":24800,"station_id":"ce4bgvp2rcd13ifvqct0","pricing_plan_id":"cebpf4jnsgd1na2vs0mg"},{"bike_id":"4ba8e894-e21f-4601-8e88-8daeaf278168","system_id":"levelo_inurba_marseille","lat":43.25933,"lon":5.40905,"is_reserved":false,"is_disabled":false,"rental_uris":{"android":"levelo://app?vid=4ba8e894-e21f-4601-8e88-8daeaf278168","ios":"levelo://app?vid=4ba8e894-e21f-4601-8e88-8daeaf278168"},"vehicle_type_id":"4","last_reported":1732057739,"current_range_meters":20000,"station_id":"ce4bhm92rcd13ifvqglg","pricing_plan_id":"cebpf4jnsgd1na2vs0mg"},{"bike_id":"b4bfeb33-fa76-4cb4-bc86-52a91514afc1","system_id":"levelo_inurba_marseille","lat":43.27671,"lon":5.38884,"is_reserved":false,"is_disabled":false,"rental_uris":{"android":"levelo://app?vid=b4bfeb33-fa76-4cb4-bc86-52a91514afc1","ios":"levelo://app?vid=b4bfeb33-fa76-4cb4-bc86-52a91514afc1"},"vehicle_type_id":"4","last_reported":1732057739,"current_range_meters":27600,"station_id":"ce4bhi12rcd13ifvqfo0","pricing_plan_id":"cebpf4jnsgd1na2vs0mg"},{"bike_id":"37a60cdd-3a67-4238-aa47-30b8b888a709","system_id":"levelo_inurba_marseille","lat":43.29285,"lon":5.40127,"is_reserved":false,"is_disabled":false,"rental_uris":{"android":"levelo://app?vid=37a60cdd-3a67-4238-aa47-30b8b888a709","ios":"levelo://app?vid=37a60cdd-3a67-4238-aa47-30b8b888a709"},"vehicle_type_id":"4","last_reported":1732057739,"current_range_meters":29600,"station_id":"ce4bh312rcd13ifvqdk0","pricing_plan_id":"cebpf4jnsgd1na2vs0mg"},{"bike_id":"85308c21-24d3-4ff7-9073-790d239a9901","system_id":"levelo_inurba_marseille","lat":43.3107,"lon":5.38347,"is_reserved":false,"is_disabled":true,"rental_uris":{"android":"levelo://app?vid=85308c21-24d3-4ff7-9073-790d239a9901","ios":"levelo://app?vid=85308c21-24d3-4ff7-9073-790d239a9901"},"vehicle_type_id":"4","last_reported":1732057739,"current_range_meters":35200,"station_id":"ce4bgv92rcd13ifvqcr0","pricing_plan_id":"cebpf4jnsgd1na2vs0mg"},{"bike_id":"de208543-9b1f-469d-95ed-a601b777cb16","system_id":"levelo_inurba_marseille","lat":43.24177,"lon":5.39728,"is_reserved":false,"is_disabled":true,"rental_uris":{"android":"levelo://app?vid=de208543-9b1f-469d-95ed-a601b777cb16","ios":"levelo://app?vid=de208543-9b1f-469d-95ed-a601b777cb16"},"vehicle_type_id":"4","last_reported":1732057739,"current_range_meters":400,"station_id":"ce4bhn12rcd13ifvqgpg","pricing_plan_id":"cebpf4jnsgd1na2vs0mg"},{"bike_id":"f2ca0235-9c69-43c7-abf6-aae5dc943f37","system_id":"levelo_inurba_marseille","lat":43.29785,"lon":5.37108,"is_reserved":false,"is_disabled":false,"rental_uris":{"android":"levelo://app?vid=f2ca0235-9c69-43c7-abf6-aae5dc943f37","ios":"levelo://app?vid=f2ca0235-9c69-43c7-abf6-aae5dc943f37"},"vehicle_type_id":"4","last_reported":1732057739,"current_range_meters":38800,"station_id":"ce4bgop2rcd13ifvqc1g","pricing_plan_id":"cebpf4jnsgd1na2vs0mg"},{"bike_id":"6b4fd609-2a55-4613-900a-ff42f37e922f","system_id":"levelo_inurba_marseille","lat":43.2467,"lon":5.38157,"is_reserved":false,"is_disabled":false,"rental_uris":{"android":"levelo://app?vid=6b4fd609-2a55-4613-900a-ff42f37e922f","ios":"levelo://app?vid=6b4fd609-2a55-4613-900a-ff42f37e922f"},"vehicle_type_id":"4","last_reported":1732057739,"current_range_meters":17600,"station_id":"ce4bhih2rcd13ifvqfr0","pricing_plan_id":"cebpf4jnsgd1na2vs0mg"},{"bike_id":"17868a27-5db2-4257-a0c1-5fe38f8156cc","system_id":"levelo_inurba_marseille","lat":43.28436,"lon":5.37532,"is_reserved":false,"is_disabled":false,"rental_uris":{"android":"levelo://app?vid=17868a27-5db2-4257-a0c1-5fe38f8156cc","ios":"levelo://app?vid=17868a27-5db2-4257-a0c1-5fe38f8156cc"},"vehicle_type_id":"4","last_reported":1732057739,"current_range_meters":22800,"station_id":"ce4bh412rcd13ifvqds0","pricing_plan_id":"cebpf4jnsgd1na2vs0mg"},{"bike_id":"2b5d7a4d-5b25-4b80-84d9-e10589e3033b","system_id":"levelo_inurba_marseille","lat":43.23968,"lon":5.3664,"is_reserved":false,"is_disabled":true,"rental_uris":{"android":"levelo://app?vid=2b5d7a4d-5b25-4b80-84d9-e10589e3033b","ios":"levelo://app?vid=2b5d7a4d-5b25-4b80-84d9-e10589e3033b"},"vehicle_type_id":"4","last_reported":1732057739,"current_range_meters":30000,"station_id":"ce4bhi12rcd13ifvqfp0","pricing_plan_id":"cebpf4jnsgd1na2vs0mg"},{"bike_id":"645e3cc3-5d53-4fad-b652-8da2295d3996","system_id":"levelo_inurba_marseille","lat":43.31757,"lon":5.39017,"is_reserved":false,"is_disabled":false,"rental_uris":{"android":"levelo://app?vid=645e3cc3-5d53-4fad-b652-8da2295d3996","ios":"levelo://app?vid=645e3cc3-5d53-4fad-b652-8da2295d3996"},"vehicle_type_id":"4","last_reported":1732057739,"current_range_meters":25200,"station_id":"ce4bhqp2rcd13ifvqhng","pricing_plan_id":"cebpf4jnsgd1na2vs0mg"},{"bike_id":"ccf5eb11-17c1-4eb7-8e26-b241115b02a8","system_id":"levelo_inurba_marseille","lat":43.29255,"lon":5.40894,"is_reserved":false,"is_disabled":false,"rental_uris":{"android":"levelo://app?vid=ccf5eb11-17c1-4eb7-8e26-b241115b02a8","ios":"levelo://app?vid=ccf5eb11-17c1-4eb7-8e26-b241115b02a8"},"vehicle_type_id":"4","last_reported":1732057739,"current_range_meters":38800,"station_id":"ce4bh192rcd13ifvqdc0","pricing_plan_id":"cebpf4jnsgd1na2vs0mg"},{"bike_id":"e3511c0c-eb2b-4100-bb2d-c5ebcd644bea","system_id":"levelo_inurba_marseille","lat":43.23955,"lon":5.36635,"is_reserved":false,"is_disabled":true,"rental_uris":{"android":"levelo://app?vid=e3511c0c-eb2b-4100-bb2d-c5ebcd644bea","ios":"levelo://app?vid=e3511c0c-eb2b-4100-bb2d-c5ebcd644bea"},"vehicle_type_id":"4","last_reported":1732057739,"current_range_meters":33200,"station_id":"ce4bhi12rcd13ifvqfp0","pricing_plan_id":"cebpf4jnsgd1na2vs0mg"},{"bike_id":"7dc2540e-5c15-49cc-843d-b22dafd2ded0","system_id":"levelo_inurba_marseille","lat":43.33762,"lon":5.37441,"is_reserved":false,"is_disabled":false,"rental_uris":{"android":"levelo://app?vid=7dc2540e-5c15-49cc-843d-b22dafd2ded0","ios":"levelo://app?vid=7dc2540e-5c15-49cc-843d-b22dafd2ded0"},"vehicle_type_id":"4","last_reported":1732057739,"current_range_meters":32400,"station_id":"","pricing_plan_id":"cebpf4jnsgd1na2vs0mg"},{"bike_id":"5917a06d-1a89-42ee-9c96-70b3e49f2520","system_id":"levelo_inurba_marseille","lat":43.31703,"lon":5.40477,"is_reserved":false,"is_disabled":true,"rental_uris":{"android":"levelo://app?vid=5917a06d-1a89-42ee-9c96-70b3e49f2520","ios":"levelo://app?vid=5917a06d-1a89-42ee-9c96-70b3e49f2520"},"vehicle_type_id":"4","last_reported":1732057739,"current_range_meters":9200,"station_id":"ce4bh012rcd13ifvqd00","pricing_plan_id":"cebpf4jnsgd1na2vs0mg"},{"bike_id":"b98731ce-195e-491a-bcb1-55092ebf0c68","system_id":"levelo_inurba_marseille","lat":43.277701,"lon":5.389211,"is_reserved":false,"is_disabled":false,"rental_uris":{"android":"levelo://app?vid=b98731ce-195e-491a-bcb1-55092ebf0c68","ios":"levelo://app?vid=b98731ce-195e-491a-bcb1-55092ebf0c68"},"vehicle_type_id":"4","last_reported":1732057739,"current_range_meters":25200,"station_id":"ce4bhjp2rcd13ifvqga0","pricing_plan_id":"cebpf4jnsgd1na2vs0mg"},{"bike_id":"497454ce-e4eb-4dce-94e8-18190e4c429b","system_id":"levelo_inurba_marseille","lat":43.27819,"lon":5.40716,"is_reserved":false,"is_disabled":true,"rental_uris":{"android":"levelo://app?vid=497454ce-e4eb-4dce-94e8-18190e4c429b","ios":"levelo://app?vid=497454ce-e4eb-4dce-94e8-18190e4c429b"},"vehicle_type_id":"4","last_reported":1732057739,"current_range_meters":0,"station_id":"ce4bhnh2rcd13ifvqgtg","pricing_plan_id":"cebpf4jnsgd1na2vs0mg"},{"bike_id":"ecf6e5c4-c87c-4b1a-a8c7-1e6b23333b2c","system_id":"levelo_inurba_marseille","lat":43.30298,"lon":5.39204,"is_reserved":false,"is_disabled":false,"rental_uris":{"android":"levelo://app?vid=ecf6e5c4-c87c-4b1a-a8c7-1e6b23333b2c","ios":"levelo://app?vid=ecf6e5c4-c87c-4b1a-a8c7-1e6b23333b2c"},"vehicle_type_id":"4","last_reported":1732057739,"current_range_meters":37600,"station_id":"ce4bgkh2rcd13ifvqbk0","pricing_plan_id":"cebpf4jnsgd1na2vs0mg"},{"bike_id":"55f95fd1-6acd-4347-bb4c-6a144aacc036","system_id":"levelo_inurba_marseille","lat":43.284608,"lon":5.358841,"is_reserved":false,"is_disabled":false,"rental_uris":{"android":"levelo://app?vid=55f95fd1-6acd-4347-bb4c-6a144aacc036","ios":"levelo://app?vid=55f95fd1-6acd-4347-bb4c-6a144aacc036"},"vehicle_type_id":"4","last_reported":1732057739,"current_range_meters":38800,"station_id":"ce4bhah2rcd13ifvqei0","pricing_plan_id":"cebpf4jnsgd1na2vs0mg"},{"bike_id":"5f07201c-bcb3-434b-a8fd-71f1088cb631","system_id":"levelo_inurba_marseille","lat":43.33718,"lon":5.39181,"is_reserved":false,"is_disabled":false,"rental_uris":{"android":"levelo://app?vid=5f07201c-bcb3-434b-a8fd-71f1088cb631","ios":"levelo://app?vid=5f07201c-bcb3-434b-a8fd-71f1088cb631"},"vehicle_type_id":"4","last_reported":1732057739,"current_range_meters":38400,"station_id":"ce4bhr92rcd13ifvqhsg","pricing_plan_id":"cebpf4jnsgd1na2vs0mg"},{"bike_id":"b4814d7e-aae0-4894-9e10-4c84e16c4d8f","system_id":"levelo_inurba_marseille","lat":43.24387,"lon":5.37057,"is_reserved":false,"is_disabled":false,"rental_uris":{"android":"levelo://app?vid=b4814d7e-aae0-4894-9e10-4c84e16c4d8f","ios":"levelo://app?vid=b4814d7e-aae0-4894-9e10-4c84e16c4d8f"},"vehicle_type_id":"4","last_reported":1732057739,"current_range_meters":37600,"station_id":"ce4bhhh2rcd13ifvqfk0","pricing_plan_id":"cebpf4jnsgd1na2vs0mg"},{"bike_id":"25073dac-1c4b-4235-88f2-ba7b09ca22ac","system_id":"levelo_inurba_marseille","lat":43.32286,"lon":5.38277,"is_reserved":false,"is_disabled":false,"rental_uris":{"android":"levelo://app?vid=25073dac-1c4b-4235-88f2-ba7b09ca22ac","ios":"levelo://app?vid=25073dac-1c4b-4235-88f2-ba7b09ca22ac"},"vehicle_type_id":"4","last_reported":1732057739,"current_range_meters":19600,"station_id":"ce4bhr12rcd13ifvqhqg","pricing_plan_id":"cebpf4jnsgd1na2vs0mg"},{"bike_id":"9251bcb3-27eb-4dbd-921e-f94d1d05e67d","system_id":"levelo_inurba_marseille","lat":43.28709,"lon":5.3999,"is_reserved":false,"is_disabled":false,"rental_uris":{"android":"levelo://app?vid=9251bcb3-27eb-4dbd-921e-f94d1d05e67d","ios":"levelo://app?vid=9251bcb3-27eb-4dbd-921e-f94d1d05e67d"},"vehicle_type_id":"4","last_reported":1732057739,"current_range_meters":30400,"station_id":"ce4bho92rcd13ifvqh3g","pricing_plan_id":"cebpf4jnsgd1na2vs0mg"},{"bike_id":"37f14134-d611-451c-9aaa-25a59bd49fe3","system_id":"levelo_inurba_marseille","lat":43.2987,"lon":5.39737,"is_reserved":false,"is_disabled":true,"rental_uris":{"android":"levelo://app?vid=37f14134-d611-451c-9aaa-25a59bd49fe3","ios":"levelo://app?vid=37f14134-d611-451c-9aaa-25a59bd49fe3"},"vehicle_type_id":"4","last_reported":1732057739,"current_range_meters":38400,"station_id":"ce4bh0h2rcd13ifvqd50","pricing_plan_id":"cebpf4jnsgd1na2vs0mg"},{"bike_id":"18d8f13c-ad4d-42dd-80a9-d7ff6a44d211","system_id":"levelo_inurba_marseille","lat":43.29881,"lon":5.39738,"is_reserved":false,"is_disabled":false,"rental_uris":{"android":"levelo://app?vid=18d8f13c-ad4d-42dd-80a9-d7ff6a44d211","ios":"levelo://app?vid=18d8f13c-ad4d-42dd-80a9-d7ff6a44d211"},"vehicle_type_id":"4","last_reported":1732057739,"current_range_meters":38800,"station_id":"ce4bh0h2rcd13ifvqd50","pricing_plan_id":"cebpf4jnsgd1na2vs0mg"},{"bike_id":"3b7d8bb6-9afb-4f3e-94ad-7bc3814d280b","system_id":"levelo_inurba_marseille","lat":43.28435,"lon":5.39201,"is_reserved":false,"is_disabled":false,"rental_uris":{"android":"levelo://app?vid=3b7d8bb6-9afb-4f3e-94ad-7bc3814d280b","ios":"levelo://app?vid=3b7d8bb6-9afb-4f3e-94ad-7bc3814d280b"},"vehicle_type_id":"4","last_reported":1732057739,"current_range_meters":38800,"station_id":"ce4bhoh2rcd13ifvqh5g","pricing_plan_id":"cebpf4jnsgd1na2vs0mg"},{"bike_id":"dc7fa527-4def-471c-bced-6291e149d306","system_id":"levelo_inurba_marseille","lat":43.278106,"lon":5.407118,"is_reserved":false,"is_disabled":true,"rental_uris":{"android":"levelo://app?vid=dc7fa527-4def-471c-bced-6291e149d306","ios":"levelo://app?vid=dc7fa527-4def-471c-bced-6291e149d306"},"vehicle_type_id":"4","last_reported":1732057739,"current_range_meters":22800,"station_id":"ce4bhnh2rcd13ifvqgtg","pricing_plan_id":"cebpf4jnsgd1na2vs0mg"},{"bike_id":"fe466b38-f08e-4c08-bae1-f457152e4063","system_id":"levelo_inurba_marseille","lat":43.29415,"lon":5.38614,"is_reserved":false,"is_disabled":true,"rental_uris":{"android":"levelo://app?vid=fe466b38-f08e-4c08-bae1-f457152e4063","ios":"levelo://app?vid=fe466b38-f08e-4c08-bae1-f457152e4063"},"vehicle_type_id":"4","last_reported":1732057739,"current_range_meters":400,"station_id":"ce4bh2h2rcd13ifvqdh0","pricing_plan_id":"cebpf4jnsgd1na2vs0mg"},{"bike_id":"d674a550-723f-4e20-a0c2-89aa344c2ade","system_id":"levelo_inurba_marseille","lat":43.28201,"lon":5.4439,"is_reserved":false,"is_disabled":true,"rental_uris":{"android":"levelo://app?vid=d674a550-723f-4e20-a0c2-89aa344c2ade","ios":"levelo://app?vid=d674a550-723f-4e20-a0c2-89aa344c2ade"},"vehicle_type_id":"4","last_reported":1732057739,"current_range_meters":0,"station_id":"","pricing_plan_id":"cebpf4jnsgd1na2vs0mg"},{"bike_id":"676f965d-ced7-4bcf-9e72-3f3518021c38","system_id":"levelo_inurba_marseille","lat":43.30659,"lon":5.40092,"is_reserved":false,"is_disabled":false,"rental_uris":{"android":"levelo://app?vid=676f965d-ced7-4bcf-9e72-3f3518021c38","ios":"levelo://app?vid=676f965d-ced7-4bcf-9e72-3f3518021c38"},"vehicle_type_id":"4","last_reported":1732057739,"current_range_meters":32400,"station_id":"ce4bh112rcd13ifvqda0","pricing_plan_id":"cebpf4jnsgd1na2vs0mg"},{"bike_id":"73de2cc8-4db3-417a-9abb-3cffa18feca4","system_id":"levelo_inurba_marseille","lat":43.28412,"lon":5.37513,"is_reserved":false,"is_disabled":false,"rental_uris":{"android":"levelo://app?vid=73de2cc8-4db3-417a-9abb-3cffa18feca4","ios":"levelo://app?vid=73de2cc8-4db3-417a-9abb-3cffa18feca4"},"vehicle_type_id":"4","last_reported":1732057739,"current_range_meters":38400,"station_id":"ce4bh412rcd13ifvqds0","pricing_plan_id":"cebpf4jnsgd1na2vs0mg"},{"bike_id":"f5cf085e-8694-4c6f-ba9c-aa6e0d3c58c6","system_id":"levelo_inurba_marseille","lat":43.33657,"lon":5.35571,"is_reserved":false,"is_disabled":true,"rental_uris":{"android":"levelo://app?vid=f5cf085e-8694-4c6f-ba9c-aa6e0d3c58c6","ios":"levelo://app?vid=f5cf085e-8694-4c6f-ba9c-aa6e0d3c58c6"},"vehicle_type_id":"4","last_reported":1732057739,"current_range_meters":16000,"station_id":"","pricing_plan_id":"cebpf4jnsgd1na2vs0mg"},{"bike_id":"3d2beca7-eef0-4bae-98e1-8b3de347272c","system_id":"levelo_inurba_marseille","lat":43.23188,"lon":5.35558,"is_reserved":false,"is_disabled":false,"rental_uris":{"android":"levelo://app?vid=3d2beca7-eef0-4bae-98e1-8b3de347272c","ios":"levelo://app?vid=3d2beca7-eef0-4bae-98e1-8b3de347272c"},"vehicle_type_id":"4","last_reported":1732057739,"current_range_meters":39200,"station_id":"ce4bhu92rcd13ifvqi70","pricing_plan_id":"cebpf4jnsgd1na2vs0mg"},{"bike_id":"3f8c5774-909d-4ea2-942c-a3a7382a3742","system_id":"levelo_inurba_marseille","lat":43.28719,"lon":5.39979,"is_reserved":false,"is_disabled":false,"rental_uris":{"android":"levelo://app?vid=3f8c5774-909d-4ea2-942c-a3a7382a3742","ios":"levelo://app?vid=3f8c5774-909d-4ea2-942c-a3a7382a3742"},"vehicle_type_id":"4","last_reported":1732057739,"current_range_meters":40000,"station_id":"ce4bho92rcd13ifvqh3g","pricing_plan_id":"cebpf4jnsgd1na2vs0mg"},{"bike_id":"5b0208d6-124b-4771-8c47-0ad7da20f926","system_id":"levelo_inurba_marseille","lat":43.32368,"lon":5.38883,"is_reserved":false,"is_disabled":false,"rental_uris":{"android":"levelo://app?vid=5b0208d6-124b-4771-8c47-0ad7da20f926","ios":"levelo://app?vid=5b0208d6-124b-4771-8c47-0ad7da20f926"},"vehicle_type_id":"4","last_reported":1732057739,"current_range_meters":6800,"station_id":"ce4bhqp2rcd13ifvqhog","pricing_plan_id":"cebpf4jnsgd1na2vs0mg"},{"bike_id":"1e34b337-e632-4079-8f96-e7d46b527251","system_id":"levelo_inurba_marseille","lat":43.31764,"lon":5.39015,"is_reserved":false,"is_disabled":false,"rental_uris":{"android":"levelo://app?vid=1e34b337-e632-4079-8f96-e7d46b527251","ios":"levelo://app?vid=1e34b337-e632-4079-8f96-e7d46b527251"},"vehicle_type_id":"4","last_reported":1732057739,"current_range_meters":20400,"station_id":"ce4bhqp2rcd13ifvqhng","pricing_plan_id":"cebpf4jnsgd1na2vs0mg"},{"bike_id":"0c24734b-cb7a-4921-b1b5-53b648e4249b","system_id":"levelo_inurba_marseille","lat":43.29939,"lon":5.36553,"is_reserved":false,"is_disabled":false,"rental_uris":{"android":"levelo://app?vid=0c24734b-cb7a-4921-b1b5-53b648e4249b","ios":"levelo://app?vid=0c24734b-cb7a-4921-b1b5-53b648e4249b"},"vehicle_type_id":"4","last_reported":1732057739,"current_range_meters":30400,"station_id":"ce4bgm92rcd13ifvqbr0","pricing_plan_id":"cebpf4jnsgd1na2vs0mg"},{"bike_id":"e008ea5b-9c85-47a4-8557-75f660f9a13d","system_id":"levelo_inurba_marseille","lat":43.24389,"lon":5.37056,"is_reserved":false,"is_disabled":false,"rental_uris":{"android":"levelo://app?vid=e008ea5b-9c85-47a4-8557-75f660f9a13d","ios":"levelo://app?vid=e008ea5b-9c85-47a4-8557-75f660f9a13d"},"vehicle_type_id":"4","last_reported":1732057739,"current_range_meters":38800,"station_id":"ce4bhhh2rcd13ifvqfk0","pricing_plan_id":"cebpf4jnsgd1na2vs0mg"},{"bike_id":"d8b574ec-eb24-4dbf-933b-1eec6cb797f1","system_id":"levelo_inurba_marseille","lat":43.28489,"lon":5.38548,"is_reserved":false,"is_disabled":false,"rental_uris":{"android":"levelo://app?vid=d8b574ec-eb24-4dbf-933b-1eec6cb797f1","ios":"levelo://app?vid=d8b574ec-eb24-4dbf-933b-1eec6cb797f1"},"vehicle_type_id":"4","last_reported":1732057739,"current_range_meters":12800,"station_id":"ce4bh8p2rcd13ifvqeb0","pricing_plan_id":"cebpf4jnsgd1na2vs0mg"},{"bike_id":"acba0b21-00fa-4583-ba49-9bd8606b9a7f","system_id":"levelo_inurba_marseille","lat":43.30139,"lon":5.37412,"is_reserved":false,"is_disabled":false,"rental_uris":{"android":"levelo://app?vid=acba0b21-00fa-4583-ba49-9bd8606b9a7f","ios":"levelo://app?vid=acba0b21-00fa-4583-ba49-9bd8606b9a7f"},"vehicle_type_id":"4","last_reported":1732057739,"current_range_meters":27200,"station_id":"ce4bgs92rcd13ifvqcc0","pricing_plan_id":"cebpf4jnsgd1na2vs0mg"},{"bike_id":"b3240729-8eb2-4095-8f89-1172cda3d8d4","system_id":"levelo_inurba_marseille","lat":43.29794,"lon":5.40405,"is_reserved":false,"is_disabled":false,"rental_uris":{"android":"levelo://app?vid=b3240729-8eb2-4095-8f89-1172cda3d8d4","ios":"levelo://app?vid=b3240729-8eb2-4095-8f89-1172cda3d8d4"},"vehicle_type_id":"4","last_reported":1732057739,"current_range_meters":39200,"station_id":"ce4bh112rcd13ifvqd90","pricing_plan_id":"cebpf4jnsgd1na2vs0mg"},{"bike_id":"78db538b-97e7-46fe-9ca5-f7f563c1f152","system_id":"levelo_inurba_marseille","lat":43.31326,"lon":5.39692,"is_reserved":false,"is_disabled":false,"rental_uris":{"android":"levelo://app?vid=78db538b-97e7-46fe-9ca5-f7f563c1f152","ios":"levelo://app?vid=78db538b-97e7-46fe-9ca5-f7f563c1f152"},"vehicle_type_id":"4","last_reported":1732057739,"current_range_meters":30000,"station_id":"ce4bgvp2rcd13ifvqcu0","pricing_plan_id":"cebpf4jnsgd1na2vs0mg"},{"bike_id":"68b113af-47dc-4e14-a847-8c837a89a9d9","system_id":"levelo_inurba_marseille","lat":43.317,"lon":5.40466,"is_reserved":false,"is_disabled":false,"rental_uris":{"android":"levelo://app?vid=68b113af-47dc-4e14-a847-8c837a89a9d9","ios":"levelo://app?vid=68b113af-47dc-4e14-a847-8c837a89a9d9"},"vehicle_type_id":"4","last_reported":1732057739,"current_range_meters":38800,"station_id":"ce4bh012rcd13ifvqd00","pricing_plan_id":"cebpf4jnsgd1na2vs0mg"},{"bike_id":"530767e5-3c4a-4505-9f80-667edc6200df","system_id":"levelo_inurba_marseille","lat":43.29784,"lon":5.39355,"is_reserved":false,"is_disabled":false,"rental_uris":{"android":"levelo://app?vid=530767e5-3c4a-4505-9f80-667edc6200df","ios":"levelo://app?vid=530767e5-3c4a-4505-9f80-667edc6200df"},"vehicle_type_id":"4","last_reported":1732057739,"current_range_meters":38000,"station_id":"chh1huq6cuj3fo74tm60","pricing_plan_id":"cebpf4jnsgd1na2vs0mg"},{"bike_id":"0587f464-8fd6-430d-9045-f727e016e5fc","system_id":"levelo_inurba_marseille","lat":43.28462,"lon":5.35896,"is_reserved":false,"is_disabled":false,"rental_uris":{"android":"levelo://app?vid=0587f464-8fd6-430d-9045-f727e016e5fc","ios":"levelo://app?vid=0587f464-8fd6-430d-9045-f727e016e5fc"},"vehicle_type_id":"4","last_reported":1732057739,"current_range_meters":38800,"station_id":"ce4bhah2rcd13ifvqei0","pricing_plan_id":"cebpf4jnsgd1na2vs0mg"},{"bike_id":"d72ab1d2-76e2-49c5-9d16-464cfb71a81c","system_id":"levelo_inurba_marseille","lat":43.33604,"lon":5.41026,"is_reserved":false,"is_disabled":false,"rental_uris":{"android":"levelo://app?vid=d72ab1d2-76e2-49c5-9d16-464cfb71a81c","ios":"levelo://app?vid=d72ab1d2-76e2-49c5-9d16-464cfb71a81c"},"vehicle_type_id":"4","last_reported":1732057739,"current_range_meters":11200,"station_id":"ce4bhqh2rcd13ifvqhmg","pricing_plan_id":"cebpf4jnsgd1na2vs0mg"},{"bike_id":"73515bf0-f044-4f51-a059-4dbe3feae4bb","system_id":"levelo_inurba_marseille","lat":43.31531,"lon":5.38031,"is_reserved":false,"is_disabled":false,"rental_uris":{"android":"levelo://app?vid=73515bf0-f044-4f51-a059-4dbe3feae4bb","ios":"levelo://app?vid=73515bf0-f044-4f51-a059-4dbe3feae4bb"},"vehicle_type_id":"4","last_reported":1732057739,"current_range_meters":19600,"station_id":"ce4bhsp2rcd13ifvqi50","pricing_plan_id":"cebpf4jnsgd1na2vs0mg"},{"bike_id":"5edece7b-2d6c-4f25-8e64-66d0f40abaac","system_id":"levelo_inurba_marseille","lat":43.28852,"lon":5.35843,"is_reserved":false,"is_disabled":false,"rental_uris":{"android":"levelo://app?vid=5edece7b-2d6c-4f25-8e64-66d0f40abaac","ios":"levelo://app?vid=5edece7b-2d6c-4f25-8e64-66d0f40abaac"},"vehicle_type_id":"4","last_reported":1732057739,"current_range_meters":10000,"station_id":"ce4bhb12rcd13ifvqem0","pricing_plan_id":"cebpf4jnsgd1na2vs0mg"},{"bike_id":"1769703b-9903-454d-ac38-a754f724b036","system_id":"levelo_inurba_marseille","lat":43.25582,"lon":5.38228,"is_reserved":false,"is_disabled":false,"rental_uris":{"android":"levelo://app?vid=1769703b-9903-454d-ac38-a754f724b036","ios":"levelo://app?vid=1769703b-9903-454d-ac38-a754f724b036"},"vehicle_type_id":"4","last_reported":1732057739,"current_range_meters":38400,"station_id":"ce4bhih2rcd13ifvqfs0","pricing_plan_id":"cebpf4jnsgd1na2vs0mg"},{"bike_id":"bc249293-6395-4334-b84a-652f70f197fc","system_id":"levelo_inurba_marseille","lat":43.27631,"lon":5.42646,"is_reserved":false,"is_disabled":true,"rental_uris":{"android":"levelo://app?vid=bc249293-6395-4334-b84a-652f70f197fc","ios":"levelo://app?vid=bc249293-6395-4334-b84a-652f70f197fc"},"vehicle_type_id":"4","last_reported":1732057739,"current_range_meters":0,"station_id":"","pricing_plan_id":"cebpf4jnsgd1na2vs0mg"},{"bike_id":"ed4fa134-c8f3-40e1-ba97-1306c197c2c6","system_id":"levelo_inurba_marseille","lat":43.30319,"lon":5.40442,"is_reserved":false,"is_disabled":true,"rental_uris":{"android":"levelo://app?vid=ed4fa134-c8f3-40e1-ba97-1306c197c2c6","ios":"levelo://app?vid=ed4fa134-c8f3-40e1-ba97-1306c197c2c6"},"vehicle_type_id":"4","last_reported":1732057739,"current_range_meters":22800,"station_id":"ce4bh012rcd13ifvqd10","pricing_plan_id":"cebpf4jnsgd1na2vs0mg"},{"bike_id":"5ee18f5d-f31a-498d-8043-5a9ebb2a722c","system_id":"levelo_inurba_marseille","lat":43.27174,"lon":5.40995,"is_reserved":false,"is_disabled":false,"rental_uris":{"android":"levelo://app?vid=5ee18f5d-f31a-498d-8043-5a9ebb2a722c","ios":"levelo://app?vid=5ee18f5d-f31a-498d-8043-5a9ebb2a722c"},"vehicle_type_id":"4","last_reported":1732057739,"current_range_meters":6000,"station_id":"ce4bhl12rcd13ifvqgf0","pricing_plan_id":"cebpf4jnsgd1na2vs0mg"},{"bike_id":"be1dd5f8-91fc-4786-8461-76cd869dae13","system_id":"levelo_inurba_marseille","lat":43.31982,"lon":5.41584,"is_reserved":false,"is_disabled":true,"rental_uris":{"android":"levelo://app?vid=be1dd5f8-91fc-4786-8461-76cd869dae13","ios":"levelo://app?vid=be1dd5f8-91fc-4786-8461-76cd869dae13"},"vehicle_type_id":"4","last_reported":1732057739,"current_range_meters":24400,"station_id":"","pricing_plan_id":"cebpf4jnsgd1na2vs0mg"},{"bike_id":"7d36b6f8-a116-4300-ad56-0f3d069b9707","system_id":"levelo_inurba_marseille","lat":43.30788,"lon":5.37657,"is_reserved":false,"is_disabled":false,"rental_uris":{"android":"levelo://app?vid=7d36b6f8-a116-4300-ad56-0f3d069b9707","ios":"levelo://app?vid=7d36b6f8-a116-4300-ad56-0f3d069b9707"},"vehicle_type_id":"4","last_reported":1732057739,"current_range_meters":14800,"station_id":"ce4bgv92rcd13ifvqcq0","pricing_plan_id":"cebpf4jnsgd1na2vs0mg"},{"bike_id":"ed9d2638-89bd-4a04-8621-ef66a054c54c","system_id":"levelo_inurba_marseille","lat":43.28405,"lon":5.3752,"is_reserved":false,"is_disabled":false,"rental_uris":{"android":"levelo://app?vid=ed9d2638-89bd-4a04-8621-ef66a054c54c","ios":"levelo://app?vid=ed9d2638-89bd-4a04-8621-ef66a054c54c"},"vehicle_type_id":"4","last_reported":1732057739,"current_range_meters":29600,"station_id":"ce4bh412rcd13ifvqds0","pricing_plan_id":"cebpf4jnsgd1na2vs0mg"},{"bike_id":"448c0494-6c2e-4f1a-8eaf-444f91d55f88","system_id":"levelo_inurba_marseille","lat":43.28932,"lon":5.38404,"is_reserved":false,"is_disabled":false,"rental_uris":{"android":"levelo://app?vid=448c0494-6c2e-4f1a-8eaf-444f91d55f88","ios":"levelo://app?vid=448c0494-6c2e-4f1a-8eaf-444f91d55f88"},"vehicle_type_id":"4","last_reported":1732057739,"current_range_meters":37600,"station_id":"ce4bh612rcd13ifvqe6g","pricing_plan_id":"cebpf4jnsgd1na2vs0mg"},{"bike_id":"684f2c25-8cf2-48b7-9bb4-10fd9f7cd1e7","system_id":"levelo_inurba_marseille","lat":43.28271,"lon":5.35078,"is_reserved":false,"is_disabled":false,"rental_uris":{"android":"levelo://app?vid=684f2c25-8cf2-48b7-9bb4-10fd9f7cd1e7","ios":"levelo://app?vid=684f2c25-8cf2-48b7-9bb4-10fd9f7cd1e7"},"vehicle_type_id":"4","last_reported":1732057739,"current_range_meters":20800,"station_id":"ce4bhbp2rcd13ifvqerg","pricing_plan_id":"cebpf4jnsgd1na2vs0mg"},{"bike_id":"80ed2145-0455-4da8-ae4a-e36065982ce3","system_id":"levelo_inurba_marseille","lat":43.32365,"lon":5.3888,"is_reserved":false,"is_disabled":false,"rental_uris":{"android":"levelo://app?vid=80ed2145-0455-4da8-ae4a-e36065982ce3","ios":"levelo://app?vid=80ed2145-0455-4da8-ae4a-e36065982ce3"},"vehicle_type_id":"4","last_reported":1732057739,"current_range_meters":11200,"station_id":"ce4bhqp2rcd13ifvqhog","pricing_plan_id":"cebpf4jnsgd1na2vs0mg"},{"bike_id":"b6c2b1a9-3512-4a78-913e-78738da347cf","system_id":"levelo_inurba_marseille","lat":43.28572,"lon":5.39499,"is_reserved":false,"is_disabled":true,"rental_uris":{"android":"levelo://app?vid=b6c2b1a9-3512-4a78-913e-78738da347cf","ios":"levelo://app?vid=b6c2b1a9-3512-4a78-913e-78738da347cf"},"vehicle_type_id":"4","last_reported":1732057739,"current_range_meters":0,"station_id":"ce4bh292rcd13ifvqdg0","pricing_plan_id":"cebpf4jnsgd1na2vs0mg"},{"bike_id":"bc4c3d2d-720b-4593-95a6-eec8f8594426","system_id":"levelo_inurba_marseille","lat":43.2558,"lon":5.38231,"is_reserved":false,"is_disabled":false,"rental_uris":{"android":"levelo://app?vid=bc4c3d2d-720b-4593-95a6-eec8f8594426","ios":"levelo://app?vid=bc4c3d2d-720b-4593-95a6-eec8f8594426"},"vehicle_type_id":"4","last_reported":1732057739,"current_range_meters":38400,"station_id":"ce4bhih2rcd13ifvqfs0","pricing_plan_id":"cebpf4jnsgd1na2vs0mg"},{"bike_id":"f198b97b-88d4-49aa-b205-4610520421a6","system_id":"levelo_inurba_marseille","lat":43.33022,"lon":5.39037,"is_reserved":false,"is_disabled":false,"rental_uris":{"android":"levelo://app?vid=f198b97b-88d4-49aa-b205-4610520421a6","ios":"levelo://app?vid=f198b97b-88d4-49aa-b205-4610520421a6"},"vehicle_type_id":"4","last_reported":1732057739,"current_range_meters":32400,"station_id":"ce4bhr92rcd13ifvqhrg","pricing_plan_id":"cebpf4jnsgd1na2vs0mg"},{"bike_id":"6fe65320-959e-41bb-8132-72e6c31cb31d","system_id":"levelo_inurba_marseille","lat":43.28084,"lon":5.39661,"is_reserved":false,"is_disabled":true,"rental_uris":{"android":"levelo://app?vid=6fe65320-959e-41bb-8132-72e6c31cb31d","ios":"levelo://app?vid=6fe65320-959e-41bb-8132-72e6c31cb31d"},"vehicle_type_id":"4","last_reported":1732057739,"current_range_meters":38800,"station_id":"ce4bho12rcd13ifvqh2g","pricing_plan_id":"cebpf4jnsgd1na2vs0mg"},{"bike_id":"abf2e417-7fd0-4f5e-9afa-64af93f85e22","system_id":"levelo_inurba_marseille","lat":43.31994,"lon":5.3816,"is_reserved":false,"is_disabled":false,"rental_uris":{"android":"levelo://app?vid=abf2e417-7fd0-4f5e-9afa-64af93f85e22","ios":"levelo://app?vid=abf2e417-7fd0-4f5e-9afa-64af93f85e22"},"vehicle_type_id":"4","last_reported":1732057739,"current_range_meters":34800,"station_id":"ce4bhr12rcd13ifvqhpg","pricing_plan_id":"cebpf4jnsgd1na2vs0mg"},{"bike_id":"e7f24bf0-eae1-41a8-93bb-91453789a04a","system_id":"levelo_inurba_marseille","lat":43.28461,"lon":5.35888,"is_reserved":false,"is_disabled":false,"rental_uris":{"android":"levelo://app?vid=e7f24bf0-eae1-41a8-93bb-91453789a04a","ios":"levelo://app?vid=e7f24bf0-eae1-41a8-93bb-91453789a04a"},"vehicle_type_id":"4","last_reported":1732057739,"current_range_meters":14000,"station_id":"ce4bhah2rcd13ifvqei0","pricing_plan_id":"cebpf4jnsgd1na2vs0mg"},{"bike_id":"eeb8907b-91c7-40b3-a085-a65dd82b9909","system_id":"levelo_inurba_marseille","lat":43.28848,"lon":5.35831,"is_reserved":false,"is_disabled":false,"rental_uris":{"android":"levelo://app?vid=eeb8907b-91c7-40b3-a085-a65dd82b9909","ios":"levelo://app?vid=eeb8907b-91c7-40b3-a085-a65dd82b9909"},"vehicle_type_id":"4","last_reported":1732057739,"current_range_meters":38000,"station_id":"ce4bhb12rcd13ifvqem0","pricing_plan_id":"cebpf4jnsgd1na2vs0mg"},{"bike_id":"5fe20d58-65ac-4c8a-b149-a2e6de20044d","system_id":"levelo_inurba_marseille","lat":43.29368,"lon":5.37863,"is_reserved":false,"is_disabled":true,"rental_uris":{"android":"levelo://app?vid=5fe20d58-65ac-4c8a-b149-a2e6de20044d","ios":"levelo://app?vid=5fe20d58-65ac-4c8a-b149-a2e6de20044d"},"vehicle_type_id":"4","last_reported":1732057739,"current_range_meters":30400,"station_id":"ce4bgjh2rcd13ifvqbf0","pricing_plan_id":"cebpf4jnsgd1na2vs0mg"},{"bike_id":"70c694b8-609a-4e19-9067-0bd1313ac6f9","system_id":"levelo_inurba_marseille","lat":43.32481,"lon":5.36546,"is_reserved":false,"is_disabled":false,"rental_uris":{"android":"levelo://app?vid=70c694b8-609a-4e19-9067-0bd1313ac6f9","ios":"levelo://app?vid=70c694b8-609a-4e19-9067-0bd1313ac6f9"},"vehicle_type_id":"4","last_reported":1732057739,"current_range_meters":39200,"station_id":"ce4bhs12rcd13ifvqhvg","pricing_plan_id":"cebpf4jnsgd1na2vs0mg"},{"bike_id":"6c884184-cddc-4cc0-aa45-5525e2fb7f75","system_id":"levelo_inurba_marseille","lat":43.23958,"lon":5.36636,"is_reserved":false,"is_disabled":false,"rental_uris":{"android":"levelo://app?vid=6c884184-cddc-4cc0-aa45-5525e2fb7f75","ios":"levelo://app?vid=6c884184-cddc-4cc0-aa45-5525e2fb7f75"},"vehicle_type_id":"4","last_reported":1732057739,"current_range_meters":19200,"station_id":"ce4bhi12rcd13ifvqfp0","pricing_plan_id":"cebpf4jnsgd1na2vs0mg"},{"bike_id":"4fcc75e4-675d-42cb-a209-f1843f891373","system_id":"levelo_inurba_marseille","lat":43.29301,"lon":5.37468,"is_reserved":false,"is_disabled":false,"rental_uris":{"android":"levelo://app?vid=4fcc75e4-675d-42cb-a209-f1843f891373","ios":"levelo://app?vid=4fcc75e4-675d-42cb-a209-f1843f891373"},"vehicle_type_id":"4","last_reported":1732057739,"current_range_meters":16000,"station_id":"ce4bgi12rcd13ifvqb70","pricing_plan_id":"cebpf4jnsgd1na2vs0mg"},{"bike_id":"b435bd6c-a5f4-4f4a-a784-e5e673a3f0b8","system_id":"levelo_inurba_marseille","lat":43.29255,"lon":5.40905,"is_reserved":false,"is_disabled":false,"rental_uris":{"android":"levelo://app?vid=b435bd6c-a5f4-4f4a-a784-e5e673a3f0b8","ios":"levelo://app?vid=b435bd6c-a5f4-4f4a-a784-e5e673a3f0b8"},"vehicle_type_id":"4","last_reported":1732057739,"current_range_meters":30800,"station_id":"ce4bh192rcd13ifvqdc0","pricing_plan_id":"cebpf4jnsgd1na2vs0mg"},{"bike_id":"3df07603-4cc7-450a-9655-3b7606e514c1","system_id":"levelo_inurba_marseille","lat":43.29066,"lon":5.37162,"is_reserved":false,"is_disabled":true,"rental_uris":{"android":"levelo://app?vid=3df07603-4cc7-450a-9655-3b7606e514c1","ios":"levelo://app?vid=3df07603-4cc7-450a-9655-3b7606e514c1"},"vehicle_type_id":"4","last_reported":1732057739,"current_range_meters":16400,"station_id":"ce4bh5p2rcd13ifvqe4g","pricing_plan_id":"cebpf4jnsgd1na2vs0mg"},{"bike_id":"83527bb6-1e45-4eae-ba4c-8fe558edc262","system_id":"levelo_inurba_marseille","lat":43.24667,"lon":5.38169,"is_reserved":false,"is_disabled":false,"rental_uris":{"android":"levelo://app?vid=83527bb6-1e45-4eae-ba4c-8fe558edc262","ios":"levelo://app?vid=83527bb6-1e45-4eae-ba4c-8fe558edc262"},"vehicle_type_id":"4","last_reported":1732057739,"current_range_meters":16400,"station_id":"ce4bhih2rcd13ifvqfr0","pricing_plan_id":"cebpf4jnsgd1na2vs0mg"},{"bike_id":"43679b68-2478-4d79-a5c9-7b258522d608","system_id":"levelo_inurba_marseille","lat":43.30778,"lon":5.37662,"is_reserved":false,"is_disabled":false,"rental_uris":{"android":"levelo://app?vid=43679b68-2478-4d79-a5c9-7b258522d608","ios":"levelo://app?vid=43679b68-2478-4d79-a5c9-7b258522d608"},"vehicle_type_id":"4","last_reported":1732057739,"current_range_meters":30800,"station_id":"ce4bgv92rcd13ifvqcq0","pricing_plan_id":"cebpf4jnsgd1na2vs0mg"},{"bike_id":"60712ab8-7401-4ca2-82fb-7c0584c8f18d","system_id":"levelo_inurba_marseille","lat":43.30797,"lon":5.38142,"is_reserved":false,"is_disabled":false,"rental_uris":{"android":"levelo://app?vid=60712ab8-7401-4ca2-82fb-7c0584c8f18d","ios":"levelo://app?vid=60712ab8-7401-4ca2-82fb-7c0584c8f18d"},"vehicle_type_id":"4","last_reported":1732057739,"current_range_meters":33200,"station_id":"ce4bgt12rcd13ifvqce0","pricing_plan_id":"cebpf4jnsgd1na2vs0mg"},{"bike_id":"d834c15e-41ea-4d2f-aec3-9181f923a66e","system_id":"levelo_inurba_marseille","lat":43.25112,"lon":5.40323,"is_reserved":false,"is_disabled":true,"rental_uris":{"android":"levelo://app?vid=d834c15e-41ea-4d2f-aec3-9181f923a66e","ios":"levelo://app?vid=d834c15e-41ea-4d2f-aec3-9181f923a66e"},"vehicle_type_id":"4","last_reported":1732057739,"current_range_meters":0,"station_id":"ce4bhlh2rcd13ifvqgig","pricing_plan_id":"cebpf4jnsgd1na2vs0mg"},{"bike_id":"bc22acbd-8dc2-4a0f-bd9b-fb5abc01e990","system_id":"levelo_inurba_marseille","lat":43.27223,"lon":5.39185,"is_reserved":false,"is_disabled":false,"rental_uris":{"android":"levelo://app?vid=bc22acbd-8dc2-4a0f-bd9b-fb5abc01e990","ios":"levelo://app?vid=bc22acbd-8dc2-4a0f-bd9b-fb5abc01e990"},"vehicle_type_id":"4","last_reported":1732057739,"current_range_meters":38400,"station_id":"ce4bhhp2rcd13ifvqfm0","pricing_plan_id":"cebpf4jnsgd1na2vs0mg"},{"bike_id":"4bd268f3-b708-480d-b1f5-141d19aa9947","system_id":"levelo_inurba_marseille","lat":43.2447,"lon":5.37793,"is_reserved":false,"is_disabled":true,"rental_uris":{"android":"levelo://app?vid=4bd268f3-b708-480d-b1f5-141d19aa9947","ios":"levelo://app?vid=4bd268f3-b708-480d-b1f5-141d19aa9947"},"vehicle_type_id":"4","last_reported":1732057739,"current_range_meters":0,"station_id":"","pricing_plan_id":"cebpf4jnsgd1na2vs0mg"},{"bike_id":"a78bc1fa-f508-4cab-a5e8-89111600fa30","system_id":"levelo_inurba_marseille","lat":43.341477,"lon":5.409063,"is_reserved":false,"is_disabled":false,"rental_uris":{"android":"levelo://app?vid=a78bc1fa-f508-4cab-a5e8-89111600fa30","ios":"levelo://app?vid=a78bc1fa-f508-4cab-a5e8-89111600fa30"},"vehicle_type_id":"4","last_reported":1732057739,"current_range_meters":40000,"station_id":"ce4bhqh2rcd13ifvqhlg","pricing_plan_id":"cebpf4jnsgd1na2vs0mg"},{"bike_id":"9b4d52a8-a22b-418c-a556-65afaca3a235","system_id":"levelo_inurba_marseille","lat":43.33753,"lon":5.37448,"is_reserved":false,"is_disabled":false,"rental_uris":{"android":"levelo://app?vid=9b4d52a8-a22b-418c-a556-65afaca3a235","ios":"levelo://app?vid=9b4d52a8-a22b-418c-a556-65afaca3a235"},"vehicle_type_id":"4","last_reported":1732057739,"current_range_meters":19600,"station_id":"","pricing_plan_id":"cebpf4jnsgd1na2vs0mg"},{"bike_id":"adc5437e-ecf8-454c-aa80-bbc338fbb88a","system_id":"levelo_inurba_marseille","lat":43.29287,"lon":5.40121,"is_reserved":false,"is_disabled":false,"rental_uris":{"android":"levelo://app?vid=adc5437e-ecf8-454c-aa80-bbc338fbb88a","ios":"levelo://app?vid=adc5437e-ecf8-454c-aa80-bbc338fbb88a"},"vehicle_type_id":"4","last_reported":1732057739,"current_range_meters":22800,"station_id":"ce4bh312rcd13ifvqdk0","pricing_plan_id":"cebpf4jnsgd1na2vs0mg"},{"bike_id":"5a84ffd5-b6c5-4689-a835-63d46053ad7d","system_id":"levelo_inurba_marseille","lat":43.2928,"lon":5.36853,"is_reserved":false,"is_disabled":false,"rental_uris":{"android":"levelo://app?vid=5a84ffd5-b6c5-4689-a835-63d46053ad7d","ios":"levelo://app?vid=5a84ffd5-b6c5-4689-a835-63d46053ad7d"},"vehicle_type_id":"4","last_reported":1732057739,"current_range_meters":10000,"station_id":"ce4bhbp2rcd13ifvqesg","pricing_plan_id":"cebpf4jnsgd1na2vs0mg"},{"bike_id":"d5e267a3-17b3-48f0-a5b7-c9834438a199","system_id":"levelo_inurba_marseille","lat":43.29811,"lon":5.40402,"is_reserved":false,"is_disabled":false,"rental_uris":{"android":"levelo://app?vid=d5e267a3-17b3-48f0-a5b7-c9834438a199","ios":"levelo://app?vid=d5e267a3-17b3-48f0-a5b7-c9834438a199"},"vehicle_type_id":"4","last_reported":1732057739,"current_range_meters":38800,"station_id":"ce4bh112rcd13ifvqd90","pricing_plan_id":"cebpf4jnsgd1na2vs0mg"},{"bike_id":"a12d6d5f-0f23-4ede-a12b-384b4925b55d","system_id":"levelo_inurba_marseille","lat":43.28408,"lon":5.37524,"is_reserved":false,"is_disabled":false,"rental_uris":{"android":"levelo://app?vid=a12d6d5f-0f23-4ede-a12b-384b4925b55d","ios":"levelo://app?vid=a12d6d5f-0f23-4ede-a12b-384b4925b55d"},"vehicle_type_id":"4","last_reported":1732057739,"current_range_meters":38000,"station_id":"ce4bh412rcd13ifvqds0","pricing_plan_id":"cebpf4jnsgd1na2vs0mg"},{"bike_id":"5c215695-7517-4c59-b4ed-3d09ca94c869","system_id":"levelo_inurba_marseille","lat":43.24806,"lon":5.37454,"is_reserved":false,"is_disabled":false,"rental_uris":{"android":"levelo://app?vid=5c215695-7517-4c59-b4ed-3d09ca94c869","ios":"levelo://app?vid=5c215695-7517-4c59-b4ed-3d09ca94c869"},"vehicle_type_id":"4","last_reported":1732057739,"current_range_meters":38800,"station_id":"ce4bhgh2rcd13ifvqfb0","pricing_plan_id":"cebpf4jnsgd1na2vs0mg"},{"bike_id":"e74e8692-56b5-455e-b107-3674a73c30f0","system_id":"levelo_inurba_marseille","lat":43.29279,"lon":5.36835,"is_reserved":false,"is_disabled":true,"rental_uris":{"android":"levelo://app?vid=e74e8692-56b5-455e-b107-3674a73c30f0","ios":"levelo://app?vid=e74e8692-56b5-455e-b107-3674a73c30f0"},"vehicle_type_id":"4","last_reported":1732057739,"current_range_meters":800,"station_id":"ce4bhbp2rcd13ifvqesg","pricing_plan_id":"cebpf4jnsgd1na2vs0mg"},{"bike_id":"b8e0ff19-cfbf-49c3-a9f8-f8dcefd4b613","system_id":"levelo_inurba_marseille","lat":43.27666,"lon":5.389,"is_reserved":false,"is_disabled":true,"rental_uris":{"android":"levelo://app?vid=b8e0ff19-cfbf-49c3-a9f8-f8dcefd4b613","ios":"levelo://app?vid=b8e0ff19-cfbf-49c3-a9f8-f8dcefd4b613"},"vehicle_type_id":"4","last_reported":1732057739,"current_range_meters":36000,"station_id":"ce4bhi12rcd13ifvqfo0","pricing_plan_id":"cebpf4jnsgd1na2vs0mg"},{"bike_id":"e17347df-3057-4764-a4c7-931bf484d0c0","system_id":"levelo_inurba_marseille","lat":43.28666,"lon":5.38686,"is_reserved":false,"is_disabled":false,"rental_uris":{"android":"levelo://app?vid=e17347df-3057-4764-a4c7-931bf484d0c0","ios":"levelo://app?vid=e17347df-3057-4764-a4c7-931bf484d0c0"},"vehicle_type_id":"4","last_reported":1732057739,"current_range_meters":8400,"station_id":"ce4bh492rcd13ifvqdug","pricing_plan_id":"cebpf4jnsgd1na2vs0mg"},{"bike_id":"c3d23148-d962-459d-98d6-ef3ead1f6208","system_id":"levelo_inurba_marseille","lat":43.29517,"lon":5.394,"is_reserved":false,"is_disabled":false,"rental_uris":{"android":"levelo://app?vid=c3d23148-d962-459d-98d6-ef3ead1f6208","ios":"levelo://app?vid=c3d23148-d962-459d-98d6-ef3ead1f6208"},"vehicle_type_id":"4","last_reported":1732057739,"current_range_meters":10800,"station_id":"ce4bh292rcd13ifvqdf0","pricing_plan_id":"cebpf4jnsgd1na2vs0mg"},{"bike_id":"eaa42bfa-9e14-44cc-8771-e7142d3132b3","system_id":"levelo_inurba_marseille","lat":43.30796,"lon":5.43524,"is_reserved":false,"is_disabled":false,"rental_uris":{"android":"levelo://app?vid=eaa42bfa-9e14-44cc-8771-e7142d3132b3","ios":"levelo://app?vid=eaa42bfa-9e14-44cc-8771-e7142d3132b3"},"vehicle_type_id":"4","last_reported":1732057739,"current_range_meters":38000,"station_id":"ce4bhph2rcd13ifvqheg","pricing_plan_id":"cebpf4jnsgd1na2vs0mg"},{"bike_id":"1462f68e-113f-431d-9d5b-f4d7f987f2b8","system_id":"levelo_inurba_marseille","lat":43.2848,"lon":5.38426,"is_reserved":false,"is_disabled":true,"rental_uris":{"android":"levelo://app?vid=1462f68e-113f-431d-9d5b-f4d7f987f2b8","ios":"levelo://app?vid=1462f68e-113f-431d-9d5b-f4d7f987f2b8"},"vehicle_type_id":"4","last_reported":1732057739,"current_range_meters":0,"station_id":"ce4bh512rcd13ifvqe3g","pricing_plan_id":"cebpf4jnsgd1na2vs0mg"},{"bike_id":"c0ac236e-b052-4993-a73f-8d47ad75afde","system_id":"levelo_inurba_marseille","lat":43.28076,"lon":5.39669,"is_reserved":false,"is_disabled":false,"rental_uris":{"android":"levelo://app?vid=c0ac236e-b052-4993-a73f-8d47ad75afde","ios":"levelo://app?vid=c0ac236e-b052-4993-a73f-8d47ad75afde"},"vehicle_type_id":"4","last_reported":1732057739,"current_range_meters":6800,"station_id":"ce4bho12rcd13ifvqh2g","pricing_plan_id":"cebpf4jnsgd1na2vs0mg"},{"bike_id":"ce9d8a8a-ef8b-41bf-a017-979b3414f674","system_id":"levelo_inurba_marseille","lat":43.26933,"lon":5.38918,"is_reserved":false,"is_disabled":false,"rental_uris":{"android":"levelo://app?vid=ce9d8a8a-ef8b-41bf-a017-979b3414f674","ios":"levelo://app?vid=ce9d8a8a-ef8b-41bf-a017-979b3414f674"},"vehicle_type_id":"4","last_reported":1732057739,"current_range_meters":33600,"station_id":"ce4bhhh2rcd13ifvqfl0","pricing_plan_id":"cebpf4jnsgd1na2vs0mg"},{"bike_id":"dd6eb73e-54f0-4b0f-b44c-6d4ce902ef9b","system_id":"levelo_inurba_marseille","lat":43.2978,"lon":5.38176,"is_reserved":false,"is_disabled":false,"rental_uris":{"android":"levelo://app?vid=dd6eb73e-54f0-4b0f-b44c-6d4ce902ef9b","ios":"levelo://app?vid=dd6eb73e-54f0-4b0f-b44c-6d4ce902ef9b"},"vehicle_type_id":"4","last_reported":1732057739,"current_range_meters":38800,"station_id":"","pricing_plan_id":"cebpf4jnsgd1na2vs0mg"},{"bike_id":"0b733133-03c9-4766-961e-92b775b50bbc","system_id":"levelo_inurba_marseille","lat":43.28193,"lon":5.44265,"is_reserved":false,"is_disabled":true,"rental_uris":{"android":"levelo://app?vid=0b733133-03c9-4766-961e-92b775b50bbc","ios":"levelo://app?vid=0b733133-03c9-4766-961e-92b775b50bbc"},"vehicle_type_id":"4","last_reported":1732057739,"current_range_meters":0,"station_id":"","pricing_plan_id":"cebpf4jnsgd1na2vs0mg"},{"bike_id":"71105ef2-456e-4cd5-8f35-2ec0f1b17b76","system_id":"levelo_inurba_marseille","lat":43.27998,"lon":5.40009,"is_reserved":false,"is_disabled":false,"rental_uris":{"android":"levelo://app?vid=71105ef2-456e-4cd5-8f35-2ec0f1b17b76","ios":"levelo://app?vid=71105ef2-456e-4cd5-8f35-2ec0f1b17b76"},"vehicle_type_id":"4","last_reported":1732057739,"current_range_meters":16000,"station_id":"ce4bho92rcd13ifvqh4g","pricing_plan_id":"cebpf4jnsgd1na2vs0mg"},{"bike_id":"c36715ed-f638-4dd6-a01e-19b6c8d5881e","system_id":"levelo_inurba_marseille","lat":43.29569,"lon":5.39969,"is_reserved":false,"is_disabled":false,"rental_uris":{"android":"levelo://app?vid=c36715ed-f638-4dd6-a01e-19b6c8d5881e","ios":"levelo://app?vid=c36715ed-f638-4dd6-a01e-19b6c8d5881e"},"vehicle_type_id":"4","last_reported":1732057739,"current_range_meters":5600,"station_id":"ce4bh312rcd13ifvqdj0","pricing_plan_id":"cebpf4jnsgd1na2vs0mg"},{"bike_id":"9bb25346-0c45-4d6e-8f41-b4c5b818123b","system_id":"levelo_inurba_marseille","lat":43.29308,"lon":5.37179,"is_reserved":false,"is_disabled":false,"rental_uris":{"android":"levelo://app?vid=9bb25346-0c45-4d6e-8f41-b4c5b818123b","ios":"levelo://app?vid=9bb25346-0c45-4d6e-8f41-b4c5b818123b"},"vehicle_type_id":"4","last_reported":1732057739,"current_range_meters":30800,"station_id":"ce4bgh92rcd13ifvqb40","pricing_plan_id":"cebpf4jnsgd1na2vs0mg"},{"bike_id":"7d02f161-c4ab-430d-be6a-e052ba68aacf","system_id":"levelo_inurba_marseille","lat":43.30952,"lon":5.39023,"is_reserved":false,"is_disabled":true,"rental_uris":{"android":"levelo://app?vid=7d02f161-c4ab-430d-be6a-e052ba68aacf","ios":"levelo://app?vid=7d02f161-c4ab-430d-be6a-e052ba68aacf"},"vehicle_type_id":"4","last_reported":1732057739,"current_range_meters":9600,"station_id":"ce4bgup2rcd13ifvqco0","pricing_plan_id":"cebpf4jnsgd1na2vs0mg"},{"bike_id":"517bd71e-4dc2-4d07-8b67-46e35475d7b6","system_id":"levelo_inurba_marseille","lat":43.30301,"lon":5.39205,"is_reserved":false,"is_disabled":false,"rental_uris":{"android":"levelo://app?vid=517bd71e-4dc2-4d07-8b67-46e35475d7b6","ios":"levelo://app?vid=517bd71e-4dc2-4d07-8b67-46e35475d7b6"},"vehicle_type_id":"4","last_reported":1732057739,"current_range_meters":38400,"station_id":"ce4bgkh2rcd13ifvqbk0","pricing_plan_id":"cebpf4jnsgd1na2vs0mg"},{"bike_id":"e65461e3-d425-4dee-a20c-933c7023442e","system_id":"levelo_inurba_marseille","lat":43.30262,"lon":5.40082,"is_reserved":false,"is_disabled":true,"rental_uris":{"android":"levelo://app?vid=e65461e3-d425-4dee-a20c-933c7023442e","ios":"levelo://app?vid=e65461e3-d425-4dee-a20c-933c7023442e"},"vehicle_type_id":"4","last_reported":1732057739,"current_range_meters":36800,"station_id":"ce4bgvh2rcd13ifvqcs0","pricing_plan_id":"cebpf4jnsgd1na2vs0mg"},{"bike_id":"e8a55b1f-c734-4050-817f-07bf60214f39","system_id":"levelo_inurba_marseille","lat":43.28458,"lon":5.35895,"is_reserved":false,"is_disabled":false,"rental_uris":{"android":"levelo://app?vid=e8a55b1f-c734-4050-817f-07bf60214f39","ios":"levelo://app?vid=e8a55b1f-c734-4050-817f-07bf60214f39"},"vehicle_type_id":"4","last_reported":1732057739,"current_range_meters":12000,"station_id":"ce4bhah2rcd13ifvqei0","pricing_plan_id":"cebpf4jnsgd1na2vs0mg"},{"bike_id":"49a8cc66-6cd3-4328-9239-e2254c8eb681","system_id":"levelo_inurba_marseille","lat":43.2988,"lon":5.39738,"is_reserved":false,"is_disabled":false,"rental_uris":{"android":"levelo://app?vid=49a8cc66-6cd3-4328-9239-e2254c8eb681","ios":"levelo://app?vid=49a8cc66-6cd3-4328-9239-e2254c8eb681"},"vehicle_type_id":"4","last_reported":1732057739,"current_range_meters":30000,"station_id":"ce4bh0h2rcd13ifvqd50","pricing_plan_id":"cebpf4jnsgd1na2vs0mg"},{"bike_id":"9ae6a057-794e-4486-8adb-8cdbb82ada7f","system_id":"levelo_inurba_marseille","lat":43.31119,"lon":5.37774,"is_reserved":false,"is_disabled":false,"rental_uris":{"android":"levelo://app?vid=9ae6a057-794e-4486-8adb-8cdbb82ada7f","ios":"levelo://app?vid=9ae6a057-794e-4486-8adb-8cdbb82ada7f"},"vehicle_type_id":"4","last_reported":1732057739,"current_range_meters":13600,"station_id":"ce4bgt92rcd13ifvqcg0","pricing_plan_id":"cebpf4jnsgd1na2vs0mg"},{"bike_id":"b5aa51a6-53b4-4ce1-9f62-46acd3a879d7","system_id":"levelo_inurba_marseille","lat":43.31278,"lon":5.40163,"is_reserved":false,"is_disabled":false,"rental_uris":{"android":"levelo://app?vid=b5aa51a6-53b4-4ce1-9f62-46acd3a879d7","ios":"levelo://app?vid=b5aa51a6-53b4-4ce1-9f62-46acd3a879d7"},"vehicle_type_id":"4","last_reported":1732057739,"current_range_meters":38800,"station_id":"ce4bh092rcd13ifvqd30","pricing_plan_id":"cebpf4jnsgd1na2vs0mg"},{"bike_id":"894d1fa3-4046-45d6-bab2-de26487a6c66","system_id":"levelo_inurba_marseille","lat":43.31078,"lon":5.42434,"is_reserved":false,"is_disabled":false,"rental_uris":{"android":"levelo://app?vid=894d1fa3-4046-45d6-bab2-de26487a6c66","ios":"levelo://app?vid=894d1fa3-4046-45d6-bab2-de26487a6c66"},"vehicle_type_id":"4","last_reported":1732057739,"current_range_meters":37600,"station_id":"ce4bhp92rcd13ifvqhag","pricing_plan_id":"cebpf4jnsgd1na2vs0mg"},{"bike_id":"35ae0824-f6a1-494d-ad0e-71e2a1b9e68e","system_id":"levelo_inurba_marseille","lat":43.25494,"lon":5.37652,"is_reserved":false,"is_disabled":false,"rental_uris":{"android":"levelo://app?vid=35ae0824-f6a1-494d-ad0e-71e2a1b9e68e","ios":"levelo://app?vid=35ae0824-f6a1-494d-ad0e-71e2a1b9e68e"},"vehicle_type_id":"4","last_reported":1732057739,"current_range_meters":29600,"station_id":"ce4bhh12rcd13ifvqff0","pricing_plan_id":"cebpf4jnsgd1na2vs0mg"},{"bike_id":"1a26723a-f06d-49b2-b6be-a69eb02162b9","system_id":"levelo_inurba_marseille","lat":43.32342,"lon":5.40629,"is_reserved":false,"is_disabled":false,"rental_uris":{"android":"levelo://app?vid=1a26723a-f06d-49b2-b6be-a69eb02162b9","ios":"levelo://app?vid=1a26723a-f06d-49b2-b6be-a69eb02162b9"},"vehicle_type_id":"4","last_reported":1732057739,"current_range_meters":33200,"station_id":"ce4bhq92rcd13ifvqhjg","pricing_plan_id":"cebpf4jnsgd1na2vs0mg"},{"bike_id":"7ee91914-acad-4a65-8992-954e71eb40ed","system_id":"levelo_inurba_marseille","lat":43.27903,"lon":5.38015,"is_reserved":false,"is_disabled":false,"rental_uris":{"android":"levelo://app?vid=7ee91914-acad-4a65-8992-954e71eb40ed","ios":"levelo://app?vid=7ee91914-acad-4a65-8992-954e71eb40ed"},"vehicle_type_id":"4","last_reported":1732057739,"current_range_meters":37600,"station_id":"ce4bhf92rcd13ifvqf50","pricing_plan_id":"cebpf4jnsgd1na2vs0mg"},{"bike_id":"1eff5ce5-2d56-4465-a12c-60db9ec2175a","system_id":"levelo_inurba_marseille","lat":43.22927,"lon":5.35376,"is_reserved":false,"is_disabled":false,"rental_uris":{"android":"levelo://app?vid=1eff5ce5-2d56-4465-a12c-60db9ec2175a","ios":"levelo://app?vid=1eff5ce5-2d56-4465-a12c-60db9ec2175a"},"vehicle_type_id":"4","last_reported":1732057739,"current_range_meters":19600,"station_id":"cpo3532slgdg3j2ikp40","pricing_plan_id":"cebpf4jnsgd1na2vs0mg"},{"bike_id":"6ac38c08-263b-4dbc-9230-678d7993bb91","system_id":"levelo_inurba_marseille","lat":43.29307,"lon":5.37182,"is_reserved":false,"is_disabled":true,"rental_uris":{"android":"levelo://app?vid=6ac38c08-263b-4dbc-9230-678d7993bb91","ios":"levelo://app?vid=6ac38c08-263b-4dbc-9230-678d7993bb91"},"vehicle_type_id":"4","last_reported":1732057739,"current_range_meters":26800,"station_id":"ce4bgh92rcd13ifvqb40","pricing_plan_id":"cebpf4jnsgd1na2vs0mg"},{"bike_id":"384dcd34-d6c7-4cd6-a366-6ec5c33f37a6","system_id":"levelo_inurba_marseille","lat":43.24074,"lon":5.37736,"is_reserved":false,"is_disabled":false,"rental_uris":{"android":"levelo://app?vid=384dcd34-d6c7-4cd6-a366-6ec5c33f37a6","ios":"levelo://app?vid=384dcd34-d6c7-4cd6-a366-6ec5c33f37a6"},"vehicle_type_id":"4","last_reported":1732057739,"current_range_meters":38000,"station_id":"ce4bhnp2rcd13ifvqgvg","pricing_plan_id":"cebpf4jnsgd1na2vs0mg"},{"bike_id":"81070033-bcc2-4712-aaf2-ebd63bfae0ec","system_id":"levelo_inurba_marseille","lat":43.28433,"lon":5.39195,"is_reserved":false,"is_disabled":false,"rental_uris":{"android":"levelo://app?vid=81070033-bcc2-4712-aaf2-ebd63bfae0ec","ios":"levelo://app?vid=81070033-bcc2-4712-aaf2-ebd63bfae0ec"},"vehicle_type_id":"4","last_reported":1732057739,"current_range_meters":38400,"station_id":"ce4bhoh2rcd13ifvqh5g","pricing_plan_id":"cebpf4jnsgd1na2vs0mg"},{"bike_id":"9f3572b0-c0a7-43aa-8c1e-c100148af63b","system_id":"levelo_inurba_marseille","lat":43.29184,"lon":5.35794,"is_reserved":false,"is_disabled":true,"rental_uris":{"android":"levelo://app?vid=9f3572b0-c0a7-43aa-8c1e-c100148af63b","ios":"levelo://app?vid=9f3572b0-c0a7-43aa-8c1e-c100148af63b"},"vehicle_type_id":"4","last_reported":1732057739,"current_range_meters":38800,"station_id":"ce4bhb12rcd13ifvqel0","pricing_plan_id":"cebpf4jnsgd1na2vs0mg"},{"bike_id":"954054ad-77ac-46c3-a1b5-c8fc266a522b","system_id":"levelo_inurba_marseille","lat":43.31725,"lon":5.42398,"is_reserved":false,"is_disabled":false,"rental_uris":{"android":"levelo://app?vid=954054ad-77ac-46c3-a1b5-c8fc266a522b","ios":"levelo://app?vid=954054ad-77ac-46c3-a1b5-c8fc266a522b"},"vehicle_type_id":"4","last_reported":1732057739,"current_range_meters":38800,"station_id":"ce4bhp92rcd13ifvqhbg","pricing_plan_id":"cebpf4jnsgd1na2vs0mg"},{"bike_id":"f11e2dfe-e609-4d9d-a67f-16198d399b4b","system_id":"levelo_inurba_marseille","lat":43.26487,"lon":5.39559,"is_reserved":false,"is_disabled":true,"rental_uris":{"android":"levelo://app?vid=f11e2dfe-e609-4d9d-a67f-16198d399b4b","ios":"levelo://app?vid=f11e2dfe-e609-4d9d-a67f-16198d399b4b"},"vehicle_type_id":"4","last_reported":1732057739,"current_range_meters":1600,"station_id":"ce4bhi12rcd13ifvqfq0","pricing_plan_id":"cebpf4jnsgd1na2vs0mg"},{"bike_id":"a068dc40-1862-43fc-975c-c8329fcb1c80","system_id":"levelo_inurba_marseille","lat":43.27317,"lon":5.39142,"is_reserved":false,"is_disabled":false,"rental_uris":{"android":"levelo://app?vid=a068dc40-1862-43fc-975c-c8329fcb1c80","ios":"levelo://app?vid=a068dc40-1862-43fc-975c-c8329fcb1c80"},"vehicle_type_id":"4","last_reported":1732057739,"current_range_meters":38800,"station_id":"","pricing_plan_id":"cebpf4jnsgd1na2vs0mg"},{"bike_id":"9c4a655e-2680-4a60-a844-6a2ea62fb4b1","system_id":"levelo_inurba_marseille","lat":43.26063,"lon":5.39394,"is_reserved":false,"is_disabled":true,"rental_uris":{"android":"levelo://app?vid=9c4a655e-2680-4a60-a844-6a2ea62fb4b1","ios":"levelo://app?vid=9c4a655e-2680-4a60-a844-6a2ea62fb4b1"},"vehicle_type_id":"4","last_reported":1732057739,"current_range_meters":27200,"station_id":"ce4bhh92rcd13ifvqfj0","pricing_plan_id":"cebpf4jnsgd1na2vs0mg"},{"bike_id":"2d983866-913c-4390-ae48-1873d10c9730","system_id":"levelo_inurba_marseille","lat":43.24813,"lon":5.37458,"is_reserved":false,"is_disabled":true,"rental_uris":{"android":"levelo://app?vid=2d983866-913c-4390-ae48-1873d10c9730","ios":"levelo://app?vid=2d983866-913c-4390-ae48-1873d10c9730"},"vehicle_type_id":"4","last_reported":1732057739,"current_range_meters":12400,"station_id":"ce4bhgh2rcd13ifvqfb0","pricing_plan_id":"cebpf4jnsgd1na2vs0mg"},{"bike_id":"77dd2577-3139-4d6d-85af-149a1cdd1542","system_id":"levelo_inurba_marseille","lat":43.311739,"lon":5.387213,"is_reserved":false,"is_disabled":false,"rental_uris":{"android":"levelo://app?vid=77dd2577-3139-4d6d-85af-149a1cdd1542","ios":"levelo://app?vid=77dd2577-3139-4d6d-85af-149a1cdd1542"},"vehicle_type_id":"4","last_reported":1732057739,"current_range_meters":38800,"station_id":"ce4bgv12rcd13ifvqcp0","pricing_plan_id":"cebpf4jnsgd1na2vs0mg"},{"bike_id":"ada08269-fd0c-4046-bf21-25ab1000c736","system_id":"levelo_inurba_marseille","lat":43.31526,"lon":5.38036,"is_reserved":false,"is_disabled":false,"rental_uris":{"android":"levelo://app?vid=ada08269-fd0c-4046-bf21-25ab1000c736","ios":"levelo://app?vid=ada08269-fd0c-4046-bf21-25ab1000c736"},"vehicle_type_id":"4","last_reported":1732057739,"current_range_meters":39200,"station_id":"ce4bhsp2rcd13ifvqi50","pricing_plan_id":"cebpf4jnsgd1na2vs0mg"},{"bike_id":"be0057d7-36ed-4552-93a5-d26a01d6fce9","system_id":"levelo_inurba_marseille","lat":43.31698,"lon":5.37768,"is_reserved":false,"is_disabled":false,"rental_uris":{"android":"levelo://app?vid=be0057d7-36ed-4552-93a5-d26a01d6fce9","ios":"levelo://app?vid=be0057d7-36ed-4552-93a5-d26a01d6fce9"},"vehicle_type_id":"4","last_reported":1732057739,"current_range_meters":28800,"station_id":"ce4bgth2rcd13ifvqch0","pricing_plan_id":"cebpf4jnsgd1na2vs0mg"},{"bike_id":"e840fe4f-47a0-4d31-8133-7c332a3d517a","system_id":"levelo_inurba_marseille","lat":43.31082,"lon":5.42432,"is_reserved":false,"is_disabled":true,"rental_uris":{"android":"levelo://app?vid=e840fe4f-47a0-4d31-8133-7c332a3d517a","ios":"levelo://app?vid=e840fe4f-47a0-4d31-8133-7c332a3d517a"},"vehicle_type_id":"4","last_reported":1732057739,"current_range_meters":15200,"station_id":"ce4bhp92rcd13ifvqhag","pricing_plan_id":"cebpf4jnsgd1na2vs0mg"},{"bike_id":"b1f1f917-fbca-4468-807a-dad63fe9cf93","system_id":"levelo_inurba_marseille","lat":43.280769,"lon":5.39659,"is_reserved":false,"is_disabled":false,"rental_uris":{"android":"levelo://app?vid=b1f1f917-fbca-4468-807a-dad63fe9cf93","ios":"levelo://app?vid=b1f1f917-fbca-4468-807a-dad63fe9cf93"},"vehicle_type_id":"4","last_reported":1732057739,"current_range_meters":21600,"station_id":"ce4bho12rcd13ifvqh2g","pricing_plan_id":"cebpf4jnsgd1na2vs0mg"},{"bike_id":"d88da729-3a82-486f-b734-abaa176a4658","system_id":"levelo_inurba_marseille","lat":43.31888,"lon":5.40742,"is_reserved":false,"is_disabled":false,"rental_uris":{"android":"levelo://app?vid=d88da729-3a82-486f-b734-abaa176a4658","ios":"levelo://app?vid=d88da729-3a82-486f-b734-abaa176a4658"},"vehicle_type_id":"4","last_reported":1732057739,"current_range_meters":34000,"station_id":"ce4bhq12rcd13ifvqhig","pricing_plan_id":"cebpf4jnsgd1na2vs0mg"},{"bike_id":"7db3e109-59af-4df6-ad20-7ea41f506454","system_id":"levelo_inurba_marseille","lat":43.33018,"lon":5.39045,"is_reserved":false,"is_disabled":false,"rental_uris":{"android":"levelo://app?vid=7db3e109-59af-4df6-ad20-7ea41f506454","ios":"levelo://app?vid=7db3e109-59af-4df6-ad20-7ea41f506454"},"vehicle_type_id":"4","last_reported":1732057739,"current_range_meters":9600,"station_id":"ce4bhr92rcd13ifvqhrg","pricing_plan_id":"cebpf4jnsgd1na2vs0mg"},{"bike_id":"5bddf6e5-633d-4da8-a478-cc22aa6ccefd","system_id":"levelo_inurba_marseille","lat":43.28946,"lon":5.36409,"is_reserved":false,"is_disabled":false,"rental_uris":{"android":"levelo://app?vid=5bddf6e5-633d-4da8-a478-cc22aa6ccefd","ios":"levelo://app?vid=5bddf6e5-633d-4da8-a478-cc22aa6ccefd"},"vehicle_type_id":"4","last_reported":1732057739,"current_range_meters":33200,"station_id":"ce4bhc92rcd13ifvqetg","pricing_plan_id":"cebpf4jnsgd1na2vs0mg"},{"bike_id":"a1cf6f06-44aa-4bc8-9eb2-8055a5e207a9","system_id":"levelo_inurba_marseille","lat":43.32479,"lon":5.36578,"is_reserved":false,"is_disabled":false,"rental_uris":{"android":"levelo://app?vid=a1cf6f06-44aa-4bc8-9eb2-8055a5e207a9","ios":"levelo://app?vid=a1cf6f06-44aa-4bc8-9eb2-8055a5e207a9"},"vehicle_type_id":"4","last_reported":1732057739,"current_range_meters":38800,"station_id":"ce4bhs12rcd13ifvqhvg","pricing_plan_id":"cebpf4jnsgd1na2vs0mg"},{"bike_id":"e264033a-f915-4b27-a08a-2f42cfcf052a","system_id":"levelo_inurba_marseille","lat":43.33769,"lon":5.37426,"is_reserved":false,"is_disabled":false,"rental_uris":{"android":"levelo://app?vid=e264033a-f915-4b27-a08a-2f42cfcf052a","ios":"levelo://app?vid=e264033a-f915-4b27-a08a-2f42cfcf052a"},"vehicle_type_id":"4","last_reported":1732057739,"current_range_meters":30000,"station_id":"","pricing_plan_id":"cebpf4jnsgd1na2vs0mg"},{"bike_id":"88ac5682-c1d6-4376-9be5-574b64ace7cc","system_id":"levelo_inurba_marseille","lat":43.29792,"lon":5.37111,"is_reserved":false,"is_disabled":false,"rental_uris":{"android":"levelo://app?vid=88ac5682-c1d6-4376-9be5-574b64ace7cc","ios":"levelo://app?vid=88ac5682-c1d6-4376-9be5-574b64ace7cc"},"vehicle_type_id":"4","last_reported":1732057739,"current_range_meters":38800,"station_id":"ce4bgop2rcd13ifvqc1g","pricing_plan_id":"cebpf4jnsgd1na2vs0mg"},{"bike_id":"8eadcc85-24fe-4ac4-a834-5c51f9e3ca3e","system_id":"levelo_inurba_marseille","lat":43.27663,"lon":5.3888,"is_reserved":false,"is_disabled":false,"rental_uris":{"android":"levelo://app?vid=8eadcc85-24fe-4ac4-a834-5c51f9e3ca3e","ios":"levelo://app?vid=8eadcc85-24fe-4ac4-a834-5c51f9e3ca3e"},"vehicle_type_id":"4","last_reported":1732057739,"current_range_meters":28000,"station_id":"ce4bhi12rcd13ifvqfo0","pricing_plan_id":"cebpf4jnsgd1na2vs0mg"},{"bike_id":"1e19835c-1759-4134-842a-083d7e10ca32","system_id":"levelo_inurba_marseille","lat":43.29041,"lon":5.39961,"is_reserved":false,"is_disabled":false,"rental_uris":{"android":"levelo://app?vid=1e19835c-1759-4134-842a-083d7e10ca32","ios":"levelo://app?vid=1e19835c-1759-4134-842a-083d7e10ca32"},"vehicle_type_id":"4","last_reported":1732057739,"current_range_meters":38400,"station_id":"ce4bh392rcd13ifvqdm0","pricing_plan_id":"cebpf4jnsgd1na2vs0mg"},{"bike_id":"123862ba-68e2-48f6-a477-31ab9dae8bd5","system_id":"levelo_inurba_marseille","lat":43.337444,"lon":5.374475,"is_reserved":false,"is_disabled":true,"rental_uris":{"android":"levelo://app?vid=123862ba-68e2-48f6-a477-31ab9dae8bd5","ios":"levelo://app?vid=123862ba-68e2-48f6-a477-31ab9dae8bd5"},"vehicle_type_id":"4","last_reported":1732057739,"current_range_meters":14000,"station_id":"","pricing_plan_id":"cebpf4jnsgd1na2vs0mg"},{"bike_id":"a57e1d53-2136-4179-a533-047787b1374e","system_id":"levelo_inurba_marseille","lat":43.27986,"lon":5.40013,"is_reserved":false,"is_disabled":true,"rental_uris":{"android":"levelo://app?vid=a57e1d53-2136-4179-a533-047787b1374e","ios":"levelo://app?vid=a57e1d53-2136-4179-a533-047787b1374e"},"vehicle_type_id":"4","last_reported":1732057739,"current_range_meters":38400,"station_id":"ce4bho92rcd13ifvqh4g","pricing_plan_id":"cebpf4jnsgd1na2vs0mg"},{"bike_id":"e09f5bd3-1d6d-4c2b-8ba5-e78c43cdb728","system_id":"levelo_inurba_marseille","lat":43.29554,"lon":5.42286,"is_reserved":false,"is_disabled":false,"rental_uris":{"android":"levelo://app?vid=e09f5bd3-1d6d-4c2b-8ba5-e78c43cdb728","ios":"levelo://app?vid=e09f5bd3-1d6d-4c2b-8ba5-e78c43cdb728"},"vehicle_type_id":"4","last_reported":1732057739,"current_range_meters":36400,"station_id":"ce4bhph2rcd13ifvqhdg","pricing_plan_id":"cebpf4jnsgd1na2vs0mg"},{"bike_id":"4220f7bd-c8df-4bf4-a552-3d50af4f4383","system_id":"levelo_inurba_marseille","lat":43.28697,"lon":5.39981,"is_reserved":false,"is_disabled":false,"rental_uris":{"android":"levelo://app?vid=4220f7bd-c8df-4bf4-a552-3d50af4f4383","ios":"levelo://app?vid=4220f7bd-c8df-4bf4-a552-3d50af4f4383"},"vehicle_type_id":"4","last_reported":1732057739,"current_range_meters":36800,"station_id":"ce4bho92rcd13ifvqh3g","pricing_plan_id":"cebpf4jnsgd1na2vs0mg"},{"bike_id":"5c576818-20af-409b-a7f5-400554d1aabd","system_id":"levelo_inurba_marseille","lat":43.29804,"lon":5.40401,"is_reserved":false,"is_disabled":false,"rental_uris":{"android":"levelo://app?vid=5c576818-20af-409b-a7f5-400554d1aabd","ios":"levelo://app?vid=5c576818-20af-409b-a7f5-400554d1aabd"},"vehicle_type_id":"4","last_reported":1732057739,"current_range_meters":40000,"station_id":"ce4bh112rcd13ifvqd90","pricing_plan_id":"cebpf4jnsgd1na2vs0mg"},{"bike_id":"66ffd7c3-e5e6-45da-aed2-6b9b69732823","system_id":"levelo_inurba_marseille","lat":43.31994,"lon":5.38147,"is_reserved":false,"is_disabled":false,"rental_uris":{"android":"levelo://app?vid=66ffd7c3-e5e6-45da-aed2-6b9b69732823","ios":"levelo://app?vid=66ffd7c3-e5e6-45da-aed2-6b9b69732823"},"vehicle_type_id":"4","last_reported":1732057739,"current_range_meters":28400,"station_id":"ce4bhr12rcd13ifvqhpg","pricing_plan_id":"cebpf4jnsgd1na2vs0mg"},{"bike_id":"cf1a7e82-21a4-4711-9b1e-cbca80979256","system_id":"levelo_inurba_marseille","lat":43.27434,"lon":5.39417,"is_reserved":false,"is_disabled":false,"rental_uris":{"android":"levelo://app?vid=cf1a7e82-21a4-4711-9b1e-cbca80979256","ios":"levelo://app?vid=cf1a7e82-21a4-4711-9b1e-cbca80979256"},"vehicle_type_id":"4","last_reported":1732057739,"current_range_meters":7200,"station_id":"ce4bhdp2rcd13ifvqf20","pricing_plan_id":"cebpf4jnsgd1na2vs0mg"},{"bike_id":"df9d5396-9474-4876-97a8-21d4c85769c9","system_id":"levelo_inurba_marseille","lat":43.28441,"lon":5.3919,"is_reserved":false,"is_disabled":false,"rental_uris":{"android":"levelo://app?vid=df9d5396-9474-4876-97a8-21d4c85769c9","ios":"levelo://app?vid=df9d5396-9474-4876-97a8-21d4c85769c9"},"vehicle_type_id":"4","last_reported":1732057739,"current_range_meters":38800,"station_id":"ce4bhoh2rcd13ifvqh5g","pricing_plan_id":"cebpf4jnsgd1na2vs0mg"},{"bike_id":"96d854f2-ec2d-4002-b9d9-a475c303287c","system_id":"levelo_inurba_marseille","lat":43.27499,"lon":5.42454,"is_reserved":false,"is_disabled":false,"rental_uris":{"android":"levelo://app?vid=96d854f2-ec2d-4002-b9d9-a475c303287c","ios":"levelo://app?vid=96d854f2-ec2d-4002-b9d9-a475c303287c"},"vehicle_type_id":"4","last_reported":1732057739,"current_range_meters":8000,"station_id":"ce4bhn92rcd13ifvqgrg","pricing_plan_id":"cebpf4jnsgd1na2vs0mg"},{"bike_id":"1887bcea-d10b-488a-ad88-af3c36643bde","system_id":"levelo_inurba_marseille","lat":43.30328,"lon":5.40446,"is_reserved":false,"is_disabled":false,"rental_uris":{"android":"levelo://app?vid=1887bcea-d10b-488a-ad88-af3c36643bde","ios":"levelo://app?vid=1887bcea-d10b-488a-ad88-af3c36643bde"},"vehicle_type_id":"4","last_reported":1732057739,"current_range_meters":31200,"station_id":"ce4bh012rcd13ifvqd10","pricing_plan_id":"cebpf4jnsgd1na2vs0mg"},{"bike_id":"9a0f8073-9fc4-477f-af62-f52952da19ac","system_id":"levelo_inurba_marseille","lat":43.28465,"lon":5.35897,"is_reserved":false,"is_disabled":false,"rental_uris":{"android":"levelo://app?vid=9a0f8073-9fc4-477f-af62-f52952da19ac","ios":"levelo://app?vid=9a0f8073-9fc4-477f-af62-f52952da19ac"},"vehicle_type_id":"4","last_reported":1732057739,"current_range_meters":17600,"station_id":"ce4bhah2rcd13ifvqei0","pricing_plan_id":"cebpf4jnsgd1na2vs0mg"},{"bike_id":"25370060-6cc2-41f2-8aa5-28dd2329d2c9","system_id":"levelo_inurba_marseille","lat":43.27072,"lon":5.42286,"is_reserved":false,"is_disabled":false,"rental_uris":{"android":"levelo://app?vid=25370060-6cc2-41f2-8aa5-28dd2329d2c9","ios":"levelo://app?vid=25370060-6cc2-41f2-8aa5-28dd2329d2c9"},"vehicle_type_id":"4","last_reported":1732057739,"current_range_meters":36000,"station_id":"ce4bhk92rcd13ifvqgb0","pricing_plan_id":"cebpf4jnsgd1na2vs0mg"},{"bike_id":"0009ec07-8c49-43d0-9918-78167d6a99be","system_id":"levelo_inurba_marseille","lat":43.24668,"lon":5.38156,"is_reserved":false,"is_disabled":false,"rental_uris":{"android":"levelo://app?vid=0009ec07-8c49-43d0-9918-78167d6a99be","ios":"levelo://app?vid=0009ec07-8c49-43d0-9918-78167d6a99be"},"vehicle_type_id":"4","last_reported":1732057739,"current_range_meters":38800,"station_id":"ce4bhih2rcd13ifvqfr0","pricing_plan_id":"cebpf4jnsgd1na2vs0mg"},{"bike_id":"efaa20f7-d2fb-4778-9ca3-b17e9193d440","system_id":"levelo_inurba_marseille","lat":43.33723,"lon":5.3918,"is_reserved":false,"is_disabled":false,"rental_uris":{"android":"levelo://app?vid=efaa20f7-d2fb-4778-9ca3-b17e9193d440","ios":"levelo://app?vid=efaa20f7-d2fb-4778-9ca3-b17e9193d440"},"vehicle_type_id":"4","last_reported":1732057739,"current_range_meters":36800,"station_id":"ce4bhr92rcd13ifvqhsg","pricing_plan_id":"cebpf4jnsgd1na2vs0mg"},{"bike_id":"42eca287-3460-4af0-902f-a7c650ccf094","system_id":"levelo_inurba_marseille","lat":43.31683,"lon":5.40474,"is_reserved":false,"is_disabled":false,"rental_uris":{"android":"levelo://app?vid=42eca287-3460-4af0-902f-a7c650ccf094","ios":"levelo://app?vid=42eca287-3460-4af0-902f-a7c650ccf094"},"vehicle_type_id":"4","last_reported":1732057739,"current_range_meters":38800,"station_id":"ce4bh012rcd13ifvqd00","pricing_plan_id":"cebpf4jnsgd1na2vs0mg"},{"bike_id":"cbb19e09-aa20-4763-8e71-dc123172ec07","system_id":"levelo_inurba_marseille","lat":43.2315,"lon":5.43707,"is_reserved":false,"is_disabled":true,"rental_uris":{"android":"levelo://app?vid=cbb19e09-aa20-4763-8e71-dc123172ec07","ios":"levelo://app?vid=cbb19e09-aa20-4763-8e71-dc123172ec07"},"vehicle_type_id":"4","last_reported":1732057739,"current_range_meters":37600,"station_id":"ce4bhmp2rcd13ifvqgog","pricing_plan_id":"cebpf4jnsgd1na2vs0mg"},{"bike_id":"66864d75-2346-429f-8d44-6391ce3744a8","system_id":"levelo_inurba_marseille","lat":43.34139,"lon":5.40902,"is_reserved":false,"is_disabled":false,"rental_uris":{"android":"levelo://app?vid=66864d75-2346-429f-8d44-6391ce3744a8","ios":"levelo://app?vid=66864d75-2346-429f-8d44-6391ce3744a8"},"vehicle_type_id":"4","last_reported":1732057739,"current_range_meters":37600,"station_id":"ce4bhqh2rcd13ifvqhlg","pricing_plan_id":"cebpf4jnsgd1na2vs0mg"},{"bike_id":"028e5427-36e2-49e1-b3db-260058fffb58","system_id":"levelo_inurba_marseille","lat":43.25581,"lon":5.38238,"is_reserved":false,"is_disabled":false,"rental_uris":{"android":"levelo://app?vid=028e5427-36e2-49e1-b3db-260058fffb58","ios":"levelo://app?vid=028e5427-36e2-49e1-b3db-260058fffb58"},"vehicle_type_id":"4","last_reported":1732057739,"current_range_meters":30400,"station_id":"ce4bhih2rcd13ifvqfs0","pricing_plan_id":"cebpf4jnsgd1na2vs0mg"},{"bike_id":"0db81cf3-40ae-4e31-aab7-a5cef3fda3e5","system_id":"levelo_inurba_marseille","lat":43.31485,"lon":5.373,"is_reserved":false,"is_disabled":false,"rental_uris":{"android":"levelo://app?vid=0db81cf3-40ae-4e31-aab7-a5cef3fda3e5","ios":"levelo://app?vid=0db81cf3-40ae-4e31-aab7-a5cef3fda3e5"},"vehicle_type_id":"4","last_reported":1732057739,"current_range_meters":13600,"station_id":"ce4bgt12rcd13ifvqcd0","pricing_plan_id":"cebpf4jnsgd1na2vs0mg"},{"bike_id":"7f6bcbd7-c375-40a1-9303-b978ffb5acba","system_id":"levelo_inurba_marseille","lat":43.29877,"lon":5.39736,"is_reserved":false,"is_disabled":false,"rental_uris":{"android":"levelo://app?vid=7f6bcbd7-c375-40a1-9303-b978ffb5acba","ios":"levelo://app?vid=7f6bcbd7-c375-40a1-9303-b978ffb5acba"},"vehicle_type_id":"4","last_reported":1732057739,"current_range_meters":38800,"station_id":"ce4bh0h2rcd13ifvqd50","pricing_plan_id":"cebpf4jnsgd1na2vs0mg"},{"bike_id":"e50da4e6-3f5d-49ec-bd1f-8815b3de316e","system_id":"levelo_inurba_marseille","lat":43.29264,"lon":5.38433,"is_reserved":false,"is_disabled":false,"rental_uris":{"android":"levelo://app?vid=e50da4e6-3f5d-49ec-bd1f-8815b3de316e","ios":"levelo://app?vid=e50da4e6-3f5d-49ec-bd1f-8815b3de316e"},"vehicle_type_id":"4","last_reported":1732057739,"current_range_meters":12800,"station_id":"ce4bh692rcd13ifvqea0","pricing_plan_id":"cebpf4jnsgd1na2vs0mg"},{"bike_id":"a8fcb152-edda-4c58-9ada-e243f79dd092","system_id":"levelo_inurba_marseille","lat":43.31358,"lon":5.38495,"is_reserved":false,"is_disabled":false,"rental_uris":{"android":"levelo://app?vid=a8fcb152-edda-4c58-9ada-e243f79dd092","ios":"levelo://app?vid=a8fcb152-edda-4c58-9ada-e243f79dd092"},"vehicle_type_id":"4","last_reported":1732057739,"current_range_meters":16400,"station_id":"ce4bgt92rcd13ifvqcf0","pricing_plan_id":"cebpf4jnsgd1na2vs0mg"},{"bike_id":"58b348a0-214e-4585-b413-619a307634a9","system_id":"levelo_inurba_marseille","lat":43.28917,"lon":5.38408,"is_reserved":false,"is_disabled":true,"rental_uris":{"android":"levelo://app?vid=58b348a0-214e-4585-b413-619a307634a9","ios":"levelo://app?vid=58b348a0-214e-4585-b413-619a307634a9"},"vehicle_type_id":"4","last_reported":1732057739,"current_range_meters":36000,"station_id":"ce4bh612rcd13ifvqe6g","pricing_plan_id":"cebpf4jnsgd1na2vs0mg"},{"bike_id":"22606d5d-ac7c-401e-9328-08c0d60eaa89","system_id":"levelo_inurba_marseille","lat":43.28933,"lon":5.36388,"is_reserved":false,"is_disabled":false,"rental_uris":{"android":"levelo://app?vid=22606d5d-ac7c-401e-9328-08c0d60eaa89","ios":"levelo://app?vid=22606d5d-ac7c-401e-9328-08c0d60eaa89"},"vehicle_type_id":"4","last_reported":1732057739,"current_range_meters":38000,"station_id":"ce4bhc92rcd13ifvqetg","pricing_plan_id":"cebpf4jnsgd1na2vs0mg"},{"bike_id":"04ba697d-55c7-4c2f-93de-e345f8b77d99","system_id":"levelo_inurba_marseille","lat":43.31361,"lon":5.38493,"is_reserved":false,"is_disabled":false,"rental_uris":{"android":"levelo://app?vid=04ba697d-55c7-4c2f-93de-e345f8b77d99","ios":"levelo://app?vid=04ba697d-55c7-4c2f-93de-e345f8b77d99"},"vehicle_type_id":"4","last_reported":1732057739,"current_range_meters":17600,"station_id":"ce4bgt92rcd13ifvqcf0","pricing_plan_id":"cebpf4jnsgd1na2vs0mg"},{"bike_id":"255c27ee-5959-45f1-ad22-27f1c5e6c5e3","system_id":"levelo_inurba_marseille","lat":43.33027,"lon":5.39043,"is_reserved":false,"is_disabled":false,"rental_uris":{"android":"levelo://app?vid=255c27ee-5959-45f1-ad22-27f1c5e6c5e3","ios":"levelo://app?vid=255c27ee-5959-45f1-ad22-27f1c5e6c5e3"},"vehicle_type_id":"4","last_reported":1732057739,"current_range_meters":38800,"station_id":"ce4bhr92rcd13ifvqhrg","pricing_plan_id":"cebpf4jnsgd1na2vs0mg"},{"bike_id":"ea3698ba-4aa8-4712-b521-18ff56838777","system_id":"levelo_inurba_marseille","lat":43.25492,"lon":5.37651,"is_reserved":false,"is_disabled":false,"rental_uris":{"android":"levelo://app?vid=ea3698ba-4aa8-4712-b521-18ff56838777","ios":"levelo://app?vid=ea3698ba-4aa8-4712-b521-18ff56838777"},"vehicle_type_id":"4","last_reported":1732057739,"current_range_meters":38800,"station_id":"ce4bhh12rcd13ifvqff0","pricing_plan_id":"cebpf4jnsgd1na2vs0mg"},{"bike_id":"3d265bf3-4f47-4dde-b008-c1fedc3da151","system_id":"levelo_inurba_marseille","lat":43.30805,"lon":5.38149,"is_reserved":false,"is_disabled":false,"rental_uris":{"android":"levelo://app?vid=3d265bf3-4f47-4dde-b008-c1fedc3da151","ios":"levelo://app?vid=3d265bf3-4f47-4dde-b008-c1fedc3da151"},"vehicle_type_id":"4","last_reported":1732057739,"current_range_meters":28000,"station_id":"ce4bgt12rcd13ifvqce0","pricing_plan_id":"cebpf4jnsgd1na2vs0mg"},{"bike_id":"97a35da9-3917-40ad-b9e7-9f7cbd6aff5c","system_id":"levelo_inurba_marseille","lat":43.30138,"lon":5.39875,"is_reserved":false,"is_disabled":true,"rental_uris":{"android":"levelo://app?vid=97a35da9-3917-40ad-b9e7-9f7cbd6aff5c","ios":"levelo://app?vid=97a35da9-3917-40ad-b9e7-9f7cbd6aff5c"},"vehicle_type_id":"4","last_reported":1732057739,"current_range_meters":31200,"station_id":"ce4bh0h2rcd13ifvqd40","pricing_plan_id":"cebpf4jnsgd1na2vs0mg"},{"bike_id":"7dedff14-ddf4-4788-a8d6-d7958071dc29","system_id":"levelo_inurba_marseille","lat":43.30781,"lon":5.37659,"is_reserved":false,"is_disabled":false,"rental_uris":{"android":"levelo://app?vid=7dedff14-ddf4-4788-a8d6-d7958071dc29","ios":"levelo://app?vid=7dedff14-ddf4-4788-a8d6-d7958071dc29"},"vehicle_type_id":"4","last_reported":1732057739,"current_range_meters":20800,"station_id":"ce4bgv92rcd13ifvqcq0","pricing_plan_id":"cebpf4jnsgd1na2vs0mg"},{"bike_id":"8730b9be-d088-45aa-9bfc-66568a293530","system_id":"levelo_inurba_marseille","lat":43.26807,"lon":5.40268,"is_reserved":false,"is_disabled":true,"rental_uris":{"android":"levelo://app?vid=8730b9be-d088-45aa-9bfc-66568a293530","ios":"levelo://app?vid=8730b9be-d088-45aa-9bfc-66568a293530"},"vehicle_type_id":"4","last_reported":1732057739,"current_range_meters":1600,"station_id":"ce501612rcd8frsf0b60","pricing_plan_id":"cebpf4jnsgd1na2vs0mg"},{"bike_id":"7a74f50b-fe40-4106-9f5d-13731ba6b393","system_id":"levelo_inurba_marseille","lat":43.32364,"lon":5.38886,"is_reserved":false,"is_disabled":false,"rental_uris":{"android":"levelo://app?vid=7a74f50b-fe40-4106-9f5d-13731ba6b393","ios":"levelo://app?vid=7a74f50b-fe40-4106-9f5d-13731ba6b393"},"vehicle_type_id":"4","last_reported":1732057739,"current_range_meters":32400,"station_id":"ce4bhqp2rcd13ifvqhog","pricing_plan_id":"cebpf4jnsgd1na2vs0mg"},{"bike_id":"e5951ee3-4a5a-4ebb-b469-096c5188dfa3","system_id":"levelo_inurba_marseille","lat":43.24029,"lon":5.36612,"is_reserved":false,"is_disabled":true,"rental_uris":{"android":"levelo://app?vid=e5951ee3-4a5a-4ebb-b469-096c5188dfa3","ios":"levelo://app?vid=e5951ee3-4a5a-4ebb-b469-096c5188dfa3"},"vehicle_type_id":"4","last_reported":1732057739,"current_range_meters":400,"station_id":"","pricing_plan_id":"cebpf4jnsgd1na2vs0mg"},{"bike_id":"70650981-1037-42e1-8c4a-23684b285817","system_id":"levelo_inurba_marseille","lat":43.29032,"lon":5.39972,"is_reserved":false,"is_disabled":false,"rental_uris":{"android":"levelo://app?vid=70650981-1037-42e1-8c4a-23684b285817","ios":"levelo://app?vid=70650981-1037-42e1-8c4a-23684b285817"},"vehicle_type_id":"4","last_reported":1732057739,"current_range_meters":30800,"station_id":"ce4bh392rcd13ifvqdm0","pricing_plan_id":"cebpf4jnsgd1na2vs0mg"},{"bike_id":"e479f909-ae5e-41db-9d1a-44b3b5e351a9","system_id":"levelo_inurba_marseille","lat":43.30778,"lon":5.3765,"is_reserved":false,"is_disabled":false,"rental_uris":{"android":"levelo://app?vid=e479f909-ae5e-41db-9d1a-44b3b5e351a9","ios":"levelo://app?vid=e479f909-ae5e-41db-9d1a-44b3b5e351a9"},"vehicle_type_id":"4","last_reported":1732057739,"current_range_meters":39200,"station_id":"ce4bgv92rcd13ifvqcq0","pricing_plan_id":"cebpf4jnsgd1na2vs0mg"},{"bike_id":"b2f6b9cf-69db-40ab-8230-689c41a2c16c","system_id":"levelo_inurba_marseille","lat":43.24166,"lon":5.36398,"is_reserved":false,"is_disabled":false,"rental_uris":{"android":"levelo://app?vid=b2f6b9cf-69db-40ab-8230-689c41a2c16c","ios":"levelo://app?vid=b2f6b9cf-69db-40ab-8230-689c41a2c16c"},"vehicle_type_id":"4","last_reported":1732057739,"current_range_meters":38800,"station_id":"cpo36qri1sfpv3e86is0","pricing_plan_id":"cebpf4jnsgd1na2vs0mg"},{"bike_id":"33c348fc-17cb-4f59-aca8-be10bb3a6eb8","system_id":"levelo_inurba_marseille","lat":43.28943,"lon":5.36641,"is_reserved":false,"is_disabled":false,"rental_uris":{"android":"levelo://app?vid=33c348fc-17cb-4f59-aca8-be10bb3a6eb8","ios":"levelo://app?vid=33c348fc-17cb-4f59-aca8-be10bb3a6eb8"},"vehicle_type_id":"4","last_reported":1732057739,"current_range_meters":35600,"station_id":"ce4bhap2rcd13ifvqek0","pricing_plan_id":"cebpf4jnsgd1na2vs0mg"},{"bike_id":"ee58c0c2-c7d8-4d0f-91e5-095566050b2d","system_id":"levelo_inurba_marseille","lat":43.28569,"lon":5.39517,"is_reserved":false,"is_disabled":false,"rental_uris":{"android":"levelo://app?vid=ee58c0c2-c7d8-4d0f-91e5-095566050b2d","ios":"levelo://app?vid=ee58c0c2-c7d8-4d0f-91e5-095566050b2d"},"vehicle_type_id":"4","last_reported":1732057739,"current_range_meters":40000,"station_id":"ce4bh292rcd13ifvqdg0","pricing_plan_id":"cebpf4jnsgd1na2vs0mg"},{"bike_id":"2910f69a-6dac-4d69-a60d-e4f1b8cce200","system_id":"levelo_inurba_marseille","lat":43.27814,"lon":5.40726,"is_reserved":false,"is_disabled":true,"rental_uris":{"android":"levelo://app?vid=2910f69a-6dac-4d69-a60d-e4f1b8cce200","ios":"levelo://app?vid=2910f69a-6dac-4d69-a60d-e4f1b8cce200"},"vehicle_type_id":"4","last_reported":1732057739,"current_range_meters":16800,"station_id":"ce4bhnh2rcd13ifvqgtg","pricing_plan_id":"cebpf4jnsgd1na2vs0mg"},{"bike_id":"1d67cf6a-a49c-4cfb-b29f-0134bf36932c","system_id":"levelo_inurba_marseille","lat":43.27571,"lon":5.38421,"is_reserved":false,"is_disabled":false,"rental_uris":{"android":"levelo://app?vid=1d67cf6a-a49c-4cfb-b29f-0134bf36932c","ios":"levelo://app?vid=1d67cf6a-a49c-4cfb-b29f-0134bf36932c"},"vehicle_type_id":"4","last_reported":1732057739,"current_range_meters":39200,"station_id":"ce4bhh92rcd13ifvqfi0","pricing_plan_id":"cebpf4jnsgd1na2vs0mg"},{"bike_id":"8b06473f-89d9-40e7-b900-458975555237","system_id":"levelo_inurba_marseille","lat":43.31281,"lon":5.40173,"is_reserved":false,"is_disabled":false,"rental_uris":{"android":"levelo://app?vid=8b06473f-89d9-40e7-b900-458975555237","ios":"levelo://app?vid=8b06473f-89d9-40e7-b900-458975555237"},"vehicle_type_id":"4","last_reported":1732057739,"current_range_meters":29600,"station_id":"ce4bh092rcd13ifvqd30","pricing_plan_id":"cebpf4jnsgd1na2vs0mg"},{"bike_id":"71648c13-3a5a-43ff-9ce3-5b4b3e051537","system_id":"levelo_inurba_marseille","lat":43.28935,"lon":5.36633,"is_reserved":false,"is_disabled":false,"rental_uris":{"android":"levelo://app?vid=71648c13-3a5a-43ff-9ce3-5b4b3e051537","ios":"levelo://app?vid=71648c13-3a5a-43ff-9ce3-5b4b3e051537"},"vehicle_type_id":"4","last_reported":1732057739,"current_range_meters":38000,"station_id":"ce4bhap2rcd13ifvqek0","pricing_plan_id":"cebpf4jnsgd1na2vs0mg"},{"bike_id":"ec6f5105-b186-468c-94e0-25efddd0ee4f","system_id":"levelo_inurba_marseille","lat":43.28458,"lon":5.35883,"is_reserved":false,"is_disabled":false,"rental_uris":{"android":"levelo://app?vid=ec6f5105-b186-468c-94e0-25efddd0ee4f","ios":"levelo://app?vid=ec6f5105-b186-468c-94e0-25efddd0ee4f"},"vehicle_type_id":"4","last_reported":1732057739,"current_range_meters":32400,"station_id":"ce4bhah2rcd13ifvqei0","pricing_plan_id":"cebpf4jnsgd1na2vs0mg"},{"bike_id":"da118503-6ab7-4c94-98bc-2b63accd50d2","system_id":"levelo_inurba_marseille","lat":43.31083,"lon":5.42432,"is_reserved":false,"is_disabled":false,"rental_uris":{"android":"levelo://app?vid=da118503-6ab7-4c94-98bc-2b63accd50d2","ios":"levelo://app?vid=da118503-6ab7-4c94-98bc-2b63accd50d2"},"vehicle_type_id":"4","last_reported":1732057739,"current_range_meters":38800,"station_id":"ce4bhp92rcd13ifvqhag","pricing_plan_id":"cebpf4jnsgd1na2vs0mg"},{"bike_id":"163476e8-f61f-4a38-abb2-c3437d20d0dc","system_id":"levelo_inurba_marseille","lat":43.28031,"lon":5.36948,"is_reserved":false,"is_disabled":false,"rental_uris":{"android":"levelo://app?vid=163476e8-f61f-4a38-abb2-c3437d20d0dc","ios":"levelo://app?vid=163476e8-f61f-4a38-abb2-c3437d20d0dc"},"vehicle_type_id":"4","last_reported":1732057739,"current_range_meters":37600,"station_id":"ce4bha12rcd13ifvqef0","pricing_plan_id":"cebpf4jnsgd1na2vs0mg"},{"bike_id":"f55181d4-2053-40e2-9cda-06227a4b9bdf","system_id":"levelo_inurba_marseille","lat":43.32478,"lon":5.3656,"is_reserved":false,"is_disabled":false,"rental_uris":{"android":"levelo://app?vid=f55181d4-2053-40e2-9cda-06227a4b9bdf","ios":"levelo://app?vid=f55181d4-2053-40e2-9cda-06227a4b9bdf"},"vehicle_type_id":"4","last_reported":1732057739,"current_range_meters":30800,"station_id":"ce4bhs12rcd13ifvqhvg","pricing_plan_id":"cebpf4jnsgd1na2vs0mg"},{"bike_id":"4a262698-6017-4248-8ebf-e98c32f88db6","system_id":"levelo_inurba_marseille","lat":43.32666,"lon":5.4099,"is_reserved":false,"is_disabled":false,"rental_uris":{"android":"levelo://app?vid=4a262698-6017-4248-8ebf-e98c32f88db6","ios":"levelo://app?vid=4a262698-6017-4248-8ebf-e98c32f88db6"},"vehicle_type_id":"4","last_reported":1732057739,"current_range_meters":28400,"station_id":"ce4bhpp2rcd13ifvqhgg","pricing_plan_id":"cebpf4jnsgd1na2vs0mg"},{"bike_id":"7ccf2f24-0143-407d-973b-322d37cb2794","system_id":"levelo_inurba_marseille","lat":43.32101,"lon":5.36777,"is_reserved":false,"is_disabled":false,"rental_uris":{"android":"levelo://app?vid=7ccf2f24-0143-407d-973b-322d37cb2794","ios":"levelo://app?vid=7ccf2f24-0143-407d-973b-322d37cb2794"},"vehicle_type_id":"4","last_reported":1732057739,"current_range_meters":28400,"station_id":"ce4bhrh2rcd13ifvqhug","pricing_plan_id":"cebpf4jnsgd1na2vs0mg"},{"bike_id":"093a9091-b688-469c-baf4-5424e8802e24","system_id":"levelo_inurba_marseille","lat":43.32366,"lon":5.38878,"is_reserved":false,"is_disabled":false,"rental_uris":{"android":"levelo://app?vid=093a9091-b688-469c-baf4-5424e8802e24","ios":"levelo://app?vid=093a9091-b688-469c-baf4-5424e8802e24"},"vehicle_type_id":"4","last_reported":1732057739,"current_range_meters":13600,"station_id":"ce4bhqp2rcd13ifvqhog","pricing_plan_id":"cebpf4jnsgd1na2vs0mg"},{"bike_id":"ad142e48-0964-413b-b6c6-2a15c9a22e3c","system_id":"levelo_inurba_marseille","lat":43.30348,"lon":5.4187,"is_reserved":false,"is_disabled":false,"rental_uris":{"android":"levelo://app?vid=ad142e48-0964-413b-b6c6-2a15c9a22e3c","ios":"levelo://app?vid=ad142e48-0964-413b-b6c6-2a15c9a22e3c"},"vehicle_type_id":"4","last_reported":1732057739,"current_range_meters":38400,"station_id":"ce4bhop2rcd13ifvqh7g","pricing_plan_id":"cebpf4jnsgd1na2vs0mg"},{"bike_id":"c6800515-93bb-4b28-b587-fba0ce4f0478","system_id":"levelo_inurba_marseille","lat":43.29442,"lon":5.39752,"is_reserved":false,"is_disabled":false,"rental_uris":{"android":"levelo://app?vid=c6800515-93bb-4b28-b587-fba0ce4f0478","ios":"levelo://app?vid=c6800515-93bb-4b28-b587-fba0ce4f0478"},"vehicle_type_id":"4","last_reported":1732057739,"current_range_meters":39200,"station_id":"ce4bh3h2rcd13ifvqdo0","pricing_plan_id":"cebpf4jnsgd1na2vs0mg"},{"bike_id":"f2cc4eb9-f669-4abb-815a-092e264f769c","system_id":"levelo_inurba_marseille","lat":43.28938,"lon":5.3962,"is_reserved":false,"is_disabled":false,"rental_uris":{"android":"levelo://app?vid=f2cc4eb9-f669-4abb-815a-092e264f769c","ios":"levelo://app?vid=f2cc4eb9-f669-4abb-815a-092e264f769c"},"vehicle_type_id":"4","last_reported":1732057739,"current_range_meters":28800,"station_id":"ce4bh3h2rcd13ifvqdn0","pricing_plan_id":"cebpf4jnsgd1na2vs0mg"},{"bike_id":"7e35deb2-0950-494e-a5fc-48886e723f0a","system_id":"levelo_inurba_marseille","lat":43.290368,"lon":5.37561,"is_reserved":false,"is_disabled":true,"rental_uris":{"android":"levelo://app?vid=7e35deb2-0950-494e-a5fc-48886e723f0a","ios":"levelo://app?vid=7e35deb2-0950-494e-a5fc-48886e723f0a"},"vehicle_type_id":"4","last_reported":1732057739,"current_range_meters":7200,"station_id":"ce4bh692rcd13ifvqe90","pricing_plan_id":"cebpf4jnsgd1na2vs0mg"},{"bike_id":"34d2675f-3834-4367-82c9-2da52f7d32bd","system_id":"levelo_inurba_marseille","lat":43.28485,"lon":5.38412,"is_reserved":false,"is_disabled":false,"rental_uris":{"android":"levelo://app?vid=34d2675f-3834-4367-82c9-2da52f7d32bd","ios":"levelo://app?vid=34d2675f-3834-4367-82c9-2da52f7d32bd"},"vehicle_type_id":"4","last_reported":1732057739,"current_range_meters":38400,"station_id":"ce4bh512rcd13ifvqe3g","pricing_plan_id":"cebpf4jnsgd1na2vs0mg"},{"bike_id":"363429d8-7b09-48c9-851e-20447aae82b1","system_id":"levelo_inurba_marseille","lat":43.29679,"lon":5.37287,"is_reserved":false,"is_disabled":false,"rental_uris":{"android":"levelo://app?vid=363429d8-7b09-48c9-851e-20447aae82b1","ios":"levelo://app?vid=363429d8-7b09-48c9-851e-20447aae82b1"},"vehicle_type_id":"4","last_reported":1732057739,"current_range_meters":32400,"station_id":"ce4bgk12rcd13ifvqbj0","pricing_plan_id":"cebpf4jnsgd1na2vs0mg"},