{"last_updated":1741079440,"ttl":60,"version":"2.2","data":{"bikes":[{"bike_id":"37b9ef76-6552-4980-9870-f60f6671e101","system_id":"levelo_inurba_marseille","lat":43.23963,"lon":5.36623,"is_reserved":false,"is_disabled":false,"rental_uris":{"android":"levelo://app?vid=37b9ef76-6552-4980-9870-f60f6671e101","ios":"levelo://app?vid=37b9ef76-6552-4980-9870-f60f6671e101"},"vehicle_type_id":"4","last_reported":1741079440,"current_range_meters":2800,"station_id":"ce4bhi12rcd13ifvqfp0","pricing_plan_id":"cebpf4jnsgd1na2vs0mg"},{"bike_id":"b4f3536c-bb11-4e20-900e-2d535e84ca8e","system_id":"levelo_inurba_marseille","lat":43.26205,"lon":5.37444,"is_reserved":false,"is_disabled":false,"rental_uris":{"android":"levelo://app?vid=b4f3536c-bb11-4e20-900e-2d535e84ca8e","ios":"levelo://app?vid=b4f3536c-bb11-4e20-900e-2d535e84ca8e"},"vehicle_type_id":"4","last_reported":1741079440,"current_range_meters":2800,"station_id":"ce4bhgp2rcd13ifvqfc0","pricing_plan_id":"cebpf4jnsgd1na2vs0mg"},{"bike_id":"43fc3799-af81-481c-9ed4-0b716916493d","system_id":"levelo_inurba_marseille","lat":43.33604,"lon":5.41046,"is_reserved":false,"is_disabled":false,"rental_uris":{"android":"levelo://app?vid=43fc3799-af81-481c-9ed4-0b716916493d","ios":"levelo://app?vid=43fc3799-af81-481c-9ed4-0b716916493d"},"vehicle_type_id":"4","last_reported":1741079440,"current_range_meters":2800,"station_id":"ce4bhqh2rcd13ifvqhmg","pricing_plan_id":"cebpf4jnsgd1na2vs0mg"},{"bike_id":"fd55ec61-ea03-4691-8f74-530e74ea7311","system_id":"levelo_inurba_marseille","lat":43.25001,"lon":5.38941,"is_reserved":false,"is_disabled":false,"rental_uris":{"android":"levelo://app?vid=fd55ec61-ea03-4691-8f74-530e74ea7311","ios":"levelo://app?vid=fd55ec61-ea03-4691-8f74-530e74ea7311"},"vehicle_type_id":"4","last_reported":1741079440,"current_range_meters":3200,"station_id":"ce4bhgp2rcd13ifvqfd0","pricing_plan_id":"cebpf4jnsgd1na2vs0mg"},{"bike_id":"d72d0ee2-a1af-4325-aefb-9a4543a5c459","system_id":"levelo_inurba_marseille","lat":43.30953,"lon":5.39031,"is_reserved":false,"is_disabled":false,"rental_uris":{"android":"levelo://app?vid=d72d0ee2-a1af-4325-aefb-9a4543a5c459","ios":"levelo://app?vid=d72d0ee2-a1af-4325-aefb-9a4543a5c459"},"vehicle_type_id":"4","last_reported":1741079440,"current_range_meters":3200,"station_id":"ce4bgup2rcd13ifvqco0","pricing_plan_id":"cebpf4jnsgd1na2vs0mg"},{"bike_id":"c8aaae62-b57e-42c9-b2e8-f1270443c353","system_id":"levelo_inurba_marseille","lat":43.24073,"lon":5.37757,"is_reserved":false,"is_disabled":false,"rental_uris":{"android":"levelo://app?vid=c8aaae62-b57e-42c9-b2e8-f1270443c353","ios":"levelo://app?vid=c8aaae62-b57e-42c9-b2e8-f1270443c353"},"vehicle_type_id":"4","last_reported":1741079440,"current_range_meters":3600,"station_id":"ce4bhnp2rcd13ifvqgvg","pricing_plan_id":"cebpf4jnsgd1na2vs0mg"},{"bike_id":"e7bf9aa4-ebab-4733-bd2d-62b9efb9b294","system_id":"levelo_inurba_marseille","lat":43.27492,"lon":5.42457,"is_reserved":false,"is_disabled":true,"rental_uris":{"android":"levelo://app?vid=e7bf9aa4-ebab-4733-bd2d-62b9efb9b294","ios":"levelo://app?vid=e7bf9aa4-ebab-4733-bd2d-62b9efb9b294"},"vehicle_type_id":"4","last_reported":1741079440,"current_range_meters":3600,"station_id":"ce4bhn92rcd13ifvqgrg","pricing_plan_id":"cebpf4jnsgd1na2vs0mg"},{"bike_id":"721ef66b-af96-4e96-b794-18b86baeca22","system_id":"levelo_inurba_marseille","lat":43.2894,"lon":5.36371,"is_reserved":false,"is_disabled":false,"rental_uris":{"android":"levelo://app?vid=721ef66b-af96-4e96-b794-18b86baeca22","ios":"levelo://app?vid=721ef66b-af96-4e96-b794-18b86baeca22"},"vehicle_type_id":"4","last_reported":1741079440,"current_range_meters":3600,"station_id":"ce4bhc92rcd13ifvqetg","pricing_plan_id":"cebpf4jnsgd1na2vs0mg"},{"bike_id":"959b0f4f-1354-49f8-8fd4-68f8d93f25e1","system_id":"levelo_inurba_marseille","lat":43.31262,"lon":5.36846,"is_reserved":false,"is_disabled":false,"rental_uris":{"android":"levelo://app?vid=959b0f4f-1354-49f8-8fd4-68f8d93f25e1","ios":"levelo://app?vid=959b0f4f-1354-49f8-8fd4-68f8d93f25e1"},"vehicle_type_id":"4","last_reported":1741079440,"current_range_meters":3600,"station_id":"ce4bgl92rcd13ifvqbq0","pricing_plan_id":"cebpf4jnsgd1na2vs0mg"},{"bike_id":"f8fc398e-349a-4121-8b13-f0e73e82fbfd","system_id":"levelo_inurba_marseille","lat":43.23196,"lon":5.35551,"is_reserved":false,"is_disabled":false,"rental_uris":{"android":"levelo://app?vid=f8fc398e-349a-4121-8b13-f0e73e82fbfd","ios":"levelo://app?vid=f8fc398e-349a-4121-8b13-f0e73e82fbfd"},"vehicle_type_id":"4","last_reported":1741079440,"current_range_meters":3600,"station_id":"ce4bhu92rcd13ifvqi70","pricing_plan_id":"cebpf4jnsgd1na2vs0mg"},{"bike_id":"dd328e49-4345-4f25-8b36-884e658153f5","system_id":"levelo_inurba_marseille","lat":43.24075,"lon":5.37757,"is_reserved":false,"is_disabled":false,"rental_uris":{"android":"levelo://app?vid=dd328e49-4345-4f25-8b36-884e658153f5","ios":"levelo://app?vid=dd328e49-4345-4f25-8b36-884e658153f5"},"vehicle_type_id":"4","last_reported":1741079440,"current_range_meters":4000,"station_id":"ce4bhnp2rcd13ifvqgvg","pricing_plan_id":"cebpf4jnsgd1na2vs0mg"},{"bike_id":"23c20c41-e8a4-4dc6-b7b9-05b6d6793f3e","system_id":"levelo_inurba_marseille","lat":43.27816,"lon":5.40722,"is_reserved":false,"is_disabled":false,"rental_uris":{"android":"levelo://app?vid=23c20c41-e8a4-4dc6-b7b9-05b6d6793f3e","ios":"levelo://app?vid=23c20c41-e8a4-4dc6-b7b9-05b6d6793f3e"},"vehicle_type_id":"4","last_reported":1741079440,"current_range_meters":4000,"station_id":"ce4bhnh2rcd13ifvqgtg","pricing_plan_id":"cebpf4jnsgd1na2vs0mg"},{"bike_id":"df43c2e1-33c6-49e8-bc50-fb989edea4ec","system_id":"levelo_inurba_marseille","lat":43.23162,"lon":5.43725,"is_reserved":false,"is_disabled":false,"rental_uris":{"android":"levelo://app?vid=df43c2e1-33c6-49e8-bc50-fb989edea4ec","ios":"levelo://app?vid=df43c2e1-33c6-49e8-bc50-fb989edea4ec"},"vehicle_type_id":"4","last_reported":1741079440,"current_range_meters":4000,"station_id":"ce4bhmp2rcd13ifvqgog","pricing_plan_id":"cebpf4jnsgd1na2vs0mg"},{"bike_id":"1621e0c3-0194-4d15-8a8b-87beecb39238","system_id":"levelo_inurba_marseille","lat":43.31994,"lon":5.38146,"is_reserved":false,"is_disabled":true,"rental_uris":{"android":"levelo://app?vid=1621e0c3-0194-4d15-8a8b-87beecb39238","ios":"levelo://app?vid=1621e0c3-0194-4d15-8a8b-87beecb39238"},"vehicle_type_id":"4","last_reported":1741079440,"current_range_meters":4800,"station_id":"ce4bhr12rcd13ifvqhpg","pricing_plan_id":"cebpf4jnsgd1na2vs0mg"},{"bike_id":"2f9e49ee-4ff7-44f7-9c11-156da7dcdd6c","system_id":"levelo_inurba_marseille","lat":43.31367,"lon":5.36714,"is_reserved":false,"is_disabled":false,"rental_uris":{"android":"levelo://app?vid=2f9e49ee-4ff7-44f7-9c11-156da7dcdd6c","ios":"levelo://app?vid=2f9e49ee-4ff7-44f7-9c11-156da7dcdd6c"},"vehicle_type_id":"4","last_reported":1741079440,"current_range_meters":4800,"station_id":"ce4bgr92rcd13ifvqc6g","pricing_plan_id":"cebpf4jnsgd1na2vs0mg"},{"bike_id":"e87b6b33-4961-4eff-ae17-20e2dda88f53","system_id":"levelo_inurba_marseille","lat":43.25932,"lon":5.40929,"is_reserved":false,"is_disabled":false,"rental_uris":{"android":"levelo://app?vid=e87b6b33-4961-4eff-ae17-20e2dda88f53","ios":"levelo://app?vid=e87b6b33-4961-4eff-ae17-20e2dda88f53"},"vehicle_type_id":"4","last_reported":1741079440,"current_range_meters":4800,"station_id":"ce4bhm92rcd13ifvqglg","pricing_plan_id":"cebpf4jnsgd1na2vs0mg"},{"bike_id":"73681137-6538-4684-87ec-aa9b29720d1e","system_id":"levelo_inurba_marseille","lat":43.23214,"lon":5.35537,"is_reserved":false,"is_disabled":false,"rental_uris":{"android":"levelo://app?vid=73681137-6538-4684-87ec-aa9b29720d1e","ios":"levelo://app?vid=73681137-6538-4684-87ec-aa9b29720d1e"},"vehicle_type_id":"4","last_reported":1741079440,"current_range_meters":4800,"station_id":"ce4bhu92rcd13ifvqi70","pricing_plan_id":"cebpf4jnsgd1na2vs0mg"},{"bike_id":"97a36015-2afb-4ca1-9fa9-f40fbe3dd7a7","system_id":"levelo_inurba_marseille","lat":43.24388,"lon":5.37047,"is_reserved":false,"is_disabled":false,"rental_uris":{"android":"levelo://app?vid=97a36015-2afb-4ca1-9fa9-f40fbe3dd7a7","ios":"levelo://app?vid=97a36015-2afb-4ca1-9fa9-f40fbe3dd7a7"},"vehicle_type_id":"4","last_reported":1741079440,"current_range_meters":4800,"station_id":"ce4bhhh2rcd13ifvqfk0","pricing_plan_id":"cebpf4jnsgd1na2vs0mg"},{"bike_id":"57b275b9-0f2b-4ca5-9850-dae336e718ad","system_id":"levelo_inurba_marseille","lat":43.29369,"lon":5.37854,"is_reserved":false,"is_disabled":false,"rental_uris":{"android":"levelo://app?vid=57b275b9-0f2b-4ca5-9850-dae336e718ad","ios":"levelo://app?vid=57b275b9-0f2b-4ca5-9850-dae336e718ad"},"vehicle_type_id":"4","last_reported":1741079440,"current_range_meters":4800,"station_id":"ce4bgjh2rcd13ifvqbf0","pricing_plan_id":"cebpf4jnsgd1na2vs0mg"},{"bike_id":"cdbd4089-975b-46a1-8d03-c1b1aa3e6efa","system_id":"levelo_inurba_marseille","lat":43.31764,"lon":5.39014,"is_reserved":false,"is_disabled":false,"rental_uris":{"android":"levelo://app?vid=cdbd4089-975b-46a1-8d03-c1b1aa3e6efa","ios":"levelo://app?vid=cdbd4089-975b-46a1-8d03-c1b1aa3e6efa"},"vehicle_type_id":"4","last_reported":1741079440,"current_range_meters":4800,"station_id":"ce4bhqp2rcd13ifvqhng","pricing_plan_id":"cebpf4jnsgd1na2vs0mg"},{"bike_id":"f5614c29-78d7-4912-85e7-7f65d581a0b9","system_id":"levelo_inurba_marseille","lat":43.26556,"lon":5.37282,"is_reserved":false,"is_disabled":false,"rental_uris":{"android":"levelo://app?vid=f5614c29-78d7-4912-85e7-7f65d581a0b9","ios":"levelo://app?vid=f5614c29-78d7-4912-85e7-7f65d581a0b9"},"vehicle_type_id":"4","last_reported":1741079440,"current_range_meters":4800,"station_id":"ce4bhg12rcd13ifvqf70","pricing_plan_id":"cebpf4jnsgd1na2vs0mg"},{"bike_id":"895c1348-289e-416f-a7eb-23d2cab2fcf6","system_id":"levelo_inurba_marseille","lat":43.23153,"lon":5.43724,"is_reserved":false,"is_disabled":false,"rental_uris":{"android":"levelo://app?vid=895c1348-289e-416f-a7eb-23d2cab2fcf6","ios":"levelo://app?vid=895c1348-289e-416f-a7eb-23d2cab2fcf6"},"vehicle_type_id":"4","last_reported":1741079440,"current_range_meters":4800,"station_id":"ce4bhmp2rcd13ifvqgog","pricing_plan_id":"cebpf4jnsgd1na2vs0mg"},{"bike_id":"9db49163-1bcf-4cb4-975b-b1e9ddf4e6d9","system_id":"levelo_inurba_marseille","lat":43.27181,"lon":5.40994,"is_reserved":false,"is_disabled":false,"rental_uris":{"android":"levelo://app?vid=9db49163-1bcf-4cb4-975b-b1e9ddf4e6d9","ios":"levelo://app?vid=9db49163-1bcf-4cb4-975b-b1e9ddf4e6d9"},"vehicle_type_id":"4","last_reported":1741079440,"current_range_meters":4800,"station_id":"ce4bhl12rcd13ifvqgf0","pricing_plan_id":"cebpf4jnsgd1na2vs0mg"},{"bike_id":"2c1176d3-64ac-423b-9b12-ba862866fce4","system_id":"levelo_inurba_marseille","lat":43.275,"lon":5.42456,"is_reserved":false,"is_disabled":false,"rental_uris":{"android":"levelo://app?vid=2c1176d3-64ac-423b-9b12-ba862866fce4","ios":"levelo://app?vid=2c1176d3-64ac-423b-9b12-ba862866fce4"},"vehicle_type_id":"4","last_reported":1741079440,"current_range_meters":5600,"station_id":"ce4bhn92rcd13ifvqgrg","pricing_plan_id":"cebpf4jnsgd1na2vs0mg"},{"bike_id":"6762bf95-9213-4dab-9c73-923b452f4b23","system_id":"levelo_inurba_marseille","lat":43.28488,"lon":5.38417,"is_reserved":false,"is_disabled":false,"rental_uris":{"android":"levelo://app?vid=6762bf95-9213-4dab-9c73-923b452f4b23","ios":"levelo://app?vid=6762bf95-9213-4dab-9c73-923b452f4b23"},"vehicle_type_id":"4","last_reported":1741079440,"current_range_meters":5600,"station_id":"ce4bh512rcd13ifvqe3g","pricing_plan_id":"cebpf4jnsgd1na2vs0mg"},{"bike_id":"39417ca2-2175-48b1-b974-d12a550664e9","system_id":"levelo_inurba_marseille","lat":43.26997,"lon":5.38628,"is_reserved":false,"is_disabled":false,"rental_uris":{"android":"levelo://app?vid=39417ca2-2175-48b1-b974-d12a550664e9","ios":"levelo://app?vid=39417ca2-2175-48b1-b974-d12a550664e9"},"vehicle_type_id":"4","last_reported":1741079440,"current_range_meters":5600,"station_id":"","pricing_plan_id":"cebpf4jnsgd1na2vs0mg"},{"bike_id":"339ea272-f25a-456c-877c-feadbff46552","system_id":"levelo_inurba_marseille","lat":43.27379,"lon":5.39345,"is_reserved":false,"is_disabled":false,"rental_uris":{"android":"levelo://app?vid=339ea272-f25a-456c-877c-feadbff46552","ios":"levelo://app?vid=339ea272-f25a-456c-877c-feadbff46552"},"vehicle_type_id":"4","last_reported":1741079440,"current_range_meters":5600,"station_id":"","pricing_plan_id":"cebpf4jnsgd1na2vs0mg"},{"bike_id":"9ee3d017-a864-4e85-a47f-e27d4c7b327f","system_id":"levelo_inurba_marseille","lat":43.2781,"lon":5.40726,"is_reserved":false,"is_disabled":false,"rental_uris":{"android":"levelo://app?vid=9ee3d017-a864-4e85-a47f-e27d4c7b327f","ios":"levelo://app?vid=9ee3d017-a864-4e85-a47f-e27d4c7b327f"},"vehicle_type_id":"4","last_reported":1741079440,"current_range_meters":5600,"station_id":"ce4bhnh2rcd13ifvqgtg","pricing_plan_id":"cebpf4jnsgd1na2vs0mg"},{"bike_id":"123cb88a-c6ae-4965-8907-3320348b154f","system_id":"levelo_inurba_marseille","lat":43.3015,"lon":5.3808,"is_reserved":false,"is_disabled":false,"rental_uris":{"android":"levelo://app?vid=123cb88a-c6ae-4965-8907-3320348b154f","ios":"levelo://app?vid=123cb88a-c6ae-4965-8907-3320348b154f"},"vehicle_type_id":"4","last_reported":1741079440,"current_range_meters":5600,"station_id":"ce4bgjp2rcd13ifvqbh0","pricing_plan_id":"cebpf4jnsgd1na2vs0mg"},{"bike_id":"06111547-cab0-4555-ac48-aa03a9d7bb61","system_id":"levelo_inurba_marseille","lat":43.30145,"lon":5.37412,"is_reserved":false,"is_disabled":false,"rental_uris":{"android":"levelo://app?vid=06111547-cab0-4555-ac48-aa03a9d7bb61","ios":"levelo://app?vid=06111547-cab0-4555-ac48-aa03a9d7bb61"},"vehicle_type_id":"4","last_reported":1741079440,"current_range_meters":5600,"station_id":"ce4bgs92rcd13ifvqcc0","pricing_plan_id":"cebpf4jnsgd1na2vs0mg"},{"bike_id":"9f5071a5-e62a-4679-8037-3819b594aa61","system_id":"levelo_inurba_marseille","lat":43.28936,"lon":5.36643,"is_reserved":false,"is_disabled":false,"rental_uris":{"android":"levelo://app?vid=9f5071a5-e62a-4679-8037-3819b594aa61","ios":"levelo://app?vid=9f5071a5-e62a-4679-8037-3819b594aa61"},"vehicle_type_id":"4","last_reported":1741079440,"current_range_meters":5600,"station_id":"ce4bhap2rcd13ifvqek0","pricing_plan_id":"cebpf4jnsgd1na2vs0mg"},{"bike_id":"b4881eb2-5326-4779-b955-e4fe653f1f9b","system_id":"levelo_inurba_marseille","lat":43.26686,"lon":5.38264,"is_reserved":false,"is_disabled":false,"rental_uris":{"android":"levelo://app?vid=b4881eb2-5326-4779-b955-e4fe653f1f9b","ios":"levelo://app?vid=b4881eb2-5326-4779-b955-e4fe653f1f9b"},"vehicle_type_id":"4","last_reported":1741079440,"current_range_meters":5600,"station_id":"ce4bhg92rcd13ifvqf90","pricing_plan_id":"cebpf4jnsgd1na2vs0mg"},{"bike_id":"e33c13e9-2819-4f9f-a321-3021596a4181","system_id":"levelo_inurba_marseille","lat":43.23143,"lon":5.4372,"is_reserved":false,"is_disabled":false,"rental_uris":{"android":"levelo://app?vid=e33c13e9-2819-4f9f-a321-3021596a4181","ios":"levelo://app?vid=e33c13e9-2819-4f9f-a321-3021596a4181"},"vehicle_type_id":"4","last_reported":1741079440,"current_range_meters":5600,"station_id":"ce4bhmp2rcd13ifvqgog","pricing_plan_id":"cebpf4jnsgd1na2vs0mg"},{"bike_id":"2d4e1c3e-7392-4616-b3cf-646345a17bd5","system_id":"levelo_inurba_marseille","lat":43.29551,"lon":5.42274,"is_reserved":false,"is_disabled":true,"rental_uris":{"android":"levelo://app?vid=2d4e1c3e-7392-4616-b3cf-646345a17bd5","ios":"levelo://app?vid=2d4e1c3e-7392-4616-b3cf-646345a17bd5"},"vehicle_type_id":"4","last_reported":1741079440,"current_range_meters":6000,"station_id":"ce4bhph2rcd13ifvqhdg","pricing_plan_id":"cebpf4jnsgd1na2vs0mg"},{"bike_id":"f574c2fb-392f-4f3b-b28e-f6eb66f2cc27","system_id":"levelo_inurba_marseille","lat":43.30958,"lon":5.39039,"is_reserved":false,"is_disabled":false,"rental_uris":{"android":"levelo://app?vid=f574c2fb-392f-4f3b-b28e-f6eb66f2cc27","ios":"levelo://app?vid=f574c2fb-392f-4f3b-b28e-f6eb66f2cc27"},"vehicle_type_id":"4","last_reported":1741079440,"current_range_meters":6000,"station_id":"ce4bgup2rcd13ifvqco0","pricing_plan_id":"cebpf4jnsgd1na2vs0mg"},{"bike_id":"ae32c428-8878-4011-9b36-3835e76dc85c","system_id":"levelo_inurba_marseille","lat":43.251831,"lon":5.378396,"is_reserved":false,"is_disabled":false,"rental_uris":{"android":"levelo://app?vid=ae32c428-8878-4011-9b36-3835e76dc85c","ios":"levelo://app?vid=ae32c428-8878-4011-9b36-3835e76dc85c"},"vehicle_type_id":"4","last_reported":1741079440,"current_range_meters":6000,"station_id":"","pricing_plan_id":"cebpf4jnsgd1na2vs0mg"},{"bike_id":"2a3fe11a-a321-4cc5-8c51-02be428ddfb1","system_id":"levelo_inurba_marseille","lat":43.30303,"lon":5.37672,"is_reserved":false,"is_disabled":false,"rental_uris":{"android":"levelo://app?vid=2a3fe11a-a321-4cc5-8c51-02be428ddfb1","ios":"levelo://app?vid=2a3fe11a-a321-4cc5-8c51-02be428ddfb1"},"vehicle_type_id":"4","last_reported":1741079440,"current_range_meters":6000,"station_id":"ce4bguh2rcd13ifvqcj0","pricing_plan_id":"cebpf4jnsgd1na2vs0mg"},{"bike_id":"f381c9bd-14fa-41ab-b589-3ecebd6dfe48","system_id":"levelo_inurba_marseille","lat":43.3236,"lon":5.36774,"is_reserved":false,"is_disabled":false,"rental_uris":{"android":"levelo://app?vid=f381c9bd-14fa-41ab-b589-3ecebd6dfe48","ios":"levelo://app?vid=f381c9bd-14fa-41ab-b589-3ecebd6dfe48"},"vehicle_type_id":"4","last_reported":1741079440,"current_range_meters":6000,"station_id":"ce4bhsh2rcd13ifvqi2g","pricing_plan_id":"cebpf4jnsgd1na2vs0mg"},{"bike_id":"40323d2b-7fa4-44fa-8afd-3105efa74518","system_id":"levelo_inurba_marseille","lat":43.24154,"lon":5.39737,"is_reserved":false,"is_disabled":false,"rental_uris":{"android":"levelo://app?vid=40323d2b-7fa4-44fa-8afd-3105efa74518","ios":"levelo://app?vid=40323d2b-7fa4-44fa-8afd-3105efa74518"},"vehicle_type_id":"4","last_reported":1741079440,"current_range_meters":6400,"station_id":"ce4bhn12rcd13ifvqgpg","pricing_plan_id":"cebpf4jnsgd1na2vs0mg"},{"bike_id":"c8257755-0c33-4c98-8811-97b15bceb92d","system_id":"levelo_inurba_marseille","lat":43.30479,"lon":5.37901,"is_reserved":false,"is_disabled":false,"rental_uris":{"android":"levelo://app?vid=c8257755-0c33-4c98-8811-97b15bceb92d","ios":"levelo://app?vid=c8257755-0c33-4c98-8811-97b15bceb92d"},"vehicle_type_id":"4","last_reported":1741079440,"current_range_meters":6400,"station_id":"ce4bgup2rcd13ifvqcn0","pricing_plan_id":"cebpf4jnsgd1na2vs0mg"},{"bike_id":"351a78a5-52e0-4fcc-968c-d2f55f5b2d81","system_id":"levelo_inurba_marseille","lat":43.25916,"lon":5.40891,"is_reserved":false,"is_disabled":false,"rental_uris":{"android":"levelo://app?vid=351a78a5-52e0-4fcc-968c-d2f55f5b2d81","ios":"levelo://app?vid=351a78a5-52e0-4fcc-968c-d2f55f5b2d81"},"vehicle_type_id":"4","last_reported":1741079440,"current_range_meters":6400,"station_id":"ce4bhm92rcd13ifvqglg","pricing_plan_id":"cebpf4jnsgd1na2vs0mg"},{"bike_id":"35a73379-fc4e-41b0-a5e8-e705941515d1","system_id":"levelo_inurba_marseille","lat":43.31712,"lon":5.40452,"is_reserved":false,"is_disabled":false,"rental_uris":{"android":"levelo://app?vid=35a73379-fc4e-41b0-a5e8-e705941515d1","ios":"levelo://app?vid=35a73379-fc4e-41b0-a5e8-e705941515d1"},"vehicle_type_id":"4","last_reported":1741079440,"current_range_meters":6400,"station_id":"ce4bh012rcd13ifvqd00","pricing_plan_id":"cebpf4jnsgd1na2vs0mg"},{"bike_id":"89ff6df9-627a-4c28-b09f-0547c71bee33","system_id":"levelo_inurba_marseille","lat":43.260559,"lon":5.393955,"is_reserved":false,"is_disabled":false,"rental_uris":{"android":"levelo://app?vid=89ff6df9-627a-4c28-b09f-0547c71bee33","ios":"levelo://app?vid=89ff6df9-627a-4c28-b09f-0547c71bee33"},"vehicle_type_id":"4","last_reported":1741079440,"current_range_meters":6400,"station_id":"ce4bhh92rcd13ifvqfj0","pricing_plan_id":"cebpf4jnsgd1na2vs0mg"},{"bike_id":"94a6a35b-8412-4d9f-8508-3782f328eeff","system_id":"levelo_inurba_marseille","lat":43.27067,"lon":5.42281,"is_reserved":false,"is_disabled":false,"rental_uris":{"android":"levelo://app?vid=94a6a35b-8412-4d9f-8508-3782f328eeff","ios":"levelo://app?vid=94a6a35b-8412-4d9f-8508-3782f328eeff"},"vehicle_type_id":"4","last_reported":1741079440,"current_range_meters":6400,"station_id":"ce4bhk92rcd13ifvqgb0","pricing_plan_id":"cebpf4jnsgd1na2vs0mg"},{"bike_id":"f103fcaa-13de-4ed2-a24d-a93a6a3263dd","system_id":"levelo_inurba_marseille","lat":43.30155,"lon":5.37421,"is_reserved":false,"is_disabled":false,"rental_uris":{"android":"levelo://app?vid=f103fcaa-13de-4ed2-a24d-a93a6a3263dd","ios":"levelo://app?vid=f103fcaa-13de-4ed2-a24d-a93a6a3263dd"},"vehicle_type_id":"4","last_reported":1741079440,"current_range_meters":6400,"station_id":"ce4bgs92rcd13ifvqcc0","pricing_plan_id":"cebpf4jnsgd1na2vs0mg"},{"bike_id":"5c38698a-4358-411e-9fca-1af5ed216224","system_id":"levelo_inurba_marseille","lat":43.30468,"lon":5.37915,"is_reserved":false,"is_disabled":false,"rental_uris":{"android":"levelo://app?vid=5c38698a-4358-411e-9fca-1af5ed216224","ios":"levelo://app?vid=5c38698a-4358-411e-9fca-1af5ed216224"},"vehicle_type_id":"4","last_reported":1741079440,"current_range_meters":6800,"station_id":"ce4bgup2rcd13ifvqcn0","pricing_plan_id":"cebpf4jnsgd1na2vs0mg"},{"bike_id":"371614c8-096e-40af-8df3-2daa948ef9e2","system_id":"levelo_inurba_marseille","lat":43.30951,"lon":5.3904,"is_reserved":false,"is_disabled":false,"rental_uris":{"android":"levelo://app?vid=371614c8-096e-40af-8df3-2daa948ef9e2","ios":"levelo://app?vid=371614c8-096e-40af-8df3-2daa948ef9e2"},"vehicle_type_id":"4","last_reported":1741079440,"current_range_meters":6800,"station_id":"ce4bgup2rcd13ifvqco0","pricing_plan_id":"cebpf4jnsgd1na2vs0mg"},{"bike_id":"7bea709c-85af-4216-a8e5-19de784dd721","system_id":"levelo_inurba_marseille","lat":43.27799,"lon":5.40711,"is_reserved":false,"is_disabled":false,"rental_uris":{"android":"levelo://app?vid=7bea709c-85af-4216-a8e5-19de784dd721","ios":"levelo://app?vid=7bea709c-85af-4216-a8e5-19de784dd721"},"vehicle_type_id":"4","last_reported":1741079440,"current_range_meters":6800,"station_id":"ce4bhnh2rcd13ifvqgtg","pricing_plan_id":"cebpf4jnsgd1na2vs0mg"},{"bike_id":"76d154d9-de45-47c4-aa4e-ebc4dd631146","system_id":"levelo_inurba_marseille","lat":43.29257,"lon":5.37621,"is_reserved":false,"is_disabled":false,"rental_uris":{"android":"levelo://app?vid=76d154d9-de45-47c4-aa4e-ebc4dd631146","ios":"levelo://app?vid=76d154d9-de45-47c4-aa4e-ebc4dd631146"},"vehicle_type_id":"4","last_reported":1741079440,"current_range_meters":6800,"station_id":"ce4bgi12rcd13ifvqb80","pricing_plan_id":"cebpf4jnsgd1na2vs0mg"},{"bike_id":"69539ccb-ca63-4555-bd43-968ddad5c3c6","system_id":"levelo_inurba_marseille","lat":43.25001,"lon":5.38925,"is_reserved":false,"is_disabled":false,"rental_uris":{"android":"levelo://app?vid=69539ccb-ca63-4555-bd43-968ddad5c3c6","ios":"levelo://app?vid=69539ccb-ca63-4555-bd43-968ddad5c3c6"},"vehicle_type_id":"4","last_reported":1741079440,"current_range_meters":6800,"station_id":"ce4bhgp2rcd13ifvqfd0","pricing_plan_id":"cebpf4jnsgd1na2vs0mg"},{"bike_id":"c19d77a8-5520-45f7-9712-a3f89cb69d9f","system_id":"levelo_inurba_marseille","lat":43.28296,"lon":5.38912,"is_reserved":false,"is_disabled":false,"rental_uris":{"android":"levelo://app?vid=c19d77a8-5520-45f7-9712-a3f89cb69d9f","ios":"levelo://app?vid=c19d77a8-5520-45f7-9712-a3f89cb69d9f"},"vehicle_type_id":"4","last_reported":1741079440,"current_range_meters":7200,"station_id":"","pricing_plan_id":"cebpf4jnsgd1na2vs0mg"},{"bike_id":"4e9114a6-9327-4619-b114-00e483817824","system_id":"levelo_inurba_marseille","lat":43.23944,"lon":5.36645,"is_reserved":false,"is_disabled":false,"rental_uris":{"android":"levelo://app?vid=4e9114a6-9327-4619-b114-00e483817824","ios":"levelo://app?vid=4e9114a6-9327-4619-b114-00e483817824"},"vehicle_type_id":"4","last_reported":1741079440,"current_range_meters":7200,"station_id":"ce4bhi12rcd13ifvqfp0","pricing_plan_id":"cebpf4jnsgd1na2vs0mg"},{"bike_id":"d9fdb3bb-a402-47b7-8596-8fa91513e3f2","system_id":"levelo_inurba_marseille","lat":43.23156,"lon":5.43717,"is_reserved":false,"is_disabled":false,"rental_uris":{"android":"levelo://app?vid=d9fdb3bb-a402-47b7-8596-8fa91513e3f2","ios":"levelo://app?vid=d9fdb3bb-a402-47b7-8596-8fa91513e3f2"},"vehicle_type_id":"4","last_reported":1741079440,"current_range_meters":5600,"station_id":"ce4bhmp2rcd13ifvqgog","pricing_plan_id":"cebpf4jnsgd1na2vs0mg"},{"bike_id":"3118a718-8a5b-4936-ba40-2066d7436676","system_id":"levelo_inurba_marseille","lat":43.26807,"lon":5.39435,"is_reserved":false,"is_disabled":false,"rental_uris":{"android":"levelo://app?vid=3118a718-8a5b-4936-ba40-2066d7436676","ios":"levelo://app?vid=3118a718-8a5b-4936-ba40-2066d7436676"},"vehicle_type_id":"4","last_reported":1741079440,"current_range_meters":7200,"station_id":"ce4bhh12rcd13ifvqfg0","pricing_plan_id":"cebpf4jnsgd1na2vs0mg"},{"bike_id":"90a47c55-7d0c-4b6b-94e5-81e21155469e","system_id":"levelo_inurba_marseille","lat":43.23149,"lon":5.43729,"is_reserved":false,"is_disabled":false,"rental_uris":{"android":"levelo://app?vid=90a47c55-7d0c-4b6b-94e5-81e21155469e","ios":"levelo://app?vid=90a47c55-7d0c-4b6b-94e5-81e21155469e"},"vehicle_type_id":"4","last_reported":1741079440,"current_range_meters":7200,"station_id":"ce4bhmp2rcd13ifvqgog","pricing_plan_id":"cebpf4jnsgd1na2vs0mg"},{"bike_id":"84e3ec97-0043-452d-80d7-39e2bcaaf420","system_id":"levelo_inurba_marseille","lat":43.30302,"lon":5.37695,"is_reserved":false,"is_disabled":false,"rental_uris":{"android":"levelo://app?vid=84e3ec97-0043-452d-80d7-39e2bcaaf420","ios":"levelo://app?vid=84e3ec97-0043-452d-80d7-39e2bcaaf420"},"vehicle_type_id":"4","last_reported":1741079440,"current_range_meters":7200,"station_id":"ce4bguh2rcd13ifvqcj0","pricing_plan_id":"cebpf4jnsgd1na2vs0mg"},{"bike_id":"e41e0bb8-6c1c-4ce2-b18d-069e130ca183","system_id":"levelo_inurba_marseille","lat":43.23072,"lon":5.35494,"is_reserved":false,"is_disabled":false,"rental_uris":{"android":"levelo://app?vid=e41e0bb8-6c1c-4ce2-b18d-069e130ca183","ios":"levelo://app?vid=e41e0bb8-6c1c-4ce2-b18d-069e130ca183"},"vehicle_type_id":"4","last_reported":1741079440,"current_range_meters":7200,"station_id":"cpo3342slgdg3j2ifvpg","pricing_plan_id":"cebpf4jnsgd1na2vs0mg"},{"bike_id":"79866753-8357-491a-add2-5eaa1a046a9b","system_id":"levelo_inurba_marseille","lat":43.24083,"lon":5.37751,"is_reserved":false,"is_disabled":true,"rental_uris":{"android":"levelo://app?vid=79866753-8357-491a-add2-5eaa1a046a9b","ios":"levelo://app?vid=79866753-8357-491a-add2-5eaa1a046a9b"},"vehicle_type_id":"4","last_reported":1741079440,"current_range_meters":7200,"station_id":"ce4bhnp2rcd13ifvqgvg","pricing_plan_id":"cebpf4jnsgd1na2vs0mg"},{"bike_id":"f5824151-45a8-40ad-a0e6-e80ea5e5887d","system_id":"levelo_inurba_marseille","lat":43.30526,"lon":5.36562,"is_reserved":false,"is_disabled":false,"rental_uris":{"android":"levelo://app?vid=f5824151-45a8-40ad-a0e6-e80ea5e5887d","ios":"levelo://app?vid=f5824151-45a8-40ad-a0e6-e80ea5e5887d"},"vehicle_type_id":"4","last_reported":1741079440,"current_range_meters":7200,"station_id":"ce4bgs12rcd13ifvqcag","pricing_plan_id":"cebpf4jnsgd1na2vs0mg"},{"bike_id":"f89a2d92-5710-46e0-803c-10b75e36ea5f","system_id":"levelo_inurba_marseille","lat":43.3189,"lon":5.40746,"is_reserved":false,"is_disabled":false,"rental_uris":{"android":"levelo://app?vid=f89a2d92-5710-46e0-803c-10b75e36ea5f","ios":"levelo://app?vid=f89a2d92-5710-46e0-803c-10b75e36ea5f"},"vehicle_type_id":"4","last_reported":1741079440,"current_range_meters":8000,"station_id":"ce4bhq12rcd13ifvqhig","pricing_plan_id":"cebpf4jnsgd1na2vs0mg"},{"bike_id":"26e5bc8f-7a9e-4fc7-bdd5-1733ec11e20f","system_id":"levelo_inurba_marseille","lat":43.24076,"lon":5.37757,"is_reserved":false,"is_disabled":false,"rental_uris":{"android":"levelo://app?vid=26e5bc8f-7a9e-4fc7-bdd5-1733ec11e20f","ios":"levelo://app?vid=26e5bc8f-7a9e-4fc7-bdd5-1733ec11e20f"},"vehicle_type_id":"4","last_reported":1741079440,"current_range_meters":8000,"station_id":"ce4bhnp2rcd13ifvqgvg","pricing_plan_id":"cebpf4jnsgd1na2vs0mg"},{"bike_id":"ce8ef3d2-07e3-4512-8813-bcde53a01429","system_id":"levelo_inurba_marseille","lat":43.24163,"lon":5.36401,"is_reserved":false,"is_disabled":false,"rental_uris":{"android":"levelo://app?vid=ce8ef3d2-07e3-4512-8813-bcde53a01429","ios":"levelo://app?vid=ce8ef3d2-07e3-4512-8813-bcde53a01429"},"vehicle_type_id":"4","last_reported":1741079440,"current_range_meters":8000,"station_id":"cpo36qri1sfpv3e86is0","pricing_plan_id":"cebpf4jnsgd1na2vs0mg"},{"bike_id":"fc169e1f-cdb8-4fdd-b69b-9fc6167662e7","system_id":"levelo_inurba_marseille","lat":43.27818,"lon":5.38101,"is_reserved":false,"is_disabled":false,"rental_uris":{"android":"levelo://app?vid=fc169e1f-cdb8-4fdd-b69b-9fc6167662e7","ios":"levelo://app?vid=fc169e1f-cdb8-4fdd-b69b-9fc6167662e7"},"vehicle_type_id":"4","last_reported":1741079440,"current_range_meters":8000,"station_id":"ce4bhf92rcd13ifvqf50","pricing_plan_id":"cebpf4jnsgd1na2vs0mg"},{"bike_id":"8853f3b9-20a3-4480-9c1d-81721e27d9f9","system_id":"levelo_inurba_marseille","lat":43.26065,"lon":5.39379,"is_reserved":false,"is_disabled":false,"rental_uris":{"android":"levelo://app?vid=8853f3b9-20a3-4480-9c1d-81721e27d9f9","ios":"levelo://app?vid=8853f3b9-20a3-4480-9c1d-81721e27d9f9"},"vehicle_type_id":"4","last_reported":1741079440,"current_range_meters":8000,"station_id":"ce4bhh92rcd13ifvqfj0","pricing_plan_id":"cebpf4jnsgd1na2vs0mg"},{"bike_id":"d993b1be-249c-4988-9f5f-8c390b9e7f9b","system_id":"levelo_inurba_marseille","lat":43.27493,"lon":5.42454,"is_reserved":false,"is_disabled":false,"rental_uris":{"android":"levelo://app?vid=d993b1be-249c-4988-9f5f-8c390b9e7f9b","ios":"levelo://app?vid=d993b1be-249c-4988-9f5f-8c390b9e7f9b"},"vehicle_type_id":"4","last_reported":1741079440,"current_range_meters":8000,"station_id":"ce4bhn92rcd13ifvqgrg","pricing_plan_id":"cebpf4jnsgd1na2vs0mg"},{"bike_id":"db28362d-bb10-4055-a1dc-1a7a5cea0cd1","system_id":"levelo_inurba_marseille","lat":43.30146,"lon":5.37407,"is_reserved":false,"is_disabled":false,"rental_uris":{"android":"levelo://app?vid=db28362d-bb10-4055-a1dc-1a7a5cea0cd1","ios":"levelo://app?vid=db28362d-bb10-4055-a1dc-1a7a5cea0cd1"},"vehicle_type_id":"4","last_reported":1741079440,"current_range_meters":8000,"station_id":"ce4bgs92rcd13ifvqcc0","pricing_plan_id":"cebpf4jnsgd1na2vs0mg"},{"bike_id":"785f65cf-1424-422b-aa1e-c33d7d9ad805","system_id":"levelo_inurba_marseille","lat":43.33608,"lon":5.41031,"is_reserved":false,"is_disabled":false,"rental_uris":{"android":"levelo://app?vid=785f65cf-1424-422b-aa1e-c33d7d9ad805","ios":"levelo://app?vid=785f65cf-1424-422b-aa1e-c33d7d9ad805"},"vehicle_type_id":"4","last_reported":1741079440,"current_range_meters":8000,"station_id":"ce4bhqh2rcd13ifvqhmg","pricing_plan_id":"cebpf4jnsgd1na2vs0mg"},{"bike_id":"1315eb2c-d576-4815-a70a-dbe42564861c","system_id":"levelo_inurba_marseille","lat":43.30955,"lon":5.39033,"is_reserved":false,"is_disabled":false,"rental_uris":{"android":"levelo://app?vid=1315eb2c-d576-4815-a70a-dbe42564861c","ios":"levelo://app?vid=1315eb2c-d576-4815-a70a-dbe42564861c"},"vehicle_type_id":"4","last_reported":1741079440,"current_range_meters":8000,"station_id":"ce4bgup2rcd13ifvqco0","pricing_plan_id":"cebpf4jnsgd1na2vs0mg"},{"bike_id":"bd5b69c0-858d-48f4-b94e-e61d7db3034a","system_id":"levelo_inurba_marseille","lat":43.30471,"lon":5.37916,"is_reserved":false,"is_disabled":false,"rental_uris":{"android":"levelo://app?vid=bd5b69c0-858d-48f4-b94e-e61d7db3034a","ios":"levelo://app?vid=bd5b69c0-858d-48f4-b94e-e61d7db3034a"},"vehicle_type_id":"4","last_reported":1741079440,"current_range_meters":8000,"station_id":"ce4bgup2rcd13ifvqcn0","pricing_plan_id":"cebpf4jnsgd1na2vs0mg"},{"bike_id":"6b6850c5-25a6-4add-8e7a-e449916d428d","system_id":"levelo_inurba_marseille","lat":43.24387,"lon":5.37056,"is_reserved":false,"is_disabled":false,"rental_uris":{"android":"levelo://app?vid=6b6850c5-25a6-4add-8e7a-e449916d428d","ios":"levelo://app?vid=6b6850c5-25a6-4add-8e7a-e449916d428d"},"vehicle_type_id":"4","last_reported":1741079440,"current_range_meters":8000,"station_id":"ce4bhhh2rcd13ifvqfk0","pricing_plan_id":"cebpf4jnsgd1na2vs0mg"},{"bike_id":"d20d4ac0-3e72-4d7c-b740-440a0b15f885","system_id":"levelo_inurba_marseille","lat":43.24179,"lon":5.39758,"is_reserved":false,"is_disabled":false,"rental_uris":{"android":"levelo://app?vid=d20d4ac0-3e72-4d7c-b740-440a0b15f885","ios":"levelo://app?vid=d20d4ac0-3e72-4d7c-b740-440a0b15f885"},"vehicle_type_id":"4","last_reported":1741079440,"current_range_meters":8000,"station_id":"ce4bhn12rcd13ifvqgpg","pricing_plan_id":"cebpf4jnsgd1na2vs0mg"},{"bike_id":"47fbd4c1-7387-47af-bf35-2f4ae942fbdb","system_id":"levelo_inurba_marseille","lat":43.24896,"lon":5.40184,"is_reserved":false,"is_disabled":false,"rental_uris":{"android":"levelo://app?vid=47fbd4c1-7387-47af-bf35-2f4ae942fbdb","ios":"levelo://app?vid=47fbd4c1-7387-47af-bf35-2f4ae942fbdb"},"vehicle_type_id":"4","last_reported":1741079440,"current_range_meters":8000,"station_id":"ce4bhlh2rcd13ifvqgig","pricing_plan_id":"cebpf4jnsgd1na2vs0mg"},{"bike_id":"04f94e51-a3fa-484a-889c-224ac7e5fccf","system_id":"levelo_inurba_marseille","lat":43.23175,"lon":5.39993,"is_reserved":false,"is_disabled":false,"rental_uris":{"android":"levelo://app?vid=04f94e51-a3fa-484a-889c-224ac7e5fccf","ios":"levelo://app?vid=04f94e51-a3fa-484a-889c-224ac7e5fccf"},"vehicle_type_id":"4","last_reported":1741079440,"current_range_meters":8000,"station_id":"ce4bhn12rcd13ifvqgqg","pricing_plan_id":"cebpf4jnsgd1na2vs0mg"},{"bike_id":"15d1809a-97c8-428d-a2c6-9d8c5a972121","system_id":"levelo_inurba_marseille","lat":43.23161,"lon":5.4371,"is_reserved":false,"is_disabled":false,"rental_uris":{"android":"levelo://app?vid=15d1809a-97c8-428d-a2c6-9d8c5a972121","ios":"levelo://app?vid=15d1809a-97c8-428d-a2c6-9d8c5a972121"},"vehicle_type_id":"4","last_reported":1741079440,"current_range_meters":8000,"station_id":"ce4bhmp2rcd13ifvqgog","pricing_plan_id":"cebpf4jnsgd1na2vs0mg"},{"bike_id":"5f6058f8-17d6-41f9-bf21-73aab62a2071","system_id":"levelo_inurba_marseille","lat":43.2581,"lon":5.39443,"is_reserved":false,"is_disabled":false,"rental_uris":{"android":"levelo://app?vid=5f6058f8-17d6-41f9-bf21-73aab62a2071","ios":"levelo://app?vid=5f6058f8-17d6-41f9-bf21-73aab62a2071"},"vehicle_type_id":"4","last_reported":1741079440,"current_range_meters":8400,"station_id":"ce4bhip2rcd13ifvqft0","pricing_plan_id":"cebpf4jnsgd1na2vs0mg"},{"bike_id":"108038a1-0485-4d5f-8a48-347108655d51","system_id":"levelo_inurba_marseille","lat":43.2657,"lon":5.39019,"is_reserved":false,"is_disabled":false,"rental_uris":{"android":"levelo://app?vid=108038a1-0485-4d5f-8a48-347108655d51","ios":"levelo://app?vid=108038a1-0485-4d5f-8a48-347108655d51"},"vehicle_type_id":"4","last_reported":1741079440,"current_range_meters":8400,"station_id":"ce4bhe12rcd13ifvqf30","pricing_plan_id":"cebpf4jnsgd1na2vs0mg"},{"bike_id":"853e9f93-6f18-4242-b269-d87025e7bb93","system_id":"levelo_inurba_marseille","lat":43.30723,"lon":5.37098,"is_reserved":false,"is_disabled":false,"rental_uris":{"android":"levelo://app?vid=853e9f93-6f18-4242-b269-d87025e7bb93","ios":"levelo://app?vid=853e9f93-6f18-4242-b269-d87025e7bb93"},"vehicle_type_id":"4","last_reported":1741079440,"current_range_meters":8400,"station_id":"","pricing_plan_id":"cebpf4jnsgd1na2vs0mg"},{"bike_id":"e599aac0-c825-4643-aeb1-c2d8b1ae00e8","system_id":"levelo_inurba_marseille","lat":43.24177,"lon":5.39713,"is_reserved":false,"is_disabled":false,"rental_uris":{"android":"levelo://app?vid=e599aac0-c825-4643-aeb1-c2d8b1ae00e8","ios":"levelo://app?vid=e599aac0-c825-4643-aeb1-c2d8b1ae00e8"},"vehicle_type_id":"4","last_reported":1741079440,"current_range_meters":8400,"station_id":"ce4bhn12rcd13ifvqgpg","pricing_plan_id":"cebpf4jnsgd1na2vs0mg"},{"bike_id":"5667b14c-6be9-470c-8489-6d07a2ac8ff0","system_id":"levelo_inurba_marseille","lat":43.29838,"lon":5.36272,"is_reserved":false,"is_disabled":false,"rental_uris":{"android":"levelo://app?vid=5667b14c-6be9-470c-8489-6d07a2ac8ff0","ios":"levelo://app?vid=5667b14c-6be9-470c-8489-6d07a2ac8ff0"},"vehicle_type_id":"4","last_reported":1741079440,"current_range_meters":8400,"station_id":"ce4bgpp2rcd13ifvqc3g","pricing_plan_id":"cebpf4jnsgd1na2vs0mg"},{"bike_id":"71cd5d9d-c4a9-4d7f-b25c-bd7ceef0b27e","system_id":"levelo_inurba_marseille","lat":43.31269,"lon":5.37774,"is_reserved":false,"is_disabled":false,"rental_uris":{"android":"levelo://app?vid=71cd5d9d-c4a9-4d7f-b25c-bd7ceef0b27e","ios":"levelo://app?vid=71cd5d9d-c4a9-4d7f-b25c-bd7ceef0b27e"},"vehicle_type_id":"4","last_reported":1741079440,"current_range_meters":8400,"station_id":"","pricing_plan_id":"cebpf4jnsgd1na2vs0mg"},{"bike_id":"ffd5fa35-92ec-4cc7-9a87-e8633ad3e1d2","system_id":"levelo_inurba_marseille","lat":43.2783,"lon":5.40727,"is_reserved":false,"is_disabled":false,"rental_uris":{"android":"levelo://app?vid=ffd5fa35-92ec-4cc7-9a87-e8633ad3e1d2","ios":"levelo://app?vid=ffd5fa35-92ec-4cc7-9a87-e8633ad3e1d2"},"vehicle_type_id":"4","last_reported":1741079440,"current_range_meters":8400,"station_id":"ce4bhnh2rcd13ifvqgtg","pricing_plan_id":"cebpf4jnsgd1na2vs0mg"},{"bike_id":"c19a15c9-dc92-4f76-999f-70a9a6709dca","system_id":"levelo_inurba_marseille","lat":43.240737,"lon":5.377664,"is_reserved":false,"is_disabled":false,"rental_uris":{"android":"levelo://app?vid=c19a15c9-dc92-4f76-999f-70a9a6709dca","ios":"levelo://app?vid=c19a15c9-dc92-4f76-999f-70a9a6709dca"},"vehicle_type_id":"4","last_reported":1741079440,"current_range_meters":8400,"station_id":"ce4bhnp2rcd13ifvqgvg","pricing_plan_id":"cebpf4jnsgd1na2vs0mg"},{"bike_id":"9a0bfd98-61df-4747-96c4-7b30b3e3f240","system_id":"levelo_inurba_marseille","lat":43.24068,"lon":5.37763,"is_reserved":false,"is_disabled":false,"rental_uris":{"android":"levelo://app?vid=9a0bfd98-61df-4747-96c4-7b30b3e3f240","ios":"levelo://app?vid=9a0bfd98-61df-4747-96c4-7b30b3e3f240"},"vehicle_type_id":"4","last_reported":1741079440,"current_range_meters":8400,"station_id":"ce4bhnp2rcd13ifvqgvg","pricing_plan_id":"cebpf4jnsgd1na2vs0mg"},{"bike_id":"69cd3787-0277-4a5c-be2d-c41c86958702","system_id":"levelo_inurba_marseille","lat":43.24184,"lon":5.39738,"is_reserved":false,"is_disabled":false,"rental_uris":{"android":"levelo://app?vid=69cd3787-0277-4a5c-be2d-c41c86958702","ios":"levelo://app?vid=69cd3787-0277-4a5c-be2d-c41c86958702"},"vehicle_type_id":"4","last_reported":1741079440,"current_range_meters":8400,"station_id":"ce4bhn12rcd13ifvqgpg","pricing_plan_id":"cebpf4jnsgd1na2vs0mg"},{"bike_id":"09e2ddab-ccd7-4fd2-acff-18020ffff92a","system_id":"levelo_inurba_marseille","lat":43.32361,"lon":5.38877,"is_reserved":false,"is_disabled":false,"rental_uris":{"android":"levelo://app?vid=09e2ddab-ccd7-4fd2-acff-18020ffff92a","ios":"levelo://app?vid=09e2ddab-ccd7-4fd2-acff-18020ffff92a"},"vehicle_type_id":"4","last_reported":1741079440,"current_range_meters":8400,"station_id":"ce4bhqp2rcd13ifvqhog","pricing_plan_id":"cebpf4jnsgd1na2vs0mg"},{"bike_id":"6061a373-2501-450f-ae0e-48b80429b9e9","system_id":"levelo_inurba_marseille","lat":43.27822,"lon":5.40708,"is_reserved":false,"is_disabled":false,"rental_uris":{"android":"levelo://app?vid=6061a373-2501-450f-ae0e-48b80429b9e9","ios":"levelo://app?vid=6061a373-2501-450f-ae0e-48b80429b9e9"},"vehicle_type_id":"4","last_reported":1741079440,"current_range_meters":8400,"station_id":"ce4bhnh2rcd13ifvqgtg","pricing_plan_id":"cebpf4jnsgd1na2vs0mg"},{"bike_id":"2c2f9e56-3ae9-4cdc-ab26-00084f6dff63","system_id":"levelo_inurba_marseille","lat":43.23148,"lon":5.43692,"is_reserved":false,"is_disabled":false,"rental_uris":{"android":"levelo://app?vid=2c2f9e56-3ae9-4cdc-ab26-00084f6dff63","ios":"levelo://app?vid=2c2f9e56-3ae9-4cdc-ab26-00084f6dff63"},"vehicle_type_id":"4","last_reported":1741079440,"current_range_meters":8400,"station_id":"ce4bhmp2rcd13ifvqgog","pricing_plan_id":"cebpf4jnsgd1na2vs0mg"},{"bike_id":"f1eaf0aa-ede0-4383-b38b-806d6bd60895","system_id":"levelo_inurba_marseille","lat":43.30474,"lon":5.37907,"is_reserved":false,"is_disabled":false,"rental_uris":{"android":"levelo://app?vid=f1eaf0aa-ede0-4383-b38b-806d6bd60895","ios":"levelo://app?vid=f1eaf0aa-ede0-4383-b38b-806d6bd60895"},"vehicle_type_id":"4","last_reported":1741079440,"current_range_meters":8400,"station_id":"","pricing_plan_id":"cebpf4jnsgd1na2vs0mg"},{"bike_id":"20f28f92-adf9-48e3-a33b-83ded65127c5","system_id":"levelo_inurba_marseille","lat":43.23066,"lon":5.35497,"is_reserved":false,"is_disabled":false,"rental_uris":{"android":"levelo://app?vid=20f28f92-adf9-48e3-a33b-83ded65127c5","ios":"levelo://app?vid=20f28f92-adf9-48e3-a33b-83ded65127c5"},"vehicle_type_id":"4","last_reported":1741079440,"current_range_meters":8400,"station_id":"cpo3342slgdg3j2ifvpg","pricing_plan_id":"cebpf4jnsgd1na2vs0mg"},{"bike_id":"8dfd7383-0547-4fa3-9e5f-ee6518b6bd4b","system_id":"levelo_inurba_marseille","lat":43.25927,"lon":5.40902,"is_reserved":false,"is_disabled":false,"rental_uris":{"android":"levelo://app?vid=8dfd7383-0547-4fa3-9e5f-ee6518b6bd4b","ios":"levelo://app?vid=8dfd7383-0547-4fa3-9e5f-ee6518b6bd4b"},"vehicle_type_id":"4","last_reported":1741079440,"current_range_meters":8400,"station_id":"ce4bhm92rcd13ifvqglg","pricing_plan_id":"cebpf4jnsgd1na2vs0mg"},{"bike_id":"f78679b4-d978-4358-a0e6-2ee8838de974","system_id":"levelo_inurba_marseille","lat":43.33027,"lon":5.39038,"is_reserved":false,"is_disabled":false,"rental_uris":{"android":"levelo://app?vid=f78679b4-d978-4358-a0e6-2ee8838de974","ios":"levelo://app?vid=f78679b4-d978-4358-a0e6-2ee8838de974"},"vehicle_type_id":"4","last_reported":1741079440,"current_range_meters":8400,"station_id":"ce4bhr92rcd13ifvqhrg","pricing_plan_id":"cebpf4jnsgd1na2vs0mg"},{"bike_id":"d65670b6-fadb-4776-92a4-00f2428ddaa0","system_id":"levelo_inurba_marseille","lat":43.3255,"lon":5.4147,"is_reserved":false,"is_disabled":false,"rental_uris":{"android":"levelo://app?vid=d65670b6-fadb-4776-92a4-00f2428ddaa0","ios":"levelo://app?vid=d65670b6-fadb-4776-92a4-00f2428ddaa0"},"vehicle_type_id":"4","last_reported":1741079440,"current_range_meters":8800,"station_id":"ce4bhq12rcd13ifvqhhg","pricing_plan_id":"cebpf4jnsgd1na2vs0mg"},{"bike_id":"954ac7a7-f4c4-46c6-834d-8c900b27d01f","system_id":"levelo_inurba_marseille","lat":43.27493,"lon":5.42444,"is_reserved":false,"is_disabled":false,"rental_uris":{"android":"levelo://app?vid=954ac7a7-f4c4-46c6-834d-8c900b27d01f","ios":"levelo://app?vid=954ac7a7-f4c4-46c6-834d-8c900b27d01f"},"vehicle_type_id":"4","last_reported":1741079440,"current_range_meters":8800,"station_id":"ce4bhn92rcd13ifvqgrg","pricing_plan_id":"cebpf4jnsgd1na2vs0mg"},{"bike_id":"70270aba-9e71-4bf3-a303-fd33e3b12ce5","system_id":"levelo_inurba_marseille","lat":43.30954,"lon":5.39041,"is_reserved":false,"is_disabled":false,"rental_uris":{"android":"levelo://app?vid=70270aba-9e71-4bf3-a303-fd33e3b12ce5","ios":"levelo://app?vid=70270aba-9e71-4bf3-a303-fd33e3b12ce5"},"vehicle_type_id":"4","last_reported":1741079440,"current_range_meters":8800,"station_id":"ce4bgup2rcd13ifvqco0","pricing_plan_id":"cebpf4jnsgd1na2vs0mg"},{"bike_id":"64953142-7637-42b4-b0d1-c449e63f1db7","system_id":"levelo_inurba_marseille","lat":43.29631,"lon":5.36026,"is_reserved":false,"is_disabled":false,"rental_uris":{"android":"levelo://app?vid=64953142-7637-42b4-b0d1-c449e63f1db7","ios":"levelo://app?vid=64953142-7637-42b4-b0d1-c449e63f1db7"},"vehicle_type_id":"4","last_reported":1741079440,"current_range_meters":8800,"station_id":"","pricing_plan_id":"cebpf4jnsgd1na2vs0mg"},{"bike_id":"4ac02a66-da50-4129-b13c-39bc5c01eb98","system_id":"levelo_inurba_marseille","lat":43.30193,"lon":5.374,"is_reserved":false,"is_disabled":false,"rental_uris":{"android":"levelo://app?vid=4ac02a66-da50-4129-b13c-39bc5c01eb98","ios":"levelo://app?vid=4ac02a66-da50-4129-b13c-39bc5c01eb98"},"vehicle_type_id":"4","last_reported":1741079440,"current_range_meters":8800,"station_id":"ce4bgs92rcd13ifvqcc0","pricing_plan_id":"cebpf4jnsgd1na2vs0mg"},{"bike_id":"32039365-9da2-4297-ba07-b74f03c3001e","system_id":"levelo_inurba_marseille","lat":43.3134,"lon":5.36712,"is_reserved":false,"is_disabled":false,"rental_uris":{"android":"levelo://app?vid=32039365-9da2-4297-ba07-b74f03c3001e","ios":"levelo://app?vid=32039365-9da2-4297-ba07-b74f03c3001e"},"vehicle_type_id":"4","last_reported":1741079440,"current_range_meters":8800,"station_id":"ce4bgr92rcd13ifvqc6g","pricing_plan_id":"cebpf4jnsgd1na2vs0mg"},{"bike_id":"ac8ac687-e653-42aa-8411-0abcf7c52b23","system_id":"levelo_inurba_marseille","lat":43.2707,"lon":5.42286,"is_reserved":false,"is_disabled":false,"rental_uris":{"android":"levelo://app?vid=ac8ac687-e653-42aa-8411-0abcf7c52b23","ios":"levelo://app?vid=ac8ac687-e653-42aa-8411-0abcf7c52b23"},"vehicle_type_id":"4","last_reported":1741079440,"current_range_meters":8800,"station_id":"ce4bhk92rcd13ifvqgb0","pricing_plan_id":"cebpf4jnsgd1na2vs0mg"},{"bike_id":"9845a878-6164-47e8-b202-d1bb1d0f47bc","system_id":"levelo_inurba_marseille","lat":43.30965,"lon":5.39034,"is_reserved":false,"is_disabled":true,"rental_uris":{"android":"levelo://app?vid=9845a878-6164-47e8-b202-d1bb1d0f47bc","ios":"levelo://app?vid=9845a878-6164-47e8-b202-d1bb1d0f47bc"},"vehicle_type_id":"4","last_reported":1741079440,"current_range_meters":9200,"station_id":"ce4bgup2rcd13ifvqco0","pricing_plan_id":"cebpf4jnsgd1na2vs0mg"},{"bike_id":"0b818497-4d97-451b-b637-cef3d02b5c9d","system_id":"levelo_inurba_marseille","lat":43.31739,"lon":5.43726,"is_reserved":false,"is_disabled":true,"rental_uris":{"android":"levelo://app?vid=0b818497-4d97-451b-b637-cef3d02b5c9d","ios":"levelo://app?vid=0b818497-4d97-451b-b637-cef3d02b5c9d"},"vehicle_type_id":"4","last_reported":1741079440,"current_range_meters":9200,"station_id":"ce4bhp92rcd13ifvqhcg","pricing_plan_id":"cebpf4jnsgd1na2vs0mg"},{"bike_id":"a18fece4-236b-4528-b0b9-389d2006a2ed","system_id":"levelo_inurba_marseille","lat":43.2943,"lon":5.40306,"is_reserved":false,"is_disabled":false,"rental_uris":{"android":"levelo://app?vid=a18fece4-236b-4528-b0b9-389d2006a2ed","ios":"levelo://app?vid=a18fece4-236b-4528-b0b9-389d2006a2ed"},"vehicle_type_id":"4","last_reported":1741079440,"current_range_meters":9200,"station_id":"","pricing_plan_id":"cebpf4jnsgd1na2vs0mg"},{"bike_id":"caedf473-9313-4874-87c8-230b4a1efdb8","system_id":"levelo_inurba_marseille","lat":43.32461,"lon":5.36637,"is_reserved":false,"is_disabled":false,"rental_uris":{"android":"levelo://app?vid=caedf473-9313-4874-87c8-230b4a1efdb8","ios":"levelo://app?vid=caedf473-9313-4874-87c8-230b4a1efdb8"},"vehicle_type_id":"4","last_reported":1741079440,"current_range_meters":9200,"station_id":"","pricing_plan_id":"cebpf4jnsgd1na2vs0mg"},{"bike_id":"41ed89d3-77cd-4311-8513-748a0ca63c4f","system_id":"levelo_inurba_marseille","lat":43.21253,"lon":5.35334,"is_reserved":false,"is_disabled":false,"rental_uris":{"android":"levelo://app?vid=41ed89d3-77cd-4311-8513-748a0ca63c4f","ios":"levelo://app?vid=41ed89d3-77cd-4311-8513-748a0ca63c4f"},"vehicle_type_id":"4","last_reported":1741079440,"current_range_meters":9200,"station_id":"","pricing_plan_id":"cebpf4jnsgd1na2vs0mg"},{"bike_id":"8ba73b31-f8d1-4ca1-8b54-85a30660ad7b","system_id":"levelo_inurba_marseille","lat":43.30899,"lon":5.36859,"is_reserved":false,"is_disabled":false,"rental_uris":{"android":"levelo://app?vid=8ba73b31-f8d1-4ca1-8b54-85a30660ad7b","ios":"levelo://app?vid=8ba73b31-f8d1-4ca1-8b54-85a30660ad7b"},"vehicle_type_id":"4","last_reported":1741079440,"current_range_meters":9200,"station_id":"ce4bgn92rcd13ifvqbvg","pricing_plan_id":"cebpf4jnsgd1na2vs0mg"},{"bike_id":"9de42f25-f760-4086-9a08-2934eee1b520","system_id":"levelo_inurba_marseille","lat":43.21249,"lon":5.35343,"is_reserved":false,"is_disabled":false,"rental_uris":{"android":"levelo://app?vid=9de42f25-f760-4086-9a08-2934eee1b520","ios":"levelo://app?vid=9de42f25-f760-4086-9a08-2934eee1b520"},"vehicle_type_id":"4","last_reported":1741079440,"current_range_meters":9600,"station_id":"","pricing_plan_id":"cebpf4jnsgd1na2vs0mg"},{"bike_id":"c9eb2b4c-65cf-4acb-b353-be61d1ae9d0e","system_id":"levelo_inurba_marseille","lat":43.24662,"lon":5.38168,"is_reserved":false,"is_disabled":false,"rental_uris":{"android":"levelo://app?vid=c9eb2b4c-65cf-4acb-b353-be61d1ae9d0e","ios":"levelo://app?vid=c9eb2b4c-65cf-4acb-b353-be61d1ae9d0e"},"vehicle_type_id":"4","last_reported":1741079440,"current_range_meters":9600,"station_id":"ce4bhih2rcd13ifvqfr0","pricing_plan_id":"cebpf4jnsgd1na2vs0mg"},{"bike_id":"455012b4-c11c-41c4-b3d8-09e5a995a42b","system_id":"levelo_inurba_marseille","lat":43.30139,"lon":5.37414,"is_reserved":false,"is_disabled":false,"rental_uris":{"android":"levelo://app?vid=455012b4-c11c-41c4-b3d8-09e5a995a42b","ios":"levelo://app?vid=455012b4-c11c-41c4-b3d8-09e5a995a42b"},"vehicle_type_id":"4","last_reported":1741079440,"current_range_meters":9600,"station_id":"ce4bgs92rcd13ifvqcc0","pricing_plan_id":"cebpf4jnsgd1na2vs0mg"},{"bike_id":"69313c91-a87c-4234-aea5-072dbfa923e3","system_id":"levelo_inurba_marseille","lat":43.31259,"lon":5.40169,"is_reserved":false,"is_disabled":false,"rental_uris":{"android":"levelo://app?vid=69313c91-a87c-4234-aea5-072dbfa923e3","ios":"levelo://app?vid=69313c91-a87c-4234-aea5-072dbfa923e3"},"vehicle_type_id":"4","last_reported":1741079440,"current_range_meters":9600,"station_id":"ce4bh092rcd13ifvqd30","pricing_plan_id":"cebpf4jnsgd1na2vs0mg"},{"bike_id":"cda70655-214d-492a-ba6a-2c7a21b5e300","system_id":"levelo_inurba_marseille","lat":43.25942,"lon":5.40898,"is_reserved":false,"is_disabled":false,"rental_uris":{"android":"levelo://app?vid=cda70655-214d-492a-ba6a-2c7a21b5e300","ios":"levelo://app?vid=cda70655-214d-492a-ba6a-2c7a21b5e300"},"vehicle_type_id":"4","last_reported":1741079440,"current_range_meters":9600,"station_id":"ce4bhm92rcd13ifvqglg","pricing_plan_id":"cebpf4jnsgd1na2vs0mg"},{"bike_id":"7cd9901c-70ca-4048-9c3a-bcc77bae4a12","system_id":"levelo_inurba_marseille","lat":43.24072,"lon":5.37758,"is_reserved":false,"is_disabled":false,"rental_uris":{"android":"levelo://app?vid=7cd9901c-70ca-4048-9c3a-bcc77bae4a12","ios":"levelo://app?vid=7cd9901c-70ca-4048-9c3a-bcc77bae4a12"},"vehicle_type_id":"4","last_reported":1741079440,"current_range_meters":10000,"station_id":"ce4bhnp2rcd13ifvqgvg","pricing_plan_id":"cebpf4jnsgd1na2vs0mg"},{"bike_id":"0be45eb6-17a5-4b97-b893-533e25a50726","system_id":"levelo_inurba_marseille","lat":43.27896,"lon":5.38011,"is_reserved":false,"is_disabled":false,"rental_uris":{"android":"levelo://app?vid=0be45eb6-17a5-4b97-b893-533e25a50726","ios":"levelo://app?vid=0be45eb6-17a5-4b97-b893-533e25a50726"},"vehicle_type_id":"4","last_reported":1741079440,"current_range_meters":10000,"station_id":"ce4bhf92rcd13ifvqf50","pricing_plan_id":"cebpf4jnsgd1na2vs0mg"},{"bike_id":"e4e91370-e554-4387-b1fb-5ffddc6d4231","system_id":"levelo_inurba_marseille","lat":43.25817,"lon":5.39431,"is_reserved":false,"is_disabled":false,"rental_uris":{"android":"levelo://app?vid=e4e91370-e554-4387-b1fb-5ffddc6d4231","ios":"levelo://app?vid=e4e91370-e554-4387-b1fb-5ffddc6d4231"},"vehicle_type_id":"4","last_reported":1741079440,"current_range_meters":10000,"station_id":"ce4bhip2rcd13ifvqft0","pricing_plan_id":"cebpf4jnsgd1na2vs0mg"},{"bike_id":"d9209cce-b798-443c-8925-393059b1ad00","system_id":"levelo_inurba_marseille","lat":43.30529,"lon":5.36719,"is_reserved":false,"is_disabled":false,"rental_uris":{"android":"levelo://app?vid=d9209cce-b798-443c-8925-393059b1ad00","ios":"levelo://app?vid=d9209cce-b798-443c-8925-393059b1ad00"},"vehicle_type_id":"4","last_reported":1741079440,"current_range_meters":10000,"station_id":"ce4bgrp2rcd13ifvqc9g","pricing_plan_id":"cebpf4jnsgd1na2vs0mg"},{"bike_id":"9cd8c1df-7cf0-41da-ab27-ed4833367be1","system_id":"levelo_inurba_marseille","lat":43.29196,"lon":5.39319,"is_reserved":false,"is_disabled":false,"rental_uris":{"android":"levelo://app?vid=9cd8c1df-7cf0-41da-ab27-ed4833367be1","ios":"levelo://app?vid=9cd8c1df-7cf0-41da-ab27-ed4833367be1"},"vehicle_type_id":"4","last_reported":1741079440,"current_range_meters":10000,"station_id":"ce4bh192rcd13ifvqdd0","pricing_plan_id":"cebpf4jnsgd1na2vs0mg"},{"bike_id":"b2c17c63-898b-4bf8-bd07-f7d1f9c58cb9","system_id":"levelo_inurba_marseille","lat":43.33592,"lon":5.41023,"is_reserved":false,"is_disabled":false,"rental_uris":{"android":"levelo://app?vid=b2c17c63-898b-4bf8-bd07-f7d1f9c58cb9","ios":"levelo://app?vid=b2c17c63-898b-4bf8-bd07-f7d1f9c58cb9"},"vehicle_type_id":"4","last_reported":1741079440,"current_range_meters":10000,"station_id":"ce4bhqh2rcd13ifvqhmg","pricing_plan_id":"cebpf4jnsgd1na2vs0mg"},{"bike_id":"cb014a6b-6553-43cb-90ee-c6d22cf5883f","system_id":"levelo_inurba_marseille","lat":43.26084,"lon":5.39406,"is_reserved":false,"is_disabled":false,"rental_uris":{"android":"levelo://app?vid=cb014a6b-6553-43cb-90ee-c6d22cf5883f","ios":"levelo://app?vid=cb014a6b-6553-43cb-90ee-c6d22cf5883f"},"vehicle_type_id":"4","last_reported":1741079440,"current_range_meters":10000,"station_id":"ce4bhh92rcd13ifvqfj0","pricing_plan_id":"cebpf4jnsgd1na2vs0mg"},{"bike_id":"373d78c5-16bc-4095-9a66-2b440c99b361","system_id":"levelo_inurba_marseille","lat":43.27795,"lon":5.40695,"is_reserved":false,"is_disabled":false,"rental_uris":{"android":"levelo://app?vid=373d78c5-16bc-4095-9a66-2b440c99b361","ios":"levelo://app?vid=373d78c5-16bc-4095-9a66-2b440c99b361"},"vehicle_type_id":"4","last_reported":1741079440,"current_range_meters":10800,"station_id":"ce4bhnh2rcd13ifvqgtg","pricing_plan_id":"cebpf4jnsgd1na2vs0mg"},{"bike_id":"e7ec1ac1-2323-47bd-a2b5-7cd3afb282cf","system_id":"levelo_inurba_marseille","lat":43.26557,"lon":5.37299,"is_reserved":false,"is_disabled":false,"rental_uris":{"android":"levelo://app?vid=e7ec1ac1-2323-47bd-a2b5-7cd3afb282cf","ios":"levelo://app?vid=e7ec1ac1-2323-47bd-a2b5-7cd3afb282cf"},"vehicle_type_id":"4","last_reported":1741079440,"current_range_meters":10800,"station_id":"ce4bhg12rcd13ifvqf70","pricing_plan_id":"cebpf4jnsgd1na2vs0mg"},{"bike_id":"a5193847-231c-4c8c-b335-8579028b0ddd","system_id":"levelo_inurba_marseille","lat":43.27802,"lon":5.40722,"is_reserved":false,"is_disabled":false,"rental_uris":{"android":"levelo://app?vid=a5193847-231c-4c8c-b335-8579028b0ddd","ios":"levelo://app?vid=a5193847-231c-4c8c-b335-8579028b0ddd"},"vehicle_type_id":"4","last_reported":1741079440,"current_range_meters":10800,"station_id":"ce4bhnh2rcd13ifvqgtg","pricing_plan_id":"cebpf4jnsgd1na2vs0mg"},{"bike_id":"962f2263-64da-4284-9fa1-a7a0879fd8e9","system_id":"levelo_inurba_marseille","lat":43.25934,"lon":5.40906,"is_reserved":false,"is_disabled":false,"rental_uris":{"android":"levelo://app?vid=962f2263-64da-4284-9fa1-a7a0879fd8e9","ios":"levelo://app?vid=962f2263-64da-4284-9fa1-a7a0879fd8e9"},"vehicle_type_id":"4","last_reported":1741079440,"current_range_meters":10800,"station_id":"ce4bhm92rcd13ifvqglg","pricing_plan_id":"cebpf4jnsgd1na2vs0mg"},{"bike_id":"dd08d469-0e07-4995-a332-b3086215ce48","system_id":"levelo_inurba_marseille","lat":43.30958,"lon":5.39037,"is_reserved":false,"is_disabled":true,"rental_uris":{"android":"levelo://app?vid=dd08d469-0e07-4995-a332-b3086215ce48","ios":"levelo://app?vid=dd08d469-0e07-4995-a332-b3086215ce48"},"vehicle_type_id":"4","last_reported":1741079440,"current_range_meters":10800,"station_id":"ce4bgup2rcd13ifvqco0","pricing_plan_id":"cebpf4jnsgd1na2vs0mg"},{"bike_id":"7e54e7ff-38f2-44b2-b9d5-2b0043f50759","system_id":"levelo_inurba_marseille","lat":43.26687,"lon":5.38272,"is_reserved":false,"is_disabled":false,"rental_uris":{"android":"levelo://app?vid=7e54e7ff-38f2-44b2-b9d5-2b0043f50759","ios":"levelo://app?vid=7e54e7ff-38f2-44b2-b9d5-2b0043f50759"},"vehicle_type_id":"4","last_reported":1741079440,"current_range_meters":10800,"station_id":"ce4bhg92rcd13ifvqf90","pricing_plan_id":"cebpf4jnsgd1na2vs0mg"},{"bike_id":"9ab0baf9-c2c7-4fa7-9b33-6ab5adc722c3","system_id":"levelo_inurba_marseille","lat":43.248,"lon":5.37453,"is_reserved":false,"is_disabled":false,"rental_uris":{"android":"levelo://app?vid=9ab0baf9-c2c7-4fa7-9b33-6ab5adc722c3","ios":"levelo://app?vid=9ab0baf9-c2c7-4fa7-9b33-6ab5adc722c3"},"vehicle_type_id":"4","last_reported":1741079440,"current_range_meters":11200,"station_id":"ce4bhgh2rcd13ifvqfb0","pricing_plan_id":"cebpf4jnsgd1na2vs0mg"},{"bike_id":"a4c3698b-40cd-4d33-a9d9-689474fbe572","system_id":"levelo_inurba_marseille","lat":43.30946,"lon":5.39066,"is_reserved":false,"is_disabled":false,"rental_uris":{"android":"levelo://app?vid=a4c3698b-40cd-4d33-a9d9-689474fbe572","ios":"levelo://app?vid=a4c3698b-40cd-4d33-a9d9-689474fbe572"},"vehicle_type_id":"4","last_reported":1741079440,"current_range_meters":11200,"station_id":"ce4bgup2rcd13ifvqco0","pricing_plan_id":"cebpf4jnsgd1na2vs0mg"},{"bike_id":"7cea7b38-f7a0-4e92-8d25-24dec4d43a08","system_id":"levelo_inurba_marseille","lat":43.267,"lon":5.38274,"is_reserved":false,"is_disabled":true,"rental_uris":{"android":"levelo://app?vid=7cea7b38-f7a0-4e92-8d25-24dec4d43a08","ios":"levelo://app?vid=7cea7b38-f7a0-4e92-8d25-24dec4d43a08"},"vehicle_type_id":"4","last_reported":1741079440,"current_range_meters":11200,"station_id":"ce4bhg92rcd13ifvqf90","pricing_plan_id":"cebpf4jnsgd1na2vs0mg"},{"bike_id":"7b19da56-5310-4b75-abb7-e4205c13bbbf","system_id":"levelo_inurba_marseille","lat":43.26945,"lon":5.38639,"is_reserved":false,"is_disabled":false,"rental_uris":{"android":"levelo://app?vid=7b19da56-5310-4b75-abb7-e4205c13bbbf","ios":"levelo://app?vid=7b19da56-5310-4b75-abb7-e4205c13bbbf"},"vehicle_type_id":"4","last_reported":1741079440,"current_range_meters":11200,"station_id":"ce4bhh92rcd13ifvqfh0","pricing_plan_id":"cebpf4jnsgd1na2vs0mg"},{"bike_id":"0124053e-4260-4b6f-bb1d-d9ff69be9812","system_id":"levelo_inurba_marseille","lat":43.23151,"lon":5.43705,"is_reserved":false,"is_disabled":false,"rental_uris":{"android":"levelo://app?vid=0124053e-4260-4b6f-bb1d-d9ff69be9812","ios":"levelo://app?vid=0124053e-4260-4b6f-bb1d-d9ff69be9812"},"vehicle_type_id":"4","last_reported":1741079440,"current_range_meters":11200,"station_id":"ce4bhmp2rcd13ifvqgog","pricing_plan_id":"cebpf4jnsgd1na2vs0mg"},{"bike_id":"6b57ed52-3602-4885-8b20-f12ad365023a","system_id":"levelo_inurba_marseille","lat":43.27978,"lon":5.38739,"is_reserved":false,"is_disabled":false,"rental_uris":{"android":"levelo://app?vid=6b57ed52-3602-4885-8b20-f12ad365023a","ios":"levelo://app?vid=6b57ed52-3602-4885-8b20-f12ad365023a"},"vehicle_type_id":"4","last_reported":1741079440,"current_range_meters":11200,"station_id":"ce4bhg12rcd13ifvqf80","pricing_plan_id":"cebpf4jnsgd1na2vs0mg"},{"bike_id":"44a7153b-0fd7-4509-836b-676bbf84fb06","system_id":"levelo_inurba_marseille","lat":43.231824,"lon":5.355661,"is_reserved":false,"is_disabled":false,"rental_uris":{"android":"levelo://app?vid=44a7153b-0fd7-4509-836b-676bbf84fb06","ios":"levelo://app?vid=44a7153b-0fd7-4509-836b-676bbf84fb06"},"vehicle_type_id":"4","last_reported":1741079440,"current_range_meters":11200,"station_id":"ce4bhu92rcd13ifvqi70","pricing_plan_id":"cebpf4jnsgd1na2vs0mg"},{"bike_id":"34361887-fdf5-449f-9f03-1aece50c838f","system_id":"levelo_inurba_marseille","lat":43.275,"lon":5.42465,"is_reserved":false,"is_disabled":false,"rental_uris":{"android":"levelo://app?vid=34361887-fdf5-449f-9f03-1aece50c838f","ios":"levelo://app?vid=34361887-fdf5-449f-9f03-1aece50c838f"},"vehicle_type_id":"4","last_reported":1741079440,"current_range_meters":11600,"station_id":"ce4bhn92rcd13ifvqgrg","pricing_plan_id":"cebpf4jnsgd1na2vs0mg"},{"bike_id":"084a16ea-cba1-4699-9cdb-bee52bb96bbe","system_id":"levelo_inurba_marseille","lat":43.25817,"lon":5.39437,"is_reserved":false,"is_disabled":false,"rental_uris":{"android":"levelo://app?vid=084a16ea-cba1-4699-9cdb-bee52bb96bbe","ios":"levelo://app?vid=084a16ea-cba1-4699-9cdb-bee52bb96bbe"},"vehicle_type_id":"4","last_reported":1741079440,"current_range_meters":11600,"station_id":"ce4bhip2rcd13ifvqft0","pricing_plan_id":"cebpf4jnsgd1na2vs0mg"},{"bike_id":"9b968628-87b3-407c-818a-bf2730491bf3","system_id":"levelo_inurba_marseille","lat":43.31368,"lon":5.36715,"is_reserved":false,"is_disabled":false,"rental_uris":{"android":"levelo://app?vid=9b968628-87b3-407c-818a-bf2730491bf3","ios":"levelo://app?vid=9b968628-87b3-407c-818a-bf2730491bf3"},"vehicle_type_id":"4","last_reported":1741079440,"current_range_meters":11600,"station_id":"ce4bgr92rcd13ifvqc6g","pricing_plan_id":"cebpf4jnsgd1na2vs0mg"},{"bike_id":"8d87db73-830b-4a1a-b357-2fa35f25b1f5","system_id":"levelo_inurba_marseille","lat":43.2315,"lon":5.43715,"is_reserved":false,"is_disabled":false,"rental_uris":{"android":"levelo://app?vid=8d87db73-830b-4a1a-b357-2fa35f25b1f5","ios":"levelo://app?vid=8d87db73-830b-4a1a-b357-2fa35f25b1f5"},"vehicle_type_id":"4","last_reported":1741079440,"current_range_meters":11200,"station_id":"ce4bhmp2rcd13ifvqgog","pricing_plan_id":"cebpf4jnsgd1na2vs0mg"},{"bike_id":"def56130-161b-40ba-9f38-cec241d0eb5a","system_id":"levelo_inurba_marseille","lat":43.26954,"lon":5.38633,"is_reserved":false,"is_disabled":false,"rental_uris":{"android":"levelo://app?vid=def56130-161b-40ba-9f38-cec241d0eb5a","ios":"levelo://app?vid=def56130-161b-40ba-9f38-cec241d0eb5a"},"vehicle_type_id":"4","last_reported":1741079440,"current_range_meters":11600,"station_id":"ce4bhh92rcd13ifvqfh0","pricing_plan_id":"cebpf4jnsgd1na2vs0mg"},{"bike_id":"ee1d2ad1-36ca-49dd-a328-f2a9a9994ecb","system_id":"levelo_inurba_marseille","lat":43.3108,"lon":5.38161,"is_reserved":false,"is_disabled":false,"rental_uris":{"android":"levelo://app?vid=ee1d2ad1-36ca-49dd-a328-f2a9a9994ecb","ios":"levelo://app?vid=ee1d2ad1-36ca-49dd-a328-f2a9a9994ecb"},"vehicle_type_id":"4","last_reported":1741079440,"current_range_meters":11600,"station_id":"","pricing_plan_id":"cebpf4jnsgd1na2vs0mg"},{"bike_id":"fc8a28b1-d99c-43c5-bf56-631724257283","system_id":"levelo_inurba_marseille","lat":43.304355,"lon":5.388945,"is_reserved":false,"is_disabled":false,"rental_uris":{"android":"levelo://app?vid=fc8a28b1-d99c-43c5-bf56-631724257283","ios":"levelo://app?vid=fc8a28b1-d99c-43c5-bf56-631724257283"},"vehicle_type_id":"4","last_reported":1741079440,"current_range_meters":11200,"station_id":"ce4bguh2rcd13ifvqcj0","pricing_plan_id":"cebpf4jnsgd1na2vs0mg"},{"bike_id":"aeae10c9-bea9-4825-94d9-d339ac846451","system_id":"levelo_inurba_marseille","lat":43.29038,"lon":5.37552,"is_reserved":false,"is_disabled":false,"rental_uris":{"android":"levelo://app?vid=aeae10c9-bea9-4825-94d9-d339ac846451","ios":"levelo://app?vid=aeae10c9-bea9-4825-94d9-d339ac846451"},"vehicle_type_id":"4","last_reported":1741079440,"current_range_meters":11600,"station_id":"ce4bh692rcd13ifvqe90","pricing_plan_id":"cebpf4jnsgd1na2vs0mg"},{"bike_id":"1915e5e7-d81a-4c88-ba6a-b6f3b1ab789c","system_id":"levelo_inurba_marseille","lat":43.30189,"lon":5.36608,"is_reserved":false,"is_disabled":false,"rental_uris":{"android":"levelo://app?vid=1915e5e7-d81a-4c88-ba6a-b6f3b1ab789c","ios":"levelo://app?vid=1915e5e7-d81a-4c88-ba6a-b6f3b1ab789c"},"vehicle_type_id":"4","last_reported":1741079440,"current_range_meters":11600,"station_id":"ce4bgrh2rcd13ifvqc8g","pricing_plan_id":"cebpf4jnsgd1na2vs0mg"},{"bike_id":"8c939673-acee-4493-a59f-9cec13cec966","system_id":"levelo_inurba_marseille","lat":43.24089,"lon":5.37774,"is_reserved":false,"is_disabled":false,"rental_uris":{"android":"levelo://app?vid=8c939673-acee-4493-a59f-9cec13cec966","ios":"levelo://app?vid=8c939673-acee-4493-a59f-9cec13cec966"},"vehicle_type_id":"4","last_reported":1741079440,"current_range_meters":11600,"station_id":"ce4bhnp2rcd13ifvqgvg","pricing_plan_id":"cebpf4jnsgd1na2vs0mg"},{"bike_id":"6df1b14c-1be1-4659-a850-a5dfa25e7673","system_id":"levelo_inurba_marseille","lat":43.2918,"lon":5.39306,"is_reserved":false,"is_disabled":false,"rental_uris":{"android":"levelo://app?vid=6df1b14c-1be1-4659-a850-a5dfa25e7673","ios":"levelo://app?vid=6df1b14c-1be1-4659-a850-a5dfa25e7673"},"vehicle_type_id":"4","last_reported":1741079440,"current_range_meters":11600,"station_id":"ce4bh192rcd13ifvqdd0","pricing_plan_id":"cebpf4jnsgd1na2vs0mg"},{"bike_id":"ab481c0f-66e7-42e7-8405-2774b77fd164","system_id":"levelo_inurba_marseille","lat":43.26948,"lon":5.38656,"is_reserved":false,"is_disabled":false,"rental_uris":{"android":"levelo://app?vid=ab481c0f-66e7-42e7-8405-2774b77fd164","ios":"levelo://app?vid=ab481c0f-66e7-42e7-8405-2774b77fd164"},"vehicle_type_id":"4","last_reported":1741079440,"current_range_meters":12000,"station_id":"ce4bhh92rcd13ifvqfh0","pricing_plan_id":"cebpf4jnsgd1na2vs0mg"},{"bike_id":"a9e4db3f-a424-4a70-bbb1-9ffa5bd94433","system_id":"levelo_inurba_marseille","lat":43.32379,"lon":5.38883,"is_reserved":false,"is_disabled":false,"rental_uris":{"android":"levelo://app?vid=a9e4db3f-a424-4a70-bbb1-9ffa5bd94433","ios":"levelo://app?vid=a9e4db3f-a424-4a70-bbb1-9ffa5bd94433"},"vehicle_type_id":"4","last_reported":1741079440,"current_range_meters":12000,"station_id":"ce4bhqp2rcd13ifvqhog","pricing_plan_id":"cebpf4jnsgd1na2vs0mg"},{"bike_id":"a4f30963-5535-4177-9f63-06de0a831b3c","system_id":"levelo_inurba_marseille","lat":43.29876,"lon":5.39733,"is_reserved":false,"is_disabled":false,"rental_uris":{"android":"levelo://app?vid=a4f30963-5535-4177-9f63-06de0a831b3c","ios":"levelo://app?vid=a4f30963-5535-4177-9f63-06de0a831b3c"},"vehicle_type_id":"4","last_reported":1741079440,"current_range_meters":12000,"station_id":"ce4bh0h2rcd13ifvqd50","pricing_plan_id":"cebpf4jnsgd1na2vs0mg"},{"bike_id":"07e5ce00-e66b-4716-974f-1b923a08f04f","system_id":"levelo_inurba_marseille","lat":43.30951,"lon":5.39041,"is_reserved":false,"is_disabled":false,"rental_uris":{"android":"levelo://app?vid=07e5ce00-e66b-4716-974f-1b923a08f04f","ios":"levelo://app?vid=07e5ce00-e66b-4716-974f-1b923a08f04f"},"vehicle_type_id":"4","last_reported":1741079440,"current_range_meters":12400,"station_id":"ce4bgup2rcd13ifvqco0","pricing_plan_id":"cebpf4jnsgd1na2vs0mg"},{"bike_id":"bb49af78-83c2-438f-8c5a-ff90eef60b5d","system_id":"levelo_inurba_marseille","lat":43.30284,"lon":5.36909,"is_reserved":false,"is_disabled":false,"rental_uris":{"android":"levelo://app?vid=bb49af78-83c2-438f-8c5a-ff90eef60b5d","ios":"levelo://app?vid=bb49af78-83c2-438f-8c5a-ff90eef60b5d"},"vehicle_type_id":"4","last_reported":1741079440,"current_range_meters":12400,"station_id":"ce4bgqh2rcd13ifvqc5g","pricing_plan_id":"cebpf4jnsgd1na2vs0mg"},{"bike_id":"9e4f53fe-e434-44c9-a146-29f149bf6c3f","system_id":"levelo_inurba_marseille","lat":43.24171,"lon":5.39748,"is_reserved":false,"is_disabled":false,"rental_uris":{"android":"levelo://app?vid=9e4f53fe-e434-44c9-a146-29f149bf6c3f","ios":"levelo://app?vid=9e4f53fe-e434-44c9-a146-29f149bf6c3f"},"vehicle_type_id":"4","last_reported":1741079440,"current_range_meters":12400,"station_id":"ce4bhn12rcd13ifvqgpg","pricing_plan_id":"cebpf4jnsgd1na2vs0mg"},{"bike_id":"b85fd3c3-e40d-4be7-8cc2-5720661141f5","system_id":"levelo_inurba_marseille","lat":43.29305,"lon":5.37467,"is_reserved":false,"is_disabled":false,"rental_uris":{"android":"levelo://app?vid=b85fd3c3-e40d-4be7-8cc2-5720661141f5","ios":"levelo://app?vid=b85fd3c3-e40d-4be7-8cc2-5720661141f5"},"vehicle_type_id":"4","last_reported":1741079440,"current_range_meters":12400,"station_id":"ce4bgi12rcd13ifvqb70","pricing_plan_id":"cebpf4jnsgd1na2vs0mg"},{"bike_id":"a2e9312b-d692-42a0-9823-fe0aab56075b","system_id":"levelo_inurba_marseille","lat":43.23161,"lon":5.43758,"is_reserved":false,"is_disabled":true,"rental_uris":{"android":"levelo://app?vid=a2e9312b-d692-42a0-9823-fe0aab56075b","ios":"levelo://app?vid=a2e9312b-d692-42a0-9823-fe0aab56075b"},"vehicle_type_id":"4","last_reported":1741079440,"current_range_meters":12400,"station_id":"ce4bhmp2rcd13ifvqgog","pricing_plan_id":"cebpf4jnsgd1na2vs0mg"},{"bike_id":"4f6a53e2-adc0-4f21-a484-100d8eb7192f","system_id":"levelo_inurba_marseille","lat":43.27801,"lon":5.40705,"is_reserved":false,"is_disabled":false,"rental_uris":{"android":"levelo://app?vid=4f6a53e2-adc0-4f21-a484-100d8eb7192f","ios":"levelo://app?vid=4f6a53e2-adc0-4f21-a484-100d8eb7192f"},"vehicle_type_id":"4","last_reported":1741079440,"current_range_meters":12400,"station_id":"ce4bhnh2rcd13ifvqgtg","pricing_plan_id":"cebpf4jnsgd1na2vs0mg"},{"bike_id":"c6b406a4-fef0-4ebf-8eaf-388fb706506e","system_id":"levelo_inurba_marseille","lat":43.32482,"lon":5.36576,"is_reserved":false,"is_disabled":false,"rental_uris":{"android":"levelo://app?vid=c6b406a4-fef0-4ebf-8eaf-388fb706506e","ios":"levelo://app?vid=c6b406a4-fef0-4ebf-8eaf-388fb706506e"},"vehicle_type_id":"4","last_reported":1741079440,"current_range_meters":12400,"station_id":"ce4bhs12rcd13ifvqhvg","pricing_plan_id":"cebpf4jnsgd1na2vs0mg"},{"bike_id":"89fcd520-bc63-4b61-a818-c2a6407f2608","system_id":"levelo_inurba_marseille","lat":43.24176,"lon":5.39726,"is_reserved":false,"is_disabled":false,"rental_uris":{"android":"levelo://app?vid=89fcd520-bc63-4b61-a818-c2a6407f2608","ios":"levelo://app?vid=89fcd520-bc63-4b61-a818-c2a6407f2608"},"vehicle_type_id":"4","last_reported":1741079440,"current_range_meters":12800,"station_id":"ce4bhn12rcd13ifvqgpg","pricing_plan_id":"cebpf4jnsgd1na2vs0mg"},{"bike_id":"12504efb-f647-4ad7-bd5d-415c885c147d","system_id":"levelo_inurba_marseille","lat":43.32482,"lon":5.3656,"is_reserved":false,"is_disabled":false,"rental_uris":{"android":"levelo://app?vid=12504efb-f647-4ad7-bd5d-415c885c147d","ios":"levelo://app?vid=12504efb-f647-4ad7-bd5d-415c885c147d"},"vehicle_type_id":"4","last_reported":1741079440,"current_range_meters":12800,"station_id":"ce4bhs12rcd13ifvqhvg","pricing_plan_id":"cebpf4jnsgd1na2vs0mg"},{"bike_id":"fe65d165-e4f8-45e4-b0cc-6ba4a385c0db","system_id":"levelo_inurba_marseille","lat":43.29266,"lon":5.37611,"is_reserved":false,"is_disabled":false,"rental_uris":{"android":"levelo://app?vid=fe65d165-e4f8-45e4-b0cc-6ba4a385c0db","ios":"levelo://app?vid=fe65d165-e4f8-45e4-b0cc-6ba4a385c0db"},"vehicle_type_id":"4","last_reported":1741079440,"current_range_meters":12800,"station_id":"ce4bgi12rcd13ifvqb80","pricing_plan_id":"cebpf4jnsgd1na2vs0mg"},{"bike_id":"33c85d12-6acc-4d39-9930-20e32d4ced63","system_id":"levelo_inurba_marseille","lat":43.30484,"lon":5.37912,"is_reserved":false,"is_disabled":false,"rental_uris":{"android":"levelo://app?vid=33c85d12-6acc-4d39-9930-20e32d4ced63","ios":"levelo://app?vid=33c85d12-6acc-4d39-9930-20e32d4ced63"},"vehicle_type_id":"4","last_reported":1741079440,"current_range_meters":12800,"station_id":"ce4bgup2rcd13ifvqcn0","pricing_plan_id":"cebpf4jnsgd1na2vs0mg"},{"bike_id":"fef09e3e-7091-494b-aeed-7eaa59d5208f","system_id":"levelo_inurba_marseille","lat":43.27493,"lon":5.42453,"is_reserved":false,"is_disabled":false,"rental_uris":{"android":"levelo://app?vid=fef09e3e-7091-494b-aeed-7eaa59d5208f","ios":"levelo://app?vid=fef09e3e-7091-494b-aeed-7eaa59d5208f"},"vehicle_type_id":"4","last_reported":1741079440,"current_range_meters":12800,"station_id":"ce4bhn92rcd13ifvqgrg","pricing_plan_id":"cebpf4jnsgd1na2vs0mg"},{"bike_id":"b90e16ea-3db9-4758-9cd1-d75968111887","system_id":"levelo_inurba_marseille","lat":43.30085,"lon":5.39076,"is_reserved":false,"is_disabled":false,"rental_uris":{"android":"levelo://app?vid=b90e16ea-3db9-4758-9cd1-d75968111887","ios":"levelo://app?vid=b90e16ea-3db9-4758-9cd1-d75968111887"},"vehicle_type_id":"4","last_reported":1741079440,"current_range_meters":13600,"station_id":"ce4bh192rcd13ifvqdb0","pricing_plan_id":"cebpf4jnsgd1na2vs0mg"},{"bike_id":"db4fc20d-ab97-4929-95e5-f6242e1f0965","system_id":"levelo_inurba_marseille","lat":43.25577,"lon":5.382611,"is_reserved":false,"is_disabled":false,"rental_uris":{"android":"levelo://app?vid=db4fc20d-ab97-4929-95e5-f6242e1f0965","ios":"levelo://app?vid=db4fc20d-ab97-4929-95e5-f6242e1f0965"},"vehicle_type_id":"4","last_reported":1741079440,"current_range_meters":13600,"station_id":"ce4bhih2rcd13ifvqfs0","pricing_plan_id":"cebpf4jnsgd1na2vs0mg"},{"bike_id":"38f37a23-5169-4d18-ab25-4dff16ba5bae","system_id":"levelo_inurba_marseille","lat":43.2861,"lon":5.37069,"is_reserved":false,"is_disabled":false,"rental_uris":{"android":"levelo://app?vid=38f37a23-5169-4d18-ab25-4dff16ba5bae","ios":"levelo://app?vid=38f37a23-5169-4d18-ab25-4dff16ba5bae"},"vehicle_type_id":"4","last_reported":1741079440,"current_range_meters":13600,"station_id":"ce4bht12rcd13ifvqi60","pricing_plan_id":"cebpf4jnsgd1na2vs0mg"},{"bike_id":"d7f8c4fd-6d0e-41d2-b232-ed2406c25451","system_id":"levelo_inurba_marseille","lat":43.27072,"lon":5.42277,"is_reserved":false,"is_disabled":false,"rental_uris":{"android":"levelo://app?vid=d7f8c4fd-6d0e-41d2-b232-ed2406c25451","ios":"levelo://app?vid=d7f8c4fd-6d0e-41d2-b232-ed2406c25451"},"vehicle_type_id":"4","last_reported":1741079440,"current_range_meters":13600,"station_id":"ce4bhk92rcd13ifvqgb0","pricing_plan_id":"cebpf4jnsgd1na2vs0mg"},{"bike_id":"9a95846b-5294-4193-9934-01a69a32e21c","system_id":"levelo_inurba_marseille","lat":43.29968,"lon":5.38496,"is_reserved":false,"is_disabled":false,"rental_uris":{"android":"levelo://app?vid=9a95846b-5294-4193-9934-01a69a32e21c","ios":"levelo://app?vid=9a95846b-5294-4193-9934-01a69a32e21c"},"vehicle_type_id":"4","last_reported":1741079440,"current_range_meters":13600,"station_id":"ce4bgj92rcd13ifvqbd0","pricing_plan_id":"cebpf4jnsgd1na2vs0mg"},{"bike_id":"a3532a1c-67eb-4df4-89db-1242ede86b44","system_id":"levelo_inurba_marseille","lat":43.29524,"lon":5.375,"is_reserved":false,"is_disabled":false,"rental_uris":{"android":"levelo://app?vid=a3532a1c-67eb-4df4-89db-1242ede86b44","ios":"levelo://app?vid=a3532a1c-67eb-4df4-89db-1242ede86b44"},"vehicle_type_id":"4","last_reported":1741079440,"current_range_meters":13600,"station_id":"ce4bgkp2rcd13ifvqbmg","pricing_plan_id":"cebpf4jnsgd1na2vs0mg"},{"bike_id":"6b5f9d56-8163-4220-bc1e-4b1faff21dea","system_id":"levelo_inurba_marseille","lat":43.26689,"lon":5.38274,"is_reserved":false,"is_disabled":false,"rental_uris":{"android":"levelo://app?vid=6b5f9d56-8163-4220-bc1e-4b1faff21dea","ios":"levelo://app?vid=6b5f9d56-8163-4220-bc1e-4b1faff21dea"},"vehicle_type_id":"4","last_reported":1741079440,"current_range_meters":13600,"station_id":"ce4bhg92rcd13ifvqf90","pricing_plan_id":"cebpf4jnsgd1na2vs0mg"},{"bike_id":"e95721f7-9dfe-4b3b-a811-1d2f2cf0d349","system_id":"levelo_inurba_marseille","lat":43.30149,"lon":5.37417,"is_reserved":false,"is_disabled":false,"rental_uris":{"android":"levelo://app?vid=e95721f7-9dfe-4b3b-a811-1d2f2cf0d349","ios":"levelo://app?vid=e95721f7-9dfe-4b3b-a811-1d2f2cf0d349"},"vehicle_type_id":"4","last_reported":1741079440,"current_range_meters":14000,"station_id":"ce4bgs92rcd13ifvqcc0","pricing_plan_id":"cebpf4jnsgd1na2vs0mg"},{"bike_id":"331b5527-9b05-4a68-bd52-9102e57e4c8b","system_id":"levelo_inurba_marseille","lat":43.25916,"lon":5.40894,"is_reserved":false,"is_disabled":false,"rental_uris":{"android":"levelo://app?vid=331b5527-9b05-4a68-bd52-9102e57e4c8b","ios":"levelo://app?vid=331b5527-9b05-4a68-bd52-9102e57e4c8b"},"vehicle_type_id":"4","last_reported":1741079440,"current_range_meters":14000,"station_id":"ce4bhm92rcd13ifvqglg","pricing_plan_id":"cebpf4jnsgd1na2vs0mg"},{"bike_id":"a6799ae4-fed2-4ee8-a527-ef2daaf1494f","system_id":"levelo_inurba_marseille","lat":43.26947,"lon":5.38634,"is_reserved":false,"is_disabled":false,"rental_uris":{"android":"levelo://app?vid=a6799ae4-fed2-4ee8-a527-ef2daaf1494f","ios":"levelo://app?vid=a6799ae4-fed2-4ee8-a527-ef2daaf1494f"},"vehicle_type_id":"4","last_reported":1741079440,"current_range_meters":14000,"station_id":"ce4bhh92rcd13ifvqfh0","pricing_plan_id":"cebpf4jnsgd1na2vs0mg"},{"bike_id":"7281e05b-fa7e-42ab-a278-2cc091e88397","system_id":"levelo_inurba_marseille","lat":43.29266,"lon":5.37611,"is_reserved":false,"is_disabled":false,"rental_uris":{"android":"levelo://app?vid=7281e05b-fa7e-42ab-a278-2cc091e88397","ios":"levelo://app?vid=7281e05b-fa7e-42ab-a278-2cc091e88397"},"vehicle_type_id":"4","last_reported":1741079440,"current_range_meters":14000,"station_id":"ce4bgi12rcd13ifvqb80","pricing_plan_id":"cebpf4jnsgd1na2vs0mg"},{"bike_id":"0c5a2253-b549-46d0-9927-d6fd0b4062c2","system_id":"levelo_inurba_marseille","lat":43.25925,"lon":5.40906,"is_reserved":false,"is_disabled":false,"rental_uris":{"android":"levelo://app?vid=0c5a2253-b549-46d0-9927-d6fd0b4062c2","ios":"levelo://app?vid=0c5a2253-b549-46d0-9927-d6fd0b4062c2"},"vehicle_type_id":"4","last_reported":1741079440,"current_range_meters":14000,"station_id":"ce4bhm92rcd13ifvqglg","pricing_plan_id":"cebpf4jnsgd1na2vs0mg"},{"bike_id":"69f1d854-fe58-43e1-96c7-9bfe722dfe7e","system_id":"levelo_inurba_marseille","lat":43.32535,"lon":5.41426,"is_reserved":false,"is_disabled":false,"rental_uris":{"android":"levelo://app?vid=69f1d854-fe58-43e1-96c7-9bfe722dfe7e","ios":"levelo://app?vid=69f1d854-fe58-43e1-96c7-9bfe722dfe7e"},"vehicle_type_id":"4","last_reported":1741079440,"current_range_meters":14000,"station_id":"ce4bhq12rcd13ifvqhhg","pricing_plan_id":"cebpf4jnsgd1na2vs0mg"},{"bike_id":"4e52d1e8-66ba-4fcb-bbba-efba6b565f49","system_id":"levelo_inurba_marseille","lat":43.27921,"lon":5.39577,"is_reserved":false,"is_disabled":false,"rental_uris":{"android":"levelo://app?vid=4e52d1e8-66ba-4fcb-bbba-efba6b565f49","ios":"levelo://app?vid=4e52d1e8-66ba-4fcb-bbba-efba6b565f49"},"vehicle_type_id":"4","last_reported":1741079440,"current_range_meters":14400,"station_id":"ce4bhf92rcd13ifvqf40","pricing_plan_id":"cebpf4jnsgd1na2vs0mg"},{"bike_id":"2f3c1cfb-b7fa-4c59-9450-596c99f3e3b8","system_id":"levelo_inurba_marseille","lat":43.24072,"lon":5.37762,"is_reserved":false,"is_disabled":false,"rental_uris":{"android":"levelo://app?vid=2f3c1cfb-b7fa-4c59-9450-596c99f3e3b8","ios":"levelo://app?vid=2f3c1cfb-b7fa-4c59-9450-596c99f3e3b8"},"vehicle_type_id":"4","last_reported":1741079440,"current_range_meters":14400,"station_id":"ce4bhnp2rcd13ifvqgvg","pricing_plan_id":"cebpf4jnsgd1na2vs0mg"},{"bike_id":"ced4db66-d91b-4476-99a5-6767aabd2e4c","system_id":"levelo_inurba_marseille","lat":43.28736,"lon":5.37941,"is_reserved":false,"is_disabled":false,"rental_uris":{"android":"levelo://app?vid=ced4db66-d91b-4476-99a5-6767aabd2e4c","ios":"levelo://app?vid=ced4db66-d91b-4476-99a5-6767aabd2e4c"},"vehicle_type_id":"4","last_reported":1741079440,"current_range_meters":14400,"station_id":"ce4bh9p2rcd13ifvqec0","pricing_plan_id":"cebpf4jnsgd1na2vs0mg"},{"bike_id":"d1ea9fa4-6070-4673-885f-28186a2d5ced","system_id":"levelo_inurba_marseille","lat":43.262022,"lon":5.379277,"is_reserved":false,"is_disabled":false,"rental_uris":{"android":"levelo://app?vid=d1ea9fa4-6070-4673-885f-28186a2d5ced","ios":"levelo://app?vid=d1ea9fa4-6070-4673-885f-28186a2d5ced"},"vehicle_type_id":"4","last_reported":1741079440,"current_range_meters":14400,"station_id":"ce4bgnh2rcd13ifvqc0g","pricing_plan_id":"cebpf4jnsgd1na2vs0mg"},{"bike_id":"420e0499-b9fb-44b5-ac2d-9623b69058e8","system_id":"levelo_inurba_marseille","lat":43.28154,"lon":5.42641,"is_reserved":false,"is_disabled":false,"rental_uris":{"android":"levelo://app?vid=420e0499-b9fb-44b5-ac2d-9623b69058e8","ios":"levelo://app?vid=420e0499-b9fb-44b5-ac2d-9623b69058e8"},"vehicle_type_id":"4","last_reported":1741079440,"current_range_meters":14400,"station_id":"ce4bhnh2rcd13ifvqgug","pricing_plan_id":"cebpf4jnsgd1na2vs0mg"},{"bike_id":"b665dd40-43e9-46b4-a4b9-b9999ecb275f","system_id":"levelo_inurba_marseille","lat":43.31499,"lon":5.37291,"is_reserved":false,"is_disabled":false,"rental_uris":{"android":"levelo://app?vid=b665dd40-43e9-46b4-a4b9-b9999ecb275f","ios":"levelo://app?vid=b665dd40-43e9-46b4-a4b9-b9999ecb275f"},"vehicle_type_id":"4","last_reported":1741079440,"current_range_meters":14400,"station_id":"ce4bgt12rcd13ifvqcd0","pricing_plan_id":"cebpf4jnsgd1na2vs0mg"},{"bike_id":"700f177a-f86d-4c73-bcfa-96204ce7ce79","system_id":"levelo_inurba_marseille","lat":43.26966,"lon":5.38622,"is_reserved":false,"is_disabled":false,"rental_uris":{"android":"levelo://app?vid=700f177a-f86d-4c73-bcfa-96204ce7ce79","ios":"levelo://app?vid=700f177a-f86d-4c73-bcfa-96204ce7ce79"},"vehicle_type_id":"4","last_reported":1741079440,"current_range_meters":14400,"station_id":"ce4bhh92rcd13ifvqfh0","pricing_plan_id":"cebpf4jnsgd1na2vs0mg"},{"bike_id":"51f6f578-8898-487a-9da7-ff3d6d379d1b","system_id":"levelo_inurba_marseille","lat":43.32114,"lon":5.36789,"is_reserved":false,"is_disabled":false,"rental_uris":{"android":"levelo://app?vid=51f6f578-8898-487a-9da7-ff3d6d379d1b","ios":"levelo://app?vid=51f6f578-8898-487a-9da7-ff3d6d379d1b"},"vehicle_type_id":"4","last_reported":1741079440,"current_range_meters":14400,"station_id":"ce4bhrh2rcd13ifvqhug","pricing_plan_id":"cebpf4jnsgd1na2vs0mg"},{"bike_id":"29c5a535-224e-4e40-bada-aa34ce1fe3ef","system_id":"levelo_inurba_marseille","lat":43.30941,"lon":5.36906,"is_reserved":false,"is_disabled":false,"rental_uris":{"android":"levelo://app?vid=29c5a535-224e-4e40-bada-aa34ce1fe3ef","ios":"levelo://app?vid=29c5a535-224e-4e40-bada-aa34ce1fe3ef"},"vehicle_type_id":"4","last_reported":1741079440,"current_range_meters":14400,"station_id":"","pricing_plan_id":"cebpf4jnsgd1na2vs0mg"},{"bike_id":"ea22bc3d-7c2f-470f-8337-087f26ab5dcb","system_id":"levelo_inurba_marseille","lat":43.24082,"lon":5.37747,"is_reserved":false,"is_disabled":false,"rental_uris":{"android":"levelo://app?vid=ea22bc3d-7c2f-470f-8337-087f26ab5dcb","ios":"levelo://app?vid=ea22bc3d-7c2f-470f-8337-087f26ab5dcb"},"vehicle_type_id":"4","last_reported":1741079440,"current_range_meters":14400,"station_id":"ce4bhnp2rcd13ifvqgvg","pricing_plan_id":"cebpf4jnsgd1na2vs0mg"},{"bike_id":"72eb316f-b406-4368-b692-99c81bec4002","system_id":"levelo_inurba_marseille","lat":43.30418,"lon":5.41299,"is_reserved":false,"is_disabled":true,"rental_uris":{"android":"levelo://app?vid=72eb316f-b406-4368-b692-99c81bec4002","ios":"levelo://app?vid=72eb316f-b406-4368-b692-99c81bec4002"},"vehicle_type_id":"4","last_reported":1741079440,"current_range_meters":14800,"station_id":"ce4bhop2rcd13ifvqh8g","pricing_plan_id":"cebpf4jnsgd1na2vs0mg"},{"bike_id":"d0886eb5-aa5c-4ae6-a9c9-2203a65b390a","system_id":"levelo_inurba_marseille","lat":43.26689,"lon":5.38278,"is_reserved":false,"is_disabled":false,"rental_uris":{"android":"levelo://app?vid=d0886eb5-aa5c-4ae6-a9c9-2203a65b390a","ios":"levelo://app?vid=d0886eb5-aa5c-4ae6-a9c9-2203a65b390a"},"vehicle_type_id":"4","last_reported":1741079440,"current_range_meters":14800,"station_id":"ce4bhg92rcd13ifvqf90","pricing_plan_id":"cebpf4jnsgd1na2vs0mg"},{"bike_id":"2c5a92f4-a231-41f0-933a-ac5f26be730a","system_id":"levelo_inurba_marseille","lat":43.30143,"lon":5.37406,"is_reserved":false,"is_disabled":false,"rental_uris":{"android":"levelo://app?vid=2c5a92f4-a231-41f0-933a-ac5f26be730a","ios":"levelo://app?vid=2c5a92f4-a231-41f0-933a-ac5f26be730a"},"vehicle_type_id":"4","last_reported":1741079440,"current_range_meters":14800,"station_id":"ce4bgs92rcd13ifvqcc0","pricing_plan_id":"cebpf4jnsgd1na2vs0mg"},{"bike_id":"86248c9f-db35-4ea6-a8e4-c9e67f099ebc","system_id":"levelo_inurba_marseille","lat":43.27309,"lon":5.39078,"is_reserved":false,"is_disabled":false,"rental_uris":{"android":"levelo://app?vid=86248c9f-db35-4ea6-a8e4-c9e67f099ebc","ios":"levelo://app?vid=86248c9f-db35-4ea6-a8e4-c9e67f099ebc"},"vehicle_type_id":"4","last_reported":1741079440,"current_range_meters":14800,"station_id":"ce4bhgp2rcd13ifvqfe0","pricing_plan_id":"cebpf4jnsgd1na2vs0mg"},{"bike_id":"e86e1564-56b5-44dc-aae1-07f782917aff","system_id":"levelo_inurba_marseille","lat":43.30149,"lon":5.38082,"is_reserved":false,"is_disabled":false,"rental_uris":{"android":"levelo://app?vid=e86e1564-56b5-44dc-aae1-07f782917aff","ios":"levelo://app?vid=e86e1564-56b5-44dc-aae1-07f782917aff"},"vehicle_type_id":"4","last_reported":1741079440,"current_range_meters":14800,"station_id":"ce4bgjp2rcd13ifvqbh0","pricing_plan_id":"cebpf4jnsgd1na2vs0mg"},{"bike_id":"a2b9d686-216a-4f50-ae4b-e7710a444cd6","system_id":"levelo_inurba_marseille","lat":43.24996,"lon":5.38915,"is_reserved":false,"is_disabled":false,"rental_uris":{"android":"levelo://app?vid=a2b9d686-216a-4f50-ae4b-e7710a444cd6","ios":"levelo://app?vid=a2b9d686-216a-4f50-ae4b-e7710a444cd6"},"vehicle_type_id":"4","last_reported":1741079440,"current_range_meters":14800,"station_id":"ce4bhgp2rcd13ifvqfd0","pricing_plan_id":"cebpf4jnsgd1na2vs0mg"},{"bike_id":"7f7e1c62-8591-4bd5-b418-84accf5550de","system_id":"levelo_inurba_marseille","lat":43.2981,"lon":5.40269,"is_reserved":false,"is_disabled":false,"rental_uris":{"android":"levelo://app?vid=7f7e1c62-8591-4bd5-b418-84accf5550de","ios":"levelo://app?vid=7f7e1c62-8591-4bd5-b418-84accf5550de"},"vehicle_type_id":"4","last_reported":1741079440,"current_range_meters":14800,"station_id":"","pricing_plan_id":"cebpf4jnsgd1na2vs0mg"},{"bike_id":"d60725a0-565d-4371-9d53-975a08f22288","system_id":"levelo_inurba_marseille","lat":43.30476,"lon":5.37905,"is_reserved":false,"is_disabled":false,"rental_uris":{"android":"levelo://app?vid=d60725a0-565d-4371-9d53-975a08f22288","ios":"levelo://app?vid=d60725a0-565d-4371-9d53-975a08f22288"},"vehicle_type_id":"4","last_reported":1741079440,"current_range_meters":15200,"station_id":"ce4bgup2rcd13ifvqcn0","pricing_plan_id":"cebpf4jnsgd1na2vs0mg"},{"bike_id":"985d2fa7-01f5-44f0-8aae-9e1fc7712f86","system_id":"levelo_inurba_marseille","lat":43.29246,"lon":5.37621,"is_reserved":false,"is_disabled":false,"rental_uris":{"android":"levelo://app?vid=985d2fa7-01f5-44f0-8aae-9e1fc7712f86","ios":"levelo://app?vid=985d2fa7-01f5-44f0-8aae-9e1fc7712f86"},"vehicle_type_id":"4","last_reported":1741079440,"current_range_meters":15200,"station_id":"ce4bgi12rcd13ifvqb80","pricing_plan_id":"cebpf4jnsgd1na2vs0mg"},{"bike_id":"cdd6cdf0-4578-4c9f-906d-999c384a42a6","system_id":"levelo_inurba_marseille","lat":43.30951,"lon":5.39033,"is_reserved":false,"is_disabled":false,"rental_uris":{"android":"levelo://app?vid=cdd6cdf0-4578-4c9f-906d-999c384a42a6","ios":"levelo://app?vid=cdd6cdf0-4578-4c9f-906d-999c384a42a6"},"vehicle_type_id":"4","last_reported":1741079440,"current_range_meters":15200,"station_id":"ce4bgup2rcd13ifvqco0","pricing_plan_id":"cebpf4jnsgd1na2vs0mg"},{"bike_id":"47b17e94-73e4-42c1-ab70-acb88d857fc5","system_id":"levelo_inurba_marseille","lat":43.24538,"lon":5.39551,"is_reserved":false,"is_disabled":false,"rental_uris":{"android":"levelo://app?vid=47b17e94-73e4-42c1-ab70-acb88d857fc5","ios":"levelo://app?vid=47b17e94-73e4-42c1-ab70-acb88d857fc5"},"vehicle_type_id":"4","last_reported":1741079440,"current_range_meters":15200,"station_id":"ce4bhlp2rcd13ifvqgjg","pricing_plan_id":"cebpf4jnsgd1na2vs0mg"},{"bike_id":"da707074-3e3d-4beb-941b-e41df111c172","system_id":"levelo_inurba_marseille","lat":43.30527,"lon":5.3671,"is_reserved":false,"is_disabled":false,"rental_uris":{"android":"levelo://app?vid=da707074-3e3d-4beb-941b-e41df111c172","ios":"levelo://app?vid=da707074-3e3d-4beb-941b-e41df111c172"},"vehicle_type_id":"4","last_reported":1741079440,"current_range_meters":16000,"station_id":"ce4bgrp2rcd13ifvqc9g","pricing_plan_id":"cebpf4jnsgd1na2vs0mg"},{"bike_id":"4ead3cf7-030a-48ef-8e3f-f442056c69b3","system_id":"levelo_inurba_marseille","lat":43.30486,"lon":5.37912,"is_reserved":false,"is_disabled":false,"rental_uris":{"android":"levelo://app?vid=4ead3cf7-030a-48ef-8e3f-f442056c69b3","ios":"levelo://app?vid=4ead3cf7-030a-48ef-8e3f-f442056c69b3"},"vehicle_type_id":"4","last_reported":1741079440,"current_range_meters":16000,"station_id":"ce4bgup2rcd13ifvqcn0","pricing_plan_id":"cebpf4jnsgd1na2vs0mg"},{"bike_id":"47ca7176-dcba-4b9e-8dbb-e2bb239319ab","system_id":"levelo_inurba_marseille","lat":43.3142,"lon":5.38563,"is_reserved":false,"is_disabled":false,"rental_uris":{"android":"levelo://app?vid=47ca7176-dcba-4b9e-8dbb-e2bb239319ab","ios":"levelo://app?vid=47ca7176-dcba-4b9e-8dbb-e2bb239319ab"},"vehicle_type_id":"4","last_reported":1741079440,"current_range_meters":16000,"station_id":"","pricing_plan_id":"cebpf4jnsgd1na2vs0mg"},{"bike_id":"428ddc3d-05a8-4b76-b027-89ba3c31dbda","system_id":"levelo_inurba_marseille","lat":43.2558,"lon":5.38237,"is_reserved":false,"is_disabled":false,"rental_uris":{"android":"levelo://app?vid=428ddc3d-05a8-4b76-b027-89ba3c31dbda","ios":"levelo://app?vid=428ddc3d-05a8-4b76-b027-89ba3c31dbda"},"vehicle_type_id":"4","last_reported":1741079440,"current_range_meters":16000,"station_id":"ce4bhih2rcd13ifvqfs0","pricing_plan_id":"cebpf4jnsgd1na2vs0mg"},{"bike_id":"8ef12c96-4a02-4ab6-af53-ca8fd7864c6a","system_id":"levelo_inurba_marseille","lat":43.309513,"lon":5.390101,"is_reserved":false,"is_disabled":false,"rental_uris":{"android":"levelo://app?vid=8ef12c96-4a02-4ab6-af53-ca8fd7864c6a","ios":"levelo://app?vid=8ef12c96-4a02-4ab6-af53-ca8fd7864c6a"},"vehicle_type_id":"4","last_reported":1741079440,"current_range_meters":16000,"station_id":"ce4bgup2rcd13ifvqco0","pricing_plan_id":"cebpf4jnsgd1na2vs0mg"},{"bike_id":"a8cdf609-e363-4017-8c0e-c0045794b516","system_id":"levelo_inurba_marseille","lat":43.25861,"lon":5.39901,"is_reserved":false,"is_disabled":false,"rental_uris":{"android":"levelo://app?vid=a8cdf609-e363-4017-8c0e-c0045794b516","ios":"levelo://app?vid=a8cdf609-e363-4017-8c0e-c0045794b516"},"vehicle_type_id":"4","last_reported":1741079440,"current_range_meters":16000,"station_id":"ce4bhl92rcd13ifvqghg","pricing_plan_id":"cebpf4jnsgd1na2vs0mg"},{"bike_id":"73c79102-b9af-4b09-9d57-a3c76bf14359","system_id":"levelo_inurba_marseille","lat":43.27495,"lon":5.42454,"is_reserved":false,"is_disabled":false,"rental_uris":{"android":"levelo://app?vid=73c79102-b9af-4b09-9d57-a3c76bf14359","ios":"levelo://app?vid=73c79102-b9af-4b09-9d57-a3c76bf14359"},"vehicle_type_id":"4","last_reported":1741079440,"current_range_meters":16000,"station_id":"ce4bhn92rcd13ifvqgrg","pricing_plan_id":"cebpf4jnsgd1na2vs0mg"},{"bike_id":"63617430-69b6-4ee8-ab9c-1231b392fc10","system_id":"levelo_inurba_marseille","lat":43.30479,"lon":5.37913,"is_reserved":false,"is_disabled":false,"rental_uris":{"android":"levelo://app?vid=63617430-69b6-4ee8-ab9c-1231b392fc10","ios":"levelo://app?vid=63617430-69b6-4ee8-ab9c-1231b392fc10"},"vehicle_type_id":"4","last_reported":1741079440,"current_range_meters":16000,"station_id":"ce4bgup2rcd13ifvqcn0","pricing_plan_id":"cebpf4jnsgd1na2vs0mg"},{"bike_id":"d571166c-77a4-4a91-b051-9cc34ad31336","system_id":"levelo_inurba_marseille","lat":43.30184,"lon":5.3932,"is_reserved":false,"is_disabled":false,"rental_uris":{"android":"levelo://app?vid=d571166c-77a4-4a91-b051-9cc34ad31336","ios":"levelo://app?vid=d571166c-77a4-4a91-b051-9cc34ad31336"},"vehicle_type_id":"4","last_reported":1741079440,"current_range_meters":16000,"station_id":"","pricing_plan_id":"cebpf4jnsgd1na2vs0mg"},{"bike_id":"4431b2b5-f405-4303-bc94-47a48560838c","system_id":"levelo_inurba_marseille","lat":43.25922,"lon":5.40908,"is_reserved":false,"is_disabled":false,"rental_uris":{"android":"levelo://app?vid=4431b2b5-f405-4303-bc94-47a48560838c","ios":"levelo://app?vid=4431b2b5-f405-4303-bc94-47a48560838c"},"vehicle_type_id":"4","last_reported":1741079440,"current_range_meters":16000,"station_id":"ce4bhm92rcd13ifvqglg","pricing_plan_id":"cebpf4jnsgd1na2vs0mg"},{"bike_id":"0f4688e8-5b7c-4755-aa8c-07276f193a8b","system_id":"levelo_inurba_marseille","lat":43.26943,"lon":5.38629,"is_reserved":false,"is_disabled":false,"rental_uris":{"android":"levelo://app?vid=0f4688e8-5b7c-4755-aa8c-07276f193a8b","ios":"levelo://app?vid=0f4688e8-5b7c-4755-aa8c-07276f193a8b"},"vehicle_type_id":"4","last_reported":1741079440,"current_range_meters":16000,"station_id":"ce4bhh92rcd13ifvqfh0","pricing_plan_id":"cebpf4jnsgd1na2vs0mg"},{"bike_id":"6d818697-4cb6-4240-b011-cdd0c799b755","system_id":"levelo_inurba_marseille","lat":43.23175,"lon":5.39987,"is_reserved":false,"is_disabled":false,"rental_uris":{"android":"levelo://app?vid=6d818697-4cb6-4240-b011-cdd0c799b755","ios":"levelo://app?vid=6d818697-4cb6-4240-b011-cdd0c799b755"},"vehicle_type_id":"4","last_reported":1741079440,"current_range_meters":16000,"station_id":"ce4bhn12rcd13ifvqgqg","pricing_plan_id":"cebpf4jnsgd1na2vs0mg"},{"bike_id":"4d1a9542-e77a-4c30-9571-7fe2a9070866","system_id":"levelo_inurba_marseille","lat":43.2622,"lon":5.4045,"is_reserved":false,"is_disabled":false,"rental_uris":{"android":"levelo://app?vid=4d1a9542-e77a-4c30-9571-7fe2a9070866","ios":"levelo://app?vid=4d1a9542-e77a-4c30-9571-7fe2a9070866"},"vehicle_type_id":"4","last_reported":1741079440,"current_range_meters":16000,"station_id":"ce4bhmh2rcd13ifvqgmg","pricing_plan_id":"cebpf4jnsgd1na2vs0mg"},{"bike_id":"4f22ed03-3f01-49f0-87ec-77cf8c324e7e","system_id":"levelo_inurba_marseille","lat":43.309974,"lon":5.384556,"is_reserved":false,"is_disabled":false,"rental_uris":{"android":"levelo://app?vid=4f22ed03-3f01-49f0-87ec-77cf8c324e7e","ios":"levelo://app?vid=4f22ed03-3f01-49f0-87ec-77cf8c324e7e"},"vehicle_type_id":"4","last_reported":1741079440,"current_range_meters":16400,"station_id":"","pricing_plan_id":"cebpf4jnsgd1na2vs0mg"},{"bike_id":"698426ac-3fe7-41dd-a88b-a5bb98aebc76","system_id":"levelo_inurba_marseille","lat":43.27863,"lon":5.40729,"is_reserved":false,"is_disabled":false,"rental_uris":{"android":"levelo://app?vid=698426ac-3fe7-41dd-a88b-a5bb98aebc76","ios":"levelo://app?vid=698426ac-3fe7-41dd-a88b-a5bb98aebc76"},"vehicle_type_id":"4","last_reported":1741079440,"current_range_meters":16400,"station_id":"ce4bhnh2rcd13ifvqgtg","pricing_plan_id":"cebpf4jnsgd1na2vs0mg"},{"bike_id":"6643b130-d4df-4267-98df-6bcdbf5428cd","system_id":"levelo_inurba_marseille","lat":43.29269,"lon":5.38437,"is_reserved":false,"is_disabled":true,"rental_uris":{"android":"levelo://app?vid=6643b130-d4df-4267-98df-6bcdbf5428cd","ios":"levelo://app?vid=6643b130-d4df-4267-98df-6bcdbf5428cd"},"vehicle_type_id":"4","last_reported":1741079440,"current_range_meters":16400,"station_id":"ce4bh692rcd13ifvqea0","pricing_plan_id":"cebpf4jnsgd1na2vs0mg"},{"bike_id":"7cd5e07c-ad2a-4af8-99d9-77c41335ce79","system_id":"levelo_inurba_marseille","lat":43.2417,"lon":5.3639,"is_reserved":false,"is_disabled":false,"rental_uris":{"android":"levelo://app?vid=7cd5e07c-ad2a-4af8-99d9-77c41335ce79","ios":"levelo://app?vid=7cd5e07c-ad2a-4af8-99d9-77c41335ce79"},"vehicle_type_id":"4","last_reported":1741079440,"current_range_meters":16400,"station_id":"cpo36qri1sfpv3e86is0","pricing_plan_id":"cebpf4jnsgd1na2vs0mg"},{"bike_id":"e2561f86-c403-4b29-a057-bfc8bac05a51","system_id":"levelo_inurba_marseille","lat":43.3016,"lon":5.3742,"is_reserved":false,"is_disabled":false,"rental_uris":{"android":"levelo://app?vid=e2561f86-c403-4b29-a057-bfc8bac05a51","ios":"levelo://app?vid=e2561f86-c403-4b29-a057-bfc8bac05a51"},"vehicle_type_id":"4","last_reported":1741079440,"current_range_meters":16400,"station_id":"ce4bgs92rcd13ifvqcc0","pricing_plan_id":"cebpf4jnsgd1na2vs0mg"},{"bike_id":"4a131a6e-20ed-4f37-9325-fb0815961b00","system_id":"levelo_inurba_marseille","lat":43.23148,"lon":5.43707,"is_reserved":false,"is_disabled":false,"rental_uris":{"android":"levelo://app?vid=4a131a6e-20ed-4f37-9325-fb0815961b00","ios":"levelo://app?vid=4a131a6e-20ed-4f37-9325-fb0815961b00"},"vehicle_type_id":"4","last_reported":1741079440,"current_range_meters":16400,"station_id":"ce4bhmp2rcd13ifvqgog","pricing_plan_id":"cebpf4jnsgd1na2vs0mg"},{"bike_id":"03d5bd23-db2c-4a3d-9573-a1403447f741","system_id":"levelo_inurba_marseille","lat":43.27807,"lon":5.407,"is_reserved":false,"is_disabled":false,"rental_uris":{"android":"levelo://app?vid=03d5bd23-db2c-4a3d-9573-a1403447f741","ios":"levelo://app?vid=03d5bd23-db2c-4a3d-9573-a1403447f741"},"vehicle_type_id":"4","last_reported":1741079440,"current_range_meters":16400,"station_id":"ce4bhnh2rcd13ifvqgtg","pricing_plan_id":"cebpf4jnsgd1na2vs0mg"},{"bike_id":"516e3747-bfb9-471b-a526-f97449b9bc6e","system_id":"levelo_inurba_marseille","lat":43.32548,"lon":5.41432,"is_reserved":false,"is_disabled":false,"rental_uris":{"android":"levelo://app?vid=516e3747-bfb9-471b-a526-f97449b9bc6e","ios":"levelo://app?vid=516e3747-bfb9-471b-a526-f97449b9bc6e"},"vehicle_type_id":"4","last_reported":1741079440,"current_range_meters":16400,"station_id":"ce4bhq12rcd13ifvqhhg","pricing_plan_id":"cebpf4jnsgd1na2vs0mg"},{"bike_id":"803c0489-f1ba-4e46-ae70-685ff7070b07","system_id":"levelo_inurba_marseille","lat":43.30535,"lon":5.36531,"is_reserved":false,"is_disabled":false,"rental_uris":{"android":"levelo://app?vid=803c0489-f1ba-4e46-ae70-685ff7070b07","ios":"levelo://app?vid=803c0489-f1ba-4e46-ae70-685ff7070b07"},"vehicle_type_id":"4","last_reported":1741079440,"current_range_meters":16400,"station_id":"ce4bgs12rcd13ifvqcag","pricing_plan_id":"cebpf4jnsgd1na2vs0mg"},{"bike_id":"e96e0c5f-d0e5-478b-b4aa-43a39d7ff26e","system_id":"levelo_inurba_marseille","lat":43.32358,"lon":5.36773,"is_reserved":false,"is_disabled":false,"rental_uris":{"android":"levelo://app?vid=e96e0c5f-d0e5-478b-b4aa-43a39d7ff26e","ios":"levelo://app?vid=e96e0c5f-d0e5-478b-b4aa-43a39d7ff26e"},"vehicle_type_id":"4","last_reported":1741079440,"current_range_meters":16400,"station_id":"ce4bhsh2rcd13ifvqi2g","pricing_plan_id":"cebpf4jnsgd1na2vs0mg"},{"bike_id":"1fa29a2d-b199-47af-b6d0-e7d847d41d3b","system_id":"levelo_inurba_marseille","lat":43.24077,"lon":5.37762,"is_reserved":false,"is_disabled":false,"rental_uris":{"android":"levelo://app?vid=1fa29a2d-b199-47af-b6d0-e7d847d41d3b","ios":"levelo://app?vid=1fa29a2d-b199-47af-b6d0-e7d847d41d3b"},"vehicle_type_id":"4","last_reported":1741079440,"current_range_meters":16400,"station_id":"ce4bhnp2rcd13ifvqgvg","pricing_plan_id":"cebpf4jnsgd1na2vs0mg"},{"bike_id":"252d89a0-be07-46c5-b8cd-db4fe201b15c","system_id":"levelo_inurba_marseille","lat":43.24073,"lon":5.3775,"is_reserved":false,"is_disabled":false,"rental_uris":{"android":"levelo://app?vid=252d89a0-be07-46c5-b8cd-db4fe201b15c","ios":"levelo://app?vid=252d89a0-be07-46c5-b8cd-db4fe201b15c"},"vehicle_type_id":"4","last_reported":1741079440,"current_range_meters":16400,"station_id":"ce4bhnp2rcd13ifvqgvg","pricing_plan_id":"cebpf4jnsgd1na2vs0mg"},{"bike_id":"3eee0dc5-ae82-4a87-84bd-e56ec3329485","system_id":"levelo_inurba_marseille","lat":43.2465,"lon":5.3889,"is_reserved":false,"is_disabled":false,"rental_uris":{"android":"levelo://app?vid=3eee0dc5-ae82-4a87-84bd-e56ec3329485","ios":"levelo://app?vid=3eee0dc5-ae82-4a87-84bd-e56ec3329485"},"vehicle_type_id":"4","last_reported":1741079440,"current_range_meters":16800,"station_id":"ce4bhg12rcd13ifvqf60","pricing_plan_id":"cebpf4jnsgd1na2vs0mg"},{"bike_id":"c33e2605-4c2b-449b-8d49-791640b16f1b","system_id":"levelo_inurba_marseille","lat":43.2933,"lon":5.41159,"is_reserved":false,"is_disabled":false,"rental_uris":{"android":"levelo://app?vid=c33e2605-4c2b-449b-8d49-791640b16f1b","ios":"levelo://app?vid=c33e2605-4c2b-449b-8d49-791640b16f1b"},"vehicle_type_id":"4","last_reported":1741079440,"current_range_meters":16800,"station_id":"","pricing_plan_id":"cebpf4jnsgd1na2vs0mg"},{"bike_id":"a4a22621-bf3a-4221-b996-6d0b026eb673","system_id":"levelo_inurba_marseille","lat":43.25008,"lon":5.38929,"is_reserved":false,"is_disabled":false,"rental_uris":{"android":"levelo://app?vid=a4a22621-bf3a-4221-b996-6d0b026eb673","ios":"levelo://app?vid=a4a22621-bf3a-4221-b996-6d0b026eb673"},"vehicle_type_id":"4","last_reported":1741079440,"current_range_meters":16800,"station_id":"ce4bhgp2rcd13ifvqfd0","pricing_plan_id":"cebpf4jnsgd1na2vs0mg"},{"bike_id":"d0c1d623-11ab-4348-95de-20d490237449","system_id":"levelo_inurba_marseille","lat":43.30958,"lon":5.39043,"is_reserved":false,"is_disabled":false,"rental_uris":{"android":"levelo://app?vid=d0c1d623-11ab-4348-95de-20d490237449","ios":"levelo://app?vid=d0c1d623-11ab-4348-95de-20d490237449"},"vehicle_type_id":"4","last_reported":1741079440,"current_range_meters":16800,"station_id":"ce4bgup2rcd13ifvqco0","pricing_plan_id":"cebpf4jnsgd1na2vs0mg"},{"bike_id":"8b7b3e92-fc3d-4aa6-9b62-d67a99ca8207","system_id":"levelo_inurba_marseille","lat":43.27492,"lon":5.42499,"is_reserved":false,"is_disabled":false,"rental_uris":{"android":"levelo://app?vid=8b7b3e92-fc3d-4aa6-9b62-d67a99ca8207","ios":"levelo://app?vid=8b7b3e92-fc3d-4aa6-9b62-d67a99ca8207"},"vehicle_type_id":"4","last_reported":1741079440,"current_range_meters":16800,"station_id":"ce4bhn92rcd13ifvqgrg","pricing_plan_id":"cebpf4jnsgd1na2vs0mg"},{"bike_id":"e6f6f3a1-32c4-44e3-8c67-72665416c209","system_id":"levelo_inurba_marseille","lat":43.29591,"lon":5.38103,"is_reserved":false,"is_disabled":false,"rental_uris":{"android":"levelo://app?vid=e6f6f3a1-32c4-44e3-8c67-72665416c209","ios":"levelo://app?vid=e6f6f3a1-32c4-44e3-8c67-72665416c209"},