{"last_updated":1773762834,"ttl":60,"version":"2.2","data":{"bikes":[{"bike_id":"c6d69b4d-4c87-44fe-a02d-92b1370b69aa","system_id":"levelo_inurba_marseille","lat":43.22554,"lon":5.41638,"is_reserved":false,"is_disabled":false,"rental_uris":{"android":"levelo://app?vid=c6d69b4d-4c87-44fe-a02d-92b1370b69aa","ios":"levelo://app?vid=c6d69b4d-4c87-44fe-a02d-92b1370b69aa"},"vehicle_type_id":"4","last_reported":1773762834,"current_range_meters":2800,"station_id":"st_d2o4gvlbi1j2169b742g","pricing_plan_id":"cebpf4jnsgd1na2vs0mg"},{"bike_id":"62d7888f-1c72-4b12-ae9b-10994b363957","system_id":"levelo_inurba_marseille","lat":43.23963,"lon":5.36622,"is_reserved":false,"is_disabled":false,"rental_uris":{"android":"levelo://app?vid=62d7888f-1c72-4b12-ae9b-10994b363957","ios":"levelo://app?vid=62d7888f-1c72-4b12-ae9b-10994b363957"},"vehicle_type_id":"4","last_reported":1773762834,"current_range_meters":2800,"station_id":"ce4bhi12rcd13ifvqfp0","pricing_plan_id":"cebpf4jnsgd1na2vs0mg"},{"bike_id":"29d518ce-13b7-4af9-8ec6-7701a645636e","system_id":"levelo_inurba_marseille","lat":43.31283,"lon":5.40171,"is_reserved":false,"is_disabled":false,"rental_uris":{"android":"levelo://app?vid=29d518ce-13b7-4af9-8ec6-7701a645636e","ios":"levelo://app?vid=29d518ce-13b7-4af9-8ec6-7701a645636e"},"vehicle_type_id":"4","last_reported":1773762834,"current_range_meters":2800,"station_id":"ce4bh092rcd13ifvqd30","pricing_plan_id":"cebpf4jnsgd1na2vs0mg"},{"bike_id":"1ee4bcbf-de65-4d09-b384-3581a17f4652","system_id":"levelo_inurba_marseille","lat":43.3091,"lon":5.36851,"is_reserved":false,"is_disabled":false,"rental_uris":{"android":"levelo://app?vid=1ee4bcbf-de65-4d09-b384-3581a17f4652","ios":"levelo://app?vid=1ee4bcbf-de65-4d09-b384-3581a17f4652"},"vehicle_type_id":"4","last_reported":1773762834,"current_range_meters":2800,"station_id":"ce4bgn92rcd13ifvqbvg","pricing_plan_id":"cebpf4jnsgd1na2vs0mg"},{"bike_id":"20dd7d86-c4dc-4d33-83b0-519cc08235a3","system_id":"levelo_inurba_marseille","lat":43.26215,"lon":5.37441,"is_reserved":false,"is_disabled":false,"rental_uris":{"android":"levelo://app?vid=20dd7d86-c4dc-4d33-83b0-519cc08235a3","ios":"levelo://app?vid=20dd7d86-c4dc-4d33-83b0-519cc08235a3"},"vehicle_type_id":"4","last_reported":1773762834,"current_range_meters":2800,"station_id":"ce4bhgp2rcd13ifvqfc0","pricing_plan_id":"cebpf4jnsgd1na2vs0mg"},{"bike_id":"a8261f75-c49a-4d8a-8d78-59cefb23f437","system_id":"levelo_inurba_marseille","lat":43.29867,"lon":5.36295,"is_reserved":false,"is_disabled":false,"rental_uris":{"android":"levelo://app?vid=a8261f75-c49a-4d8a-8d78-59cefb23f437","ios":"levelo://app?vid=a8261f75-c49a-4d8a-8d78-59cefb23f437"},"vehicle_type_id":"4","last_reported":1773762834,"current_range_meters":2800,"station_id":"ce4bgpp2rcd13ifvqc3g","pricing_plan_id":"cebpf4jnsgd1na2vs0mg"},{"bike_id":"6fc67201-b7ad-471e-ba44-220612c1b518","system_id":"levelo_inurba_marseille","lat":43.27794,"lon":5.40704,"is_reserved":false,"is_disabled":false,"rental_uris":{"android":"levelo://app?vid=6fc67201-b7ad-471e-ba44-220612c1b518","ios":"levelo://app?vid=6fc67201-b7ad-471e-ba44-220612c1b518"},"vehicle_type_id":"4","last_reported":1773762834,"current_range_meters":2800,"station_id":"ce4bhnh2rcd13ifvqgtg","pricing_plan_id":"cebpf4jnsgd1na2vs0mg"},{"bike_id":"e7d20ce8-61ee-4df3-9ba4-585a7648c721","system_id":"levelo_inurba_marseille","lat":43.24642,"lon":5.43142,"is_reserved":false,"is_disabled":false,"rental_uris":{"android":"levelo://app?vid=e7d20ce8-61ee-4df3-9ba4-585a7648c721","ios":"levelo://app?vid=e7d20ce8-61ee-4df3-9ba4-585a7648c721"},"vehicle_type_id":"4","last_reported":1773762834,"current_range_meters":2800,"station_id":"","pricing_plan_id":"cebpf4jnsgd1na2vs0mg"},{"bike_id":"7077099d-bec4-45e6-9cb2-740f7185bcfe","system_id":"levelo_inurba_marseille","lat":43.31075,"lon":5.37157,"is_reserved":false,"is_disabled":false,"rental_uris":{"android":"levelo://app?vid=7077099d-bec4-45e6-9cb2-740f7185bcfe","ios":"levelo://app?vid=7077099d-bec4-45e6-9cb2-740f7185bcfe"},"vehicle_type_id":"4","last_reported":1773762834,"current_range_meters":2800,"station_id":"st_d4kl2rp97mjs73e7tdfg","pricing_plan_id":"cebpf4jnsgd1na2vs0mg"},{"bike_id":"c2901b83-7c53-4056-9b74-0b91f159389a","system_id":"levelo_inurba_marseille","lat":43.28273,"lon":5.35063,"is_reserved":false,"is_disabled":false,"rental_uris":{"android":"levelo://app?vid=c2901b83-7c53-4056-9b74-0b91f159389a","ios":"levelo://app?vid=c2901b83-7c53-4056-9b74-0b91f159389a"},"vehicle_type_id":"4","last_reported":1773762834,"current_range_meters":2800,"station_id":"ce4bhbp2rcd13ifvqerg","pricing_plan_id":"cebpf4jnsgd1na2vs0mg"},{"bike_id":"91f440a2-b37f-4186-bada-b6ca9b83b739","system_id":"levelo_inurba_marseille","lat":43.23896,"lon":5.37455,"is_reserved":false,"is_disabled":false,"rental_uris":{"android":"levelo://app?vid=91f440a2-b37f-4186-bada-b6ca9b83b739","ios":"levelo://app?vid=91f440a2-b37f-4186-bada-b6ca9b83b739"},"vehicle_type_id":"4","last_reported":1773762834,"current_range_meters":2800,"station_id":"st_d6sm7csbq4hs73f8fpjg","pricing_plan_id":"cebpf4jnsgd1na2vs0mg"},{"bike_id":"ca5af02f-49f7-48db-a0c5-85c6fd8e11c9","system_id":"levelo_inurba_marseille","lat":43.25018,"lon":5.3891,"is_reserved":false,"is_disabled":true,"rental_uris":{"android":"levelo://app?vid=ca5af02f-49f7-48db-a0c5-85c6fd8e11c9","ios":"levelo://app?vid=ca5af02f-49f7-48db-a0c5-85c6fd8e11c9"},"vehicle_type_id":"4","last_reported":1773762834,"current_range_meters":2800,"station_id":"ce4bhgp2rcd13ifvqfd0","pricing_plan_id":"cebpf4jnsgd1na2vs0mg"},{"bike_id":"7d5e5488-b062-4979-8056-f7926cc5db5b","system_id":"levelo_inurba_marseille","lat":43.28505,"lon":5.48386,"is_reserved":false,"is_disabled":false,"rental_uris":{"android":"levelo://app?vid=7d5e5488-b062-4979-8056-f7926cc5db5b","ios":"levelo://app?vid=7d5e5488-b062-4979-8056-f7926cc5db5b"},"vehicle_type_id":"4","last_reported":1773762834,"current_range_meters":2800,"station_id":"","pricing_plan_id":"cebpf4jnsgd1na2vs0mg"},{"bike_id":"ab8ed3cf-dd65-453b-87ca-077ce7ed25e8","system_id":"levelo_inurba_marseille","lat":43.31897,"lon":5.36796,"is_reserved":false,"is_disabled":false,"rental_uris":{"android":"levelo://app?vid=ab8ed3cf-dd65-453b-87ca-077ce7ed25e8","ios":"levelo://app?vid=ab8ed3cf-dd65-453b-87ca-077ce7ed25e8"},"vehicle_type_id":"4","last_reported":1773762834,"current_range_meters":3200,"station_id":"st_d6o2h0d0559c73evc1b0","pricing_plan_id":"cebpf4jnsgd1na2vs0mg"},{"bike_id":"97054568-ec6b-4832-9696-86acb2d33950","system_id":"levelo_inurba_marseille","lat":43.24152,"lon":5.39723,"is_reserved":false,"is_disabled":false,"rental_uris":{"android":"levelo://app?vid=97054568-ec6b-4832-9696-86acb2d33950","ios":"levelo://app?vid=97054568-ec6b-4832-9696-86acb2d33950"},"vehicle_type_id":"4","last_reported":1773762834,"current_range_meters":3200,"station_id":"ce4bhn12rcd13ifvqgpg","pricing_plan_id":"cebpf4jnsgd1na2vs0mg"},{"bike_id":"a5228e24-15bf-4c3a-bc62-a93716cb7a64","system_id":"levelo_inurba_marseille","lat":43.32069,"lon":5.41522,"is_reserved":false,"is_disabled":false,"rental_uris":{"android":"levelo://app?vid=a5228e24-15bf-4c3a-bc62-a93716cb7a64","ios":"levelo://app?vid=a5228e24-15bf-4c3a-bc62-a93716cb7a64"},"vehicle_type_id":"4","last_reported":1773762834,"current_range_meters":3200,"station_id":"ce4bhq92rcd13ifvqhkg","pricing_plan_id":"cebpf4jnsgd1na2vs0mg"},{"bike_id":"1025f5aa-d8e5-438a-9c36-cc0a42dfc3a0","system_id":"levelo_inurba_marseille","lat":43.29192,"lon":5.39331,"is_reserved":false,"is_disabled":false,"rental_uris":{"android":"levelo://app?vid=1025f5aa-d8e5-438a-9c36-cc0a42dfc3a0","ios":"levelo://app?vid=1025f5aa-d8e5-438a-9c36-cc0a42dfc3a0"},"vehicle_type_id":"4","last_reported":1773762834,"current_range_meters":3200,"station_id":"ce4bh192rcd13ifvqdd0","pricing_plan_id":"cebpf4jnsgd1na2vs0mg"},{"bike_id":"21e58069-1b67-4eee-8acf-e8183373bde1","system_id":"levelo_inurba_marseille","lat":43.27922,"lon":5.39589,"is_reserved":false,"is_disabled":false,"rental_uris":{"android":"levelo://app?vid=21e58069-1b67-4eee-8acf-e8183373bde1","ios":"levelo://app?vid=21e58069-1b67-4eee-8acf-e8183373bde1"},"vehicle_type_id":"4","last_reported":1773762834,"current_range_meters":3200,"station_id":"ce4bhf92rcd13ifvqf40","pricing_plan_id":"cebpf4jnsgd1na2vs0mg"},{"bike_id":"2f6a5015-2093-49e2-ba43-5bd2a18fb8b9","system_id":"levelo_inurba_marseille","lat":43.30291,"lon":5.37682,"is_reserved":false,"is_disabled":false,"rental_uris":{"android":"levelo://app?vid=2f6a5015-2093-49e2-ba43-5bd2a18fb8b9","ios":"levelo://app?vid=2f6a5015-2093-49e2-ba43-5bd2a18fb8b9"},"vehicle_type_id":"4","last_reported":1773762834,"current_range_meters":3200,"station_id":"ce4bguh2rcd13ifvqcj0","pricing_plan_id":"cebpf4jnsgd1na2vs0mg"},{"bike_id":"b3fb0cd9-0d50-4402-b1d7-e0ca7cbbf02f","system_id":"levelo_inurba_marseille","lat":43.22563,"lon":5.41623,"is_reserved":false,"is_disabled":false,"rental_uris":{"android":"levelo://app?vid=b3fb0cd9-0d50-4402-b1d7-e0ca7cbbf02f","ios":"levelo://app?vid=b3fb0cd9-0d50-4402-b1d7-e0ca7cbbf02f"},"vehicle_type_id":"4","last_reported":1773762834,"current_range_meters":3200,"station_id":"st_d2o4gvlbi1j2169b742g","pricing_plan_id":"cebpf4jnsgd1na2vs0mg"},{"bike_id":"5a2c7016-c5c7-47a9-ae4e-b136744acf23","system_id":"levelo_inurba_marseille","lat":43.30213,"lon":5.394634,"is_reserved":false,"is_disabled":false,"rental_uris":{"android":"levelo://app?vid=5a2c7016-c5c7-47a9-ae4e-b136744acf23","ios":"levelo://app?vid=5a2c7016-c5c7-47a9-ae4e-b136744acf23"},"vehicle_type_id":"4","last_reported":1773762834,"current_range_meters":3200,"station_id":"ce4bh0p2rcd13ifvqd70","pricing_plan_id":"cebpf4jnsgd1na2vs0mg"},{"bike_id":"879a873f-004f-4af1-a55c-41f0a4bec7bc","system_id":"levelo_inurba_marseille","lat":43.2119,"lon":5.35067,"is_reserved":false,"is_disabled":false,"rental_uris":{"android":"levelo://app?vid=879a873f-004f-4af1-a55c-41f0a4bec7bc","ios":"levelo://app?vid=879a873f-004f-4af1-a55c-41f0a4bec7bc"},"vehicle_type_id":"4","last_reported":1773762834,"current_range_meters":3200,"station_id":"st_cvj6sg6p6f1abm77japg","pricing_plan_id":"cebpf4jnsgd1na2vs0mg"},{"bike_id":"438a7b48-ce09-4d44-bfe9-b16ef6900b3c","system_id":"levelo_inurba_marseille","lat":43.31369,"lon":5.36714,"is_reserved":false,"is_disabled":false,"rental_uris":{"android":"levelo://app?vid=438a7b48-ce09-4d44-bfe9-b16ef6900b3c","ios":"levelo://app?vid=438a7b48-ce09-4d44-bfe9-b16ef6900b3c"},"vehicle_type_id":"4","last_reported":1773762834,"current_range_meters":3200,"station_id":"ce4bgr92rcd13ifvqc6g","pricing_plan_id":"cebpf4jnsgd1na2vs0mg"},{"bike_id":"53b7993f-0144-42cb-b0fe-4d2d5000fd6e","system_id":"levelo_inurba_marseille","lat":43.30909,"lon":5.36855,"is_reserved":false,"is_disabled":false,"rental_uris":{"android":"levelo://app?vid=53b7993f-0144-42cb-b0fe-4d2d5000fd6e","ios":"levelo://app?vid=53b7993f-0144-42cb-b0fe-4d2d5000fd6e"},"vehicle_type_id":"4","last_reported":1773762834,"current_range_meters":3200,"station_id":"ce4bgn92rcd13ifvqbvg","pricing_plan_id":"cebpf4jnsgd1na2vs0mg"},{"bike_id":"02f0d89c-7bec-47cd-a8e8-d5b4d65eb9ba","system_id":"levelo_inurba_marseille","lat":43.26031,"lon":5.37545,"is_reserved":false,"is_disabled":false,"rental_uris":{"android":"levelo://app?vid=02f0d89c-7bec-47cd-a8e8-d5b4d65eb9ba","ios":"levelo://app?vid=02f0d89c-7bec-47cd-a8e8-d5b4d65eb9ba"},"vehicle_type_id":"4","last_reported":1773762834,"current_range_meters":3600,"station_id":"ce4bhgh2rcd13ifvqfa0","pricing_plan_id":"cebpf4jnsgd1na2vs0mg"},{"bike_id":"20d965c2-9356-4a2d-b2d1-b586da5c97e8","system_id":"levelo_inurba_marseille","lat":43.28117,"lon":5.40612,"is_reserved":false,"is_disabled":true,"rental_uris":{"android":"levelo://app?vid=20d965c2-9356-4a2d-b2d1-b586da5c97e8","ios":"levelo://app?vid=20d965c2-9356-4a2d-b2d1-b586da5c97e8"},"vehicle_type_id":"4","last_reported":1773762834,"current_range_meters":3600,"station_id":"","pricing_plan_id":"cebpf4jnsgd1na2vs0mg"},{"bike_id":"87cf2c9e-dd79-479c-9e15-2f0aaae6b8ee","system_id":"levelo_inurba_marseille","lat":43.3144,"lon":5.37334,"is_reserved":false,"is_disabled":false,"rental_uris":{"android":"levelo://app?vid=87cf2c9e-dd79-479c-9e15-2f0aaae6b8ee","ios":"levelo://app?vid=87cf2c9e-dd79-479c-9e15-2f0aaae6b8ee"},"vehicle_type_id":"4","last_reported":1773762834,"current_range_meters":3600,"station_id":"ce4bgt12rcd13ifvqcd0","pricing_plan_id":"cebpf4jnsgd1na2vs0mg"},{"bike_id":"303478bc-2a12-4c1b-a970-020a8ca5f958","system_id":"levelo_inurba_marseille","lat":43.30546,"lon":5.36522,"is_reserved":false,"is_disabled":false,"rental_uris":{"android":"levelo://app?vid=303478bc-2a12-4c1b-a970-020a8ca5f958","ios":"levelo://app?vid=303478bc-2a12-4c1b-a970-020a8ca5f958"},"vehicle_type_id":"4","last_reported":1773762834,"current_range_meters":3600,"station_id":"ce4bgs12rcd13ifvqcag","pricing_plan_id":"cebpf4jnsgd1na2vs0mg"},{"bike_id":"80e6734b-3764-4853-8c63-15cb07f7249f","system_id":"levelo_inurba_marseille","lat":43.29805,"lon":5.44044,"is_reserved":false,"is_disabled":false,"rental_uris":{"android":"levelo://app?vid=80e6734b-3764-4853-8c63-15cb07f7249f","ios":"levelo://app?vid=80e6734b-3764-4853-8c63-15cb07f7249f"},"vehicle_type_id":"4","last_reported":1773762834,"current_range_meters":3600,"station_id":"st_d3jp68qikq2c7381ktn0","pricing_plan_id":"cebpf4jnsgd1na2vs0mg"},{"bike_id":"796ed888-5e80-4248-a7be-20570706635d","system_id":"levelo_inurba_marseille","lat":43.23783,"lon":5.36622,"is_reserved":false,"is_disabled":false,"rental_uris":{"android":"levelo://app?vid=796ed888-5e80-4248-a7be-20570706635d","ios":"levelo://app?vid=796ed888-5e80-4248-a7be-20570706635d"},"vehicle_type_id":"4","last_reported":1773762834,"current_range_meters":3600,"station_id":"st_d3nk18o9ro0c73en2l3g","pricing_plan_id":"cebpf4jnsgd1na2vs0mg"},{"bike_id":"05797fa1-accf-4d33-953a-71b7e9c0f32e","system_id":"levelo_inurba_marseille","lat":43.23964,"lon":5.36629,"is_reserved":false,"is_disabled":false,"rental_uris":{"android":"levelo://app?vid=05797fa1-accf-4d33-953a-71b7e9c0f32e","ios":"levelo://app?vid=05797fa1-accf-4d33-953a-71b7e9c0f32e"},"vehicle_type_id":"4","last_reported":1773762834,"current_range_meters":3600,"station_id":"ce4bhi12rcd13ifvqfp0","pricing_plan_id":"cebpf4jnsgd1na2vs0mg"},{"bike_id":"5ceea874-16bc-4dc6-9858-1b3ce34dfda6","system_id":"levelo_inurba_marseille","lat":43.28473,"lon":5.48392,"is_reserved":false,"is_disabled":false,"rental_uris":{"android":"levelo://app?vid=5ceea874-16bc-4dc6-9858-1b3ce34dfda6","ios":"levelo://app?vid=5ceea874-16bc-4dc6-9858-1b3ce34dfda6"},"vehicle_type_id":"4","last_reported":1773762834,"current_range_meters":3600,"station_id":"st_d3svhcjqgbts73a3dn0g","pricing_plan_id":"cebpf4jnsgd1na2vs0mg"},{"bike_id":"5c13d3bc-3946-4016-b223-a96c424763ee","system_id":"levelo_inurba_marseille","lat":43.24191,"lon":5.36379,"is_reserved":false,"is_disabled":false,"rental_uris":{"android":"levelo://app?vid=5c13d3bc-3946-4016-b223-a96c424763ee","ios":"levelo://app?vid=5c13d3bc-3946-4016-b223-a96c424763ee"},"vehicle_type_id":"4","last_reported":1773762834,"current_range_meters":3600,"station_id":"cpo36qri1sfpv3e86is0","pricing_plan_id":"cebpf4jnsgd1na2vs0mg"},{"bike_id":"75dd62f4-38b8-4fe6-bfb4-fa78ab74b4fd","system_id":"levelo_inurba_marseille","lat":43.28619,"lon":5.35098,"is_reserved":false,"is_disabled":false,"rental_uris":{"android":"levelo://app?vid=75dd62f4-38b8-4fe6-bfb4-fa78ab74b4fd","ios":"levelo://app?vid=75dd62f4-38b8-4fe6-bfb4-fa78ab74b4fd"},"vehicle_type_id":"4","last_reported":1773762834,"current_range_meters":3600,"station_id":"ce4bhch2rcd13ifvqeug","pricing_plan_id":"cebpf4jnsgd1na2vs0mg"},{"bike_id":"d06b1804-70fd-40ad-8edd-a00949173812","system_id":"levelo_inurba_marseille","lat":43.23187,"lon":5.39994,"is_reserved":false,"is_disabled":false,"rental_uris":{"android":"levelo://app?vid=d06b1804-70fd-40ad-8edd-a00949173812","ios":"levelo://app?vid=d06b1804-70fd-40ad-8edd-a00949173812"},"vehicle_type_id":"4","last_reported":1773762834,"current_range_meters":3600,"station_id":"ce4bhn12rcd13ifvqgqg","pricing_plan_id":"cebpf4jnsgd1na2vs0mg"},{"bike_id":"d89134ff-a044-45c7-94db-9ed2eccb039f","system_id":"levelo_inurba_marseille","lat":43.3135,"lon":5.38497,"is_reserved":false,"is_disabled":true,"rental_uris":{"android":"levelo://app?vid=d89134ff-a044-45c7-94db-9ed2eccb039f","ios":"levelo://app?vid=d89134ff-a044-45c7-94db-9ed2eccb039f"},"vehicle_type_id":"4","last_reported":1773762834,"current_range_meters":3600,"station_id":"ce4bgt92rcd13ifvqcf0","pricing_plan_id":"cebpf4jnsgd1na2vs0mg"},{"bike_id":"550c6f48-64d4-43bc-a0e4-444a1f8184af","system_id":"levelo_inurba_marseille","lat":43.21758,"lon":5.34598,"is_reserved":false,"is_disabled":false,"rental_uris":{"android":"levelo://app?vid=550c6f48-64d4-43bc-a0e4-444a1f8184af","ios":"levelo://app?vid=550c6f48-64d4-43bc-a0e4-444a1f8184af"},"vehicle_type_id":"4","last_reported":1773762834,"current_range_meters":3600,"station_id":"st_cvj6r9ubvosntc0bgbag","pricing_plan_id":"cebpf4jnsgd1na2vs0mg"},{"bike_id":"abdb0b40-65e0-416b-95c5-ddcaacb31333","system_id":"levelo_inurba_marseille","lat":43.2984,"lon":5.36263,"is_reserved":false,"is_disabled":false,"rental_uris":{"android":"levelo://app?vid=abdb0b40-65e0-416b-95c5-ddcaacb31333","ios":"levelo://app?vid=abdb0b40-65e0-416b-95c5-ddcaacb31333"},"vehicle_type_id":"4","last_reported":1773762834,"current_range_meters":3600,"station_id":"ce4bgpp2rcd13ifvqc3g","pricing_plan_id":"cebpf4jnsgd1na2vs0mg"},{"bike_id":"9fbfcb60-fb4b-40c6-9065-311a011d08f5","system_id":"levelo_inurba_marseille","lat":43.28267,"lon":5.35064,"is_reserved":false,"is_disabled":false,"rental_uris":{"android":"levelo://app?vid=9fbfcb60-fb4b-40c6-9065-311a011d08f5","ios":"levelo://app?vid=9fbfcb60-fb4b-40c6-9065-311a011d08f5"},"vehicle_type_id":"4","last_reported":1773762834,"current_range_meters":3600,"station_id":"ce4bhbp2rcd13ifvqerg","pricing_plan_id":"cebpf4jnsgd1na2vs0mg"},{"bike_id":"998f1757-a38b-4fab-a2f4-096a176e9c82","system_id":"levelo_inurba_marseille","lat":43.29194,"lon":5.358,"is_reserved":false,"is_disabled":false,"rental_uris":{"android":"levelo://app?vid=998f1757-a38b-4fab-a2f4-096a176e9c82","ios":"levelo://app?vid=998f1757-a38b-4fab-a2f4-096a176e9c82"},"vehicle_type_id":"4","last_reported":1773762834,"current_range_meters":3600,"station_id":"ce4bhb12rcd13ifvqel0","pricing_plan_id":"cebpf4jnsgd1na2vs0mg"},{"bike_id":"5546bd0f-7ced-4964-ba48-a430fa2adf47","system_id":"levelo_inurba_marseille","lat":43.21743,"lon":5.34607,"is_reserved":false,"is_disabled":true,"rental_uris":{"android":"levelo://app?vid=5546bd0f-7ced-4964-ba48-a430fa2adf47","ios":"levelo://app?vid=5546bd0f-7ced-4964-ba48-a430fa2adf47"},"vehicle_type_id":"4","last_reported":1773762834,"current_range_meters":4000,"station_id":"st_cvj6r9ubvosntc0bgbag","pricing_plan_id":"cebpf4jnsgd1na2vs0mg"},{"bike_id":"2f6af145-9965-4232-ba20-a2113c18cb78","system_id":"levelo_inurba_marseille","lat":43.29565,"lon":5.39971,"is_reserved":false,"is_disabled":true,"rental_uris":{"android":"levelo://app?vid=2f6af145-9965-4232-ba20-a2113c18cb78","ios":"levelo://app?vid=2f6af145-9965-4232-ba20-a2113c18cb78"},"vehicle_type_id":"4","last_reported":1773762834,"current_range_meters":4000,"station_id":"ce4bh312rcd13ifvqdj0","pricing_plan_id":"cebpf4jnsgd1na2vs0mg"},{"bike_id":"849601a4-f153-4e69-8a81-266bd3c62be8","system_id":"levelo_inurba_marseille","lat":43.28413,"lon":5.34953,"is_reserved":false,"is_disabled":false,"rental_uris":{"android":"levelo://app?vid=849601a4-f153-4e69-8a81-266bd3c62be8","ios":"levelo://app?vid=849601a4-f153-4e69-8a81-266bd3c62be8"},"vehicle_type_id":"4","last_reported":1773762834,"current_range_meters":4000,"station_id":"ce4bhbh2rcd13ifvqepg","pricing_plan_id":"cebpf4jnsgd1na2vs0mg"},{"bike_id":"0f53d472-bee4-40de-8ab2-7656a789b4f7","system_id":"levelo_inurba_marseille","lat":43.22459,"lon":5.34904,"is_reserved":false,"is_disabled":false,"rental_uris":{"android":"levelo://app?vid=0f53d472-bee4-40de-8ab2-7656a789b4f7","ios":"levelo://app?vid=0f53d472-bee4-40de-8ab2-7656a789b4f7"},"vehicle_type_id":"4","last_reported":1773762834,"current_range_meters":4000,"station_id":"","pricing_plan_id":"cebpf4jnsgd1na2vs0mg"},{"bike_id":"fa36b951-7724-4ec0-937d-26f07e5aa9ed","system_id":"levelo_inurba_marseille","lat":43.30548,"lon":5.36529,"is_reserved":false,"is_disabled":false,"rental_uris":{"android":"levelo://app?vid=fa36b951-7724-4ec0-937d-26f07e5aa9ed","ios":"levelo://app?vid=fa36b951-7724-4ec0-937d-26f07e5aa9ed"},"vehicle_type_id":"4","last_reported":1773762834,"current_range_meters":4000,"station_id":"ce4bgs12rcd13ifvqcag","pricing_plan_id":"cebpf4jnsgd1na2vs0mg"},{"bike_id":"0a5d8d40-fc82-41d0-bc27-c6dd1ea52e5e","system_id":"levelo_inurba_marseille","lat":43.27369,"lon":5.36238,"is_reserved":false,"is_disabled":false,"rental_uris":{"android":"levelo://app?vid=0a5d8d40-fc82-41d0-bc27-c6dd1ea52e5e","ios":"levelo://app?vid=0a5d8d40-fc82-41d0-bc27-c6dd1ea52e5e"},"vehicle_type_id":"4","last_reported":1773762834,"current_range_meters":4000,"station_id":"ce4bhbh2rcd13ifvqeo0","pricing_plan_id":"cebpf4jnsgd1na2vs0mg"},{"bike_id":"96c3e592-caf0-4266-a17d-83de489ffac5","system_id":"levelo_inurba_marseille","lat":43.29758,"lon":5.38115,"is_reserved":false,"is_disabled":false,"rental_uris":{"android":"levelo://app?vid=96c3e592-caf0-4266-a17d-83de489ffac5","ios":"levelo://app?vid=96c3e592-caf0-4266-a17d-83de489ffac5"},"vehicle_type_id":"4","last_reported":1773762834,"current_range_meters":4000,"station_id":"","pricing_plan_id":"cebpf4jnsgd1na2vs0mg"},{"bike_id":"e8a11876-20e1-446f-9d75-7dd8f78675c1","system_id":"levelo_inurba_marseille","lat":43.287044,"lon":5.373676,"is_reserved":false,"is_disabled":false,"rental_uris":{"android":"levelo://app?vid=e8a11876-20e1-446f-9d75-7dd8f78675c1","ios":"levelo://app?vid=e8a11876-20e1-446f-9d75-7dd8f78675c1"},"vehicle_type_id":"4","last_reported":1773762834,"current_range_meters":4000,"station_id":"ce4bh3p2rcd13ifvqdq0","pricing_plan_id":"cebpf4jnsgd1na2vs0mg"},{"bike_id":"a18ca43d-a32e-492e-b9fa-86fa5c3057ea","system_id":"levelo_inurba_marseille","lat":43.26558,"lon":5.37286,"is_reserved":false,"is_disabled":false,"rental_uris":{"android":"levelo://app?vid=a18ca43d-a32e-492e-b9fa-86fa5c3057ea","ios":"levelo://app?vid=a18ca43d-a32e-492e-b9fa-86fa5c3057ea"},"vehicle_type_id":"4","last_reported":1773762834,"current_range_meters":4000,"station_id":"ce4bhg12rcd13ifvqf70","pricing_plan_id":"cebpf4jnsgd1na2vs0mg"},{"bike_id":"47df26dd-a8d4-4384-95f9-a4c95f9acd71","system_id":"levelo_inurba_marseille","lat":43.26366,"lon":5.41071,"is_reserved":false,"is_disabled":false,"rental_uris":{"android":"levelo://app?vid=47df26dd-a8d4-4384-95f9-a4c95f9acd71","ios":"levelo://app?vid=47df26dd-a8d4-4384-95f9-a4c95f9acd71"},"vehicle_type_id":"4","last_reported":1773762834,"current_range_meters":4000,"station_id":"st_d4e5ca6na9uc73bfl5fg","pricing_plan_id":"cebpf4jnsgd1na2vs0mg"},{"bike_id":"e5ef60e9-e8ae-44a3-a2a8-a943d8c341ad","system_id":"levelo_inurba_marseille","lat":43.30596,"lon":5.37219,"is_reserved":false,"is_disabled":false,"rental_uris":{"android":"levelo://app?vid=e5ef60e9-e8ae-44a3-a2a8-a943d8c341ad","ios":"levelo://app?vid=e5ef60e9-e8ae-44a3-a2a8-a943d8c341ad"},"vehicle_type_id":"4","last_reported":1773762834,"current_range_meters":4000,"station_id":"ce4bgqh2rcd13ifvqc4g","pricing_plan_id":"cebpf4jnsgd1na2vs0mg"},{"bike_id":"d0fe6d23-0520-4ae2-ba22-adc8cf05a374","system_id":"levelo_inurba_marseille","lat":43.24953,"lon":5.40503,"is_reserved":false,"is_disabled":false,"rental_uris":{"android":"levelo://app?vid=d0fe6d23-0520-4ae2-ba22-adc8cf05a374","ios":"levelo://app?vid=d0fe6d23-0520-4ae2-ba22-adc8cf05a374"},"vehicle_type_id":"4","last_reported":1773762834,"current_range_meters":4400,"station_id":"st_d2ngiaodas8pm72gd1h0","pricing_plan_id":"cebpf4jnsgd1na2vs0mg"},{"bike_id":"d3ef80dc-e360-4050-b758-1ba39c49783a","system_id":"levelo_inurba_marseille","lat":43.29274,"lon":5.38439,"is_reserved":false,"is_disabled":false,"rental_uris":{"android":"levelo://app?vid=d3ef80dc-e360-4050-b758-1ba39c49783a","ios":"levelo://app?vid=d3ef80dc-e360-4050-b758-1ba39c49783a"},"vehicle_type_id":"4","last_reported":1773762834,"current_range_meters":4400,"station_id":"ce4bh692rcd13ifvqea0","pricing_plan_id":"cebpf4jnsgd1na2vs0mg"},{"bike_id":"29a54209-1805-4985-95a0-2df2873998c5","system_id":"levelo_inurba_marseille","lat":43.28409,"lon":5.34986,"is_reserved":false,"is_disabled":false,"rental_uris":{"android":"levelo://app?vid=29a54209-1805-4985-95a0-2df2873998c5","ios":"levelo://app?vid=29a54209-1805-4985-95a0-2df2873998c5"},"vehicle_type_id":"4","last_reported":1773762834,"current_range_meters":4400,"station_id":"ce4bhbh2rcd13ifvqepg","pricing_plan_id":"cebpf4jnsgd1na2vs0mg"},{"bike_id":"4e0543f3-c08c-4c64-8ed6-02b7a864a4be","system_id":"levelo_inurba_marseille","lat":43.29258,"lon":5.40901,"is_reserved":false,"is_disabled":false,"rental_uris":{"android":"levelo://app?vid=4e0543f3-c08c-4c64-8ed6-02b7a864a4be","ios":"levelo://app?vid=4e0543f3-c08c-4c64-8ed6-02b7a864a4be"},"vehicle_type_id":"4","last_reported":1773762834,"current_range_meters":4400,"station_id":"ce4bh192rcd13ifvqdc0","pricing_plan_id":"cebpf4jnsgd1na2vs0mg"},{"bike_id":"306a58f2-66f6-42c6-ab51-aeb2d77cbb6b","system_id":"levelo_inurba_marseille","lat":43.23775,"lon":5.36619,"is_reserved":false,"is_disabled":false,"rental_uris":{"android":"levelo://app?vid=306a58f2-66f6-42c6-ab51-aeb2d77cbb6b","ios":"levelo://app?vid=306a58f2-66f6-42c6-ab51-aeb2d77cbb6b"},"vehicle_type_id":"4","last_reported":1773762834,"current_range_meters":4400,"station_id":"st_d3nk18o9ro0c73en2l3g","pricing_plan_id":"cebpf4jnsgd1na2vs0mg"},{"bike_id":"9124e972-b12a-4136-a0dd-08c3517ff162","system_id":"levelo_inurba_marseille","lat":43.27615,"lon":5.36116,"is_reserved":false,"is_disabled":false,"rental_uris":{"android":"levelo://app?vid=9124e972-b12a-4136-a0dd-08c3517ff162","ios":"levelo://app?vid=9124e972-b12a-4136-a0dd-08c3517ff162"},"vehicle_type_id":"4","last_reported":1773762834,"current_range_meters":4400,"station_id":"ce4bgj92rcd13ifvqbe0","pricing_plan_id":"cebpf4jnsgd1na2vs0mg"},{"bike_id":"cace3d1d-1bca-4b13-a9d9-15d4fe451dee","system_id":"levelo_inurba_marseille","lat":43.24654,"lon":5.43149,"is_reserved":false,"is_disabled":false,"rental_uris":{"android":"levelo://app?vid=cace3d1d-1bca-4b13-a9d9-15d4fe451dee","ios":"levelo://app?vid=cace3d1d-1bca-4b13-a9d9-15d4fe451dee"},"vehicle_type_id":"4","last_reported":1773762834,"current_range_meters":4400,"station_id":"","pricing_plan_id":"cebpf4jnsgd1na2vs0mg"},{"bike_id":"2d475c7c-0764-4ac9-8950-41d5059b573b","system_id":"levelo_inurba_marseille","lat":43.28484,"lon":5.48401,"is_reserved":false,"is_disabled":false,"rental_uris":{"android":"levelo://app?vid=2d475c7c-0764-4ac9-8950-41d5059b573b","ios":"levelo://app?vid=2d475c7c-0764-4ac9-8950-41d5059b573b"},"vehicle_type_id":"4","last_reported":1773762834,"current_range_meters":4800,"station_id":"","pricing_plan_id":"cebpf4jnsgd1na2vs0mg"},{"bike_id":"fcc16676-bdcc-453d-943e-a6082336e83f","system_id":"levelo_inurba_marseille","lat":43.29805,"lon":5.44048,"is_reserved":false,"is_disabled":false,"rental_uris":{"android":"levelo://app?vid=fcc16676-bdcc-453d-943e-a6082336e83f","ios":"levelo://app?vid=fcc16676-bdcc-453d-943e-a6082336e83f"},"vehicle_type_id":"4","last_reported":1773762834,"current_range_meters":4800,"station_id":"st_d3jp68qikq2c7381ktn0","pricing_plan_id":"cebpf4jnsgd1na2vs0mg"},{"bike_id":"79d7e2d8-96ed-465e-b31b-1696801515fd","system_id":"levelo_inurba_marseille","lat":43.24162,"lon":5.36382,"is_reserved":false,"is_disabled":false,"rental_uris":{"android":"levelo://app?vid=79d7e2d8-96ed-465e-b31b-1696801515fd","ios":"levelo://app?vid=79d7e2d8-96ed-465e-b31b-1696801515fd"},"vehicle_type_id":"4","last_reported":1773762834,"current_range_meters":4800,"station_id":"cpo36qri1sfpv3e86is0","pricing_plan_id":"cebpf4jnsgd1na2vs0mg"},{"bike_id":"e2724bc6-74dc-4b87-bb3e-58804be6d0c5","system_id":"levelo_inurba_marseille","lat":43.24091,"lon":5.36386,"is_reserved":false,"is_disabled":false,"rental_uris":{"android":"levelo://app?vid=e2724bc6-74dc-4b87-bb3e-58804be6d0c5","ios":"levelo://app?vid=e2724bc6-74dc-4b87-bb3e-58804be6d0c5"},"vehicle_type_id":"4","last_reported":1773762834,"current_range_meters":4800,"station_id":"cpo36qri1sfpv3e86is0","pricing_plan_id":"cebpf4jnsgd1na2vs0mg"},{"bike_id":"69d2e5d2-aab9-4fc9-a42e-b520c7e8b4f1","system_id":"levelo_inurba_marseille","lat":43.23058,"lon":5.35488,"is_reserved":false,"is_disabled":false,"rental_uris":{"android":"levelo://app?vid=69d2e5d2-aab9-4fc9-a42e-b520c7e8b4f1","ios":"levelo://app?vid=69d2e5d2-aab9-4fc9-a42e-b520c7e8b4f1"},"vehicle_type_id":"4","last_reported":1773762834,"current_range_meters":4800,"station_id":"cpo3342slgdg3j2ifvpg","pricing_plan_id":"cebpf4jnsgd1na2vs0mg"},{"bike_id":"bf09d751-0302-4a6b-a6ad-15641d43609a","system_id":"levelo_inurba_marseille","lat":43.26569,"lon":5.3903,"is_reserved":false,"is_disabled":false,"rental_uris":{"android":"levelo://app?vid=bf09d751-0302-4a6b-a6ad-15641d43609a","ios":"levelo://app?vid=bf09d751-0302-4a6b-a6ad-15641d43609a"},"vehicle_type_id":"4","last_reported":1773762834,"current_range_meters":4800,"station_id":"ce4bhe12rcd13ifvqf30","pricing_plan_id":"cebpf4jnsgd1na2vs0mg"},{"bike_id":"6745bf45-28f6-4c6f-b83a-73882b149160","system_id":"levelo_inurba_marseille","lat":43.29223,"lon":5.36054,"is_reserved":false,"is_disabled":false,"rental_uris":{"android":"levelo://app?vid=6745bf45-28f6-4c6f-b83a-73882b149160","ios":"levelo://app?vid=6745bf45-28f6-4c6f-b83a-73882b149160"},"vehicle_type_id":"4","last_reported":1773762834,"current_range_meters":4800,"station_id":"ce4bhbh2rcd13ifvqeqg","pricing_plan_id":"cebpf4jnsgd1na2vs0mg"},{"bike_id":"9d56c3cb-03f8-4e0f-975e-735aa419ef55","system_id":"levelo_inurba_marseille","lat":43.29854,"lon":5.36282,"is_reserved":false,"is_disabled":false,"rental_uris":{"android":"levelo://app?vid=9d56c3cb-03f8-4e0f-975e-735aa419ef55","ios":"levelo://app?vid=9d56c3cb-03f8-4e0f-975e-735aa419ef55"},"vehicle_type_id":"4","last_reported":1773762834,"current_range_meters":4800,"station_id":"ce4bgpp2rcd13ifvqc3g","pricing_plan_id":"cebpf4jnsgd1na2vs0mg"},{"bike_id":"c610ecfe-7a37-4cc5-b2e9-f68f9474d170","system_id":"levelo_inurba_marseille","lat":43.2418,"lon":5.39705,"is_reserved":false,"is_disabled":false,"rental_uris":{"android":"levelo://app?vid=c610ecfe-7a37-4cc5-b2e9-f68f9474d170","ios":"levelo://app?vid=c610ecfe-7a37-4cc5-b2e9-f68f9474d170"},"vehicle_type_id":"4","last_reported":1773762834,"current_range_meters":4800,"station_id":"ce4bhn12rcd13ifvqgpg","pricing_plan_id":"cebpf4jnsgd1na2vs0mg"},{"bike_id":"3754fb9f-79d8-409d-80d8-2eaa36a097df","system_id":"levelo_inurba_marseille","lat":43.30792,"lon":5.3815,"is_reserved":false,"is_disabled":false,"rental_uris":{"android":"levelo://app?vid=3754fb9f-79d8-409d-80d8-2eaa36a097df","ios":"levelo://app?vid=3754fb9f-79d8-409d-80d8-2eaa36a097df"},"vehicle_type_id":"4","last_reported":1773762834,"current_range_meters":4800,"station_id":"ce4bgt12rcd13ifvqce0","pricing_plan_id":"cebpf4jnsgd1na2vs0mg"},{"bike_id":"8ca4b737-672b-49d7-85aa-1745d327f5a0","system_id":"levelo_inurba_marseille","lat":43.23186,"lon":5.35542,"is_reserved":false,"is_disabled":false,"rental_uris":{"android":"levelo://app?vid=8ca4b737-672b-49d7-85aa-1745d327f5a0","ios":"levelo://app?vid=8ca4b737-672b-49d7-85aa-1745d327f5a0"},"vehicle_type_id":"4","last_reported":1773762834,"current_range_meters":4800,"station_id":"ce4bhu92rcd13ifvqi70","pricing_plan_id":"cebpf4jnsgd1na2vs0mg"},{"bike_id":"99b3399f-a7f1-46ba-9d8d-17a6644bc2b4","system_id":"levelo_inurba_marseille","lat":43.21745,"lon":5.34612,"is_reserved":false,"is_disabled":false,"rental_uris":{"android":"levelo://app?vid=99b3399f-a7f1-46ba-9d8d-17a6644bc2b4","ios":"levelo://app?vid=99b3399f-a7f1-46ba-9d8d-17a6644bc2b4"},"vehicle_type_id":"4","last_reported":1773762834,"current_range_meters":4800,"station_id":"st_cvj6r9ubvosntc0bgbag","pricing_plan_id":"cebpf4jnsgd1na2vs0mg"},{"bike_id":"55ad6576-3c79-4a6b-881b-323a7e8b70a1","system_id":"levelo_inurba_marseille","lat":43.2499,"lon":5.38932,"is_reserved":false,"is_disabled":false,"rental_uris":{"android":"levelo://app?vid=55ad6576-3c79-4a6b-881b-323a7e8b70a1","ios":"levelo://app?vid=55ad6576-3c79-4a6b-881b-323a7e8b70a1"},"vehicle_type_id":"4","last_reported":1773762834,"current_range_meters":5600,"station_id":"ce4bhgp2rcd13ifvqfd0","pricing_plan_id":"cebpf4jnsgd1na2vs0mg"},{"bike_id":"1c80d65f-5a5b-4286-b809-cfa0b084b10b","system_id":"levelo_inurba_marseille","lat":43.25912,"lon":5.40881,"is_reserved":false,"is_disabled":false,"rental_uris":{"android":"levelo://app?vid=1c80d65f-5a5b-4286-b809-cfa0b084b10b","ios":"levelo://app?vid=1c80d65f-5a5b-4286-b809-cfa0b084b10b"},"vehicle_type_id":"4","last_reported":1773762834,"current_range_meters":5600,"station_id":"ce4bhm92rcd13ifvqglg","pricing_plan_id":"cebpf4jnsgd1na2vs0mg"},{"bike_id":"21a14b14-d833-4438-923f-502f280593a8","system_id":"levelo_inurba_marseille","lat":43.28717,"lon":5.375354,"is_reserved":false,"is_disabled":false,"rental_uris":{"android":"levelo://app?vid=21a14b14-d833-4438-923f-502f280593a8","ios":"levelo://app?vid=21a14b14-d833-4438-923f-502f280593a8"},"vehicle_type_id":"4","last_reported":1773762834,"current_range_meters":5600,"station_id":"ce4bh3p2rcd13ifvqdq0","pricing_plan_id":"cebpf4jnsgd1na2vs0mg"},{"bike_id":"b6cb854e-cb7d-4c0b-9037-bce62c9961f0","system_id":"levelo_inurba_marseille","lat":43.29203,"lon":5.35802,"is_reserved":false,"is_disabled":false,"rental_uris":{"android":"levelo://app?vid=b6cb854e-cb7d-4c0b-9037-bce62c9961f0","ios":"levelo://app?vid=b6cb854e-cb7d-4c0b-9037-bce62c9961f0"},"vehicle_type_id":"4","last_reported":1773762834,"current_range_meters":5600,"station_id":"ce4bhb12rcd13ifvqel0","pricing_plan_id":"cebpf4jnsgd1na2vs0mg"},{"bike_id":"88858f89-fe21-45f8-acbb-9ce67472ddb3","system_id":"levelo_inurba_marseille","lat":43.22932,"lon":5.35376,"is_reserved":false,"is_disabled":false,"rental_uris":{"android":"levelo://app?vid=88858f89-fe21-45f8-acbb-9ce67472ddb3","ios":"levelo://app?vid=88858f89-fe21-45f8-acbb-9ce67472ddb3"},"vehicle_type_id":"4","last_reported":1773762834,"current_range_meters":5600,"station_id":"cpo3532slgdg3j2ikp40","pricing_plan_id":"cebpf4jnsgd1na2vs0mg"},{"bike_id":"96dac97a-0c76-4079-a74f-d3b50e0ff04c","system_id":"levelo_inurba_marseille","lat":43.21199,"lon":5.35068,"is_reserved":false,"is_disabled":false,"rental_uris":{"android":"levelo://app?vid=96dac97a-0c76-4079-a74f-d3b50e0ff04c","ios":"levelo://app?vid=96dac97a-0c76-4079-a74f-d3b50e0ff04c"},"vehicle_type_id":"4","last_reported":1773762834,"current_range_meters":5600,"station_id":"st_cvj6sg6p6f1abm77japg","pricing_plan_id":"cebpf4jnsgd1na2vs0mg"},{"bike_id":"5030da84-6a87-4adc-91ad-713317915e56","system_id":"levelo_inurba_marseille","lat":43.30314,"lon":5.36898,"is_reserved":false,"is_disabled":false,"rental_uris":{"android":"levelo://app?vid=5030da84-6a87-4adc-91ad-713317915e56","ios":"levelo://app?vid=5030da84-6a87-4adc-91ad-713317915e56"},"vehicle_type_id":"4","last_reported":1773762834,"current_range_meters":5600,"station_id":"ce4bgqh2rcd13ifvqc5g","pricing_plan_id":"cebpf4jnsgd1na2vs0mg"},{"bike_id":"b3e3399c-3837-42b8-afac-39674642005e","system_id":"levelo_inurba_marseille","lat":43.29764,"lon":5.4278,"is_reserved":false,"is_disabled":false,"rental_uris":{"android":"levelo://app?vid=b3e3399c-3837-42b8-afac-39674642005e","ios":"levelo://app?vid=b3e3399c-3837-42b8-afac-39674642005e"},"vehicle_type_id":"4","last_reported":1773762834,"current_range_meters":5600,"station_id":"st_d3md5207bmas73dh9klg","pricing_plan_id":"cebpf4jnsgd1na2vs0mg"},{"bike_id":"8b3d057e-ecc2-458e-937c-f30a24bbe529","system_id":"levelo_inurba_marseille","lat":43.30467,"lon":5.37905,"is_reserved":false,"is_disabled":false,"rental_uris":{"android":"levelo://app?vid=8b3d057e-ecc2-458e-937c-f30a24bbe529","ios":"levelo://app?vid=8b3d057e-ecc2-458e-937c-f30a24bbe529"},"vehicle_type_id":"4","last_reported":1773762834,"current_range_meters":5600,"station_id":"","pricing_plan_id":"cebpf4jnsgd1na2vs0mg"},{"bike_id":"2757adcd-8e88-4d87-83cc-a0bdfe5c1ce1","system_id":"levelo_inurba_marseille","lat":43.29915,"lon":5.37473,"is_reserved":false,"is_disabled":false,"rental_uris":{"android":"levelo://app?vid=2757adcd-8e88-4d87-83cc-a0bdfe5c1ce1","ios":"levelo://app?vid=2757adcd-8e88-4d87-83cc-a0bdfe5c1ce1"},"vehicle_type_id":"4","last_reported":1773762834,"current_range_meters":5600,"station_id":"ce4bgjh2rcd13ifvqbg0","pricing_plan_id":"cebpf4jnsgd1na2vs0mg"},{"bike_id":"feaf2e83-6bc7-46d3-b8dc-e52b9fc8cf3e","system_id":"levelo_inurba_marseille","lat":43.22564,"lon":5.4164,"is_reserved":false,"is_disabled":false,"rental_uris":{"android":"levelo://app?vid=feaf2e83-6bc7-46d3-b8dc-e52b9fc8cf3e","ios":"levelo://app?vid=feaf2e83-6bc7-46d3-b8dc-e52b9fc8cf3e"},"vehicle_type_id":"4","last_reported":1773762834,"current_range_meters":6000,"station_id":"st_d2o4gvlbi1j2169b742g","pricing_plan_id":"cebpf4jnsgd1na2vs0mg"},{"bike_id":"0df53ef0-3011-4389-8603-1dd438fc9de0","system_id":"levelo_inurba_marseille","lat":43.28413,"lon":5.34991,"is_reserved":false,"is_disabled":false,"rental_uris":{"android":"levelo://app?vid=0df53ef0-3011-4389-8603-1dd438fc9de0","ios":"levelo://app?vid=0df53ef0-3011-4389-8603-1dd438fc9de0"},"vehicle_type_id":"4","last_reported":1773762834,"current_range_meters":6000,"station_id":"ce4bhbh2rcd13ifvqepg","pricing_plan_id":"cebpf4jnsgd1na2vs0mg"},{"bike_id":"54e1430e-f603-4f12-94e1-97898e39d9f4","system_id":"levelo_inurba_marseille","lat":43.31049,"lon":5.37151,"is_reserved":false,"is_disabled":false,"rental_uris":{"android":"levelo://app?vid=54e1430e-f603-4f12-94e1-97898e39d9f4","ios":"levelo://app?vid=54e1430e-f603-4f12-94e1-97898e39d9f4"},"vehicle_type_id":"4","last_reported":1773762834,"current_range_meters":6000,"station_id":"st_d4kl2rp97mjs73e7tdfg","pricing_plan_id":"cebpf4jnsgd1na2vs0mg"},{"bike_id":"5db93f3a-29ac-4738-a17d-03e1d9de918c","system_id":"levelo_inurba_marseille","lat":43.29614,"lon":5.37719,"is_reserved":false,"is_disabled":false,"rental_uris":{"android":"levelo://app?vid=5db93f3a-29ac-4738-a17d-03e1d9de918c","ios":"levelo://app?vid=5db93f3a-29ac-4738-a17d-03e1d9de918c"},"vehicle_type_id":"4","last_reported":1773762834,"current_range_meters":6000,"station_id":"ce4bgi92rcd13ifvqb90","pricing_plan_id":"cebpf4jnsgd1na2vs0mg"},{"bike_id":"52b8bac1-6b64-4e3f-893f-d87117e6df99","system_id":"levelo_inurba_marseille","lat":43.29849,"lon":5.36265,"is_reserved":false,"is_disabled":false,"rental_uris":{"android":"levelo://app?vid=52b8bac1-6b64-4e3f-893f-d87117e6df99","ios":"levelo://app?vid=52b8bac1-6b64-4e3f-893f-d87117e6df99"},"vehicle_type_id":"4","last_reported":1773762834,"current_range_meters":6000,"station_id":"ce4bgpp2rcd13ifvqc3g","pricing_plan_id":"cebpf4jnsgd1na2vs0mg"},{"bike_id":"24e8d114-1569-4a12-8e0e-ae2e5647460e","system_id":"levelo_inurba_marseille","lat":43.25119,"lon":5.40311,"is_reserved":false,"is_disabled":false,"rental_uris":{"android":"levelo://app?vid=24e8d114-1569-4a12-8e0e-ae2e5647460e","ios":"levelo://app?vid=24e8d114-1569-4a12-8e0e-ae2e5647460e"},"vehicle_type_id":"4","last_reported":1773762834,"current_range_meters":6000,"station_id":"ce4bhlh2rcd13ifvqgig","pricing_plan_id":"cebpf4jnsgd1na2vs0mg"},{"bike_id":"6398fa9e-787f-4ae7-93dd-4dfe987ce902","system_id":"levelo_inurba_marseille","lat":43.28041,"lon":5.3694,"is_reserved":false,"is_disabled":false,"rental_uris":{"android":"levelo://app?vid=6398fa9e-787f-4ae7-93dd-4dfe987ce902","ios":"levelo://app?vid=6398fa9e-787f-4ae7-93dd-4dfe987ce902"},"vehicle_type_id":"4","last_reported":1773762834,"current_range_meters":6000,"station_id":"ce4bha12rcd13ifvqef0","pricing_plan_id":"cebpf4jnsgd1na2vs0mg"},{"bike_id":"4edc1e69-f919-4c2f-a6b8-66257e87a54f","system_id":"levelo_inurba_marseille","lat":43.28474,"lon":5.48392,"is_reserved":false,"is_disabled":false,"rental_uris":{"android":"levelo://app?vid=4edc1e69-f919-4c2f-a6b8-66257e87a54f","ios":"levelo://app?vid=4edc1e69-f919-4c2f-a6b8-66257e87a54f"},"vehicle_type_id":"4","last_reported":1773762834,"current_range_meters":6000,"station_id":"","pricing_plan_id":"cebpf4jnsgd1na2vs0mg"},{"bike_id":"d1f5dd33-9b6a-476c-b78f-96b1a03e7cd7","system_id":"levelo_inurba_marseille","lat":43.28875,"lon":5.35875,"is_reserved":false,"is_disabled":false,"rental_uris":{"android":"levelo://app?vid=d1f5dd33-9b6a-476c-b78f-96b1a03e7cd7","ios":"levelo://app?vid=d1f5dd33-9b6a-476c-b78f-96b1a03e7cd7"},"vehicle_type_id":"4","last_reported":1773762834,"current_range_meters":6000,"station_id":"ce4bhb12rcd13ifvqem0","pricing_plan_id":"cebpf4jnsgd1na2vs0mg"},{"bike_id":"bd576ff0-48f5-43b9-817e-de394a709fde","system_id":"levelo_inurba_marseille","lat":43.2621,"lon":5.37436,"is_reserved":false,"is_disabled":false,"rental_uris":{"android":"levelo://app?vid=bd576ff0-48f5-43b9-817e-de394a709fde","ios":"levelo://app?vid=bd576ff0-48f5-43b9-817e-de394a709fde"},"vehicle_type_id":"4","last_reported":1773762834,"current_range_meters":6400,"station_id":"ce4bhgp2rcd13ifvqfc0","pricing_plan_id":"cebpf4jnsgd1na2vs0mg"},{"bike_id":"78f09825-98cd-4694-8b71-0a34de3f3c94","system_id":"levelo_inurba_marseille","lat":43.21732,"lon":5.34616,"is_reserved":false,"is_disabled":false,"rental_uris":{"android":"levelo://app?vid=78f09825-98cd-4694-8b71-0a34de3f3c94","ios":"levelo://app?vid=78f09825-98cd-4694-8b71-0a34de3f3c94"},"vehicle_type_id":"4","last_reported":1773762834,"current_range_meters":6400,"station_id":"st_cvj6r9ubvosntc0bgbag","pricing_plan_id":"cebpf4jnsgd1na2vs0mg"},{"bike_id":"03812eec-b185-465c-8c48-7984e651c3d0","system_id":"levelo_inurba_marseille","lat":43.33054,"lon":5.39063,"is_reserved":false,"is_disabled":false,"rental_uris":{"android":"levelo://app?vid=03812eec-b185-465c-8c48-7984e651c3d0","ios":"levelo://app?vid=03812eec-b185-465c-8c48-7984e651c3d0"},"vehicle_type_id":"4","last_reported":1773762834,"current_range_meters":6400,"station_id":"ce4bhr92rcd13ifvqhrg","pricing_plan_id":"cebpf4jnsgd1na2vs0mg"},{"bike_id":"c84865df-58a0-485a-b466-02fb26eb4ff0","system_id":"levelo_inurba_marseille","lat":43.23196,"lon":5.35538,"is_reserved":false,"is_disabled":false,"rental_uris":{"android":"levelo://app?vid=c84865df-58a0-485a-b466-02fb26eb4ff0","ios":"levelo://app?vid=c84865df-58a0-485a-b466-02fb26eb4ff0"},"vehicle_type_id":"4","last_reported":1773762834,"current_range_meters":6400,"station_id":"ce4bhu92rcd13ifvqi70","pricing_plan_id":"cebpf4jnsgd1na2vs0mg"},{"bike_id":"9b44eabc-9473-4aeb-8589-934e8f4a2c0e","system_id":"levelo_inurba_marseille","lat":43.2292,"lon":5.35382,"is_reserved":false,"is_disabled":false,"rental_uris":{"android":"levelo://app?vid=9b44eabc-9473-4aeb-8589-934e8f4a2c0e","ios":"levelo://app?vid=9b44eabc-9473-4aeb-8589-934e8f4a2c0e"},"vehicle_type_id":"4","last_reported":1773762834,"current_range_meters":6400,"station_id":"cpo3532slgdg3j2ikp40","pricing_plan_id":"cebpf4jnsgd1na2vs0mg"},{"bike_id":"3dad20a7-e396-4101-adc6-30f4c7f64d56","system_id":"levelo_inurba_marseille","lat":43.25001,"lon":5.38923,"is_reserved":false,"is_disabled":false,"rental_uris":{"android":"levelo://app?vid=3dad20a7-e396-4101-adc6-30f4c7f64d56","ios":"levelo://app?vid=3dad20a7-e396-4101-adc6-30f4c7f64d56"},"vehicle_type_id":"4","last_reported":1773762834,"current_range_meters":6400,"station_id":"ce4bhgp2rcd13ifvqfd0","pricing_plan_id":"cebpf4jnsgd1na2vs0mg"},{"bike_id":"d6f4fcc9-529e-44c9-8ab1-66a46ec0a2d7","system_id":"levelo_inurba_marseille","lat":43.29658,"lon":5.37461,"is_reserved":false,"is_disabled":false,"rental_uris":{"android":"levelo://app?vid=d6f4fcc9-529e-44c9-8ab1-66a46ec0a2d7","ios":"levelo://app?vid=d6f4fcc9-529e-44c9-8ab1-66a46ec0a2d7"},"vehicle_type_id":"4","last_reported":1773762834,"current_range_meters":6400,"station_id":"","pricing_plan_id":"cebpf4jnsgd1na2vs0mg"},{"bike_id":"860c10a5-a1eb-4da4-9a5d-b4321cfb063c","system_id":"levelo_inurba_marseille","lat":43.30416,"lon":5.38862,"is_reserved":false,"is_disabled":false,"rental_uris":{"android":"levelo://app?vid=860c10a5-a1eb-4da4-9a5d-b4321cfb063c","ios":"levelo://app?vid=860c10a5-a1eb-4da4-9a5d-b4321cfb063c"},"vehicle_type_id":"4","last_reported":1773762834,"current_range_meters":6400,"station_id":"ce4bgk12rcd13ifvqbi0","pricing_plan_id":"cebpf4jnsgd1na2vs0mg"},{"bike_id":"9ee2442a-48e1-4c06-9fb8-fa4906718ac6","system_id":"levelo_inurba_marseille","lat":43.28412,"lon":5.34978,"is_reserved":false,"is_disabled":false,"rental_uris":{"android":"levelo://app?vid=9ee2442a-48e1-4c06-9fb8-fa4906718ac6","ios":"levelo://app?vid=9ee2442a-48e1-4c06-9fb8-fa4906718ac6"},"vehicle_type_id":"4","last_reported":1773762834,"current_range_meters":6400,"station_id":"ce4bhbh2rcd13ifvqepg","pricing_plan_id":"cebpf4jnsgd1na2vs0mg"},{"bike_id":"4408c14e-4469-4497-bcd7-09502cc9d2f8","system_id":"levelo_inurba_marseille","lat":43.31331,"lon":5.39693,"is_reserved":false,"is_disabled":false,"rental_uris":{"android":"levelo://app?vid=4408c14e-4469-4497-bcd7-09502cc9d2f8","ios":"levelo://app?vid=4408c14e-4469-4497-bcd7-09502cc9d2f8"},"vehicle_type_id":"4","last_reported":1773762834,"current_range_meters":6400,"station_id":"ce4bgvp2rcd13ifvqcu0","pricing_plan_id":"cebpf4jnsgd1na2vs0mg"},{"bike_id":"7c245f6b-63fb-4c36-8493-afb8fd5288f8","system_id":"levelo_inurba_marseille","lat":43.3114,"lon":5.39153,"is_reserved":false,"is_disabled":false,"rental_uris":{"android":"levelo://app?vid=7c245f6b-63fb-4c36-8493-afb8fd5288f8","ios":"levelo://app?vid=7c245f6b-63fb-4c36-8493-afb8fd5288f8"},"vehicle_type_id":"4","last_reported":1773762834,"current_range_meters":6400,"station_id":"","pricing_plan_id":"cebpf4jnsgd1na2vs0mg"},{"bike_id":"2488d2c0-be1e-43b5-97ef-1c4cb198441b","system_id":"levelo_inurba_marseille","lat":43.28066,"lon":5.35087,"is_reserved":false,"is_disabled":false,"rental_uris":{"android":"levelo://app?vid=2488d2c0-be1e-43b5-97ef-1c4cb198441b","ios":"levelo://app?vid=2488d2c0-be1e-43b5-97ef-1c4cb198441b"},"vehicle_type_id":"4","last_reported":1773762834,"current_range_meters":6400,"station_id":"","pricing_plan_id":"cebpf4jnsgd1na2vs0mg"},{"bike_id":"e4b515b3-5a64-4f24-8a63-3407e3500a15","system_id":"levelo_inurba_marseille","lat":43.2434,"lon":5.40229,"is_reserved":false,"is_disabled":false,"rental_uris":{"android":"levelo://app?vid=e4b515b3-5a64-4f24-8a63-3407e3500a15","ios":"levelo://app?vid=e4b515b3-5a64-4f24-8a63-3407e3500a15"},"vehicle_type_id":"4","last_reported":1773762834,"current_range_meters":6400,"station_id":"","pricing_plan_id":"cebpf4jnsgd1na2vs0mg"},{"bike_id":"b1f20cdc-f918-4861-a50c-dae2ec57f6d4","system_id":"levelo_inurba_marseille","lat":43.30539,"lon":5.38414,"is_reserved":false,"is_disabled":false,"rental_uris":{"android":"levelo://app?vid=b1f20cdc-f918-4861-a50c-dae2ec57f6d4","ios":"levelo://app?vid=b1f20cdc-f918-4861-a50c-dae2ec57f6d4"},"vehicle_type_id":"4","last_reported":1773762834,"current_range_meters":6400,"station_id":"ce4bgg92rcd13ifvqb30","pricing_plan_id":"cebpf4jnsgd1na2vs0mg"},{"bike_id":"3df75077-2666-4436-8a3f-a69331f9ce94","system_id":"levelo_inurba_marseille","lat":43.24937,"lon":5.40471,"is_reserved":false,"is_disabled":false,"rental_uris":{"android":"levelo://app?vid=3df75077-2666-4436-8a3f-a69331f9ce94","ios":"levelo://app?vid=3df75077-2666-4436-8a3f-a69331f9ce94"},"vehicle_type_id":"4","last_reported":1773762834,"current_range_meters":6400,"station_id":"st_d2ngiaodas8pm72gd1h0","pricing_plan_id":"cebpf4jnsgd1na2vs0mg"},{"bike_id":"beec64b0-ea2d-4553-9bf4-a1103d73c0ea","system_id":"levelo_inurba_marseille","lat":43.29734,"lon":5.37664,"is_reserved":false,"is_disabled":false,"rental_uris":{"android":"levelo://app?vid=beec64b0-ea2d-4553-9bf4-a1103d73c0ea","ios":"levelo://app?vid=beec64b0-ea2d-4553-9bf4-a1103d73c0ea"},"vehicle_type_id":"4","last_reported":1773762834,"current_range_meters":6800,"station_id":"ce4bgkh2rcd13ifvqbl0","pricing_plan_id":"cebpf4jnsgd1na2vs0mg"},{"bike_id":"b2b2b94c-bb0b-4bc0-a420-2cfa82031f28","system_id":"levelo_inurba_marseille","lat":43.26556,"lon":5.37291,"is_reserved":false,"is_disabled":false,"rental_uris":{"android":"levelo://app?vid=b2b2b94c-bb0b-4bc0-a420-2cfa82031f28","ios":"levelo://app?vid=b2b2b94c-bb0b-4bc0-a420-2cfa82031f28"},"vehicle_type_id":"4","last_reported":1773762834,"current_range_meters":6800,"station_id":"ce4bhg12rcd13ifvqf70","pricing_plan_id":"cebpf4jnsgd1na2vs0mg"},{"bike_id":"57f59ea7-9661-484b-ab62-8930e39b76a3","system_id":"levelo_inurba_marseille","lat":43.23797,"lon":5.36618,"is_reserved":false,"is_disabled":false,"rental_uris":{"android":"levelo://app?vid=57f59ea7-9661-484b-ab62-8930e39b76a3","ios":"levelo://app?vid=57f59ea7-9661-484b-ab62-8930e39b76a3"},"vehicle_type_id":"4","last_reported":1773762834,"current_range_meters":6800,"station_id":"st_d3nk18o9ro0c73en2l3g","pricing_plan_id":"cebpf4jnsgd1na2vs0mg"},{"bike_id":"4eeecf6d-6108-42a0-b77f-fc0c0b55b73c","system_id":"levelo_inurba_marseille","lat":43.29912,"lon":5.37457,"is_reserved":false,"is_disabled":true,"rental_uris":{"android":"levelo://app?vid=4eeecf6d-6108-42a0-b77f-fc0c0b55b73c","ios":"levelo://app?vid=4eeecf6d-6108-42a0-b77f-fc0c0b55b73c"},"vehicle_type_id":"4","last_reported":1773762834,"current_range_meters":6800,"station_id":"ce4bgjh2rcd13ifvqbg0","pricing_plan_id":"cebpf4jnsgd1na2vs0mg"},{"bike_id":"1d851264-6ba3-48c2-86f6-b84e8d5a0c62","system_id":"levelo_inurba_marseille","lat":43.29188,"lon":5.35765,"is_reserved":false,"is_disabled":true,"rental_uris":{"android":"levelo://app?vid=1d851264-6ba3-48c2-86f6-b84e8d5a0c62","ios":"levelo://app?vid=1d851264-6ba3-48c2-86f6-b84e8d5a0c62"},"vehicle_type_id":"4","last_reported":1773762834,"current_range_meters":6800,"station_id":"ce4bhb12rcd13ifvqel0","pricing_plan_id":"cebpf4jnsgd1na2vs0mg"},{"bike_id":"240b13a6-f1c9-4574-af93-858d7ebc9070","system_id":"levelo_inurba_marseille","lat":43.28359,"lon":5.38096,"is_reserved":false,"is_disabled":false,"rental_uris":{"android":"levelo://app?vid=240b13a6-f1c9-4574-af93-858d7ebc9070","ios":"levelo://app?vid=240b13a6-f1c9-4574-af93-858d7ebc9070"},"vehicle_type_id":"4","last_reported":1773762834,"current_range_meters":6800,"station_id":"ce4bh412rcd13ifvqdr0","pricing_plan_id":"cebpf4jnsgd1na2vs0mg"},{"bike_id":"b21e3be4-c7ed-41ef-8b12-6d82d73722e2","system_id":"levelo_inurba_marseille","lat":43.24803,"lon":5.37471,"is_reserved":false,"is_disabled":false,"rental_uris":{"android":"levelo://app?vid=b21e3be4-c7ed-41ef-8b12-6d82d73722e2","ios":"levelo://app?vid=b21e3be4-c7ed-41ef-8b12-6d82d73722e2"},"vehicle_type_id":"4","last_reported":1773762834,"current_range_meters":6800,"station_id":"ce4bhgh2rcd13ifvqfb0","pricing_plan_id":"cebpf4jnsgd1na2vs0mg"},{"bike_id":"6e535d56-b757-48b8-83d3-dac27066e6ca","system_id":"levelo_inurba_marseille","lat":43.33546,"lon":5.37472,"is_reserved":false,"is_disabled":false,"rental_uris":{"android":"levelo://app?vid=6e535d56-b757-48b8-83d3-dac27066e6ca","ios":"levelo://app?vid=6e535d56-b757-48b8-83d3-dac27066e6ca"},"vehicle_type_id":"4","last_reported":1773762834,"current_range_meters":6800,"station_id":"st_d46tts09ee8s73dlu43g","pricing_plan_id":"cebpf4jnsgd1na2vs0mg"},{"bike_id":"ff280f4f-dc74-4b71-810c-352f7d333252","system_id":"levelo_inurba_marseille","lat":43.2827,"lon":5.35048,"is_reserved":false,"is_disabled":false,"rental_uris":{"android":"levelo://app?vid=ff280f4f-dc74-4b71-810c-352f7d333252","ios":"levelo://app?vid=ff280f4f-dc74-4b71-810c-352f7d333252"},"vehicle_type_id":"4","last_reported":1773762834,"current_range_meters":6800,"station_id":"ce4bhbp2rcd13ifvqerg","pricing_plan_id":"cebpf4jnsgd1na2vs0mg"},{"bike_id":"6f83eb31-b48e-41cc-86f8-dc0cead3d767","system_id":"levelo_inurba_marseille","lat":43.21187,"lon":5.3507,"is_reserved":false,"is_disabled":false,"rental_uris":{"android":"levelo://app?vid=6f83eb31-b48e-41cc-86f8-dc0cead3d767","ios":"levelo://app?vid=6f83eb31-b48e-41cc-86f8-dc0cead3d767"},"vehicle_type_id":"4","last_reported":1773762834,"current_range_meters":6800,"station_id":"st_cvj6sg6p6f1abm77japg","pricing_plan_id":"cebpf4jnsgd1na2vs0mg"},{"bike_id":"a650f10d-9ab2-42e1-a1ec-b23d66310508","system_id":"levelo_inurba_marseille","lat":43.27389,"lon":5.42412,"is_reserved":false,"is_disabled":true,"rental_uris":{"android":"levelo://app?vid=a650f10d-9ab2-42e1-a1ec-b23d66310508","ios":"levelo://app?vid=a650f10d-9ab2-42e1-a1ec-b23d66310508"},"vehicle_type_id":"4","last_reported":1773762834,"current_range_meters":6800,"station_id":"","pricing_plan_id":"cebpf4jnsgd1na2vs0mg"},{"bike_id":"7fd31406-b8ff-42ce-b9d4-95a8e9e63412","system_id":"levelo_inurba_marseille","lat":43.26219,"lon":5.37449,"is_reserved":false,"is_disabled":false,"rental_uris":{"android":"levelo://app?vid=7fd31406-b8ff-42ce-b9d4-95a8e9e63412","ios":"levelo://app?vid=7fd31406-b8ff-42ce-b9d4-95a8e9e63412"},"vehicle_type_id":"4","last_reported":1773762834,"current_range_meters":6800,"station_id":"ce4bhgp2rcd13ifvqfc0","pricing_plan_id":"cebpf4jnsgd1na2vs0mg"},{"bike_id":"e5dea678-ff52-4a95-82ff-c51e02172a3d","system_id":"levelo_inurba_marseille","lat":43.26226,"lon":5.40449,"is_reserved":false,"is_disabled":false,"rental_uris":{"android":"levelo://app?vid=e5dea678-ff52-4a95-82ff-c51e02172a3d","ios":"levelo://app?vid=e5dea678-ff52-4a95-82ff-c51e02172a3d"},"vehicle_type_id":"4","last_reported":1773762834,"current_range_meters":6800,"station_id":"ce4bhmh2rcd13ifvqgmg","pricing_plan_id":"cebpf4jnsgd1na2vs0mg"},{"bike_id":"9487dbce-af91-48de-80da-c3f5ba91a472","system_id":"levelo_inurba_marseille","lat":43.26222,"lon":5.37461,"is_reserved":false,"is_disabled":false,"rental_uris":{"android":"levelo://app?vid=9487dbce-af91-48de-80da-c3f5ba91a472","ios":"levelo://app?vid=9487dbce-af91-48de-80da-c3f5ba91a472"},"vehicle_type_id":"4","last_reported":1773762834,"current_range_meters":6800,"station_id":"ce4bhgp2rcd13ifvqfc0","pricing_plan_id":"cebpf4jnsgd1na2vs0mg"},{"bike_id":"21e03a3c-da47-4dbb-b2ef-298fdfd884c3","system_id":"levelo_inurba_marseille","lat":43.31236,"lon":5.38443,"is_reserved":false,"is_disabled":false,"rental_uris":{"android":"levelo://app?vid=21e03a3c-da47-4dbb-b2ef-298fdfd884c3","ios":"levelo://app?vid=21e03a3c-da47-4dbb-b2ef-298fdfd884c3"},"vehicle_type_id":"4","last_reported":1773762834,"current_range_meters":6800,"station_id":"","pricing_plan_id":"cebpf4jnsgd1na2vs0mg"},{"bike_id":"b64d9a91-3edc-445f-96b6-cb09bdd66163","system_id":"levelo_inurba_marseille","lat":43.27381,"lon":5.36251,"is_reserved":false,"is_disabled":false,"rental_uris":{"android":"levelo://app?vid=b64d9a91-3edc-445f-96b6-cb09bdd66163","ios":"levelo://app?vid=b64d9a91-3edc-445f-96b6-cb09bdd66163"},"vehicle_type_id":"4","last_reported":1773762834,"current_range_meters":6800,"station_id":"ce4bhbh2rcd13ifvqeo0","pricing_plan_id":"cebpf4jnsgd1na2vs0mg"},{"bike_id":"36bcefea-1744-478b-a4f4-a282d99e8251","system_id":"levelo_inurba_marseille","lat":43.24542,"lon":5.39513,"is_reserved":false,"is_disabled":true,"rental_uris":{"android":"levelo://app?vid=36bcefea-1744-478b-a4f4-a282d99e8251","ios":"levelo://app?vid=36bcefea-1744-478b-a4f4-a282d99e8251"},"vehicle_type_id":"4","last_reported":1773762834,"current_range_meters":6800,"station_id":"ce4bhlp2rcd13ifvqgjg","pricing_plan_id":"cebpf4jnsgd1na2vs0mg"},{"bike_id":"aa0ecd1b-8a8f-406f-94fc-b7d404cc8c05","system_id":"levelo_inurba_marseille","lat":43.28456,"lon":5.35882,"is_reserved":false,"is_disabled":false,"rental_uris":{"android":"levelo://app?vid=aa0ecd1b-8a8f-406f-94fc-b7d404cc8c05","ios":"levelo://app?vid=aa0ecd1b-8a8f-406f-94fc-b7d404cc8c05"},"vehicle_type_id":"4","last_reported":1773762834,"current_range_meters":6800,"station_id":"ce4bhah2rcd13ifvqei0","pricing_plan_id":"cebpf4jnsgd1na2vs0mg"},{"bike_id":"70fdc065-93d6-4dd2-977b-71ec2a296371","system_id":"levelo_inurba_marseille","lat":43.2174,"lon":5.34599,"is_reserved":false,"is_disabled":false,"rental_uris":{"android":"levelo://app?vid=70fdc065-93d6-4dd2-977b-71ec2a296371","ios":"levelo://app?vid=70fdc065-93d6-4dd2-977b-71ec2a296371"},"vehicle_type_id":"4","last_reported":1773762834,"current_range_meters":7200,"station_id":"st_cvj6r9ubvosntc0bgbag","pricing_plan_id":"cebpf4jnsgd1na2vs0mg"},{"bike_id":"f6c860f4-9c2e-4a13-b509-50fb1709859b","system_id":"levelo_inurba_marseille","lat":43.21195,"lon":5.35068,"is_reserved":false,"is_disabled":false,"rental_uris":{"android":"levelo://app?vid=f6c860f4-9c2e-4a13-b509-50fb1709859b","ios":"levelo://app?vid=f6c860f4-9c2e-4a13-b509-50fb1709859b"},"vehicle_type_id":"4","last_reported":1773762834,"current_range_meters":7200,"station_id":"st_cvj6sg6p6f1abm77japg","pricing_plan_id":"cebpf4jnsgd1na2vs0mg"},{"bike_id":"1377dd7d-d4b0-49e2-a449-817a4208e248","system_id":"levelo_inurba_marseille","lat":43.26565,"lon":5.37296,"is_reserved":false,"is_disabled":false,"rental_uris":{"android":"levelo://app?vid=1377dd7d-d4b0-49e2-a449-817a4208e248","ios":"levelo://app?vid=1377dd7d-d4b0-49e2-a449-817a4208e248"},"vehicle_type_id":"4","last_reported":1773762834,"current_range_meters":7200,"station_id":"ce4bhg12rcd13ifvqf70","pricing_plan_id":"cebpf4jnsgd1na2vs0mg"},{"bike_id":"99316467-573f-42ea-8f21-4388606e7a94","system_id":"levelo_inurba_marseille","lat":43.29028,"lon":5.38126,"is_reserved":false,"is_disabled":false,"rental_uris":{"android":"levelo://app?vid=99316467-573f-42ea-8f21-4388606e7a94","ios":"levelo://app?vid=99316467-573f-42ea-8f21-4388606e7a94"},"vehicle_type_id":"4","last_reported":1773762834,"current_range_meters":7200,"station_id":"ce4bh4p2rcd13ifvqe1g","pricing_plan_id":"cebpf4jnsgd1na2vs0mg"},{"bike_id":"eb75c925-f92f-4dbf-a1f9-053bbc53f057","system_id":"levelo_inurba_marseille","lat":43.24165,"lon":5.39721,"is_reserved":false,"is_disabled":false,"rental_uris":{"android":"levelo://app?vid=eb75c925-f92f-4dbf-a1f9-053bbc53f057","ios":"levelo://app?vid=eb75c925-f92f-4dbf-a1f9-053bbc53f057"},"vehicle_type_id":"4","last_reported":1773762834,"current_range_meters":7200,"station_id":"ce4bhn12rcd13ifvqgpg","pricing_plan_id":"cebpf4jnsgd1na2vs0mg"},{"bike_id":"b5b8b144-cfaf-4287-9933-5469d18ff1ca","system_id":"levelo_inurba_marseille","lat":43.28709,"lon":5.37929,"is_reserved":false,"is_disabled":true,"rental_uris":{"android":"levelo://app?vid=b5b8b144-cfaf-4287-9933-5469d18ff1ca","ios":"levelo://app?vid=b5b8b144-cfaf-4287-9933-5469d18ff1ca"},"vehicle_type_id":"4","last_reported":1773762834,"current_range_meters":7200,"station_id":"ce4bh9p2rcd13ifvqec0","pricing_plan_id":"cebpf4jnsgd1na2vs0mg"},{"bike_id":"636bd2fe-b1d0-4947-a49b-be93611aab94","system_id":"levelo_inurba_marseille","lat":43.23959,"lon":5.36636,"is_reserved":false,"is_disabled":false,"rental_uris":{"android":"levelo://app?vid=636bd2fe-b1d0-4947-a49b-be93611aab94","ios":"levelo://app?vid=636bd2fe-b1d0-4947-a49b-be93611aab94"},"vehicle_type_id":"4","last_reported":1773762834,"current_range_meters":7200,"station_id":"ce4bhi12rcd13ifvqfp0","pricing_plan_id":"cebpf4jnsgd1na2vs0mg"},{"bike_id":"d0806910-6080-49c6-9f25-f521332895f7","system_id":"levelo_inurba_marseille","lat":43.26673,"lon":5.38246,"is_reserved":false,"is_disabled":false,"rental_uris":{"android":"levelo://app?vid=d0806910-6080-49c6-9f25-f521332895f7","ios":"levelo://app?vid=d0806910-6080-49c6-9f25-f521332895f7"},"vehicle_type_id":"4","last_reported":1773762834,"current_range_meters":7200,"station_id":"ce4bhg92rcd13ifvqf90","pricing_plan_id":"cebpf4jnsgd1na2vs0mg"},{"bike_id":"53336338-5141-44ec-bb59-6df2460b79a8","system_id":"levelo_inurba_marseille","lat":43.30205,"lon":5.39456,"is_reserved":false,"is_disabled":true,"rental_uris":{"android":"levelo://app?vid=53336338-5141-44ec-bb59-6df2460b79a8","ios":"levelo://app?vid=53336338-5141-44ec-bb59-6df2460b79a8"},"vehicle_type_id":"4","last_reported":1773762834,"current_range_meters":7200,"station_id":"ce4bh0p2rcd13ifvqd70","pricing_plan_id":"cebpf4jnsgd1na2vs0mg"},{"bike_id":"6457a6e1-3dac-4942-8606-65a9c06084a1","system_id":"levelo_inurba_marseille","lat":43.296263,"lon":5.377282,"is_reserved":false,"is_disabled":false,"rental_uris":{"android":"levelo://app?vid=6457a6e1-3dac-4942-8606-65a9c06084a1","ios":"levelo://app?vid=6457a6e1-3dac-4942-8606-65a9c06084a1"},"vehicle_type_id":"4","last_reported":1773762834,"current_range_meters":7200,"station_id":"ce4bgi92rcd13ifvqb90","pricing_plan_id":"cebpf4jnsgd1na2vs0mg"},{"bike_id":"99ba46b4-4c6f-44d5-9c27-ad82efd84c9b","system_id":"levelo_inurba_marseille","lat":43.21194,"lon":5.35072,"is_reserved":false,"is_disabled":false,"rental_uris":{"android":"levelo://app?vid=99ba46b4-4c6f-44d5-9c27-ad82efd84c9b","ios":"levelo://app?vid=99ba46b4-4c6f-44d5-9c27-ad82efd84c9b"},"vehicle_type_id":"4","last_reported":1773762834,"current_range_meters":7200,"station_id":"st_cvj6sg6p6f1abm77japg","pricing_plan_id":"cebpf4jnsgd1na2vs0mg"},{"bike_id":"f81596c7-6246-49d6-94ad-16e8030b80fa","system_id":"levelo_inurba_marseille","lat":43.28411,"lon":5.34983,"is_reserved":false,"is_disabled":false,"rental_uris":{"android":"levelo://app?vid=f81596c7-6246-49d6-94ad-16e8030b80fa","ios":"levelo://app?vid=f81596c7-6246-49d6-94ad-16e8030b80fa"},"vehicle_type_id":"4","last_reported":1773762834,"current_range_meters":7200,"station_id":"ce4bhbh2rcd13ifvqepg","pricing_plan_id":"cebpf4jnsgd1na2vs0mg"},{"bike_id":"1f5bfe55-41d9-43f3-a84f-b130fbed01d6","system_id":"levelo_inurba_marseille","lat":43.21178,"lon":5.35098,"is_reserved":false,"is_disabled":false,"rental_uris":{"android":"levelo://app?vid=1f5bfe55-41d9-43f3-a84f-b130fbed01d6","ios":"levelo://app?vid=1f5bfe55-41d9-43f3-a84f-b130fbed01d6"},"vehicle_type_id":"4","last_reported":1773762834,"current_range_meters":7200,"station_id":"st_cvj6sg6p6f1abm77japg","pricing_plan_id":"cebpf4jnsgd1na2vs0mg"},{"bike_id":"46d9aadd-9fe5-4109-b846-40ed97bc9e6a","system_id":"levelo_inurba_marseille","lat":43.320513,"lon":5.381686,"is_reserved":false,"is_disabled":false,"rental_uris":{"android":"levelo://app?vid=46d9aadd-9fe5-4109-b846-40ed97bc9e6a","ios":"levelo://app?vid=46d9aadd-9fe5-4109-b846-40ed97bc9e6a"},"vehicle_type_id":"4","last_reported":1773762834,"current_range_meters":7200,"station_id":"ce4bhr12rcd13ifvqhpg","pricing_plan_id":"cebpf4jnsgd1na2vs0mg"},{"bike_id":"ab2125f0-f477-425b-9c9a-e4231f7f002b","system_id":"levelo_inurba_marseille","lat":43.2174,"lon":5.34607,"is_reserved":false,"is_disabled":true,"rental_uris":{"android":"levelo://app?vid=ab2125f0-f477-425b-9c9a-e4231f7f002b","ios":"levelo://app?vid=ab2125f0-f477-425b-9c9a-e4231f7f002b"},"vehicle_type_id":"4","last_reported":1773762834,"current_range_meters":7200,"station_id":"","pricing_plan_id":"cebpf4jnsgd1na2vs0mg"},{"bike_id":"a5f268db-b710-48d5-94fb-004d7f73b0cd","system_id":"levelo_inurba_marseille","lat":43.31499,"lon":5.39829,"is_reserved":false,"is_disabled":false,"rental_uris":{"android":"levelo://app?vid=a5f268db-b710-48d5-94fb-004d7f73b0cd","ios":"levelo://app?vid=a5f268db-b710-48d5-94fb-004d7f73b0cd"},"vehicle_type_id":"4","last_reported":1773762834,"current_range_meters":7200,"station_id":"ce4bgvp2rcd13ifvqcu0","pricing_plan_id":"cebpf4jnsgd1na2vs0mg"},{"bike_id":"6c7da26a-6e3c-4915-81a4-435886bc144f","system_id":"levelo_inurba_marseille","lat":43.23188,"lon":5.35563,"is_reserved":false,"is_disabled":false,"rental_uris":{"android":"levelo://app?vid=6c7da26a-6e3c-4915-81a4-435886bc144f","ios":"levelo://app?vid=6c7da26a-6e3c-4915-81a4-435886bc144f"},"vehicle_type_id":"4","last_reported":1773762834,"current_range_meters":7200,"station_id":"ce4bhu92rcd13ifvqi70","pricing_plan_id":"cebpf4jnsgd1na2vs0mg"},{"bike_id":"adb6a0c5-52e6-4d17-80d6-12e0b13e8657","system_id":"levelo_inurba_marseille","lat":43.27057,"lon":5.40262,"is_reserved":false,"is_disabled":false,"rental_uris":{"android":"levelo://app?vid=adb6a0c5-52e6-4d17-80d6-12e0b13e8657","ios":"levelo://app?vid=adb6a0c5-52e6-4d17-80d6-12e0b13e8657"},"vehicle_type_id":"4","last_reported":1773762834,"current_range_meters":7200,"station_id":"ce4bhk92rcd13ifvqgc0","pricing_plan_id":"cebpf4jnsgd1na2vs0mg"},{"bike_id":"7cd1b345-2986-400c-9c9d-da1d4e35fbb7","system_id":"levelo_inurba_marseille","lat":43.29001,"lon":5.35605,"is_reserved":false,"is_disabled":false,"rental_uris":{"android":"levelo://app?vid=7cd1b345-2986-400c-9c9d-da1d4e35fbb7","ios":"levelo://app?vid=7cd1b345-2986-400c-9c9d-da1d4e35fbb7"},"vehicle_type_id":"4","last_reported":1773762834,"current_range_meters":7200,"station_id":"ce4bhb92rcd13ifvqen0","pricing_plan_id":"cebpf4jnsgd1na2vs0mg"},{"bike_id":"e7c39f67-cc78-4ec6-a999-091b484a3da3","system_id":"levelo_inurba_marseille","lat":43.255,"lon":5.37649,"is_reserved":false,"is_disabled":false,"rental_uris":{"android":"levelo://app?vid=e7c39f67-cc78-4ec6-a999-091b484a3da3","ios":"levelo://app?vid=e7c39f67-cc78-4ec6-a999-091b484a3da3"},"vehicle_type_id":"4","last_reported":1773762834,"current_range_meters":7200,"station_id":"ce4bhh12rcd13ifvqff0","pricing_plan_id":"cebpf4jnsgd1na2vs0mg"},{"bike_id":"ac966444-1dc9-4dc0-b112-40fc51af74e4","system_id":"levelo_inurba_marseille","lat":43.29719,"lon":5.36609,"is_reserved":false,"is_disabled":false,"rental_uris":{"android":"levelo://app?vid=ac966444-1dc9-4dc0-b112-40fc51af74e4","ios":"levelo://app?vid=ac966444-1dc9-4dc0-b112-40fc51af74e4"},"vehicle_type_id":"4","last_reported":1773762834,"current_range_meters":8000,"station_id":"ce4bgn12rcd13ifvqbt0","pricing_plan_id":"cebpf4jnsgd1na2vs0mg"},{"bike_id":"d1cb03be-7819-49ff-8212-0709e4cb7579","system_id":"levelo_inurba_marseille","lat":43.28278,"lon":5.35076,"is_reserved":false,"is_disabled":false,"rental_uris":{"android":"levelo://app?vid=d1cb03be-7819-49ff-8212-0709e4cb7579","ios":"levelo://app?vid=d1cb03be-7819-49ff-8212-0709e4cb7579"},"vehicle_type_id":"4","last_reported":1773762834,"current_range_meters":8000,"station_id":"ce4bhbp2rcd13ifvqerg","pricing_plan_id":"cebpf4jnsgd1na2vs0mg"},{"bike_id":"86f3c3e6-1877-45e4-95fe-47aa36990f39","system_id":"levelo_inurba_marseille","lat":43.31052,"lon":5.37167,"is_reserved":false,"is_disabled":false,"rental_uris":{"android":"levelo://app?vid=86f3c3e6-1877-45e4-95fe-47aa36990f39","ios":"levelo://app?vid=86f3c3e6-1877-45e4-95fe-47aa36990f39"},"vehicle_type_id":"4","last_reported":1773762834,"current_range_meters":8000,"station_id":"st_d4kl2rp97mjs73e7tdfg","pricing_plan_id":"cebpf4jnsgd1na2vs0mg"},{"bike_id":"7a73b128-6eb2-47bb-8ea6-432d8e929d53","system_id":"levelo_inurba_marseille","lat":43.29969,"lon":5.41315,"is_reserved":false,"is_disabled":false,"rental_uris":{"android":"levelo://app?vid=7a73b128-6eb2-47bb-8ea6-432d8e929d53","ios":"levelo://app?vid=7a73b128-6eb2-47bb-8ea6-432d8e929d53"},"vehicle_type_id":"4","last_reported":1773762834,"current_range_meters":8000,"station_id":"ce4bhp12rcd13ifvqh9g","pricing_plan_id":"cebpf4jnsgd1na2vs0mg"},{"bike_id":"a8dc046f-990c-49a1-9464-672c405d7beb","system_id":"levelo_inurba_marseille","lat":43.30575,"lon":5.36542,"is_reserved":false,"is_disabled":false,"rental_uris":{"android":"levelo://app?vid=a8dc046f-990c-49a1-9464-672c405d7beb","ios":"levelo://app?vid=a8dc046f-990c-49a1-9464-672c405d7beb"},"vehicle_type_id":"4","last_reported":1773762834,"current_range_meters":8000,"station_id":"ce4bgs12rcd13ifvqcag","pricing_plan_id":"cebpf4jnsgd1na2vs0mg"},{"bike_id":"458f604b-e062-47bf-ac14-a001a31d10d8","system_id":"levelo_inurba_marseille","lat":43.28472,"lon":5.48383,"is_reserved":false,"is_disabled":false,"rental_uris":{"android":"levelo://app?vid=458f604b-e062-47bf-ac14-a001a31d10d8","ios":"levelo://app?vid=458f604b-e062-47bf-ac14-a001a31d10d8"},"vehicle_type_id":"4","last_reported":1773762834,"current_range_meters":8000,"station_id":"","pricing_plan_id":"cebpf4jnsgd1na2vs0mg"},{"bike_id":"ea68c627-d87d-4361-a9d1-5e99c1d299e5","system_id":"levelo_inurba_marseille","lat":43.23063,"lon":5.35483,"is_reserved":false,"is_disabled":false,"rental_uris":{"android":"levelo://app?vid=ea68c627-d87d-4361-a9d1-5e99c1d299e5","ios":"levelo://app?vid=ea68c627-d87d-4361-a9d1-5e99c1d299e5"},"vehicle_type_id":"4","last_reported":1773762834,"current_range_meters":8000,"station_id":"cpo3342slgdg3j2ifvpg","pricing_plan_id":"cebpf4jnsgd1na2vs0mg"},{"bike_id":"a198b19a-147f-4fb3-822c-608a1d587cb8","system_id":"levelo_inurba_marseille","lat":43.21753,"lon":5.34606,"is_reserved":false,"is_disabled":false,"rental_uris":{"android":"levelo://app?vid=a198b19a-147f-4fb3-822c-608a1d587cb8","ios":"levelo://app?vid=a198b19a-147f-4fb3-822c-608a1d587cb8"},"vehicle_type_id":"4","last_reported":1773762834,"current_range_meters":8000,"station_id":"st_cvj6r9ubvosntc0bgbag","pricing_plan_id":"cebpf4jnsgd1na2vs0mg"},{"bike_id":"0ff84610-39e6-4ff5-bd32-cc18b7930702","system_id":"levelo_inurba_marseille","lat":43.28272,"lon":5.35068,"is_reserved":false,"is_disabled":false,"rental_uris":{"android":"levelo://app?vid=0ff84610-39e6-4ff5-bd32-cc18b7930702","ios":"levelo://app?vid=0ff84610-39e6-4ff5-bd32-cc18b7930702"},"vehicle_type_id":"4","last_reported":1773762834,"current_range_meters":8000,"station_id":"ce4bhbp2rcd13ifvqerg","pricing_plan_id":"cebpf4jnsgd1na2vs0mg"},{"bike_id":"a172fb4c-0d89-4238-b899-c9d8e15b8540","system_id":"levelo_inurba_marseille","lat":43.21737,"lon":5.34606,"is_reserved":false,"is_disabled":false,"rental_uris":{"android":"levelo://app?vid=a172fb4c-0d89-4238-b899-c9d8e15b8540","ios":"levelo://app?vid=a172fb4c-0d89-4238-b899-c9d8e15b8540"},"vehicle_type_id":"4","last_reported":1773762834,"current_range_meters":8000,"station_id":"st_cvj6r9ubvosntc0bgbag","pricing_plan_id":"cebpf4jnsgd1na2vs0mg"},{"bike_id":"6dcf64ca-88e3-4dec-bf7c-fa3b38653a60","system_id":"levelo_inurba_marseille","lat":43.23154,"lon":5.43705,"is_reserved":false,"is_disabled":false,"rental_uris":{"android":"levelo://app?vid=6dcf64ca-88e3-4dec-bf7c-fa3b38653a60","ios":"levelo://app?vid=6dcf64ca-88e3-4dec-bf7c-fa3b38653a60"},"vehicle_type_id":"4","last_reported":1773762834,"current_range_meters":8000,"station_id":"ce4bhmp2rcd13ifvqgog","pricing_plan_id":"cebpf4jnsgd1na2vs0mg"},{"bike_id":"9f6ff7d6-66a3-4b0f-bb97-dd2c5a1894a8","system_id":"levelo_inurba_marseille","lat":43.26682,"lon":5.38257,"is_reserved":false,"is_disabled":false,"rental_uris":{"android":"levelo://app?vid=9f6ff7d6-66a3-4b0f-bb97-dd2c5a1894a8","ios":"levelo://app?vid=9f6ff7d6-66a3-4b0f-bb97-dd2c5a1894a8"},"vehicle_type_id":"4","last_reported":1773762834,"current_range_meters":8000,"station_id":"ce4bhg92rcd13ifvqf90","pricing_plan_id":"cebpf4jnsgd1na2vs0mg"},{"bike_id":"5c905397-02bb-4489-bc2a-606670e3b8c3","system_id":"levelo_inurba_marseille","lat":43.27174,"lon":5.40999,"is_reserved":false,"is_disabled":false,"rental_uris":{"android":"levelo://app?vid=5c905397-02bb-4489-bc2a-606670e3b8c3","ios":"levelo://app?vid=5c905397-02bb-4489-bc2a-606670e3b8c3"},"vehicle_type_id":"4","last_reported":1773762834,"current_range_meters":8000,"station_id":"ce4bhl12rcd13ifvqgf0","pricing_plan_id":"cebpf4jnsgd1na2vs0mg"},{"bike_id":"7f0cca30-4e8f-4a95-a56f-75a6db6e65cf","system_id":"levelo_inurba_marseille","lat":43.29284,"lon":5.36832,"is_reserved":false,"is_disabled":false,"rental_uris":{"android":"levelo://app?vid=7f0cca30-4e8f-4a95-a56f-75a6db6e65cf","ios":"levelo://app?vid=7f0cca30-4e8f-4a95-a56f-75a6db6e65cf"},"vehicle_type_id":"4","last_reported":1773762834,"current_range_meters":8000,"station_id":"ce4bhbp2rcd13ifvqesg","pricing_plan_id":"cebpf4jnsgd1na2vs0mg"},{"bike_id":"68c3d21a-78c0-4a58-8dfc-436c877b524c","system_id":"levelo_inurba_marseille","lat":43.24666,"lon":5.38151,"is_reserved":false,"is_disabled":false,"rental_uris":{"android":"levelo://app?vid=68c3d21a-78c0-4a58-8dfc-436c877b524c","ios":"levelo://app?vid=68c3d21a-78c0-4a58-8dfc-436c877b524c"},"vehicle_type_id":"4","last_reported":1773762834,"current_range_meters":8000,"station_id":"ce4bhih2rcd13ifvqfr0","pricing_plan_id":"cebpf4jnsgd1na2vs0mg"},{"bike_id":"ff47d2eb-adc7-4bf9-935f-0a6af0342e62","system_id":"levelo_inurba_marseille","lat":43.25858,"lon":5.39897,"is_reserved":false,"is_disabled":false,"rental_uris":{"android":"levelo://app?vid=ff47d2eb-adc7-4bf9-935f-0a6af0342e62","ios":"levelo://app?vid=ff47d2eb-adc7-4bf9-935f-0a6af0342e62"},"vehicle_type_id":"4","last_reported":1773762834,"current_range_meters":8000,"station_id":"ce4bhl92rcd13ifvqghg","pricing_plan_id":"cebpf4jnsgd1na2vs0mg"},{"bike_id":"d030e03f-081d-4bd2-8917-10cee58512e3","system_id":"levelo_inurba_marseille","lat":43.28614,"lon":5.35098,"is_reserved":false,"is_disabled":false,"rental_uris":{"android":"levelo://app?vid=d030e03f-081d-4bd2-8917-10cee58512e3","ios":"levelo://app?vid=d030e03f-081d-4bd2-8917-10cee58512e3"},"vehicle_type_id":"4","last_reported":1773762834,"current_range_meters":8000,"station_id":"ce4bhch2rcd13ifvqeug","pricing_plan_id":"cebpf4jnsgd1na2vs0mg"},{"bike_id":"8a4a129c-900f-4987-8e43-faa3977d59f0","system_id":"levelo_inurba_marseille","lat":43.2657,"lon":5.37303,"is_reserved":false,"is_disabled":false,"rental_uris":{"android":"levelo://app?vid=8a4a129c-900f-4987-8e43-faa3977d59f0","ios":"levelo://app?vid=8a4a129c-900f-4987-8e43-faa3977d59f0"},"vehicle_type_id":"4","last_reported":1773762834,"current_range_meters":8000,"station_id":"ce4bhg12rcd13ifvqf70","pricing_plan_id":"cebpf4jnsgd1na2vs0mg"},{"bike_id":"811cb60e-c2e0-4eff-a720-ab1d90d9f80a","system_id":"levelo_inurba_marseille","lat":43.2339,"lon":5.41231,"is_reserved":false,"is_disabled":false,"rental_uris":{"android":"levelo://app?vid=811cb60e-c2e0-4eff-a720-ab1d90d9f80a","ios":"levelo://app?vid=811cb60e-c2e0-4eff-a720-ab1d90d9f80a"},"vehicle_type_id":"4","last_reported":1773762834,"current_range_meters":8000,"station_id":"","pricing_plan_id":"cebpf4jnsgd1na2vs0mg"},{"bike_id":"0922850f-97f4-4d5f-9c96-79b1b2616092","system_id":"levelo_inurba_marseille","lat":43.29584,"lon":5.37524,"is_reserved":false,"is_disabled":false,"rental_uris":{"android":"levelo://app?vid=0922850f-97f4-4d5f-9c96-79b1b2616092","ios":"levelo://app?vid=0922850f-97f4-4d5f-9c96-79b1b2616092"},"vehicle_type_id":"4","last_reported":1773762834,"current_range_meters":8000,"station_id":"ce4bgh92rcd13ifvqb50","pricing_plan_id":"cebpf4jnsgd1na2vs0mg"},{"bike_id":"c2c7c530-5d90-493e-bc68-4654d00e1dc7","system_id":"levelo_inurba_marseille","lat":43.252,"lon":5.40617,"is_reserved":false,"is_disabled":false,"rental_uris":{"android":"levelo://app?vid=c2c7c530-5d90-493e-bc68-4654d00e1dc7","ios":"levelo://app?vid=c2c7c530-5d90-493e-bc68-4654d00e1dc7"},"vehicle_type_id":"4","last_reported":1773762834,"current_range_meters":8000,"station_id":"","pricing_plan_id":"cebpf4jnsgd1na2vs0mg"},{"bike_id":"abeed13c-c51b-4739-8fd2-4f8ab70d4f2c","system_id":"levelo_inurba_marseille","lat":43.31717,"lon":5.42398,"is_reserved":false,"is_disabled":false,"rental_uris":{"android":"levelo://app?vid=abeed13c-c51b-4739-8fd2-4f8ab70d4f2c","ios":"levelo://app?vid=abeed13c-c51b-4739-8fd2-4f8ab70d4f2c"},"vehicle_type_id":"4","last_reported":1773762834,"current_range_meters":8400,"station_id":"ce4bhp92rcd13ifvqhbg","pricing_plan_id":"cebpf4jnsgd1na2vs0mg"},{"bike_id":"7ada2641-316b-4e07-8cf0-f1c79c755356","system_id":"levelo_inurba_marseille","lat":43.24946,"lon":5.40486,"is_reserved":false,"is_disabled":false,"rental_uris":{"android":"levelo://app?vid=7ada2641-316b-4e07-8cf0-f1c79c755356","ios":"levelo://app?vid=7ada2641-316b-4e07-8cf0-f1c79c755356"},"vehicle_type_id":"4","last_reported":1773762834,"current_range_meters":8400,"station_id":"st_d2ngiaodas8pm72gd1h0","pricing_plan_id":"cebpf4jnsgd1na2vs0mg"},{"bike_id":"31bbbc64-800b-44a8-ab46-653465aaf64a","system_id":"levelo_inurba_marseille","lat":43.31118,"lon":5.37774,"is_reserved":false,"is_disabled":false,"rental_uris":{"android":"levelo://app?vid=31bbbc64-800b-44a8-ab46-653465aaf64a","ios":"levelo://app?vid=31bbbc64-800b-44a8-ab46-653465aaf64a"},"vehicle_type_id":"4","last_reported":1773762834,"current_range_meters":8400,"station_id":"ce4bgt92rcd13ifvqcg0","pricing_plan_id":"cebpf4jnsgd1na2vs0mg"},{"bike_id":"2134a193-4b3a-4038-a280-1a0ba6458570","system_id":"levelo_inurba_marseille","lat":43.29881,"lon":5.4208,"is_reserved":false,"is_disabled":false,"rental_uris":{"android":"levelo://app?vid=2134a193-4b3a-4038-a280-1a0ba6458570","ios":"levelo://app?vid=2134a193-4b3a-4038-a280-1a0ba6458570"},"vehicle_type_id":"4","last_reported":1773762834,"current_range_meters":8400,"station_id":"","pricing_plan_id":"cebpf4jnsgd1na2vs0mg"},{"bike_id":"7d9d7aa8-fbf6-4ec2-9dd9-58e4fbfbf40b","system_id":"levelo_inurba_marseille","lat":43.3373,"lon":5.39198,"is_reserved":false,"is_disabled":false,"rental_uris":{"android":"levelo://app?vid=7d9d7aa8-fbf6-4ec2-9dd9-58e4fbfbf40b","ios":"levelo://app?vid=7d9d7aa8-fbf6-4ec2-9dd9-58e4fbfbf40b"},"vehicle_type_id":"4","last_reported":1773762834,"current_range_meters":8400,"station_id":"ce4bhr92rcd13ifvqhsg","pricing_plan_id":"cebpf4jnsgd1na2vs0mg"},{"bike_id":"e19bbcec-af9d-483d-ac29-18df3b9c0ab9","system_id":"levelo_inurba_marseille","lat":43.2848,"lon":5.48389,"is_reserved":false,"is_disabled":false,"rental_uris":{"android":"levelo://app?vid=e19bbcec-af9d-483d-ac29-18df3b9c0ab9","ios":"levelo://app?vid=e19bbcec-af9d-483d-ac29-18df3b9c0ab9"},"vehicle_type_id":"4","last_reported":1773762834,"current_range_meters":8400,"station_id":"st_d3svhcjqgbts73a3dn0g","pricing_plan_id":"cebpf4jnsgd1na2vs0mg"},{"bike_id":"7e372e61-a4a4-4320-b78e-0115edf72ed5","system_id":"levelo_inurba_marseille","lat":43.24176,"lon":5.36399,"is_reserved":false,"is_disabled":true,"rental_uris":{"android":"levelo://app?vid=7e372e61-a4a4-4320-b78e-0115edf72ed5","ios":"levelo://app?vid=7e372e61-a4a4-4320-b78e-0115edf72ed5"},"vehicle_type_id":"4","last_reported":1773762834,"current_range_meters":8400,"station_id":"cpo36qri1sfpv3e86is0","pricing_plan_id":"cebpf4jnsgd1na2vs0mg"},{"bike_id":"f7cad0dd-4929-454b-8848-7575c69435e1","system_id":"levelo_inurba_marseille","lat":43.25843,"lon":5.39919,"is_reserved":false,"is_disabled":true,"rental_uris":{"android":"levelo://app?vid=f7cad0dd-4929-454b-8848-7575c69435e1","ios":"levelo://app?vid=f7cad0dd-4929-454b-8848-7575c69435e1"},"vehicle_type_id":"4","last_reported":1773762834,"current_range_meters":8400,"station_id":"ce4bhl92rcd13ifvqghg","pricing_plan_id":"cebpf4jnsgd1na2vs0mg"},{"bike_id":"b9ef10fd-0204-4e5f-bc92-673f50a6fcb4","system_id":"levelo_inurba_marseille","lat":43.21199,"lon":5.35056,"is_reserved":false,"is_disabled":false,"rental_uris":{"android":"levelo://app?vid=b9ef10fd-0204-4e5f-bc92-673f50a6fcb4","ios":"levelo://app?vid=b9ef10fd-0204-4e5f-bc92-673f50a6fcb4"},"vehicle_type_id":"4","last_reported":1773762834,"current_range_meters":8400,"station_id":"","pricing_plan_id":"cebpf4jnsgd1na2vs0mg"},{"bike_id":"b5bd5592-db34-4690-b80a-770984e7260d","system_id":"levelo_inurba_marseille","lat":43.27678,"lon":5.38897,"is_reserved":false,"is_disabled":false,"rental_uris":{"android":"levelo://app?vid=b5bd5592-db34-4690-b80a-770984e7260d","ios":"levelo://app?vid=b5bd5592-db34-4690-b80a-770984e7260d"},"vehicle_type_id":"4","last_reported":1773762834,"current_range_meters":8400,"station_id":"ce4bhi12rcd13ifvqfo0","pricing_plan_id":"cebpf4jnsgd1na2vs0mg"},{"bike_id":"c9eff917-d2ef-4918-8651-c7a7ee4270d3","system_id":"levelo_inurba_marseille","lat":43.24468,"lon":5.42526,"is_reserved":false,"is_disabled":false,"rental_uris":{"android":"levelo://app?vid=c9eff917-d2ef-4918-8651-c7a7ee4270d3","ios":"levelo://app?vid=c9eff917-d2ef-4918-8651-c7a7ee4270d3"},"vehicle_type_id":"4","last_reported":1773762834,"current_range_meters":8400,"station_id":"st_d4a3vfp97mjs738cd8kg","pricing_plan_id":"cebpf4jnsgd1na2vs0mg"},{"bike_id":"80db3609-75ad-4c89-b2ce-16c9992dcab3","system_id":"levelo_inurba_marseille","lat":43.22935,"lon":5.35372,"is_reserved":false,"is_disabled":false,"rental_uris":{"android":"levelo://app?vid=80db3609-75ad-4c89-b2ce-16c9992dcab3","ios":"levelo://app?vid=80db3609-75ad-4c89-b2ce-16c9992dcab3"},"vehicle_type_id":"4","last_reported":1773762834,"current_range_meters":8400,"station_id":"cpo3532slgdg3j2ikp40","pricing_plan_id":"cebpf4jnsgd1na2vs0mg"},{"bike_id":"60799a0a-1da1-47b2-a198-09720dd54a23","system_id":"levelo_inurba_marseille","lat":43.26807,"lon":5.40259,"is_reserved":false,"is_disabled":false,"rental_uris":{"android":"levelo://app?vid=60799a0a-1da1-47b2-a198-09720dd54a23","ios":"levelo://app?vid=60799a0a-1da1-47b2-a198-09720dd54a23"},"vehicle_type_id":"4","last_reported":1773762834,"current_range_meters":8400,"station_id":"ce501612rcd8frsf0b60","pricing_plan_id":"cebpf4jnsgd1na2vs0mg"},{"bike_id":"707849e1-5016-4f61-b3c6-3b083180995f","system_id":"levelo_inurba_marseille","lat":43.30798,"lon":5.38147,"is_reserved":false,"is_disabled":false,"rental_uris":{"android":"levelo://app?vid=707849e1-5016-4f61-b3c6-3b083180995f","ios":"levelo://app?vid=707849e1-5016-4f61-b3c6-3b083180995f"},"vehicle_type_id":"4","last_reported":1773762834,"current_range_meters":8400,"station_id":"ce4bgt12rcd13ifvqce0","pricing_plan_id":"cebpf4jnsgd1na2vs0mg"},{"bike_id":"7ce4e582-1828-4a10-9420-1190cccc5a69","system_id":"levelo_inurba_marseille","lat":43.2757,"lon":5.38417,"is_reserved":false,"is_disabled":false,"rental_uris":{"android":"levelo://app?vid=7ce4e582-1828-4a10-9420-1190cccc5a69","ios":"levelo://app?vid=7ce4e582-1828-4a10-9420-1190cccc5a69"},"vehicle_type_id":"4","last_reported":1773762834,"current_range_meters":8400,"station_id":"ce4bhh92rcd13ifvqfi0","pricing_plan_id":"cebpf4jnsgd1na2vs0mg"},{"bike_id":"87f91920-65e2-4b63-9a30-e955d3b05156","system_id":"levelo_inurba_marseille","lat":43.28437,"lon":5.34983,"is_reserved":false,"is_disabled":false,"rental_uris":{"android":"levelo://app?vid=87f91920-65e2-4b63-9a30-e955d3b05156","ios":"levelo://app?vid=87f91920-65e2-4b63-9a30-e955d3b05156"},"vehicle_type_id":"4","last_reported":1773762834,"current_range_meters":8400,"station_id":"ce4bhbh2rcd13ifvqepg","pricing_plan_id":"cebpf4jnsgd1na2vs0mg"},{"bike_id":"8d24ad66-42e0-4a25-b94a-3cb5a17fcd52","system_id":"levelo_inurba_marseille","lat":43.29013,"lon":5.38629,"is_reserved":false,"is_disabled":false,"rental_uris":{"android":"levelo://app?vid=8d24ad66-42e0-4a25-b94a-3cb5a17fcd52","ios":"levelo://app?vid=8d24ad66-42e0-4a25-b94a-3cb5a17fcd52"},"vehicle_type_id":"4","last_reported":1773762834,"current_range_meters":8800,"station_id":"ce4bh4p2rcd13ifvqe0g","pricing_plan_id":"cebpf4jnsgd1na2vs0mg"},{"bike_id":"152f7022-b9ff-41bd-8767-48611caaa226","system_id":"levelo_inurba_marseille","lat":43.262478,"lon":5.374646,"is_reserved":false,"is_disabled":false,"rental_uris":{"android":"levelo://app?vid=152f7022-b9ff-41bd-8767-48611caaa226","ios":"levelo://app?vid=152f7022-b9ff-41bd-8767-48611caaa226"},"vehicle_type_id":"4","last_reported":1773762834,"current_range_meters":8800,"station_id":"","pricing_plan_id":"cebpf4jnsgd1na2vs0mg"},{"bike_id":"e9a095ec-646a-47ef-b9a1-632c444faa7c","system_id":"levelo_inurba_marseille","lat":43.26375,"lon":5.41084,"is_reserved":false,"is_disabled":false,"rental_uris":{"android":"levelo://app?vid=e9a095ec-646a-47ef-b9a1-632c444faa7c","ios":"levelo://app?vid=e9a095ec-646a-47ef-b9a1-632c444faa7c"},"vehicle_type_id":"4","last_reported":1773762834,"current_range_meters":8800,"station_id":"st_d4e5ca6na9uc73bfl5fg","pricing_plan_id":"cebpf4jnsgd1na2vs0mg"},{"bike_id":"3b6e0c3e-cbaa-4171-b477-05e2254d111c","system_id":"levelo_inurba_marseille","lat":43.26689,"lon":5.38259,"is_reserved":false,"is_disabled":false,"rental_uris":{"android":"levelo://app?vid=3b6e0c3e-cbaa-4171-b477-05e2254d111c","ios":"levelo://app?vid=3b6e0c3e-cbaa-4171-b477-05e2254d111c"},"vehicle_type_id":"4","last_reported":1773762834,"current_range_meters":8800,"station_id":"ce4bhg92rcd13ifvqf90","pricing_plan_id":"cebpf4jnsgd1na2vs0mg"},{"bike_id":"ee578372-720a-453e-b339-5379deeaf2fd","system_id":"levelo_inurba_marseille","lat":43.2466,"lon":5.38151,"is_reserved":false,"is_disabled":false,"rental_uris":{"android":"levelo://app?vid=ee578372-720a-453e-b339-5379deeaf2fd","ios":"levelo://app?vid=ee578372-720a-453e-b339-5379deeaf2fd"},"vehicle_type_id":"4","last_reported":1773762834,"current_range_meters":8800,"station_id":"ce4bhih2rcd13ifvqfr0","pricing_plan_id":"cebpf4jnsgd1na2vs0mg"},{"bike_id":"6ac9fba9-cbd8-4e41-8d10-8d9aa767f584","system_id":"levelo_inurba_marseille","lat":43.27685,"lon":5.38915,"is_reserved":false,"is_disabled":false,"rental_uris":{"android":"levelo://app?vid=6ac9fba9-cbd8-4e41-8d10-8d9aa767f584","ios":"levelo://app?vid=6ac9fba9-cbd8-4e41-8d10-8d9aa767f584"},"vehicle_type_id":"4","last_reported":1773762834,"current_range_meters":8800,"station_id":"ce4bhi12rcd13ifvqfo0","pricing_plan_id":"cebpf4jnsgd1na2vs0mg"},{"bike_id":"aa55bf61-2ca7-41e3-8bb2-254e014eceaa","system_id":"levelo_inurba_marseille","lat":43.24388,"lon":5.37037,"is_reserved":false,"is_disabled":false,"rental_uris":{"android":"levelo://app?vid=aa55bf61-2ca7-41e3-8bb2-254e014eceaa","ios":"levelo://app?vid=aa55bf61-2ca7-41e3-8bb2-254e014eceaa"},"vehicle_type_id":"4","last_reported":1773762834,"current_range_meters":8800,"station_id":"ce4bhhh2rcd13ifvqfk0","pricing_plan_id":"cebpf4jnsgd1na2vs0mg"},{"bike_id":"73f59619-b8fb-4247-8fd5-e2dcc21c22ed","system_id":"levelo_inurba_marseille","lat":43.30519,"lon":5.36528,"is_reserved":false,"is_disabled":false,"rental_uris":{"android":"levelo://app?vid=73f59619-b8fb-4247-8fd5-e2dcc21c22ed","ios":"levelo://app?vid=73f59619-b8fb-4247-8fd5-e2dcc21c22ed"},"vehicle_type_id":"4","last_reported":1773762834,"current_range_meters":8800,"station_id":"","pricing_plan_id":"cebpf4jnsgd1na2vs0mg"},{"bike_id":"e563383a-8a89-4304-b11f-18268886193e","system_id":"levelo_inurba_marseille","lat":43.25574,"lon":5.38271,"is_reserved":false,"is_disabled":false,"rental_uris":{"android":"levelo://app?vid=e563383a-8a89-4304-b11f-18268886193e","ios":"levelo://app?vid=e563383a-8a89-4304-b11f-18268886193e"},"vehicle_type_id":"4","last_reported":1773762834,"current_range_meters":8800,"station_id":"ce4bhih2rcd13ifvqfs0","pricing_plan_id":"cebpf4jnsgd1na2vs0mg"},{"bike_id":"4f288921-11b6-4ab1-af45-f899b28f8cf7","system_id":"levelo_inurba_marseille","lat":43.24548,"lon":5.39516,"is_reserved":false,"is_disabled":false,"rental_uris":{"android":"levelo://app?vid=4f288921-11b6-4ab1-af45-f899b28f8cf7","ios":"levelo://app?vid=4f288921-11b6-4ab1-af45-f899b28f8cf7"},"vehicle_type_id":"4","last_reported":1773762834,"current_range_meters":8800,"station_id":"ce4bhlp2rcd13ifvqgjg","pricing_plan_id":"cebpf4jnsgd1na2vs0mg"},{"bike_id":"145cf909-0a6f-49d8-9ad7-e55b549465ae","system_id":"levelo_inurba_marseille","lat":43.25628,"lon":5.38558,"is_reserved":false,"is_disabled":false,"rental_uris":{"android":"levelo://app?vid=145cf909-0a6f-49d8-9ad7-e55b549465ae","ios":"levelo://app?vid=145cf909-0a6f-49d8-9ad7-e55b549465ae"},"vehicle_type_id":"4","last_reported":1773762834,"current_range_meters":8800,"station_id":"","pricing_plan_id":"cebpf4jnsgd1na2vs0mg"},{"bike_id":"901c28db-c015-4313-845b-db71a8b5949f","system_id":"levelo_inurba_marseille","lat":43.2416,"lon":5.39708,"is_reserved":false,"is_disabled":true,"rental_uris":{"android":"levelo://app?vid=901c28db-c015-4313-845b-db71a8b5949f","ios":"levelo://app?vid=901c28db-c015-4313-845b-db71a8b5949f"},"vehicle_type_id":"4","last_reported":1773762834,"current_range_meters":8800,"station_id":"ce4bhn12rcd13ifvqgpg","pricing_plan_id":"cebpf4jnsgd1na2vs0mg"},{"bike_id":"4df9c64b-e0f6-4582-b5d9-ffb79bc2bc2b","system_id":"levelo_inurba_marseille","lat":43.28947,"lon":5.36402,"is_reserved":false,"is_disabled":false,"rental_uris":{"android":"levelo://app?vid=4df9c64b-e0f6-4582-b5d9-ffb79bc2bc2b","ios":"levelo://app?vid=4df9c64b-e0f6-4582-b5d9-ffb79bc2bc2b"},"vehicle_type_id":"4","last_reported":1773762834,"current_range_meters":8800,"station_id":"ce4bhc92rcd13ifvqetg","pricing_plan_id":"cebpf4jnsgd1na2vs0mg"},{"bike_id":"bf249f81-2ef0-45f9-a595-8436dd14fe0c","system_id":"levelo_inurba_marseille","lat":43.32113,"lon":5.36768,"is_reserved":false,"is_disabled":true,"rental_uris":{"android":"levelo://app?vid=bf249f81-2ef0-45f9-a595-8436dd14fe0c","ios":"levelo://app?vid=bf249f81-2ef0-45f9-a595-8436dd14fe0c"},"vehicle_type_id":"4","last_reported":1773762834,"current_range_meters":8800,"station_id":"ce4bhrh2rcd13ifvqhug","pricing_plan_id":"cebpf4jnsgd1na2vs0mg"},{"bike_id":"ba31e6cd-d009-48b5-b4a7-877c776fcc48","system_id":"levelo_inurba_marseille","lat":43.243912,"lon":5.370607,"is_reserved":false,"is_disabled":false,"rental_uris":{"android":"levelo://app?vid=ba31e6cd-d009-48b5-b4a7-877c776fcc48","ios":"levelo://app?vid=ba31e6cd-d009-48b5-b4a7-877c776fcc48"},"vehicle_type_id":"4","last_reported":1773762834,"current_range_meters":8800,"station_id":"ce4bhhh2rcd13ifvqfk0","pricing_plan_id":"cebpf4jnsgd1na2vs0mg"},{"bike_id":"4aa7e11f-ff2f-4155-8e1b-b6c025519ba8","system_id":"levelo_inurba_marseille","lat":43.23195,"lon":5.35549,"is_reserved":false,"is_disabled":false,"rental_uris":{"android":"levelo://app?vid=4aa7e11f-ff2f-4155-8e1b-b6c025519ba8","ios":"levelo://app?vid=4aa7e11f-ff2f-4155-8e1b-b6c025519ba8"},"vehicle_type_id":"4","last_reported":1773762834,"current_range_meters":8800,"station_id":"ce4bhu92rcd13ifvqi70","pricing_plan_id":"cebpf4jnsgd1na2vs0mg"},{"bike_id":"69f9e7d0-9e6e-48d9-8402-311a294217e6","system_id":"levelo_inurba_marseille","lat":43.29395,"lon":5.37835,"is_reserved":false,"is_disabled":true,"rental_uris":{"android":"levelo://app?vid=69f9e7d0-9e6e-48d9-8402-311a294217e6","ios":"levelo://app?vid=69f9e7d0-9e6e-48d9-8402-311a294217e6"},"vehicle_type_id":"4","last_reported":1773762834,"current_range_meters":8800,"station_id":"ce4bgjh2rcd13ifvqbf0","pricing_plan_id":"cebpf4jnsgd1na2vs0mg"},{"bike_id":"d3965684-e9a5-4e43-a817-a8e3b309d4c3","system_id":"levelo_inurba_marseille","lat":43.25512,"lon":5.37654,"is_reserved":false,"is_disabled":false,"rental_uris":{"android":"levelo://app?vid=d3965684-e9a5-4e43-a817-a8e3b309d4c3","ios":"levelo://app?vid=d3965684-e9a5-4e43-a817-a8e3b309d4c3"},"vehicle_type_id":"4","last_reported":1773762834,"current_range_meters":8800,"station_id":"ce4bhh12rcd13ifvqff0","pricing_plan_id":"cebpf4jnsgd1na2vs0mg"},{"bike_id":"0bacd49d-1e82-47d0-b9c4-534513f8cc81","system_id":"levelo_inurba_marseille","lat":43.30952,"lon":5.39073,"is_reserved":false,"is_disabled":true,"rental_uris":{"android":"levelo://app?vid=0bacd49d-1e82-47d0-b9c4-534513f8cc81","ios":"levelo://app?vid=0bacd49d-1e82-47d0-b9c4-534513f8cc81"},"vehicle_type_id":"4","last_reported":1773762834,"current_range_meters":8800,"station_id":"ce4bgup2rcd13ifvqco0","pricing_plan_id":"cebpf4jnsgd1na2vs0mg"},{"bike_id":"f3ad5c52-a53f-43ad-9372-ca9def42bd95","system_id":"levelo_inurba_marseille","lat":43.2872,"lon":5.37921,"is_reserved":false,"is_disabled":false,"rental_uris":{"android":"levelo://app?vid=f3ad5c52-a53f-43ad-9372-ca9def42bd95","ios":"levelo://app?vid=f3ad5c52-a53f-43ad-9372-ca9def42bd95"},"vehicle_type_id":"4","last_reported":1773762834,"current_range_meters":8800,"station_id":"ce4bh9p2rcd13ifvqec0","pricing_plan_id":"cebpf4jnsgd1na2vs0mg"},{"bike_id":"2765a92d-452e-4f3b-ac4d-79f7773b0aea","system_id":"levelo_inurba_marseille","lat":43.29191,"lon":5.35797,"is_reserved":false,"is_disabled":false,"rental_uris":{"android":"levelo://app?vid=2765a92d-452e-4f3b-ac4d-79f7773b0aea","ios":"levelo://app?vid=2765a92d-452e-4f3b-ac4d-79f7773b0aea"},"vehicle_type_id":"4","last_reported":1773762834,"current_range_meters":8800,"station_id":"ce4bhb12rcd13ifvqel0","pricing_plan_id":"cebpf4jnsgd1na2vs0mg"},{"bike_id":"3e6b63c7-46b5-4c59-a8ef-7fdc68b2c32d","system_id":"levelo_inurba_marseille","lat":43.290649,"lon":5.371758,"is_reserved":false,"is_disabled":false,"rental_uris":{"android":"levelo://app?vid=3e6b63c7-46b5-4c59-a8ef-7fdc68b2c32d","ios":"levelo://app?vid=3e6b63c7-46b5-4c59-a8ef-7fdc68b2c32d"},"vehicle_type_id":"4","last_reported":1773762834,"current_range_meters":8800,"station_id":"ce4bh5p2rcd13ifvqe4g","pricing_plan_id":"cebpf4jnsgd1na2vs0mg"},{"bike_id":"f8a00c49-c93d-41ce-9f11-d81257ca6394","system_id":"levelo_inurba_marseille","lat":43.22935,"lon":5.35378,"is_reserved":false,"is_disabled":false,"rental_uris":{"android":"levelo://app?vid=f8a00c49-c93d-41ce-9f11-d81257ca6394","ios":"levelo://app?vid=f8a00c49-c93d-41ce-9f11-d81257ca6394"},"vehicle_type_id":"4","last_reported":1773762834,"current_range_meters":8800,"station_id":"cpo3532slgdg3j2ikp40","pricing_plan_id":"cebpf4jnsgd1na2vs0mg"},{"bike_id":"e00fef88-2abf-45c7-8786-bdc52b793edc","system_id":"levelo_inurba_marseille","lat":43.28418,"lon":5.34991,"is_reserved":false,"is_disabled":false,"rental_uris":{"android":"levelo://app?vid=e00fef88-2abf-45c7-8786-bdc52b793edc","ios":"levelo://app?vid=e00fef88-2abf-45c7-8786-bdc52b793edc"},"vehicle_type_id":"4","last_reported":1773762834,"current_range_meters":8800,"station_id":"ce4bhbh2rcd13ifvqepg","pricing_plan_id":"cebpf4jnsgd1na2vs0mg"},{"bike_id":"ea3c54d1-5815-4c69-bb20-9e5341681cce","system_id":"levelo_inurba_marseille","lat":43.29744,"lon":5.38038,"is_reserved":false,"is_disabled":true,"rental_uris":{"android":"levelo://app?vid=ea3c54d1-5815-4c69-bb20-9e5341681cce","ios":"levelo://app?vid=ea3c54d1-5815-4c69-bb20-9e5341681cce"},"vehicle_type_id":"4","last_reported":1773762834,"current_range_meters":8800,"station_id":"","pricing_plan_id":"cebpf4jnsgd1na2vs0mg"},{"bike_id":"b9f2e5d5-d6ac-4c0d-86f2-4fe1a54ef3b3","system_id":"levelo_inurba_marseille","lat":43.32108,"lon":5.36767,"is_reserved":false,"is_disabled":false,"rental_uris":{"android":"levelo://app?vid=b9f2e5d5-d6ac-4c0d-86f2-4fe1a54ef3b3","ios":"levelo://app?vid=b9f2e5d5-d6ac-4c0d-86f2-4fe1a54ef3b3"},"vehicle_type_id":"4","last_reported":1773762834,"current_range_meters":8800,"station_id":"ce4bhrh2rcd13ifvqhug","pricing_plan_id":"cebpf4jnsgd1na2vs0mg"},{"bike_id":"43220b7b-a4d6-4741-a97a-439d3536e9bc","system_id":"levelo_inurba_marseille","lat":43.30414,"lon":5.41284,"is_reserved":false,"is_disabled":false,"rental_uris":{"android":"levelo://app?vid=43220b7b-a4d6-4741-a97a-439d3536e9bc","ios":"levelo://app?vid=43220b7b-a4d6-4741-a97a-439d3536e9bc"},"vehicle_type_id":"4","last_reported":1773762834,"current_range_meters":8800,"station_id":"ce4bhop2rcd13ifvqh8g","pricing_plan_id":"cebpf4jnsgd1na2vs0mg"},{"bike_id":"afc832e8-6f1b-401f-ae15-ec859becfac2","system_id":"levelo_inurba_marseille","lat":43.30134,"lon":5.39866,"is_reserved":false,"is_disabled":false,"rental_uris":{"android":"levelo://app?vid=afc832e8-6f1b-401f-ae15-ec859becfac2","ios":"levelo://app?vid=afc832e8-6f1b-401f-ae15-ec859becfac2"},"vehicle_type_id":"4","last_reported":1773762834,"current_range_meters":9200,"station_id":"ce4bh0h2rcd13ifvqd40","pricing_plan_id":"cebpf4jnsgd1na2vs0mg"},{"bike_id":"52fa14df-d474-4338-bde9-a8fa518e7f12","system_id":"levelo_inurba_marseille","lat":43.31721,"lon":5.42399,"is_reserved":false,"is_disabled":false,"rental_uris":{"android":"levelo://app?vid=52fa14df-d474-4338-bde9-a8fa518e7f12","ios":"levelo://app?vid=52fa14df-d474-4338-bde9-a8fa518e7f12"},"vehicle_type_id":"4","last_reported":1773762834,"current_range_meters":9200,"station_id":"ce4bhp92rcd13ifvqhbg","pricing_plan_id":"cebpf4jnsgd1na2vs0mg"},{"bike_id":"d36ae96d-4a10-4c23-8570-631a18c93622","system_id":"levelo_inurba_marseille","lat":43.26213,"lon":5.37444,"is_reserved":false,"is_disabled":false,"rental_uris":{"android":"levelo://app?vid=d36ae96d-4a10-4c23-8570-631a18c93622","ios":"levelo://app?vid=d36ae96d-4a10-4c23-8570-631a18c93622"},"vehicle_type_id":"4","last_reported":1773762834,"current_range_meters":9200,"station_id":"ce4bhgp2rcd13ifvqfc0","pricing_plan_id":"cebpf4jnsgd1na2vs0mg"},{"bike_id":"90e3905b-57e6-4282-a1f5-50b7eafc8592","system_id":"levelo_inurba_marseille","lat":43.22552,"lon":5.41609,"is_reserved":false,"is_disabled":false,"rental_uris":{"android":"levelo://app?vid=90e3905b-57e6-4282-a1f5-50b7eafc8592","ios":"levelo://app?vid=90e3905b-57e6-4282-a1f5-50b7eafc8592"},"vehicle_type_id":"4","last_reported":1773762834,"current_range_meters":9200,"station_id":"st_d2o4gvlbi1j2169b742g","pricing_plan_id":"cebpf4jnsgd1na2vs0mg"},{"bike_id":"f77d8ba9-0aa6-4584-bbea-10af3fde7148","system_id":"levelo_inurba_marseille","lat":43.24958,"lon":5.40489,"is_reserved":false,"is_disabled":false,"rental_uris":{"android":"levelo://app?vid=f77d8ba9-0aa6-4584-bbea-10af3fde7148","ios":"levelo://app?vid=f77d8ba9-0aa6-4584-bbea-10af3fde7148"},"vehicle_type_id":"4","last_reported":1773762834,"current_range_meters":9200,"station_id":"st_d2ngiaodas8pm72gd1h0","pricing_plan_id":"cebpf4jnsgd1na2vs0mg"},{"bike_id":"baf7c1f5-4a85-47f3-9367-3f6d536f083f","system_id":"levelo_inurba_marseille","lat":43.27991,"lon":5.40025,"is_reserved":false,"is_disabled":false,"rental_uris":{"android":"levelo://app?vid=baf7c1f5-4a85-47f3-9367-3f6d536f083f","ios":"levelo://app?vid=baf7c1f5-4a85-47f3-9367-3f6d536f083f"},"vehicle_type_id":"4","last_reported":1773762834,"current_range_meters":9200,"station_id":"ce4bho92rcd13ifvqh4g","pricing_plan_id":"cebpf4jnsgd1na2vs0mg"},{"bike_id":"0f5f0045-4f1f-4a20-bfc5-15e1379cb923","system_id":"levelo_inurba_marseille","lat":43.30122,"lon":5.39841,"is_reserved":false,"is_disabled":false,"rental_uris":{"android":"levelo://app?vid=0f5f0045-4f1f-4a20-bfc5-15e1379cb923","ios":"levelo://app?vid=0f5f0045-4f1f-4a20-bfc5-15e1379cb923"},"vehicle_type_id":"4","last_reported":1773762834,"current_range_meters":9200,"station_id":"ce4bh0h2rcd13ifvqd40","pricing_plan_id":"cebpf4jnsgd1na2vs0mg"},{"bike_id":"78ea7f0c-7926-49c4-a142-9c1382a6f04a","system_id":"levelo_inurba_marseille","lat":43.28003,"lon":5.40002,"is_reserved":false,"is_disabled":false,"rental_uris":{"android":"levelo://app?vid=78ea7f0c-7926-49c4-a142-9c1382a6f04a","ios":"levelo://app?vid=78ea7f0c-7926-49c4-a142-9c1382a6f04a"},"vehicle_type_id":"4","last_reported":1773762834,"current_range_meters":9200,"station_id":"ce4bho92rcd13ifvqh4g","pricing_plan_id":"cebpf4jnsgd1na2vs0mg"},{"bike_id":"5d494bdc-5e63-4b8d-88b5-206d375a4c9d","system_id":"levelo_inurba_marseille","lat":43.28416,"lon":5.34978,"is_reserved":false,"is_disabled":false,"rental_uris":{"android":"levelo://app?vid=5d494bdc-5e63-4b8d-88b5-206d375a4c9d","ios":"levelo://app?vid=5d494bdc-5e63-4b8d-88b5-206d375a4c9d"},"vehicle_type_id":"4","last_reported":1773762834,"current_range_meters":9200,"station_id":"ce4bhbh2rcd13ifvqepg","pricing_plan_id":"cebpf4jnsgd1na2vs0mg"},{"bike_id":"ea7ca8ce-db0b-4063-9bad-a12beaa7e432","system_id":"levelo_inurba_marseille","lat":43.24183,"lon":5.39724,"is_reserved":false,"is_disabled":false,"rental_uris":{"android":"levelo://app?vid=ea7ca8ce-db0b-4063-9bad-a12beaa7e432","ios":"levelo://app?vid=ea7ca8ce-db0b-4063-9bad-a12beaa7e432"},"vehicle_type_id":"4","last_reported":1773762834,"current_range_meters":9200,"station_id":"ce4bhn12rcd13ifvqgpg","pricing_plan_id":"cebpf4jnsgd1na2vs0mg"},{"bike_id":"70f98469-d2c0-43f4-9102-c6ad6fb97bca","system_id":"levelo_inurba_marseille","lat":43.21739,"lon":5.34605,"is_reserved":false,"is_disabled":false,"rental_uris":{"android":"levelo://app?vid=70f98469-d2c0-43f4-9102-c6ad6fb97bca","ios":"levelo://app?vid=70f98469-d2c0-43f4-9102-c6ad6fb97bca"},"vehicle_type_id":"4","last_reported":1773762834,"current_range_meters":9200,"station_id":"st_cvj6r9ubvosntc0bgbag","pricing_plan_id":"cebpf4jnsgd1na2vs0mg"},{"bike_id":"f22c9ef0-2b8b-44ec-853c-827b2f52c93d","system_id":"levelo_inurba_marseille","lat":43.28606,"lon":5.37064,"is_reserved":false,"is_disabled":false,"rental_uris":{"android":"levelo://app?vid=f22c9ef0-2b8b-44ec-853c-827b2f52c93d","ios":"levelo://app?vid=f22c9ef0-2b8b-44ec-853c-827b2f52c93d"},"vehicle_type_id":"4","last_reported":1773762834,"current_range_meters":9200,"station_id":"ce4bht12rcd13ifvqi60","pricing_plan_id":"cebpf4jnsgd1na2vs0mg"},{"bike_id":"af76a918-434d-4373-8fdd-16d8b75e35a1","system_id":"levelo_inurba_marseille","lat":43.2175,"lon":5.34589,"is_reserved":false,"is_disabled":false,"rental_uris":{"android":"levelo://app?vid=af76a918-434d-4373-8fdd-16d8b75e35a1","ios":"levelo://app?vid=af76a918-434d-4373-8fdd-16d8b75e35a1"},"vehicle_type_id":"4","last_reported":1773762834,"current_range_meters":9200,"station_id":"st_cvj6r9ubvosntc0bgbag","pricing_plan_id":"cebpf4jnsgd1na2vs0mg"},{"bike_id":"988179be-f1f3-4a4f-a448-319d3ea4b27e","system_id":"levelo_inurba_marseille","lat":43.25352,"lon":5.42599,"is_reserved":false,"is_disabled":false,"rental_uris":{"android":"levelo://app?vid=988179be-f1f3-4a4f-a448-319d3ea4b27e","ios":"levelo://app?vid=988179be-f1f3-4a4f-a448-319d3ea4b27e"},"vehicle_type_id":"4","last_reported":1773762834,"current_range_meters":9200,"station_id":"","pricing_plan_id":"cebpf4jnsgd1na2vs0mg"},