{"last_updated":1743088273,"ttl":60,"version":"2.2","data":{"bikes":[{"bike_id":"bf6d3711-68f5-4721-8ea8-2d0601182f38","system_id":"levelo_inurba_marseille","lat":43.33746,"lon":5.3745,"is_reserved":false,"is_disabled":true,"rental_uris":{"android":"levelo://app?vid=bf6d3711-68f5-4721-8ea8-2d0601182f38","ios":"levelo://app?vid=bf6d3711-68f5-4721-8ea8-2d0601182f38"},"vehicle_type_id":"4","last_reported":1743088273,"current_range_meters":0,"station_id":"","pricing_plan_id":"cebpf4jnsgd1na2vs0mg"},{"bike_id":"fc8e8371-f4e9-4721-bc19-563801e389dc","system_id":"levelo_inurba_marseille","lat":43.337444,"lon":5.374475,"is_reserved":false,"is_disabled":false,"rental_uris":{"android":"levelo://app?vid=fc8e8371-f4e9-4721-bc19-563801e389dc","ios":"levelo://app?vid=fc8e8371-f4e9-4721-bc19-563801e389dc"},"vehicle_type_id":"4","last_reported":1743088273,"current_range_meters":10800,"station_id":"","pricing_plan_id":"cebpf4jnsgd1na2vs0mg"},{"bike_id":"7ff8bbfb-d8a6-4f7f-b963-3cef9e7a8262","system_id":"levelo_inurba_marseille","lat":43.31464,"lon":5.36953,"is_reserved":false,"is_disabled":true,"rental_uris":{"android":"levelo://app?vid=7ff8bbfb-d8a6-4f7f-b963-3cef9e7a8262","ios":"levelo://app?vid=7ff8bbfb-d8a6-4f7f-b963-3cef9e7a8262"},"vehicle_type_id":"4","last_reported":1743088273,"current_range_meters":0,"station_id":"","pricing_plan_id":"cebpf4jnsgd1na2vs0mg"},{"bike_id":"54739101-93ac-4ff2-ac89-3384dd1e877c","system_id":"levelo_inurba_marseille","lat":43.315442,"lon":5.378527,"is_reserved":false,"is_disabled":true,"rental_uris":{"android":"levelo://app?vid=54739101-93ac-4ff2-ac89-3384dd1e877c","ios":"levelo://app?vid=54739101-93ac-4ff2-ac89-3384dd1e877c"},"vehicle_type_id":"4","last_reported":1743088273,"current_range_meters":0,"station_id":"","pricing_plan_id":"cebpf4jnsgd1na2vs0mg"},{"bike_id":"306bbe1b-255e-465f-9c82-619129be6b5a","system_id":"levelo_inurba_marseille","lat":43.26569,"lon":5.39605,"is_reserved":false,"is_disabled":true,"rental_uris":{"android":"levelo://app?vid=306bbe1b-255e-465f-9c82-619129be6b5a","ios":"levelo://app?vid=306bbe1b-255e-465f-9c82-619129be6b5a"},"vehicle_type_id":"4","last_reported":1743088273,"current_range_meters":0,"station_id":"","pricing_plan_id":"cebpf4jnsgd1na2vs0mg"},{"bike_id":"dfe65861-ceda-4b68-9de8-627c36ce51fc","system_id":"levelo_inurba_marseille","lat":43.29251,"lon":5.36766,"is_reserved":false,"is_disabled":true,"rental_uris":{"android":"levelo://app?vid=dfe65861-ceda-4b68-9de8-627c36ce51fc","ios":"levelo://app?vid=dfe65861-ceda-4b68-9de8-627c36ce51fc"},"vehicle_type_id":"4","last_reported":1743088273,"current_range_meters":0,"station_id":"","pricing_plan_id":"cebpf4jnsgd1na2vs0mg"},{"bike_id":"be6725c0-5c09-4663-99b8-0b7371d27e21","system_id":"levelo_inurba_marseille","lat":43.25494,"lon":5.37526,"is_reserved":false,"is_disabled":true,"rental_uris":{"android":"levelo://app?vid=be6725c0-5c09-4663-99b8-0b7371d27e21","ios":"levelo://app?vid=be6725c0-5c09-4663-99b8-0b7371d27e21"},"vehicle_type_id":"4","last_reported":1743088273,"current_range_meters":0,"station_id":"","pricing_plan_id":"cebpf4jnsgd1na2vs0mg"},{"bike_id":"e01b37d2-694f-4478-b219-216c31b79260","system_id":"levelo_inurba_marseille","lat":43.25241,"lon":5.38067,"is_reserved":false,"is_disabled":true,"rental_uris":{"android":"levelo://app?vid=e01b37d2-694f-4478-b219-216c31b79260","ios":"levelo://app?vid=e01b37d2-694f-4478-b219-216c31b79260"},"vehicle_type_id":"4","last_reported":1743088273,"current_range_meters":0,"station_id":"","pricing_plan_id":"cebpf4jnsgd1na2vs0mg"},{"bike_id":"634c433d-3db3-4fd8-8be9-8b653dae530e","system_id":"levelo_inurba_marseille","lat":43.28041,"lon":5.39007,"is_reserved":false,"is_disabled":true,"rental_uris":{"android":"levelo://app?vid=634c433d-3db3-4fd8-8be9-8b653dae530e","ios":"levelo://app?vid=634c433d-3db3-4fd8-8be9-8b653dae530e"},"vehicle_type_id":"4","last_reported":1743088273,"current_range_meters":0,"station_id":"","pricing_plan_id":"cebpf4jnsgd1na2vs0mg"},{"bike_id":"0bd09c89-2941-48a8-939e-ed23643618e3","system_id":"levelo_inurba_marseille","lat":43.29962,"lon":5.385,"is_reserved":false,"is_disabled":true,"rental_uris":{"android":"levelo://app?vid=0bd09c89-2941-48a8-939e-ed23643618e3","ios":"levelo://app?vid=0bd09c89-2941-48a8-939e-ed23643618e3"},"vehicle_type_id":"4","last_reported":1743088273,"current_range_meters":0,"station_id":"ce4bgj92rcd13ifvqbd0","pricing_plan_id":"cebpf4jnsgd1na2vs0mg"},{"bike_id":"50ff7c75-a079-4d6a-839a-474e9455a827","system_id":"levelo_inurba_marseille","lat":43.31364,"lon":5.36723,"is_reserved":false,"is_disabled":true,"rental_uris":{"android":"levelo://app?vid=50ff7c75-a079-4d6a-839a-474e9455a827","ios":"levelo://app?vid=50ff7c75-a079-4d6a-839a-474e9455a827"},"vehicle_type_id":"4","last_reported":1743088273,"current_range_meters":0,"station_id":"ce4bgr92rcd13ifvqc6g","pricing_plan_id":"cebpf4jnsgd1na2vs0mg"},{"bike_id":"db182a39-9775-4fe9-a3ab-671f01165a34","system_id":"levelo_inurba_marseille","lat":43.29569,"lon":5.39968,"is_reserved":false,"is_disabled":true,"rental_uris":{"android":"levelo://app?vid=db182a39-9775-4fe9-a3ab-671f01165a34","ios":"levelo://app?vid=db182a39-9775-4fe9-a3ab-671f01165a34"},"vehicle_type_id":"4","last_reported":1743088273,"current_range_meters":0,"station_id":"ce4bh312rcd13ifvqdj0","pricing_plan_id":"cebpf4jnsgd1na2vs0mg"},{"bike_id":"7396c16c-f49e-498a-9290-6b9a16a54d2a","system_id":"levelo_inurba_marseille","lat":43.29023,"lon":5.38644,"is_reserved":false,"is_disabled":true,"rental_uris":{"android":"levelo://app?vid=7396c16c-f49e-498a-9290-6b9a16a54d2a","ios":"levelo://app?vid=7396c16c-f49e-498a-9290-6b9a16a54d2a"},"vehicle_type_id":"4","last_reported":1743088273,"current_range_meters":0,"station_id":"ce4bh4p2rcd13ifvqe0g","pricing_plan_id":"cebpf4jnsgd1na2vs0mg"},{"bike_id":"fa70cfee-b281-4bb9-b505-ce929f25c90d","system_id":"levelo_inurba_marseille","lat":43.28459,"lon":5.35889,"is_reserved":false,"is_disabled":true,"rental_uris":{"android":"levelo://app?vid=fa70cfee-b281-4bb9-b505-ce929f25c90d","ios":"levelo://app?vid=fa70cfee-b281-4bb9-b505-ce929f25c90d"},"vehicle_type_id":"4","last_reported":1743088273,"current_range_meters":0,"station_id":"ce4bhah2rcd13ifvqei0","pricing_plan_id":"cebpf4jnsgd1na2vs0mg"},{"bike_id":"60e24271-bfc8-4336-9cb6-ee33c93f3856","system_id":"levelo_inurba_marseille","lat":43.27369,"lon":5.36247,"is_reserved":false,"is_disabled":true,"rental_uris":{"android":"levelo://app?vid=60e24271-bfc8-4336-9cb6-ee33c93f3856","ios":"levelo://app?vid=60e24271-bfc8-4336-9cb6-ee33c93f3856"},"vehicle_type_id":"4","last_reported":1743088273,"current_range_meters":0,"station_id":"ce4bhbh2rcd13ifvqeo0","pricing_plan_id":"cebpf4jnsgd1na2vs0mg"},{"bike_id":"4976105a-aae3-423e-a4e9-d1698264495a","system_id":"levelo_inurba_marseille","lat":43.27371,"lon":5.36243,"is_reserved":false,"is_disabled":true,"rental_uris":{"android":"levelo://app?vid=4976105a-aae3-423e-a4e9-d1698264495a","ios":"levelo://app?vid=4976105a-aae3-423e-a4e9-d1698264495a"},"vehicle_type_id":"4","last_reported":1743088273,"current_range_meters":0,"station_id":"ce4bhbh2rcd13ifvqeo0","pricing_plan_id":"cebpf4jnsgd1na2vs0mg"},{"bike_id":"13131f6f-f462-442b-8df5-b94a611601a0","system_id":"levelo_inurba_marseille","lat":43.28274,"lon":5.35056,"is_reserved":false,"is_disabled":true,"rental_uris":{"android":"levelo://app?vid=13131f6f-f462-442b-8df5-b94a611601a0","ios":"levelo://app?vid=13131f6f-f462-442b-8df5-b94a611601a0"},"vehicle_type_id":"4","last_reported":1743088273,"current_range_meters":0,"station_id":"ce4bhbp2rcd13ifvqerg","pricing_plan_id":"cebpf4jnsgd1na2vs0mg"},{"bike_id":"52b92db8-03a6-47b0-97df-aa526f99b586","system_id":"levelo_inurba_marseille","lat":43.283,"lon":5.35094,"is_reserved":false,"is_disabled":true,"rental_uris":{"android":"levelo://app?vid=52b92db8-03a6-47b0-97df-aa526f99b586","ios":"levelo://app?vid=52b92db8-03a6-47b0-97df-aa526f99b586"},"vehicle_type_id":"4","last_reported":1743088273,"current_range_meters":0,"station_id":"ce4bhbp2rcd13ifvqerg","pricing_plan_id":"cebpf4jnsgd1na2vs0mg"},{"bike_id":"16d518a2-4650-4766-8f49-184941ee31a8","system_id":"levelo_inurba_marseille","lat":43.28251,"lon":5.35071,"is_reserved":false,"is_disabled":true,"rental_uris":{"android":"levelo://app?vid=16d518a2-4650-4766-8f49-184941ee31a8","ios":"levelo://app?vid=16d518a2-4650-4766-8f49-184941ee31a8"},"vehicle_type_id":"4","last_reported":1743088273,"current_range_meters":0,"station_id":"ce4bhbp2rcd13ifvqerg","pricing_plan_id":"cebpf4jnsgd1na2vs0mg"},{"bike_id":"c0bb2389-41c2-4867-8a44-640d5d1a9e23","system_id":"levelo_inurba_marseille","lat":43.2861,"lon":5.35109,"is_reserved":false,"is_disabled":true,"rental_uris":{"android":"levelo://app?vid=c0bb2389-41c2-4867-8a44-640d5d1a9e23","ios":"levelo://app?vid=c0bb2389-41c2-4867-8a44-640d5d1a9e23"},"vehicle_type_id":"4","last_reported":1743088273,"current_range_meters":0,"station_id":"ce4bhch2rcd13ifvqeug","pricing_plan_id":"cebpf4jnsgd1na2vs0mg"},{"bike_id":"cecabe0c-0acf-4a9f-9c32-2383929af969","system_id":"levelo_inurba_marseille","lat":43.26567,"lon":5.39014,"is_reserved":false,"is_disabled":true,"rental_uris":{"android":"levelo://app?vid=cecabe0c-0acf-4a9f-9c32-2383929af969","ios":"levelo://app?vid=cecabe0c-0acf-4a9f-9c32-2383929af969"},"vehicle_type_id":"4","last_reported":1743088273,"current_range_meters":0,"station_id":"ce4bhe12rcd13ifvqf30","pricing_plan_id":"cebpf4jnsgd1na2vs0mg"},{"bike_id":"344dc650-2590-49c8-ae2c-01a0a8d1e79d","system_id":"levelo_inurba_marseille","lat":43.24646,"lon":5.38888,"is_reserved":false,"is_disabled":true,"rental_uris":{"android":"levelo://app?vid=344dc650-2590-49c8-ae2c-01a0a8d1e79d","ios":"levelo://app?vid=344dc650-2590-49c8-ae2c-01a0a8d1e79d"},"vehicle_type_id":"4","last_reported":1743088273,"current_range_meters":0,"station_id":"ce4bhg12rcd13ifvqf60","pricing_plan_id":"cebpf4jnsgd1na2vs0mg"},{"bike_id":"0104b178-7537-4f95-89f9-8746db5b05fd","system_id":"levelo_inurba_marseille","lat":43.26232,"lon":5.40437,"is_reserved":false,"is_disabled":true,"rental_uris":{"android":"levelo://app?vid=0104b178-7537-4f95-89f9-8746db5b05fd","ios":"levelo://app?vid=0104b178-7537-4f95-89f9-8746db5b05fd"},"vehicle_type_id":"4","last_reported":1743088273,"current_range_meters":0,"station_id":"ce4bhmh2rcd13ifvqgmg","pricing_plan_id":"cebpf4jnsgd1na2vs0mg"},{"bike_id":"d1956415-f74a-4acb-b065-259517664373","system_id":"levelo_inurba_marseille","lat":43.2315,"lon":5.43713,"is_reserved":false,"is_disabled":true,"rental_uris":{"android":"levelo://app?vid=d1956415-f74a-4acb-b065-259517664373","ios":"levelo://app?vid=d1956415-f74a-4acb-b065-259517664373"},"vehicle_type_id":"4","last_reported":1743088273,"current_range_meters":0,"station_id":"ce4bhmp2rcd13ifvqgog","pricing_plan_id":"cebpf4jnsgd1na2vs0mg"},{"bike_id":"8c1357e0-9a6f-43fa-ab44-79de7de7967d","system_id":"levelo_inurba_marseille","lat":43.30415,"lon":5.41287,"is_reserved":false,"is_disabled":true,"rental_uris":{"android":"levelo://app?vid=8c1357e0-9a6f-43fa-ab44-79de7de7967d","ios":"levelo://app?vid=8c1357e0-9a6f-43fa-ab44-79de7de7967d"},"vehicle_type_id":"4","last_reported":1743088273,"current_range_meters":0,"station_id":"ce4bhop2rcd13ifvqh8g","pricing_plan_id":"cebpf4jnsgd1na2vs0mg"},{"bike_id":"f22dd984-23ed-4af6-b4bb-c3d5c828c367","system_id":"levelo_inurba_marseille","lat":43.32003,"lon":5.41552,"is_reserved":false,"is_disabled":true,"rental_uris":{"android":"levelo://app?vid=f22dd984-23ed-4af6-b4bb-c3d5c828c367","ios":"levelo://app?vid=f22dd984-23ed-4af6-b4bb-c3d5c828c367"},"vehicle_type_id":"4","last_reported":1743088273,"current_range_meters":0,"station_id":"ce4bhq92rcd13ifvqhkg","pricing_plan_id":"cebpf4jnsgd1na2vs0mg"},{"bike_id":"0a06b179-653d-46ba-89b6-12a05c97a494","system_id":"levelo_inurba_marseille","lat":43.237985,"lon":5.364085,"is_reserved":false,"is_disabled":true,"rental_uris":{"android":"levelo://app?vid=0a06b179-653d-46ba-89b6-12a05c97a494","ios":"levelo://app?vid=0a06b179-653d-46ba-89b6-12a05c97a494"},"vehicle_type_id":"4","last_reported":1743088273,"current_range_meters":0,"station_id":"cpo3532slgdg3j2ikp40","pricing_plan_id":"cebpf4jnsgd1na2vs0mg"},{"bike_id":"6de2ab79-f383-4609-ae1f-e0e25be966dd","system_id":"levelo_inurba_marseille","lat":43.3123,"lon":5.36862,"is_reserved":false,"is_disabled":true,"rental_uris":{"android":"levelo://app?vid=6de2ab79-f383-4609-ae1f-e0e25be966dd","ios":"levelo://app?vid=6de2ab79-f383-4609-ae1f-e0e25be966dd"},"vehicle_type_id":"4","last_reported":1743088273,"current_range_meters":400,"station_id":"ce4bgl92rcd13ifvqbq0","pricing_plan_id":"cebpf4jnsgd1na2vs0mg"},{"bike_id":"6f651fa8-8547-4350-ae21-c849b95d84e9","system_id":"levelo_inurba_marseille","lat":43.28414,"lon":5.37515,"is_reserved":false,"is_disabled":true,"rental_uris":{"android":"levelo://app?vid=6f651fa8-8547-4350-ae21-c849b95d84e9","ios":"levelo://app?vid=6f651fa8-8547-4350-ae21-c849b95d84e9"},"vehicle_type_id":"4","last_reported":1743088273,"current_range_meters":400,"station_id":"ce4bh412rcd13ifvqds0","pricing_plan_id":"cebpf4jnsgd1na2vs0mg"},{"bike_id":"6fbcd756-e552-4c51-a602-a554648886f3","system_id":"levelo_inurba_marseille","lat":43.28269,"lon":5.35063,"is_reserved":false,"is_disabled":true,"rental_uris":{"android":"levelo://app?vid=6fbcd756-e552-4c51-a602-a554648886f3","ios":"levelo://app?vid=6fbcd756-e552-4c51-a602-a554648886f3"},"vehicle_type_id":"4","last_reported":1743088273,"current_range_meters":400,"station_id":"ce4bhbp2rcd13ifvqerg","pricing_plan_id":"cebpf4jnsgd1na2vs0mg"},{"bike_id":"d4892c2d-aa8a-45b4-9061-43123ce5b36b","system_id":"levelo_inurba_marseille","lat":43.3138,"lon":5.36657,"is_reserved":false,"is_disabled":true,"rental_uris":{"android":"levelo://app?vid=d4892c2d-aa8a-45b4-9061-43123ce5b36b","ios":"levelo://app?vid=d4892c2d-aa8a-45b4-9061-43123ce5b36b"},"vehicle_type_id":"4","last_reported":1743088273,"current_range_meters":800,"station_id":"","pricing_plan_id":"cebpf4jnsgd1na2vs0mg"},{"bike_id":"1a2fd17b-23a1-4efd-a79f-f5bcd99988d3","system_id":"levelo_inurba_marseille","lat":43.312303,"lon":5.368467,"is_reserved":false,"is_disabled":true,"rental_uris":{"android":"levelo://app?vid=1a2fd17b-23a1-4efd-a79f-f5bcd99988d3","ios":"levelo://app?vid=1a2fd17b-23a1-4efd-a79f-f5bcd99988d3"},"vehicle_type_id":"4","last_reported":1743088273,"current_range_meters":800,"station_id":"ce4bgl92rcd13ifvqbq0","pricing_plan_id":"cebpf4jnsgd1na2vs0mg"},{"bike_id":"73bd6ec5-9ba9-4a80-b813-f9c4af534251","system_id":"levelo_inurba_marseille","lat":43.28663,"lon":5.36343,"is_reserved":false,"is_disabled":true,"rental_uris":{"android":"levelo://app?vid=73bd6ec5-9ba9-4a80-b813-f9c4af534251","ios":"levelo://app?vid=73bd6ec5-9ba9-4a80-b813-f9c4af534251"},"vehicle_type_id":"4","last_reported":1743088273,"current_range_meters":800,"station_id":"ce4bhah2rcd13ifvqej0","pricing_plan_id":"cebpf4jnsgd1na2vs0mg"},{"bike_id":"3b43cb3d-1d3b-4bf3-bf7b-d9b382e83384","system_id":"levelo_inurba_marseille","lat":43.273819,"lon":5.362543,"is_reserved":false,"is_disabled":true,"rental_uris":{"android":"levelo://app?vid=3b43cb3d-1d3b-4bf3-bf7b-d9b382e83384","ios":"levelo://app?vid=3b43cb3d-1d3b-4bf3-bf7b-d9b382e83384"},"vehicle_type_id":"4","last_reported":1743088273,"current_range_meters":800,"station_id":"ce4bhbh2rcd13ifvqeo0","pricing_plan_id":"cebpf4jnsgd1na2vs0mg"},{"bike_id":"230e269e-4dd5-438f-bb4a-6a88cb3fe32b","system_id":"levelo_inurba_marseille","lat":43.27373,"lon":5.36262,"is_reserved":false,"is_disabled":true,"rental_uris":{"android":"levelo://app?vid=230e269e-4dd5-438f-bb4a-6a88cb3fe32b","ios":"levelo://app?vid=230e269e-4dd5-438f-bb4a-6a88cb3fe32b"},"vehicle_type_id":"4","last_reported":1743088273,"current_range_meters":800,"station_id":"ce4bhbh2rcd13ifvqeo0","pricing_plan_id":"cebpf4jnsgd1na2vs0mg"},{"bike_id":"ec0a1053-3f90-42d9-9b0e-7af1b2dc034b","system_id":"levelo_inurba_marseille","lat":43.29298,"lon":5.37205,"is_reserved":false,"is_disabled":true,"rental_uris":{"android":"levelo://app?vid=ec0a1053-3f90-42d9-9b0e-7af1b2dc034b","ios":"levelo://app?vid=ec0a1053-3f90-42d9-9b0e-7af1b2dc034b"},"vehicle_type_id":"4","last_reported":1743088273,"current_range_meters":1200,"station_id":"ce4bgh92rcd13ifvqb40","pricing_plan_id":"cebpf4jnsgd1na2vs0mg"},{"bike_id":"5fa2a9a2-6abe-4faa-859a-b4b4761bb554","system_id":"levelo_inurba_marseille","lat":43.29799,"lon":5.38087,"is_reserved":false,"is_disabled":true,"rental_uris":{"android":"levelo://app?vid=5fa2a9a2-6abe-4faa-859a-b4b4761bb554","ios":"levelo://app?vid=5fa2a9a2-6abe-4faa-859a-b4b4761bb554"},"vehicle_type_id":"4","last_reported":1743088273,"current_range_meters":1200,"station_id":"ce4bgip2rcd13ifvqbb0","pricing_plan_id":"cebpf4jnsgd1na2vs0mg"},{"bike_id":"538dba27-d9b2-4aa9-a6db-3914f0896dce","system_id":"levelo_inurba_marseille","lat":43.27374,"lon":5.3625,"is_reserved":false,"is_disabled":true,"rental_uris":{"android":"levelo://app?vid=538dba27-d9b2-4aa9-a6db-3914f0896dce","ios":"levelo://app?vid=538dba27-d9b2-4aa9-a6db-3914f0896dce"},"vehicle_type_id":"4","last_reported":1743088273,"current_range_meters":1200,"station_id":"ce4bhbh2rcd13ifvqeo0","pricing_plan_id":"cebpf4jnsgd1na2vs0mg"},{"bike_id":"0870ad05-7fd4-4886-bb95-9e8770548364","system_id":"levelo_inurba_marseille","lat":43.28418,"lon":5.34982,"is_reserved":false,"is_disabled":true,"rental_uris":{"android":"levelo://app?vid=0870ad05-7fd4-4886-bb95-9e8770548364","ios":"levelo://app?vid=0870ad05-7fd4-4886-bb95-9e8770548364"},"vehicle_type_id":"4","last_reported":1743088273,"current_range_meters":1200,"station_id":"ce4bhbh2rcd13ifvqepg","pricing_plan_id":"cebpf4jnsgd1na2vs0mg"},{"bike_id":"7a94b8ac-5bc9-4787-9102-db94f5049fc3","system_id":"levelo_inurba_marseille","lat":43.28417,"lon":5.34979,"is_reserved":false,"is_disabled":true,"rental_uris":{"android":"levelo://app?vid=7a94b8ac-5bc9-4787-9102-db94f5049fc3","ios":"levelo://app?vid=7a94b8ac-5bc9-4787-9102-db94f5049fc3"},"vehicle_type_id":"4","last_reported":1743088273,"current_range_meters":1200,"station_id":"ce4bhbh2rcd13ifvqepg","pricing_plan_id":"cebpf4jnsgd1na2vs0mg"},{"bike_id":"340ad8e7-ba6f-4b42-a215-08f71a144d5a","system_id":"levelo_inurba_marseille","lat":43.2306,"lon":5.35492,"is_reserved":false,"is_disabled":true,"rental_uris":{"android":"levelo://app?vid=340ad8e7-ba6f-4b42-a215-08f71a144d5a","ios":"levelo://app?vid=340ad8e7-ba6f-4b42-a215-08f71a144d5a"},"vehicle_type_id":"4","last_reported":1743088273,"current_range_meters":1200,"station_id":"cpo3342slgdg3j2ifvpg","pricing_plan_id":"cebpf4jnsgd1na2vs0mg"},{"bike_id":"91ee6756-0904-4104-b81e-171e416208bf","system_id":"levelo_inurba_marseille","lat":43.301457,"lon":5.380825,"is_reserved":false,"is_disabled":true,"rental_uris":{"android":"levelo://app?vid=91ee6756-0904-4104-b81e-171e416208bf","ios":"levelo://app?vid=91ee6756-0904-4104-b81e-171e416208bf"},"vehicle_type_id":"4","last_reported":1743088273,"current_range_meters":1600,"station_id":"ce4bh012rcd13ifvqd10","pricing_plan_id":"cebpf4jnsgd1na2vs0mg"},{"bike_id":"fac5f8c2-9f2e-45eb-9a3a-abac1eee71f9","system_id":"levelo_inurba_marseille","lat":43.28492,"lon":5.38417,"is_reserved":false,"is_disabled":true,"rental_uris":{"android":"levelo://app?vid=fac5f8c2-9f2e-45eb-9a3a-abac1eee71f9","ios":"levelo://app?vid=fac5f8c2-9f2e-45eb-9a3a-abac1eee71f9"},"vehicle_type_id":"4","last_reported":1743088273,"current_range_meters":1600,"station_id":"ce4bh512rcd13ifvqe3g","pricing_plan_id":"cebpf4jnsgd1na2vs0mg"},{"bike_id":"f5eb2fce-e711-4213-ac77-33558f41bda3","system_id":"levelo_inurba_marseille","lat":43.29253,"lon":5.38448,"is_reserved":false,"is_disabled":true,"rental_uris":{"android":"levelo://app?vid=f5eb2fce-e711-4213-ac77-33558f41bda3","ios":"levelo://app?vid=f5eb2fce-e711-4213-ac77-33558f41bda3"},"vehicle_type_id":"4","last_reported":1743088273,"current_range_meters":1600,"station_id":"ce4bh692rcd13ifvqea0","pricing_plan_id":"cebpf4jnsgd1na2vs0mg"},{"bike_id":"c9a56c95-6a50-49d8-b152-43fa992d169a","system_id":"levelo_inurba_marseille","lat":43.28714,"lon":5.37933,"is_reserved":false,"is_disabled":true,"rental_uris":{"android":"levelo://app?vid=c9a56c95-6a50-49d8-b152-43fa992d169a","ios":"levelo://app?vid=c9a56c95-6a50-49d8-b152-43fa992d169a"},"vehicle_type_id":"4","last_reported":1743088273,"current_range_meters":1600,"station_id":"ce4bh9p2rcd13ifvqec0","pricing_plan_id":"cebpf4jnsgd1na2vs0mg"},{"bike_id":"667d8222-7f63-4d78-a1e6-1ac79e4fff9f","system_id":"levelo_inurba_marseille","lat":43.28272,"lon":5.35062,"is_reserved":false,"is_disabled":true,"rental_uris":{"android":"levelo://app?vid=667d8222-7f63-4d78-a1e6-1ac79e4fff9f","ios":"levelo://app?vid=667d8222-7f63-4d78-a1e6-1ac79e4fff9f"},"vehicle_type_id":"4","last_reported":1743088273,"current_range_meters":1600,"station_id":"ce4bhbp2rcd13ifvqerg","pricing_plan_id":"cebpf4jnsgd1na2vs0mg"},{"bike_id":"c8a6f4be-c35e-43af-a6fd-f9220f47ac55","system_id":"levelo_inurba_marseille","lat":43.274222,"lon":5.390537,"is_reserved":false,"is_disabled":true,"rental_uris":{"android":"levelo://app?vid=c8a6f4be-c35e-43af-a6fd-f9220f47ac55","ios":"levelo://app?vid=c8a6f4be-c35e-43af-a6fd-f9220f47ac55"},"vehicle_type_id":"4","last_reported":1743088273,"current_range_meters":2000,"station_id":"ce4bh292rcd13ifvqdg0","pricing_plan_id":"cebpf4jnsgd1na2vs0mg"},{"bike_id":"ba4ff231-913d-4659-9502-faef741eb26a","system_id":"levelo_inurba_marseille","lat":43.28616,"lon":5.3511,"is_reserved":false,"is_disabled":true,"rental_uris":{"android":"levelo://app?vid=ba4ff231-913d-4659-9502-faef741eb26a","ios":"levelo://app?vid=ba4ff231-913d-4659-9502-faef741eb26a"},"vehicle_type_id":"4","last_reported":1743088273,"current_range_meters":2000,"station_id":"ce4bhch2rcd13ifvqeug","pricing_plan_id":"cebpf4jnsgd1na2vs0mg"},{"bike_id":"7cbb83a2-1c7c-47bd-87b1-f6dce11eb405","system_id":"levelo_inurba_marseille","lat":43.24181,"lon":5.39697,"is_reserved":false,"is_disabled":true,"rental_uris":{"android":"levelo://app?vid=7cbb83a2-1c7c-47bd-87b1-f6dce11eb405","ios":"levelo://app?vid=7cbb83a2-1c7c-47bd-87b1-f6dce11eb405"},"vehicle_type_id":"4","last_reported":1743088273,"current_range_meters":2000,"station_id":"ce4bhn12rcd13ifvqgpg","pricing_plan_id":"cebpf4jnsgd1na2vs0mg"},{"bike_id":"2916f715-e580-4e09-b013-94950a0a7726","system_id":"levelo_inurba_marseille","lat":43.29193,"lon":5.39312,"is_reserved":false,"is_disabled":false,"rental_uris":{"android":"levelo://app?vid=2916f715-e580-4e09-b013-94950a0a7726","ios":"levelo://app?vid=2916f715-e580-4e09-b013-94950a0a7726"},"vehicle_type_id":"4","last_reported":1743088273,"current_range_meters":2800,"station_id":"ce4bh192rcd13ifvqdd0","pricing_plan_id":"cebpf4jnsgd1na2vs0mg"},{"bike_id":"88383288-f07c-4640-95a3-2e142ba36b3e","system_id":"levelo_inurba_marseille","lat":43.24074,"lon":5.37757,"is_reserved":false,"is_disabled":false,"rental_uris":{"android":"levelo://app?vid=88383288-f07c-4640-95a3-2e142ba36b3e","ios":"levelo://app?vid=88383288-f07c-4640-95a3-2e142ba36b3e"},"vehicle_type_id":"4","last_reported":1743088273,"current_range_meters":2800,"station_id":"ce4bhnp2rcd13ifvqgvg","pricing_plan_id":"cebpf4jnsgd1na2vs0mg"},{"bike_id":"39132323-c731-49ab-98e3-c68cfd77b0de","system_id":"levelo_inurba_marseille","lat":43.26422,"lon":5.40425,"is_reserved":false,"is_disabled":false,"rental_uris":{"android":"levelo://app?vid=39132323-c731-49ab-98e3-c68cfd77b0de","ios":"levelo://app?vid=39132323-c731-49ab-98e3-c68cfd77b0de"},"vehicle_type_id":"4","last_reported":1743088273,"current_range_meters":3200,"station_id":"","pricing_plan_id":"cebpf4jnsgd1na2vs0mg"},{"bike_id":"99183fcf-a667-47d0-a6be-1ec844550354","system_id":"levelo_inurba_marseille","lat":43.29897,"lon":5.39739,"is_reserved":false,"is_disabled":false,"rental_uris":{"android":"levelo://app?vid=99183fcf-a667-47d0-a6be-1ec844550354","ios":"levelo://app?vid=99183fcf-a667-47d0-a6be-1ec844550354"},"vehicle_type_id":"4","last_reported":1743088273,"current_range_meters":3200,"station_id":"ce4bh0h2rcd13ifvqd50","pricing_plan_id":"cebpf4jnsgd1na2vs0mg"},{"bike_id":"59400d18-1530-44d9-b44f-ce10ae78708b","system_id":"levelo_inurba_marseille","lat":43.28932,"lon":5.38445,"is_reserved":false,"is_disabled":false,"rental_uris":{"android":"levelo://app?vid=59400d18-1530-44d9-b44f-ce10ae78708b","ios":"levelo://app?vid=59400d18-1530-44d9-b44f-ce10ae78708b"},"vehicle_type_id":"4","last_reported":1743088273,"current_range_meters":3200,"station_id":"ce4bh612rcd13ifvqe6g","pricing_plan_id":"cebpf4jnsgd1na2vs0mg"},{"bike_id":"7f9d372a-e6f4-41de-bfd4-626023e27690","system_id":"levelo_inurba_marseille","lat":43.28178,"lon":5.44266,"is_reserved":false,"is_disabled":false,"rental_uris":{"android":"levelo://app?vid=7f9d372a-e6f4-41de-bfd4-626023e27690","ios":"levelo://app?vid=7f9d372a-e6f4-41de-bfd4-626023e27690"},"vehicle_type_id":"4","last_reported":1743088273,"current_range_meters":3600,"station_id":"","pricing_plan_id":"cebpf4jnsgd1na2vs0mg"},{"bike_id":"71019948-d0a0-499b-a72a-6c18ba81a079","system_id":"levelo_inurba_marseille","lat":43.295681,"lon":5.375236,"is_reserved":false,"is_disabled":false,"rental_uris":{"android":"levelo://app?vid=71019948-d0a0-499b-a72a-6c18ba81a079","ios":"levelo://app?vid=71019948-d0a0-499b-a72a-6c18ba81a079"},"vehicle_type_id":"4","last_reported":1743088273,"current_range_meters":3600,"station_id":"ce4bguh2rcd13ifvqckg","pricing_plan_id":"cebpf4jnsgd1na2vs0mg"},{"bike_id":"95c96f78-7a13-4877-b261-67fd6918fad7","system_id":"levelo_inurba_marseille","lat":43.32364,"lon":5.3887,"is_reserved":false,"is_disabled":false,"rental_uris":{"android":"levelo://app?vid=95c96f78-7a13-4877-b261-67fd6918fad7","ios":"levelo://app?vid=95c96f78-7a13-4877-b261-67fd6918fad7"},"vehicle_type_id":"4","last_reported":1743088273,"current_range_meters":3600,"station_id":"ce4bhqp2rcd13ifvqhog","pricing_plan_id":"cebpf4jnsgd1na2vs0mg"},{"bike_id":"d6acaf4b-01e5-445c-b790-85d838d986ee","system_id":"levelo_inurba_marseille","lat":43.31325,"lon":5.39688,"is_reserved":false,"is_disabled":false,"rental_uris":{"android":"levelo://app?vid=d6acaf4b-01e5-445c-b790-85d838d986ee","ios":"levelo://app?vid=d6acaf4b-01e5-445c-b790-85d838d986ee"},"vehicle_type_id":"4","last_reported":1743088273,"current_range_meters":4000,"station_id":"ce4bgvp2rcd13ifvqcu0","pricing_plan_id":"cebpf4jnsgd1na2vs0mg"},{"bike_id":"606747c7-c0cc-427c-a36c-6c9a839e0bc4","system_id":"levelo_inurba_marseille","lat":43.29193,"lon":5.39321,"is_reserved":false,"is_disabled":false,"rental_uris":{"android":"levelo://app?vid=606747c7-c0cc-427c-a36c-6c9a839e0bc4","ios":"levelo://app?vid=606747c7-c0cc-427c-a36c-6c9a839e0bc4"},"vehicle_type_id":"4","last_reported":1743088273,"current_range_meters":4000,"station_id":"ce4bh192rcd13ifvqdd0","pricing_plan_id":"cebpf4jnsgd1na2vs0mg"},{"bike_id":"03b836a2-30c9-4d97-84ce-cae6504c3c84","system_id":"levelo_inurba_marseille","lat":43.32117,"lon":5.36751,"is_reserved":false,"is_disabled":false,"rental_uris":{"android":"levelo://app?vid=03b836a2-30c9-4d97-84ce-cae6504c3c84","ios":"levelo://app?vid=03b836a2-30c9-4d97-84ce-cae6504c3c84"},"vehicle_type_id":"4","last_reported":1743088273,"current_range_meters":4000,"station_id":"ce4bhrh2rcd13ifvqhug","pricing_plan_id":"cebpf4jnsgd1na2vs0mg"},{"bike_id":"76c2f6b8-7855-4dab-86db-fcf2955883a2","system_id":"levelo_inurba_marseille","lat":43.31235,"lon":5.3686,"is_reserved":false,"is_disabled":false,"rental_uris":{"android":"levelo://app?vid=76c2f6b8-7855-4dab-86db-fcf2955883a2","ios":"levelo://app?vid=76c2f6b8-7855-4dab-86db-fcf2955883a2"},"vehicle_type_id":"4","last_reported":1743088273,"current_range_meters":4400,"station_id":"ce4bgl92rcd13ifvqbq0","pricing_plan_id":"cebpf4jnsgd1na2vs0mg"},{"bike_id":"93a21cb3-86c8-4ba8-8b48-2ebf1a83069c","system_id":"levelo_inurba_marseille","lat":43.30211,"lon":5.39477,"is_reserved":false,"is_disabled":false,"rental_uris":{"android":"levelo://app?vid=93a21cb3-86c8-4ba8-8b48-2ebf1a83069c","ios":"levelo://app?vid=93a21cb3-86c8-4ba8-8b48-2ebf1a83069c"},"vehicle_type_id":"4","last_reported":1743088273,"current_range_meters":4400,"station_id":"ce4bh0p2rcd13ifvqd70","pricing_plan_id":"cebpf4jnsgd1na2vs0mg"},{"bike_id":"f9b3f9cc-3a85-46ce-ac0c-dab45521238a","system_id":"levelo_inurba_marseille","lat":43.28852,"lon":5.39301,"is_reserved":false,"is_disabled":false,"rental_uris":{"android":"levelo://app?vid=f9b3f9cc-3a85-46ce-ac0c-dab45521238a","ios":"levelo://app?vid=f9b3f9cc-3a85-46ce-ac0c-dab45521238a"},"vehicle_type_id":"4","last_reported":1743088273,"current_range_meters":4400,"station_id":"ce4bh2p2rcd13ifvqdi0","pricing_plan_id":"cebpf4jnsgd1na2vs0mg"},{"bike_id":"10fa830b-4160-47e6-ae24-505e942e53b0","system_id":"levelo_inurba_marseille","lat":43.288405,"lon":5.382164,"is_reserved":false,"is_disabled":false,"rental_uris":{"android":"levelo://app?vid=10fa830b-4160-47e6-ae24-505e942e53b0","ios":"levelo://app?vid=10fa830b-4160-47e6-ae24-505e942e53b0"},"vehicle_type_id":"4","last_reported":1743088273,"current_range_meters":4400,"station_id":"ce4bhgp2rcd13ifvqfe0","pricing_plan_id":"cebpf4jnsgd1na2vs0mg"},{"bike_id":"5aed16b5-1469-48e7-8406-522a4e5aaff9","system_id":"levelo_inurba_marseille","lat":43.24657,"lon":5.38184,"is_reserved":false,"is_disabled":false,"rental_uris":{"android":"levelo://app?vid=5aed16b5-1469-48e7-8406-522a4e5aaff9","ios":"levelo://app?vid=5aed16b5-1469-48e7-8406-522a4e5aaff9"},"vehicle_type_id":"4","last_reported":1743088273,"current_range_meters":4400,"station_id":"ce4bhih2rcd13ifvqfr0","pricing_plan_id":"cebpf4jnsgd1na2vs0mg"},{"bike_id":"3f736ef3-5eb0-4ce0-8b89-66e0457d2771","system_id":"levelo_inurba_marseille","lat":43.23196,"lon":5.39974,"is_reserved":false,"is_disabled":false,"rental_uris":{"android":"levelo://app?vid=3f736ef3-5eb0-4ce0-8b89-66e0457d2771","ios":"levelo://app?vid=3f736ef3-5eb0-4ce0-8b89-66e0457d2771"},"vehicle_type_id":"4","last_reported":1743088273,"current_range_meters":4400,"station_id":"ce4bhn12rcd13ifvqgqg","pricing_plan_id":"cebpf4jnsgd1na2vs0mg"},{"bike_id":"1e0b2636-48a1-4292-92c0-73b807651a12","system_id":"levelo_inurba_marseille","lat":43.289703,"lon":5.37838,"is_reserved":false,"is_disabled":false,"rental_uris":{"android":"levelo://app?vid=1e0b2636-48a1-4292-92c0-73b807651a12","ios":"levelo://app?vid=1e0b2636-48a1-4292-92c0-73b807651a12"},"vehicle_type_id":"4","last_reported":1743088273,"current_range_meters":4800,"station_id":"ce4bgip2rcd13ifvqbb0","pricing_plan_id":"cebpf4jnsgd1na2vs0mg"},{"bike_id":"a91d1271-084b-43f9-8a4f-a8178dd8db23","system_id":"levelo_inurba_marseille","lat":43.30535,"lon":5.36543,"is_reserved":false,"is_disabled":false,"rental_uris":{"android":"levelo://app?vid=a91d1271-084b-43f9-8a4f-a8178dd8db23","ios":"levelo://app?vid=a91d1271-084b-43f9-8a4f-a8178dd8db23"},"vehicle_type_id":"4","last_reported":1743088273,"current_range_meters":4800,"station_id":"ce4bgs12rcd13ifvqcag","pricing_plan_id":"cebpf4jnsgd1na2vs0mg"},{"bike_id":"c686812a-ff3a-4108-bdac-0f99e8e8531a","system_id":"levelo_inurba_marseille","lat":43.29525,"lon":5.39024,"is_reserved":false,"is_disabled":false,"rental_uris":{"android":"levelo://app?vid=c686812a-ff3a-4108-bdac-0f99e8e8531a","ios":"levelo://app?vid=c686812a-ff3a-4108-bdac-0f99e8e8531a"},"vehicle_type_id":"4","last_reported":1743088273,"current_range_meters":4800,"station_id":"ce4bh3p2rcd13ifvqdp0","pricing_plan_id":"cebpf4jnsgd1na2vs0mg"},{"bike_id":"451e3861-7626-42cf-aced-cfa3b306c9c3","system_id":"levelo_inurba_marseille","lat":43.30608,"lon":5.37226,"is_reserved":false,"is_disabled":false,"rental_uris":{"android":"levelo://app?vid=451e3861-7626-42cf-aced-cfa3b306c9c3","ios":"levelo://app?vid=451e3861-7626-42cf-aced-cfa3b306c9c3"},"vehicle_type_id":"4","last_reported":1743088273,"current_range_meters":5600,"station_id":"ce4bgqh2rcd13ifvqc4g","pricing_plan_id":"cebpf4jnsgd1na2vs0mg"},{"bike_id":"c99b2d99-f64f-4599-8c62-13b1db3fa734","system_id":"levelo_inurba_marseille","lat":43.30212,"lon":5.39475,"is_reserved":false,"is_disabled":false,"rental_uris":{"android":"levelo://app?vid=c99b2d99-f64f-4599-8c62-13b1db3fa734","ios":"levelo://app?vid=c99b2d99-f64f-4599-8c62-13b1db3fa734"},"vehicle_type_id":"4","last_reported":1743088273,"current_range_meters":5600,"station_id":"ce4bh0p2rcd13ifvqd70","pricing_plan_id":"cebpf4jnsgd1na2vs0mg"},{"bike_id":"90ed0278-e199-4f33-b631-bb6c03ab539d","system_id":"levelo_inurba_marseille","lat":43.27913,"lon":5.38026,"is_reserved":false,"is_disabled":false,"rental_uris":{"android":"levelo://app?vid=90ed0278-e199-4f33-b631-bb6c03ab539d","ios":"levelo://app?vid=90ed0278-e199-4f33-b631-bb6c03ab539d"},"vehicle_type_id":"4","last_reported":1743088273,"current_range_meters":5600,"station_id":"ce4bhf92rcd13ifvqf50","pricing_plan_id":"cebpf4jnsgd1na2vs0mg"},{"bike_id":"8a9602e7-e6f2-4dac-845f-cea224e49dd5","system_id":"levelo_inurba_marseille","lat":43.23061,"lon":5.35499,"is_reserved":false,"is_disabled":false,"rental_uris":{"android":"levelo://app?vid=8a9602e7-e6f2-4dac-845f-cea224e49dd5","ios":"levelo://app?vid=8a9602e7-e6f2-4dac-845f-cea224e49dd5"},"vehicle_type_id":"4","last_reported":1743088273,"current_range_meters":5600,"station_id":"cpo3342slgdg3j2ifvpg","pricing_plan_id":"cebpf4jnsgd1na2vs0mg"},{"bike_id":"3440ae68-e205-42cf-8956-9a783c13588d","system_id":"levelo_inurba_marseille","lat":43.23063,"lon":5.35496,"is_reserved":false,"is_disabled":false,"rental_uris":{"android":"levelo://app?vid=3440ae68-e205-42cf-8956-9a783c13588d","ios":"levelo://app?vid=3440ae68-e205-42cf-8956-9a783c13588d"},"vehicle_type_id":"4","last_reported":1743088273,"current_range_meters":5600,"station_id":"cpo3342slgdg3j2ifvpg","pricing_plan_id":"cebpf4jnsgd1na2vs0mg"},{"bike_id":"01e10ef2-e58b-4f2e-b19e-b21333982dec","system_id":"levelo_inurba_marseille","lat":43.29009,"lon":5.35617,"is_reserved":false,"is_disabled":false,"rental_uris":{"android":"levelo://app?vid=01e10ef2-e58b-4f2e-b19e-b21333982dec","ios":"levelo://app?vid=01e10ef2-e58b-4f2e-b19e-b21333982dec"},"vehicle_type_id":"4","last_reported":1743088273,"current_range_meters":6000,"station_id":"ce4bhb92rcd13ifvqen0","pricing_plan_id":"cebpf4jnsgd1na2vs0mg"},{"bike_id":"930f862f-9c5f-4824-8ada-97b275b6c95b","system_id":"levelo_inurba_marseille","lat":43.246307,"lon":5.39494,"is_reserved":false,"is_disabled":false,"rental_uris":{"android":"levelo://app?vid=930f862f-9c5f-4824-8ada-97b275b6c95b","ios":"levelo://app?vid=930f862f-9c5f-4824-8ada-97b275b6c95b"},"vehicle_type_id":"4","last_reported":1743088273,"current_range_meters":6000,"station_id":"ce4bhbh2rcd13ifvqeo0","pricing_plan_id":"cebpf4jnsgd1na2vs0mg"},{"bike_id":"e132ca0c-d643-461a-ad03-6796919c61e5","system_id":"levelo_inurba_marseille","lat":43.28421,"lon":5.3498,"is_reserved":false,"is_disabled":false,"rental_uris":{"android":"levelo://app?vid=e132ca0c-d643-461a-ad03-6796919c61e5","ios":"levelo://app?vid=e132ca0c-d643-461a-ad03-6796919c61e5"},"vehicle_type_id":"4","last_reported":1743088273,"current_range_meters":6000,"station_id":"ce4bhbh2rcd13ifvqepg","pricing_plan_id":"cebpf4jnsgd1na2vs0mg"},{"bike_id":"1dfd77f5-269e-4955-87ea-0fe34058894c","system_id":"levelo_inurba_marseille","lat":43.25495,"lon":5.37653,"is_reserved":false,"is_disabled":false,"rental_uris":{"android":"levelo://app?vid=1dfd77f5-269e-4955-87ea-0fe34058894c","ios":"levelo://app?vid=1dfd77f5-269e-4955-87ea-0fe34058894c"},"vehicle_type_id":"4","last_reported":1743088273,"current_range_meters":6000,"station_id":"ce4bhh12rcd13ifvqff0","pricing_plan_id":"cebpf4jnsgd1na2vs0mg"},{"bike_id":"1dd765a9-64b4-439c-a196-df55419cc971","system_id":"levelo_inurba_marseille","lat":43.24169,"lon":5.364,"is_reserved":false,"is_disabled":false,"rental_uris":{"android":"levelo://app?vid=1dd765a9-64b4-439c-a196-df55419cc971","ios":"levelo://app?vid=1dd765a9-64b4-439c-a196-df55419cc971"},"vehicle_type_id":"4","last_reported":1743088273,"current_range_meters":6000,"station_id":"cpo36qri1sfpv3e86is0","pricing_plan_id":"cebpf4jnsgd1na2vs0mg"},{"bike_id":"693dda60-4779-48b9-b750-16467e1d0b53","system_id":"levelo_inurba_marseille","lat":43.3125,"lon":5.36853,"is_reserved":false,"is_disabled":false,"rental_uris":{"android":"levelo://app?vid=693dda60-4779-48b9-b750-16467e1d0b53","ios":"levelo://app?vid=693dda60-4779-48b9-b750-16467e1d0b53"},"vehicle_type_id":"4","last_reported":1743088273,"current_range_meters":6400,"station_id":"ce4bgl92rcd13ifvqbq0","pricing_plan_id":"cebpf4jnsgd1na2vs0mg"},{"bike_id":"850d80ed-1bf3-4ec2-88f3-bc2d8adecf59","system_id":"levelo_inurba_marseille","lat":43.31215,"lon":5.36872,"is_reserved":false,"is_disabled":false,"rental_uris":{"android":"levelo://app?vid=850d80ed-1bf3-4ec2-88f3-bc2d8adecf59","ios":"levelo://app?vid=850d80ed-1bf3-4ec2-88f3-bc2d8adecf59"},"vehicle_type_id":"4","last_reported":1743088273,"current_range_meters":6400,"station_id":"ce4bgl92rcd13ifvqbq0","pricing_plan_id":"cebpf4jnsgd1na2vs0mg"},{"bike_id":"bcad4280-6d71-4d18-a452-ac04b99fb991","system_id":"levelo_inurba_marseille","lat":43.31356,"lon":5.367093,"is_reserved":false,"is_disabled":false,"rental_uris":{"android":"levelo://app?vid=bcad4280-6d71-4d18-a452-ac04b99fb991","ios":"levelo://app?vid=bcad4280-6d71-4d18-a452-ac04b99fb991"},"vehicle_type_id":"4","last_reported":1743088273,"current_range_meters":6400,"station_id":"ce4bgr92rcd13ifvqc6g","pricing_plan_id":"cebpf4jnsgd1na2vs0mg"},{"bike_id":"c39e0427-cdce-4a37-a4ba-590895e35962","system_id":"levelo_inurba_marseille","lat":43.30532,"lon":5.36538,"is_reserved":false,"is_disabled":false,"rental_uris":{"android":"levelo://app?vid=c39e0427-cdce-4a37-a4ba-590895e35962","ios":"levelo://app?vid=c39e0427-cdce-4a37-a4ba-590895e35962"},"vehicle_type_id":"4","last_reported":1743088273,"current_range_meters":6400,"station_id":"ce4bgs12rcd13ifvqcag","pricing_plan_id":"cebpf4jnsgd1na2vs0mg"},{"bike_id":"e71d2e9d-b616-43e2-bd9f-8937d1fb2e35","system_id":"levelo_inurba_marseille","lat":43.30123,"lon":5.39872,"is_reserved":false,"is_disabled":false,"rental_uris":{"android":"levelo://app?vid=e71d2e9d-b616-43e2-bd9f-8937d1fb2e35","ios":"levelo://app?vid=e71d2e9d-b616-43e2-bd9f-8937d1fb2e35"},"vehicle_type_id":"4","last_reported":1743088273,"current_range_meters":6400,"station_id":"ce4bh0h2rcd13ifvqd40","pricing_plan_id":"cebpf4jnsgd1na2vs0mg"},{"bike_id":"bfad0b9d-7efc-4601-8527-6bc072e528af","system_id":"levelo_inurba_marseille","lat":43.29026,"lon":5.38653,"is_reserved":false,"is_disabled":false,"rental_uris":{"android":"levelo://app?vid=bfad0b9d-7efc-4601-8527-6bc072e528af","ios":"levelo://app?vid=bfad0b9d-7efc-4601-8527-6bc072e528af"},"vehicle_type_id":"4","last_reported":1743088273,"current_range_meters":6400,"station_id":"ce4bh4p2rcd13ifvqe0g","pricing_plan_id":"cebpf4jnsgd1na2vs0mg"},{"bike_id":"f2704b9c-c316-4f5f-9155-65f7581186ce","system_id":"levelo_inurba_marseille","lat":43.28035,"lon":5.369414,"is_reserved":false,"is_disabled":false,"rental_uris":{"android":"levelo://app?vid=f2704b9c-c316-4f5f-9155-65f7581186ce","ios":"levelo://app?vid=f2704b9c-c316-4f5f-9155-65f7581186ce"},"vehicle_type_id":"4","last_reported":1743088273,"current_range_meters":6400,"station_id":"ce4bha12rcd13ifvqef0","pricing_plan_id":"cebpf4jnsgd1na2vs0mg"},{"bike_id":"6623bcce-557f-4122-835c-6ecbd0c74040","system_id":"levelo_inurba_marseille","lat":43.28459,"lon":5.3588,"is_reserved":false,"is_disabled":false,"rental_uris":{"android":"levelo://app?vid=6623bcce-557f-4122-835c-6ecbd0c74040","ios":"levelo://app?vid=6623bcce-557f-4122-835c-6ecbd0c74040"},"vehicle_type_id":"4","last_reported":1743088273,"current_range_meters":6400,"station_id":"ce4bhah2rcd13ifvqei0","pricing_plan_id":"cebpf4jnsgd1na2vs0mg"},{"bike_id":"3d7bca97-4334-4ba0-9451-0a09e0997845","system_id":"levelo_inurba_marseille","lat":43.23155,"lon":5.43709,"is_reserved":false,"is_disabled":false,"rental_uris":{"android":"levelo://app?vid=3d7bca97-4334-4ba0-9451-0a09e0997845","ios":"levelo://app?vid=3d7bca97-4334-4ba0-9451-0a09e0997845"},"vehicle_type_id":"4","last_reported":1743088273,"current_range_meters":6400,"station_id":"ce4bhmp2rcd13ifvqgog","pricing_plan_id":"cebpf4jnsgd1na2vs0mg"},{"bike_id":"5b75e97d-1c53-46fd-8c44-1bb9fa96968d","system_id":"levelo_inurba_marseille","lat":43.2762,"lon":5.36108,"is_reserved":false,"is_disabled":false,"rental_uris":{"android":"levelo://app?vid=5b75e97d-1c53-46fd-8c44-1bb9fa96968d","ios":"levelo://app?vid=5b75e97d-1c53-46fd-8c44-1bb9fa96968d"},"vehicle_type_id":"4","last_reported":1743088273,"current_range_meters":6800,"station_id":"ce4bgj92rcd13ifvqbe0","pricing_plan_id":"cebpf4jnsgd1na2vs0mg"},{"bike_id":"de5e3783-2d96-4cd8-9070-a7b3c1586059","system_id":"levelo_inurba_marseille","lat":43.29037,"lon":5.3814,"is_reserved":false,"is_disabled":false,"rental_uris":{"android":"levelo://app?vid=de5e3783-2d96-4cd8-9070-a7b3c1586059","ios":"levelo://app?vid=de5e3783-2d96-4cd8-9070-a7b3c1586059"},"vehicle_type_id":"4","last_reported":1743088273,"current_range_meters":6800,"station_id":"ce4bh4p2rcd13ifvqe1g","pricing_plan_id":"cebpf4jnsgd1na2vs0mg"},{"bike_id":"e4da3e84-b2d2-487a-9e61-555ac0256fc0","system_id":"levelo_inurba_marseille","lat":43.2695,"lon":5.38642,"is_reserved":false,"is_disabled":false,"rental_uris":{"android":"levelo://app?vid=e4da3e84-b2d2-487a-9e61-555ac0256fc0","ios":"levelo://app?vid=e4da3e84-b2d2-487a-9e61-555ac0256fc0"},"vehicle_type_id":"4","last_reported":1743088273,"current_range_meters":6800,"station_id":"ce4bhh92rcd13ifvqfh0","pricing_plan_id":"cebpf4jnsgd1na2vs0mg"},{"bike_id":"df40a246-c9c6-4e06-9a9f-2f11d68479ec","system_id":"levelo_inurba_marseille","lat":43.27208,"lon":5.39184,"is_reserved":false,"is_disabled":false,"rental_uris":{"android":"levelo://app?vid=df40a246-c9c6-4e06-9a9f-2f11d68479ec","ios":"levelo://app?vid=df40a246-c9c6-4e06-9a9f-2f11d68479ec"},"vehicle_type_id":"4","last_reported":1743088273,"current_range_meters":6800,"station_id":"ce4bhhp2rcd13ifvqfm0","pricing_plan_id":"cebpf4jnsgd1na2vs0mg"},{"bike_id":"58664a09-ab76-4da6-af63-66c387019310","system_id":"levelo_inurba_marseille","lat":43.25931,"lon":5.40914,"is_reserved":false,"is_disabled":false,"rental_uris":{"android":"levelo://app?vid=58664a09-ab76-4da6-af63-66c387019310","ios":"levelo://app?vid=58664a09-ab76-4da6-af63-66c387019310"},"vehicle_type_id":"4","last_reported":1743088273,"current_range_meters":6800,"station_id":"ce4bhm92rcd13ifvqglg","pricing_plan_id":"cebpf4jnsgd1na2vs0mg"},{"bike_id":"f17bb7bb-4549-45a6-a8c5-a1760814a158","system_id":"levelo_inurba_marseille","lat":43.27819,"lon":5.40719,"is_reserved":false,"is_disabled":false,"rental_uris":{"android":"levelo://app?vid=f17bb7bb-4549-45a6-a8c5-a1760814a158","ios":"levelo://app?vid=f17bb7bb-4549-45a6-a8c5-a1760814a158"},"vehicle_type_id":"4","last_reported":1743088273,"current_range_meters":6800,"station_id":"ce4bhnh2rcd13ifvqgtg","pricing_plan_id":"cebpf4jnsgd1na2vs0mg"},{"bike_id":"8f4c6599-c57c-47f3-b859-da4512b39b4a","system_id":"levelo_inurba_marseille","lat":43.30516,"lon":5.36522,"is_reserved":false,"is_disabled":false,"rental_uris":{"android":"levelo://app?vid=8f4c6599-c57c-47f3-b859-da4512b39b4a","ios":"levelo://app?vid=8f4c6599-c57c-47f3-b859-da4512b39b4a"},"vehicle_type_id":"4","last_reported":1743088273,"current_range_meters":7200,"station_id":"","pricing_plan_id":"cebpf4jnsgd1na2vs0mg"},{"bike_id":"a6f21b89-c4f4-4985-b8ba-c0ce73386d09","system_id":"levelo_inurba_marseille","lat":43.30534,"lon":5.36701,"is_reserved":false,"is_disabled":false,"rental_uris":{"android":"levelo://app?vid=a6f21b89-c4f4-4985-b8ba-c0ce73386d09","ios":"levelo://app?vid=a6f21b89-c4f4-4985-b8ba-c0ce73386d09"},"vehicle_type_id":"4","last_reported":1743088273,"current_range_meters":7200,"station_id":"ce4bgrp2rcd13ifvqc9g","pricing_plan_id":"cebpf4jnsgd1na2vs0mg"},{"bike_id":"ff0ad903-af56-4f99-94aa-d1ce52367dda","system_id":"levelo_inurba_marseille","lat":43.28264,"lon":5.35057,"is_reserved":false,"is_disabled":false,"rental_uris":{"android":"levelo://app?vid=ff0ad903-af56-4f99-94aa-d1ce52367dda","ios":"levelo://app?vid=ff0ad903-af56-4f99-94aa-d1ce52367dda"},"vehicle_type_id":"4","last_reported":1743088273,"current_range_meters":7200,"station_id":"ce4bhbp2rcd13ifvqerg","pricing_plan_id":"cebpf4jnsgd1na2vs0mg"},{"bike_id":"9b0db4f1-c6a1-4ca7-86c5-ec1daffe0ea2","system_id":"levelo_inurba_marseille","lat":43.25083,"lon":5.39506,"is_reserved":false,"is_disabled":false,"rental_uris":{"android":"levelo://app?vid=9b0db4f1-c6a1-4ca7-86c5-ec1daffe0ea2","ios":"levelo://app?vid=9b0db4f1-c6a1-4ca7-86c5-ec1daffe0ea2"},"vehicle_type_id":"4","last_reported":1743088273,"current_range_meters":7200,"station_id":"ce4bhm12rcd13ifvqgkg","pricing_plan_id":"cebpf4jnsgd1na2vs0mg"},{"bike_id":"84a7a785-5392-42bc-8088-fb903bcc7f5c","system_id":"levelo_inurba_marseille","lat":43.23054,"lon":5.35491,"is_reserved":false,"is_disabled":false,"rental_uris":{"android":"levelo://app?vid=84a7a785-5392-42bc-8088-fb903bcc7f5c","ios":"levelo://app?vid=84a7a785-5392-42bc-8088-fb903bcc7f5c"},"vehicle_type_id":"4","last_reported":1743088273,"current_range_meters":7200,"station_id":"cpo3342slgdg3j2ifvpg","pricing_plan_id":"cebpf4jnsgd1na2vs0mg"},{"bike_id":"85d0fa0c-b5b9-41cd-ba43-951901672dab","system_id":"levelo_inurba_marseille","lat":43.25595,"lon":5.38982,"is_reserved":false,"is_disabled":false,"rental_uris":{"android":"levelo://app?vid=85d0fa0c-b5b9-41cd-ba43-951901672dab","ios":"levelo://app?vid=85d0fa0c-b5b9-41cd-ba43-951901672dab"},"vehicle_type_id":"4","last_reported":1743088273,"current_range_meters":8000,"station_id":"","pricing_plan_id":"cebpf4jnsgd1na2vs0mg"},{"bike_id":"dc8ccdc9-a018-4504-b0a9-676297905591","system_id":"levelo_inurba_marseille","lat":43.29283,"lon":5.3698,"is_reserved":false,"is_disabled":false,"rental_uris":{"android":"levelo://app?vid=dc8ccdc9-a018-4504-b0a9-676297905591","ios":"levelo://app?vid=dc8ccdc9-a018-4504-b0a9-676297905591"},"vehicle_type_id":"4","last_reported":1743088273,"current_range_meters":8000,"station_id":"","pricing_plan_id":"cebpf4jnsgd1na2vs0mg"},{"bike_id":"5028a8b8-9012-4212-9e64-e7392f0d5d5b","system_id":"levelo_inurba_marseille","lat":43.30923,"lon":5.36843,"is_reserved":false,"is_disabled":false,"rental_uris":{"android":"levelo://app?vid=5028a8b8-9012-4212-9e64-e7392f0d5d5b","ios":"levelo://app?vid=5028a8b8-9012-4212-9e64-e7392f0d5d5b"},"vehicle_type_id":"4","last_reported":1743088273,"current_range_meters":8000,"station_id":"ce4bgn92rcd13ifvqbvg","pricing_plan_id":"cebpf4jnsgd1na2vs0mg"},{"bike_id":"420caf47-dad2-451c-8438-68ae568eee92","system_id":"levelo_inurba_marseille","lat":43.313567,"lon":5.367184,"is_reserved":false,"is_disabled":false,"rental_uris":{"android":"levelo://app?vid=420caf47-dad2-451c-8438-68ae568eee92","ios":"levelo://app?vid=420caf47-dad2-451c-8438-68ae568eee92"},"vehicle_type_id":"4","last_reported":1743088273,"current_range_meters":8000,"station_id":"ce4bgr92rcd13ifvqc6g","pricing_plan_id":"cebpf4jnsgd1na2vs0mg"},{"bike_id":"8f7bc698-6a7c-4b22-8d1f-af168519ad55","system_id":"levelo_inurba_marseille","lat":43.30188,"lon":5.36628,"is_reserved":false,"is_disabled":false,"rental_uris":{"android":"levelo://app?vid=8f7bc698-6a7c-4b22-8d1f-af168519ad55","ios":"levelo://app?vid=8f7bc698-6a7c-4b22-8d1f-af168519ad55"},"vehicle_type_id":"4","last_reported":1743088273,"current_range_meters":8000,"station_id":"ce4bgrh2rcd13ifvqc8g","pricing_plan_id":"cebpf4jnsgd1na2vs0mg"},{"bike_id":"df246b3a-a369-4ffc-a8f3-45b8866cfcac","system_id":"levelo_inurba_marseille","lat":43.28662,"lon":5.36355,"is_reserved":false,"is_disabled":false,"rental_uris":{"android":"levelo://app?vid=df246b3a-a369-4ffc-a8f3-45b8866cfcac","ios":"levelo://app?vid=df246b3a-a369-4ffc-a8f3-45b8866cfcac"},"vehicle_type_id":"4","last_reported":1743088273,"current_range_meters":8000,"station_id":"ce4bhah2rcd13ifvqej0","pricing_plan_id":"cebpf4jnsgd1na2vs0mg"},{"bike_id":"586f0775-f3c8-4d7f-b5fd-76805e6871fd","system_id":"levelo_inurba_marseille","lat":43.28422,"lon":5.3499,"is_reserved":false,"is_disabled":false,"rental_uris":{"android":"levelo://app?vid=586f0775-f3c8-4d7f-b5fd-76805e6871fd","ios":"levelo://app?vid=586f0775-f3c8-4d7f-b5fd-76805e6871fd"},"vehicle_type_id":"4","last_reported":1743088273,"current_range_meters":8000,"station_id":"ce4bhbh2rcd13ifvqepg","pricing_plan_id":"cebpf4jnsgd1na2vs0mg"},{"bike_id":"faf9c11b-bbb3-4748-ae14-def7239e485d","system_id":"levelo_inurba_marseille","lat":43.27059,"lon":5.40261,"is_reserved":false,"is_disabled":false,"rental_uris":{"android":"levelo://app?vid=faf9c11b-bbb3-4748-ae14-def7239e485d","ios":"levelo://app?vid=faf9c11b-bbb3-4748-ae14-def7239e485d"},"vehicle_type_id":"4","last_reported":1743088273,"current_range_meters":8000,"station_id":"ce4bhk92rcd13ifvqgc0","pricing_plan_id":"cebpf4jnsgd1na2vs0mg"},{"bike_id":"1b543932-d5d1-46d8-8c50-5e82d73320ed","system_id":"levelo_inurba_marseille","lat":43.2315,"lon":5.4373,"is_reserved":false,"is_disabled":false,"rental_uris":{"android":"levelo://app?vid=1b543932-d5d1-46d8-8c50-5e82d73320ed","ios":"levelo://app?vid=1b543932-d5d1-46d8-8c50-5e82d73320ed"},"vehicle_type_id":"4","last_reported":1743088273,"current_range_meters":8000,"station_id":"ce4bhmp2rcd13ifvqgog","pricing_plan_id":"cebpf4jnsgd1na2vs0mg"},{"bike_id":"629dc58e-f1fa-4c78-b496-582f20ae1d69","system_id":"levelo_inurba_marseille","lat":43.23148,"lon":5.43717,"is_reserved":false,"is_disabled":false,"rental_uris":{"android":"levelo://app?vid=629dc58e-f1fa-4c78-b496-582f20ae1d69","ios":"levelo://app?vid=629dc58e-f1fa-4c78-b496-582f20ae1d69"},"vehicle_type_id":"4","last_reported":1743088273,"current_range_meters":8000,"station_id":"ce4bhmp2rcd13ifvqgog","pricing_plan_id":"cebpf4jnsgd1na2vs0mg"},{"bike_id":"72b98778-95f0-49e7-89c1-fd1e18587c6d","system_id":"levelo_inurba_marseille","lat":43.269244,"lon":5.401173,"is_reserved":false,"is_disabled":false,"rental_uris":{"android":"levelo://app?vid=72b98778-95f0-49e7-89c1-fd1e18587c6d","ios":"levelo://app?vid=72b98778-95f0-49e7-89c1-fd1e18587c6d"},"vehicle_type_id":"4","last_reported":1743088273,"current_range_meters":8000,"station_id":"cjm6bp8fraef2m0cb0m0","pricing_plan_id":"cebpf4jnsgd1na2vs0mg"},{"bike_id":"ac0d8652-06ab-400a-872c-9e9d00e84cba","system_id":"levelo_inurba_marseille","lat":43.23062,"lon":5.3549,"is_reserved":false,"is_disabled":false,"rental_uris":{"android":"levelo://app?vid=ac0d8652-06ab-400a-872c-9e9d00e84cba","ios":"levelo://app?vid=ac0d8652-06ab-400a-872c-9e9d00e84cba"},"vehicle_type_id":"4","last_reported":1743088273,"current_range_meters":8000,"station_id":"cpo3342slgdg3j2ifvpg","pricing_plan_id":"cebpf4jnsgd1na2vs0mg"},{"bike_id":"18460cf5-915d-48eb-8bb6-4a7b73794a0c","system_id":"levelo_inurba_marseille","lat":43.31268,"lon":5.36846,"is_reserved":false,"is_disabled":false,"rental_uris":{"android":"levelo://app?vid=18460cf5-915d-48eb-8bb6-4a7b73794a0c","ios":"levelo://app?vid=18460cf5-915d-48eb-8bb6-4a7b73794a0c"},"vehicle_type_id":"4","last_reported":1743088273,"current_range_meters":8400,"station_id":"ce4bgl92rcd13ifvqbq0","pricing_plan_id":"cebpf4jnsgd1na2vs0mg"},{"bike_id":"6d4011c8-4f80-44b9-9412-1bf5eff9b6be","system_id":"levelo_inurba_marseille","lat":43.30941,"lon":5.40149,"is_reserved":false,"is_disabled":false,"rental_uris":{"android":"levelo://app?vid=6d4011c8-4f80-44b9-9412-1bf5eff9b6be","ios":"levelo://app?vid=6d4011c8-4f80-44b9-9412-1bf5eff9b6be"},"vehicle_type_id":"4","last_reported":1743088273,"current_range_meters":8400,"station_id":"ce4bgvp2rcd13ifvqct0","pricing_plan_id":"cebpf4jnsgd1na2vs0mg"},{"bike_id":"c7f9bee5-9b41-43f3-a084-a4d240bf97bc","system_id":"levelo_inurba_marseille","lat":43.31267,"lon":5.40181,"is_reserved":false,"is_disabled":false,"rental_uris":{"android":"levelo://app?vid=c7f9bee5-9b41-43f3-a084-a4d240bf97bc","ios":"levelo://app?vid=c7f9bee5-9b41-43f3-a084-a4d240bf97bc"},"vehicle_type_id":"4","last_reported":1743088273,"current_range_meters":8400,"station_id":"ce4bh092rcd13ifvqd30","pricing_plan_id":"cebpf4jnsgd1na2vs0mg"},{"bike_id":"d25af6e1-d9a8-4ac9-962e-afa25836fc0c","system_id":"levelo_inurba_marseille","lat":43.29523,"lon":5.39033,"is_reserved":false,"is_disabled":false,"rental_uris":{"android":"levelo://app?vid=d25af6e1-d9a8-4ac9-962e-afa25836fc0c","ios":"levelo://app?vid=d25af6e1-d9a8-4ac9-962e-afa25836fc0c"},"vehicle_type_id":"4","last_reported":1743088273,"current_range_meters":8400,"station_id":"ce4bh3p2rcd13ifvqdp0","pricing_plan_id":"cebpf4jnsgd1na2vs0mg"},{"bike_id":"41e6c608-b868-4653-8715-ebe7f9ea6688","system_id":"levelo_inurba_marseille","lat":43.29006,"lon":5.35611,"is_reserved":false,"is_disabled":false,"rental_uris":{"android":"levelo://app?vid=41e6c608-b868-4653-8715-ebe7f9ea6688","ios":"levelo://app?vid=41e6c608-b868-4653-8715-ebe7f9ea6688"},"vehicle_type_id":"4","last_reported":1743088273,"current_range_meters":8400,"station_id":"ce4bhb92rcd13ifvqen0","pricing_plan_id":"cebpf4jnsgd1na2vs0mg"},{"bike_id":"54cfd3f4-3a63-4e76-a676-cf05502379e8","system_id":"levelo_inurba_marseille","lat":43.27374,"lon":5.36245,"is_reserved":false,"is_disabled":false,"rental_uris":{"android":"levelo://app?vid=54cfd3f4-3a63-4e76-a676-cf05502379e8","ios":"levelo://app?vid=54cfd3f4-3a63-4e76-a676-cf05502379e8"},"vehicle_type_id":"4","last_reported":1743088273,"current_range_meters":8400,"station_id":"ce4bhbh2rcd13ifvqeo0","pricing_plan_id":"cebpf4jnsgd1na2vs0mg"},{"bike_id":"bdfab68e-e57b-4a43-adab-0850680bf9c5","system_id":"levelo_inurba_marseille","lat":43.28426,"lon":5.3499,"is_reserved":false,"is_disabled":false,"rental_uris":{"android":"levelo://app?vid=bdfab68e-e57b-4a43-adab-0850680bf9c5","ios":"levelo://app?vid=bdfab68e-e57b-4a43-adab-0850680bf9c5"},"vehicle_type_id":"4","last_reported":1743088273,"current_range_meters":8400,"station_id":"ce4bhbh2rcd13ifvqepg","pricing_plan_id":"cebpf4jnsgd1na2vs0mg"},{"bike_id":"1f6d4f18-ea25-4fe5-be8d-fe30c3d20869","system_id":"levelo_inurba_marseille","lat":43.24383,"lon":5.37047,"is_reserved":false,"is_disabled":false,"rental_uris":{"android":"levelo://app?vid=1f6d4f18-ea25-4fe5-be8d-fe30c3d20869","ios":"levelo://app?vid=1f6d4f18-ea25-4fe5-be8d-fe30c3d20869"},"vehicle_type_id":"4","last_reported":1743088273,"current_range_meters":8400,"station_id":"ce4bhhh2rcd13ifvqfk0","pricing_plan_id":"cebpf4jnsgd1na2vs0mg"},{"bike_id":"db74f198-31b9-44aa-9cf5-a38bba6d8ea2","system_id":"levelo_inurba_marseille","lat":43.25718,"lon":5.41115,"is_reserved":false,"is_disabled":false,"rental_uris":{"android":"levelo://app?vid=db74f198-31b9-44aa-9cf5-a38bba6d8ea2","ios":"levelo://app?vid=db74f198-31b9-44aa-9cf5-a38bba6d8ea2"},"vehicle_type_id":"4","last_reported":1743088273,"current_range_meters":8400,"station_id":"ce4bhkp2rcd13ifvqgd0","pricing_plan_id":"cebpf4jnsgd1na2vs0mg"},{"bike_id":"2e736d1b-e7a1-4799-9164-963a7555e467","system_id":"levelo_inurba_marseille","lat":43.2315,"lon":5.43714,"is_reserved":false,"is_disabled":false,"rental_uris":{"android":"levelo://app?vid=2e736d1b-e7a1-4799-9164-963a7555e467","ios":"levelo://app?vid=2e736d1b-e7a1-4799-9164-963a7555e467"},"vehicle_type_id":"4","last_reported":1743088273,"current_range_meters":8400,"station_id":"ce4bhmp2rcd13ifvqgog","pricing_plan_id":"cebpf4jnsgd1na2vs0mg"},{"bike_id":"5cd41ede-1055-43ba-aa48-e30641c512a4","system_id":"levelo_inurba_marseille","lat":43.24079,"lon":5.37765,"is_reserved":false,"is_disabled":false,"rental_uris":{"android":"levelo://app?vid=5cd41ede-1055-43ba-aa48-e30641c512a4","ios":"levelo://app?vid=5cd41ede-1055-43ba-aa48-e30641c512a4"},"vehicle_type_id":"4","last_reported":1743088273,"current_range_meters":8400,"station_id":"ce4bhnp2rcd13ifvqgvg","pricing_plan_id":"cebpf4jnsgd1na2vs0mg"},{"bike_id":"1d9410ec-701b-4f1e-a0be-d22d87b80c9d","system_id":"levelo_inurba_marseille","lat":43.32,"lon":5.38169,"is_reserved":false,"is_disabled":false,"rental_uris":{"android":"levelo://app?vid=1d9410ec-701b-4f1e-a0be-d22d87b80c9d","ios":"levelo://app?vid=1d9410ec-701b-4f1e-a0be-d22d87b80c9d"},"vehicle_type_id":"4","last_reported":1743088273,"current_range_meters":8400,"station_id":"ce4bhr12rcd13ifvqhpg","pricing_plan_id":"cebpf4jnsgd1na2vs0mg"},{"bike_id":"72407b9c-71b7-4feb-83e9-97e5f2a36163","system_id":"levelo_inurba_marseille","lat":43.24167,"lon":5.36394,"is_reserved":false,"is_disabled":false,"rental_uris":{"android":"levelo://app?vid=72407b9c-71b7-4feb-83e9-97e5f2a36163","ios":"levelo://app?vid=72407b9c-71b7-4feb-83e9-97e5f2a36163"},"vehicle_type_id":"4","last_reported":1743088273,"current_range_meters":8400,"station_id":"cpo36qri1sfpv3e86is0","pricing_plan_id":"cebpf4jnsgd1na2vs0mg"},{"bike_id":"40046afd-c6aa-43ea-88bd-183a4d2ec61c","system_id":"levelo_inurba_marseille","lat":43.31611,"lon":5.41676,"is_reserved":false,"is_disabled":false,"rental_uris":{"android":"levelo://app?vid=40046afd-c6aa-43ea-88bd-183a4d2ec61c","ios":"levelo://app?vid=40046afd-c6aa-43ea-88bd-183a4d2ec61c"},"vehicle_type_id":"4","last_reported":1743088273,"current_range_meters":8800,"station_id":"","pricing_plan_id":"cebpf4jnsgd1na2vs0mg"},{"bike_id":"7b34a6f8-2cc6-4f06-8ebe-516b944b09f2","system_id":"levelo_inurba_marseille","lat":43.29972,"lon":5.38484,"is_reserved":false,"is_disabled":false,"rental_uris":{"android":"levelo://app?vid=7b34a6f8-2cc6-4f06-8ebe-516b944b09f2","ios":"levelo://app?vid=7b34a6f8-2cc6-4f06-8ebe-516b944b09f2"},"vehicle_type_id":"4","last_reported":1743088273,"current_range_meters":8800,"station_id":"ce4bgj92rcd13ifvqbd0","pricing_plan_id":"cebpf4jnsgd1na2vs0mg"},{"bike_id":"0c035c8e-4e94-4105-9364-6cd74fe51ad1","system_id":"levelo_inurba_marseille","lat":43.30278,"lon":5.37695,"is_reserved":false,"is_disabled":false,"rental_uris":{"android":"levelo://app?vid=0c035c8e-4e94-4105-9364-6cd74fe51ad1","ios":"levelo://app?vid=0c035c8e-4e94-4105-9364-6cd74fe51ad1"},"vehicle_type_id":"4","last_reported":1743088273,"current_range_meters":8800,"station_id":"ce4bguh2rcd13ifvqcj0","pricing_plan_id":"cebpf4jnsgd1na2vs0mg"},{"bike_id":"b825918d-c17d-41af-ba98-94ac0316090a","system_id":"levelo_inurba_marseille","lat":43.295288,"lon":5.394116,"is_reserved":false,"is_disabled":false,"rental_uris":{"android":"levelo://app?vid=b825918d-c17d-41af-ba98-94ac0316090a","ios":"levelo://app?vid=b825918d-c17d-41af-ba98-94ac0316090a"},"vehicle_type_id":"4","last_reported":1743088273,"current_range_meters":8800,"station_id":"ce4bh3p2rcd13ifvqdp0","pricing_plan_id":"cebpf4jnsgd1na2vs0mg"},{"bike_id":"43fec349-57cb-4937-acb1-4ed9b34ed76a","system_id":"levelo_inurba_marseille","lat":43.28372,"lon":5.38647,"is_reserved":false,"is_disabled":false,"rental_uris":{"android":"levelo://app?vid=43fec349-57cb-4937-acb1-4ed9b34ed76a","ios":"levelo://app?vid=43fec349-57cb-4937-acb1-4ed9b34ed76a"},"vehicle_type_id":"4","last_reported":1743088273,"current_range_meters":8800,"station_id":"ce4bh492rcd13ifvqdvg","pricing_plan_id":"cebpf4jnsgd1na2vs0mg"},{"bike_id":"e515cd90-6513-4544-b644-c0fdeff83656","system_id":"levelo_inurba_marseille","lat":43.277904,"lon":5.406803,"is_reserved":false,"is_disabled":false,"rental_uris":{"android":"levelo://app?vid=e515cd90-6513-4544-b644-c0fdeff83656","ios":"levelo://app?vid=e515cd90-6513-4544-b644-c0fdeff83656"},"vehicle_type_id":"4","last_reported":1743088273,"current_range_meters":8800,"station_id":"ce4bhnh2rcd13ifvqgtg","pricing_plan_id":"cebpf4jnsgd1na2vs0mg"},{"bike_id":"1b43fc25-3ea0-48b3-af2c-a67610b49dc2","system_id":"levelo_inurba_marseille","lat":43.31356,"lon":5.36725,"is_reserved":false,"is_disabled":false,"rental_uris":{"android":"levelo://app?vid=1b43fc25-3ea0-48b3-af2c-a67610b49dc2","ios":"levelo://app?vid=1b43fc25-3ea0-48b3-af2c-a67610b49dc2"},"vehicle_type_id":"4","last_reported":1743088273,"current_range_meters":9200,"station_id":"ce4bgr92rcd13ifvqc6g","pricing_plan_id":"cebpf4jnsgd1na2vs0mg"},{"bike_id":"92bc3f42-a6fa-4750-9a77-fb4ad4d4872b","system_id":"levelo_inurba_marseille","lat":43.30187,"lon":5.36618,"is_reserved":false,"is_disabled":false,"rental_uris":{"android":"levelo://app?vid=92bc3f42-a6fa-4750-9a77-fb4ad4d4872b","ios":"levelo://app?vid=92bc3f42-a6fa-4750-9a77-fb4ad4d4872b"},"vehicle_type_id":"4","last_reported":1743088273,"current_range_meters":9200,"station_id":"ce4bgrh2rcd13ifvqc8g","pricing_plan_id":"cebpf4jnsgd1na2vs0mg"},{"bike_id":"83c296a3-74a2-4498-8955-12ede1464fc5","system_id":"levelo_inurba_marseille","lat":43.27372,"lon":5.3625,"is_reserved":false,"is_disabled":false,"rental_uris":{"android":"levelo://app?vid=83c296a3-74a2-4498-8955-12ede1464fc5","ios":"levelo://app?vid=83c296a3-74a2-4498-8955-12ede1464fc5"},"vehicle_type_id":"4","last_reported":1743088273,"current_range_meters":9200,"station_id":"ce4bhbh2rcd13ifvqeo0","pricing_plan_id":"cebpf4jnsgd1na2vs0mg"},{"bike_id":"a0aa2b66-8d81-4f41-ae27-5d11fde4f918","system_id":"levelo_inurba_marseille","lat":43.28425,"lon":5.34996,"is_reserved":false,"is_disabled":false,"rental_uris":{"android":"levelo://app?vid=a0aa2b66-8d81-4f41-ae27-5d11fde4f918","ios":"levelo://app?vid=a0aa2b66-8d81-4f41-ae27-5d11fde4f918"},"vehicle_type_id":"4","last_reported":1743088273,"current_range_meters":9200,"station_id":"ce4bhbh2rcd13ifvqepg","pricing_plan_id":"cebpf4jnsgd1na2vs0mg"},{"bike_id":"c26d43eb-4dd0-497f-835c-2c1b4cfb1b71","system_id":"levelo_inurba_marseille","lat":43.28937,"lon":5.36401,"is_reserved":false,"is_disabled":false,"rental_uris":{"android":"levelo://app?vid=c26d43eb-4dd0-497f-835c-2c1b4cfb1b71","ios":"levelo://app?vid=c26d43eb-4dd0-497f-835c-2c1b4cfb1b71"},"vehicle_type_id":"4","last_reported":1743088273,"current_range_meters":9200,"station_id":"ce4bhc92rcd13ifvqetg","pricing_plan_id":"cebpf4jnsgd1na2vs0mg"},{"bike_id":"f8a5e80a-07e7-47f3-bfaf-ffc91ab4dc2c","system_id":"levelo_inurba_marseille","lat":43.269493,"lon":5.38638,"is_reserved":false,"is_disabled":false,"rental_uris":{"android":"levelo://app?vid=f8a5e80a-07e7-47f3-bfaf-ffc91ab4dc2c","ios":"levelo://app?vid=f8a5e80a-07e7-47f3-bfaf-ffc91ab4dc2c"},"vehicle_type_id":"4","last_reported":1743088273,"current_range_meters":9200,"station_id":"ce4bhh92rcd13ifvqfh0","pricing_plan_id":"cebpf4jnsgd1na2vs0mg"},{"bike_id":"7a243ddc-5526-4d4d-b7ca-9672baa3a32c","system_id":"levelo_inurba_marseille","lat":43.25125,"lon":5.40313,"is_reserved":false,"is_disabled":false,"rental_uris":{"android":"levelo://app?vid=7a243ddc-5526-4d4d-b7ca-9672baa3a32c","ios":"levelo://app?vid=7a243ddc-5526-4d4d-b7ca-9672baa3a32c"},"vehicle_type_id":"4","last_reported":1743088273,"current_range_meters":9200,"station_id":"ce4bhlh2rcd13ifvqgig","pricing_plan_id":"cebpf4jnsgd1na2vs0mg"},{"bike_id":"7095c47d-b869-427b-a541-c1ef8e5d4dfa","system_id":"levelo_inurba_marseille","lat":43.30879,"lon":5.39659,"is_reserved":false,"is_disabled":false,"rental_uris":{"android":"levelo://app?vid=7095c47d-b869-427b-a541-c1ef8e5d4dfa","ios":"levelo://app?vid=7095c47d-b869-427b-a541-c1ef8e5d4dfa"},"vehicle_type_id":"4","last_reported":1743088273,"current_range_meters":9600,"station_id":"","pricing_plan_id":"cebpf4jnsgd1na2vs0mg"},{"bike_id":"f67f98a3-54a8-47d6-b2ff-11adab6ff5d2","system_id":"levelo_inurba_marseille","lat":43.3123,"lon":5.36858,"is_reserved":false,"is_disabled":false,"rental_uris":{"android":"levelo://app?vid=f67f98a3-54a8-47d6-b2ff-11adab6ff5d2","ios":"levelo://app?vid=f67f98a3-54a8-47d6-b2ff-11adab6ff5d2"},"vehicle_type_id":"4","last_reported":1743088273,"current_range_meters":9600,"station_id":"ce4bgl92rcd13ifvqbq0","pricing_plan_id":"cebpf4jnsgd1na2vs0mg"},{"bike_id":"7d230f0c-819a-4ef9-8fda-3cbcb02bf8d7","system_id":"levelo_inurba_marseille","lat":43.30532,"lon":5.36538,"is_reserved":false,"is_disabled":false,"rental_uris":{"android":"levelo://app?vid=7d230f0c-819a-4ef9-8fda-3cbcb02bf8d7","ios":"levelo://app?vid=7d230f0c-819a-4ef9-8fda-3cbcb02bf8d7"},"vehicle_type_id":"4","last_reported":1743088273,"current_range_meters":9600,"station_id":"ce4bgs12rcd13ifvqcag","pricing_plan_id":"cebpf4jnsgd1na2vs0mg"},{"bike_id":"e2d85809-0c95-461d-bf43-b58e61b7d9ff","system_id":"levelo_inurba_marseille","lat":43.30546,"lon":5.36529,"is_reserved":false,"is_disabled":false,"rental_uris":{"android":"levelo://app?vid=e2d85809-0c95-461d-bf43-b58e61b7d9ff","ios":"levelo://app?vid=e2d85809-0c95-461d-bf43-b58e61b7d9ff"},"vehicle_type_id":"4","last_reported":1743088273,"current_range_meters":9600,"station_id":"ce4bgs12rcd13ifvqcag","pricing_plan_id":"cebpf4jnsgd1na2vs0mg"},{"bike_id":"d2554b2d-e241-444c-a752-9df959f80b1a","system_id":"levelo_inurba_marseille","lat":43.31116,"lon":5.37768,"is_reserved":false,"is_disabled":false,"rental_uris":{"android":"levelo://app?vid=d2554b2d-e241-444c-a752-9df959f80b1a","ios":"levelo://app?vid=d2554b2d-e241-444c-a752-9df959f80b1a"},"vehicle_type_id":"4","last_reported":1743088273,"current_range_meters":9600,"station_id":"ce4bgt92rcd13ifvqcg0","pricing_plan_id":"cebpf4jnsgd1na2vs0mg"},{"bike_id":"baf322a7-bd5d-484d-82ce-c85ccabbe309","system_id":"levelo_inurba_marseille","lat":43.28424,"lon":5.34982,"is_reserved":false,"is_disabled":false,"rental_uris":{"android":"levelo://app?vid=baf322a7-bd5d-484d-82ce-c85ccabbe309","ios":"levelo://app?vid=baf322a7-bd5d-484d-82ce-c85ccabbe309"},"vehicle_type_id":"4","last_reported":1743088273,"current_range_meters":9600,"station_id":"ce4bhbh2rcd13ifvqepg","pricing_plan_id":"cebpf4jnsgd1na2vs0mg"},{"bike_id":"d78bef9c-ed08-4dd3-be8c-89d87f9036be","system_id":"levelo_inurba_marseille","lat":43.28423,"lon":5.34996,"is_reserved":false,"is_disabled":false,"rental_uris":{"android":"levelo://app?vid=d78bef9c-ed08-4dd3-be8c-89d87f9036be","ios":"levelo://app?vid=d78bef9c-ed08-4dd3-be8c-89d87f9036be"},"vehicle_type_id":"4","last_reported":1743088273,"current_range_meters":9600,"station_id":"ce4bhbh2rcd13ifvqepg","pricing_plan_id":"cebpf4jnsgd1na2vs0mg"},{"bike_id":"9a1aae1b-2c8c-4d42-a28e-a29d485ebc98","system_id":"levelo_inurba_marseille","lat":43.27314,"lon":5.39067,"is_reserved":false,"is_disabled":false,"rental_uris":{"android":"levelo://app?vid=9a1aae1b-2c8c-4d42-a28e-a29d485ebc98","ios":"levelo://app?vid=9a1aae1b-2c8c-4d42-a28e-a29d485ebc98"},"vehicle_type_id":"4","last_reported":1743088273,"current_range_meters":9600,"station_id":"ce4bhgp2rcd13ifvqfe0","pricing_plan_id":"cebpf4jnsgd1na2vs0mg"},{"bike_id":"1c21b756-e036-4348-8b3e-23fd217ddfa2","system_id":"levelo_inurba_marseille","lat":43.26946,"lon":5.38662,"is_reserved":false,"is_disabled":false,"rental_uris":{"android":"levelo://app?vid=1c21b756-e036-4348-8b3e-23fd217ddfa2","ios":"levelo://app?vid=1c21b756-e036-4348-8b3e-23fd217ddfa2"},"vehicle_type_id":"4","last_reported":1743088273,"current_range_meters":9600,"station_id":"ce4bhh92rcd13ifvqfh0","pricing_plan_id":"cebpf4jnsgd1na2vs0mg"},{"bike_id":"1c10fa61-6b4d-46b3-b34b-1e0ab4cb2fcd","system_id":"levelo_inurba_marseille","lat":43.2621,"lon":5.40448,"is_reserved":false,"is_disabled":false,"rental_uris":{"android":"levelo://app?vid=1c10fa61-6b4d-46b3-b34b-1e0ab4cb2fcd","ios":"levelo://app?vid=1c10fa61-6b4d-46b3-b34b-1e0ab4cb2fcd"},"vehicle_type_id":"4","last_reported":1743088273,"current_range_meters":9600,"station_id":"ce4bhmh2rcd13ifvqgmg","pricing_plan_id":"cebpf4jnsgd1na2vs0mg"},{"bike_id":"96504045-100a-468c-8897-360fb4c19832","system_id":"levelo_inurba_marseille","lat":43.27801,"lon":5.40731,"is_reserved":false,"is_disabled":false,"rental_uris":{"android":"levelo://app?vid=96504045-100a-468c-8897-360fb4c19832","ios":"levelo://app?vid=96504045-100a-468c-8897-360fb4c19832"},"vehicle_type_id":"4","last_reported":1743088273,"current_range_meters":9600,"station_id":"ce4bhnh2rcd13ifvqgtg","pricing_plan_id":"cebpf4jnsgd1na2vs0mg"},{"bike_id":"409d9c1a-9091-4819-af78-8e2ce37d6649","system_id":"levelo_inurba_marseille","lat":43.27836,"lon":5.40733,"is_reserved":false,"is_disabled":false,"rental_uris":{"android":"levelo://app?vid=409d9c1a-9091-4819-af78-8e2ce37d6649","ios":"levelo://app?vid=409d9c1a-9091-4819-af78-8e2ce37d6649"},"vehicle_type_id":"4","last_reported":1743088273,"current_range_meters":9600,"station_id":"ce4bhnh2rcd13ifvqgtg","pricing_plan_id":"cebpf4jnsgd1na2vs0mg"},{"bike_id":"c18155db-65c7-4d5a-8c5b-923eb75c675d","system_id":"levelo_inurba_marseille","lat":43.32114,"lon":5.36776,"is_reserved":false,"is_disabled":false,"rental_uris":{"android":"levelo://app?vid=c18155db-65c7-4d5a-8c5b-923eb75c675d","ios":"levelo://app?vid=c18155db-65c7-4d5a-8c5b-923eb75c675d"},"vehicle_type_id":"4","last_reported":1743088273,"current_range_meters":9600,"station_id":"ce4bhrh2rcd13ifvqhug","pricing_plan_id":"cebpf4jnsgd1na2vs0mg"},{"bike_id":"2e5573eb-61c3-417f-a25d-93cd7d81273b","system_id":"levelo_inurba_marseille","lat":43.23057,"lon":5.35491,"is_reserved":false,"is_disabled":false,"rental_uris":{"android":"levelo://app?vid=2e5573eb-61c3-417f-a25d-93cd7d81273b","ios":"levelo://app?vid=2e5573eb-61c3-417f-a25d-93cd7d81273b"},"vehicle_type_id":"4","last_reported":1743088273,"current_range_meters":9600,"station_id":"cpo3342slgdg3j2ifvpg","pricing_plan_id":"cebpf4jnsgd1na2vs0mg"},{"bike_id":"ceb1c52e-fe06-4d0c-bd43-28875da9b0c1","system_id":"levelo_inurba_marseille","lat":43.27921,"lon":5.39609,"is_reserved":false,"is_disabled":false,"rental_uris":{"android":"levelo://app?vid=ceb1c52e-fe06-4d0c-bd43-28875da9b0c1","ios":"levelo://app?vid=ceb1c52e-fe06-4d0c-bd43-28875da9b0c1"},"vehicle_type_id":"4","last_reported":1743088273,"current_range_meters":10000,"station_id":"ce4bhf92rcd13ifvqf40","pricing_plan_id":"cebpf4jnsgd1na2vs0mg"},{"bike_id":"5635c645-800a-4f55-8b33-f3da4484aaa3","system_id":"levelo_inurba_marseille","lat":43.27657,"lon":5.3889,"is_reserved":false,"is_disabled":false,"rental_uris":{"android":"levelo://app?vid=5635c645-800a-4f55-8b33-f3da4484aaa3","ios":"levelo://app?vid=5635c645-800a-4f55-8b33-f3da4484aaa3"},"vehicle_type_id":"4","last_reported":1743088273,"current_range_meters":10000,"station_id":"ce4bhi12rcd13ifvqfo0","pricing_plan_id":"cebpf4jnsgd1na2vs0mg"},{"bike_id":"0ac88cdf-dd3a-494f-aaa5-2b24d1ce393f","system_id":"levelo_inurba_marseille","lat":43.23191,"lon":5.35556,"is_reserved":false,"is_disabled":false,"rental_uris":{"android":"levelo://app?vid=0ac88cdf-dd3a-494f-aaa5-2b24d1ce393f","ios":"levelo://app?vid=0ac88cdf-dd3a-494f-aaa5-2b24d1ce393f"},"vehicle_type_id":"4","last_reported":1743088273,"current_range_meters":10000,"station_id":"ce4bhu92rcd13ifvqi70","pricing_plan_id":"cebpf4jnsgd1na2vs0mg"},{"bike_id":"b7df044c-a420-415e-b7b7-345aa8eb07fc","system_id":"levelo_inurba_marseille","lat":43.31847,"lon":5.38729,"is_reserved":false,"is_disabled":false,"rental_uris":{"android":"levelo://app?vid=b7df044c-a420-415e-b7b7-345aa8eb07fc","ios":"levelo://app?vid=b7df044c-a420-415e-b7b7-345aa8eb07fc"},"vehicle_type_id":"4","last_reported":1743088273,"current_range_meters":10800,"station_id":"","pricing_plan_id":"cebpf4jnsgd1na2vs0mg"},{"bike_id":"d4e7b4e2-d2dd-435a-8073-32a53d1674ab","system_id":"levelo_inurba_marseille","lat":43.29254,"lon":5.37633,"is_reserved":false,"is_disabled":false,"rental_uris":{"android":"levelo://app?vid=d4e7b4e2-d2dd-435a-8073-32a53d1674ab","ios":"levelo://app?vid=d4e7b4e2-d2dd-435a-8073-32a53d1674ab"},"vehicle_type_id":"4","last_reported":1743088273,"current_range_meters":10800,"station_id":"ce4bgi12rcd13ifvqb80","pricing_plan_id":"cebpf4jnsgd1na2vs0mg"},{"bike_id":"7d56c434-d49a-473e-ae94-383e59504411","system_id":"levelo_inurba_marseille","lat":43.30551,"lon":5.36551,"is_reserved":false,"is_disabled":false,"rental_uris":{"android":"levelo://app?vid=7d56c434-d49a-473e-ae94-383e59504411","ios":"levelo://app?vid=7d56c434-d49a-473e-ae94-383e59504411"},"vehicle_type_id":"4","last_reported":1743088273,"current_range_meters":10800,"station_id":"ce4bgs12rcd13ifvqcag","pricing_plan_id":"cebpf4jnsgd1na2vs0mg"},{"bike_id":"ab8cf44c-fd38-4b0d-a450-9fce8453c554","system_id":"levelo_inurba_marseille","lat":43.30532,"lon":5.36538,"is_reserved":false,"is_disabled":false,"rental_uris":{"android":"levelo://app?vid=ab8cf44c-fd38-4b0d-a450-9fce8453c554","ios":"levelo://app?vid=ab8cf44c-fd38-4b0d-a450-9fce8453c554"},"vehicle_type_id":"4","last_reported":1743088273,"current_range_meters":10800,"station_id":"ce4bgs12rcd13ifvqcag","pricing_plan_id":"cebpf4jnsgd1na2vs0mg"},{"bike_id":"29346ce5-e3f8-414f-ac70-a849b98ac7bb","system_id":"levelo_inurba_marseille","lat":43.27379,"lon":5.36237,"is_reserved":false,"is_disabled":false,"rental_uris":{"android":"levelo://app?vid=29346ce5-e3f8-414f-ac70-a849b98ac7bb","ios":"levelo://app?vid=29346ce5-e3f8-414f-ac70-a849b98ac7bb"},"vehicle_type_id":"4","last_reported":1743088273,"current_range_meters":10800,"station_id":"ce4bhbh2rcd13ifvqeo0","pricing_plan_id":"cebpf4jnsgd1na2vs0mg"},{"bike_id":"2e95a620-73b3-45ca-b4c7-84e270c45e41","system_id":"levelo_inurba_marseille","lat":43.28613,"lon":5.35099,"is_reserved":false,"is_disabled":false,"rental_uris":{"android":"levelo://app?vid=2e95a620-73b3-45ca-b4c7-84e270c45e41","ios":"levelo://app?vid=2e95a620-73b3-45ca-b4c7-84e270c45e41"},"vehicle_type_id":"4","last_reported":1743088273,"current_range_meters":10800,"station_id":"ce4bhch2rcd13ifvqeug","pricing_plan_id":"cebpf4jnsgd1na2vs0mg"},{"bike_id":"4abd9af2-5f98-4b47-b1ae-766df2d1c200","system_id":"levelo_inurba_marseille","lat":43.2862,"lon":5.351,"is_reserved":false,"is_disabled":false,"rental_uris":{"android":"levelo://app?vid=4abd9af2-5f98-4b47-b1ae-766df2d1c200","ios":"levelo://app?vid=4abd9af2-5f98-4b47-b1ae-766df2d1c200"},"vehicle_type_id":"4","last_reported":1743088273,"current_range_meters":10800,"station_id":"ce4bhch2rcd13ifvqeug","pricing_plan_id":"cebpf4jnsgd1na2vs0mg"},{"bike_id":"29eaf88a-ce36-43eb-9819-242b3ace0304","system_id":"levelo_inurba_marseille","lat":43.26497,"lon":5.3955,"is_reserved":false,"is_disabled":false,"rental_uris":{"android":"levelo://app?vid=29eaf88a-ce36-43eb-9819-242b3ace0304","ios":"levelo://app?vid=29eaf88a-ce36-43eb-9819-242b3ace0304"},"vehicle_type_id":"4","last_reported":1743088273,"current_range_meters":10800,"station_id":"ce4bhi12rcd13ifvqfq0","pricing_plan_id":"cebpf4jnsgd1na2vs0mg"},{"bike_id":"3a9bdcca-abab-46db-a40a-336182c98f57","system_id":"levelo_inurba_marseille","lat":43.278173,"lon":5.407182,"is_reserved":false,"is_disabled":false,"rental_uris":{"android":"levelo://app?vid=3a9bdcca-abab-46db-a40a-336182c98f57","ios":"levelo://app?vid=3a9bdcca-abab-46db-a40a-336182c98f57"},"vehicle_type_id":"4","last_reported":1743088273,"current_range_meters":10800,"station_id":"ce4bhnh2rcd13ifvqgtg","pricing_plan_id":"cebpf4jnsgd1na2vs0mg"},{"bike_id":"2079e143-15fb-4fca-b428-1dcdbd2da2aa","system_id":"levelo_inurba_marseille","lat":43.278121,"lon":5.407215,"is_reserved":false,"is_disabled":false,"rental_uris":{"android":"levelo://app?vid=2079e143-15fb-4fca-b428-1dcdbd2da2aa","ios":"levelo://app?vid=2079e143-15fb-4fca-b428-1dcdbd2da2aa"},"vehicle_type_id":"4","last_reported":1743088273,"current_range_meters":10800,"station_id":"ce4bhnh2rcd13ifvqgtg","pricing_plan_id":"cebpf4jnsgd1na2vs0mg"},{"bike_id":"25c93242-72e6-4525-aea7-7d96e2cd1825","system_id":"levelo_inurba_marseille","lat":43.33073,"lon":5.40835,"is_reserved":false,"is_disabled":false,"rental_uris":{"android":"levelo://app?vid=25c93242-72e6-4525-aea7-7d96e2cd1825","ios":"levelo://app?vid=25c93242-72e6-4525-aea7-7d96e2cd1825"},"vehicle_type_id":"4","last_reported":1743088273,"current_range_meters":11200,"station_id":"","pricing_plan_id":"cebpf4jnsgd1na2vs0mg"},{"bike_id":"3d290f3b-e4f4-46ff-bb6d-65fa0034a269","system_id":"levelo_inurba_marseille","lat":43.31218,"lon":5.36842,"is_reserved":false,"is_disabled":false,"rental_uris":{"android":"levelo://app?vid=3d290f3b-e4f4-46ff-bb6d-65fa0034a269","ios":"levelo://app?vid=3d290f3b-e4f4-46ff-bb6d-65fa0034a269"},"vehicle_type_id":"4","last_reported":1743088273,"current_range_meters":11200,"station_id":"ce4bgl92rcd13ifvqbq0","pricing_plan_id":"cebpf4jnsgd1na2vs0mg"},{"bike_id":"025425bb-1287-4df2-9401-0428a6e93f63","system_id":"levelo_inurba_marseille","lat":43.3091,"lon":5.36845,"is_reserved":false,"is_disabled":false,"rental_uris":{"android":"levelo://app?vid=025425bb-1287-4df2-9401-0428a6e93f63","ios":"levelo://app?vid=025425bb-1287-4df2-9401-0428a6e93f63"},"vehicle_type_id":"4","last_reported":1743088273,"current_range_meters":11200,"station_id":"ce4bgn92rcd13ifvqbvg","pricing_plan_id":"cebpf4jnsgd1na2vs0mg"},{"bike_id":"9a15a95f-cf9b-4362-bb25-0b5170108c0a","system_id":"levelo_inurba_marseille","lat":43.30546,"lon":5.36539,"is_reserved":false,"is_disabled":false,"rental_uris":{"android":"levelo://app?vid=9a15a95f-cf9b-4362-bb25-0b5170108c0a","ios":"levelo://app?vid=9a15a95f-cf9b-4362-bb25-0b5170108c0a"},"vehicle_type_id":"4","last_reported":1743088273,"current_range_meters":11200,"station_id":"ce4bgs12rcd13ifvqcag","pricing_plan_id":"cebpf4jnsgd1na2vs0mg"},{"bike_id":"51009623-7e51-48de-9bdc-61e755408aa2","system_id":"levelo_inurba_marseille","lat":43.28988,"lon":5.37842,"is_reserved":false,"is_disabled":false,"rental_uris":{"android":"levelo://app?vid=51009623-7e51-48de-9bdc-61e755408aa2","ios":"levelo://app?vid=51009623-7e51-48de-9bdc-61e755408aa2"},"vehicle_type_id":"4","last_reported":1743088273,"current_range_meters":11200,"station_id":"ce4bh9p2rcd13ifvqed0","pricing_plan_id":"cebpf4jnsgd1na2vs0mg"},{"bike_id":"00f8a823-b5b1-4799-904b-6136ec63ab41","system_id":"levelo_inurba_marseille","lat":43.28616,"lon":5.3511,"is_reserved":false,"is_disabled":false,"rental_uris":{"android":"levelo://app?vid=00f8a823-b5b1-4799-904b-6136ec63ab41","ios":"levelo://app?vid=00f8a823-b5b1-4799-904b-6136ec63ab41"},"vehicle_type_id":"4","last_reported":1743088273,"current_range_meters":11200,"station_id":"ce4bhch2rcd13ifvqeug","pricing_plan_id":"cebpf4jnsgd1na2vs0mg"},{"bike_id":"f304ac9c-8e14-48b7-ad50-965baa2af350","system_id":"levelo_inurba_marseille","lat":43.24649,"lon":5.38897,"is_reserved":false,"is_disabled":false,"rental_uris":{"android":"levelo://app?vid=f304ac9c-8e14-48b7-ad50-965baa2af350","ios":"levelo://app?vid=f304ac9c-8e14-48b7-ad50-965baa2af350"},"vehicle_type_id":"4","last_reported":1743088273,"current_range_meters":11200,"station_id":"ce4bhg12rcd13ifvqf60","pricing_plan_id":"cebpf4jnsgd1na2vs0mg"},{"bike_id":"3d925b18-32bd-4c1e-890d-2ee787fb4dc4","system_id":"levelo_inurba_marseille","lat":43.24549,"lon":5.39524,"is_reserved":false,"is_disabled":false,"rental_uris":{"android":"levelo://app?vid=3d925b18-32bd-4c1e-890d-2ee787fb4dc4","ios":"levelo://app?vid=3d925b18-32bd-4c1e-890d-2ee787fb4dc4"},"vehicle_type_id":"4","last_reported":1743088273,"current_range_meters":11200,"station_id":"ce4bhlp2rcd13ifvqgjg","pricing_plan_id":"cebpf4jnsgd1na2vs0mg"},{"bike_id":"f67d4809-d31a-44fc-a31c-4063d1f91caf","system_id":"levelo_inurba_marseille","lat":43.29024,"lon":5.38646,"is_reserved":false,"is_disabled":false,"rental_uris":{"android":"levelo://app?vid=f67d4809-d31a-44fc-a31c-4063d1f91caf","ios":"levelo://app?vid=f67d4809-d31a-44fc-a31c-4063d1f91caf"},"vehicle_type_id":"4","last_reported":1743088273,"current_range_meters":11600,"station_id":"ce4bh4p2rcd13ifvqe0g","pricing_plan_id":"cebpf4jnsgd1na2vs0mg"},{"bike_id":"12de2a5d-af1a-406f-ae29-1792c23b418c","system_id":"levelo_inurba_marseille","lat":43.2842,"lon":5.34993,"is_reserved":false,"is_disabled":false,"rental_uris":{"android":"levelo://app?vid=12de2a5d-af1a-406f-ae29-1792c23b418c","ios":"levelo://app?vid=12de2a5d-af1a-406f-ae29-1792c23b418c"},"vehicle_type_id":"4","last_reported":1743088273,"current_range_meters":11600,"station_id":"ce4bhbh2rcd13ifvqepg","pricing_plan_id":"cebpf4jnsgd1na2vs0mg"},{"bike_id":"9ca6be2b-f426-4558-a88c-f8bd0de934c1","system_id":"levelo_inurba_marseille","lat":43.27058,"lon":5.40263,"is_reserved":false,"is_disabled":false,"rental_uris":{"android":"levelo://app?vid=9ca6be2b-f426-4558-a88c-f8bd0de934c1","ios":"levelo://app?vid=9ca6be2b-f426-4558-a88c-f8bd0de934c1"},"vehicle_type_id":"4","last_reported":1743088273,"current_range_meters":11600,"station_id":"ce4bhk92rcd13ifvqgc0","pricing_plan_id":"cebpf4jnsgd1na2vs0mg"},{"bike_id":"4eb52086-692f-4f96-9538-1baa7b57ee26","system_id":"levelo_inurba_marseille","lat":43.25117,"lon":5.40318,"is_reserved":false,"is_disabled":false,"rental_uris":{"android":"levelo://app?vid=4eb52086-692f-4f96-9538-1baa7b57ee26","ios":"levelo://app?vid=4eb52086-692f-4f96-9538-1baa7b57ee26"},"vehicle_type_id":"4","last_reported":1743088273,"current_range_meters":11600,"station_id":"ce4bhlh2rcd13ifvqgig","pricing_plan_id":"cebpf4jnsgd1na2vs0mg"},{"bike_id":"19221227-42ec-4f4b-8f04-42a0818e22f5","system_id":"levelo_inurba_marseille","lat":43.32108,"lon":5.36782,"is_reserved":false,"is_disabled":false,"rental_uris":{"android":"levelo://app?vid=19221227-42ec-4f4b-8f04-42a0818e22f5","ios":"levelo://app?vid=19221227-42ec-4f4b-8f04-42a0818e22f5"},"vehicle_type_id":"4","last_reported":1743088273,"current_range_meters":11600,"station_id":"ce4bhrh2rcd13ifvqhug","pricing_plan_id":"cebpf4jnsgd1na2vs0mg"},{"bike_id":"59b78039-07c8-4481-876d-404938d15499","system_id":"levelo_inurba_marseille","lat":43.30568,"lon":5.36547,"is_reserved":false,"is_disabled":false,"rental_uris":{"android":"levelo://app?vid=59b78039-07c8-4481-876d-404938d15499","ios":"levelo://app?vid=59b78039-07c8-4481-876d-404938d15499"},"vehicle_type_id":"4","last_reported":1743088273,"current_range_meters":12000,"station_id":"ce4bgs12rcd13ifvqcag","pricing_plan_id":"cebpf4jnsgd1na2vs0mg"},{"bike_id":"17c9ee40-069f-4405-9694-7771fbad5eb6","system_id":"levelo_inurba_marseille","lat":43.30252,"lon":5.40094,"is_reserved":false,"is_disabled":false,"rental_uris":{"android":"levelo://app?vid=17c9ee40-069f-4405-9694-7771fbad5eb6","ios":"levelo://app?vid=17c9ee40-069f-4405-9694-7771fbad5eb6"},"vehicle_type_id":"4","last_reported":1743088273,"current_range_meters":12000,"station_id":"ce4bgvh2rcd13ifvqcs0","pricing_plan_id":"cebpf4jnsgd1na2vs0mg"},{"bike_id":"f2f62e1f-4778-43ff-aa99-60a0f71fa1fc","system_id":"levelo_inurba_marseille","lat":43.23146,"lon":5.43715,"is_reserved":false,"is_disabled":false,"rental_uris":{"android":"levelo://app?vid=f2f62e1f-4778-43ff-aa99-60a0f71fa1fc","ios":"levelo://app?vid=f2f62e1f-4778-43ff-aa99-60a0f71fa1fc"},"vehicle_type_id":"4","last_reported":1743088273,"current_range_meters":12000,"station_id":"ce4bhmp2rcd13ifvqgog","pricing_plan_id":"cebpf4jnsgd1na2vs0mg"},{"bike_id":"929dc956-2b4d-4a62-a433-5892161c84a1","system_id":"levelo_inurba_marseille","lat":43.3248,"lon":5.36548,"is_reserved":false,"is_disabled":false,"rental_uris":{"android":"levelo://app?vid=929dc956-2b4d-4a62-a433-5892161c84a1","ios":"levelo://app?vid=929dc956-2b4d-4a62-a433-5892161c84a1"},"vehicle_type_id":"4","last_reported":1743088273,"current_range_meters":12000,"station_id":"ce4bhs12rcd13ifvqhvg","pricing_plan_id":"cebpf4jnsgd1na2vs0mg"},{"bike_id":"4605e24d-65b2-4424-9d4d-b88f889f4b8e","system_id":"levelo_inurba_marseille","lat":43.2812,"lon":5.39852,"is_reserved":false,"is_disabled":false,"rental_uris":{"android":"levelo://app?vid=4605e24d-65b2-4424-9d4d-b88f889f4b8e","ios":"levelo://app?vid=4605e24d-65b2-4424-9d4d-b88f889f4b8e"},"vehicle_type_id":"4","last_reported":1743088273,"current_range_meters":12400,"station_id":"","pricing_plan_id":"cebpf4jnsgd1na2vs0mg"},{"bike_id":"a8322179-464f-49e4-9938-f05ae3a5ceee","system_id":"levelo_inurba_marseille","lat":43.29727,"lon":5.37682,"is_reserved":false,"is_disabled":false,"rental_uris":{"android":"levelo://app?vid=a8322179-464f-49e4-9938-f05ae3a5ceee","ios":"levelo://app?vid=a8322179-464f-49e4-9938-f05ae3a5ceee"},"vehicle_type_id":"4","last_reported":1743088273,"current_range_meters":12400,"station_id":"ce4bgkh2rcd13ifvqbl0","pricing_plan_id":"cebpf4jnsgd1na2vs0mg"},{"bike_id":"56750c3b-b9a8-4490-88d9-ce19eb3a6a47","system_id":"levelo_inurba_marseille","lat":43.2985,"lon":5.36288,"is_reserved":false,"is_disabled":false,"rental_uris":{"android":"levelo://app?vid=56750c3b-b9a8-4490-88d9-ce19eb3a6a47","ios":"levelo://app?vid=56750c3b-b9a8-4490-88d9-ce19eb3a6a47"},"vehicle_type_id":"4","last_reported":1743088273,"current_range_meters":12400,"station_id":"ce4bgpp2rcd13ifvqc3g","pricing_plan_id":"cebpf4jnsgd1na2vs0mg"},{"bike_id":"9581ecb6-05d3-4632-a311-4e5d01e8cb8e","system_id":"levelo_inurba_marseille","lat":43.30537,"lon":5.36536,"is_reserved":false,"is_disabled":false,"rental_uris":{"android":"levelo://app?vid=9581ecb6-05d3-4632-a311-4e5d01e8cb8e","ios":"levelo://app?vid=9581ecb6-05d3-4632-a311-4e5d01e8cb8e"},"vehicle_type_id":"4","last_reported":1743088273,"current_range_meters":12400,"station_id":"ce4bgs12rcd13ifvqcag","pricing_plan_id":"cebpf4jnsgd1na2vs0mg"},{"bike_id":"02fcb45f-ae72-4b0e-b81f-9f2b80a5c167","system_id":"levelo_inurba_marseille","lat":43.31468,"lon":5.37315,"is_reserved":false,"is_disabled":false,"rental_uris":{"android":"levelo://app?vid=02fcb45f-ae72-4b0e-b81f-9f2b80a5c167","ios":"levelo://app?vid=02fcb45f-ae72-4b0e-b81f-9f2b80a5c167"},"vehicle_type_id":"4","last_reported":1743088273,"current_range_meters":12400,"station_id":"ce4bgt12rcd13ifvqcd0","pricing_plan_id":"cebpf4jnsgd1na2vs0mg"},{"bike_id":"9f581441-174b-4cfd-9575-0e3ed96d081c","system_id":"levelo_inurba_marseille","lat":43.30783,"lon":5.37656,"is_reserved":false,"is_disabled":false,"rental_uris":{"android":"levelo://app?vid=9f581441-174b-4cfd-9575-0e3ed96d081c","ios":"levelo://app?vid=9f581441-174b-4cfd-9575-0e3ed96d081c"},"vehicle_type_id":"4","last_reported":1743088273,"current_range_meters":12400,"station_id":"ce4bgv92rcd13ifvqcq0","pricing_plan_id":"cebpf4jnsgd1na2vs0mg"},{"bike_id":"b1e433a4-0f81-4e90-bdb9-912add13c8fc","system_id":"levelo_inurba_marseille","lat":43.28359,"lon":5.38639,"is_reserved":false,"is_disabled":false,"rental_uris":{"android":"levelo://app?vid=b1e433a4-0f81-4e90-bdb9-912add13c8fc","ios":"levelo://app?vid=b1e433a4-0f81-4e90-bdb9-912add13c8fc"},"vehicle_type_id":"4","last_reported":1743088273,"current_range_meters":12400,"station_id":"ce4bh492rcd13ifvqdvg","pricing_plan_id":"cebpf4jnsgd1na2vs0mg"},{"bike_id":"683c06f5-71c6-40f7-a0ca-33ec050520b0","system_id":"levelo_inurba_marseille","lat":43.28938,"lon":5.3664,"is_reserved":false,"is_disabled":false,"rental_uris":{"android":"levelo://app?vid=683c06f5-71c6-40f7-a0ca-33ec050520b0","ios":"levelo://app?vid=683c06f5-71c6-40f7-a0ca-33ec050520b0"},"vehicle_type_id":"4","last_reported":1743088273,"current_range_meters":12400,"station_id":"ce4bhap2rcd13ifvqek0","pricing_plan_id":"cebpf4jnsgd1na2vs0mg"},{"bike_id":"1fff7ab0-4878-4859-9abb-ba779bd2ab17","system_id":"levelo_inurba_marseille","lat":43.2721,"lon":5.39189,"is_reserved":false,"is_disabled":false,"rental_uris":{"android":"levelo://app?vid=1fff7ab0-4878-4859-9abb-ba779bd2ab17","ios":"levelo://app?vid=1fff7ab0-4878-4859-9abb-ba779bd2ab17"},"vehicle_type_id":"4","last_reported":1743088273,"current_range_meters":12400,"station_id":"ce4bhhp2rcd13ifvqfm0","pricing_plan_id":"cebpf4jnsgd1na2vs0mg"},{"bike_id":"e0f854e6-2375-437d-a78b-6d5bf2ead237","system_id":"levelo_inurba_marseille","lat":43.33441,"lon":5.40073,"is_reserved":false,"is_disabled":false,"rental_uris":{"android":"levelo://app?vid=e0f854e6-2375-437d-a78b-6d5bf2ead237","ios":"levelo://app?vid=e0f854e6-2375-437d-a78b-6d5bf2ead237"},"vehicle_type_id":"4","last_reported":1743088273,"current_range_meters":12800,"station_id":"","pricing_plan_id":"cebpf4jnsgd1na2vs0mg"},{"bike_id":"40c7b35e-43e2-4d00-9eb0-17df63709d48","system_id":"levelo_inurba_marseille","lat":43.3112,"lon":5.37774,"is_reserved":false,"is_disabled":false,"rental_uris":{"android":"levelo://app?vid=40c7b35e-43e2-4d00-9eb0-17df63709d48","ios":"levelo://app?vid=40c7b35e-43e2-4d00-9eb0-17df63709d48"},"vehicle_type_id":"4","last_reported":1743088273,"current_range_meters":12800,"station_id":"ce4bgt92rcd13ifvqcg0","pricing_plan_id":"cebpf4jnsgd1na2vs0mg"},{"bike_id":"52b3f294-65a3-415d-87d2-5ad29cb4ebca","system_id":"levelo_inurba_marseille","lat":43.25827,"lon":5.39436,"is_reserved":false,"is_disabled":false,"rental_uris":{"android":"levelo://app?vid=52b3f294-65a3-415d-87d2-5ad29cb4ebca","ios":"levelo://app?vid=52b3f294-65a3-415d-87d2-5ad29cb4ebca"},"vehicle_type_id":"4","last_reported":1743088273,"current_range_meters":12800,"station_id":"ce4bhip2rcd13ifvqft0","pricing_plan_id":"cebpf4jnsgd1na2vs0mg"},{"bike_id":"dc2267cf-8228-489e-8aa3-09a11071205c","system_id":"levelo_inurba_marseille","lat":43.25873,"lon":5.39908,"is_reserved":false,"is_disabled":false,"rental_uris":{"android":"levelo://app?vid=dc2267cf-8228-489e-8aa3-09a11071205c","ios":"levelo://app?vid=dc2267cf-8228-489e-8aa3-09a11071205c"},"vehicle_type_id":"4","last_reported":1743088273,"current_range_meters":12800,"station_id":"ce4bhl92rcd13ifvqghg","pricing_plan_id":"cebpf4jnsgd1na2vs0mg"},{"bike_id":"df767ddd-5f05-41e7-9ca1-d7a3b4ddff9f","system_id":"levelo_inurba_marseille","lat":43.240875,"lon":5.377405,"is_reserved":false,"is_disabled":false,"rental_uris":{"android":"levelo://app?vid=df767ddd-5f05-41e7-9ca1-d7a3b4ddff9f","ios":"levelo://app?vid=df767ddd-5f05-41e7-9ca1-d7a3b4ddff9f"},"vehicle_type_id":"4","last_reported":1743088273,"current_range_meters":12800,"station_id":"ce4bhnp2rcd13ifvqgvg","pricing_plan_id":"cebpf4jnsgd1na2vs0mg"},{"bike_id":"b9ff05f5-4d31-407c-a44f-e765a4785dc7","system_id":"levelo_inurba_marseille","lat":43.23197,"lon":5.35552,"is_reserved":false,"is_disabled":false,"rental_uris":{"android":"levelo://app?vid=b9ff05f5-4d31-407c-a44f-e765a4785dc7","ios":"levelo://app?vid=b9ff05f5-4d31-407c-a44f-e765a4785dc7"},"vehicle_type_id":"4","last_reported":1743088273,"current_range_meters":12800,"station_id":"ce4bhu92rcd13ifvqi70","pricing_plan_id":"cebpf4jnsgd1na2vs0mg"},{"bike_id":"6bb7a53f-f012-4855-bb26-37beff24b62c","system_id":"levelo_inurba_marseille","lat":43.23065,"lon":5.35488,"is_reserved":false,"is_disabled":false,"rental_uris":{"android":"levelo://app?vid=6bb7a53f-f012-4855-bb26-37beff24b62c","ios":"levelo://app?vid=6bb7a53f-f012-4855-bb26-37beff24b62c"},"vehicle_type_id":"4","last_reported":1743088273,"current_range_meters":12800,"station_id":"cpo3342slgdg3j2ifvpg","pricing_plan_id":"cebpf4jnsgd1na2vs0mg"},{"bike_id":"a7c474ba-798e-4459-be99-dec71669d8da","system_id":"levelo_inurba_marseille","lat":43.29532,"lon":5.38539,"is_reserved":false,"is_disabled":false,"rental_uris":{"android":"levelo://app?vid=a7c474ba-798e-4459-be99-dec71669d8da","ios":"levelo://app?vid=a7c474ba-798e-4459-be99-dec71669d8da"},"vehicle_type_id":"4","last_reported":1743088273,"current_range_meters":13600,"station_id":"ce4bgih2rcd13ifvqba0","pricing_plan_id":"cebpf4jnsgd1na2vs0mg"},{"bike_id":"f0a6156f-d27c-43ef-af42-66752173370a","system_id":"levelo_inurba_marseille","lat":43.29717,"lon":5.37697,"is_reserved":false,"is_disabled":false,"rental_uris":{"android":"levelo://app?vid=f0a6156f-d27c-43ef-af42-66752173370a","ios":"levelo://app?vid=f0a6156f-d27c-43ef-af42-66752173370a"},"vehicle_type_id":"4","last_reported":1743088273,"current_range_meters":13600,"station_id":"ce4bgkh2rcd13ifvqbl0","pricing_plan_id":"cebpf4jnsgd1na2vs0mg"},{"bike_id":"b90ea539-cd4c-4e2f-8708-ffa01e215a77","system_id":"levelo_inurba_marseille","lat":43.3137,"lon":5.36703,"is_reserved":false,"is_disabled":false,"rental_uris":{"android":"levelo://app?vid=b90ea539-cd4c-4e2f-8708-ffa01e215a77","ios":"levelo://app?vid=b90ea539-cd4c-4e2f-8708-ffa01e215a77"},"vehicle_type_id":"4","last_reported":1743088273,"current_range_meters":13600,"station_id":"ce4bgr92rcd13ifvqc6g","pricing_plan_id":"cebpf4jnsgd1na2vs0mg"},{"bike_id":"f371f1ff-a709-47e1-b3f8-3f7578a851c2","system_id":"levelo_inurba_marseille","lat":43.290473,"lon":5.35909,"is_reserved":false,"is_disabled":false,"rental_uris":{"android":"levelo://app?vid=f371f1ff-a709-47e1-b3f8-3f7578a851c2","ios":"levelo://app?vid=f371f1ff-a709-47e1-b3f8-3f7578a851c2"},"vehicle_type_id":"4","last_reported":1743088273,"current_range_meters":13600,"station_id":"ce4bha92rcd13ifvqeg0","pricing_plan_id":"cebpf4jnsgd1na2vs0mg"},{"bike_id":"58c70de0-c19c-4d8d-ba2c-8ac87fc43622","system_id":"levelo_inurba_marseille","lat":43.286653,"lon":5.363547,"is_reserved":false,"is_disabled":false,"rental_uris":{"android":"levelo://app?vid=58c70de0-c19c-4d8d-ba2c-8ac87fc43622","ios":"levelo://app?vid=58c70de0-c19c-4d8d-ba2c-8ac87fc43622"},"vehicle_type_id":"4","last_reported":1743088273,"current_range_meters":13600,"station_id":"ce4bhah2rcd13ifvqej0","pricing_plan_id":"cebpf4jnsgd1na2vs0mg"},{"bike_id":"03dc4892-60f5-4a40-afad-e20a0d7aa82e","system_id":"levelo_inurba_marseille","lat":43.288818,"lon":5.35917,"is_reserved":false,"is_disabled":false,"rental_uris":{"android":"levelo://app?vid=03dc4892-60f5-4a40-afad-e20a0d7aa82e","ios":"levelo://app?vid=03dc4892-60f5-4a40-afad-e20a0d7aa82e"},"vehicle_type_id":"4","last_reported":1743088273,"current_range_meters":13600,"station_id":"ce4bhap2rcd13ifvqek0","pricing_plan_id":"cebpf4jnsgd1na2vs0mg"},{"bike_id":"aef508a9-abfb-4348-92a4-49850feea651","system_id":"levelo_inurba_marseille","lat":43.27372,"lon":5.36244,"is_reserved":false,"is_disabled":false,"rental_uris":{"android":"levelo://app?vid=aef508a9-abfb-4348-92a4-49850feea651","ios":"levelo://app?vid=aef508a9-abfb-4348-92a4-49850feea651"},"vehicle_type_id":"4","last_reported":1743088273,"current_range_meters":13600,"station_id":"ce4bhbh2rcd13ifvqeo0","pricing_plan_id":"cebpf4jnsgd1na2vs0mg"},{"bike_id":"aee00f26-d637-4fed-9408-ef857d6c90c1","system_id":"levelo_inurba_marseille","lat":43.255006,"lon":5.376532,"is_reserved":false,"is_disabled":false,"rental_uris":{"android":"levelo://app?vid=aee00f26-d637-4fed-9408-ef857d6c90c1","ios":"levelo://app?vid=aee00f26-d637-4fed-9408-ef857d6c90c1"},"vehicle_type_id":"4","last_reported":1743088273,"current_range_meters":13600,"station_id":"ce4bhh12rcd13ifvqff0","pricing_plan_id":"cebpf4jnsgd1na2vs0mg"},{"bike_id":"58775c44-bc3e-46ff-ab6e-ebf9451a730b","system_id":"levelo_inurba_marseille","lat":43.241781,"lon":5.397465,"is_reserved":false,"is_disabled":false,"rental_uris":{"android":"levelo://app?vid=58775c44-bc3e-46ff-ab6e-ebf9451a730b","ios":"levelo://app?vid=58775c44-bc3e-46ff-ab6e-ebf9451a730b"},"vehicle_type_id":"4","last_reported":1743088273,"current_range_meters":13600,"station_id":"ce4bhh92rcd13ifvqfh0","pricing_plan_id":"cebpf4jnsgd1na2vs0mg"},{"bike_id":"86f30ee5-de09-4826-8dd8-a6fbbe8a7d1b","system_id":"levelo_inurba_marseille","lat":43.25956,"lon":5.40892,"is_reserved":false,"is_disabled":false,"rental_uris":{"android":"levelo://app?vid=86f30ee5-de09-4826-8dd8-a6fbbe8a7d1b","ios":"levelo://app?vid=86f30ee5-de09-4826-8dd8-a6fbbe8a7d1b"},"vehicle_type_id":"4","last_reported":1743088273,"current_range_meters":13600,"station_id":"ce4bhm92rcd13ifvqglg","pricing_plan_id":"cebpf4jnsgd1na2vs0mg"},{"bike_id":"1c14bf9c-ada4-4a36-8853-740a1a2c000a","system_id":"levelo_inurba_marseille","lat":43.23183,"lon":5.35559,"is_reserved":false,"is_disabled":false,"rental_uris":{"android":"levelo://app?vid=1c14bf9c-ada4-4a36-8853-740a1a2c000a","ios":"levelo://app?vid=1c14bf9c-ada4-4a36-8853-740a1a2c000a"},"vehicle_type_id":"4","last_reported":1743088273,"current_range_meters":13600,"station_id":"ce4bhu92rcd13ifvqi70","pricing_plan_id":"cebpf4jnsgd1na2vs0mg"},{"bike_id":"bcad7256-b161-494e-8fb7-d2bb9a4624b6","system_id":"levelo_inurba_marseille","lat":43.30133,"lon":5.39861,"is_reserved":false,"is_disabled":false,"rental_uris":{"android":"levelo://app?vid=bcad7256-b161-494e-8fb7-d2bb9a4624b6","ios":"levelo://app?vid=bcad7256-b161-494e-8fb7-d2bb9a4624b6"},"vehicle_type_id":"4","last_reported":1743088273,"current_range_meters":14000,"station_id":"ce4bh0h2rcd13ifvqd40","pricing_plan_id":"cebpf4jnsgd1na2vs0mg"},{"bike_id":"7ca97106-c088-4ada-9dca-4c0d8db45352","system_id":"levelo_inurba_marseille","lat":43.29025,"lon":5.38651,"is_reserved":false,"is_disabled":false,"rental_uris":{"android":"levelo://app?vid=7ca97106-c088-4ada-9dca-4c0d8db45352","ios":"levelo://app?vid=7ca97106-c088-4ada-9dca-4c0d8db45352"},"vehicle_type_id":"4","last_reported":1743088273,"current_range_meters":14000,"station_id":"ce4bh4p2rcd13ifvqe0g","pricing_plan_id":"cebpf4jnsgd1na2vs0mg"},{"bike_id":"936b5da0-a4f3-4086-80ad-dad75d8a5f9b","system_id":"levelo_inurba_marseille","lat":43.27839,"lon":5.39212,"is_reserved":false,"is_disabled":false,"rental_uris":{"android":"levelo://app?vid=936b5da0-a4f3-4086-80ad-dad75d8a5f9b","ios":"levelo://app?vid=936b5da0-a4f3-4086-80ad-dad75d8a5f9b"},"vehicle_type_id":"4","last_reported":1743088273,"current_range_meters":14000,"station_id":"ce4bhjp2rcd13ifvqga0","pricing_plan_id":"cebpf4jnsgd1na2vs0mg"},{"bike_id":"561e290b-4db1-442c-80bd-c38abf13836d","system_id":"levelo_inurba_marseille","lat":43.27067,"lon":5.42268,"is_reserved":false,"is_disabled":false,"rental_uris":{"android":"levelo://app?vid=561e290b-4db1-442c-80bd-c38abf13836d","ios":"levelo://app?vid=561e290b-4db1-442c-80bd-c38abf13836d"},"vehicle_type_id":"4","last_reported":1743088273,"current_range_meters":14000,"station_id":"ce4bhk92rcd13ifvqgb0","pricing_plan_id":"cebpf4jnsgd1na2vs0mg"},{"bike_id":"77e789b6-9b7e-415a-a852-cd3776fc3575","system_id":"levelo_inurba_marseille","lat":43.27177,"lon":5.40997,"is_reserved":false,"is_disabled":false,"rental_uris":{"android":"levelo://app?vid=77e789b6-9b7e-415a-a852-cd3776fc3575","ios":"levelo://app?vid=77e789b6-9b7e-415a-a852-cd3776fc3575"},"vehicle_type_id":"4","last_reported":1743088273,"current_range_meters":14000,"station_id":"ce4bhl12rcd13ifvqgf0","pricing_plan_id":"cebpf4jnsgd1na2vs0mg"},{"bike_id":"2f9176ec-6cfc-4731-a30f-1b9add93dd05","system_id":"levelo_inurba_marseille","lat":43.2781,"lon":5.40717,"is_reserved":false,"is_disabled":false,"rental_uris":{"android":"levelo://app?vid=2f9176ec-6cfc-4731-a30f-1b9add93dd05","ios":"levelo://app?vid=2f9176ec-6cfc-4731-a30f-1b9add93dd05"},"vehicle_type_id":"4","last_reported":1743088273,"current_range_meters":14000,"station_id":"ce4bhnh2rcd13ifvqgtg","pricing_plan_id":"cebpf4jnsgd1na2vs0mg"},{"bike_id":"2e919ca5-ce98-4c47-a9d7-66e6ab7584e4","system_id":"levelo_inurba_marseille","lat":43.32113,"lon":5.36784,"is_reserved":false,"is_disabled":false,"rental_uris":{"android":"levelo://app?vid=2e919ca5-ce98-4c47-a9d7-66e6ab7584e4","ios":"levelo://app?vid=2e919ca5-ce98-4c47-a9d7-66e6ab7584e4"},"vehicle_type_id":"4","last_reported":1743088273,"current_range_meters":14000,"station_id":"ce4bhrh2rcd13ifvqhug","pricing_plan_id":"cebpf4jnsgd1na2vs0mg"},{"bike_id":"abaf4a8e-8a0e-49d0-baf2-625f4414f601","system_id":"levelo_inurba_marseille","lat":43.23179,"lon":5.35556,"is_reserved":false,"is_disabled":false,"rental_uris":{"android":"levelo://app?vid=abaf4a8e-8a0e-49d0-baf2-625f4414f601","ios":"levelo://app?vid=abaf4a8e-8a0e-49d0-baf2-625f4414f601"},"vehicle_type_id":"4","last_reported":1743088273,"current_range_meters":14000,"station_id":"ce4bhu92rcd13ifvqi70","pricing_plan_id":"cebpf4jnsgd1na2vs0mg"},{"bike_id":"5c97fd0a-7094-4284-898e-99b65b5e7872","system_id":"levelo_inurba_marseille","lat":43.27321,"lon":5.39083,"is_reserved":false,"is_disabled":false,"rental_uris":{"android":"levelo://app?vid=5c97fd0a-7094-4284-898e-99b65b5e7872","ios":"levelo://app?vid=5c97fd0a-7094-4284-898e-99b65b5e7872"},"vehicle_type_id":"4","last_reported":1743088273,"current_range_meters":14400,"station_id":"ce4bhgp2rcd13ifvqfe0","pricing_plan_id":"cebpf4jnsgd1na2vs0mg"},{"bike_id":"5dd0627a-5f4a-4db5-a8ba-ceede2f23d8c","system_id":"levelo_inurba_marseille","lat":43.25083,"lon":5.39508,"is_reserved":false,"is_disabled":false,"rental_uris":{"android":"levelo://app?vid=5dd0627a-5f4a-4db5-a8ba-ceede2f23d8c","ios":"levelo://app?vid=5dd0627a-5f4a-4db5-a8ba-ceede2f23d8c"},"vehicle_type_id":"4","last_reported":1743088273,"current_range_meters":14400,"station_id":"ce4bhm12rcd13ifvqgkg","pricing_plan_id":"cebpf4jnsgd1na2vs0mg"},{"bike_id":"79f9cd7a-b757-4868-ac7f-f496b875c21d","system_id":"levelo_inurba_marseille","lat":43.279926,"lon":5.416565,"is_reserved":false,"is_disabled":false,"rental_uris":{"android":"levelo://app?vid=79f9cd7a-b757-4868-ac7f-f496b875c21d","ios":"levelo://app?vid=79f9cd7a-b757-4868-ac7f-f496b875c21d"},"vehicle_type_id":"4","last_reported":1743088273,"current_range_meters":14400,"station_id":"ce4bho12rcd13ifvqh1g","pricing_plan_id":"cebpf4jnsgd1na2vs0mg"},{"bike_id":"5a64d06d-50f2-4651-a133-a3fb2c3af1b9","system_id":"levelo_inurba_marseille","lat":43.28688,"lon":5.4,"is_reserved":false,"is_disabled":false,"rental_uris":{"android":"levelo://app?vid=5a64d06d-50f2-4651-a133-a3fb2c3af1b9","ios":"levelo://app?vid=5a64d06d-50f2-4651-a133-a3fb2c3af1b9"},"vehicle_type_id":"4","last_reported":1743088273,"current_range_meters":14400,"station_id":"ce4bho92rcd13ifvqh3g","pricing_plan_id":"cebpf4jnsgd1na2vs0mg"},