{"last_updated":1767301815,"ttl":60,"version":"2.2","data":{"bikes":[{"bike_id":"54f6ec4b-5c5e-4e7c-a924-d8d70c9ee744","system_id":"levelo_inurba_marseille","lat":43.30347,"lon":5.39748,"is_reserved":false,"is_disabled":false,"rental_uris":{"android":"levelo://app?vid=54f6ec4b-5c5e-4e7c-a924-d8d70c9ee744","ios":"levelo://app?vid=54f6ec4b-5c5e-4e7c-a924-d8d70c9ee744"},"vehicle_type_id":"4","last_reported":1767301816,"current_range_meters":2800,"station_id":"","pricing_plan_id":"cebpf4jnsgd1na2vs0mg"},{"bike_id":"a274e1f3-90e8-4548-9a2a-4f53c59abc4e","system_id":"levelo_inurba_marseille","lat":43.316885,"lon":5.404705,"is_reserved":false,"is_disabled":true,"rental_uris":{"android":"levelo://app?vid=a274e1f3-90e8-4548-9a2a-4f53c59abc4e","ios":"levelo://app?vid=a274e1f3-90e8-4548-9a2a-4f53c59abc4e"},"vehicle_type_id":"4","last_reported":1767301816,"current_range_meters":2800,"station_id":"ce4bh012rcd13ifvqd00","pricing_plan_id":"cebpf4jnsgd1na2vs0mg"},{"bike_id":"0fa76090-b264-4d7f-a0bc-7de1e50f19da","system_id":"levelo_inurba_marseille","lat":43.280147,"lon":5.404169,"is_reserved":false,"is_disabled":false,"rental_uris":{"android":"levelo://app?vid=0fa76090-b264-4d7f-a0bc-7de1e50f19da","ios":"levelo://app?vid=0fa76090-b264-4d7f-a0bc-7de1e50f19da"},"vehicle_type_id":"4","last_reported":1767301816,"current_range_meters":2800,"station_id":"","pricing_plan_id":"cebpf4jnsgd1na2vs0mg"},{"bike_id":"fd70642a-c834-4fd2-9b22-49f45ba82646","system_id":"levelo_inurba_marseille","lat":43.30607,"lon":5.37234,"is_reserved":false,"is_disabled":false,"rental_uris":{"android":"levelo://app?vid=fd70642a-c834-4fd2-9b22-49f45ba82646","ios":"levelo://app?vid=fd70642a-c834-4fd2-9b22-49f45ba82646"},"vehicle_type_id":"4","last_reported":1767301816,"current_range_meters":2800,"station_id":"ce4bgqh2rcd13ifvqc4g","pricing_plan_id":"cebpf4jnsgd1na2vs0mg"},{"bike_id":"b9f5bb9a-d9aa-4714-a9ae-ceaed3ab533e","system_id":"levelo_inurba_marseille","lat":43.29643,"lon":5.38045,"is_reserved":false,"is_disabled":false,"rental_uris":{"android":"levelo://app?vid=b9f5bb9a-d9aa-4714-a9ae-ceaed3ab533e","ios":"levelo://app?vid=b9f5bb9a-d9aa-4714-a9ae-ceaed3ab533e"},"vehicle_type_id":"4","last_reported":1767301816,"current_range_meters":2800,"station_id":"","pricing_plan_id":"cebpf4jnsgd1na2vs0mg"},{"bike_id":"dc9feb7e-742c-4c15-83bb-7db4fa4848d4","system_id":"levelo_inurba_marseille","lat":43.3226,"lon":5.38956,"is_reserved":false,"is_disabled":false,"rental_uris":{"android":"levelo://app?vid=dc9feb7e-742c-4c15-83bb-7db4fa4848d4","ios":"levelo://app?vid=dc9feb7e-742c-4c15-83bb-7db4fa4848d4"},"vehicle_type_id":"4","last_reported":1767301816,"current_range_meters":3200,"station_id":"","pricing_plan_id":"cebpf4jnsgd1na2vs0mg"},{"bike_id":"11a08e3c-7344-41a8-bd0c-3a2c8b69e60b","system_id":"levelo_inurba_marseille","lat":43.26563,"lon":5.40321,"is_reserved":false,"is_disabled":false,"rental_uris":{"android":"levelo://app?vid=11a08e3c-7344-41a8-bd0c-3a2c8b69e60b","ios":"levelo://app?vid=11a08e3c-7344-41a8-bd0c-3a2c8b69e60b"},"vehicle_type_id":"4","last_reported":1767301816,"current_range_meters":3200,"station_id":"ce4bhmp2rcd13ifvqgng","pricing_plan_id":"cebpf4jnsgd1na2vs0mg"},{"bike_id":"19f42bee-7289-4ce8-9895-2502418eea62","system_id":"levelo_inurba_marseille","lat":43.30822,"lon":5.38147,"is_reserved":false,"is_disabled":false,"rental_uris":{"android":"levelo://app?vid=19f42bee-7289-4ce8-9895-2502418eea62","ios":"levelo://app?vid=19f42bee-7289-4ce8-9895-2502418eea62"},"vehicle_type_id":"4","last_reported":1767301816,"current_range_meters":3200,"station_id":"ce4bgt12rcd13ifvqce0","pricing_plan_id":"cebpf4jnsgd1na2vs0mg"},{"bike_id":"8b03412a-810b-4a8f-91ea-45d30d05d0ee","system_id":"levelo_inurba_marseille","lat":43.231302,"lon":5.39978,"is_reserved":false,"is_disabled":false,"rental_uris":{"android":"levelo://app?vid=8b03412a-810b-4a8f-91ea-45d30d05d0ee","ios":"levelo://app?vid=8b03412a-810b-4a8f-91ea-45d30d05d0ee"},"vehicle_type_id":"4","last_reported":1767301816,"current_range_meters":3200,"station_id":"","pricing_plan_id":"cebpf4jnsgd1na2vs0mg"},{"bike_id":"2c23f9f9-8490-47c4-8bd7-fa6a1e11ff43","system_id":"levelo_inurba_marseille","lat":43.2867,"lon":5.36339,"is_reserved":false,"is_disabled":true,"rental_uris":{"android":"levelo://app?vid=2c23f9f9-8490-47c4-8bd7-fa6a1e11ff43","ios":"levelo://app?vid=2c23f9f9-8490-47c4-8bd7-fa6a1e11ff43"},"vehicle_type_id":"4","last_reported":1767301816,"current_range_meters":3200,"station_id":"ce4bhah2rcd13ifvqej0","pricing_plan_id":"cebpf4jnsgd1na2vs0mg"},{"bike_id":"dce28840-1b59-4930-917a-12d88071d00f","system_id":"levelo_inurba_marseille","lat":43.28545,"lon":5.44102,"is_reserved":false,"is_disabled":false,"rental_uris":{"android":"levelo://app?vid=dce28840-1b59-4930-917a-12d88071d00f","ios":"levelo://app?vid=dce28840-1b59-4930-917a-12d88071d00f"},"vehicle_type_id":"4","last_reported":1767301816,"current_range_meters":3600,"station_id":"st_d3j3df2ikq2c7380ej80","pricing_plan_id":"cebpf4jnsgd1na2vs0mg"},{"bike_id":"184e6389-cc7d-47e0-b5b1-31eb42b220bd","system_id":"levelo_inurba_marseille","lat":43.29971,"lon":5.38581,"is_reserved":false,"is_disabled":false,"rental_uris":{"android":"levelo://app?vid=184e6389-cc7d-47e0-b5b1-31eb42b220bd","ios":"levelo://app?vid=184e6389-cc7d-47e0-b5b1-31eb42b220bd"},"vehicle_type_id":"4","last_reported":1767301816,"current_range_meters":3600,"station_id":"","pricing_plan_id":"cebpf4jnsgd1na2vs0mg"},{"bike_id":"4a19781c-8ab8-4459-a32c-4a5bdcabf7e6","system_id":"levelo_inurba_marseille","lat":43.225329,"lon":5.34827,"is_reserved":false,"is_disabled":false,"rental_uris":{"android":"levelo://app?vid=4a19781c-8ab8-4459-a32c-4a5bdcabf7e6","ios":"levelo://app?vid=4a19781c-8ab8-4459-a32c-4a5bdcabf7e6"},"vehicle_type_id":"4","last_reported":1767301816,"current_range_meters":3600,"station_id":"","pricing_plan_id":"cebpf4jnsgd1na2vs0mg"},{"bike_id":"149a94e7-8065-4440-a1ab-1ba416a8f181","system_id":"levelo_inurba_marseille","lat":43.28482,"lon":5.48385,"is_reserved":false,"is_disabled":false,"rental_uris":{"android":"levelo://app?vid=149a94e7-8065-4440-a1ab-1ba416a8f181","ios":"levelo://app?vid=149a94e7-8065-4440-a1ab-1ba416a8f181"},"vehicle_type_id":"4","last_reported":1767301816,"current_range_meters":3600,"station_id":"","pricing_plan_id":"cebpf4jnsgd1na2vs0mg"},{"bike_id":"9a2077a2-cebc-468c-82f9-fecda68a9ec3","system_id":"levelo_inurba_marseille","lat":43.2949,"lon":5.40896,"is_reserved":false,"is_disabled":false,"rental_uris":{"android":"levelo://app?vid=9a2077a2-cebc-468c-82f9-fecda68a9ec3","ios":"levelo://app?vid=9a2077a2-cebc-468c-82f9-fecda68a9ec3"},"vehicle_type_id":"4","last_reported":1767301816,"current_range_meters":3600,"station_id":"","pricing_plan_id":"cebpf4jnsgd1na2vs0mg"},{"bike_id":"5ac76dd4-8341-4c0d-b496-0898a4870a5a","system_id":"levelo_inurba_marseille","lat":43.29421,"lon":5.41315,"is_reserved":false,"is_disabled":false,"rental_uris":{"android":"levelo://app?vid=5ac76dd4-8341-4c0d-b496-0898a4870a5a","ios":"levelo://app?vid=5ac76dd4-8341-4c0d-b496-0898a4870a5a"},"vehicle_type_id":"4","last_reported":1767301816,"current_range_meters":4000,"station_id":"","pricing_plan_id":"cebpf4jnsgd1na2vs0mg"},{"bike_id":"e879e245-c881-45dc-80ac-299353d1e7c7","system_id":"levelo_inurba_marseille","lat":43.29279,"lon":5.3744,"is_reserved":false,"is_disabled":false,"rental_uris":{"android":"levelo://app?vid=e879e245-c881-45dc-80ac-299353d1e7c7","ios":"levelo://app?vid=e879e245-c881-45dc-80ac-299353d1e7c7"},"vehicle_type_id":"4","last_reported":1767301816,"current_range_meters":4000,"station_id":"ce4bgi12rcd13ifvqb70","pricing_plan_id":"cebpf4jnsgd1na2vs0mg"},{"bike_id":"681c5b2e-33f5-44fa-b4bf-54d0eaea0b39","system_id":"levelo_inurba_marseille","lat":43.29387,"lon":5.3805,"is_reserved":false,"is_disabled":false,"rental_uris":{"android":"levelo://app?vid=681c5b2e-33f5-44fa-b4bf-54d0eaea0b39","ios":"levelo://app?vid=681c5b2e-33f5-44fa-b4bf-54d0eaea0b39"},"vehicle_type_id":"4","last_reported":1767301816,"current_range_meters":4000,"station_id":"","pricing_plan_id":"cebpf4jnsgd1na2vs0mg"},{"bike_id":"535d562b-448c-43ac-86cc-1d98462f2032","system_id":"levelo_inurba_marseille","lat":43.27927,"lon":5.39616,"is_reserved":false,"is_disabled":false,"rental_uris":{"android":"levelo://app?vid=535d562b-448c-43ac-86cc-1d98462f2032","ios":"levelo://app?vid=535d562b-448c-43ac-86cc-1d98462f2032"},"vehicle_type_id":"4","last_reported":1767301816,"current_range_meters":4000,"station_id":"ce4bhf92rcd13ifvqf40","pricing_plan_id":"cebpf4jnsgd1na2vs0mg"},{"bike_id":"1485075b-1bb5-48d2-b0e5-402379126b05","system_id":"levelo_inurba_marseille","lat":43.29934,"lon":5.38119,"is_reserved":false,"is_disabled":false,"rental_uris":{"android":"levelo://app?vid=1485075b-1bb5-48d2-b0e5-402379126b05","ios":"levelo://app?vid=1485075b-1bb5-48d2-b0e5-402379126b05"},"vehicle_type_id":"4","last_reported":1767301816,"current_range_meters":4000,"station_id":"ce4bgj12rcd13ifvqbc0","pricing_plan_id":"cebpf4jnsgd1na2vs0mg"},{"bike_id":"32a7b5d7-5af3-4910-b418-797951028920","system_id":"levelo_inurba_marseille","lat":43.29146,"lon":5.3852,"is_reserved":false,"is_disabled":false,"rental_uris":{"android":"levelo://app?vid=32a7b5d7-5af3-4910-b418-797951028920","ios":"levelo://app?vid=32a7b5d7-5af3-4910-b418-797951028920"},"vehicle_type_id":"4","last_reported":1767301816,"current_range_meters":4000,"station_id":"","pricing_plan_id":"cebpf4jnsgd1na2vs0mg"},{"bike_id":"46f0ec81-32bc-442c-a431-ee89909da882","system_id":"levelo_inurba_marseille","lat":43.297065,"lon":5.36608,"is_reserved":false,"is_disabled":false,"rental_uris":{"android":"levelo://app?vid=46f0ec81-32bc-442c-a431-ee89909da882","ios":"levelo://app?vid=46f0ec81-32bc-442c-a431-ee89909da882"},"vehicle_type_id":"4","last_reported":1767301816,"current_range_meters":4000,"station_id":"ce4bgn12rcd13ifvqbt0","pricing_plan_id":"cebpf4jnsgd1na2vs0mg"},{"bike_id":"15d4b3a9-2a0c-4e9d-a44e-678b77ebd8cf","system_id":"levelo_inurba_marseille","lat":43.30326,"lon":5.36902,"is_reserved":false,"is_disabled":false,"rental_uris":{"android":"levelo://app?vid=15d4b3a9-2a0c-4e9d-a44e-678b77ebd8cf","ios":"levelo://app?vid=15d4b3a9-2a0c-4e9d-a44e-678b77ebd8cf"},"vehicle_type_id":"4","last_reported":1767301816,"current_range_meters":4000,"station_id":"ce4bgqh2rcd13ifvqc5g","pricing_plan_id":"cebpf4jnsgd1na2vs0mg"},{"bike_id":"5265762e-9468-4f8e-963d-e1d647f4d72d","system_id":"levelo_inurba_marseille","lat":43.337444,"lon":5.374475,"is_reserved":false,"is_disabled":false,"rental_uris":{"android":"levelo://app?vid=5265762e-9468-4f8e-963d-e1d647f4d72d","ios":"levelo://app?vid=5265762e-9468-4f8e-963d-e1d647f4d72d"},"vehicle_type_id":"4","last_reported":1767301816,"current_range_meters":4400,"station_id":"","pricing_plan_id":"cebpf4jnsgd1na2vs0mg"},{"bike_id":"e93c83d5-bafc-41ab-b80f-422d8d8d6d2a","system_id":"levelo_inurba_marseille","lat":43.26848,"lon":5.40078,"is_reserved":false,"is_disabled":false,"rental_uris":{"android":"levelo://app?vid=e93c83d5-bafc-41ab-b80f-422d8d8d6d2a","ios":"levelo://app?vid=e93c83d5-bafc-41ab-b80f-422d8d8d6d2a"},"vehicle_type_id":"4","last_reported":1767301816,"current_range_meters":4400,"station_id":"","pricing_plan_id":"cebpf4jnsgd1na2vs0mg"},{"bike_id":"8fa53ddb-80a9-4b81-a17d-6b07554edef4","system_id":"levelo_inurba_marseille","lat":43.28479,"lon":5.48403,"is_reserved":false,"is_disabled":false,"rental_uris":{"android":"levelo://app?vid=8fa53ddb-80a9-4b81-a17d-6b07554edef4","ios":"levelo://app?vid=8fa53ddb-80a9-4b81-a17d-6b07554edef4"},"vehicle_type_id":"4","last_reported":1767301816,"current_range_meters":4400,"station_id":"st_d3svhcjqgbts73a3dn0g","pricing_plan_id":"cebpf4jnsgd1na2vs0mg"},{"bike_id":"5a7515ff-e2fc-4b00-9961-f190eb04c14e","system_id":"levelo_inurba_marseille","lat":43.28726,"lon":5.37955,"is_reserved":false,"is_disabled":false,"rental_uris":{"android":"levelo://app?vid=5a7515ff-e2fc-4b00-9961-f190eb04c14e","ios":"levelo://app?vid=5a7515ff-e2fc-4b00-9961-f190eb04c14e"},"vehicle_type_id":"4","last_reported":1767301816,"current_range_meters":4400,"station_id":"ce4bh9p2rcd13ifvqec0","pricing_plan_id":"cebpf4jnsgd1na2vs0mg"},{"bike_id":"78ed77cb-47f0-4c82-bf8a-f958576ec953","system_id":"levelo_inurba_marseille","lat":43.281568,"lon":5.426349,"is_reserved":false,"is_disabled":false,"rental_uris":{"android":"levelo://app?vid=78ed77cb-47f0-4c82-bf8a-f958576ec953","ios":"levelo://app?vid=78ed77cb-47f0-4c82-bf8a-f958576ec953"},"vehicle_type_id":"4","last_reported":1767301816,"current_range_meters":4400,"station_id":"ce4bhnh2rcd13ifvqgug","pricing_plan_id":"cebpf4jnsgd1na2vs0mg"},{"bike_id":"b7440949-7f22-4301-98e2-5f9623b5a9cd","system_id":"levelo_inurba_marseille","lat":43.29989,"lon":5.37184,"is_reserved":false,"is_disabled":false,"rental_uris":{"android":"levelo://app?vid=b7440949-7f22-4301-98e2-5f9623b5a9cd","ios":"levelo://app?vid=b7440949-7f22-4301-98e2-5f9623b5a9cd"},"vehicle_type_id":"4","last_reported":1767301816,"current_range_meters":4400,"station_id":"ce4bgr92rcd13ifvqc7g","pricing_plan_id":"cebpf4jnsgd1na2vs0mg"},{"bike_id":"90dac6f2-4e58-4623-b929-4f8d06ec1c31","system_id":"levelo_inurba_marseille","lat":43.28504,"lon":5.42538,"is_reserved":false,"is_disabled":false,"rental_uris":{"android":"levelo://app?vid=90dac6f2-4e58-4623-b929-4f8d06ec1c31","ios":"levelo://app?vid=90dac6f2-4e58-4623-b929-4f8d06ec1c31"},"vehicle_type_id":"4","last_reported":1767301816,"current_range_meters":4800,"station_id":"","pricing_plan_id":"cebpf4jnsgd1na2vs0mg"},{"bike_id":"2d4772b7-d16b-4cb4-a135-dc76b6fe23e3","system_id":"levelo_inurba_marseille","lat":43.28003,"lon":5.40017,"is_reserved":false,"is_disabled":false,"rental_uris":{"android":"levelo://app?vid=2d4772b7-d16b-4cb4-a135-dc76b6fe23e3","ios":"levelo://app?vid=2d4772b7-d16b-4cb4-a135-dc76b6fe23e3"},"vehicle_type_id":"4","last_reported":1767301816,"current_range_meters":4800,"station_id":"ce4bho92rcd13ifvqh4g","pricing_plan_id":"cebpf4jnsgd1na2vs0mg"},{"bike_id":"650cf425-f87e-4c30-9156-354d5fef94cd","system_id":"levelo_inurba_marseille","lat":43.3011,"lon":5.36716,"is_reserved":false,"is_disabled":false,"rental_uris":{"android":"levelo://app?vid=650cf425-f87e-4c30-9156-354d5fef94cd","ios":"levelo://app?vid=650cf425-f87e-4c30-9156-354d5fef94cd"},"vehicle_type_id":"4","last_reported":1767301816,"current_range_meters":4800,"station_id":"","pricing_plan_id":"cebpf4jnsgd1na2vs0mg"},{"bike_id":"b7142933-5bc0-4beb-a4ab-a3152aae03ce","system_id":"levelo_inurba_marseille","lat":43.26009,"lon":5.41734,"is_reserved":false,"is_disabled":false,"rental_uris":{"android":"levelo://app?vid=b7142933-5bc0-4beb-a4ab-a3152aae03ce","ios":"levelo://app?vid=b7142933-5bc0-4beb-a4ab-a3152aae03ce"},"vehicle_type_id":"4","last_reported":1767301816,"current_range_meters":4800,"station_id":"","pricing_plan_id":"cebpf4jnsgd1na2vs0mg"},{"bike_id":"f1cd3895-536b-472c-8d66-26190ec7d7d8","system_id":"levelo_inurba_marseille","lat":43.28465,"lon":5.35879,"is_reserved":false,"is_disabled":false,"rental_uris":{"android":"levelo://app?vid=f1cd3895-536b-472c-8d66-26190ec7d7d8","ios":"levelo://app?vid=f1cd3895-536b-472c-8d66-26190ec7d7d8"},"vehicle_type_id":"4","last_reported":1767301816,"current_range_meters":4800,"station_id":"ce4bhah2rcd13ifvqei0","pricing_plan_id":"cebpf4jnsgd1na2vs0mg"},{"bike_id":"2367bd92-b99b-465d-86bd-3c80e90ce34f","system_id":"levelo_inurba_marseille","lat":43.28608,"lon":5.39863,"is_reserved":false,"is_disabled":false,"rental_uris":{"android":"levelo://app?vid=2367bd92-b99b-465d-86bd-3c80e90ce34f","ios":"levelo://app?vid=2367bd92-b99b-465d-86bd-3c80e90ce34f"},"vehicle_type_id":"4","last_reported":1767301816,"current_range_meters":4800,"station_id":"st_d4a7ka997mjs738ck50g","pricing_plan_id":"cebpf4jnsgd1na2vs0mg"},{"bike_id":"2b23942c-0d5b-4193-b718-e6099c5527d3","system_id":"levelo_inurba_marseille","lat":43.23195,"lon":5.35561,"is_reserved":false,"is_disabled":false,"rental_uris":{"android":"levelo://app?vid=2b23942c-0d5b-4193-b718-e6099c5527d3","ios":"levelo://app?vid=2b23942c-0d5b-4193-b718-e6099c5527d3"},"vehicle_type_id":"4","last_reported":1767301816,"current_range_meters":5600,"station_id":"ce4bhu92rcd13ifvqi70","pricing_plan_id":"cebpf4jnsgd1na2vs0mg"},{"bike_id":"19d6c31d-125a-46cd-a802-94143ac0608f","system_id":"levelo_inurba_marseille","lat":43.29572,"lon":5.39997,"is_reserved":false,"is_disabled":false,"rental_uris":{"android":"levelo://app?vid=19d6c31d-125a-46cd-a802-94143ac0608f","ios":"levelo://app?vid=19d6c31d-125a-46cd-a802-94143ac0608f"},"vehicle_type_id":"4","last_reported":1767301816,"current_range_meters":5600,"station_id":"ce4bh312rcd13ifvqdj0","pricing_plan_id":"cebpf4jnsgd1na2vs0mg"},{"bike_id":"13391d9d-76d7-4fec-b2f0-5b738a1a1639","system_id":"levelo_inurba_marseille","lat":43.24163,"lon":5.39712,"is_reserved":false,"is_disabled":false,"rental_uris":{"android":"levelo://app?vid=13391d9d-76d7-4fec-b2f0-5b738a1a1639","ios":"levelo://app?vid=13391d9d-76d7-4fec-b2f0-5b738a1a1639"},"vehicle_type_id":"4","last_reported":1767301816,"current_range_meters":5600,"station_id":"ce4bhn12rcd13ifvqgpg","pricing_plan_id":"cebpf4jnsgd1na2vs0mg"},{"bike_id":"a3c4293b-86ee-4818-8897-fd2a17481700","system_id":"levelo_inurba_marseille","lat":43.2366,"lon":5.36752,"is_reserved":false,"is_disabled":false,"rental_uris":{"android":"levelo://app?vid=a3c4293b-86ee-4818-8897-fd2a17481700","ios":"levelo://app?vid=a3c4293b-86ee-4818-8897-fd2a17481700"},"vehicle_type_id":"4","last_reported":1767301816,"current_range_meters":5600,"station_id":"","pricing_plan_id":"cebpf4jnsgd1na2vs0mg"},{"bike_id":"b0483a3e-92c3-45e1-84fc-22906381c04b","system_id":"levelo_inurba_marseille","lat":43.23962,"lon":5.36637,"is_reserved":false,"is_disabled":false,"rental_uris":{"android":"levelo://app?vid=b0483a3e-92c3-45e1-84fc-22906381c04b","ios":"levelo://app?vid=b0483a3e-92c3-45e1-84fc-22906381c04b"},"vehicle_type_id":"4","last_reported":1767301816,"current_range_meters":5600,"station_id":"ce4bhi12rcd13ifvqfp0","pricing_plan_id":"cebpf4jnsgd1na2vs0mg"},{"bike_id":"49998141-cac4-4767-a907-b8a3171a3b09","system_id":"levelo_inurba_marseille","lat":43.29155,"lon":5.38493,"is_reserved":false,"is_disabled":false,"rental_uris":{"android":"levelo://app?vid=49998141-cac4-4767-a907-b8a3171a3b09","ios":"levelo://app?vid=49998141-cac4-4767-a907-b8a3171a3b09"},"vehicle_type_id":"4","last_reported":1767301816,"current_range_meters":5600,"station_id":"","pricing_plan_id":"cebpf4jnsgd1na2vs0mg"},{"bike_id":"53f9191b-e003-49c7-90f1-f6c658d01ab0","system_id":"levelo_inurba_marseille","lat":43.28994,"lon":5.35609,"is_reserved":false,"is_disabled":false,"rental_uris":{"android":"levelo://app?vid=53f9191b-e003-49c7-90f1-f6c658d01ab0","ios":"levelo://app?vid=53f9191b-e003-49c7-90f1-f6c658d01ab0"},"vehicle_type_id":"4","last_reported":1767301816,"current_range_meters":5600,"station_id":"ce4bhb92rcd13ifvqen0","pricing_plan_id":"cebpf4jnsgd1na2vs0mg"},{"bike_id":"84ba4234-32a9-4c28-87f1-dba0e33cc35e","system_id":"levelo_inurba_marseille","lat":43.31332,"lon":5.3969,"is_reserved":false,"is_disabled":false,"rental_uris":{"android":"levelo://app?vid=84ba4234-32a9-4c28-87f1-dba0e33cc35e","ios":"levelo://app?vid=84ba4234-32a9-4c28-87f1-dba0e33cc35e"},"vehicle_type_id":"4","last_reported":1767301816,"current_range_meters":5600,"station_id":"ce4bgvp2rcd13ifvqcu0","pricing_plan_id":"cebpf4jnsgd1na2vs0mg"},{"bike_id":"00f10e68-8346-4c92-aadd-174d2f94ed8f","system_id":"levelo_inurba_marseille","lat":43.30279,"lon":5.37247,"is_reserved":false,"is_disabled":false,"rental_uris":{"android":"levelo://app?vid=00f10e68-8346-4c92-aadd-174d2f94ed8f","ios":"levelo://app?vid=00f10e68-8346-4c92-aadd-174d2f94ed8f"},"vehicle_type_id":"4","last_reported":1767301816,"current_range_meters":5600,"station_id":"","pricing_plan_id":"cebpf4jnsgd1na2vs0mg"},{"bike_id":"83e50346-c21e-466e-8922-aea3198152db","system_id":"levelo_inurba_marseille","lat":43.23781,"lon":5.36632,"is_reserved":false,"is_disabled":false,"rental_uris":{"android":"levelo://app?vid=83e50346-c21e-466e-8922-aea3198152db","ios":"levelo://app?vid=83e50346-c21e-466e-8922-aea3198152db"},"vehicle_type_id":"4","last_reported":1767301816,"current_range_meters":5600,"station_id":"st_d3nk18o9ro0c73en2l3g","pricing_plan_id":"cebpf4jnsgd1na2vs0mg"},{"bike_id":"0a187aa3-537e-4db9-b109-f65fc4e03cdf","system_id":"levelo_inurba_marseille","lat":43.29044,"lon":5.39992,"is_reserved":false,"is_disabled":false,"rental_uris":{"android":"levelo://app?vid=0a187aa3-537e-4db9-b109-f65fc4e03cdf","ios":"levelo://app?vid=0a187aa3-537e-4db9-b109-f65fc4e03cdf"},"vehicle_type_id":"4","last_reported":1767301816,"current_range_meters":5600,"station_id":"ce4bh392rcd13ifvqdm0","pricing_plan_id":"cebpf4jnsgd1na2vs0mg"},{"bike_id":"409af472-b6df-44d0-867f-ae2c60de00e4","system_id":"levelo_inurba_marseille","lat":43.2871,"lon":5.38692,"is_reserved":false,"is_disabled":false,"rental_uris":{"android":"levelo://app?vid=409af472-b6df-44d0-867f-ae2c60de00e4","ios":"levelo://app?vid=409af472-b6df-44d0-867f-ae2c60de00e4"},"vehicle_type_id":"4","last_reported":1767301816,"current_range_meters":6000,"station_id":"","pricing_plan_id":"cebpf4jnsgd1na2vs0mg"},{"bike_id":"09994b4f-3e67-40bb-adb2-42adf4242b84","system_id":"levelo_inurba_marseille","lat":43.26208,"lon":5.37446,"is_reserved":false,"is_disabled":false,"rental_uris":{"android":"levelo://app?vid=09994b4f-3e67-40bb-adb2-42adf4242b84","ios":"levelo://app?vid=09994b4f-3e67-40bb-adb2-42adf4242b84"},"vehicle_type_id":"4","last_reported":1767301816,"current_range_meters":6000,"station_id":"ce4bhgp2rcd13ifvqfc0","pricing_plan_id":"cebpf4jnsgd1na2vs0mg"},{"bike_id":"b30a8dae-475d-4d0e-ae88-14fca37f9167","system_id":"levelo_inurba_marseille","lat":43.30781,"lon":5.37648,"is_reserved":false,"is_disabled":false,"rental_uris":{"android":"levelo://app?vid=b30a8dae-475d-4d0e-ae88-14fca37f9167","ios":"levelo://app?vid=b30a8dae-475d-4d0e-ae88-14fca37f9167"},"vehicle_type_id":"4","last_reported":1767301816,"current_range_meters":6000,"station_id":"ce4bgv92rcd13ifvqcq0","pricing_plan_id":"cebpf4jnsgd1na2vs0mg"},{"bike_id":"6c5a0f93-b4f0-4709-9bde-46b446fc69f4","system_id":"levelo_inurba_marseille","lat":43.22565,"lon":5.41631,"is_reserved":false,"is_disabled":false,"rental_uris":{"android":"levelo://app?vid=6c5a0f93-b4f0-4709-9bde-46b446fc69f4","ios":"levelo://app?vid=6c5a0f93-b4f0-4709-9bde-46b446fc69f4"},"vehicle_type_id":"4","last_reported":1767301816,"current_range_meters":6000,"station_id":"st_d2o4gvlbi1j2169b742g","pricing_plan_id":"cebpf4jnsgd1na2vs0mg"},{"bike_id":"b4c42f3c-4854-46f3-bd1e-c8cd6c329e4e","system_id":"levelo_inurba_marseille","lat":43.29599,"lon":5.38103,"is_reserved":false,"is_disabled":false,"rental_uris":{"android":"levelo://app?vid=b4c42f3c-4854-46f3-bd1e-c8cd6c329e4e","ios":"levelo://app?vid=b4c42f3c-4854-46f3-bd1e-c8cd6c329e4e"},"vehicle_type_id":"4","last_reported":1767301816,"current_range_meters":6000,"station_id":"ce4bgl12rcd13ifvqbo0","pricing_plan_id":"cebpf4jnsgd1na2vs0mg"},{"bike_id":"be8ffce0-92be-4864-a534-c85c9ae0632c","system_id":"levelo_inurba_marseille","lat":43.26222,"lon":5.37436,"is_reserved":false,"is_disabled":false,"rental_uris":{"android":"levelo://app?vid=be8ffce0-92be-4864-a534-c85c9ae0632c","ios":"levelo://app?vid=be8ffce0-92be-4864-a534-c85c9ae0632c"},"vehicle_type_id":"4","last_reported":1767301816,"current_range_meters":6000,"station_id":"","pricing_plan_id":"cebpf4jnsgd1na2vs0mg"},{"bike_id":"f2b9bcba-5330-4207-9f9e-28a6386d385d","system_id":"levelo_inurba_marseille","lat":43.2955,"lon":5.37987,"is_reserved":false,"is_disabled":false,"rental_uris":{"android":"levelo://app?vid=f2b9bcba-5330-4207-9f9e-28a6386d385d","ios":"levelo://app?vid=f2b9bcba-5330-4207-9f9e-28a6386d385d"},"vehicle_type_id":"4","last_reported":1767301816,"current_range_meters":6000,"station_id":"","pricing_plan_id":"cebpf4jnsgd1na2vs0mg"},{"bike_id":"7df75586-262d-4ec2-8f98-c0691702c6c8","system_id":"levelo_inurba_marseille","lat":43.28173,"lon":5.42663,"is_reserved":false,"is_disabled":false,"rental_uris":{"android":"levelo://app?vid=7df75586-262d-4ec2-8f98-c0691702c6c8","ios":"levelo://app?vid=7df75586-262d-4ec2-8f98-c0691702c6c8"},"vehicle_type_id":"4","last_reported":1767301816,"current_range_meters":6000,"station_id":"ce4bhnh2rcd13ifvqgug","pricing_plan_id":"cebpf4jnsgd1na2vs0mg"},{"bike_id":"c398a130-0c0d-4ecb-9920-e3a7bb5e654c","system_id":"levelo_inurba_marseille","lat":43.30297,"lon":5.39212,"is_reserved":false,"is_disabled":false,"rental_uris":{"android":"levelo://app?vid=c398a130-0c0d-4ecb-9920-e3a7bb5e654c","ios":"levelo://app?vid=c398a130-0c0d-4ecb-9920-e3a7bb5e654c"},"vehicle_type_id":"4","last_reported":1767301816,"current_range_meters":6000,"station_id":"ce4bgkh2rcd13ifvqbk0","pricing_plan_id":"cebpf4jnsgd1na2vs0mg"},{"bike_id":"43464ac5-5123-4584-a572-085a071fa175","system_id":"levelo_inurba_marseille","lat":43.32408,"lon":5.40401,"is_reserved":false,"is_disabled":false,"rental_uris":{"android":"levelo://app?vid=43464ac5-5123-4584-a572-085a071fa175","ios":"levelo://app?vid=43464ac5-5123-4584-a572-085a071fa175"},"vehicle_type_id":"4","last_reported":1767301816,"current_range_meters":6000,"station_id":"","pricing_plan_id":"cebpf4jnsgd1na2vs0mg"},{"bike_id":"ae16ff2f-039d-4cdf-a936-aa3dd9f21d44","system_id":"levelo_inurba_marseille","lat":43.27055,"lon":5.38295,"is_reserved":false,"is_disabled":false,"rental_uris":{"android":"levelo://app?vid=ae16ff2f-039d-4cdf-a936-aa3dd9f21d44","ios":"levelo://app?vid=ae16ff2f-039d-4cdf-a936-aa3dd9f21d44"},"vehicle_type_id":"4","last_reported":1767301816,"current_range_meters":6400,"station_id":"st_d3n2fo6cfp8s73cte1j0","pricing_plan_id":"cebpf4jnsgd1na2vs0mg"},{"bike_id":"e091a64d-3bea-4eb4-be23-0d33eb28eebf","system_id":"levelo_inurba_marseille","lat":43.26951,"lon":5.40261,"is_reserved":false,"is_disabled":false,"rental_uris":{"android":"levelo://app?vid=e091a64d-3bea-4eb4-be23-0d33eb28eebf","ios":"levelo://app?vid=e091a64d-3bea-4eb4-be23-0d33eb28eebf"},"vehicle_type_id":"4","last_reported":1767301816,"current_range_meters":6400,"station_id":"cjm6bp8fraef2m0cb0m0","pricing_plan_id":"cebpf4jnsgd1na2vs0mg"},{"bike_id":"b167eaf6-bbd1-4720-94cf-697822ec30f1","system_id":"levelo_inurba_marseille","lat":43.30458,"lon":5.37908,"is_reserved":false,"is_disabled":false,"rental_uris":{"android":"levelo://app?vid=b167eaf6-bbd1-4720-94cf-697822ec30f1","ios":"levelo://app?vid=b167eaf6-bbd1-4720-94cf-697822ec30f1"},"vehicle_type_id":"4","last_reported":1767301816,"current_range_meters":6400,"station_id":"ce4bgup2rcd13ifvqcn0","pricing_plan_id":"cebpf4jnsgd1na2vs0mg"},{"bike_id":"a8800cd5-9636-49e9-b1fe-ec75f21420d4","system_id":"levelo_inurba_marseille","lat":43.22565,"lon":5.41632,"is_reserved":false,"is_disabled":false,"rental_uris":{"android":"levelo://app?vid=a8800cd5-9636-49e9-b1fe-ec75f21420d4","ios":"levelo://app?vid=a8800cd5-9636-49e9-b1fe-ec75f21420d4"},"vehicle_type_id":"4","last_reported":1767301816,"current_range_meters":6400,"station_id":"st_d2o4gvlbi1j2169b742g","pricing_plan_id":"cebpf4jnsgd1na2vs0mg"},{"bike_id":"4372a42a-b334-4e8f-9141-9b6d15dd3e03","system_id":"levelo_inurba_marseille","lat":43.28463,"lon":5.48382,"is_reserved":false,"is_disabled":false,"rental_uris":{"android":"levelo://app?vid=4372a42a-b334-4e8f-9141-9b6d15dd3e03","ios":"levelo://app?vid=4372a42a-b334-4e8f-9141-9b6d15dd3e03"},"vehicle_type_id":"4","last_reported":1767301816,"current_range_meters":6400,"station_id":"","pricing_plan_id":"cebpf4jnsgd1na2vs0mg"},{"bike_id":"38dd17e8-5d80-4ad5-aa01-1fd6c367a77e","system_id":"levelo_inurba_marseille","lat":43.28352,"lon":5.38103,"is_reserved":false,"is_disabled":false,"rental_uris":{"android":"levelo://app?vid=38dd17e8-5d80-4ad5-aa01-1fd6c367a77e","ios":"levelo://app?vid=38dd17e8-5d80-4ad5-aa01-1fd6c367a77e"},"vehicle_type_id":"4","last_reported":1767301816,"current_range_meters":6400,"station_id":"ce4bh412rcd13ifvqdr0","pricing_plan_id":"cebpf4jnsgd1na2vs0mg"},{"bike_id":"9e5dafc7-f2da-4d0b-b668-e32cc043ceb4","system_id":"levelo_inurba_marseille","lat":43.28047,"lon":5.40073,"is_reserved":false,"is_disabled":false,"rental_uris":{"android":"levelo://app?vid=9e5dafc7-f2da-4d0b-b668-e32cc043ceb4","ios":"levelo://app?vid=9e5dafc7-f2da-4d0b-b668-e32cc043ceb4"},"vehicle_type_id":"4","last_reported":1767301816,"current_range_meters":6400,"station_id":"","pricing_plan_id":"cebpf4jnsgd1na2vs0mg"},{"bike_id":"a02fb672-5bdf-46c8-9fc1-e8fcbc8dc4d2","system_id":"levelo_inurba_marseille","lat":43.30303,"lon":5.38644,"is_reserved":false,"is_disabled":false,"rental_uris":{"android":"levelo://app?vid=a02fb672-5bdf-46c8-9fc1-e8fcbc8dc4d2","ios":"levelo://app?vid=a02fb672-5bdf-46c8-9fc1-e8fcbc8dc4d2"},"vehicle_type_id":"4","last_reported":1767301816,"current_range_meters":6400,"station_id":"","pricing_plan_id":"cebpf4jnsgd1na2vs0mg"},{"bike_id":"9b31c737-9919-4753-902d-88d0177986b8","system_id":"levelo_inurba_marseille","lat":43.28877,"lon":5.42514,"is_reserved":false,"is_disabled":false,"rental_uris":{"android":"levelo://app?vid=9b31c737-9919-4753-902d-88d0177986b8","ios":"levelo://app?vid=9b31c737-9919-4753-902d-88d0177986b8"},"vehicle_type_id":"4","last_reported":1767301816,"current_range_meters":6400,"station_id":"st_d3b462108ojc7389ooeg","pricing_plan_id":"cebpf4jnsgd1na2vs0mg"},{"bike_id":"9e1c64d3-e7b9-49f4-8f17-a4e4b7f40d5a","system_id":"levelo_inurba_marseille","lat":43.24649,"lon":5.38894,"is_reserved":false,"is_disabled":false,"rental_uris":{"android":"levelo://app?vid=9e1c64d3-e7b9-49f4-8f17-a4e4b7f40d5a","ios":"levelo://app?vid=9e1c64d3-e7b9-49f4-8f17-a4e4b7f40d5a"},"vehicle_type_id":"4","last_reported":1767301816,"current_range_meters":6400,"station_id":"ce4bhg12rcd13ifvqf60","pricing_plan_id":"cebpf4jnsgd1na2vs0mg"},{"bike_id":"cee46e39-3687-4fee-9a5f-ffb17c75dbd2","system_id":"levelo_inurba_marseille","lat":43.24383,"lon":5.37034,"is_reserved":false,"is_disabled":false,"rental_uris":{"android":"levelo://app?vid=cee46e39-3687-4fee-9a5f-ffb17c75dbd2","ios":"levelo://app?vid=cee46e39-3687-4fee-9a5f-ffb17c75dbd2"},"vehicle_type_id":"4","last_reported":1767301816,"current_range_meters":6400,"station_id":"ce4bhhh2rcd13ifvqfk0","pricing_plan_id":"cebpf4jnsgd1na2vs0mg"},{"bike_id":"1e979309-d823-4aaf-b851-f1be8461cefe","system_id":"levelo_inurba_marseille","lat":43.284755,"lon":5.483977,"is_reserved":false,"is_disabled":false,"rental_uris":{"android":"levelo://app?vid=1e979309-d823-4aaf-b851-f1be8461cefe","ios":"levelo://app?vid=1e979309-d823-4aaf-b851-f1be8461cefe"},"vehicle_type_id":"4","last_reported":1767301816,"current_range_meters":6400,"station_id":"st_d3svhcjqgbts73a3dn0g","pricing_plan_id":"cebpf4jnsgd1na2vs0mg"},{"bike_id":"f297e1d0-d6d1-470d-832a-7cfd1d704b5f","system_id":"levelo_inurba_marseille","lat":43.26953,"lon":5.39389,"is_reserved":false,"is_disabled":false,"rental_uris":{"android":"levelo://app?vid=f297e1d0-d6d1-470d-832a-7cfd1d704b5f","ios":"levelo://app?vid=f297e1d0-d6d1-470d-832a-7cfd1d704b5f"},"vehicle_type_id":"4","last_reported":1767301816,"current_range_meters":6400,"station_id":"","pricing_plan_id":"cebpf4jnsgd1na2vs0mg"},{"bike_id":"3e3f7bbb-d8be-4283-a158-c83a5251eb44","system_id":"levelo_inurba_marseille","lat":43.24394,"lon":5.37072,"is_reserved":false,"is_disabled":false,"rental_uris":{"android":"levelo://app?vid=3e3f7bbb-d8be-4283-a158-c83a5251eb44","ios":"levelo://app?vid=3e3f7bbb-d8be-4283-a158-c83a5251eb44"},"vehicle_type_id":"4","last_reported":1767301816,"current_range_meters":6400,"station_id":"ce4bhhh2rcd13ifvqfk0","pricing_plan_id":"cebpf4jnsgd1na2vs0mg"},{"bike_id":"4747ffd6-60b6-4805-ab73-ad7700f33629","system_id":"levelo_inurba_marseille","lat":43.28233,"lon":5.39064,"is_reserved":false,"is_disabled":false,"rental_uris":{"android":"levelo://app?vid=4747ffd6-60b6-4805-ab73-ad7700f33629","ios":"levelo://app?vid=4747ffd6-60b6-4805-ab73-ad7700f33629"},"vehicle_type_id":"4","last_reported":1767301816,"current_range_meters":6400,"station_id":"ce4bhn92rcd13ifvqgsg","pricing_plan_id":"cebpf4jnsgd1na2vs0mg"},{"bike_id":"85e2684f-90a1-433b-a695-bcf01b4dba93","system_id":"levelo_inurba_marseille","lat":43.2894,"lon":5.36626,"is_reserved":false,"is_disabled":false,"rental_uris":{"android":"levelo://app?vid=85e2684f-90a1-433b-a695-bcf01b4dba93","ios":"levelo://app?vid=85e2684f-90a1-433b-a695-bcf01b4dba93"},"vehicle_type_id":"4","last_reported":1767301816,"current_range_meters":6400,"station_id":"ce4bhap2rcd13ifvqek0","pricing_plan_id":"cebpf4jnsgd1na2vs0mg"},{"bike_id":"49a01a11-8673-492e-9b5e-b92964e4e9ba","system_id":"levelo_inurba_marseille","lat":43.28159,"lon":5.42649,"is_reserved":false,"is_disabled":false,"rental_uris":{"android":"levelo://app?vid=49a01a11-8673-492e-9b5e-b92964e4e9ba","ios":"levelo://app?vid=49a01a11-8673-492e-9b5e-b92964e4e9ba"},"vehicle_type_id":"4","last_reported":1767301816,"current_range_meters":6400,"station_id":"ce4bhnh2rcd13ifvqgug","pricing_plan_id":"cebpf4jnsgd1na2vs0mg"},{"bike_id":"f489c472-ee6d-42dd-8be8-3a531cfd3f02","system_id":"levelo_inurba_marseille","lat":43.2877,"lon":5.45483,"is_reserved":false,"is_disabled":false,"rental_uris":{"android":"levelo://app?vid=f489c472-ee6d-42dd-8be8-3a531cfd3f02","ios":"levelo://app?vid=f489c472-ee6d-42dd-8be8-3a531cfd3f02"},"vehicle_type_id":"4","last_reported":1767301816,"current_range_meters":6400,"station_id":"","pricing_plan_id":"cebpf4jnsgd1na2vs0mg"},{"bike_id":"ee1959ff-d4ae-4b6f-9140-6704900b9ea6","system_id":"levelo_inurba_marseille","lat":43.25098,"lon":5.39508,"is_reserved":false,"is_disabled":false,"rental_uris":{"android":"levelo://app?vid=ee1959ff-d4ae-4b6f-9140-6704900b9ea6","ios":"levelo://app?vid=ee1959ff-d4ae-4b6f-9140-6704900b9ea6"},"vehicle_type_id":"4","last_reported":1767301816,"current_range_meters":6400,"station_id":"ce4bhm12rcd13ifvqgkg","pricing_plan_id":"cebpf4jnsgd1na2vs0mg"},{"bike_id":"45ba5a83-d4b7-42f3-8130-25ab5c9667d7","system_id":"levelo_inurba_marseille","lat":43.23178,"lon":5.3998,"is_reserved":false,"is_disabled":false,"rental_uris":{"android":"levelo://app?vid=45ba5a83-d4b7-42f3-8130-25ab5c9667d7","ios":"levelo://app?vid=45ba5a83-d4b7-42f3-8130-25ab5c9667d7"},"vehicle_type_id":"4","last_reported":1767301816,"current_range_meters":6400,"station_id":"ce4bhn12rcd13ifvqgqg","pricing_plan_id":"cebpf4jnsgd1na2vs0mg"},{"bike_id":"fa1d2879-7499-4c80-a305-780210541454","system_id":"levelo_inurba_marseille","lat":43.30913,"lon":5.39975,"is_reserved":false,"is_disabled":false,"rental_uris":{"android":"levelo://app?vid=fa1d2879-7499-4c80-a305-780210541454","ios":"levelo://app?vid=fa1d2879-7499-4c80-a305-780210541454"},"vehicle_type_id":"4","last_reported":1767301816,"current_range_meters":6800,"station_id":"","pricing_plan_id":"cebpf4jnsgd1na2vs0mg"},{"bike_id":"dc1d1fd3-287c-4df2-89a3-973e9127dcfe","system_id":"levelo_inurba_marseille","lat":43.246306,"lon":5.431454,"is_reserved":false,"is_disabled":false,"rental_uris":{"android":"levelo://app?vid=dc1d1fd3-287c-4df2-89a3-973e9127dcfe","ios":"levelo://app?vid=dc1d1fd3-287c-4df2-89a3-973e9127dcfe"},"vehicle_type_id":"4","last_reported":1767301816,"current_range_meters":6800,"station_id":"st_d2m6c4gdas8pm72e190g","pricing_plan_id":"cebpf4jnsgd1na2vs0mg"},{"bike_id":"3282aea1-9bed-44e6-a833-eea50b551ac8","system_id":"levelo_inurba_marseille","lat":43.26943,"lon":5.38918,"is_reserved":false,"is_disabled":false,"rental_uris":{"android":"levelo://app?vid=3282aea1-9bed-44e6-a833-eea50b551ac8","ios":"levelo://app?vid=3282aea1-9bed-44e6-a833-eea50b551ac8"},"vehicle_type_id":"4","last_reported":1767301816,"current_range_meters":6800,"station_id":"ce4bhhh2rcd13ifvqfl0","pricing_plan_id":"cebpf4jnsgd1na2vs0mg"},{"bike_id":"4b612c97-f84b-459a-bc6d-0cd90c252bf8","system_id":"levelo_inurba_marseille","lat":43.26517,"lon":5.37956,"is_reserved":false,"is_disabled":false,"rental_uris":{"android":"levelo://app?vid=4b612c97-f84b-459a-bc6d-0cd90c252bf8","ios":"levelo://app?vid=4b612c97-f84b-459a-bc6d-0cd90c252bf8"},"vehicle_type_id":"4","last_reported":1767301816,"current_range_meters":6800,"station_id":"","pricing_plan_id":"cebpf4jnsgd1na2vs0mg"},{"bike_id":"b5f80a1c-7345-44ae-9c2d-843287ace1f8","system_id":"levelo_inurba_marseille","lat":43.27425,"lon":5.42414,"is_reserved":false,"is_disabled":false,"rental_uris":{"android":"levelo://app?vid=b5f80a1c-7345-44ae-9c2d-843287ace1f8","ios":"levelo://app?vid=b5f80a1c-7345-44ae-9c2d-843287ace1f8"},"vehicle_type_id":"4","last_reported":1767301816,"current_range_meters":6800,"station_id":"","pricing_plan_id":"cebpf4jnsgd1na2vs0mg"},{"bike_id":"25f3b82f-06ca-4f8f-a005-18bf90572843","system_id":"levelo_inurba_marseille","lat":43.30197,"lon":5.36613,"is_reserved":false,"is_disabled":false,"rental_uris":{"android":"levelo://app?vid=25f3b82f-06ca-4f8f-a005-18bf90572843","ios":"levelo://app?vid=25f3b82f-06ca-4f8f-a005-18bf90572843"},"vehicle_type_id":"4","last_reported":1767301816,"current_range_meters":6800,"station_id":"ce4bgrh2rcd13ifvqc8g","pricing_plan_id":"cebpf4jnsgd1na2vs0mg"},{"bike_id":"1763bda5-9a2f-4323-b228-f44726653fd8","system_id":"levelo_inurba_marseille","lat":43.28413,"lon":5.34991,"is_reserved":false,"is_disabled":false,"rental_uris":{"android":"levelo://app?vid=1763bda5-9a2f-4323-b228-f44726653fd8","ios":"levelo://app?vid=1763bda5-9a2f-4323-b228-f44726653fd8"},"vehicle_type_id":"4","last_reported":1767301816,"current_range_meters":6800,"station_id":"ce4bhbh2rcd13ifvqepg","pricing_plan_id":"cebpf4jnsgd1na2vs0mg"},{"bike_id":"86312e98-3486-4367-b50a-7a5236f4b8d0","system_id":"levelo_inurba_marseille","lat":43.276892,"lon":5.389073,"is_reserved":false,"is_disabled":false,"rental_uris":{"android":"levelo://app?vid=86312e98-3486-4367-b50a-7a5236f4b8d0","ios":"levelo://app?vid=86312e98-3486-4367-b50a-7a5236f4b8d0"},"vehicle_type_id":"4","last_reported":1767301816,"current_range_meters":6800,"station_id":"ce4bhi12rcd13ifvqfo0","pricing_plan_id":"cebpf4jnsgd1na2vs0mg"},{"bike_id":"23dd68b5-83fe-4e9e-b59e-9beb906eba90","system_id":"levelo_inurba_marseille","lat":43.28438,"lon":5.34954,"is_reserved":false,"is_disabled":false,"rental_uris":{"android":"levelo://app?vid=23dd68b5-83fe-4e9e-b59e-9beb906eba90","ios":"levelo://app?vid=23dd68b5-83fe-4e9e-b59e-9beb906eba90"},"vehicle_type_id":"4","last_reported":1767301816,"current_range_meters":6800,"station_id":"ce4bhbh2rcd13ifvqepg","pricing_plan_id":"cebpf4jnsgd1na2vs0mg"},{"bike_id":"73342cd1-bf95-4a1c-9f45-49ae6f0fd972","system_id":"levelo_inurba_marseille","lat":43.28865,"lon":5.42526,"is_reserved":false,"is_disabled":false,"rental_uris":{"android":"levelo://app?vid=73342cd1-bf95-4a1c-9f45-49ae6f0fd972","ios":"levelo://app?vid=73342cd1-bf95-4a1c-9f45-49ae6f0fd972"},"vehicle_type_id":"4","last_reported":1767301816,"current_range_meters":6800,"station_id":"st_d3b462108ojc7389ooeg","pricing_plan_id":"cebpf4jnsgd1na2vs0mg"},{"bike_id":"6d39cb04-ab3b-45c1-90d7-0c7a54998c4a","system_id":"levelo_inurba_marseille","lat":43.27943,"lon":5.38032,"is_reserved":false,"is_disabled":false,"rental_uris":{"android":"levelo://app?vid=6d39cb04-ab3b-45c1-90d7-0c7a54998c4a","ios":"levelo://app?vid=6d39cb04-ab3b-45c1-90d7-0c7a54998c4a"},"vehicle_type_id":"4","last_reported":1767301816,"current_range_meters":6800,"station_id":"ce4bhf92rcd13ifvqf50","pricing_plan_id":"cebpf4jnsgd1na2vs0mg"},{"bike_id":"ca2a4141-2d11-4724-ae9a-5df9c6e34715","system_id":"levelo_inurba_marseille","lat":43.24658,"lon":5.38884,"is_reserved":false,"is_disabled":false,"rental_uris":{"android":"levelo://app?vid=ca2a4141-2d11-4724-ae9a-5df9c6e34715","ios":"levelo://app?vid=ca2a4141-2d11-4724-ae9a-5df9c6e34715"},"vehicle_type_id":"4","last_reported":1767301816,"current_range_meters":6800,"station_id":"ce4bhg12rcd13ifvqf60","pricing_plan_id":"cebpf4jnsgd1na2vs0mg"},{"bike_id":"0f665c68-b10c-465f-b5de-4f1868ac7b7c","system_id":"levelo_inurba_marseille","lat":43.31546,"lon":5.38037,"is_reserved":false,"is_disabled":false,"rental_uris":{"android":"levelo://app?vid=0f665c68-b10c-465f-b5de-4f1868ac7b7c","ios":"levelo://app?vid=0f665c68-b10c-465f-b5de-4f1868ac7b7c"},"vehicle_type_id":"4","last_reported":1767301816,"current_range_meters":6800,"station_id":"ce4bhsp2rcd13ifvqi50","pricing_plan_id":"cebpf4jnsgd1na2vs0mg"},{"bike_id":"edb144c4-7934-4963-a970-3320a0ca02a8","system_id":"levelo_inurba_marseille","lat":43.21773,"lon":5.34599,"is_reserved":false,"is_disabled":false,"rental_uris":{"android":"levelo://app?vid=edb144c4-7934-4963-a970-3320a0ca02a8","ios":"levelo://app?vid=edb144c4-7934-4963-a970-3320a0ca02a8"},"vehicle_type_id":"4","last_reported":1767301816,"current_range_meters":6800,"station_id":"st_cvj6r9ubvosntc0bgbag","pricing_plan_id":"cebpf4jnsgd1na2vs0mg"},{"bike_id":"f9e9fd89-b7c6-4e84-90bb-2a2dc045365a","system_id":"levelo_inurba_marseille","lat":43.25931,"lon":5.40897,"is_reserved":false,"is_disabled":false,"rental_uris":{"android":"levelo://app?vid=f9e9fd89-b7c6-4e84-90bb-2a2dc045365a","ios":"levelo://app?vid=f9e9fd89-b7c6-4e84-90bb-2a2dc045365a"},"vehicle_type_id":"4","last_reported":1767301816,"current_range_meters":6800,"station_id":"ce4bhm92rcd13ifvqglg","pricing_plan_id":"cebpf4jnsgd1na2vs0mg"},{"bike_id":"f67b27fd-3187-4788-bd7d-e0af66f9e610","system_id":"levelo_inurba_marseille","lat":43.31717,"lon":5.4045,"is_reserved":false,"is_disabled":false,"rental_uris":{"android":"levelo://app?vid=f67b27fd-3187-4788-bd7d-e0af66f9e610","ios":"levelo://app?vid=f67b27fd-3187-4788-bd7d-e0af66f9e610"},"vehicle_type_id":"4","last_reported":1767301816,"current_range_meters":6800,"station_id":"ce4bh012rcd13ifvqd00","pricing_plan_id":"cebpf4jnsgd1na2vs0mg"},{"bike_id":"10082815-dbf9-4a48-b9bb-b7d9a21347fa","system_id":"levelo_inurba_marseille","lat":43.21731,"lon":5.34599,"is_reserved":false,"is_disabled":false,"rental_uris":{"android":"levelo://app?vid=10082815-dbf9-4a48-b9bb-b7d9a21347fa","ios":"levelo://app?vid=10082815-dbf9-4a48-b9bb-b7d9a21347fa"},"vehicle_type_id":"4","last_reported":1767301816,"current_range_meters":6800,"station_id":"","pricing_plan_id":"cebpf4jnsgd1na2vs0mg"},{"bike_id":"b7ae8b8f-c800-4cd2-b0a1-e6db5363e1d5","system_id":"levelo_inurba_marseille","lat":43.25508,"lon":5.37654,"is_reserved":false,"is_disabled":false,"rental_uris":{"android":"levelo://app?vid=b7ae8b8f-c800-4cd2-b0a1-e6db5363e1d5","ios":"levelo://app?vid=b7ae8b8f-c800-4cd2-b0a1-e6db5363e1d5"},"vehicle_type_id":"4","last_reported":1767301816,"current_range_meters":7200,"station_id":"ce4bhh12rcd13ifvqff0","pricing_plan_id":"cebpf4jnsgd1na2vs0mg"},{"bike_id":"d0a14b8c-493b-4124-bec9-8bc814d9e57b","system_id":"levelo_inurba_marseille","lat":43.30787,"lon":5.37641,"is_reserved":false,"is_disabled":false,"rental_uris":{"android":"levelo://app?vid=d0a14b8c-493b-4124-bec9-8bc814d9e57b","ios":"levelo://app?vid=d0a14b8c-493b-4124-bec9-8bc814d9e57b"},"vehicle_type_id":"4","last_reported":1767301816,"current_range_meters":7200,"station_id":"ce4bgv92rcd13ifvqcq0","pricing_plan_id":"cebpf4jnsgd1na2vs0mg"},{"bike_id":"d4c6dc95-f402-4619-8161-a90cb01a834e","system_id":"levelo_inurba_marseille","lat":43.2891,"lon":5.42478,"is_reserved":false,"is_disabled":false,"rental_uris":{"android":"levelo://app?vid=d4c6dc95-f402-4619-8161-a90cb01a834e","ios":"levelo://app?vid=d4c6dc95-f402-4619-8161-a90cb01a834e"},"vehicle_type_id":"4","last_reported":1767301816,"current_range_meters":7200,"station_id":"","pricing_plan_id":"cebpf4jnsgd1na2vs0mg"},{"bike_id":"7f8bc2f4-3256-4176-a803-fa7e148de4c6","system_id":"levelo_inurba_marseille","lat":43.2436,"lon":5.40891,"is_reserved":false,"is_disabled":false,"rental_uris":{"android":"levelo://app?vid=7f8bc2f4-3256-4176-a803-fa7e148de4c6","ios":"levelo://app?vid=7f8bc2f4-3256-4176-a803-fa7e148de4c6"},"vehicle_type_id":"4","last_reported":1767301816,"current_range_meters":7200,"station_id":"","pricing_plan_id":"cebpf4jnsgd1na2vs0mg"},{"bike_id":"ca3f2db3-b93a-4ad8-90f8-de36e33fe8b4","system_id":"levelo_inurba_marseille","lat":43.225329,"lon":5.348285,"is_reserved":false,"is_disabled":false,"rental_uris":{"android":"levelo://app?vid=ca3f2db3-b93a-4ad8-90f8-de36e33fe8b4","ios":"levelo://app?vid=ca3f2db3-b93a-4ad8-90f8-de36e33fe8b4"},"vehicle_type_id":"4","last_reported":1767301816,"current_range_meters":7200,"station_id":"","pricing_plan_id":"cebpf4jnsgd1na2vs0mg"},{"bike_id":"83a5ad5a-fe84-4c67-bbe0-e18050e1f9a3","system_id":"levelo_inurba_marseille","lat":43.27675,"lon":5.38888,"is_reserved":false,"is_disabled":false,"rental_uris":{"android":"levelo://app?vid=83a5ad5a-fe84-4c67-bbe0-e18050e1f9a3","ios":"levelo://app?vid=83a5ad5a-fe84-4c67-bbe0-e18050e1f9a3"},"vehicle_type_id":"4","last_reported":1767301816,"current_range_meters":7200,"station_id":"ce4bhi12rcd13ifvqfo0","pricing_plan_id":"cebpf4jnsgd1na2vs0mg"},{"bike_id":"051f3fd6-8a3b-4cb8-bc8d-666a69e5cd08","system_id":"levelo_inurba_marseille","lat":43.2441,"lon":5.37198,"is_reserved":false,"is_disabled":false,"rental_uris":{"android":"levelo://app?vid=051f3fd6-8a3b-4cb8-bc8d-666a69e5cd08","ios":"levelo://app?vid=051f3fd6-8a3b-4cb8-bc8d-666a69e5cd08"},"vehicle_type_id":"4","last_reported":1767301816,"current_range_meters":7200,"station_id":"ce4bhhh2rcd13ifvqfk0","pricing_plan_id":"cebpf4jnsgd1na2vs0mg"},{"bike_id":"d0f568b9-b5bf-4480-b688-e3d8ab9f0c4f","system_id":"levelo_inurba_marseille","lat":43.28432,"lon":5.37509,"is_reserved":false,"is_disabled":false,"rental_uris":{"android":"levelo://app?vid=d0f568b9-b5bf-4480-b688-e3d8ab9f0c4f","ios":"levelo://app?vid=d0f568b9-b5bf-4480-b688-e3d8ab9f0c4f"},"vehicle_type_id":"4","last_reported":1767301816,"current_range_meters":7200,"station_id":"ce4bh412rcd13ifvqds0","pricing_plan_id":"cebpf4jnsgd1na2vs0mg"},{"bike_id":"ea5031e4-b749-4d48-ba29-71e8d8d5383b","system_id":"levelo_inurba_marseille","lat":43.26402,"lon":5.37394,"is_reserved":false,"is_disabled":false,"rental_uris":{"android":"levelo://app?vid=ea5031e4-b749-4d48-ba29-71e8d8d5383b","ios":"levelo://app?vid=ea5031e4-b749-4d48-ba29-71e8d8d5383b"},"vehicle_type_id":"4","last_reported":1767301816,"current_range_meters":7200,"station_id":"","pricing_plan_id":"cebpf4jnsgd1na2vs0mg"},{"bike_id":"0d8b64dc-d3a4-4c37-80be-c48d945a81e3","system_id":"levelo_inurba_marseille","lat":43.28484,"lon":5.38425,"is_reserved":false,"is_disabled":true,"rental_uris":{"android":"levelo://app?vid=0d8b64dc-d3a4-4c37-80be-c48d945a81e3","ios":"levelo://app?vid=0d8b64dc-d3a4-4c37-80be-c48d945a81e3"},"vehicle_type_id":"4","last_reported":1767301816,"current_range_meters":7200,"station_id":"","pricing_plan_id":"cebpf4jnsgd1na2vs0mg"},{"bike_id":"d51b6a44-a05b-4deb-9147-7a5a8c9b7a34","system_id":"levelo_inurba_marseille","lat":43.29604,"lon":5.38094,"is_reserved":false,"is_disabled":false,"rental_uris":{"android":"levelo://app?vid=d51b6a44-a05b-4deb-9147-7a5a8c9b7a34","ios":"levelo://app?vid=d51b6a44-a05b-4deb-9147-7a5a8c9b7a34"},"vehicle_type_id":"4","last_reported":1767301816,"current_range_meters":7200,"station_id":"ce4bgl12rcd13ifvqbo0","pricing_plan_id":"cebpf4jnsgd1na2vs0mg"},{"bike_id":"e81f6402-b575-44f8-9405-25f53ea6d92c","system_id":"levelo_inurba_marseille","lat":43.2956,"lon":5.37503,"is_reserved":false,"is_disabled":false,"rental_uris":{"android":"levelo://app?vid=e81f6402-b575-44f8-9405-25f53ea6d92c","ios":"levelo://app?vid=e81f6402-b575-44f8-9405-25f53ea6d92c"},"vehicle_type_id":"4","last_reported":1767301816,"current_range_meters":7200,"station_id":"ce4bgh92rcd13ifvqb50","pricing_plan_id":"cebpf4jnsgd1na2vs0mg"},{"bike_id":"d49fd2c9-dca5-4864-87e0-359520dd27b8","system_id":"levelo_inurba_marseille","lat":43.26141,"lon":5.3975,"is_reserved":false,"is_disabled":false,"rental_uris":{"android":"levelo://app?vid=d49fd2c9-dca5-4864-87e0-359520dd27b8","ios":"levelo://app?vid=d49fd2c9-dca5-4864-87e0-359520dd27b8"},"vehicle_type_id":"4","last_reported":1767301816,"current_range_meters":7200,"station_id":"","pricing_plan_id":"cebpf4jnsgd1na2vs0mg"},{"bike_id":"59b9f952-f261-4669-9bf2-ec09f3352df3","system_id":"levelo_inurba_marseille","lat":43.27062,"lon":5.42265,"is_reserved":false,"is_disabled":false,"rental_uris":{"android":"levelo://app?vid=59b9f952-f261-4669-9bf2-ec09f3352df3","ios":"levelo://app?vid=59b9f952-f261-4669-9bf2-ec09f3352df3"},"vehicle_type_id":"4","last_reported":1767301816,"current_range_meters":7200,"station_id":"ce4bhk92rcd13ifvqgb0","pricing_plan_id":"cebpf4jnsgd1na2vs0mg"},{"bike_id":"9df51a33-d8d1-4b42-9888-b57cc9ef08bc","system_id":"levelo_inurba_marseille","lat":43.29495,"lon":5.38746,"is_reserved":false,"is_disabled":false,"rental_uris":{"android":"levelo://app?vid=9df51a33-d8d1-4b42-9888-b57cc9ef08bc","ios":"levelo://app?vid=9df51a33-d8d1-4b42-9888-b57cc9ef08bc"},"vehicle_type_id":"4","last_reported":1767301816,"current_range_meters":7200,"station_id":"","pricing_plan_id":"cebpf4jnsgd1na2vs0mg"},{"bike_id":"6bda29c0-298a-4931-b152-ee72aefab1c3","system_id":"levelo_inurba_marseille","lat":43.29866,"lon":5.37634,"is_reserved":false,"is_disabled":false,"rental_uris":{"android":"levelo://app?vid=6bda29c0-298a-4931-b152-ee72aefab1c3","ios":"levelo://app?vid=6bda29c0-298a-4931-b152-ee72aefab1c3"},"vehicle_type_id":"4","last_reported":1767301816,"current_range_meters":7200,"station_id":"","pricing_plan_id":"cebpf4jnsgd1na2vs0mg"},{"bike_id":"a9d7370e-c542-4ea5-b026-82659eb4c204","system_id":"levelo_inurba_marseille","lat":43.23969,"lon":5.36623,"is_reserved":false,"is_disabled":false,"rental_uris":{"android":"levelo://app?vid=a9d7370e-c542-4ea5-b026-82659eb4c204","ios":"levelo://app?vid=a9d7370e-c542-4ea5-b026-82659eb4c204"},"vehicle_type_id":"4","last_reported":1767301816,"current_range_meters":7200,"station_id":"ce4bhi12rcd13ifvqfp0","pricing_plan_id":"cebpf4jnsgd1na2vs0mg"},{"bike_id":"14a063dc-6bdd-4941-b6ce-72e2ea651aa8","system_id":"levelo_inurba_marseille","lat":43.29173,"lon":5.35794,"is_reserved":false,"is_disabled":false,"rental_uris":{"android":"levelo://app?vid=14a063dc-6bdd-4941-b6ce-72e2ea651aa8","ios":"levelo://app?vid=14a063dc-6bdd-4941-b6ce-72e2ea651aa8"},"vehicle_type_id":"4","last_reported":1767301816,"current_range_meters":7200,"station_id":"ce4bhb12rcd13ifvqel0","pricing_plan_id":"cebpf4jnsgd1na2vs0mg"},{"bike_id":"84e86dfc-b61a-42c1-93b8-a112038f791b","system_id":"levelo_inurba_marseille","lat":43.28614,"lon":5.35108,"is_reserved":false,"is_disabled":false,"rental_uris":{"android":"levelo://app?vid=84e86dfc-b61a-42c1-93b8-a112038f791b","ios":"levelo://app?vid=84e86dfc-b61a-42c1-93b8-a112038f791b"},"vehicle_type_id":"4","last_reported":1767301816,"current_range_meters":7200,"station_id":"ce4bhch2rcd13ifvqeug","pricing_plan_id":"cebpf4jnsgd1na2vs0mg"},{"bike_id":"73ffe705-5471-4050-890d-67e3966b70ed","system_id":"levelo_inurba_marseille","lat":43.30128,"lon":5.43117,"is_reserved":false,"is_disabled":false,"rental_uris":{"android":"levelo://app?vid=73ffe705-5471-4050-890d-67e3966b70ed","ios":"levelo://app?vid=73ffe705-5471-4050-890d-67e3966b70ed"},"vehicle_type_id":"4","last_reported":1767301816,"current_range_meters":7200,"station_id":"st_d3js3co5814s73ftftug","pricing_plan_id":"cebpf4jnsgd1na2vs0mg"},{"bike_id":"8f36adfd-9702-444f-9761-701cb7e1083e","system_id":"levelo_inurba_marseille","lat":43.28948,"lon":5.36403,"is_reserved":false,"is_disabled":false,"rental_uris":{"android":"levelo://app?vid=8f36adfd-9702-444f-9761-701cb7e1083e","ios":"levelo://app?vid=8f36adfd-9702-444f-9761-701cb7e1083e"},"vehicle_type_id":"4","last_reported":1767301816,"current_range_meters":8000,"station_id":"ce4bhc92rcd13ifvqetg","pricing_plan_id":"cebpf4jnsgd1na2vs0mg"},{"bike_id":"6d172131-32dd-4471-aae8-b5be3a5a59d1","system_id":"levelo_inurba_marseille","lat":43.27372,"lon":5.36259,"is_reserved":false,"is_disabled":false,"rental_uris":{"android":"levelo://app?vid=6d172131-32dd-4471-aae8-b5be3a5a59d1","ios":"levelo://app?vid=6d172131-32dd-4471-aae8-b5be3a5a59d1"},"vehicle_type_id":"4","last_reported":1767301816,"current_range_meters":8000,"station_id":"ce4bhbh2rcd13ifvqeo0","pricing_plan_id":"cebpf4jnsgd1na2vs0mg"},{"bike_id":"f86a25f1-ea9e-4c4d-8fca-5f1887ab98fa","system_id":"levelo_inurba_marseille","lat":43.28484,"lon":5.3844,"is_reserved":false,"is_disabled":false,"rental_uris":{"android":"levelo://app?vid=f86a25f1-ea9e-4c4d-8fca-5f1887ab98fa","ios":"levelo://app?vid=f86a25f1-ea9e-4c4d-8fca-5f1887ab98fa"},"vehicle_type_id":"4","last_reported":1767301816,"current_range_meters":8000,"station_id":"ce4bh512rcd13ifvqe3g","pricing_plan_id":"cebpf4jnsgd1na2vs0mg"},{"bike_id":"02382ba1-c53a-4d54-ae09-ac85bbe6d34b","system_id":"levelo_inurba_marseille","lat":43.29281,"lon":5.37426,"is_reserved":false,"is_disabled":false,"rental_uris":{"android":"levelo://app?vid=02382ba1-c53a-4d54-ae09-ac85bbe6d34b","ios":"levelo://app?vid=02382ba1-c53a-4d54-ae09-ac85bbe6d34b"},"vehicle_type_id":"4","last_reported":1767301816,"current_range_meters":8000,"station_id":"ce4bgi12rcd13ifvqb70","pricing_plan_id":"cebpf4jnsgd1na2vs0mg"},{"bike_id":"15535b78-92b9-46c7-ac4c-9d282c3dd513","system_id":"levelo_inurba_marseille","lat":43.28716,"lon":5.39992,"is_reserved":false,"is_disabled":true,"rental_uris":{"android":"levelo://app?vid=15535b78-92b9-46c7-ac4c-9d282c3dd513","ios":"levelo://app?vid=15535b78-92b9-46c7-ac4c-9d282c3dd513"},"vehicle_type_id":"4","last_reported":1767301816,"current_range_meters":8000,"station_id":"ce4bho92rcd13ifvqh3g","pricing_plan_id":"cebpf4jnsgd1na2vs0mg"},{"bike_id":"65586352-19ee-4979-8cba-b52cca760c9d","system_id":"levelo_inurba_marseille","lat":43.2921,"lon":5.38773,"is_reserved":false,"is_disabled":false,"rental_uris":{"android":"levelo://app?vid=65586352-19ee-4979-8cba-b52cca760c9d","ios":"levelo://app?vid=65586352-19ee-4979-8cba-b52cca760c9d"},"vehicle_type_id":"4","last_reported":1767301816,"current_range_meters":8000,"station_id":"","pricing_plan_id":"cebpf4jnsgd1na2vs0mg"},{"bike_id":"71feabac-18bb-4c38-9f1c-553d18ed10d6","system_id":"levelo_inurba_marseille","lat":43.29603,"lon":5.37178,"is_reserved":false,"is_disabled":false,"rental_uris":{"android":"levelo://app?vid=71feabac-18bb-4c38-9f1c-553d18ed10d6","ios":"levelo://app?vid=71feabac-18bb-4c38-9f1c-553d18ed10d6"},"vehicle_type_id":"4","last_reported":1767301816,"current_range_meters":8000,"station_id":"ce4bgnh2rcd13ifvqc0g","pricing_plan_id":"cebpf4jnsgd1na2vs0mg"},{"bike_id":"bd706bad-1cdd-46da-9aa9-c9b2e6f3f4f0","system_id":"levelo_inurba_marseille","lat":43.26497,"lon":5.39536,"is_reserved":false,"is_disabled":false,"rental_uris":{"android":"levelo://app?vid=bd706bad-1cdd-46da-9aa9-c9b2e6f3f4f0","ios":"levelo://app?vid=bd706bad-1cdd-46da-9aa9-c9b2e6f3f4f0"},"vehicle_type_id":"4","last_reported":1767301816,"current_range_meters":8000,"station_id":"ce4bhi12rcd13ifvqfq0","pricing_plan_id":"cebpf4jnsgd1na2vs0mg"},{"bike_id":"e369a9a2-eda3-46c0-81f1-34af3ed43d1e","system_id":"levelo_inurba_marseille","lat":43.30596,"lon":5.39352,"is_reserved":false,"is_disabled":false,"rental_uris":{"android":"levelo://app?vid=e369a9a2-eda3-46c0-81f1-34af3ed43d1e","ios":"levelo://app?vid=e369a9a2-eda3-46c0-81f1-34af3ed43d1e"},"vehicle_type_id":"4","last_reported":1767301816,"current_range_meters":8000,"station_id":"ce4bh0p2rcd13ifvqd80","pricing_plan_id":"cebpf4jnsgd1na2vs0mg"},{"bike_id":"f27745bc-a703-4c7b-b0b1-1028a16be233","system_id":"levelo_inurba_marseille","lat":43.29572,"lon":5.3808,"is_reserved":false,"is_disabled":false,"rental_uris":{"android":"levelo://app?vid=f27745bc-a703-4c7b-b0b1-1028a16be233","ios":"levelo://app?vid=f27745bc-a703-4c7b-b0b1-1028a16be233"},"vehicle_type_id":"4","last_reported":1767301816,"current_range_meters":8000,"station_id":"ce4bgl12rcd13ifvqbo0","pricing_plan_id":"cebpf4jnsgd1na2vs0mg"},{"bike_id":"2350a43b-549f-425a-a2e1-d8a5699a4cb1","system_id":"levelo_inurba_marseille","lat":43.30781,"lon":5.37655,"is_reserved":false,"is_disabled":false,"rental_uris":{"android":"levelo://app?vid=2350a43b-549f-425a-a2e1-d8a5699a4cb1","ios":"levelo://app?vid=2350a43b-549f-425a-a2e1-d8a5699a4cb1"},"vehicle_type_id":"4","last_reported":1767301816,"current_range_meters":8400,"station_id":"ce4bgv92rcd13ifvqcq0","pricing_plan_id":"cebpf4jnsgd1na2vs0mg"},{"bike_id":"de4d6dec-43d6-4438-b1b1-061395e51b1a","system_id":"levelo_inurba_marseille","lat":43.28475,"lon":5.38396,"is_reserved":false,"is_disabled":false,"rental_uris":{"android":"levelo://app?vid=de4d6dec-43d6-4438-b1b1-061395e51b1a","ios":"levelo://app?vid=de4d6dec-43d6-4438-b1b1-061395e51b1a"},"vehicle_type_id":"4","last_reported":1767301816,"current_range_meters":8400,"station_id":"ce4bh512rcd13ifvqe3g","pricing_plan_id":"cebpf4jnsgd1na2vs0mg"},{"bike_id":"9cd71620-62fb-4f72-a225-41e5a96f4b2e","system_id":"levelo_inurba_marseille","lat":43.2481,"lon":5.37457,"is_reserved":false,"is_disabled":false,"rental_uris":{"android":"levelo://app?vid=9cd71620-62fb-4f72-a225-41e5a96f4b2e","ios":"levelo://app?vid=9cd71620-62fb-4f72-a225-41e5a96f4b2e"},"vehicle_type_id":"4","last_reported":1767301816,"current_range_meters":8400,"station_id":"ce4bhgh2rcd13ifvqfb0","pricing_plan_id":"cebpf4jnsgd1na2vs0mg"},{"bike_id":"bab8f5ce-6ea3-45fd-aa21-29b68816a77a","system_id":"levelo_inurba_marseille","lat":43.26484,"lon":5.39547,"is_reserved":false,"is_disabled":false,"rental_uris":{"android":"levelo://app?vid=bab8f5ce-6ea3-45fd-aa21-29b68816a77a","ios":"levelo://app?vid=bab8f5ce-6ea3-45fd-aa21-29b68816a77a"},"vehicle_type_id":"4","last_reported":1767301816,"current_range_meters":8400,"station_id":"ce4bhi12rcd13ifvqfq0","pricing_plan_id":"cebpf4jnsgd1na2vs0mg"},{"bike_id":"a37546a5-5ed0-437a-8b08-467eedf47722","system_id":"levelo_inurba_marseille","lat":43.24546,"lon":5.39519,"is_reserved":false,"is_disabled":false,"rental_uris":{"android":"levelo://app?vid=a37546a5-5ed0-437a-8b08-467eedf47722","ios":"levelo://app?vid=a37546a5-5ed0-437a-8b08-467eedf47722"},"vehicle_type_id":"4","last_reported":1767301816,"current_range_meters":8400,"station_id":"ce4bhlp2rcd13ifvqgjg","pricing_plan_id":"cebpf4jnsgd1na2vs0mg"},{"bike_id":"c033d2f6-a6cb-4fd7-a961-50f17588c0a8","system_id":"levelo_inurba_marseille","lat":43.28227,"lon":5.39041,"is_reserved":false,"is_disabled":false,"rental_uris":{"android":"levelo://app?vid=c033d2f6-a6cb-4fd7-a961-50f17588c0a8","ios":"levelo://app?vid=c033d2f6-a6cb-4fd7-a961-50f17588c0a8"},"vehicle_type_id":"4","last_reported":1767301816,"current_range_meters":8400,"station_id":"ce4bhn92rcd13ifvqgsg","pricing_plan_id":"cebpf4jnsgd1na2vs0mg"},{"bike_id":"057c9c8d-777a-4461-a92a-6845c43c397c","system_id":"levelo_inurba_marseille","lat":43.29536,"lon":5.39413,"is_reserved":false,"is_disabled":false,"rental_uris":{"android":"levelo://app?vid=057c9c8d-777a-4461-a92a-6845c43c397c","ios":"levelo://app?vid=057c9c8d-777a-4461-a92a-6845c43c397c"},"vehicle_type_id":"4","last_reported":1767301816,"current_range_meters":8400,"station_id":"ce4bh292rcd13ifvqdf0","pricing_plan_id":"cebpf4jnsgd1na2vs0mg"},{"bike_id":"a0873333-ecdf-4ac4-985a-045fb2238f0a","system_id":"levelo_inurba_marseille","lat":43.28466,"lon":5.35868,"is_reserved":false,"is_disabled":false,"rental_uris":{"android":"levelo://app?vid=a0873333-ecdf-4ac4-985a-045fb2238f0a","ios":"levelo://app?vid=a0873333-ecdf-4ac4-985a-045fb2238f0a"},"vehicle_type_id":"4","last_reported":1767301816,"current_range_meters":8400,"station_id":"","pricing_plan_id":"cebpf4jnsgd1na2vs0mg"},{"bike_id":"2e432000-19e4-474b-acb8-4742408d8ecf","system_id":"levelo_inurba_marseille","lat":43.29646,"lon":5.37955,"is_reserved":false,"is_disabled":false,"rental_uris":{"android":"levelo://app?vid=2e432000-19e4-474b-acb8-4742408d8ecf","ios":"levelo://app?vid=2e432000-19e4-474b-acb8-4742408d8ecf"},"vehicle_type_id":"4","last_reported":1767301816,"current_range_meters":8400,"station_id":"","pricing_plan_id":"cebpf4jnsgd1na2vs0mg"},{"bike_id":"81586eb2-5997-4a7f-910d-f12ada7984c8","system_id":"levelo_inurba_marseille","lat":43.29887,"lon":5.38629,"is_reserved":false,"is_disabled":false,"rental_uris":{"android":"levelo://app?vid=81586eb2-5997-4a7f-910d-f12ada7984c8","ios":"levelo://app?vid=81586eb2-5997-4a7f-910d-f12ada7984c8"},"vehicle_type_id":"4","last_reported":1767301816,"current_range_meters":8400,"station_id":"","pricing_plan_id":"cebpf4jnsgd1na2vs0mg"},{"bike_id":"b0c9b859-dd89-4163-9d0c-7c63b4a5af02","system_id":"levelo_inurba_marseille","lat":43.299591,"lon":5.384963,"is_reserved":false,"is_disabled":false,"rental_uris":{"android":"levelo://app?vid=b0c9b859-dd89-4163-9d0c-7c63b4a5af02","ios":"levelo://app?vid=b0c9b859-dd89-4163-9d0c-7c63b4a5af02"},"vehicle_type_id":"4","last_reported":1767301816,"current_range_meters":8400,"station_id":"ce4bgj92rcd13ifvqbd0","pricing_plan_id":"cebpf4jnsgd1na2vs0mg"},{"bike_id":"f92fc3b0-a46d-4af0-8feb-a02629fa3cd4","system_id":"levelo_inurba_marseille","lat":43.2952,"lon":5.39041,"is_reserved":false,"is_disabled":false,"rental_uris":{"android":"levelo://app?vid=f92fc3b0-a46d-4af0-8feb-a02629fa3cd4","ios":"levelo://app?vid=f92fc3b0-a46d-4af0-8feb-a02629fa3cd4"},"vehicle_type_id":"4","last_reported":1767301816,"current_range_meters":8400,"station_id":"ce4bh3p2rcd13ifvqdp0","pricing_plan_id":"cebpf4jnsgd1na2vs0mg"},{"bike_id":"475de299-2917-42da-9347-8b67ff473f85","system_id":"levelo_inurba_marseille","lat":43.30127,"lon":5.43115,"is_reserved":false,"is_disabled":false,"rental_uris":{"android":"levelo://app?vid=475de299-2917-42da-9347-8b67ff473f85","ios":"levelo://app?vid=475de299-2917-42da-9347-8b67ff473f85"},"vehicle_type_id":"4","last_reported":1767301816,"current_range_meters":8400,"station_id":"st_d3js3co5814s73ftftug","pricing_plan_id":"cebpf4jnsgd1na2vs0mg"},{"bike_id":"48cee1df-16aa-460a-ae1f-9b5bc1595f79","system_id":"levelo_inurba_marseille","lat":43.22935,"lon":5.35368,"is_reserved":false,"is_disabled":false,"rental_uris":{"android":"levelo://app?vid=48cee1df-16aa-460a-ae1f-9b5bc1595f79","ios":"levelo://app?vid=48cee1df-16aa-460a-ae1f-9b5bc1595f79"},"vehicle_type_id":"4","last_reported":1767301816,"current_range_meters":8400,"station_id":"cpo3532slgdg3j2ikp40","pricing_plan_id":"cebpf4jnsgd1na2vs0mg"},{"bike_id":"152a1365-ee25-421d-85dd-2a6424d5b6f1","system_id":"levelo_inurba_marseille","lat":43.2998,"lon":5.37162,"is_reserved":false,"is_disabled":false,"rental_uris":{"android":"levelo://app?vid=152a1365-ee25-421d-85dd-2a6424d5b6f1","ios":"levelo://app?vid=152a1365-ee25-421d-85dd-2a6424d5b6f1"},"vehicle_type_id":"4","last_reported":1767301816,"current_range_meters":8400,"station_id":"ce4bgr92rcd13ifvqc7g","pricing_plan_id":"cebpf4jnsgd1na2vs0mg"},{"bike_id":"da51a696-5705-48cd-a174-f63e3c15d9de","system_id":"levelo_inurba_marseille","lat":43.28868,"lon":5.42507,"is_reserved":false,"is_disabled":false,"rental_uris":{"android":"levelo://app?vid=da51a696-5705-48cd-a174-f63e3c15d9de","ios":"levelo://app?vid=da51a696-5705-48cd-a174-f63e3c15d9de"},"vehicle_type_id":"4","last_reported":1767301816,"current_range_meters":8400,"station_id":"st_d3b462108ojc7389ooeg","pricing_plan_id":"cebpf4jnsgd1na2vs0mg"},{"bike_id":"3726ff5a-3e12-42b0-b68f-b0200516c587","system_id":"levelo_inurba_marseille","lat":43.21156,"lon":5.35083,"is_reserved":false,"is_disabled":false,"rental_uris":{"android":"levelo://app?vid=3726ff5a-3e12-42b0-b68f-b0200516c587","ios":"levelo://app?vid=3726ff5a-3e12-42b0-b68f-b0200516c587"},"vehicle_type_id":"4","last_reported":1767301816,"current_range_meters":8400,"station_id":"st_cvj6sg6p6f1abm77japg","pricing_plan_id":"cebpf4jnsgd1na2vs0mg"},{"bike_id":"f3b6162b-f919-4a30-816f-e55bdd82e635","system_id":"levelo_inurba_marseille","lat":43.29028,"lon":5.38131,"is_reserved":false,"is_disabled":false,"rental_uris":{"android":"levelo://app?vid=f3b6162b-f919-4a30-816f-e55bdd82e635","ios":"levelo://app?vid=f3b6162b-f919-4a30-816f-e55bdd82e635"},"vehicle_type_id":"4","last_reported":1767301816,"current_range_meters":8400,"station_id":"ce4bh4p2rcd13ifvqe1g","pricing_plan_id":"cebpf4jnsgd1na2vs0mg"},{"bike_id":"efd33062-2cef-445f-af98-648f578e9c2a","system_id":"levelo_inurba_marseille","lat":43.32639,"lon":5.41981,"is_reserved":false,"is_disabled":false,"rental_uris":{"android":"levelo://app?vid=efd33062-2cef-445f-af98-648f578e9c2a","ios":"levelo://app?vid=efd33062-2cef-445f-af98-648f578e9c2a"},"vehicle_type_id":"4","last_reported":1767301816,"current_range_meters":8800,"station_id":"","pricing_plan_id":"cebpf4jnsgd1na2vs0mg"},{"bike_id":"5294767e-dd69-4945-8c8e-03dd74e904a7","system_id":"levelo_inurba_marseille","lat":43.23068,"lon":5.35496,"is_reserved":false,"is_disabled":false,"rental_uris":{"android":"levelo://app?vid=5294767e-dd69-4945-8c8e-03dd74e904a7","ios":"levelo://app?vid=5294767e-dd69-4945-8c8e-03dd74e904a7"},"vehicle_type_id":"4","last_reported":1767301816,"current_range_meters":8800,"station_id":"cpo3342slgdg3j2ifvpg","pricing_plan_id":"cebpf4jnsgd1na2vs0mg"},{"bike_id":"95ef63f3-7281-4363-b859-2e0d817e364e","system_id":"levelo_inurba_marseille","lat":43.29486,"lon":5.433,"is_reserved":false,"is_disabled":false,"rental_uris":{"android":"levelo://app?vid=95ef63f3-7281-4363-b859-2e0d817e364e","ios":"levelo://app?vid=95ef63f3-7281-4363-b859-2e0d817e364e"},"vehicle_type_id":"4","last_reported":1767301816,"current_range_meters":8800,"station_id":"st_d3j5ugp08ojc73fj9d10","pricing_plan_id":"cebpf4jnsgd1na2vs0mg"},{"bike_id":"833f040f-d0af-41ac-b103-c33ebe1a5661","system_id":"levelo_inurba_marseille","lat":43.28538,"lon":5.44105,"is_reserved":false,"is_disabled":false,"rental_uris":{"android":"levelo://app?vid=833f040f-d0af-41ac-b103-c33ebe1a5661","ios":"levelo://app?vid=833f040f-d0af-41ac-b103-c33ebe1a5661"},"vehicle_type_id":"4","last_reported":1767301816,"current_range_meters":8800,"station_id":"st_d3j3df2ikq2c7380ej80","pricing_plan_id":"cebpf4jnsgd1na2vs0mg"},{"bike_id":"c36466b7-9439-4416-9e0a-4122066c03b0","system_id":"levelo_inurba_marseille","lat":43.27815,"lon":5.40717,"is_reserved":false,"is_disabled":false,"rental_uris":{"android":"levelo://app?vid=c36466b7-9439-4416-9e0a-4122066c03b0","ios":"levelo://app?vid=c36466b7-9439-4416-9e0a-4122066c03b0"},"vehicle_type_id":"4","last_reported":1767301816,"current_range_meters":8800,"station_id":"ce4bhnh2rcd13ifvqgtg","pricing_plan_id":"cebpf4jnsgd1na2vs0mg"},{"bike_id":"25f1743a-a2b2-454e-84ce-5c43f5ea30d3","system_id":"levelo_inurba_marseille","lat":43.29896,"lon":5.43689,"is_reserved":false,"is_disabled":false,"rental_uris":{"android":"levelo://app?vid=25f1743a-a2b2-454e-84ce-5c43f5ea30d3","ios":"levelo://app?vid=25f1743a-a2b2-454e-84ce-5c43f5ea30d3"},"vehicle_type_id":"4","last_reported":1767301816,"current_range_meters":8800,"station_id":"ce4bhpp2rcd13ifvqhfg","pricing_plan_id":"cebpf4jnsgd1na2vs0mg"},{"bike_id":"0a26e3d8-2471-4a85-80c8-7c573a48fe16","system_id":"levelo_inurba_marseille","lat":43.30142,"lon":5.37418,"is_reserved":false,"is_disabled":false,"rental_uris":{"android":"levelo://app?vid=0a26e3d8-2471-4a85-80c8-7c573a48fe16","ios":"levelo://app?vid=0a26e3d8-2471-4a85-80c8-7c573a48fe16"},"vehicle_type_id":"4","last_reported":1767301816,"current_range_meters":8800,"station_id":"ce4bgs92rcd13ifvqcc0","pricing_plan_id":"cebpf4jnsgd1na2vs0mg"},{"bike_id":"961a4b80-6a80-41fc-af4e-cb7c655480a6","system_id":"levelo_inurba_marseille","lat":43.283013,"lon":5.397568,"is_reserved":false,"is_disabled":true,"rental_uris":{"android":"levelo://app?vid=961a4b80-6a80-41fc-af4e-cb7c655480a6","ios":"levelo://app?vid=961a4b80-6a80-41fc-af4e-cb7c655480a6"},"vehicle_type_id":"4","last_reported":1767301816,"current_range_meters":8800,"station_id":"","pricing_plan_id":"cebpf4jnsgd1na2vs0mg"},{"bike_id":"f3a4c2fd-c27a-4ca6-bbe5-3949d2a88808","system_id":"levelo_inurba_marseille","lat":43.28548,"lon":5.42977,"is_reserved":false,"is_disabled":false,"rental_uris":{"android":"levelo://app?vid=f3a4c2fd-c27a-4ca6-bbe5-3949d2a88808","ios":"levelo://app?vid=f3a4c2fd-c27a-4ca6-bbe5-3949d2a88808"},"vehicle_type_id":"4","last_reported":1767301816,"current_range_meters":8800,"station_id":"","pricing_plan_id":"cebpf4jnsgd1na2vs0mg"},{"bike_id":"c70225d4-a502-4469-93b2-aecf70c63654","system_id":"levelo_inurba_marseille","lat":43.25585,"lon":5.38239,"is_reserved":false,"is_disabled":false,"rental_uris":{"android":"levelo://app?vid=c70225d4-a502-4469-93b2-aecf70c63654","ios":"levelo://app?vid=c70225d4-a502-4469-93b2-aecf70c63654"},"vehicle_type_id":"4","last_reported":1767301816,"current_range_meters":8800,"station_id":"ce4bhih2rcd13ifvqfs0","pricing_plan_id":"cebpf4jnsgd1na2vs0mg"},{"bike_id":"0b723d19-50a0-4d60-97d8-99ef6ef92673","system_id":"levelo_inurba_marseille","lat":43.30093,"lon":5.39072,"is_reserved":false,"is_disabled":false,"rental_uris":{"android":"levelo://app?vid=0b723d19-50a0-4d60-97d8-99ef6ef92673","ios":"levelo://app?vid=0b723d19-50a0-4d60-97d8-99ef6ef92673"},"vehicle_type_id":"4","last_reported":1767301816,"current_range_meters":8800,"station_id":"ce4bh192rcd13ifvqdb0","pricing_plan_id":"cebpf4jnsgd1na2vs0mg"},{"bike_id":"40c441d3-1782-46f9-a969-b91a22f7d5a1","system_id":"levelo_inurba_marseille","lat":43.284877,"lon":5.384178,"is_reserved":false,"is_disabled":false,"rental_uris":{"android":"levelo://app?vid=40c441d3-1782-46f9-a969-b91a22f7d5a1","ios":"levelo://app?vid=40c441d3-1782-46f9-a969-b91a22f7d5a1"},"vehicle_type_id":"4","last_reported":1767301816,"current_range_meters":8800,"station_id":"ce4bh512rcd13ifvqe3g","pricing_plan_id":"cebpf4jnsgd1na2vs0mg"},{"bike_id":"406f64a0-da6e-49db-a7ac-d7a777f3175c","system_id":"levelo_inurba_marseille","lat":43.27338,"lon":5.39105,"is_reserved":false,"is_disabled":false,"rental_uris":{"android":"levelo://app?vid=406f64a0-da6e-49db-a7ac-d7a777f3175c","ios":"levelo://app?vid=406f64a0-da6e-49db-a7ac-d7a777f3175c"},"vehicle_type_id":"4","last_reported":1767301816,"current_range_meters":8800,"station_id":"ce4bhgp2rcd13ifvqfe0","pricing_plan_id":"cebpf4jnsgd1na2vs0mg"},{"bike_id":"3fd00cb0-0645-4a8c-874a-2e0df62cb4f5","system_id":"levelo_inurba_marseille","lat":43.29694,"lon":5.37963,"is_reserved":false,"is_disabled":false,"rental_uris":{"android":"levelo://app?vid=3fd00cb0-0645-4a8c-874a-2e0df62cb4f5","ios":"levelo://app?vid=3fd00cb0-0645-4a8c-874a-2e0df62cb4f5"},"vehicle_type_id":"4","last_reported":1767301816,"current_range_meters":8800,"station_id":"","pricing_plan_id":"cebpf4jnsgd1na2vs0mg"},{"bike_id":"8c89bfa8-d17d-4d0f-b5c8-cedd3132aca9","system_id":"levelo_inurba_marseille","lat":43.29283,"lon":5.40129,"is_reserved":false,"is_disabled":false,"rental_uris":{"android":"levelo://app?vid=8c89bfa8-d17d-4d0f-b5c8-cedd3132aca9","ios":"levelo://app?vid=8c89bfa8-d17d-4d0f-b5c8-cedd3132aca9"},"vehicle_type_id":"4","last_reported":1767301816,"current_range_meters":8800,"station_id":"ce4bh312rcd13ifvqdk0","pricing_plan_id":"cebpf4jnsgd1na2vs0mg"},{"bike_id":"bebec6bc-9df3-406e-90bc-396ce2b3b0b3","system_id":"levelo_inurba_marseille","lat":43.2637,"lon":5.3741,"is_reserved":false,"is_disabled":false,"rental_uris":{"android":"levelo://app?vid=bebec6bc-9df3-406e-90bc-396ce2b3b0b3","ios":"levelo://app?vid=bebec6bc-9df3-406e-90bc-396ce2b3b0b3"},"vehicle_type_id":"4","last_reported":1767301816,"current_range_meters":8800,"station_id":"","pricing_plan_id":"cebpf4jnsgd1na2vs0mg"},{"bike_id":"5c697cf1-3155-402b-bc5c-8bfef5fdb183","system_id":"levelo_inurba_marseille","lat":43.29975,"lon":5.3849,"is_reserved":false,"is_disabled":false,"rental_uris":{"android":"levelo://app?vid=5c697cf1-3155-402b-bc5c-8bfef5fdb183","ios":"levelo://app?vid=5c697cf1-3155-402b-bc5c-8bfef5fdb183"},"vehicle_type_id":"4","last_reported":1767301816,"current_range_meters":9200,"station_id":"ce4bgj92rcd13ifvqbd0","pricing_plan_id":"cebpf4jnsgd1na2vs0mg"},{"bike_id":"53924fd8-5777-4f20-9ea2-dc16a02b5d55","system_id":"levelo_inurba_marseille","lat":43.26551,"lon":5.37282,"is_reserved":false,"is_disabled":false,"rental_uris":{"android":"levelo://app?vid=53924fd8-5777-4f20-9ea2-dc16a02b5d55","ios":"levelo://app?vid=53924fd8-5777-4f20-9ea2-dc16a02b5d55"},"vehicle_type_id":"4","last_reported":1767301816,"current_range_meters":9200,"station_id":"ce4bhg12rcd13ifvqf70","pricing_plan_id":"cebpf4jnsgd1na2vs0mg"},{"bike_id":"62bbb4f8-cd37-4703-914d-4c2cbb4345e1","system_id":"levelo_inurba_marseille","lat":43.28075,"lon":5.39641,"is_reserved":false,"is_disabled":false,"rental_uris":{"android":"levelo://app?vid=62bbb4f8-cd37-4703-914d-4c2cbb4345e1","ios":"levelo://app?vid=62bbb4f8-cd37-4703-914d-4c2cbb4345e1"},"vehicle_type_id":"4","last_reported":1767301816,"current_range_meters":9200,"station_id":"ce4bho12rcd13ifvqh2g","pricing_plan_id":"cebpf4jnsgd1na2vs0mg"},{"bike_id":"eae3ff06-d7a5-464a-8297-c6b4b0ceb3a3","system_id":"levelo_inurba_marseille","lat":43.29532,"lon":5.38544,"is_reserved":false,"is_disabled":false,"rental_uris":{"android":"levelo://app?vid=eae3ff06-d7a5-464a-8297-c6b4b0ceb3a3","ios":"levelo://app?vid=eae3ff06-d7a5-464a-8297-c6b4b0ceb3a3"},"vehicle_type_id":"4","last_reported":1767301816,"current_range_meters":9200,"station_id":"ce4bgih2rcd13ifvqba0","pricing_plan_id":"cebpf4jnsgd1na2vs0mg"},{"bike_id":"1976f061-e064-45cd-9d75-48c90f29fe4d","system_id":"levelo_inurba_marseille","lat":43.28411,"lon":5.34984,"is_reserved":false,"is_disabled":false,"rental_uris":{"android":"levelo://app?vid=1976f061-e064-45cd-9d75-48c90f29fe4d","ios":"levelo://app?vid=1976f061-e064-45cd-9d75-48c90f29fe4d"},"vehicle_type_id":"4","last_reported":1767301816,"current_range_meters":9200,"station_id":"ce4bhbh2rcd13ifvqepg","pricing_plan_id":"cebpf4jnsgd1na2vs0mg"},{"bike_id":"8952f09a-1324-40c7-a75c-442216df4446","system_id":"levelo_inurba_marseille","lat":43.2792,"lon":5.39585,"is_reserved":false,"is_disabled":false,"rental_uris":{"android":"levelo://app?vid=8952f09a-1324-40c7-a75c-442216df4446","ios":"levelo://app?vid=8952f09a-1324-40c7-a75c-442216df4446"},"vehicle_type_id":"4","last_reported":1767301816,"current_range_meters":9200,"station_id":"ce4bhf92rcd13ifvqf40","pricing_plan_id":"cebpf4jnsgd1na2vs0mg"},{"bike_id":"7f8c1213-60b7-4367-a2bf-21350ef37308","system_id":"levelo_inurba_marseille","lat":43.27358,"lon":5.36251,"is_reserved":false,"is_disabled":true,"rental_uris":{"android":"levelo://app?vid=7f8c1213-60b7-4367-a2bf-21350ef37308","ios":"levelo://app?vid=7f8c1213-60b7-4367-a2bf-21350ef37308"},"vehicle_type_id":"4","last_reported":1767301816,"current_range_meters":9200,"station_id":"ce4bhbh2rcd13ifvqeo0","pricing_plan_id":"cebpf4jnsgd1na2vs0mg"},{"bike_id":"54045760-2072-46e5-a5c4-00c3b9646aa6","system_id":"levelo_inurba_marseille","lat":43.30001,"lon":5.37195,"is_reserved":false,"is_disabled":false,"rental_uris":{"android":"levelo://app?vid=54045760-2072-46e5-a5c4-00c3b9646aa6","ios":"levelo://app?vid=54045760-2072-46e5-a5c4-00c3b9646aa6"},"vehicle_type_id":"4","last_reported":1767301816,"current_range_meters":9200,"station_id":"ce4bgr92rcd13ifvqc7g","pricing_plan_id":"cebpf4jnsgd1na2vs0mg"},{"bike_id":"b6c2de47-37fa-44c1-ae2a-ab2b9c904820","system_id":"levelo_inurba_marseille","lat":43.28486,"lon":5.38416,"is_reserved":false,"is_disabled":false,"rental_uris":{"android":"levelo://app?vid=b6c2de47-37fa-44c1-ae2a-ab2b9c904820","ios":"levelo://app?vid=b6c2de47-37fa-44c1-ae2a-ab2b9c904820"},"vehicle_type_id":"4","last_reported":1767301816,"current_range_meters":9200,"station_id":"ce4bh512rcd13ifvqe3g","pricing_plan_id":"cebpf4jnsgd1na2vs0mg"},{"bike_id":"d8431e58-d3e8-4456-9570-729e3ebbcc73","system_id":"levelo_inurba_marseille","lat":43.30197,"lon":5.37272,"is_reserved":false,"is_disabled":false,"rental_uris":{"android":"levelo://app?vid=d8431e58-d3e8-4456-9570-729e3ebbcc73","ios":"levelo://app?vid=d8431e58-d3e8-4456-9570-729e3ebbcc73"},"vehicle_type_id":"4","last_reported":1767301816,"current_range_meters":9200,"station_id":"","pricing_plan_id":"cebpf4jnsgd1na2vs0mg"},{"bike_id":"303fc977-bc34-40d7-a7b6-1a8c63d2d925","system_id":"levelo_inurba_marseille","lat":43.225326,"lon":5.348292,"is_reserved":false,"is_disabled":false,"rental_uris":{"android":"levelo://app?vid=303fc977-bc34-40d7-a7b6-1a8c63d2d925","ios":"levelo://app?vid=303fc977-bc34-40d7-a7b6-1a8c63d2d925"},"vehicle_type_id":"4","last_reported":1767301816,"current_range_meters":9200,"station_id":"","pricing_plan_id":"cebpf4jnsgd1na2vs0mg"},{"bike_id":"f088b2d3-124b-401d-abdd-c84fccfb9eda","system_id":"levelo_inurba_marseille","lat":43.28345,"lon":5.38094,"is_reserved":false,"is_disabled":false,"rental_uris":{"android":"levelo://app?vid=f088b2d3-124b-401d-abdd-c84fccfb9eda","ios":"levelo://app?vid=f088b2d3-124b-401d-abdd-c84fccfb9eda"},"vehicle_type_id":"4","last_reported":1767301816,"current_range_meters":9200,"station_id":"ce4bh412rcd13ifvqdr0","pricing_plan_id":"cebpf4jnsgd1na2vs0mg"},{"bike_id":"61dc19d1-1245-4744-8a4c-a9a5206d460f","system_id":"levelo_inurba_marseille","lat":43.28411,"lon":5.3752,"is_reserved":false,"is_disabled":false,"rental_uris":{"android":"levelo://app?vid=61dc19d1-1245-4744-8a4c-a9a5206d460f","ios":"levelo://app?vid=61dc19d1-1245-4744-8a4c-a9a5206d460f"},"vehicle_type_id":"4","last_reported":1767301816,"current_range_meters":9200,"station_id":"ce4bh412rcd13ifvqds0","pricing_plan_id":"cebpf4jnsgd1na2vs0mg"},{"bike_id":"27eab711-3794-4c67-b72c-787e5b4b546b","system_id":"levelo_inurba_marseille","lat":43.25576,"lon":5.38236,"is_reserved":false,"is_disabled":false,"rental_uris":{"android":"levelo://app?vid=27eab711-3794-4c67-b72c-787e5b4b546b","ios":"levelo://app?vid=27eab711-3794-4c67-b72c-787e5b4b546b"},"vehicle_type_id":"4","last_reported":1767301816,"current_range_meters":9200,"station_id":"ce4bhih2rcd13ifvqfs0","pricing_plan_id":"cebpf4jnsgd1na2vs0mg"},{"bike_id":"c9130f24-ffb5-404d-851b-31b1e51ee848","system_id":"levelo_inurba_marseille","lat":43.292642,"lon":5.384501,"is_reserved":false,"is_disabled":false,"rental_uris":{"android":"levelo://app?vid=c9130f24-ffb5-404d-851b-31b1e51ee848","ios":"levelo://app?vid=c9130f24-ffb5-404d-851b-31b1e51ee848"},"vehicle_type_id":"4","last_reported":1767301816,"current_range_meters":9200,"station_id":"ce4bh692rcd13ifvqea0","pricing_plan_id":"cebpf4jnsgd1na2vs0mg"},{"bike_id":"742c6f83-505c-4b7a-9287-055944847b8e","system_id":"levelo_inurba_marseille","lat":43.23198,"lon":5.35544,"is_reserved":false,"is_disabled":false,"rental_uris":{"android":"levelo://app?vid=742c6f83-505c-4b7a-9287-055944847b8e","ios":"levelo://app?vid=742c6f83-505c-4b7a-9287-055944847b8e"},"vehicle_type_id":"4","last_reported":1767301816,"current_range_meters":9200,"station_id":"ce4bhu92rcd13ifvqi70","pricing_plan_id":"cebpf4jnsgd1na2vs0mg"},{"bike_id":"7acd2702-c08c-4efb-a471-4a949a40f897","system_id":"levelo_inurba_marseille","lat":43.28684,"lon":5.38655,"is_reserved":false,"is_disabled":false,"rental_uris":{"android":"levelo://app?vid=7acd2702-c08c-4efb-a471-4a949a40f897","ios":"levelo://app?vid=7acd2702-c08c-4efb-a471-4a949a40f897"},"vehicle_type_id":"4","last_reported":1767301816,"current_range_meters":9200,"station_id":"ce4bh492rcd13ifvqdug","pricing_plan_id":"cebpf4jnsgd1na2vs0mg"},{"bike_id":"031b750a-803f-4a8d-a1ef-8265932c3cd8","system_id":"levelo_inurba_marseille","lat":43.272125,"lon":5.391726,"is_reserved":false,"is_disabled":false,"rental_uris":{"android":"levelo://app?vid=031b750a-803f-4a8d-a1ef-8265932c3cd8","ios":"levelo://app?vid=031b750a-803f-4a8d-a1ef-8265932c3cd8"},"vehicle_type_id":"4","last_reported":1767301816,"current_range_meters":9200,"station_id":"ce4bhhp2rcd13ifvqfm0","pricing_plan_id":"cebpf4jnsgd1na2vs0mg"},{"bike_id":"9a253175-fef0-4c75-a8d8-bb357322efb0","system_id":"levelo_inurba_marseille","lat":43.2118,"lon":5.35098,"is_reserved":false,"is_disabled":false,"rental_uris":{"android":"levelo://app?vid=9a253175-fef0-4c75-a8d8-bb357322efb0","ios":"levelo://app?vid=9a253175-fef0-4c75-a8d8-bb357322efb0"},"vehicle_type_id":"4","last_reported":1767301816,"current_range_meters":9200,"station_id":"st_cvj6sg6p6f1abm77japg","pricing_plan_id":"cebpf4jnsgd1na2vs0mg"},{"bike_id":"f706dea8-efae-45c7-a0d0-ef3606201ff7","system_id":"levelo_inurba_marseille","lat":43.23964,"lon":5.36614,"is_reserved":false,"is_disabled":false,"rental_uris":{"android":"levelo://app?vid=f706dea8-efae-45c7-a0d0-ef3606201ff7","ios":"levelo://app?vid=f706dea8-efae-45c7-a0d0-ef3606201ff7"},"vehicle_type_id":"4","last_reported":1767301816,"current_range_meters":9200,"station_id":"ce4bhi12rcd13ifvqfp0","pricing_plan_id":"cebpf4jnsgd1na2vs0mg"},{"bike_id":"1e76a634-1236-4429-a6ca-562668962923","system_id":"levelo_inurba_marseille","lat":43.25221,"lon":5.3943,"is_reserved":false,"is_disabled":false,"rental_uris":{"android":"levelo://app?vid=1e76a634-1236-4429-a6ca-562668962923","ios":"levelo://app?vid=1e76a634-1236-4429-a6ca-562668962923"},"vehicle_type_id":"4","last_reported":1767301816,"current_range_meters":9600,"station_id":"","pricing_plan_id":"cebpf4jnsgd1na2vs0mg"},{"bike_id":"713b2eaa-bc4b-456a-9c0e-6bd5e8150b43","system_id":"levelo_inurba_marseille","lat":43.29538,"lon":5.38531,"is_reserved":false,"is_disabled":false,"rental_uris":{"android":"levelo://app?vid=713b2eaa-bc4b-456a-9c0e-6bd5e8150b43","ios":"levelo://app?vid=713b2eaa-bc4b-456a-9c0e-6bd5e8150b43"},"vehicle_type_id":"4","last_reported":1767301816,"current_range_meters":9600,"station_id":"ce4bgih2rcd13ifvqba0","pricing_plan_id":"cebpf4jnsgd1na2vs0mg"},{"bike_id":"5fb6044e-9e86-4cd7-8369-9dae8661f801","system_id":"levelo_inurba_marseille","lat":43.26561,"lon":5.40329,"is_reserved":false,"is_disabled":false,"rental_uris":{"android":"levelo://app?vid=5fb6044e-9e86-4cd7-8369-9dae8661f801","ios":"levelo://app?vid=5fb6044e-9e86-4cd7-8369-9dae8661f801"},"vehicle_type_id":"4","last_reported":1767301816,"current_range_meters":9600,"station_id":"ce4bhmp2rcd13ifvqgng","pricing_plan_id":"cebpf4jnsgd1na2vs0mg"},{"bike_id":"037e4114-76ba-470d-ac4e-3a93b31feddb","system_id":"levelo_inurba_marseille","lat":43.30438,"lon":5.38877,"is_reserved":false,"is_disabled":false,"rental_uris":{"android":"levelo://app?vid=037e4114-76ba-470d-ac4e-3a93b31feddb","ios":"levelo://app?vid=037e4114-76ba-470d-ac4e-3a93b31feddb"},"vehicle_type_id":"4","last_reported":1767301816,"current_range_meters":9600,"station_id":"ce4bgk12rcd13ifvqbi0","pricing_plan_id":"cebpf4jnsgd1na2vs0mg"},{"bike_id":"4f437bfb-eb50-4510-9679-8b39b057f8de","system_id":"levelo_inurba_marseille","lat":43.24071,"lon":5.37768,"is_reserved":false,"is_disabled":false,"rental_uris":{"android":"levelo://app?vid=4f437bfb-eb50-4510-9679-8b39b057f8de","ios":"levelo://app?vid=4f437bfb-eb50-4510-9679-8b39b057f8de"},"vehicle_type_id":"4","last_reported":1767301816,"current_range_meters":9600,"station_id":"ce4bhnp2rcd13ifvqgvg","pricing_plan_id":"cebpf4jnsgd1na2vs0mg"},{"bike_id":"7ac98c64-2424-49b0-be1b-1d86a6975c42","system_id":"levelo_inurba_marseille","lat":43.29016,"lon":5.35617,"is_reserved":false,"is_disabled":false,"rental_uris":{"android":"levelo://app?vid=7ac98c64-2424-49b0-be1b-1d86a6975c42","ios":"levelo://app?vid=7ac98c64-2424-49b0-be1b-1d86a6975c42"},"vehicle_type_id":"4","last_reported":1767301816,"current_range_meters":9600,"station_id":"ce4bhb92rcd13ifvqen0","pricing_plan_id":"cebpf4jnsgd1na2vs0mg"},{"bike_id":"ab98afa8-4907-4b9f-b6c6-75e71a064cde","system_id":"levelo_inurba_marseille","lat":43.25721,"lon":5.4111,"is_reserved":false,"is_disabled":false,"rental_uris":{"android":"levelo://app?vid=ab98afa8-4907-4b9f-b6c6-75e71a064cde","ios":"levelo://app?vid=ab98afa8-4907-4b9f-b6c6-75e71a064cde"},"vehicle_type_id":"4","last_reported":1767301816,"current_range_meters":9600,"station_id":"ce4bhkp2rcd13ifvqgd0","pricing_plan_id":"cebpf4jnsgd1na2vs0mg"},{"bike_id":"adee5904-d2f9-48c4-ad58-68d27b5bb40a","system_id":"levelo_inurba_marseille","lat":43.2927,"lon":5.37677,"is_reserved":false,"is_disabled":false,"rental_uris":{"android":"levelo://app?vid=adee5904-d2f9-48c4-ad58-68d27b5bb40a","ios":"levelo://app?vid=adee5904-d2f9-48c4-ad58-68d27b5bb40a"},"vehicle_type_id":"4","last_reported":1767301816,"current_range_meters":9600,"station_id":"ce4bgi12rcd13ifvqb80","pricing_plan_id":"cebpf4jnsgd1na2vs0mg"},{"bike_id":"08793bdf-bae6-4989-a3e8-8fa2dc512947","system_id":"levelo_inurba_marseille","lat":43.21189,"lon":5.35074,"is_reserved":false,"is_disabled":false,"rental_uris":{"android":"levelo://app?vid=08793bdf-bae6-4989-a3e8-8fa2dc512947","ios":"levelo://app?vid=08793bdf-bae6-4989-a3e8-8fa2dc512947"},"vehicle_type_id":"4","last_reported":1767301816,"current_range_meters":9600,"station_id":"st_cvj6sg6p6f1abm77japg","pricing_plan_id":"cebpf4jnsgd1na2vs0mg"},{"bike_id":"1498f079-e300-4265-837b-8da7d97aca06","system_id":"levelo_inurba_marseille","lat":43.24164,"lon":5.36391,"is_reserved":false,"is_disabled":false,"rental_uris":{"android":"levelo://app?vid=1498f079-e300-4265-837b-8da7d97aca06","ios":"levelo://app?vid=1498f079-e300-4265-837b-8da7d97aca06"},"vehicle_type_id":"4","last_reported":1767301816,"current_range_meters":9600,"station_id":"cpo36qri1sfpv3e86is0","pricing_plan_id":"cebpf4jnsgd1na2vs0mg"},{"bike_id":"e0decbbd-66f2-41ff-95bf-ae2a7b2f4e23","system_id":"levelo_inurba_marseille","lat":43.2858,"lon":5.42628,"is_reserved":false,"is_disabled":false,"rental_uris":{"android":"levelo://app?vid=e0decbbd-66f2-41ff-95bf-ae2a7b2f4e23","ios":"levelo://app?vid=e0decbbd-66f2-41ff-95bf-ae2a7b2f4e23"},"vehicle_type_id":"4","last_reported":1767301816,"current_range_meters":9600,"station_id":"","pricing_plan_id":"cebpf4jnsgd1na2vs0mg"},{"bike_id":"ae255f5c-ca45-414c-9bef-0d95c9ceafbf","system_id":"levelo_inurba_marseille","lat":43.2816,"lon":5.42657,"is_reserved":false,"is_disabled":false,"rental_uris":{"android":"levelo://app?vid=ae255f5c-ca45-414c-9bef-0d95c9ceafbf","ios":"levelo://app?vid=ae255f5c-ca45-414c-9bef-0d95c9ceafbf"},"vehicle_type_id":"4","last_reported":1767301816,"current_range_meters":9600,"station_id":"ce4bhnh2rcd13ifvqgug","pricing_plan_id":"cebpf4jnsgd1na2vs0mg"},{"bike_id":"39e6d7a5-7c68-4d8a-855d-5384599cc887","system_id":"levelo_inurba_marseille","lat":43.3103,"lon":5.40378,"is_reserved":false,"is_disabled":false,"rental_uris":{"android":"levelo://app?vid=39e6d7a5-7c68-4d8a-855d-5384599cc887","ios":"levelo://app?vid=39e6d7a5-7c68-4d8a-855d-5384599cc887"},"vehicle_type_id":"4","last_reported":1767301816,"current_range_meters":9600,"station_id":"","pricing_plan_id":"cebpf4jnsgd1na2vs0mg"},{"bike_id":"fb5c9063-168c-414e-ac58-b82ef6d48a72","system_id":"levelo_inurba_marseille","lat":43.29723,"lon":5.37083,"is_reserved":false,"is_disabled":false,"rental_uris":{"android":"levelo://app?vid=fb5c9063-168c-414e-ac58-b82ef6d48a72","ios":"levelo://app?vid=fb5c9063-168c-414e-ac58-b82ef6d48a72"},"vehicle_type_id":"4","last_reported":1767301816,"current_range_meters":10000,"station_id":"","pricing_plan_id":"cebpf4jnsgd1na2vs0mg"},{"bike_id":"fae80570-c9d4-4aee-af35-a96795ca01bc","system_id":"levelo_inurba_marseille","lat":43.24528,"lon":5.38029,"is_reserved":false,"is_disabled":false,"rental_uris":{"android":"levelo://app?vid=fae80570-c9d4-4aee-af35-a96795ca01bc","ios":"levelo://app?vid=fae80570-c9d4-4aee-af35-a96795ca01bc"},"vehicle_type_id":"4","last_reported":1767301816,"current_range_meters":10000,"station_id":"ce4bhu92rcd13ifvqi70","pricing_plan_id":"cebpf4jnsgd1na2vs0mg"},{"bike_id":"e0d874b5-14d4-4ed6-ad4e-e34d0583933d","system_id":"levelo_inurba_marseille","lat":43.31245,"lon":5.36859,"is_reserved":false,"is_disabled":false,"rental_uris":{"android":"levelo://app?vid=e0d874b5-14d4-4ed6-ad4e-e34d0583933d","ios":"levelo://app?vid=e0d874b5-14d4-4ed6-ad4e-e34d0583933d"},"vehicle_type_id":"4","last_reported":1767301816,"current_range_meters":10000,"station_id":"ce4bgl92rcd13ifvqbq0","pricing_plan_id":"cebpf4jnsgd1na2vs0mg"},{"bike_id":"1a403cec-be48-4249-9b2c-735a7abb7cc1","system_id":"levelo_inurba_marseille","lat":43.29503,"lon":5.39418,"is_reserved":false,"is_disabled":false,"rental_uris":{"android":"levelo://app?vid=1a403cec-be48-4249-9b2c-735a7abb7cc1","ios":"levelo://app?vid=1a403cec-be48-4249-9b2c-735a7abb7cc1"},"vehicle_type_id":"4","last_reported":1767301816,"current_range_meters":10000,"station_id":"ce4bh292rcd13ifvqdf0","pricing_plan_id":"cebpf4jnsgd1na2vs0mg"},{"bike_id":"5d64b1d9-59fb-4d57-9b2b-5de60919d0d5","system_id":"levelo_inurba_marseille","lat":43.29253,"lon":5.36996,"is_reserved":false,"is_disabled":false,"rental_uris":{"android":"levelo://app?vid=5d64b1d9-59fb-4d57-9b2b-5de60919d0d5","ios":"levelo://app?vid=5d64b1d9-59fb-4d57-9b2b-5de60919d0d5"},"vehicle_type_id":"4","last_reported":1767301816,"current_range_meters":10000,"station_id":"","pricing_plan_id":"cebpf4jnsgd1na2vs0mg"},{"bike_id":"34c978d5-47ad-4b2a-8a2f-906f7fa23f12","system_id":"levelo_inurba_marseille","lat":43.24469,"lon":5.42538,"is_reserved":false,"is_disabled":false,"rental_uris":{"android":"levelo://app?vid=34c978d5-47ad-4b2a-8a2f-906f7fa23f12","ios":"levelo://app?vid=34c978d5-47ad-4b2a-8a2f-906f7fa23f12"},"vehicle_type_id":"4","last_reported":1767301816,"current_range_meters":10000,"station_id":"st_d4a3vfp97mjs738cd8kg","pricing_plan_id":"cebpf4jnsgd1na2vs0mg"},{"bike_id":"637f6ca5-94b4-4966-819c-aa817ec06354","system_id":"levelo_inurba_marseille","lat":43.29221,"lon":5.36074,"is_reserved":false,"is_disabled":false,"rental_uris":{"android":"levelo://app?vid=637f6ca5-94b4-4966-819c-aa817ec06354","ios":"levelo://app?vid=637f6ca5-94b4-4966-819c-aa817ec06354"},"vehicle_type_id":"4","last_reported":1767301816,"current_range_meters":10000,"station_id":"ce4bhbh2rcd13ifvqeqg","pricing_plan_id":"cebpf4jnsgd1na2vs0mg"},{"bike_id":"50a1ce80-e2ae-4637-b1b3-c5d653d75cd1","system_id":"levelo_inurba_marseille","lat":43.31894,"lon":5.39036,"is_reserved":false,"is_disabled":false,"rental_uris":{"android":"levelo://app?vid=50a1ce80-e2ae-4637-b1b3-c5d653d75cd1","ios":"levelo://app?vid=50a1ce80-e2ae-4637-b1b3-c5d653d75cd1"},"vehicle_type_id":"4","last_reported":1767301816,"current_range_meters":10000,"station_id":"","pricing_plan_id":"cebpf4jnsgd1na2vs0mg"},{"bike_id":"d90ea927-cc8f-4bbb-a6fa-bc6608c1a260","system_id":"levelo_inurba_marseille","lat":43.296,"lon":5.37712,"is_reserved":false,"is_disabled":true,"rental_uris":{"android":"levelo://app?vid=d90ea927-cc8f-4bbb-a6fa-bc6608c1a260","ios":"levelo://app?vid=d90ea927-cc8f-4bbb-a6fa-bc6608c1a260"},"vehicle_type_id":"4","last_reported":1767301816,"current_range_meters":10000,"station_id":"ce4bgi92rcd13ifvqb90","pricing_plan_id":"cebpf4jnsgd1na2vs0mg"},{"bike_id":"aae83613-d180-4239-9800-5e6ea52a6395","system_id":"levelo_inurba_marseille","lat":43.312313,"lon":5.368891,"is_reserved":false,"is_disabled":false,"rental_uris":{"android":"levelo://app?vid=aae83613-d180-4239-9800-5e6ea52a6395","ios":"levelo://app?vid=aae83613-d180-4239-9800-5e6ea52a6395"},"vehicle_type_id":"4","last_reported":1767301816,"current_range_meters":10000,"station_id":"ce4bgl92rcd13ifvqbq0","pricing_plan_id":"cebpf4jnsgd1na2vs0mg"},{"bike_id":"92d581a7-30a5-40b9-9406-f8b8db093a1c","system_id":"levelo_inurba_marseille","lat":43.29904,"lon":5.43671,"is_reserved":false,"is_disabled":false,"rental_uris":{"android":"levelo://app?vid=92d581a7-30a5-40b9-9406-f8b8db093a1c","ios":"levelo://app?vid=92d581a7-30a5-40b9-9406-f8b8db093a1c"},"vehicle_type_id":"4","last_reported":1767301816,"current_range_meters":10000,"station_id":"ce4bhpp2rcd13ifvqhfg","pricing_plan_id":"cebpf4jnsgd1na2vs0mg"},{"bike_id":"5b121814-175d-4dd8-bc6c-330fb3cb4dcd","system_id":"levelo_inurba_marseille","lat":43.306079,"lon":5.372104,"is_reserved":false,"is_disabled":false,"rental_uris":{"android":"levelo://app?vid=5b121814-175d-4dd8-bc6c-330fb3cb4dcd","ios":"levelo://app?vid=5b121814-175d-4dd8-bc6c-330fb3cb4dcd"},"vehicle_type_id":"4","last_reported":1767301816,"current_range_meters":10000,"station_id":"ce4bgqh2rcd13ifvqc4g","pricing_plan_id":"cebpf4jnsgd1na2vs0mg"},{"bike_id":"ead1444d-eac1-417f-b268-ce9ed5abb843","system_id":"levelo_inurba_marseille","lat":43.29694,"lon":5.37298,"is_reserved":false,"is_disabled":false,"rental_uris":{"android":"levelo://app?vid=ead1444d-eac1-417f-b268-ce9ed5abb843","ios":"levelo://app?vid=ead1444d-eac1-417f-b268-ce9ed5abb843"},"vehicle_type_id":"4","last_reported":1767301816,"current_range_meters":10000,"station_id":"ce4bgk12rcd13ifvqbj0","pricing_plan_id":"cebpf4jnsgd1na2vs0mg"},{"bike_id":"1f4701d5-d340-4df9-98f7-8c976bc059e9","system_id":"levelo_inurba_marseille","lat":43.28272,"lon":5.35077,"is_reserved":false,"is_disabled":false,"rental_uris":{"android":"levelo://app?vid=1f4701d5-d340-4df9-98f7-8c976bc059e9","ios":"levelo://app?vid=1f4701d5-d340-4df9-98f7-8c976bc059e9"},"vehicle_type_id":"4","last_reported":1767301816,"current_range_meters":10000,"station_id":"ce4bhbp2rcd13ifvqerg","pricing_plan_id":"cebpf4jnsgd1na2vs0mg"},{"bike_id":"2a92eb68-3fcb-4c5e-aa8a-499824b82d0a","system_id":"levelo_inurba_marseille","lat":43.2842,"lon":5.37493,"is_reserved":false,"is_disabled":false,"rental_uris":{"android":"levelo://app?vid=2a92eb68-3fcb-4c5e-aa8a-499824b82d0a","ios":"levelo://app?vid=2a92eb68-3fcb-4c5e-aa8a-499824b82d0a"},"vehicle_type_id":"4","last_reported":1767301816,"current_range_meters":10000,"station_id":"ce4bh412rcd13ifvqds0","pricing_plan_id":"cebpf4jnsgd1na2vs0mg"},{"bike_id":"7ad11f56-6124-475a-8a9c-acbe7a5750ff","system_id":"levelo_inurba_marseille","lat":43.29984,"lon":5.38454,"is_reserved":false,"is_disabled":false,"rental_uris":{"android":"levelo://app?vid=7ad11f56-6124-475a-8a9c-acbe7a5750ff","ios":"levelo://app?vid=7ad11f56-6124-475a-8a9c-acbe7a5750ff"},"vehicle_type_id":"4","last_reported":1767301816,"current_range_meters":10000,"station_id":"ce4bgj92rcd13ifvqbd0","pricing_plan_id":"cebpf4jnsgd1na2vs0mg"},{"bike_id":"61a31656-c660-4275-9928-540ad7d8758e","system_id":"levelo_inurba_marseille","lat":43.24401,"lon":5.37062,"is_reserved":false,"is_disabled":false,"rental_uris":{"android":"levelo://app?vid=61a31656-c660-4275-9928-540ad7d8758e","ios":"levelo://app?vid=61a31656-c660-4275-9928-540ad7d8758e"},"vehicle_type_id":"4","last_reported":1767301816,"current_range_meters":10000,"station_id":"ce4bhhh2rcd13ifvqfk0","pricing_plan_id":"cebpf4jnsgd1na2vs0mg"},{"bike_id":"81bb7359-0e58-4443-bd35-6642f1961b0f","system_id":"levelo_inurba_marseille","lat":43.28417,"lon":5.34959,"is_reserved":false,"is_disabled":false,"rental_uris":{"android":"levelo://app?vid=81bb7359-0e58-4443-bd35-6642f1961b0f","ios":"levelo://app?vid=81bb7359-0e58-4443-bd35-6642f1961b0f"},"vehicle_type_id":"4","last_reported":1767301816,"current_range_meters":10000,"station_id":"ce4bhbh2rcd13ifvqepg","pricing_plan_id":"cebpf4jnsgd1na2vs0mg"},{"bike_id":"aa4c0c3c-20a8-4dcd-8254-3a59efbed1dc","system_id":"levelo_inurba_marseille","lat":43.28422,"lon":5.38499,"is_reserved":false,"is_disabled":false,"rental_uris":{"android":"levelo://app?vid=aa4c0c3c-20a8-4dcd-8254-3a59efbed1dc","ios":"levelo://app?vid=aa4c0c3c-20a8-4dcd-8254-3a59efbed1dc"},"vehicle_type_id":"4","last_reported":1767301816,"current_range_meters":10800,"station_id":"","pricing_plan_id":"cebpf4jnsgd1na2vs0mg"},{"bike_id":"b7c65842-363d-43c4-92b2-529d07ea43d3","system_id":"levelo_inurba_marseille","lat":43.27538,"lon":5.36018,"is_reserved":false,"is_disabled":false,"rental_uris":{"android":"levelo://app?vid=b7c65842-363d-43c4-92b2-529d07ea43d3","ios":"levelo://app?vid=b7c65842-363d-43c4-92b2-529d07ea43d3"},"vehicle_type_id":"4","last_reported":1767301816,"current_range_meters":10800,"station_id":"","pricing_plan_id":"cebpf4jnsgd1na2vs0mg"},{"bike_id":"5059f838-de88-4a34-92ac-7dc15e8c550b","system_id":"levelo_inurba_marseille","lat":43.29856,"lon":5.42117,"is_reserved":false,"is_disabled":false,"rental_uris":{"android":"levelo://app?vid=5059f838-de88-4a34-92ac-7dc15e8c550b","ios":"levelo://app?vid=5059f838-de88-4a34-92ac-7dc15e8c550b"},"vehicle_type_id":"4","last_reported":1767301816,"current_range_meters":10800,"station_id":"","pricing_plan_id":"cebpf4jnsgd1na2vs0mg"},{"bike_id":"3b652abb-4144-4a5b-8035-ab28a7ba1f33","system_id":"levelo_inurba_marseille","lat":43.28142,"lon":5.42629,"is_reserved":false,"is_disabled":false,"rental_uris":{"android":"levelo://app?vid=3b652abb-4144-4a5b-8035-ab28a7ba1f33","ios":"levelo://app?vid=3b652abb-4144-4a5b-8035-ab28a7ba1f33"},"vehicle_type_id":"4","last_reported":1767301816,"current_range_meters":10800,"station_id":"ce4bhnh2rcd13ifvqgug","pricing_plan_id":"cebpf4jnsgd1na2vs0mg"},{"bike_id":"f1615576-13f4-4ebf-b52d-cb46c8289f42","system_id":"levelo_inurba_marseille","lat":43.27957,"lon":5.41041,"is_reserved":false,"is_disabled":false,"rental_uris":{"android":"levelo://app?vid=f1615576-13f4-4ebf-b52d-cb46c8289f42","ios":"levelo://app?vid=f1615576-13f4-4ebf-b52d-cb46c8289f42"},"vehicle_type_id":"4","last_reported":1767301816,"current_range_meters":10800,"station_id":"ce4bhnp2rcd13ifvqh0g","pricing_plan_id":"cebpf4jnsgd1na2vs0mg"},{"bike_id":"96ba46ee-ae1b-4beb-a78c-7abdcb099b0f","system_id":"levelo_inurba_marseille","lat":43.24392,"lon":5.37073,"is_reserved":false,"is_disabled":false,"rental_uris":{"android":"levelo://app?vid=96ba46ee-ae1b-4beb-a78c-7abdcb099b0f","ios":"levelo://app?vid=96ba46ee-ae1b-4beb-a78c-7abdcb099b0f"},"vehicle_type_id":"4","last_reported":1767301816,"current_range_meters":10800,"station_id":"ce4bhhh2rcd13ifvqfk0","pricing_plan_id":"cebpf4jnsgd1na2vs0mg"},{"bike_id":"60a24bfa-71d1-4394-8423-89ffbc06474e","system_id":"levelo_inurba_marseille","lat":43.30282,"lon":5.37661,"is_reserved":false,"is_disabled":false,"rental_uris":{"android":"levelo://app?vid=60a24bfa-71d1-4394-8423-89ffbc06474e","ios":"levelo://app?vid=60a24bfa-71d1-4394-8423-89ffbc06474e"},"vehicle_type_id":"4","last_reported":1767301816,"current_range_meters":10800,"station_id":"ce4bguh2rcd13ifvqcj0","pricing_plan_id":"cebpf4jnsgd1na2vs0mg"},{"bike_id":"c87660e5-f31f-49c7-af19-d6e5ef67735d","system_id":"levelo_inurba_marseille","lat":43.29491,"lon":5.43306,"is_reserved":false,"is_disabled":false,"rental_uris":{"android":"levelo://app?vid=c87660e5-f31f-49c7-af19-d6e5ef67735d","ios":"levelo://app?vid=c87660e5-f31f-49c7-af19-d6e5ef67735d"},"vehicle_type_id":"4","last_reported":1767301816,"current_range_meters":10800,"station_id":"st_d3j5ugp08ojc73fj9d10","pricing_plan_id":"cebpf4jnsgd1na2vs0mg"},{"bike_id":"f82d391f-fa54-4944-99a1-f43326016a14","system_id":"levelo_inurba_marseille","lat":43.31756,"lon":5.38983,"is_reserved":false,"is_disabled":false,"rental_uris":{"android":"levelo://app?vid=f82d391f-fa54-4944-99a1-f43326016a14","ios":"levelo://app?vid=f82d391f-fa54-4944-99a1-f43326016a14"},"vehicle_type_id":"4","last_reported":1767301816,"current_range_meters":10800,"station_id":"ce4bhqp2rcd13ifvqhng","pricing_plan_id":"cebpf4jnsgd1na2vs0mg"},{"bike_id":"c2ccf014-e170-40d8-b014-33114e8ee2b2","system_id":"levelo_inurba_marseille","lat":43.29161,"lon":5.37963,"is_reserved":false,"is_disabled":false,"rental_uris":{"android":"levelo://app?vid=c2ccf014-e170-40d8-b014-33114e8ee2b2","ios":"levelo://app?vid=c2ccf014-e170-40d8-b014-33114e8ee2b2"},"vehicle_type_id":"4","last_reported":1767301816,"current_range_meters":10800,"station_id":"","pricing_plan_id":"cebpf4jnsgd1na2vs0mg"},{"bike_id":"dee71270-d442-48dc-ba04-c9325234b92b","system_id":"levelo_inurba_marseille","lat":43.279272,"lon":5.4105,"is_reserved":false,"is_disabled":false,"rental_uris":{"android":"levelo://app?vid=dee71270-d442-48dc-ba04-c9325234b92b","ios":"levelo://app?vid=dee71270-d442-48dc-ba04-c9325234b92b"},"vehicle_type_id":"4","last_reported":1767301816,"current_range_meters":10800,"station_id":"ce4bhnp2rcd13ifvqh0g","pricing_plan_id":"cebpf4jnsgd1na2vs0mg"},{"bike_id":"650654d1-6b19-458f-97df-c0f29c65087f","system_id":"levelo_inurba_marseille","lat":43.26513,"lon":5.39541,"is_reserved":false,"is_disabled":false,"rental_uris":{"android":"levelo://app?vid=650654d1-6b19-458f-97df-c0f29c65087f","ios":"levelo://app?vid=650654d1-6b19-458f-97df-c0f29c65087f"},"vehicle_type_id":"4","last_reported":1767301816,"current_range_meters":10800,"station_id":"ce4bhi12rcd13ifvqfq0","pricing_plan_id":"cebpf4jnsgd1na2vs0mg"},{"bike_id":"c7520a13-b022-4cba-860a-1d0a7964595c","system_id":"levelo_inurba_marseille","lat":43.23067,"lon":5.3549,"is_reserved":false,"is_disabled":false,"rental_uris":{"android":"levelo://app?vid=c7520a13-b022-4cba-860a-1d0a7964595c","ios":"levelo://app?vid=c7520a13-b022-4cba-860a-1d0a7964595c"},"vehicle_type_id":"4","last_reported":1767301816,"current_range_meters":10800,"station_id":"cpo3342slgdg3j2ifvpg","pricing_plan_id":"cebpf4jnsgd1na2vs0mg"},{"bike_id":"1bf5304a-0750-40ba-b34e-8fb436e236e4","system_id":"levelo_inurba_marseille","lat":43.28412,"lon":5.37517,"is_reserved":false,"is_disabled":false,"rental_uris":{"android":"levelo://app?vid=1bf5304a-0750-40ba-b34e-8fb436e236e4","ios":"levelo://app?vid=1bf5304a-0750-40ba-b34e-8fb436e236e4"},