{"last_updated":1773773199,"ttl":60,"version":"2.2","data":{"bikes":[{"bike_id":"3916f476-8f98-455f-96c0-b8a53791008a","system_id":"levelo_inurba_marseille","lat":43.2766,"lon":5.38861,"is_reserved":false,"is_disabled":false,"rental_uris":{"android":"levelo://app?vid=3916f476-8f98-455f-96c0-b8a53791008a","ios":"levelo://app?vid=3916f476-8f98-455f-96c0-b8a53791008a"},"vehicle_type_id":"4","last_reported":1773773200,"current_range_meters":400,"station_id":"ce4bhi12rcd13ifvqfo0","pricing_plan_id":"cebpf4jnsgd1na2vs0mg"},{"bike_id":"3396099c-708d-4eec-a088-b08c42f9a617","system_id":"levelo_inurba_marseille","lat":43.2911,"lon":5.3819,"is_reserved":false,"is_disabled":false,"rental_uris":{"android":"levelo://app?vid=3396099c-708d-4eec-a088-b08c42f9a617","ios":"levelo://app?vid=3396099c-708d-4eec-a088-b08c42f9a617"},"vehicle_type_id":"4","last_reported":1773773200,"current_range_meters":800,"station_id":"ce4bh512rcd13ifvqe2g","pricing_plan_id":"cebpf4jnsgd1na2vs0mg"},{"bike_id":"c790f199-a0d7-4e64-b1c3-8068c89dac83","system_id":"levelo_inurba_marseille","lat":43.29272,"lon":5.3845,"is_reserved":false,"is_disabled":false,"rental_uris":{"android":"levelo://app?vid=c790f199-a0d7-4e64-b1c3-8068c89dac83","ios":"levelo://app?vid=c790f199-a0d7-4e64-b1c3-8068c89dac83"},"vehicle_type_id":"4","last_reported":1773773200,"current_range_meters":1200,"station_id":"ce4bh692rcd13ifvqea0","pricing_plan_id":"cebpf4jnsgd1na2vs0mg"},{"bike_id":"04dd6f6f-478a-4890-920c-4c5e26148502","system_id":"levelo_inurba_marseille","lat":43.2802,"lon":5.40046,"is_reserved":false,"is_disabled":false,"rental_uris":{"android":"levelo://app?vid=04dd6f6f-478a-4890-920c-4c5e26148502","ios":"levelo://app?vid=04dd6f6f-478a-4890-920c-4c5e26148502"},"vehicle_type_id":"4","last_reported":1773773200,"current_range_meters":1600,"station_id":"ce4bho92rcd13ifvqh4g","pricing_plan_id":"cebpf4jnsgd1na2vs0mg"},{"bike_id":"ab8ed3cf-dd65-453b-87ca-077ce7ed25e8","system_id":"levelo_inurba_marseille","lat":43.31902,"lon":5.368,"is_reserved":false,"is_disabled":false,"rental_uris":{"android":"levelo://app?vid=ab8ed3cf-dd65-453b-87ca-077ce7ed25e8","ios":"levelo://app?vid=ab8ed3cf-dd65-453b-87ca-077ce7ed25e8"},"vehicle_type_id":"4","last_reported":1773773200,"current_range_meters":2800,"station_id":"st_d6o2h0d0559c73evc1b0","pricing_plan_id":"cebpf4jnsgd1na2vs0mg"},{"bike_id":"483f1509-d39d-4043-acd7-7ca0af680d21","system_id":"levelo_inurba_marseille","lat":43.26584,"lon":5.39017,"is_reserved":false,"is_disabled":false,"rental_uris":{"android":"levelo://app?vid=483f1509-d39d-4043-acd7-7ca0af680d21","ios":"levelo://app?vid=483f1509-d39d-4043-acd7-7ca0af680d21"},"vehicle_type_id":"4","last_reported":1773773200,"current_range_meters":2800,"station_id":"ce4bhe12rcd13ifvqf30","pricing_plan_id":"cebpf4jnsgd1na2vs0mg"},{"bike_id":"0e72d657-5f5a-426a-a23c-dd3bc3fa5995","system_id":"levelo_inurba_marseille","lat":43.30234,"lon":5.4005,"is_reserved":false,"is_disabled":true,"rental_uris":{"android":"levelo://app?vid=0e72d657-5f5a-426a-a23c-dd3bc3fa5995","ios":"levelo://app?vid=0e72d657-5f5a-426a-a23c-dd3bc3fa5995"},"vehicle_type_id":"4","last_reported":1773773200,"current_range_meters":2800,"station_id":"ce4bgvh2rcd13ifvqcs0","pricing_plan_id":"cebpf4jnsgd1na2vs0mg"},{"bike_id":"39d7ad4a-e040-426b-b4e7-7d07fee427ab","system_id":"levelo_inurba_marseille","lat":43.29972,"lon":5.38494,"is_reserved":false,"is_disabled":false,"rental_uris":{"android":"levelo://app?vid=39d7ad4a-e040-426b-b4e7-7d07fee427ab","ios":"levelo://app?vid=39d7ad4a-e040-426b-b4e7-7d07fee427ab"},"vehicle_type_id":"4","last_reported":1773773200,"current_range_meters":2800,"station_id":"ce4bgj92rcd13ifvqbd0","pricing_plan_id":"cebpf4jnsgd1na2vs0mg"},{"bike_id":"07c70547-999e-4a49-b6ff-554822d1660f","system_id":"levelo_inurba_marseille","lat":43.29571,"lon":5.39982,"is_reserved":false,"is_disabled":false,"rental_uris":{"android":"levelo://app?vid=07c70547-999e-4a49-b6ff-554822d1660f","ios":"levelo://app?vid=07c70547-999e-4a49-b6ff-554822d1660f"},"vehicle_type_id":"4","last_reported":1773773200,"current_range_meters":2800,"station_id":"ce4bh312rcd13ifvqdj0","pricing_plan_id":"cebpf4jnsgd1na2vs0mg"},{"bike_id":"2f9859ce-f7e9-421e-898f-b78b64f57b26","system_id":"levelo_inurba_marseille","lat":43.30424,"lon":5.38894,"is_reserved":false,"is_disabled":false,"rental_uris":{"android":"levelo://app?vid=2f9859ce-f7e9-421e-898f-b78b64f57b26","ios":"levelo://app?vid=2f9859ce-f7e9-421e-898f-b78b64f57b26"},"vehicle_type_id":"4","last_reported":1773773200,"current_range_meters":2800,"station_id":"ce4bgk12rcd13ifvqbi0","pricing_plan_id":"cebpf4jnsgd1na2vs0mg"},{"bike_id":"b3fb0cd9-0d50-4402-b1d7-e0ca7cbbf02f","system_id":"levelo_inurba_marseille","lat":43.22577,"lon":5.41647,"is_reserved":false,"is_disabled":false,"rental_uris":{"android":"levelo://app?vid=b3fb0cd9-0d50-4402-b1d7-e0ca7cbbf02f","ios":"levelo://app?vid=b3fb0cd9-0d50-4402-b1d7-e0ca7cbbf02f"},"vehicle_type_id":"4","last_reported":1773773200,"current_range_meters":2800,"station_id":"st_d2o4gvlbi1j2169b742g","pricing_plan_id":"cebpf4jnsgd1na2vs0mg"},{"bike_id":"d4e38edb-e8cb-4dcf-8571-57e02fcb4701","system_id":"levelo_inurba_marseille","lat":43.30234,"lon":5.39999,"is_reserved":false,"is_disabled":false,"rental_uris":{"android":"levelo://app?vid=d4e38edb-e8cb-4dcf-8571-57e02fcb4701","ios":"levelo://app?vid=d4e38edb-e8cb-4dcf-8571-57e02fcb4701"},"vehicle_type_id":"4","last_reported":1773773200,"current_range_meters":2800,"station_id":"ce4bgvh2rcd13ifvqcs0","pricing_plan_id":"cebpf4jnsgd1na2vs0mg"},{"bike_id":"2d472ab9-04f5-4199-a05b-5747cb3039a8","system_id":"levelo_inurba_marseille","lat":43.28178,"lon":5.35167,"is_reserved":false,"is_disabled":false,"rental_uris":{"android":"levelo://app?vid=2d472ab9-04f5-4199-a05b-5747cb3039a8","ios":"levelo://app?vid=2d472ab9-04f5-4199-a05b-5747cb3039a8"},"vehicle_type_id":"4","last_reported":1773773200,"current_range_meters":2800,"station_id":"","pricing_plan_id":"cebpf4jnsgd1na2vs0mg"},{"bike_id":"15ae4716-7b3f-4590-9080-f90fba379b0c","system_id":"levelo_inurba_marseille","lat":43.262078,"lon":5.374433,"is_reserved":false,"is_disabled":false,"rental_uris":{"android":"levelo://app?vid=15ae4716-7b3f-4590-9080-f90fba379b0c","ios":"levelo://app?vid=15ae4716-7b3f-4590-9080-f90fba379b0c"},"vehicle_type_id":"4","last_reported":1773773200,"current_range_meters":2800,"station_id":"ce4bhgp2rcd13ifvqfc0","pricing_plan_id":"cebpf4jnsgd1na2vs0mg"},{"bike_id":"16457ba3-1470-4505-8653-618841a1295d","system_id":"levelo_inurba_marseille","lat":43.30206,"lon":5.39493,"is_reserved":false,"is_disabled":false,"rental_uris":{"android":"levelo://app?vid=16457ba3-1470-4505-8653-618841a1295d","ios":"levelo://app?vid=16457ba3-1470-4505-8653-618841a1295d"},"vehicle_type_id":"4","last_reported":1773773200,"current_range_meters":2800,"station_id":"ce4bh0p2rcd13ifvqd70","pricing_plan_id":"cebpf4jnsgd1na2vs0mg"},{"bike_id":"4a22a1c6-ebd5-43bb-a8f4-cd8f6e8c8060","system_id":"levelo_inurba_marseille","lat":43.31181,"lon":5.3871,"is_reserved":false,"is_disabled":false,"rental_uris":{"android":"levelo://app?vid=4a22a1c6-ebd5-43bb-a8f4-cd8f6e8c8060","ios":"levelo://app?vid=4a22a1c6-ebd5-43bb-a8f4-cd8f6e8c8060"},"vehicle_type_id":"4","last_reported":1773773200,"current_range_meters":2800,"station_id":"ce4bgv12rcd13ifvqcp0","pricing_plan_id":"cebpf4jnsgd1na2vs0mg"},{"bike_id":"788c5126-657c-4a41-91b0-a7f99f972b86","system_id":"levelo_inurba_marseille","lat":43.28668,"lon":5.38675,"is_reserved":false,"is_disabled":false,"rental_uris":{"android":"levelo://app?vid=788c5126-657c-4a41-91b0-a7f99f972b86","ios":"levelo://app?vid=788c5126-657c-4a41-91b0-a7f99f972b86"},"vehicle_type_id":"4","last_reported":1773773200,"current_range_meters":2800,"station_id":"ce4bh492rcd13ifvqdug","pricing_plan_id":"cebpf4jnsgd1na2vs0mg"},{"bike_id":"10072799-47ba-4752-a2c7-d51ef0071974","system_id":"levelo_inurba_marseille","lat":43.29167,"lon":5.37156,"is_reserved":false,"is_disabled":false,"rental_uris":{"android":"levelo://app?vid=10072799-47ba-4752-a2c7-d51ef0071974","ios":"levelo://app?vid=10072799-47ba-4752-a2c7-d51ef0071974"},"vehicle_type_id":"4","last_reported":1773773200,"current_range_meters":2800,"station_id":"ce4bha92rcd13ifvqeh0","pricing_plan_id":"cebpf4jnsgd1na2vs0mg"},{"bike_id":"a56a0e14-055a-44e7-ae92-5c38d7c945c7","system_id":"levelo_inurba_marseille","lat":43.29872,"lon":5.38145,"is_reserved":false,"is_disabled":false,"rental_uris":{"android":"levelo://app?vid=a56a0e14-055a-44e7-ae92-5c38d7c945c7","ios":"levelo://app?vid=a56a0e14-055a-44e7-ae92-5c38d7c945c7"},"vehicle_type_id":"4","last_reported":1773773200,"current_range_meters":2800,"station_id":"ce4bgj12rcd13ifvqbc0","pricing_plan_id":"cebpf4jnsgd1na2vs0mg"},{"bike_id":"5546bd0f-7ced-4964-ba48-a430fa2adf47","system_id":"levelo_inurba_marseille","lat":43.21748,"lon":5.34598,"is_reserved":false,"is_disabled":true,"rental_uris":{"android":"levelo://app?vid=5546bd0f-7ced-4964-ba48-a430fa2adf47","ios":"levelo://app?vid=5546bd0f-7ced-4964-ba48-a430fa2adf47"},"vehicle_type_id":"4","last_reported":1773773200,"current_range_meters":3200,"station_id":"st_cvj6r9ubvosntc0bgbag","pricing_plan_id":"cebpf4jnsgd1na2vs0mg"},{"bike_id":"551c4f6b-9a42-4a3c-9fcd-3861ae059d8f","system_id":"levelo_inurba_marseille","lat":43.26938,"lon":5.38897,"is_reserved":false,"is_disabled":false,"rental_uris":{"android":"levelo://app?vid=551c4f6b-9a42-4a3c-9fcd-3861ae059d8f","ios":"levelo://app?vid=551c4f6b-9a42-4a3c-9fcd-3861ae059d8f"},"vehicle_type_id":"4","last_reported":1773773200,"current_range_meters":3200,"station_id":"ce4bhhh2rcd13ifvqfl0","pricing_plan_id":"cebpf4jnsgd1na2vs0mg"},{"bike_id":"20d965c2-9356-4a2d-b2d1-b586da5c97e8","system_id":"levelo_inurba_marseille","lat":43.28099,"lon":5.40612,"is_reserved":false,"is_disabled":true,"rental_uris":{"android":"levelo://app?vid=20d965c2-9356-4a2d-b2d1-b586da5c97e8","ios":"levelo://app?vid=20d965c2-9356-4a2d-b2d1-b586da5c97e8"},"vehicle_type_id":"4","last_reported":1773773200,"current_range_meters":3200,"station_id":"","pricing_plan_id":"cebpf4jnsgd1na2vs0mg"},{"bike_id":"608c9709-1452-44ae-806b-b15d0b0eb4ae","system_id":"levelo_inurba_marseille","lat":43.279943,"lon":5.400077,"is_reserved":false,"is_disabled":false,"rental_uris":{"android":"levelo://app?vid=608c9709-1452-44ae-806b-b15d0b0eb4ae","ios":"levelo://app?vid=608c9709-1452-44ae-806b-b15d0b0eb4ae"},"vehicle_type_id":"4","last_reported":1773773200,"current_range_meters":3200,"station_id":"ce4bho92rcd13ifvqh4g","pricing_plan_id":"cebpf4jnsgd1na2vs0mg"},{"bike_id":"8c3f83c6-08dd-4595-b4da-c1cf2c21d3b2","system_id":"levelo_inurba_marseille","lat":43.30249,"lon":5.4005,"is_reserved":false,"is_disabled":false,"rental_uris":{"android":"levelo://app?vid=8c3f83c6-08dd-4595-b4da-c1cf2c21d3b2","ios":"levelo://app?vid=8c3f83c6-08dd-4595-b4da-c1cf2c21d3b2"},"vehicle_type_id":"4","last_reported":1773773200,"current_range_meters":3200,"station_id":"ce4bgvh2rcd13ifvqcs0","pricing_plan_id":"cebpf4jnsgd1na2vs0mg"},{"bike_id":"2f6af145-9965-4232-ba20-a2113c18cb78","system_id":"levelo_inurba_marseille","lat":43.29509,"lon":5.39856,"is_reserved":false,"is_disabled":true,"rental_uris":{"android":"levelo://app?vid=2f6af145-9965-4232-ba20-a2113c18cb78","ios":"levelo://app?vid=2f6af145-9965-4232-ba20-a2113c18cb78"},"vehicle_type_id":"4","last_reported":1773773200,"current_range_meters":3200,"station_id":"ce4bh312rcd13ifvqdj0","pricing_plan_id":"cebpf4jnsgd1na2vs0mg"},{"bike_id":"3d1bfdfa-bbdc-4216-8266-4c24b485057c","system_id":"levelo_inurba_marseille","lat":43.30296,"lon":5.37689,"is_reserved":false,"is_disabled":false,"rental_uris":{"android":"levelo://app?vid=3d1bfdfa-bbdc-4216-8266-4c24b485057c","ios":"levelo://app?vid=3d1bfdfa-bbdc-4216-8266-4c24b485057c"},"vehicle_type_id":"4","last_reported":1773773200,"current_range_meters":3200,"station_id":"ce4bguh2rcd13ifvqcj0","pricing_plan_id":"cebpf4jnsgd1na2vs0mg"},{"bike_id":"cfb2e14b-73a8-4466-83b0-51755dfd9dbb","system_id":"levelo_inurba_marseille","lat":43.23182,"lon":5.39983,"is_reserved":false,"is_disabled":false,"rental_uris":{"android":"levelo://app?vid=cfb2e14b-73a8-4466-83b0-51755dfd9dbb","ios":"levelo://app?vid=cfb2e14b-73a8-4466-83b0-51755dfd9dbb"},"vehicle_type_id":"4","last_reported":1773773200,"current_range_meters":3200,"station_id":"ce4bhn12rcd13ifvqgqg","pricing_plan_id":"cebpf4jnsgd1na2vs0mg"},{"bike_id":"849601a4-f153-4e69-8a81-266bd3c62be8","system_id":"levelo_inurba_marseille","lat":43.28441,"lon":5.35005,"is_reserved":false,"is_disabled":false,"rental_uris":{"android":"levelo://app?vid=849601a4-f153-4e69-8a81-266bd3c62be8","ios":"levelo://app?vid=849601a4-f153-4e69-8a81-266bd3c62be8"},"vehicle_type_id":"4","last_reported":1773773200,"current_range_meters":3200,"station_id":"ce4bhbh2rcd13ifvqepg","pricing_plan_id":"cebpf4jnsgd1na2vs0mg"},{"bike_id":"796ed888-5e80-4248-a7be-20570706635d","system_id":"levelo_inurba_marseille","lat":43.23824,"lon":5.36673,"is_reserved":false,"is_disabled":false,"rental_uris":{"android":"levelo://app?vid=796ed888-5e80-4248-a7be-20570706635d","ios":"levelo://app?vid=796ed888-5e80-4248-a7be-20570706635d"},"vehicle_type_id":"4","last_reported":1773773200,"current_range_meters":3200,"station_id":"","pricing_plan_id":"cebpf4jnsgd1na2vs0mg"},{"bike_id":"56d2c149-0e02-472c-bf5d-4d654616ceb6","system_id":"levelo_inurba_marseille","lat":43.29791,"lon":5.38118,"is_reserved":false,"is_disabled":false,"rental_uris":{"android":"levelo://app?vid=56d2c149-0e02-472c-bf5d-4d654616ceb6","ios":"levelo://app?vid=56d2c149-0e02-472c-bf5d-4d654616ceb6"},"vehicle_type_id":"4","last_reported":1773773200,"current_range_meters":3200,"station_id":"ce4bgip2rcd13ifvqbb0","pricing_plan_id":"cebpf4jnsgd1na2vs0mg"},{"bike_id":"5c13d3bc-3946-4016-b223-a96c424763ee","system_id":"levelo_inurba_marseille","lat":43.24165,"lon":5.36394,"is_reserved":false,"is_disabled":false,"rental_uris":{"android":"levelo://app?vid=5c13d3bc-3946-4016-b223-a96c424763ee","ios":"levelo://app?vid=5c13d3bc-3946-4016-b223-a96c424763ee"},"vehicle_type_id":"4","last_reported":1773773200,"current_range_meters":3200,"station_id":"cpo36qri1sfpv3e86is0","pricing_plan_id":"cebpf4jnsgd1na2vs0mg"},{"bike_id":"f25424b5-53e2-464a-8133-387ca48e8a26","system_id":"levelo_inurba_marseille","lat":43.29958,"lon":5.3848,"is_reserved":false,"is_disabled":false,"rental_uris":{"android":"levelo://app?vid=f25424b5-53e2-464a-8133-387ca48e8a26","ios":"levelo://app?vid=f25424b5-53e2-464a-8133-387ca48e8a26"},"vehicle_type_id":"4","last_reported":1773773200,"current_range_meters":3200,"station_id":"ce4bgj92rcd13ifvqbd0","pricing_plan_id":"cebpf4jnsgd1na2vs0mg"},{"bike_id":"2e271568-1bca-4ddb-b666-9346e991d570","system_id":"levelo_inurba_marseille","lat":43.30548,"lon":5.36575,"is_reserved":false,"is_disabled":false,"rental_uris":{"android":"levelo://app?vid=2e271568-1bca-4ddb-b666-9346e991d570","ios":"levelo://app?vid=2e271568-1bca-4ddb-b666-9346e991d570"},"vehicle_type_id":"4","last_reported":1773773200,"current_range_meters":3200,"station_id":"ce4bgs12rcd13ifvqcag","pricing_plan_id":"cebpf4jnsgd1na2vs0mg"},{"bike_id":"90da0256-45c5-4a39-b1ac-e8f193bf6d2b","system_id":"levelo_inurba_marseille","lat":43.29539,"lon":5.38557,"is_reserved":false,"is_disabled":false,"rental_uris":{"android":"levelo://app?vid=90da0256-45c5-4a39-b1ac-e8f193bf6d2b","ios":"levelo://app?vid=90da0256-45c5-4a39-b1ac-e8f193bf6d2b"},"vehicle_type_id":"4","last_reported":1773773200,"current_range_meters":3200,"station_id":"ce4bgih2rcd13ifvqba0","pricing_plan_id":"cebpf4jnsgd1na2vs0mg"},{"bike_id":"5ca41897-f686-4ab0-9180-67e4e0cf62a2","system_id":"levelo_inurba_marseille","lat":43.30263,"lon":5.40076,"is_reserved":false,"is_disabled":false,"rental_uris":{"android":"levelo://app?vid=5ca41897-f686-4ab0-9180-67e4e0cf62a2","ios":"levelo://app?vid=5ca41897-f686-4ab0-9180-67e4e0cf62a2"},"vehicle_type_id":"4","last_reported":1773773200,"current_range_meters":3200,"station_id":"ce4bgvh2rcd13ifvqcs0","pricing_plan_id":"cebpf4jnsgd1na2vs0mg"},{"bike_id":"c491e8f1-0ba3-4c50-99cd-b7b27d001968","system_id":"levelo_inurba_marseille","lat":43.29521,"lon":5.3903,"is_reserved":false,"is_disabled":false,"rental_uris":{"android":"levelo://app?vid=c491e8f1-0ba3-4c50-99cd-b7b27d001968","ios":"levelo://app?vid=c491e8f1-0ba3-4c50-99cd-b7b27d001968"},"vehicle_type_id":"4","last_reported":1773773200,"current_range_meters":3200,"station_id":"ce4bh3p2rcd13ifvqdp0","pricing_plan_id":"cebpf4jnsgd1na2vs0mg"},{"bike_id":"9d778b5a-cae7-4993-8e43-5e0eab38faf0","system_id":"levelo_inurba_marseille","lat":43.29612,"lon":5.38102,"is_reserved":false,"is_disabled":false,"rental_uris":{"android":"levelo://app?vid=9d778b5a-cae7-4993-8e43-5e0eab38faf0","ios":"levelo://app?vid=9d778b5a-cae7-4993-8e43-5e0eab38faf0"},"vehicle_type_id":"4","last_reported":1773773200,"current_range_meters":3200,"station_id":"ce4bgl12rcd13ifvqbo0","pricing_plan_id":"cebpf4jnsgd1na2vs0mg"},{"bike_id":"fb22ab39-4722-4e5e-938b-dc20094c7233","system_id":"levelo_inurba_marseille","lat":43.21197,"lon":5.35088,"is_reserved":false,"is_disabled":false,"rental_uris":{"android":"levelo://app?vid=fb22ab39-4722-4e5e-938b-dc20094c7233","ios":"levelo://app?vid=fb22ab39-4722-4e5e-938b-dc20094c7233"},"vehicle_type_id":"4","last_reported":1773773200,"current_range_meters":3200,"station_id":"st_cvj6sg6p6f1abm77japg","pricing_plan_id":"cebpf4jnsgd1na2vs0mg"},{"bike_id":"d06b1804-70fd-40ad-8edd-a00949173812","system_id":"levelo_inurba_marseille","lat":43.23192,"lon":5.39991,"is_reserved":false,"is_disabled":false,"rental_uris":{"android":"levelo://app?vid=d06b1804-70fd-40ad-8edd-a00949173812","ios":"levelo://app?vid=d06b1804-70fd-40ad-8edd-a00949173812"},"vehicle_type_id":"4","last_reported":1773773200,"current_range_meters":3200,"station_id":"ce4bhn12rcd13ifvqgqg","pricing_plan_id":"cebpf4jnsgd1na2vs0mg"},{"bike_id":"4749e653-fe53-4940-a95a-8d5b9b0bc481","system_id":"levelo_inurba_marseille","lat":43.25698,"lon":5.41109,"is_reserved":false,"is_disabled":false,"rental_uris":{"android":"levelo://app?vid=4749e653-fe53-4940-a95a-8d5b9b0bc481","ios":"levelo://app?vid=4749e653-fe53-4940-a95a-8d5b9b0bc481"},"vehicle_type_id":"4","last_reported":1773773200,"current_range_meters":3200,"station_id":"ce4bhkp2rcd13ifvqgd0","pricing_plan_id":"cebpf4jnsgd1na2vs0mg"},{"bike_id":"d89134ff-a044-45c7-94db-9ed2eccb039f","system_id":"levelo_inurba_marseille","lat":43.3135,"lon":5.38497,"is_reserved":false,"is_disabled":true,"rental_uris":{"android":"levelo://app?vid=d89134ff-a044-45c7-94db-9ed2eccb039f","ios":"levelo://app?vid=d89134ff-a044-45c7-94db-9ed2eccb039f"},"vehicle_type_id":"4","last_reported":1773773200,"current_range_meters":3200,"station_id":"ce4bgt92rcd13ifvqcf0","pricing_plan_id":"cebpf4jnsgd1na2vs0mg"},{"bike_id":"b12f5646-0588-4727-9f04-3829d021f07b","system_id":"levelo_inurba_marseille","lat":43.2866,"lon":5.38654,"is_reserved":false,"is_disabled":false,"rental_uris":{"android":"levelo://app?vid=b12f5646-0588-4727-9f04-3829d021f07b","ios":"levelo://app?vid=b12f5646-0588-4727-9f04-3829d021f07b"},"vehicle_type_id":"4","last_reported":1773773200,"current_range_meters":3200,"station_id":"ce4bh492rcd13ifvqdug","pricing_plan_id":"cebpf4jnsgd1na2vs0mg"},{"bike_id":"550c6f48-64d4-43bc-a0e4-444a1f8184af","system_id":"levelo_inurba_marseille","lat":43.2176,"lon":5.34594,"is_reserved":false,"is_disabled":false,"rental_uris":{"android":"levelo://app?vid=550c6f48-64d4-43bc-a0e4-444a1f8184af","ios":"levelo://app?vid=550c6f48-64d4-43bc-a0e4-444a1f8184af"},"vehicle_type_id":"4","last_reported":1773773200,"current_range_meters":3200,"station_id":"st_cvj6r9ubvosntc0bgbag","pricing_plan_id":"cebpf4jnsgd1na2vs0mg"},{"bike_id":"79443ca5-f9cd-4e55-b9e2-360954669e62","system_id":"levelo_inurba_marseille","lat":43.292759,"lon":5.368497,"is_reserved":false,"is_disabled":false,"rental_uris":{"android":"levelo://app?vid=79443ca5-f9cd-4e55-b9e2-360954669e62","ios":"levelo://app?vid=79443ca5-f9cd-4e55-b9e2-360954669e62"},"vehicle_type_id":"4","last_reported":1773773200,"current_range_meters":3200,"station_id":"ce4bhbp2rcd13ifvqesg","pricing_plan_id":"cebpf4jnsgd1na2vs0mg"},{"bike_id":"02e1ce95-d4b5-4fc4-ab41-56e5c5a9b087","system_id":"levelo_inurba_marseille","lat":43.3024,"lon":5.40055,"is_reserved":false,"is_disabled":false,"rental_uris":{"android":"levelo://app?vid=02e1ce95-d4b5-4fc4-ab41-56e5c5a9b087","ios":"levelo://app?vid=02e1ce95-d4b5-4fc4-ab41-56e5c5a9b087"},"vehicle_type_id":"4","last_reported":1773773200,"current_range_meters":3200,"station_id":"ce4bgvh2rcd13ifvqcs0","pricing_plan_id":"cebpf4jnsgd1na2vs0mg"},{"bike_id":"c76c4c10-a78b-4f0b-be67-fbba9b6febb3","system_id":"levelo_inurba_marseille","lat":43.26213,"lon":5.40445,"is_reserved":false,"is_disabled":false,"rental_uris":{"android":"levelo://app?vid=c76c4c10-a78b-4f0b-be67-fbba9b6febb3","ios":"levelo://app?vid=c76c4c10-a78b-4f0b-be67-fbba9b6febb3"},"vehicle_type_id":"4","last_reported":1773773200,"current_range_meters":3200,"station_id":"ce4bhmh2rcd13ifvqgmg","pricing_plan_id":"cebpf4jnsgd1na2vs0mg"},{"bike_id":"fe3dcd59-0e60-4041-8e04-eedd5e00d705","system_id":"levelo_inurba_marseille","lat":43.30921,"lon":5.4017,"is_reserved":false,"is_disabled":false,"rental_uris":{"android":"levelo://app?vid=fe3dcd59-0e60-4041-8e04-eedd5e00d705","ios":"levelo://app?vid=fe3dcd59-0e60-4041-8e04-eedd5e00d705"},"vehicle_type_id":"4","last_reported":1773773200,"current_range_meters":3200,"station_id":"ce4bgvp2rcd13ifvqct0","pricing_plan_id":"cebpf4jnsgd1na2vs0mg"},{"bike_id":"ad05bc00-00e2-4bce-a621-49e6b06ee580","system_id":"levelo_inurba_marseille","lat":43.33161,"lon":5.37687,"is_reserved":false,"is_disabled":false,"rental_uris":{"android":"levelo://app?vid=ad05bc00-00e2-4bce-a621-49e6b06ee580","ios":"levelo://app?vid=ad05bc00-00e2-4bce-a621-49e6b06ee580"},"vehicle_type_id":"4","last_reported":1773773200,"current_range_meters":3600,"station_id":"st_d46cu089ee8s73dldbu0","pricing_plan_id":"cebpf4jnsgd1na2vs0mg"},{"bike_id":"92fe4ec2-12f9-4c22-9375-1c5dcdd836f4","system_id":"levelo_inurba_marseille","lat":43.30272,"lon":5.40056,"is_reserved":false,"is_disabled":false,"rental_uris":{"android":"levelo://app?vid=92fe4ec2-12f9-4c22-9375-1c5dcdd836f4","ios":"levelo://app?vid=92fe4ec2-12f9-4c22-9375-1c5dcdd836f4"},"vehicle_type_id":"4","last_reported":1773773200,"current_range_meters":3600,"station_id":"ce4bgvh2rcd13ifvqcs0","pricing_plan_id":"cebpf4jnsgd1na2vs0mg"},{"bike_id":"87cf2c9e-dd79-479c-9e15-2f0aaae6b8ee","system_id":"levelo_inurba_marseille","lat":43.31411,"lon":5.37318,"is_reserved":false,"is_disabled":false,"rental_uris":{"android":"levelo://app?vid=87cf2c9e-dd79-479c-9e15-2f0aaae6b8ee","ios":"levelo://app?vid=87cf2c9e-dd79-479c-9e15-2f0aaae6b8ee"},"vehicle_type_id":"4","last_reported":1773773200,"current_range_meters":3600,"station_id":"","pricing_plan_id":"cebpf4jnsgd1na2vs0mg"},{"bike_id":"cdfa7f61-6c61-4859-aabb-dccd639e7098","system_id":"levelo_inurba_marseille","lat":43.30589,"lon":5.39353,"is_reserved":false,"is_disabled":false,"rental_uris":{"android":"levelo://app?vid=cdfa7f61-6c61-4859-aabb-dccd639e7098","ios":"levelo://app?vid=cdfa7f61-6c61-4859-aabb-dccd639e7098"},"vehicle_type_id":"4","last_reported":1773773200,"current_range_meters":3600,"station_id":"ce4bh0p2rcd13ifvqd80","pricing_plan_id":"cebpf4jnsgd1na2vs0mg"},{"bike_id":"0f53d472-bee4-40de-8ab2-7656a789b4f7","system_id":"levelo_inurba_marseille","lat":43.22549,"lon":5.34935,"is_reserved":false,"is_disabled":false,"rental_uris":{"android":"levelo://app?vid=0f53d472-bee4-40de-8ab2-7656a789b4f7","ios":"levelo://app?vid=0f53d472-bee4-40de-8ab2-7656a789b4f7"},"vehicle_type_id":"4","last_reported":1773773200,"current_range_meters":3600,"station_id":"","pricing_plan_id":"cebpf4jnsgd1na2vs0mg"},{"bike_id":"136e19d8-4441-48b6-92a5-e128c8c01ed2","system_id":"levelo_inurba_marseille","lat":43.28571,"lon":5.42954,"is_reserved":false,"is_disabled":false,"rental_uris":{"android":"levelo://app?vid=136e19d8-4441-48b6-92a5-e128c8c01ed2","ios":"levelo://app?vid=136e19d8-4441-48b6-92a5-e128c8c01ed2"},"vehicle_type_id":"4","last_reported":1773773200,"current_range_meters":3600,"station_id":"","pricing_plan_id":"cebpf4jnsgd1na2vs0mg"},{"bike_id":"5ceea874-16bc-4dc6-9858-1b3ce34dfda6","system_id":"levelo_inurba_marseille","lat":43.28481,"lon":5.48403,"is_reserved":false,"is_disabled":false,"rental_uris":{"android":"levelo://app?vid=5ceea874-16bc-4dc6-9858-1b3ce34dfda6","ios":"levelo://app?vid=5ceea874-16bc-4dc6-9858-1b3ce34dfda6"},"vehicle_type_id":"4","last_reported":1773773200,"current_range_meters":3600,"station_id":"st_d3svhcjqgbts73a3dn0g","pricing_plan_id":"cebpf4jnsgd1na2vs0mg"},{"bike_id":"ae4c7c6d-c203-43d1-a2de-3e35142bc2c5","system_id":"levelo_inurba_marseille","lat":43.29289,"lon":5.37447,"is_reserved":false,"is_disabled":false,"rental_uris":{"android":"levelo://app?vid=ae4c7c6d-c203-43d1-a2de-3e35142bc2c5","ios":"levelo://app?vid=ae4c7c6d-c203-43d1-a2de-3e35142bc2c5"},"vehicle_type_id":"4","last_reported":1773773200,"current_range_meters":3600,"station_id":"ce4bgi12rcd13ifvqb70","pricing_plan_id":"cebpf4jnsgd1na2vs0mg"},{"bike_id":"a09b8b83-de6e-4460-b39e-54b5b4b509b3","system_id":"levelo_inurba_marseille","lat":43.26489,"lon":5.39541,"is_reserved":false,"is_disabled":false,"rental_uris":{"android":"levelo://app?vid=a09b8b83-de6e-4460-b39e-54b5b4b509b3","ios":"levelo://app?vid=a09b8b83-de6e-4460-b39e-54b5b4b509b3"},"vehicle_type_id":"4","last_reported":1773773200,"current_range_meters":3600,"station_id":"ce4bhi12rcd13ifvqfq0","pricing_plan_id":"cebpf4jnsgd1na2vs0mg"},{"bike_id":"c689c5db-592c-47e9-a293-c7e9eb6b0cc4","system_id":"levelo_inurba_marseille","lat":43.30464,"lon":5.39015,"is_reserved":false,"is_disabled":false,"rental_uris":{"android":"levelo://app?vid=c689c5db-592c-47e9-a293-c7e9eb6b0cc4","ios":"levelo://app?vid=c689c5db-592c-47e9-a293-c7e9eb6b0cc4"},"vehicle_type_id":"4","last_reported":1773773200,"current_range_meters":3600,"station_id":"","pricing_plan_id":"cebpf4jnsgd1na2vs0mg"},{"bike_id":"96c3e592-caf0-4266-a17d-83de489ffac5","system_id":"levelo_inurba_marseille","lat":43.29757,"lon":5.38094,"is_reserved":false,"is_disabled":false,"rental_uris":{"android":"levelo://app?vid=96c3e592-caf0-4266-a17d-83de489ffac5","ios":"levelo://app?vid=96c3e592-caf0-4266-a17d-83de489ffac5"},"vehicle_type_id":"4","last_reported":1773773200,"current_range_meters":3600,"station_id":"","pricing_plan_id":"cebpf4jnsgd1na2vs0mg"},{"bike_id":"fc02382e-637d-48b7-8142-4f42f3e7290c","system_id":"levelo_inurba_marseille","lat":43.28615,"lon":5.39903,"is_reserved":false,"is_disabled":false,"rental_uris":{"android":"levelo://app?vid=fc02382e-637d-48b7-8142-4f42f3e7290c","ios":"levelo://app?vid=fc02382e-637d-48b7-8142-4f42f3e7290c"},"vehicle_type_id":"4","last_reported":1773773200,"current_range_meters":3600,"station_id":"st_d4a7ka997mjs738ck50g","pricing_plan_id":"cebpf4jnsgd1na2vs0mg"},{"bike_id":"0c2790b7-c8e6-4c25-9d2e-e99e74f7c5b7","system_id":"levelo_inurba_marseille","lat":43.31998,"lon":5.38166,"is_reserved":false,"is_disabled":false,"rental_uris":{"android":"levelo://app?vid=0c2790b7-c8e6-4c25-9d2e-e99e74f7c5b7","ios":"levelo://app?vid=0c2790b7-c8e6-4c25-9d2e-e99e74f7c5b7"},"vehicle_type_id":"4","last_reported":1773773200,"current_range_meters":3600,"station_id":"ce4bhr12rcd13ifvqhpg","pricing_plan_id":"cebpf4jnsgd1na2vs0mg"},{"bike_id":"6143b1cb-332a-47ea-b076-e3f92c1d984d","system_id":"levelo_inurba_marseille","lat":43.28705,"lon":5.37398,"is_reserved":false,"is_disabled":false,"rental_uris":{"android":"levelo://app?vid=6143b1cb-332a-47ea-b076-e3f92c1d984d","ios":"levelo://app?vid=6143b1cb-332a-47ea-b076-e3f92c1d984d"},"vehicle_type_id":"4","last_reported":1773773200,"current_range_meters":3600,"station_id":"ce4bh3p2rcd13ifvqdq0","pricing_plan_id":"cebpf4jnsgd1na2vs0mg"},{"bike_id":"72d7733c-b47c-44e1-8980-8c1ddf4dcf51","system_id":"levelo_inurba_marseille","lat":43.24806,"lon":5.37457,"is_reserved":false,"is_disabled":false,"rental_uris":{"android":"levelo://app?vid=72d7733c-b47c-44e1-8980-8c1ddf4dcf51","ios":"levelo://app?vid=72d7733c-b47c-44e1-8980-8c1ddf4dcf51"},"vehicle_type_id":"4","last_reported":1773773200,"current_range_meters":3600,"station_id":"ce4bhgh2rcd13ifvqfb0","pricing_plan_id":"cebpf4jnsgd1na2vs0mg"},{"bike_id":"a20eef15-22aa-4575-ad46-a809c6e4edf6","system_id":"levelo_inurba_marseille","lat":43.31334,"lon":5.3969,"is_reserved":false,"is_disabled":false,"rental_uris":{"android":"levelo://app?vid=a20eef15-22aa-4575-ad46-a809c6e4edf6","ios":"levelo://app?vid=a20eef15-22aa-4575-ad46-a809c6e4edf6"},"vehicle_type_id":"4","last_reported":1773773200,"current_range_meters":3600,"station_id":"ce4bgvp2rcd13ifvqcu0","pricing_plan_id":"cebpf4jnsgd1na2vs0mg"},{"bike_id":"cace3d1d-1bca-4b13-a9d9-15d4fe451dee","system_id":"levelo_inurba_marseille","lat":43.24672,"lon":5.43195,"is_reserved":false,"is_disabled":false,"rental_uris":{"android":"levelo://app?vid=cace3d1d-1bca-4b13-a9d9-15d4fe451dee","ios":"levelo://app?vid=cace3d1d-1bca-4b13-a9d9-15d4fe451dee"},"vehicle_type_id":"4","last_reported":1773773200,"current_range_meters":3600,"station_id":"","pricing_plan_id":"cebpf4jnsgd1na2vs0mg"},{"bike_id":"eacade95-9f46-4a6e-a14a-d1867e48577e","system_id":"levelo_inurba_marseille","lat":43.26792,"lon":5.39417,"is_reserved":false,"is_disabled":false,"rental_uris":{"android":"levelo://app?vid=eacade95-9f46-4a6e-a14a-d1867e48577e","ios":"levelo://app?vid=eacade95-9f46-4a6e-a14a-d1867e48577e"},"vehicle_type_id":"4","last_reported":1773773200,"current_range_meters":4000,"station_id":"ce4bhh12rcd13ifvqfg0","pricing_plan_id":"cebpf4jnsgd1na2vs0mg"},{"bike_id":"03fc9476-1e7a-47c9-a89b-ab8c5a9ef4f0","system_id":"levelo_inurba_marseille","lat":43.24816,"lon":5.37477,"is_reserved":false,"is_disabled":false,"rental_uris":{"android":"levelo://app?vid=03fc9476-1e7a-47c9-a89b-ab8c5a9ef4f0","ios":"levelo://app?vid=03fc9476-1e7a-47c9-a89b-ab8c5a9ef4f0"},"vehicle_type_id":"4","last_reported":1773773200,"current_range_meters":4000,"station_id":"ce4bhgh2rcd13ifvqfb0","pricing_plan_id":"cebpf4jnsgd1na2vs0mg"},{"bike_id":"89a2033b-0712-4ced-8849-44a064982b74","system_id":"levelo_inurba_marseille","lat":43.29629,"lon":5.38108,"is_reserved":false,"is_disabled":false,"rental_uris":{"android":"levelo://app?vid=89a2033b-0712-4ced-8849-44a064982b74","ios":"levelo://app?vid=89a2033b-0712-4ced-8849-44a064982b74"},"vehicle_type_id":"4","last_reported":1773773200,"current_range_meters":4000,"station_id":"ce4bgl12rcd13ifvqbo0","pricing_plan_id":"cebpf4jnsgd1na2vs0mg"},{"bike_id":"d0fe6d23-0520-4ae2-ba22-adc8cf05a374","system_id":"levelo_inurba_marseille","lat":43.24978,"lon":5.40499,"is_reserved":false,"is_disabled":false,"rental_uris":{"android":"levelo://app?vid=d0fe6d23-0520-4ae2-ba22-adc8cf05a374","ios":"levelo://app?vid=d0fe6d23-0520-4ae2-ba22-adc8cf05a374"},"vehicle_type_id":"4","last_reported":1773773200,"current_range_meters":4000,"station_id":"st_d2ngiaodas8pm72gd1h0","pricing_plan_id":"cebpf4jnsgd1na2vs0mg"},{"bike_id":"79d7e2d8-96ed-465e-b31b-1696801515fd","system_id":"levelo_inurba_marseille","lat":43.24167,"lon":5.36414,"is_reserved":false,"is_disabled":false,"rental_uris":{"android":"levelo://app?vid=79d7e2d8-96ed-465e-b31b-1696801515fd","ios":"levelo://app?vid=79d7e2d8-96ed-465e-b31b-1696801515fd"},"vehicle_type_id":"4","last_reported":1773773200,"current_range_meters":4000,"station_id":"cpo36qri1sfpv3e86is0","pricing_plan_id":"cebpf4jnsgd1na2vs0mg"},{"bike_id":"9761ea07-5436-44a3-b47a-edd5aaaf46a7","system_id":"levelo_inurba_marseille","lat":43.24817,"lon":5.37456,"is_reserved":false,"is_disabled":false,"rental_uris":{"android":"levelo://app?vid=9761ea07-5436-44a3-b47a-edd5aaaf46a7","ios":"levelo://app?vid=9761ea07-5436-44a3-b47a-edd5aaaf46a7"},"vehicle_type_id":"4","last_reported":1773773200,"current_range_meters":4000,"station_id":"ce4bhgh2rcd13ifvqfb0","pricing_plan_id":"cebpf4jnsgd1na2vs0mg"},{"bike_id":"3e799d01-bc3b-4776-b695-faeeae742520","system_id":"levelo_inurba_marseille","lat":43.31182,"lon":5.38686,"is_reserved":false,"is_disabled":false,"rental_uris":{"android":"levelo://app?vid=3e799d01-bc3b-4776-b695-faeeae742520","ios":"levelo://app?vid=3e799d01-bc3b-4776-b695-faeeae742520"},"vehicle_type_id":"4","last_reported":1773773200,"current_range_meters":4000,"station_id":"ce4bgv12rcd13ifvqcp0","pricing_plan_id":"cebpf4jnsgd1na2vs0mg"},{"bike_id":"80e6734b-3764-4853-8c63-15cb07f7249f","system_id":"levelo_inurba_marseille","lat":43.29798,"lon":5.44063,"is_reserved":false,"is_disabled":false,"rental_uris":{"android":"levelo://app?vid=80e6734b-3764-4853-8c63-15cb07f7249f","ios":"levelo://app?vid=80e6734b-3764-4853-8c63-15cb07f7249f"},"vehicle_type_id":"4","last_reported":1773773200,"current_range_meters":4000,"station_id":"st_d3jp68qikq2c7381ktn0","pricing_plan_id":"cebpf4jnsgd1na2vs0mg"},{"bike_id":"89f6044f-7e57-49f5-8263-c2e55e117b58","system_id":"levelo_inurba_marseille","lat":43.27816,"lon":5.40717,"is_reserved":false,"is_disabled":false,"rental_uris":{"android":"levelo://app?vid=89f6044f-7e57-49f5-8263-c2e55e117b58","ios":"levelo://app?vid=89f6044f-7e57-49f5-8263-c2e55e117b58"},"vehicle_type_id":"4","last_reported":1773773200,"current_range_meters":4000,"station_id":"ce4bhnh2rcd13ifvqgtg","pricing_plan_id":"cebpf4jnsgd1na2vs0mg"},{"bike_id":"07715d61-3e66-4a99-aaba-300c6e419251","system_id":"levelo_inurba_marseille","lat":43.29077,"lon":5.37181,"is_reserved":false,"is_disabled":false,"rental_uris":{"android":"levelo://app?vid=07715d61-3e66-4a99-aaba-300c6e419251","ios":"levelo://app?vid=07715d61-3e66-4a99-aaba-300c6e419251"},"vehicle_type_id":"4","last_reported":1773773200,"current_range_meters":4000,"station_id":"ce4bh5p2rcd13ifvqe4g","pricing_plan_id":"cebpf4jnsgd1na2vs0mg"},{"bike_id":"57e107db-9acb-46f0-bdff-4166a0b9c128","system_id":"levelo_inurba_marseille","lat":43.2559,"lon":5.38276,"is_reserved":false,"is_disabled":false,"rental_uris":{"android":"levelo://app?vid=57e107db-9acb-46f0-bdff-4166a0b9c128","ios":"levelo://app?vid=57e107db-9acb-46f0-bdff-4166a0b9c128"},"vehicle_type_id":"4","last_reported":1773773200,"current_range_meters":4000,"station_id":"ce4bhih2rcd13ifvqfs0","pricing_plan_id":"cebpf4jnsgd1na2vs0mg"},{"bike_id":"11ff61a0-a636-48df-ba6b-194120ca29c3","system_id":"levelo_inurba_marseille","lat":43.29756,"lon":5.42786,"is_reserved":false,"is_disabled":false,"rental_uris":{"android":"levelo://app?vid=11ff61a0-a636-48df-ba6b-194120ca29c3","ios":"levelo://app?vid=11ff61a0-a636-48df-ba6b-194120ca29c3"},"vehicle_type_id":"4","last_reported":1773773200,"current_range_meters":4000,"station_id":"st_d3md5207bmas73dh9klg","pricing_plan_id":"cebpf4jnsgd1na2vs0mg"},{"bike_id":"f8f91446-2d63-4d87-b9e5-ef0607c7bd0f","system_id":"levelo_inurba_marseille","lat":43.2926,"lon":5.3844,"is_reserved":false,"is_disabled":false,"rental_uris":{"android":"levelo://app?vid=f8f91446-2d63-4d87-b9e5-ef0607c7bd0f","ios":"levelo://app?vid=f8f91446-2d63-4d87-b9e5-ef0607c7bd0f"},"vehicle_type_id":"4","last_reported":1773773200,"current_range_meters":4000,"station_id":"ce4bh692rcd13ifvqea0","pricing_plan_id":"cebpf4jnsgd1na2vs0mg"},{"bike_id":"29a54209-1805-4985-95a0-2df2873998c5","system_id":"levelo_inurba_marseille","lat":43.28424,"lon":5.34992,"is_reserved":false,"is_disabled":false,"rental_uris":{"android":"levelo://app?vid=29a54209-1805-4985-95a0-2df2873998c5","ios":"levelo://app?vid=29a54209-1805-4985-95a0-2df2873998c5"},"vehicle_type_id":"4","last_reported":1773773200,"current_range_meters":4000,"station_id":"ce4bhbh2rcd13ifvqepg","pricing_plan_id":"cebpf4jnsgd1na2vs0mg"},{"bike_id":"f771c435-32cd-416e-b589-71afdf86b854","system_id":"levelo_inurba_marseille","lat":43.27902,"lon":5.39592,"is_reserved":false,"is_disabled":false,"rental_uris":{"android":"levelo://app?vid=f771c435-32cd-416e-b589-71afdf86b854","ios":"levelo://app?vid=f771c435-32cd-416e-b589-71afdf86b854"},"vehicle_type_id":"4","last_reported":1773773200,"current_range_meters":4000,"station_id":"ce4bhf92rcd13ifvqf40","pricing_plan_id":"cebpf4jnsgd1na2vs0mg"},{"bike_id":"fcc322ad-8f9f-43e5-be5a-11870b989ace","system_id":"levelo_inurba_marseille","lat":43.2848,"lon":5.38417,"is_reserved":false,"is_disabled":false,"rental_uris":{"android":"levelo://app?vid=fcc322ad-8f9f-43e5-be5a-11870b989ace","ios":"levelo://app?vid=fcc322ad-8f9f-43e5-be5a-11870b989ace"},"vehicle_type_id":"4","last_reported":1773773200,"current_range_meters":4000,"station_id":"ce4bh512rcd13ifvqe3g","pricing_plan_id":"cebpf4jnsgd1na2vs0mg"},{"bike_id":"464d46c4-c65b-4ebf-ac5c-3e1056acffce","system_id":"levelo_inurba_marseille","lat":43.29806,"lon":5.37134,"is_reserved":false,"is_disabled":false,"rental_uris":{"android":"levelo://app?vid=464d46c4-c65b-4ebf-ac5c-3e1056acffce","ios":"levelo://app?vid=464d46c4-c65b-4ebf-ac5c-3e1056acffce"},"vehicle_type_id":"4","last_reported":1773773200,"current_range_meters":4000,"station_id":"ce4bgop2rcd13ifvqc1g","pricing_plan_id":"cebpf4jnsgd1na2vs0mg"},{"bike_id":"0c70cef0-38e6-4505-96c1-08cd1bdcc4ac","system_id":"levelo_inurba_marseille","lat":43.29268,"lon":5.38463,"is_reserved":false,"is_disabled":false,"rental_uris":{"android":"levelo://app?vid=0c70cef0-38e6-4505-96c1-08cd1bdcc4ac","ios":"levelo://app?vid=0c70cef0-38e6-4505-96c1-08cd1bdcc4ac"},"vehicle_type_id":"4","last_reported":1773773200,"current_range_meters":4000,"station_id":"ce4bh692rcd13ifvqea0","pricing_plan_id":"cebpf4jnsgd1na2vs0mg"},{"bike_id":"2c9f4912-6325-45d2-b689-ec5a6c3898dd","system_id":"levelo_inurba_marseille","lat":43.27823,"lon":5.40728,"is_reserved":false,"is_disabled":false,"rental_uris":{"android":"levelo://app?vid=2c9f4912-6325-45d2-b689-ec5a6c3898dd","ios":"levelo://app?vid=2c9f4912-6325-45d2-b689-ec5a6c3898dd"},"vehicle_type_id":"4","last_reported":1773773200,"current_range_meters":4000,"station_id":"ce4bhnh2rcd13ifvqgtg","pricing_plan_id":"cebpf4jnsgd1na2vs0mg"},{"bike_id":"569da3b0-ddad-4124-94a6-25e19f330cae","system_id":"levelo_inurba_marseille","lat":43.27988,"lon":5.40025,"is_reserved":false,"is_disabled":false,"rental_uris":{"android":"levelo://app?vid=569da3b0-ddad-4124-94a6-25e19f330cae","ios":"levelo://app?vid=569da3b0-ddad-4124-94a6-25e19f330cae"},"vehicle_type_id":"4","last_reported":1773773200,"current_range_meters":4000,"station_id":"ce4bho92rcd13ifvqh4g","pricing_plan_id":"cebpf4jnsgd1na2vs0mg"},{"bike_id":"953d2939-b85f-45e0-9f48-4b5ed7c58aff","system_id":"levelo_inurba_marseille","lat":43.28038,"lon":5.36982,"is_reserved":false,"is_disabled":false,"rental_uris":{"android":"levelo://app?vid=953d2939-b85f-45e0-9f48-4b5ed7c58aff","ios":"levelo://app?vid=953d2939-b85f-45e0-9f48-4b5ed7c58aff"},"vehicle_type_id":"4","last_reported":1773773200,"current_range_meters":4400,"station_id":"ce4bha12rcd13ifvqef0","pricing_plan_id":"cebpf4jnsgd1na2vs0mg"},{"bike_id":"2d475c7c-0764-4ac9-8950-41d5059b573b","system_id":"levelo_inurba_marseille","lat":43.28491,"lon":5.48423,"is_reserved":false,"is_disabled":false,"rental_uris":{"android":"levelo://app?vid=2d475c7c-0764-4ac9-8950-41d5059b573b","ios":"levelo://app?vid=2d475c7c-0764-4ac9-8950-41d5059b573b"},"vehicle_type_id":"4","last_reported":1773773200,"current_range_meters":4400,"station_id":"","pricing_plan_id":"cebpf4jnsgd1na2vs0mg"},{"bike_id":"fcc16676-bdcc-453d-943e-a6082336e83f","system_id":"levelo_inurba_marseille","lat":43.29829,"lon":5.44079,"is_reserved":false,"is_disabled":false,"rental_uris":{"android":"levelo://app?vid=fcc16676-bdcc-453d-943e-a6082336e83f","ios":"levelo://app?vid=fcc16676-bdcc-453d-943e-a6082336e83f"},"vehicle_type_id":"4","last_reported":1773773200,"current_range_meters":4400,"station_id":"st_d3jp68qikq2c7381ktn0","pricing_plan_id":"cebpf4jnsgd1na2vs0mg"},{"bike_id":"2acb6430-f036-47f3-abd4-66d73bed1821","system_id":"levelo_inurba_marseille","lat":43.23964,"lon":5.3668,"is_reserved":false,"is_disabled":false,"rental_uris":{"android":"levelo://app?vid=2acb6430-f036-47f3-abd4-66d73bed1821","ios":"levelo://app?vid=2acb6430-f036-47f3-abd4-66d73bed1821"},"vehicle_type_id":"4","last_reported":1773773200,"current_range_meters":4400,"station_id":"ce4bhi12rcd13ifvqfp0","pricing_plan_id":"cebpf4jnsgd1na2vs0mg"},{"bike_id":"69d2e5d2-aab9-4fc9-a42e-b520c7e8b4f1","system_id":"levelo_inurba_marseille","lat":43.23075,"lon":5.355,"is_reserved":false,"is_disabled":false,"rental_uris":{"android":"levelo://app?vid=69d2e5d2-aab9-4fc9-a42e-b520c7e8b4f1","ios":"levelo://app?vid=69d2e5d2-aab9-4fc9-a42e-b520c7e8b4f1"},"vehicle_type_id":"4","last_reported":1773773200,"current_range_meters":4400,"station_id":"cpo3342slgdg3j2ifvpg","pricing_plan_id":"cebpf4jnsgd1na2vs0mg"},{"bike_id":"3ee20e24-ce5b-4d2b-a227-79f9d22e4d4c","system_id":"levelo_inurba_marseille","lat":43.31178,"lon":5.38721,"is_reserved":false,"is_disabled":false,"rental_uris":{"android":"levelo://app?vid=3ee20e24-ce5b-4d2b-a227-79f9d22e4d4c","ios":"levelo://app?vid=3ee20e24-ce5b-4d2b-a227-79f9d22e4d4c"},"vehicle_type_id":"4","last_reported":1773773200,"current_range_meters":4400,"station_id":"ce4bgv12rcd13ifvqcp0","pricing_plan_id":"cebpf4jnsgd1na2vs0mg"},{"bike_id":"f76b5d17-e06c-4f33-a59a-7db0e98f0790","system_id":"levelo_inurba_marseille","lat":43.253566,"lon":5.401725,"is_reserved":false,"is_disabled":false,"rental_uris":{"android":"levelo://app?vid=f76b5d17-e06c-4f33-a59a-7db0e98f0790","ios":"levelo://app?vid=f76b5d17-e06c-4f33-a59a-7db0e98f0790"},"vehicle_type_id":"4","last_reported":1773773200,"current_range_meters":4400,"station_id":"ce4bhlh2rcd13ifvqgig","pricing_plan_id":"cebpf4jnsgd1na2vs0mg"},{"bike_id":"f3ffe32e-55e9-4ddc-ad67-947695050aa2","system_id":"levelo_inurba_marseille","lat":43.28485,"lon":5.38421,"is_reserved":false,"is_disabled":false,"rental_uris":{"android":"levelo://app?vid=f3ffe32e-55e9-4ddc-ad67-947695050aa2","ios":"levelo://app?vid=f3ffe32e-55e9-4ddc-ad67-947695050aa2"},"vehicle_type_id":"4","last_reported":1773773200,"current_range_meters":4400,"station_id":"ce4bh512rcd13ifvqe3g","pricing_plan_id":"cebpf4jnsgd1na2vs0mg"},{"bike_id":"2fefa175-a3d8-432a-b59f-d96870e3e52e","system_id":"levelo_inurba_marseille","lat":43.29919,"lon":5.38146,"is_reserved":false,"is_disabled":false,"rental_uris":{"android":"levelo://app?vid=2fefa175-a3d8-432a-b59f-d96870e3e52e","ios":"levelo://app?vid=2fefa175-a3d8-432a-b59f-d96870e3e52e"},"vehicle_type_id":"4","last_reported":1773773200,"current_range_meters":4400,"station_id":"ce4bgj12rcd13ifvqbc0","pricing_plan_id":"cebpf4jnsgd1na2vs0mg"},{"bike_id":"67d0381d-498e-4f4b-8823-1c9f56dc4409","system_id":"levelo_inurba_marseille","lat":43.31174,"lon":5.38692,"is_reserved":false,"is_disabled":false,"rental_uris":{"android":"levelo://app?vid=67d0381d-498e-4f4b-8823-1c9f56dc4409","ios":"levelo://app?vid=67d0381d-498e-4f4b-8823-1c9f56dc4409"},"vehicle_type_id":"4","last_reported":1773773200,"current_range_meters":4400,"station_id":"ce4bgv12rcd13ifvqcp0","pricing_plan_id":"cebpf4jnsgd1na2vs0mg"},{"bike_id":"bd9f799c-2d6d-4b01-aa15-b4f6946b978f","system_id":"levelo_inurba_marseille","lat":43.303075,"lon":5.392136,"is_reserved":false,"is_disabled":false,"rental_uris":{"android":"levelo://app?vid=bd9f799c-2d6d-4b01-aa15-b4f6946b978f","ios":"levelo://app?vid=bd9f799c-2d6d-4b01-aa15-b4f6946b978f"},"vehicle_type_id":"4","last_reported":1773773200,"current_range_meters":4400,"station_id":"ce4bgkh2rcd13ifvqbk0","pricing_plan_id":"cebpf4jnsgd1na2vs0mg"},{"bike_id":"ca2786e6-5157-4ab3-8916-81d583d6acde","system_id":"levelo_inurba_marseille","lat":43.22933,"lon":5.35384,"is_reserved":false,"is_disabled":false,"rental_uris":{"android":"levelo://app?vid=ca2786e6-5157-4ab3-8916-81d583d6acde","ios":"levelo://app?vid=ca2786e6-5157-4ab3-8916-81d583d6acde"},"vehicle_type_id":"4","last_reported":1773773200,"current_range_meters":4400,"station_id":"cpo3532slgdg3j2ikp40","pricing_plan_id":"cebpf4jnsgd1na2vs0mg"},{"bike_id":"f52404f4-49e0-415f-b5b2-f416addddb9e","system_id":"levelo_inurba_marseille","lat":43.29274,"lon":5.38469,"is_reserved":false,"is_disabled":false,"rental_uris":{"android":"levelo://app?vid=f52404f4-49e0-415f-b5b2-f416addddb9e","ios":"levelo://app?vid=f52404f4-49e0-415f-b5b2-f416addddb9e"},"vehicle_type_id":"4","last_reported":1773773200,"current_range_meters":4400,"station_id":"ce4bh692rcd13ifvqea0","pricing_plan_id":"cebpf4jnsgd1na2vs0mg"},{"bike_id":"46bd999e-1b05-409a-809a-3f9ac06a7ab4","system_id":"levelo_inurba_marseille","lat":43.31721,"lon":5.42399,"is_reserved":false,"is_disabled":false,"rental_uris":{"android":"levelo://app?vid=46bd999e-1b05-409a-809a-3f9ac06a7ab4","ios":"levelo://app?vid=46bd999e-1b05-409a-809a-3f9ac06a7ab4"},"vehicle_type_id":"4","last_reported":1773773200,"current_range_meters":4400,"station_id":"ce4bhp92rcd13ifvqhbg","pricing_plan_id":"cebpf4jnsgd1na2vs0mg"},{"bike_id":"d0ae8e3f-e26c-4b27-8f87-3d26a351fec7","system_id":"levelo_inurba_marseille","lat":43.24824,"lon":5.37488,"is_reserved":false,"is_disabled":false,"rental_uris":{"android":"levelo://app?vid=d0ae8e3f-e26c-4b27-8f87-3d26a351fec7","ios":"levelo://app?vid=d0ae8e3f-e26c-4b27-8f87-3d26a351fec7"},"vehicle_type_id":"4","last_reported":1773773200,"current_range_meters":4400,"station_id":"ce4bhgh2rcd13ifvqfb0","pricing_plan_id":"cebpf4jnsgd1na2vs0mg"},{"bike_id":"4d801c9a-fb3b-44b8-89da-4663b81d8f8c","system_id":"levelo_inurba_marseille","lat":43.29867,"lon":5.36324,"is_reserved":false,"is_disabled":false,"rental_uris":{"android":"levelo://app?vid=4d801c9a-fb3b-44b8-89da-4663b81d8f8c","ios":"levelo://app?vid=4d801c9a-fb3b-44b8-89da-4663b81d8f8c"},"vehicle_type_id":"4","last_reported":1773773200,"current_range_meters":4400,"station_id":"ce4bgpp2rcd13ifvqc3g","pricing_plan_id":"cebpf4jnsgd1na2vs0mg"},{"bike_id":"6c7ddaf1-6278-49be-8f63-0800782bdae8","system_id":"levelo_inurba_marseille","lat":43.306042,"lon":5.393529,"is_reserved":false,"is_disabled":false,"rental_uris":{"android":"levelo://app?vid=6c7ddaf1-6278-49be-8f63-0800782bdae8","ios":"levelo://app?vid=6c7ddaf1-6278-49be-8f63-0800782bdae8"},"vehicle_type_id":"4","last_reported":1773773200,"current_range_meters":4400,"station_id":"ce4bh0p2rcd13ifvqd80","pricing_plan_id":"cebpf4jnsgd1na2vs0mg"},{"bike_id":"080d241c-7118-4e12-931a-924e5758c729","system_id":"levelo_inurba_marseille","lat":43.31706,"lon":5.37743,"is_reserved":false,"is_disabled":false,"rental_uris":{"android":"levelo://app?vid=080d241c-7118-4e12-931a-924e5758c729","ios":"levelo://app?vid=080d241c-7118-4e12-931a-924e5758c729"},"vehicle_type_id":"4","last_reported":1773773200,"current_range_meters":4400,"station_id":"ce4bgth2rcd13ifvqch0","pricing_plan_id":"cebpf4jnsgd1na2vs0mg"},{"bike_id":"96dac97a-0c76-4079-a74f-d3b50e0ff04c","system_id":"levelo_inurba_marseille","lat":43.21221,"lon":5.35087,"is_reserved":false,"is_disabled":false,"rental_uris":{"android":"levelo://app?vid=96dac97a-0c76-4079-a74f-d3b50e0ff04c","ios":"levelo://app?vid=96dac97a-0c76-4079-a74f-d3b50e0ff04c"},"vehicle_type_id":"4","last_reported":1773773200,"current_range_meters":4400,"station_id":"st_cvj6sg6p6f1abm77japg","pricing_plan_id":"cebpf4jnsgd1na2vs0mg"},{"bike_id":"c05e7300-18c3-4098-92df-be69f1debc10","system_id":"levelo_inurba_marseille","lat":43.29974,"lon":5.38484,"is_reserved":false,"is_disabled":false,"rental_uris":{"android":"levelo://app?vid=c05e7300-18c3-4098-92df-be69f1debc10","ios":"levelo://app?vid=c05e7300-18c3-4098-92df-be69f1debc10"},"vehicle_type_id":"4","last_reported":1773773200,"current_range_meters":4400,"station_id":"ce4bgj92rcd13ifvqbd0","pricing_plan_id":"cebpf4jnsgd1na2vs0mg"},{"bike_id":"5caa7394-26ba-4c0e-a009-c6957003158b","system_id":"levelo_inurba_marseille","lat":43.29259,"lon":5.38444,"is_reserved":false,"is_disabled":false,"rental_uris":{"android":"levelo://app?vid=5caa7394-26ba-4c0e-a009-c6957003158b","ios":"levelo://app?vid=5caa7394-26ba-4c0e-a009-c6957003158b"},"vehicle_type_id":"4","last_reported":1773773200,"current_range_meters":4400,"station_id":"ce4bh692rcd13ifvqea0","pricing_plan_id":"cebpf4jnsgd1na2vs0mg"},{"bike_id":"2df048df-d180-4cdd-8c6c-8e45106d12df","system_id":"levelo_inurba_marseille","lat":43.21744,"lon":5.34613,"is_reserved":false,"is_disabled":false,"rental_uris":{"android":"levelo://app?vid=2df048df-d180-4cdd-8c6c-8e45106d12df","ios":"levelo://app?vid=2df048df-d180-4cdd-8c6c-8e45106d12df"},"vehicle_type_id":"4","last_reported":1773773200,"current_range_meters":4400,"station_id":"st_cvj6r9ubvosntc0bgbag","pricing_plan_id":"cebpf4jnsgd1na2vs0mg"},{"bike_id":"2308325c-0d1f-40b6-8813-c48c20aa4af8","system_id":"levelo_inurba_marseille","lat":43.2294,"lon":5.35374,"is_reserved":false,"is_disabled":false,"rental_uris":{"android":"levelo://app?vid=2308325c-0d1f-40b6-8813-c48c20aa4af8","ios":"levelo://app?vid=2308325c-0d1f-40b6-8813-c48c20aa4af8"},"vehicle_type_id":"4","last_reported":1773773200,"current_range_meters":4800,"station_id":"cpo3532slgdg3j2ikp40","pricing_plan_id":"cebpf4jnsgd1na2vs0mg"},{"bike_id":"55ad6576-3c79-4a6b-881b-323a7e8b70a1","system_id":"levelo_inurba_marseille","lat":43.2501,"lon":5.38938,"is_reserved":false,"is_disabled":false,"rental_uris":{"android":"levelo://app?vid=55ad6576-3c79-4a6b-881b-323a7e8b70a1","ios":"levelo://app?vid=55ad6576-3c79-4a6b-881b-323a7e8b70a1"},"vehicle_type_id":"4","last_reported":1773773200,"current_range_meters":4800,"station_id":"ce4bhgp2rcd13ifvqfd0","pricing_plan_id":"cebpf4jnsgd1na2vs0mg"},{"bike_id":"f7d8440a-63ed-449b-9c03-59f750327739","system_id":"levelo_inurba_marseille","lat":43.2512,"lon":5.4033,"is_reserved":false,"is_disabled":false,"rental_uris":{"android":"levelo://app?vid=f7d8440a-63ed-449b-9c03-59f750327739","ios":"levelo://app?vid=f7d8440a-63ed-449b-9c03-59f750327739"},"vehicle_type_id":"4","last_reported":1773773200,"current_range_meters":4800,"station_id":"ce4bhlh2rcd13ifvqgig","pricing_plan_id":"cebpf4jnsgd1na2vs0mg"},{"bike_id":"7d0337a7-a404-4fc1-b9ea-56922183a614","system_id":"levelo_inurba_marseille","lat":43.28398,"lon":5.34995,"is_reserved":false,"is_disabled":false,"rental_uris":{"android":"levelo://app?vid=7d0337a7-a404-4fc1-b9ea-56922183a614","ios":"levelo://app?vid=7d0337a7-a404-4fc1-b9ea-56922183a614"},"vehicle_type_id":"4","last_reported":1773773200,"current_range_meters":4800,"station_id":"ce4bhbh2rcd13ifvqepg","pricing_plan_id":"cebpf4jnsgd1na2vs0mg"},{"bike_id":"5962897d-65d4-4a3b-aa78-1f7dccc0b9d2","system_id":"levelo_inurba_marseille","lat":43.2654,"lon":5.37288,"is_reserved":false,"is_disabled":false,"rental_uris":{"android":"levelo://app?vid=5962897d-65d4-4a3b-aa78-1f7dccc0b9d2","ios":"levelo://app?vid=5962897d-65d4-4a3b-aa78-1f7dccc0b9d2"},"vehicle_type_id":"4","last_reported":1773773200,"current_range_meters":4800,"station_id":"ce4bhg12rcd13ifvqf70","pricing_plan_id":"cebpf4jnsgd1na2vs0mg"},{"bike_id":"3758371f-03b9-4f5f-96dc-249fbaa1e29a","system_id":"levelo_inurba_marseille","lat":43.28082,"lon":5.3966,"is_reserved":false,"is_disabled":false,"rental_uris":{"android":"levelo://app?vid=3758371f-03b9-4f5f-96dc-249fbaa1e29a","ios":"levelo://app?vid=3758371f-03b9-4f5f-96dc-249fbaa1e29a"},"vehicle_type_id":"4","last_reported":1773773200,"current_range_meters":4800,"station_id":"ce4bho12rcd13ifvqh2g","pricing_plan_id":"cebpf4jnsgd1na2vs0mg"},{"bike_id":"3f9e6e6e-391b-4840-8836-54681feae643","system_id":"levelo_inurba_marseille","lat":43.30274,"lon":5.37695,"is_reserved":false,"is_disabled":false,"rental_uris":{"android":"levelo://app?vid=3f9e6e6e-391b-4840-8836-54681feae643","ios":"levelo://app?vid=3f9e6e6e-391b-4840-8836-54681feae643"},"vehicle_type_id":"4","last_reported":1773773200,"current_range_meters":4800,"station_id":"ce4bguh2rcd13ifvqcj0","pricing_plan_id":"cebpf4jnsgd1na2vs0mg"},{"bike_id":"526af27b-b6f7-4e11-b06a-f6d798209301","system_id":"levelo_inurba_marseille","lat":43.29432,"lon":5.39755,"is_reserved":false,"is_disabled":false,"rental_uris":{"android":"levelo://app?vid=526af27b-b6f7-4e11-b06a-f6d798209301","ios":"levelo://app?vid=526af27b-b6f7-4e11-b06a-f6d798209301"},"vehicle_type_id":"4","last_reported":1773773200,"current_range_meters":4800,"station_id":"ce4bh3h2rcd13ifvqdo0","pricing_plan_id":"cebpf4jnsgd1na2vs0mg"},{"bike_id":"fc47abe7-cfea-4603-9b16-e89f62a15b75","system_id":"levelo_inurba_marseille","lat":43.29984,"lon":5.38484,"is_reserved":false,"is_disabled":true,"rental_uris":{"android":"levelo://app?vid=fc47abe7-cfea-4603-9b16-e89f62a15b75","ios":"levelo://app?vid=fc47abe7-cfea-4603-9b16-e89f62a15b75"},"vehicle_type_id":"4","last_reported":1773773200,"current_range_meters":4800,"station_id":"ce4bgj92rcd13ifvqbd0","pricing_plan_id":"cebpf4jnsgd1na2vs0mg"},{"bike_id":"73109875-ea30-49ac-9fba-ad158c75cc11","system_id":"levelo_inurba_marseille","lat":43.30214,"lon":5.39481,"is_reserved":false,"is_disabled":false,"rental_uris":{"android":"levelo://app?vid=73109875-ea30-49ac-9fba-ad158c75cc11","ios":"levelo://app?vid=73109875-ea30-49ac-9fba-ad158c75cc11"},"vehicle_type_id":"4","last_reported":1773773200,"current_range_meters":4800,"station_id":"ce4bh0p2rcd13ifvqd70","pricing_plan_id":"cebpf4jnsgd1na2vs0mg"},{"bike_id":"9df6a3db-828d-4ada-a63a-18bb4b959b9e","system_id":"levelo_inurba_marseille","lat":43.28732,"lon":5.37944,"is_reserved":false,"is_disabled":false,"rental_uris":{"android":"levelo://app?vid=9df6a3db-828d-4ada-a63a-18bb4b959b9e","ios":"levelo://app?vid=9df6a3db-828d-4ada-a63a-18bb4b959b9e"},"vehicle_type_id":"4","last_reported":1773773200,"current_range_meters":4800,"station_id":"ce4bh9p2rcd13ifvqec0","pricing_plan_id":"cebpf4jnsgd1na2vs0mg"},{"bike_id":"880f606a-acb1-494d-8d28-ce6b12c4f2e1","system_id":"levelo_inurba_marseille","lat":43.29765,"lon":5.36589,"is_reserved":false,"is_disabled":false,"rental_uris":{"android":"levelo://app?vid=880f606a-acb1-494d-8d28-ce6b12c4f2e1","ios":"levelo://app?vid=880f606a-acb1-494d-8d28-ce6b12c4f2e1"},"vehicle_type_id":"4","last_reported":1773773200,"current_range_meters":4800,"station_id":"","pricing_plan_id":"cebpf4jnsgd1na2vs0mg"},{"bike_id":"88858f89-fe21-45f8-acbb-9ce67472ddb3","system_id":"levelo_inurba_marseille","lat":43.22931,"lon":5.35381,"is_reserved":false,"is_disabled":false,"rental_uris":{"android":"levelo://app?vid=88858f89-fe21-45f8-acbb-9ce67472ddb3","ios":"levelo://app?vid=88858f89-fe21-45f8-acbb-9ce67472ddb3"},"vehicle_type_id":"4","last_reported":1773773200,"current_range_meters":4800,"station_id":"cpo3532slgdg3j2ikp40","pricing_plan_id":"cebpf4jnsgd1na2vs0mg"},{"bike_id":"9a5d4a81-a2e9-4cbe-be3d-a7cf05c6de46","system_id":"levelo_inurba_marseille","lat":43.27996,"lon":5.40023,"is_reserved":false,"is_disabled":false,"rental_uris":{"android":"levelo://app?vid=9a5d4a81-a2e9-4cbe-be3d-a7cf05c6de46","ios":"levelo://app?vid=9a5d4a81-a2e9-4cbe-be3d-a7cf05c6de46"},"vehicle_type_id":"4","last_reported":1773773200,"current_range_meters":4800,"station_id":"ce4bho92rcd13ifvqh4g","pricing_plan_id":"cebpf4jnsgd1na2vs0mg"},{"bike_id":"b3e3399c-3837-42b8-afac-39674642005e","system_id":"levelo_inurba_marseille","lat":43.29762,"lon":5.42807,"is_reserved":false,"is_disabled":false,"rental_uris":{"android":"levelo://app?vid=b3e3399c-3837-42b8-afac-39674642005e","ios":"levelo://app?vid=b3e3399c-3837-42b8-afac-39674642005e"},"vehicle_type_id":"4","last_reported":1773773200,"current_range_meters":4800,"station_id":"st_d3md5207bmas73dh9klg","pricing_plan_id":"cebpf4jnsgd1na2vs0mg"},{"bike_id":"40f6ebde-c5b0-40f4-9357-741eb9dbb7d3","system_id":"levelo_inurba_marseille","lat":43.30141,"lon":5.38784,"is_reserved":false,"is_disabled":false,"rental_uris":{"android":"levelo://app?vid=40f6ebde-c5b0-40f4-9357-741eb9dbb7d3","ios":"levelo://app?vid=40f6ebde-c5b0-40f4-9357-741eb9dbb7d3"},"vehicle_type_id":"4","last_reported":1773773200,"current_range_meters":4800,"station_id":"ce4bghh2rcd13ifvqb60","pricing_plan_id":"cebpf4jnsgd1na2vs0mg"},{"bike_id":"31e1f629-7752-4bac-bac8-9d9b49d571e5","system_id":"levelo_inurba_marseille","lat":43.28612,"lon":5.39877,"is_reserved":false,"is_disabled":false,"rental_uris":{"android":"levelo://app?vid=31e1f629-7752-4bac-bac8-9d9b49d571e5","ios":"levelo://app?vid=31e1f629-7752-4bac-bac8-9d9b49d571e5"},"vehicle_type_id":"4","last_reported":1773773200,"current_range_meters":4800,"station_id":"st_d4a7ka997mjs738ck50g","pricing_plan_id":"cebpf4jnsgd1na2vs0mg"},{"bike_id":"789768de-63a4-4780-b79b-6c6e876c03a8","system_id":"levelo_inurba_marseille","lat":43.24657,"lon":5.38162,"is_reserved":false,"is_disabled":false,"rental_uris":{"android":"levelo://app?vid=789768de-63a4-4780-b79b-6c6e876c03a8","ios":"levelo://app?vid=789768de-63a4-4780-b79b-6c6e876c03a8"},"vehicle_type_id":"4","last_reported":1773773200,"current_range_meters":4800,"station_id":"ce4bhih2rcd13ifvqfr0","pricing_plan_id":"cebpf4jnsgd1na2vs0mg"},{"bike_id":"feaf2e83-6bc7-46d3-b8dc-e52b9fc8cf3e","system_id":"levelo_inurba_marseille","lat":43.22562,"lon":5.41624,"is_reserved":false,"is_disabled":false,"rental_uris":{"android":"levelo://app?vid=feaf2e83-6bc7-46d3-b8dc-e52b9fc8cf3e","ios":"levelo://app?vid=feaf2e83-6bc7-46d3-b8dc-e52b9fc8cf3e"},"vehicle_type_id":"4","last_reported":1773773200,"current_range_meters":5600,"station_id":"st_d2o4gvlbi1j2169b742g","pricing_plan_id":"cebpf4jnsgd1na2vs0mg"},{"bike_id":"dcd08cd0-284b-4e57-9eb1-5bcbc3282038","system_id":"levelo_inurba_marseille","lat":43.2971,"lon":5.3662,"is_reserved":false,"is_disabled":false,"rental_uris":{"android":"levelo://app?vid=dcd08cd0-284b-4e57-9eb1-5bcbc3282038","ios":"levelo://app?vid=dcd08cd0-284b-4e57-9eb1-5bcbc3282038"},"vehicle_type_id":"4","last_reported":1773773200,"current_range_meters":5600,"station_id":"ce4bgn12rcd13ifvqbt0","pricing_plan_id":"cebpf4jnsgd1na2vs0mg"},{"bike_id":"2a394174-fa6b-4212-913a-1ddaad9b7087","system_id":"levelo_inurba_marseille","lat":43.22927,"lon":5.35379,"is_reserved":false,"is_disabled":false,"rental_uris":{"android":"levelo://app?vid=2a394174-fa6b-4212-913a-1ddaad9b7087","ios":"levelo://app?vid=2a394174-fa6b-4212-913a-1ddaad9b7087"},"vehicle_type_id":"4","last_reported":1773773200,"current_range_meters":5600,"station_id":"cpo3532slgdg3j2ikp40","pricing_plan_id":"cebpf4jnsgd1na2vs0mg"},{"bike_id":"d6f4fcc9-529e-44c9-8ab1-66a46ec0a2d7","system_id":"levelo_inurba_marseille","lat":43.29658,"lon":5.37461,"is_reserved":false,"is_disabled":false,"rental_uris":{"android":"levelo://app?vid=d6f4fcc9-529e-44c9-8ab1-66a46ec0a2d7","ios":"levelo://app?vid=d6f4fcc9-529e-44c9-8ab1-66a46ec0a2d7"},"vehicle_type_id":"4","last_reported":1773773200,"current_range_meters":5600,"station_id":"","pricing_plan_id":"cebpf4jnsgd1na2vs0mg"},{"bike_id":"dc33a33b-693b-408a-8296-40c638246513","system_id":"levelo_inurba_marseille","lat":43.29532,"lon":5.38549,"is_reserved":false,"is_disabled":false,"rental_uris":{"android":"levelo://app?vid=dc33a33b-693b-408a-8296-40c638246513","ios":"levelo://app?vid=dc33a33b-693b-408a-8296-40c638246513"},"vehicle_type_id":"4","last_reported":1773773200,"current_range_meters":5600,"station_id":"ce4bgih2rcd13ifvqba0","pricing_plan_id":"cebpf4jnsgd1na2vs0mg"},{"bike_id":"45b3e7e5-61e2-4235-a8cd-38592e76ad4f","system_id":"levelo_inurba_marseille","lat":43.2953,"lon":5.39045,"is_reserved":false,"is_disabled":false,"rental_uris":{"android":"levelo://app?vid=45b3e7e5-61e2-4235-a8cd-38592e76ad4f","ios":"levelo://app?vid=45b3e7e5-61e2-4235-a8cd-38592e76ad4f"},"vehicle_type_id":"4","last_reported":1773773200,"current_range_meters":5600,"station_id":"ce4bh3p2rcd13ifvqdp0","pricing_plan_id":"cebpf4jnsgd1na2vs0mg"},{"bike_id":"690876ac-643b-44c8-96d3-1cc5695fb223","system_id":"levelo_inurba_marseille","lat":43.28931,"lon":5.36388,"is_reserved":false,"is_disabled":false,"rental_uris":{"android":"levelo://app?vid=690876ac-643b-44c8-96d3-1cc5695fb223","ios":"levelo://app?vid=690876ac-643b-44c8-96d3-1cc5695fb223"},"vehicle_type_id":"4","last_reported":1773773200,"current_range_meters":5600,"station_id":"ce4bhc92rcd13ifvqetg","pricing_plan_id":"cebpf4jnsgd1na2vs0mg"},{"bike_id":"91c69473-d9cc-48ca-8a01-328369acb1f0","system_id":"levelo_inurba_marseille","lat":43.31323,"lon":5.39702,"is_reserved":false,"is_disabled":false,"rental_uris":{"android":"levelo://app?vid=91c69473-d9cc-48ca-8a01-328369acb1f0","ios":"levelo://app?vid=91c69473-d9cc-48ca-8a01-328369acb1f0"},"vehicle_type_id":"4","last_reported":1773773200,"current_range_meters":5600,"station_id":"ce4bgvp2rcd13ifvqcu0","pricing_plan_id":"cebpf4jnsgd1na2vs0mg"},{"bike_id":"cfc8998f-caeb-43bd-b982-2bcb1e02ff67","system_id":"levelo_inurba_marseille","lat":43.29195,"lon":5.39329,"is_reserved":false,"is_disabled":false,"rental_uris":{"android":"levelo://app?vid=cfc8998f-caeb-43bd-b982-2bcb1e02ff67","ios":"levelo://app?vid=cfc8998f-caeb-43bd-b982-2bcb1e02ff67"},"vehicle_type_id":"4","last_reported":1773773200,"current_range_meters":5600,"station_id":"ce4bh192rcd13ifvqdd0","pricing_plan_id":"cebpf4jnsgd1na2vs0mg"},{"bike_id":"4edc1e69-f919-4c2f-a6b8-66257e87a54f","system_id":"levelo_inurba_marseille","lat":43.28489,"lon":5.48391,"is_reserved":false,"is_disabled":false,"rental_uris":{"android":"levelo://app?vid=4edc1e69-f919-4c2f-a6b8-66257e87a54f","ios":"levelo://app?vid=4edc1e69-f919-4c2f-a6b8-66257e87a54f"},"vehicle_type_id":"4","last_reported":1773773200,"current_range_meters":5600,"station_id":"","pricing_plan_id":"cebpf4jnsgd1na2vs0mg"},{"bike_id":"e4b515b3-5a64-4f24-8a63-3407e3500a15","system_id":"levelo_inurba_marseille","lat":43.24335,"lon":5.40251,"is_reserved":false,"is_disabled":false,"rental_uris":{"android":"levelo://app?vid=e4b515b3-5a64-4f24-8a63-3407e3500a15","ios":"levelo://app?vid=e4b515b3-5a64-4f24-8a63-3407e3500a15"},"vehicle_type_id":"4","last_reported":1773773200,"current_range_meters":5600,"station_id":"","pricing_plan_id":"cebpf4jnsgd1na2vs0mg"},{"bike_id":"50ea38b5-6112-4552-8387-4014315e96e9","system_id":"levelo_inurba_marseille","lat":43.29844,"lon":5.36268,"is_reserved":false,"is_disabled":false,"rental_uris":{"android":"levelo://app?vid=50ea38b5-6112-4552-8387-4014315e96e9","ios":"levelo://app?vid=50ea38b5-6112-4552-8387-4014315e96e9"},"vehicle_type_id":"4","last_reported":1773773200,"current_range_meters":6000,"station_id":"ce4bgpp2rcd13ifvqc3g","pricing_plan_id":"cebpf4jnsgd1na2vs0mg"},{"bike_id":"0537519a-bd9d-4e3a-bf84-9151b946a38c","system_id":"levelo_inurba_marseille","lat":43.27574,"lon":5.38399,"is_reserved":false,"is_disabled":false,"rental_uris":{"android":"levelo://app?vid=0537519a-bd9d-4e3a-bf84-9151b946a38c","ios":"levelo://app?vid=0537519a-bd9d-4e3a-bf84-9151b946a38c"},"vehicle_type_id":"4","last_reported":1773773200,"current_range_meters":6000,"station_id":"ce4bhh92rcd13ifvqfi0","pricing_plan_id":"cebpf4jnsgd1na2vs0mg"},{"bike_id":"03812eec-b185-465c-8c48-7984e651c3d0","system_id":"levelo_inurba_marseille","lat":43.33003,"lon":5.39067,"is_reserved":false,"is_disabled":false,"rental_uris":{"android":"levelo://app?vid=03812eec-b185-465c-8c48-7984e651c3d0","ios":"levelo://app?vid=03812eec-b185-465c-8c48-7984e651c3d0"},"vehicle_type_id":"4","last_reported":1773773200,"current_range_meters":6000,"station_id":"ce4bhr92rcd13ifvqhrg","pricing_plan_id":"cebpf4jnsgd1na2vs0mg"},{"bike_id":"41f36177-8aac-4464-a4eb-29abc2157843","system_id":"levelo_inurba_marseille","lat":43.27814,"lon":5.40719,"is_reserved":false,"is_disabled":false,"rental_uris":{"android":"levelo://app?vid=41f36177-8aac-4464-a4eb-29abc2157843","ios":"levelo://app?vid=41f36177-8aac-4464-a4eb-29abc2157843"},"vehicle_type_id":"4","last_reported":1773773200,"current_range_meters":6000,"station_id":"ce4bhnh2rcd13ifvqgtg","pricing_plan_id":"cebpf4jnsgd1na2vs0mg"},{"bike_id":"5374df13-6b9e-46c6-9517-5dffd87d7ebd","system_id":"levelo_inurba_marseille","lat":43.29533,"lon":5.38537,"is_reserved":false,"is_disabled":false,"rental_uris":{"android":"levelo://app?vid=5374df13-6b9e-46c6-9517-5dffd87d7ebd","ios":"levelo://app?vid=5374df13-6b9e-46c6-9517-5dffd87d7ebd"},"vehicle_type_id":"4","last_reported":1773773200,"current_range_meters":6000,"station_id":"ce4bgih2rcd13ifvqba0","pricing_plan_id":"cebpf4jnsgd1na2vs0mg"},{"bike_id":"c84865df-58a0-485a-b466-02fb26eb4ff0","system_id":"levelo_inurba_marseille","lat":43.23207,"lon":5.35553,"is_reserved":false,"is_disabled":false,"rental_uris":{"android":"levelo://app?vid=c84865df-58a0-485a-b466-02fb26eb4ff0","ios":"levelo://app?vid=c84865df-58a0-485a-b466-02fb26eb4ff0"},"vehicle_type_id":"4","last_reported":1773773200,"current_range_meters":6000,"station_id":"ce4bhu92rcd13ifvqi70","pricing_plan_id":"cebpf4jnsgd1na2vs0mg"},{"bike_id":"793135ab-9996-488f-a0fa-033287c5b1a0","system_id":"levelo_inurba_marseille","lat":43.27057,"lon":5.38313,"is_reserved":false,"is_disabled":false,"rental_uris":{"android":"levelo://app?vid=793135ab-9996-488f-a0fa-033287c5b1a0","ios":"levelo://app?vid=793135ab-9996-488f-a0fa-033287c5b1a0"},"vehicle_type_id":"4","last_reported":1773773200,"current_range_meters":6000,"station_id":"st_d3n2fo6cfp8s73cte1j0","pricing_plan_id":"cebpf4jnsgd1na2vs0mg"},{"bike_id":"38fd434e-cc0f-4a48-be69-67bd99374b2a","system_id":"levelo_inurba_marseille","lat":43.29839,"lon":5.36289,"is_reserved":false,"is_disabled":false,"rental_uris":{"android":"levelo://app?vid=38fd434e-cc0f-4a48-be69-67bd99374b2a","ios":"levelo://app?vid=38fd434e-cc0f-4a48-be69-67bd99374b2a"},"vehicle_type_id":"4","last_reported":1773773200,"current_range_meters":6000,"station_id":"ce4bgpp2rcd13ifvqc3g","pricing_plan_id":"cebpf4jnsgd1na2vs0mg"},{"bike_id":"3dad20a7-e396-4101-adc6-30f4c7f64d56","system_id":"levelo_inurba_marseille","lat":43.25,"lon":5.38941,"is_reserved":false,"is_disabled":false,"rental_uris":{"android":"levelo://app?vid=3dad20a7-e396-4101-adc6-30f4c7f64d56","ios":"levelo://app?vid=3dad20a7-e396-4101-adc6-30f4c7f64d56"},"vehicle_type_id":"4","last_reported":1773773200,"current_range_meters":6000,"station_id":"ce4bhgp2rcd13ifvqfd0","pricing_plan_id":"cebpf4jnsgd1na2vs0mg"},{"bike_id":"bb47b1ad-69bc-4f5f-843a-3d41ad29475d","system_id":"levelo_inurba_marseille","lat":43.3015,"lon":5.3808,"is_reserved":false,"is_disabled":false,"rental_uris":{"android":"levelo://app?vid=bb47b1ad-69bc-4f5f-843a-3d41ad29475d","ios":"levelo://app?vid=bb47b1ad-69bc-4f5f-843a-3d41ad29475d"},"vehicle_type_id":"4","last_reported":1773773200,"current_range_meters":6000,"station_id":"ce4bgjp2rcd13ifvqbh0","pricing_plan_id":"cebpf4jnsgd1na2vs0mg"},{"bike_id":"09a25706-98ac-4311-bb6f-42e63b17db0c","system_id":"levelo_inurba_marseille","lat":43.24804,"lon":5.37458,"is_reserved":false,"is_disabled":false,"rental_uris":{"android":"levelo://app?vid=09a25706-98ac-4311-bb6f-42e63b17db0c","ios":"levelo://app?vid=09a25706-98ac-4311-bb6f-42e63b17db0c"},"vehicle_type_id":"4","last_reported":1773773200,"current_range_meters":6000,"station_id":"ce4bhgh2rcd13ifvqfb0","pricing_plan_id":"cebpf4jnsgd1na2vs0mg"},{"bike_id":"8e6b77aa-6486-4a28-8f90-0afb7bec392b","system_id":"levelo_inurba_marseille","lat":43.28705,"lon":5.37401,"is_reserved":false,"is_disabled":false,"rental_uris":{"android":"levelo://app?vid=8e6b77aa-6486-4a28-8f90-0afb7bec392b","ios":"levelo://app?vid=8e6b77aa-6486-4a28-8f90-0afb7bec392b"},"vehicle_type_id":"4","last_reported":1773773200,"current_range_meters":6000,"station_id":"ce4bh3p2rcd13ifvqdq0","pricing_plan_id":"cebpf4jnsgd1na2vs0mg"},{"bike_id":"c315b734-a365-4d01-8999-274a08b4f2ee","system_id":"levelo_inurba_marseille","lat":43.29202,"lon":5.39324,"is_reserved":false,"is_disabled":false,"rental_uris":{"android":"levelo://app?vid=c315b734-a365-4d01-8999-274a08b4f2ee","ios":"levelo://app?vid=c315b734-a365-4d01-8999-274a08b4f2ee"},"vehicle_type_id":"4","last_reported":1773773200,"current_range_meters":6000,"station_id":"ce4bh192rcd13ifvqdd0","pricing_plan_id":"cebpf4jnsgd1na2vs0mg"},{"bike_id":"7c245f6b-63fb-4c36-8493-afb8fd5288f8","system_id":"levelo_inurba_marseille","lat":43.31187,"lon":5.39063,"is_reserved":false,"is_disabled":false,"rental_uris":{"android":"levelo://app?vid=7c245f6b-63fb-4c36-8493-afb8fd5288f8","ios":"levelo://app?vid=7c245f6b-63fb-4c36-8493-afb8fd5288f8"},"vehicle_type_id":"4","last_reported":1773773200,"current_range_meters":6000,"station_id":"","pricing_plan_id":"cebpf4jnsgd1na2vs0mg"},{"bike_id":"36bcefea-1744-478b-a4f4-a282d99e8251","system_id":"levelo_inurba_marseille","lat":43.24539,"lon":5.39528,"is_reserved":false,"is_disabled":true,"rental_uris":{"android":"levelo://app?vid=36bcefea-1744-478b-a4f4-a282d99e8251","ios":"levelo://app?vid=36bcefea-1744-478b-a4f4-a282d99e8251"},"vehicle_type_id":"4","last_reported":1773773200,"current_range_meters":6000,"station_id":"ce4bhlp2rcd13ifvqgjg","pricing_plan_id":"cebpf4jnsgd1na2vs0mg"},{"bike_id":"fccffd47-0a95-4e13-b646-62a2756294f4","system_id":"levelo_inurba_marseille","lat":43.31182,"lon":5.3871,"is_reserved":false,"is_disabled":false,"rental_uris":{"android":"levelo://app?vid=fccffd47-0a95-4e13-b646-62a2756294f4","ios":"levelo://app?vid=fccffd47-0a95-4e13-b646-62a2756294f4"},"vehicle_type_id":"4","last_reported":1773773200,"current_range_meters":6000,"station_id":"ce4bgv12rcd13ifvqcp0","pricing_plan_id":"cebpf4jnsgd1na2vs0mg"},{"bike_id":"3df75077-2666-4436-8a3f-a69331f9ce94","system_id":"levelo_inurba_marseille","lat":43.24935,"lon":5.40481,"is_reserved":false,"is_disabled":false,"rental_uris":{"android":"levelo://app?vid=3df75077-2666-4436-8a3f-a69331f9ce94","ios":"levelo://app?vid=3df75077-2666-4436-8a3f-a69331f9ce94"},"vehicle_type_id":"4","last_reported":1773773200,"current_range_meters":6000,"station_id":"st_d2ngiaodas8pm72gd1h0","pricing_plan_id":"cebpf4jnsgd1na2vs0mg"},{"bike_id":"05252932-708d-458d-b1f1-5e1cfdd71f3a","system_id":"levelo_inurba_marseille","lat":43.29764,"lon":5.37102,"is_reserved":false,"is_disabled":false,"rental_uris":{"android":"levelo://app?vid=05252932-708d-458d-b1f1-5e1cfdd71f3a","ios":"levelo://app?vid=05252932-708d-458d-b1f1-5e1cfdd71f3a"},"vehicle_type_id":"4","last_reported":1773773200,"current_range_meters":6400,"station_id":"ce4bgop2rcd13ifvqc1g","pricing_plan_id":"cebpf4jnsgd1na2vs0mg"},{"bike_id":"34d11841-5fe4-4ca3-abe1-f37a08f0ed2d","system_id":"levelo_inurba_marseille","lat":43.25519,"lon":5.3766,"is_reserved":false,"is_disabled":false,"rental_uris":{"android":"levelo://app?vid=34d11841-5fe4-4ca3-abe1-f37a08f0ed2d","ios":"levelo://app?vid=34d11841-5fe4-4ca3-abe1-f37a08f0ed2d"},"vehicle_type_id":"4","last_reported":1773773200,"current_range_meters":6400,"station_id":"ce4bhh12rcd13ifvqff0","pricing_plan_id":"cebpf4jnsgd1na2vs0mg"},{"bike_id":"255ba251-5ab3-49b7-8a3a-e9f7eeb886d8","system_id":"levelo_inurba_marseille","lat":43.27306,"lon":5.39069,"is_reserved":false,"is_disabled":false,"rental_uris":{"android":"levelo://app?vid=255ba251-5ab3-49b7-8a3a-e9f7eeb886d8","ios":"levelo://app?vid=255ba251-5ab3-49b7-8a3a-e9f7eeb886d8"},"vehicle_type_id":"4","last_reported":1773773200,"current_range_meters":6400,"station_id":"ce4bhgp2rcd13ifvqfe0","pricing_plan_id":"cebpf4jnsgd1na2vs0mg"},{"bike_id":"9ef08179-a4f9-48c8-a0ed-3539b4de75cc","system_id":"levelo_inurba_marseille","lat":43.29605,"lon":5.38093,"is_reserved":false,"is_disabled":false,"rental_uris":{"android":"levelo://app?vid=9ef08179-a4f9-48c8-a0ed-3539b4de75cc","ios":"levelo://app?vid=9ef08179-a4f9-48c8-a0ed-3539b4de75cc"},"vehicle_type_id":"4","last_reported":1773773200,"current_range_meters":6400,"station_id":"ce4bgl12rcd13ifvqbo0","pricing_plan_id":"cebpf4jnsgd1na2vs0mg"},{"bike_id":"57f59ea7-9661-484b-ab62-8930e39b76a3","system_id":"levelo_inurba_marseille","lat":43.23797,"lon":5.3663,"is_reserved":false,"is_disabled":false,"rental_uris":{"android":"levelo://app?vid=57f59ea7-9661-484b-ab62-8930e39b76a3","ios":"levelo://app?vid=57f59ea7-9661-484b-ab62-8930e39b76a3"},"vehicle_type_id":"4","last_reported":1773773200,"current_range_meters":6400,"station_id":"st_d3nk18o9ro0c73en2l3g","pricing_plan_id":"cebpf4jnsgd1na2vs0mg"},{"bike_id":"7bd419bf-7063-4648-840f-e4e63ac8cb30","system_id":"levelo_inurba_marseille","lat":43.27997,"lon":5.40008,"is_reserved":false,"is_disabled":true,"rental_uris":{"android":"levelo://app?vid=7bd419bf-7063-4648-840f-e4e63ac8cb30","ios":"levelo://app?vid=7bd419bf-7063-4648-840f-e4e63ac8cb30"},"vehicle_type_id":"4","last_reported":1773773200,"current_range_meters":6400,"station_id":"ce4bho92rcd13ifvqh4g","pricing_plan_id":"cebpf4jnsgd1na2vs0mg"},{"bike_id":"4eeecf6d-6108-42a0-b77f-fc0c0b55b73c","system_id":"levelo_inurba_marseille","lat":43.29857,"lon":5.37453,"is_reserved":false,"is_disabled":true,"rental_uris":{"android":"levelo://app?vid=4eeecf6d-6108-42a0-b77f-fc0c0b55b73c","ios":"levelo://app?vid=4eeecf6d-6108-42a0-b77f-fc0c0b55b73c"},"vehicle_type_id":"4","last_reported":1773773200,"current_range_meters":6400,"station_id":"ce4bgjh2rcd13ifvqbg0","pricing_plan_id":"cebpf4jnsgd1na2vs0mg"},{"bike_id":"9616cd2e-013f-4260-88a8-63bac565c9fe","system_id":"levelo_inurba_marseille","lat":43.33527,"lon":5.37497,"is_reserved":false,"is_disabled":false,"rental_uris":{"android":"levelo://app?vid=9616cd2e-013f-4260-88a8-63bac565c9fe","ios":"levelo://app?vid=9616cd2e-013f-4260-88a8-63bac565c9fe"},"vehicle_type_id":"4","last_reported":1773773200,"current_range_meters":6400,"station_id":"st_d46tts09ee8s73dlu43g","pricing_plan_id":"cebpf4jnsgd1na2vs0mg"},{"bike_id":"83a8f656-029c-44c2-88ac-608ddab3aef1","system_id":"levelo_inurba_marseille","lat":43.29716,"lon":5.36628,"is_reserved":false,"is_disabled":false,"rental_uris":{"android":"levelo://app?vid=83a8f656-029c-44c2-88ac-608ddab3aef1","ios":"levelo://app?vid=83a8f656-029c-44c2-88ac-608ddab3aef1"},"vehicle_type_id":"4","last_reported":1773773200,"current_range_meters":6400,"station_id":"ce4bgn12rcd13ifvqbt0","pricing_plan_id":"cebpf4jnsgd1na2vs0mg"},{"bike_id":"58df6535-2746-4ca5-8ec4-a2736cc7519f","system_id":"levelo_inurba_marseille","lat":43.21188,"lon":5.35082,"is_reserved":false,"is_disabled":false,"rental_uris":{"android":"levelo://app?vid=58df6535-2746-4ca5-8ec4-a2736cc7519f","ios":"levelo://app?vid=58df6535-2746-4ca5-8ec4-a2736cc7519f"},"vehicle_type_id":"4","last_reported":1773773200,"current_range_meters":6400,"station_id":"st_cvj6sg6p6f1abm77japg","pricing_plan_id":"cebpf4jnsgd1na2vs0mg"},{"bike_id":"176373cb-9c38-45a2-8ec8-a0dfc81f1521","system_id":"levelo_inurba_marseille","lat":43.30312,"lon":5.40453,"is_reserved":false,"is_disabled":false,"rental_uris":{"android":"levelo://app?vid=176373cb-9c38-45a2-8ec8-a0dfc81f1521","ios":"levelo://app?vid=176373cb-9c38-45a2-8ec8-a0dfc81f1521"},"vehicle_type_id":"4","last_reported":1773773200,"current_range_meters":6400,"station_id":"ce4bh012rcd13ifvqd10","pricing_plan_id":"cebpf4jnsgd1na2vs0mg"},{"bike_id":"a650f10d-9ab2-42e1-a1ec-b23d66310508","system_id":"levelo_inurba_marseille","lat":43.27364,"lon":5.424,"is_reserved":false,"is_disabled":true,"rental_uris":{"android":"levelo://app?vid=a650f10d-9ab2-42e1-a1ec-b23d66310508","ios":"levelo://app?vid=a650f10d-9ab2-42e1-a1ec-b23d66310508"},"vehicle_type_id":"4","last_reported":1773773200,"current_range_meters":6400,"station_id":"","pricing_plan_id":"cebpf4jnsgd1na2vs0mg"},{"bike_id":"276573ff-6ebc-49a2-a1bf-96d7947829dd","system_id":"levelo_inurba_marseille","lat":43.28565,"lon":5.39493,"is_reserved":false,"is_disabled":false,"rental_uris":{"android":"levelo://app?vid=276573ff-6ebc-49a2-a1bf-96d7947829dd","ios":"levelo://app?vid=276573ff-6ebc-49a2-a1bf-96d7947829dd"},"vehicle_type_id":"4","last_reported":1773773200,"current_range_meters":6400,"station_id":"ce4bh292rcd13ifvqdg0","pricing_plan_id":"cebpf4jnsgd1na2vs0mg"},{"bike_id":"d80ea70e-02bf-44a5-8841-9e7ea859bfce","system_id":"levelo_inurba_marseille","lat":43.29295,"lon":5.37449,"is_reserved":false,"is_disabled":false,"rental_uris":{"android":"levelo://app?vid=d80ea70e-02bf-44a5-8841-9e7ea859bfce","ios":"levelo://app?vid=d80ea70e-02bf-44a5-8841-9e7ea859bfce"},"vehicle_type_id":"4","last_reported":1773773200,"current_range_meters":6400,"station_id":"ce4bgi12rcd13ifvqb70","pricing_plan_id":"cebpf4jnsgd1na2vs0mg"},{"bike_id":"ae37328d-5090-45bc-bdd6-11cc64743723","system_id":"levelo_inurba_marseille","lat":43.29918,"lon":5.37451,"is_reserved":false,"is_disabled":false,"rental_uris":{"android":"levelo://app?vid=ae37328d-5090-45bc-bdd6-11cc64743723","ios":"levelo://app?vid=ae37328d-5090-45bc-bdd6-11cc64743723"},"vehicle_type_id":"4","last_reported":1773773200,"current_range_meters":6400,"station_id":"ce4bgjh2rcd13ifvqbg0","pricing_plan_id":"cebpf4jnsgd1na2vs0mg"},{"bike_id":"5fe453e8-63f8-45b7-a117-7a751d4a202c","system_id":"levelo_inurba_marseille","lat":43.2293,"lon":5.35377,"is_reserved":false,"is_disabled":false,"rental_uris":{"android":"levelo://app?vid=5fe453e8-63f8-45b7-a117-7a751d4a202c","ios":"levelo://app?vid=5fe453e8-63f8-45b7-a117-7a751d4a202c"},"vehicle_type_id":"4","last_reported":1773773200,"current_range_meters":6400,"station_id":"cpo3532slgdg3j2ikp40","pricing_plan_id":"cebpf4jnsgd1na2vs0mg"},{"bike_id":"913eeaf6-b6f7-447f-93e5-832b6655360f","system_id":"levelo_inurba_marseille","lat":43.32101,"lon":5.36754,"is_reserved":false,"is_disabled":false,"rental_uris":{"android":"levelo://app?vid=913eeaf6-b6f7-447f-93e5-832b6655360f","ios":"levelo://app?vid=913eeaf6-b6f7-447f-93e5-832b6655360f"},"vehicle_type_id":"4","last_reported":1773773200,"current_range_meters":6400,"station_id":"ce4bhrh2rcd13ifvqhug","pricing_plan_id":"cebpf4jnsgd1na2vs0mg"},{"bike_id":"ebd201db-6b0d-4b0b-afef-9306224c354d","system_id":"levelo_inurba_marseille","lat":43.29556,"lon":5.3905,"is_reserved":false,"is_disabled":true,"rental_uris":{"android":"levelo://app?vid=ebd201db-6b0d-4b0b-afef-9306224c354d","ios":"levelo://app?vid=ebd201db-6b0d-4b0b-afef-9306224c354d"},"vehicle_type_id":"4","last_reported":1773773200,"current_range_meters":6400,"station_id":"ce4bh3p2rcd13ifvqdp0","pricing_plan_id":"cebpf4jnsgd1na2vs0mg"},{"bike_id":"01739555-5f3a-4d1d-80ba-44a1e80cfe29","system_id":"levelo_inurba_marseille","lat":43.29902,"lon":5.38139,"is_reserved":false,"is_disabled":false,"rental_uris":{"android":"levelo://app?vid=01739555-5f3a-4d1d-80ba-44a1e80cfe29","ios":"levelo://app?vid=01739555-5f3a-4d1d-80ba-44a1e80cfe29"},"vehicle_type_id":"4","last_reported":1773773200,"current_range_meters":6400,"station_id":"ce4bgj12rcd13ifvqbc0","pricing_plan_id":"cebpf4jnsgd1na2vs0mg"},{"bike_id":"f6c860f4-9c2e-4a13-b509-50fb1709859b","system_id":"levelo_inurba_marseille","lat":43.21189,"lon":5.35068,"is_reserved":false,"is_disabled":false,"rental_uris":{"android":"levelo://app?vid=f6c860f4-9c2e-4a13-b509-50fb1709859b","ios":"levelo://app?vid=f6c860f4-9c2e-4a13-b509-50fb1709859b"},"vehicle_type_id":"4","last_reported":1773773200,"current_range_meters":6800,"station_id":"st_cvj6sg6p6f1abm77japg","pricing_plan_id":"cebpf4jnsgd1na2vs0mg"},{"bike_id":"1d851264-6ba3-48c2-86f6-b84e8d5a0c62","system_id":"levelo_inurba_marseille","lat":43.29194,"lon":5.35811,"is_reserved":false,"is_disabled":true,"rental_uris":{"android":"levelo://app?vid=1d851264-6ba3-48c2-86f6-b84e8d5a0c62","ios":"levelo://app?vid=1d851264-6ba3-48c2-86f6-b84e8d5a0c62"},"vehicle_type_id":"4","last_reported":1773773200,"current_range_meters":6800,"station_id":"ce4bhb12rcd13ifvqel0","pricing_plan_id":"cebpf4jnsgd1na2vs0mg"},{"bike_id":"8afa82e0-443b-485e-812c-b0c0213ccf6b","system_id":"levelo_inurba_marseille","lat":43.29674,"lon":5.37612,"is_reserved":false,"is_disabled":true,"rental_uris":{"android":"levelo://app?vid=8afa82e0-443b-485e-812c-b0c0213ccf6b","ios":"levelo://app?vid=8afa82e0-443b-485e-812c-b0c0213ccf6b"},"vehicle_type_id":"4","last_reported":1773773200,"current_range_meters":6800,"station_id":"","pricing_plan_id":"cebpf4jnsgd1na2vs0mg"},{"bike_id":"a8adaf4e-f799-461f-912d-535f9522214f","system_id":"levelo_inurba_marseille","lat":43.29313,"lon":5.37182,"is_reserved":false,"is_disabled":false,"rental_uris":{"android":"levelo://app?vid=a8adaf4e-f799-461f-912d-535f9522214f","ios":"levelo://app?vid=a8adaf4e-f799-461f-912d-535f9522214f"},"vehicle_type_id":"4","last_reported":1773773200,"current_range_meters":6800,"station_id":"ce4bgh92rcd13ifvqb40","pricing_plan_id":"cebpf4jnsgd1na2vs0mg"},{"bike_id":"b5b8b144-cfaf-4287-9933-5469d18ff1ca","system_id":"levelo_inurba_marseille","lat":43.28732,"lon":5.37932,"is_reserved":false,"is_disabled":true,"rental_uris":{"android":"levelo://app?vid=b5b8b144-cfaf-4287-9933-5469d18ff1ca","ios":"levelo://app?vid=b5b8b144-cfaf-4287-9933-5469d18ff1ca"},"vehicle_type_id":"4","last_reported":1773773200,"current_range_meters":6800,"station_id":"ce4bh9p2rcd13ifvqec0","pricing_plan_id":"cebpf4jnsgd1na2vs0mg"},{"bike_id":"53336338-5141-44ec-bb59-6df2460b79a8","system_id":"levelo_inurba_marseille","lat":43.30216,"lon":5.39457,"is_reserved":false,"is_disabled":true,"rental_uris":{"android":"levelo://app?vid=53336338-5141-44ec-bb59-6df2460b79a8","ios":"levelo://app?vid=53336338-5141-44ec-bb59-6df2460b79a8"},"vehicle_type_id":"4","last_reported":1773773200,"current_range_meters":6800,"station_id":"ce4bh0p2rcd13ifvqd70","pricing_plan_id":"cebpf4jnsgd1na2vs0mg"},{"bike_id":"29f01f46-b7ad-4301-a16f-5053d8d20192","system_id":"levelo_inurba_marseille","lat":43.28407,"lon":5.37567,"is_reserved":false,"is_disabled":false,"rental_uris":{"android":"levelo://app?vid=29f01f46-b7ad-4301-a16f-5053d8d20192","ios":"levelo://app?vid=29f01f46-b7ad-4301-a16f-5053d8d20192"},"vehicle_type_id":"4","last_reported":1773773200,"current_range_meters":6800,"station_id":"ce4bh412rcd13ifvqds0","pricing_plan_id":"cebpf4jnsgd1na2vs0mg"},{"bike_id":"5a078d8c-d448-48a4-8671-630ca46a4a69","system_id":"levelo_inurba_marseille","lat":43.24818,"lon":5.37476,"is_reserved":false,"is_disabled":false,"rental_uris":{"android":"levelo://app?vid=5a078d8c-d448-48a4-8671-630ca46a4a69","ios":"levelo://app?vid=5a078d8c-d448-48a4-8671-630ca46a4a69"},"vehicle_type_id":"4","last_reported":1773773200,"current_range_meters":6800,"station_id":"ce4bhgh2rcd13ifvqfb0","pricing_plan_id":"cebpf4jnsgd1na2vs0mg"},{"bike_id":"759b3500-02a4-49f1-a57a-1c86d105ee03","system_id":"levelo_inurba_marseille","lat":43.30813,"lon":5.38161,"is_reserved":false,"is_disabled":false,"rental_uris":{"android":"levelo://app?vid=759b3500-02a4-49f1-a57a-1c86d105ee03","ios":"levelo://app?vid=759b3500-02a4-49f1-a57a-1c86d105ee03"},"vehicle_type_id":"4","last_reported":1773773200,"current_range_meters":6800,"station_id":"ce4bgt12rcd13ifvqce0","pricing_plan_id":"cebpf4jnsgd1na2vs0mg"},{"bike_id":"4e4ba8f7-60dc-4959-9a01-6da668abb084","system_id":"levelo_inurba_marseille","lat":43.21208,"lon":5.35099,"is_reserved":false,"is_disabled":false,"rental_uris":{"android":"levelo://app?vid=4e4ba8f7-60dc-4959-9a01-6da668abb084","ios":"levelo://app?vid=4e4ba8f7-60dc-4959-9a01-6da668abb084"},"vehicle_type_id":"4","last_reported":1773773200,"current_range_meters":6800,"station_id":"st_cvj6sg6p6f1abm77japg","pricing_plan_id":"cebpf4jnsgd1na2vs0mg"},{"bike_id":"8d306a34-d5ce-4a3b-b67a-978eaa09bbeb","system_id":"levelo_inurba_marseille","lat":43.28035,"lon":5.36945,"is_reserved":false,"is_disabled":false,"rental_uris":{"android":"levelo://app?vid=8d306a34-d5ce-4a3b-b67a-978eaa09bbeb","ios":"levelo://app?vid=8d306a34-d5ce-4a3b-b67a-978eaa09bbeb"},"vehicle_type_id":"4","last_reported":1773773200,"current_range_meters":6800,"station_id":"ce4bha12rcd13ifvqef0","pricing_plan_id":"cebpf4jnsgd1na2vs0mg"},{"bike_id":"ede6fb98-179a-4eff-b07e-f6077df07b6d","system_id":"levelo_inurba_marseille","lat":43.24469,"lon":5.42538,"is_reserved":false,"is_disabled":false,"rental_uris":{"android":"levelo://app?vid=ede6fb98-179a-4eff-b07e-f6077df07b6d","ios":"levelo://app?vid=ede6fb98-179a-4eff-b07e-f6077df07b6d"},"vehicle_type_id":"4","last_reported":1773773200,"current_range_meters":6800,"station_id":"st_d4a3vfp97mjs738cd8kg","pricing_plan_id":"cebpf4jnsgd1na2vs0mg"},{"bike_id":"9ce6162b-18db-4c4d-aaa6-efc6bcc42ae3","system_id":"levelo_inurba_marseille","lat":43.27997,"lon":5.40013,"is_reserved":false,"is_disabled":false,"rental_uris":{"android":"levelo://app?vid=9ce6162b-18db-4c4d-aaa6-efc6bcc42ae3","ios":"levelo://app?vid=9ce6162b-18db-4c4d-aaa6-efc6bcc42ae3"},"vehicle_type_id":"4","last_reported":1773773200,"current_range_meters":6800,"station_id":"ce4bho92rcd13ifvqh4g","pricing_plan_id":"cebpf4jnsgd1na2vs0mg"},{"bike_id":"0bd09fc7-a33d-4f9f-a0c4-c8de9a3232aa","system_id":"levelo_inurba_marseille","lat":43.30087,"lon":5.39064,"is_reserved":false,"is_disabled":false,"rental_uris":{"android":"levelo://app?vid=0bd09fc7-a33d-4f9f-a0c4-c8de9a3232aa","ios":"levelo://app?vid=0bd09fc7-a33d-4f9f-a0c4-c8de9a3232aa"},"vehicle_type_id":"4","last_reported":1773773200,"current_range_meters":7200,"station_id":"ce4bh192rcd13ifvqdb0","pricing_plan_id":"cebpf4jnsgd1na2vs0mg"},{"bike_id":"fd5046c0-5dee-4acc-81ce-1eba9607bc0d","system_id":"levelo_inurba_marseille","lat":43.31184,"lon":5.38716,"is_reserved":false,"is_disabled":false,"rental_uris":{"android":"levelo://app?vid=fd5046c0-5dee-4acc-81ce-1eba9607bc0d","ios":"levelo://app?vid=fd5046c0-5dee-4acc-81ce-1eba9607bc0d"},"vehicle_type_id":"4","last_reported":1773773200,"current_range_meters":7200,"station_id":"ce4bgv12rcd13ifvqcp0","pricing_plan_id":"cebpf4jnsgd1na2vs0mg"},{"bike_id":"df672d44-c532-4daf-8af1-c03df330c453","system_id":"levelo_inurba_marseille","lat":43.29972,"lon":5.38491,"is_reserved":false,"is_disabled":false,"rental_uris":{"android":"levelo://app?vid=df672d44-c532-4daf-8af1-c03df330c453","ios":"levelo://app?vid=df672d44-c532-4daf-8af1-c03df330c453"},"vehicle_type_id":"4","last_reported":1773773200,"current_range_meters":7200,"station_id":"ce4bgj92rcd13ifvqbd0","pricing_plan_id":"cebpf4jnsgd1na2vs0mg"},{"bike_id":"abeed13c-c51b-4739-8fd2-4f8ab70d4f2c","system_id":"levelo_inurba_marseille","lat":43.31713,"lon":5.42413,"is_reserved":false,"is_disabled":false,"rental_uris":{"android":"levelo://app?vid=abeed13c-c51b-4739-8fd2-4f8ab70d4f2c","ios":"levelo://app?vid=abeed13c-c51b-4739-8fd2-4f8ab70d4f2c"},"vehicle_type_id":"4","last_reported":1773773200,"current_range_meters":7200,"station_id":"ce4bhp92rcd13ifvqhbg","pricing_plan_id":"cebpf4jnsgd1na2vs0mg"},{"bike_id":"7a73b128-6eb2-47bb-8ea6-432d8e929d53","system_id":"levelo_inurba_marseille","lat":43.29961,"lon":5.4131,"is_reserved":false,"is_disabled":false,"rental_uris":{"android":"levelo://app?vid=7a73b128-6eb2-47bb-8ea6-432d8e929d53","ios":"levelo://app?vid=7a73b128-6eb2-47bb-8ea6-432d8e929d53"},"vehicle_type_id":"4","last_reported":1773773200,"current_range_meters":7200,"station_id":"ce4bhp12rcd13ifvqh9g","pricing_plan_id":"cebpf4jnsgd1na2vs0mg"},{"bike_id":"458f604b-e062-47bf-ac14-a001a31d10d8","system_id":"levelo_inurba_marseille","lat":43.28479,"lon":5.48388,"is_reserved":false,"is_disabled":false,"rental_uris":{"android":"levelo://app?vid=458f604b-e062-47bf-ac14-a001a31d10d8","ios":"levelo://app?vid=458f604b-e062-47bf-ac14-a001a31d10d8"},"vehicle_type_id":"4","last_reported":1773773200,"current_range_meters":7200,"station_id":"","pricing_plan_id":"cebpf4jnsgd1na2vs0mg"},{"bike_id":"f7e79517-161a-451a-8a95-bb710b1b4d21","system_id":"levelo_inurba_marseille","lat":43.2964,"lon":5.36745,"is_reserved":false,"is_disabled":true,"rental_uris":{"android":"levelo://app?vid=f7e79517-161a-451a-8a95-bb710b1b4d21","ios":"levelo://app?vid=f7e79517-161a-451a-8a95-bb710b1b4d21"},"vehicle_type_id":"4","last_reported":1773773200,"current_range_meters":7200,"station_id":"","pricing_plan_id":"cebpf4jnsgd1na2vs0mg"},{"bike_id":"a198b19a-147f-4fb3-822c-608a1d587cb8","system_id":"levelo_inurba_marseille","lat":43.21749,"lon":5.3462,"is_reserved":false,"is_disabled":false,"rental_uris":{"android":"levelo://app?vid=a198b19a-147f-4fb3-822c-608a1d587cb8","ios":"levelo://app?vid=a198b19a-147f-4fb3-822c-608a1d587cb8"},"vehicle_type_id":"4","last_reported":1773773200,"current_range_meters":7200,"station_id":"st_cvj6r9ubvosntc0bgbag","pricing_plan_id":"cebpf4jnsgd1na2vs0mg"},{"bike_id":"7665103c-b5bf-4d01-845c-c93f3b33a7b9","system_id":"levelo_inurba_marseille","lat":43.29286,"lon":5.3745,"is_reserved":false,"is_disabled":false,"rental_uris":{"android":"levelo://app?vid=7665103c-b5bf-4d01-845c-c93f3b33a7b9","ios":"levelo://app?vid=7665103c-b5bf-4d01-845c-c93f3b33a7b9"},"vehicle_type_id":"4","last_reported":1773773200,"current_range_meters":7200,"station_id":"ce4bgi12rcd13ifvqb70","pricing_plan_id":"cebpf4jnsgd1na2vs0mg"},{"bike_id":"59b49d01-2f13-4e4c-b0f4-49a7d3602004","system_id":"levelo_inurba_marseille","lat":43.30447,"lon":5.38891,"is_reserved":false,"is_disabled":false,"rental_uris":{"android":"levelo://app?vid=59b49d01-2f13-4e4c-b0f4-49a7d3602004","ios":"levelo://app?vid=59b49d01-2f13-4e4c-b0f4-49a7d3602004"},"vehicle_type_id":"4","last_reported":1773773200,"current_range_meters":7200,"station_id":"ce4bgk12rcd13ifvqbi0","pricing_plan_id":"cebpf4jnsgd1na2vs0mg"},{"bike_id":"6b928fa4-5bbf-4b80-86b8-eca3145c55c2","system_id":"levelo_inurba_marseille","lat":43.2971,"lon":5.37706,"is_reserved":false,"is_disabled":false,"rental_uris":{"android":"levelo://app?vid=6b928fa4-5bbf-4b80-86b8-eca3145c55c2","ios":"levelo://app?vid=6b928fa4-5bbf-4b80-86b8-eca3145c55c2"},"vehicle_type_id":"4","last_reported":1773773200,"current_range_meters":7200,"station_id":"ce4bgkh2rcd13ifvqbl0","pricing_plan_id":"cebpf4jnsgd1na2vs0mg"},{"bike_id":"33628d1e-0bd7-41c9-8bb3-f34b2c963dc2","system_id":"levelo_inurba_marseille","lat":43.31184,"lon":5.38697,"is_reserved":false,"is_disabled":false,"rental_uris":{"android":"levelo://app?vid=33628d1e-0bd7-41c9-8bb3-f34b2c963dc2","ios":"levelo://app?vid=33628d1e-0bd7-41c9-8bb3-f34b2c963dc2"},"vehicle_type_id":"4","last_reported":1773773200,"current_range_meters":7200,"station_id":"ce4bgv12rcd13ifvqcp0","pricing_plan_id":"cebpf4jnsgd1na2vs0mg"},{"bike_id":"8925b425-b01a-4234-9811-7deaf2d3e704","system_id":"levelo_inurba_marseille","lat":43.28576,"lon":5.39487,"is_reserved":false,"is_disabled":false,"rental_uris":{"android":"levelo://app?vid=8925b425-b01a-4234-9811-7deaf2d3e704","ios":"levelo://app?vid=8925b425-b01a-4234-9811-7deaf2d3e704"},"vehicle_type_id":"4","last_reported":1773773200,"current_range_meters":7200,"station_id":"ce4bh292rcd13ifvqdg0","pricing_plan_id":"cebpf4jnsgd1na2vs0mg"},{"bike_id":"ffb34c2c-a6fd-4299-a9d8-7344674fc47d","system_id":"levelo_inurba_marseille","lat":43.29256,"lon":5.40907,"is_reserved":false,"is_disabled":false,"rental_uris":{"android":"levelo://app?vid=ffb34c2c-a6fd-4299-a9d8-7344674fc47d","ios":"levelo://app?vid=ffb34c2c-a6fd-4299-a9d8-7344674fc47d"},"vehicle_type_id":"4","last_reported":1773773200,"current_range_meters":7200,"station_id":"ce4bh192rcd13ifvqdc0","pricing_plan_id":"cebpf4jnsgd1na2vs0mg"},{"bike_id":"ab2125f0-f477-425b-9c9a-e4231f7f002b","system_id":"levelo_inurba_marseille","lat":43.21764,"lon":5.34631,"is_reserved":false,"is_disabled":true,"rental_uris":{"android":"levelo://app?vid=ab2125f0-f477-425b-9c9a-e4231f7f002b","ios":"levelo://app?vid=ab2125f0-f477-425b-9c9a-e4231f7f002b"},"vehicle_type_id":"4","last_reported":1773773200,"current_range_meters":7200,"station_id":"st_cvj6r9ubvosntc0bgbag","pricing_plan_id":"cebpf4jnsgd1na2vs0mg"},{"bike_id":"db091c36-8f75-4871-b93a-79fcdd516caf","system_id":"levelo_inurba_marseille","lat":43.29609,"lon":5.38096,"is_reserved":false,"is_disabled":false,"rental_uris":{"android":"levelo://app?vid=db091c36-8f75-4871-b93a-79fcdd516caf","ios":"levelo://app?vid=db091c36-8f75-4871-b93a-79fcdd516caf"},"vehicle_type_id":"4","last_reported":1773773200,"current_range_meters":7200,"station_id":"ce4bgl12rcd13ifvqbo0","pricing_plan_id":"cebpf4jnsgd1na2vs0mg"},{"bike_id":"2ef33527-5ab5-4914-a4e9-9fb3bc24503e","system_id":"levelo_inurba_marseille","lat":43.31113,"lon":5.37768,"is_reserved":false,"is_disabled":false,"rental_uris":{"android":"levelo://app?vid=2ef33527-5ab5-4914-a4e9-9fb3bc24503e","ios":"levelo://app?vid=2ef33527-5ab5-4914-a4e9-9fb3bc24503e"},"vehicle_type_id":"4","last_reported":1773773200,"current_range_meters":7200,"station_id":"ce4bgt92rcd13ifvqcg0","pricing_plan_id":"cebpf4jnsgd1na2vs0mg"},{"bike_id":"f3812c76-1d5b-49de-b637-bb4d0c01c1fa","system_id":"levelo_inurba_marseille","lat":43.239,"lon":5.3747,"is_reserved":false,"is_disabled":false,"rental_uris":{"android":"levelo://app?vid=f3812c76-1d5b-49de-b637-bb4d0c01c1fa","ios":"levelo://app?vid=f3812c76-1d5b-49de-b637-bb4d0c01c1fa"},"vehicle_type_id":"4","last_reported":1773773200,"current_range_meters":7200,"station_id":"st_d6sm7csbq4hs73f8fpjg","pricing_plan_id":"cebpf4jnsgd1na2vs0mg"},{"bike_id":"6c7da26a-6e3c-4915-81a4-435886bc144f","system_id":"levelo_inurba_marseille","lat":43.23196,"lon":5.35571,"is_reserved":false,"is_disabled":false,"rental_uris":{"android":"levelo://app?vid=6c7da26a-6e3c-4915-81a4-435886bc144f","ios":"levelo://app?vid=6c7da26a-6e3c-4915-81a4-435886bc144f"},"vehicle_type_id":"4","last_reported":1773773200,"current_range_meters":7200,"station_id":"ce4bhu92rcd13ifvqi70","pricing_plan_id":"cebpf4jnsgd1na2vs0mg"},{"bike_id":"0922850f-97f4-4d5f-9c96-79b1b2616092","system_id":"levelo_inurba_marseille","lat":43.29584,"lon":5.37524,"is_reserved":false,"is_disabled":false,"rental_uris":{"android":"levelo://app?vid=0922850f-97f4-4d5f-9c96-79b1b2616092","ios":"levelo://app?vid=0922850f-97f4-4d5f-9c96-79b1b2616092"},"vehicle_type_id":"4","last_reported":1773773200,"current_range_meters":7200,"station_id":"ce4bgh92rcd13ifvqb50","pricing_plan_id":"cebpf4jnsgd1na2vs0mg"},{"bike_id":"45c61d1e-dd63-4f70-b407-f5bfae6b9f00","system_id":"levelo_inurba_marseille","lat":43.29777,"lon":5.37105,"is_reserved":false,"is_disabled":false,"rental_uris":{"android":"levelo://app?vid=45c61d1e-dd63-4f70-b407-f5bfae6b9f00","ios":"levelo://app?vid=45c61d1e-dd63-4f70-b407-f5bfae6b9f00"},"vehicle_type_id":"4","last_reported":1773773200,"current_range_meters":7200,"station_id":"ce4bgop2rcd13ifvqc1g","pricing_plan_id":"cebpf4jnsgd1na2vs0mg"},{"bike_id":"3f9897fb-ec14-49b0-b403-0344e1074612","system_id":"levelo_inurba_marseille","lat":43.28921,"lon":5.3846,"is_reserved":false,"is_disabled":false,"rental_uris":{"android":"levelo://app?vid=3f9897fb-ec14-49b0-b403-0344e1074612","ios":"levelo://app?vid=3f9897fb-ec14-49b0-b403-0344e1074612"},"vehicle_type_id":"4","last_reported":1773773200,"current_range_meters":8000,"station_id":"ce4bh612rcd13ifvqe6g","pricing_plan_id":"cebpf4jnsgd1na2vs0mg"},{"bike_id":"7ada2641-316b-4e07-8cf0-f1c79c755356","system_id":"levelo_inurba_marseille","lat":43.24946,"lon":5.40494,"is_reserved":false,"is_disabled":false,"rental_uris":{"android":"levelo://app?vid=7ada2641-316b-4e07-8cf0-f1c79c755356","ios":"levelo://app?vid=7ada2641-316b-4e07-8cf0-f1c79c755356"},"vehicle_type_id":"4","last_reported":1773773200,"current_range_meters":8000,"station_id":"st_d2ngiaodas8pm72gd1h0","pricing_plan_id":"cebpf4jnsgd1na2vs0mg"},{"bike_id":"2134a193-4b3a-4038-a280-1a0ba6458570","system_id":"levelo_inurba_marseille","lat":43.2982,"lon":5.42147,"is_reserved":false,"is_disabled":false,"rental_uris":{"android":"levelo://app?vid=2134a193-4b3a-4038-a280-1a0ba6458570","ios":"levelo://app?vid=2134a193-4b3a-4038-a280-1a0ba6458570"},"vehicle_type_id":"4","last_reported":1773773200,"current_range_meters":8000,"station_id":"","pricing_plan_id":"cebpf4jnsgd1na2vs0mg"},{"bike_id":"bf6a3964-59b8-4a44-8aea-27ace606ed1b","system_id":"levelo_inurba_marseille","lat":43.27997,"lon":5.40018,"is_reserved":false,"is_disabled":false,"rental_uris":{"android":"levelo://app?vid=bf6a3964-59b8-4a44-8aea-27ace606ed1b","ios":"levelo://app?vid=bf6a3964-59b8-4a44-8aea-27ace606ed1b"},"vehicle_type_id":"4","last_reported":1773773200,"current_range_meters":8000,"station_id":"ce4bho92rcd13ifvqh4g","pricing_plan_id":"cebpf4jnsgd1na2vs0mg"},{"bike_id":"7d9d7aa8-fbf6-4ec2-9dd9-58e4fbfbf40b","system_id":"levelo_inurba_marseille","lat":43.33731,"lon":5.39195,"is_reserved":false,"is_disabled":false,"rental_uris":{"android":"levelo://app?vid=7d9d7aa8-fbf6-4ec2-9dd9-58e4fbfbf40b","ios":"levelo://app?vid=7d9d7aa8-fbf6-4ec2-9dd9-58e4fbfbf40b"},"vehicle_type_id":"4","last_reported":1773773200,"current_range_meters":8000,"station_id":"ce4bhr92rcd13ifvqhsg","pricing_plan_id":"cebpf4jnsgd1na2vs0mg"},{"bike_id":"7e372e61-a4a4-4320-b78e-0115edf72ed5","system_id":"levelo_inurba_marseille","lat":43.24157,"lon":5.36443,"is_reserved":false,"is_disabled":true,"rental_uris":{"android":"levelo://app?vid=7e372e61-a4a4-4320-b78e-0115edf72ed5","ios":"levelo://app?vid=7e372e61-a4a4-4320-b78e-0115edf72ed5"},"vehicle_type_id":"4","last_reported":1773773200,"current_range_meters":8000,"station_id":"cpo36qri1sfpv3e86is0","pricing_plan_id":"cebpf4jnsgd1na2vs0mg"},{"bike_id":"9fde0fe3-8f8d-48af-a746-ee29624591e8","system_id":"levelo_inurba_marseille","lat":43.24548,"lon":5.3952,"is_reserved":false,"is_disabled":false,"rental_uris":{"android":"levelo://app?vid=9fde0fe3-8f8d-48af-a746-ee29624591e8","ios":"levelo://app?vid=9fde0fe3-8f8d-48af-a746-ee29624591e8"},"vehicle_type_id":"4","last_reported":1773773200,"current_range_meters":8000,"station_id":"ce4bhlp2rcd13ifvqgjg","pricing_plan_id":"cebpf4jnsgd1na2vs0mg"},{"bike_id":"b09a2a4f-688b-4b37-99c0-7b2a930bc019","system_id":"levelo_inurba_marseille","lat":43.24651,"lon":5.38155,"is_reserved":false,"is_disabled":false,"rental_uris":{"android":"levelo://app?vid=b09a2a4f-688b-4b37-99c0-7b2a930bc019","ios":"levelo://app?vid=b09a2a4f-688b-4b37-99c0-7b2a930bc019"},"vehicle_type_id":"4","last_reported":1773773200,"current_range_meters":8000,"station_id":"ce4bhih2rcd13ifvqfr0","pricing_plan_id":"cebpf4jnsgd1na2vs0mg"},{"bike_id":"8a460624-7f76-4beb-851e-3d2ad8ff9f17","system_id":"levelo_inurba_marseille","lat":43.27828,"lon":5.40713,"is_reserved":false,"is_disabled":false,"rental_uris":{"android":"levelo://app?vid=8a460624-7f76-4beb-851e-3d2ad8ff9f17","ios":"levelo://app?vid=8a460624-7f76-4beb-851e-3d2ad8ff9f17"},"vehicle_type_id":"4","last_reported":1773773200,"current_range_meters":8000,"station_id":"ce4bhnh2rcd13ifvqgtg","pricing_plan_id":"cebpf4jnsgd1na2vs0mg"},{"bike_id":"868e0549-500e-41e0-ba82-462ef23948d2","system_id":"levelo_inurba_marseille","lat":43.3118,"lon":5.38722,"is_reserved":false,"is_disabled":false,"rental_uris":{"android":"levelo://app?vid=868e0549-500e-41e0-ba82-462ef23948d2","ios":"levelo://app?vid=868e0549-500e-41e0-ba82-462ef23948d2"},"vehicle_type_id":"4","last_reported":1773773200,"current_range_meters":8000,"station_id":"ce4bgv12rcd13ifvqcp0","pricing_plan_id":"cebpf4jnsgd1na2vs0mg"},{"bike_id":"64e4942c-04ec-475a-8745-de522dcf5faa","system_id":"levelo_inurba_marseille","lat":43.22949,"lon":5.35408,"is_reserved":false,"is_disabled":false,"rental_uris":{"android":"levelo://app?vid=64e4942c-04ec-475a-8745-de522dcf5faa","ios":"levelo://app?vid=64e4942c-04ec-475a-8745-de522dcf5faa"},"vehicle_type_id":"4","last_reported":1773773200,"current_range_meters":8000,"station_id":"cpo3532slgdg3j2ikp40","pricing_plan_id":"cebpf4jnsgd1na2vs0mg"},{"bike_id":"0d33946c-dda7-4b3f-9757-2c7ef637d9ab","system_id":"levelo_inurba_marseille","lat":43.29239,"lon":5.40911,"is_reserved":false,"is_disabled":true,"rental_uris":{"android":"levelo://app?vid=0d33946c-dda7-4b3f-9757-2c7ef637d9ab","ios":"levelo://app?vid=0d33946c-dda7-4b3f-9757-2c7ef637d9ab"},"vehicle_type_id":"4","last_reported":1773773200,"current_range_meters":8000,"station_id":"ce4bh192rcd13ifvqdc0","pricing_plan_id":"cebpf4jnsgd1na2vs0mg"},{"bike_id":"2b32810b-00c6-4f4f-b5bc-524e6cc8cda1","system_id":"levelo_inurba_marseille","lat":43.29171,"lon":5.37159,"is_reserved":false,"is_disabled":false,"rental_uris":{"android":"levelo://app?vid=2b32810b-00c6-4f4f-b5bc-524e6cc8cda1","ios":"levelo://app?vid=2b32810b-00c6-4f4f-b5bc-524e6cc8cda1"},"vehicle_type_id":"4","last_reported":1773773200,"current_range_meters":8000,"station_id":"ce4bha92rcd13ifvqeh0","pricing_plan_id":"cebpf4jnsgd1na2vs0mg"},{"bike_id":"6d61f6b8-a7aa-4768-8348-c77a41cfab72","system_id":"levelo_inurba_marseille","lat":43.2843,"lon":5.37537,"is_reserved":false,"is_disabled":false,"rental_uris":{"android":"levelo://app?vid=6d61f6b8-a7aa-4768-8348-c77a41cfab72","ios":"levelo://app?vid=6d61f6b8-a7aa-4768-8348-c77a41cfab72"},"vehicle_type_id":"4","last_reported":1773773200,"current_range_meters":8000,"station_id":"ce4bh412rcd13ifvqds0","pricing_plan_id":"cebpf4jnsgd1na2vs0mg"},{"bike_id":"b2710b4a-433b-4eac-9ed0-b5b83c81f6ec","system_id":"levelo_inurba_marseille","lat":43.26376,"lon":5.41047,"is_reserved":false,"is_disabled":false,"rental_uris":{"android":"levelo://app?vid=b2710b4a-433b-4eac-9ed0-b5b83c81f6ec","ios":"levelo://app?vid=b2710b4a-433b-4eac-9ed0-b5b83c81f6ec"},