{"last_updated":1728393428,"ttl":60,"version":"2.2","data":{"bikes":[{"bike_id":"fe9e3ff3-5119-4544-8348-e1dfca0edf92","system_id":"levelo_inurba_marseille","lat":43.30249,"lon":5.40075,"is_reserved":false,"is_disabled":false,"rental_uris":{"android":"levelo://app?vid=fe9e3ff3-5119-4544-8348-e1dfca0edf92","ios":"levelo://app?vid=fe9e3ff3-5119-4544-8348-e1dfca0edf92"},"vehicle_type_id":"4","last_reported":1728393428,"current_range_meters":4800,"station_id":"ce4bgvh2rcd13ifvqcs0","pricing_plan_id":"cebpf4jnsgd1na2vs0mg"},{"bike_id":"b6182a40-3f1f-40af-8c45-6b885ec4da05","system_id":"levelo_inurba_marseille","lat":43.28095,"lon":5.3784,"is_reserved":false,"is_disabled":false,"rental_uris":{"android":"levelo://app?vid=b6182a40-3f1f-40af-8c45-6b885ec4da05","ios":"levelo://app?vid=b6182a40-3f1f-40af-8c45-6b885ec4da05"},"vehicle_type_id":"4","last_reported":1728393428,"current_range_meters":38800,"station_id":"ce4bha12rcd13ifvqee0","pricing_plan_id":"cebpf4jnsgd1na2vs0mg"},{"bike_id":"52fda321-8c34-4ec2-847d-b36cae8fb7ef","system_id":"levelo_inurba_marseille","lat":43.26063,"lon":5.39394,"is_reserved":false,"is_disabled":false,"rental_uris":{"android":"levelo://app?vid=52fda321-8c34-4ec2-847d-b36cae8fb7ef","ios":"levelo://app?vid=52fda321-8c34-4ec2-847d-b36cae8fb7ef"},"vehicle_type_id":"4","last_reported":1728393428,"current_range_meters":38800,"station_id":"ce4bhh92rcd13ifvqfj0","pricing_plan_id":"cebpf4jnsgd1na2vs0mg"},{"bike_id":"68cc9b2e-3bdd-4866-a986-7cead00d4cfc","system_id":"levelo_inurba_marseille","lat":43.33744,"lon":5.37445,"is_reserved":false,"is_disabled":false,"rental_uris":{"android":"levelo://app?vid=68cc9b2e-3bdd-4866-a986-7cead00d4cfc","ios":"levelo://app?vid=68cc9b2e-3bdd-4866-a986-7cead00d4cfc"},"vehicle_type_id":"4","last_reported":1728393428,"current_range_meters":35600,"station_id":"","pricing_plan_id":"cebpf4jnsgd1na2vs0mg"},{"bike_id":"8116bb74-9a24-4625-9d10-3408a11715c2","system_id":"levelo_inurba_marseille","lat":43.2819,"lon":5.42804,"is_reserved":false,"is_disabled":false,"rental_uris":{"android":"levelo://app?vid=8116bb74-9a24-4625-9d10-3408a11715c2","ios":"levelo://app?vid=8116bb74-9a24-4625-9d10-3408a11715c2"},"vehicle_type_id":"4","last_reported":1728393428,"current_range_meters":39200,"station_id":"ce4bhnh2rcd13ifvqgug","pricing_plan_id":"cebpf4jnsgd1na2vs0mg"},{"bike_id":"ab5eba56-3a1b-4ac1-a3a3-6cda3bc6971e","system_id":"levelo_inurba_marseille","lat":43.24081,"lon":5.37748,"is_reserved":false,"is_disabled":false,"rental_uris":{"android":"levelo://app?vid=ab5eba56-3a1b-4ac1-a3a3-6cda3bc6971e","ios":"levelo://app?vid=ab5eba56-3a1b-4ac1-a3a3-6cda3bc6971e"},"vehicle_type_id":"4","last_reported":1728393428,"current_range_meters":16000,"station_id":"ce4bhnp2rcd13ifvqgvg","pricing_plan_id":"cebpf4jnsgd1na2vs0mg"},{"bike_id":"de27fdc6-d0b6-4b2c-a4a2-c373635333b3","system_id":"levelo_inurba_marseille","lat":43.29804,"lon":5.3809,"is_reserved":false,"is_disabled":false,"rental_uris":{"android":"levelo://app?vid=de27fdc6-d0b6-4b2c-a4a2-c373635333b3","ios":"levelo://app?vid=de27fdc6-d0b6-4b2c-a4a2-c373635333b3"},"vehicle_type_id":"4","last_reported":1728393428,"current_range_meters":38000,"station_id":"ce4bgip2rcd13ifvqbb0","pricing_plan_id":"cebpf4jnsgd1na2vs0mg"},{"bike_id":"75f11660-7622-4c47-b2e5-57a2baeae5dd","system_id":"levelo_inurba_marseille","lat":43.273743,"lon":5.36265,"is_reserved":false,"is_disabled":false,"rental_uris":{"android":"levelo://app?vid=75f11660-7622-4c47-b2e5-57a2baeae5dd","ios":"levelo://app?vid=75f11660-7622-4c47-b2e5-57a2baeae5dd"},"vehicle_type_id":"4","last_reported":1728393428,"current_range_meters":23200,"station_id":"ce4bhbh2rcd13ifvqeo0","pricing_plan_id":"cebpf4jnsgd1na2vs0mg"},{"bike_id":"3edccbad-c604-40df-acb2-6e9d91b67298","system_id":"levelo_inurba_marseille","lat":43.23053,"lon":5.35494,"is_reserved":false,"is_disabled":false,"rental_uris":{"android":"levelo://app?vid=3edccbad-c604-40df-acb2-6e9d91b67298","ios":"levelo://app?vid=3edccbad-c604-40df-acb2-6e9d91b67298"},"vehicle_type_id":"4","last_reported":1728393428,"current_range_meters":15200,"station_id":"cpo3342slgdg3j2ifvpg","pricing_plan_id":"cebpf4jnsgd1na2vs0mg"},{"bike_id":"261d5525-64ed-4988-bad1-cdd84d110abb","system_id":"levelo_inurba_marseille","lat":43.29792,"lon":5.38092,"is_reserved":false,"is_disabled":false,"rental_uris":{"android":"levelo://app?vid=261d5525-64ed-4988-bad1-cdd84d110abb","ios":"levelo://app?vid=261d5525-64ed-4988-bad1-cdd84d110abb"},"vehicle_type_id":"4","last_reported":1728393428,"current_range_meters":28000,"station_id":"ce4bgip2rcd13ifvqbb0","pricing_plan_id":"cebpf4jnsgd1na2vs0mg"},{"bike_id":"f620a96b-c051-47d3-ae4c-9769de8de849","system_id":"levelo_inurba_marseille","lat":43.30395,"lon":5.37711,"is_reserved":false,"is_disabled":false,"rental_uris":{"android":"levelo://app?vid=f620a96b-c051-47d3-ae4c-9769de8de849","ios":"levelo://app?vid=f620a96b-c051-47d3-ae4c-9769de8de849"},"vehicle_type_id":"4","last_reported":1728393428,"current_range_meters":8800,"station_id":"ce4bguh2rcd13ifvqcj0","pricing_plan_id":"cebpf4jnsgd1na2vs0mg"},{"bike_id":"70104770-3380-4c96-a09b-a763dfad3813","system_id":"levelo_inurba_marseille","lat":43.29275,"lon":5.38452,"is_reserved":false,"is_disabled":false,"rental_uris":{"android":"levelo://app?vid=70104770-3380-4c96-a09b-a763dfad3813","ios":"levelo://app?vid=70104770-3380-4c96-a09b-a763dfad3813"},"vehicle_type_id":"4","last_reported":1728393428,"current_range_meters":38800,"station_id":"ce4bh692rcd13ifvqea0","pricing_plan_id":"cebpf4jnsgd1na2vs0mg"},{"bike_id":"7059a58c-88fb-4866-aa84-49bd965dd0fd","system_id":"levelo_inurba_marseille","lat":43.30804,"lon":5.4352,"is_reserved":false,"is_disabled":false,"rental_uris":{"android":"levelo://app?vid=7059a58c-88fb-4866-aa84-49bd965dd0fd","ios":"levelo://app?vid=7059a58c-88fb-4866-aa84-49bd965dd0fd"},"vehicle_type_id":"4","last_reported":1728393428,"current_range_meters":8000,"station_id":"ce4bhph2rcd13ifvqheg","pricing_plan_id":"cebpf4jnsgd1na2vs0mg"},{"bike_id":"da7a7651-7e2a-4cb0-9adc-8ef01d15aa60","system_id":"levelo_inurba_marseille","lat":43.302063,"lon":5.400704,"is_reserved":false,"is_disabled":false,"rental_uris":{"android":"levelo://app?vid=da7a7651-7e2a-4cb0-9adc-8ef01d15aa60","ios":"levelo://app?vid=da7a7651-7e2a-4cb0-9adc-8ef01d15aa60"},"vehicle_type_id":"4","last_reported":1728393428,"current_range_meters":25200,"station_id":"ce4bgvh2rcd13ifvqcs0","pricing_plan_id":"cebpf4jnsgd1na2vs0mg"},{"bike_id":"d56ca407-c587-42e5-bbe3-ac31ff21721e","system_id":"levelo_inurba_marseille","lat":43.28403,"lon":5.37507,"is_reserved":false,"is_disabled":false,"rental_uris":{"android":"levelo://app?vid=d56ca407-c587-42e5-bbe3-ac31ff21721e","ios":"levelo://app?vid=d56ca407-c587-42e5-bbe3-ac31ff21721e"},"vehicle_type_id":"4","last_reported":1728393428,"current_range_meters":20800,"station_id":"ce4bh412rcd13ifvqds0","pricing_plan_id":"cebpf4jnsgd1na2vs0mg"},{"bike_id":"51953a59-945f-49e7-9ca9-3342cd8eb446","system_id":"levelo_inurba_marseille","lat":43.3122,"lon":5.36837,"is_reserved":false,"is_disabled":false,"rental_uris":{"android":"levelo://app?vid=51953a59-945f-49e7-9ca9-3342cd8eb446","ios":"levelo://app?vid=51953a59-945f-49e7-9ca9-3342cd8eb446"},"vehicle_type_id":"4","last_reported":1728393428,"current_range_meters":28800,"station_id":"ce4bgl92rcd13ifvqbq0","pricing_plan_id":"cebpf4jnsgd1na2vs0mg"},{"bike_id":"0ba24d19-0020-4fe4-81e5-26e6bade86f8","system_id":"levelo_inurba_marseille","lat":43.308,"lon":5.43521,"is_reserved":false,"is_disabled":false,"rental_uris":{"android":"levelo://app?vid=0ba24d19-0020-4fe4-81e5-26e6bade86f8","ios":"levelo://app?vid=0ba24d19-0020-4fe4-81e5-26e6bade86f8"},"vehicle_type_id":"4","last_reported":1728393428,"current_range_meters":38000,"station_id":"ce4bhph2rcd13ifvqheg","pricing_plan_id":"cebpf4jnsgd1na2vs0mg"},{"bike_id":"618e8371-79ed-4254-b722-54a1e0bd4be6","system_id":"levelo_inurba_marseille","lat":43.2606,"lon":5.39388,"is_reserved":false,"is_disabled":false,"rental_uris":{"android":"levelo://app?vid=618e8371-79ed-4254-b722-54a1e0bd4be6","ios":"levelo://app?vid=618e8371-79ed-4254-b722-54a1e0bd4be6"},"vehicle_type_id":"4","last_reported":1728393428,"current_range_meters":2800,"station_id":"ce4bhh92rcd13ifvqfj0","pricing_plan_id":"cebpf4jnsgd1na2vs0mg"},{"bike_id":"25f64b96-6a1a-484e-8c7d-c4d4ae37c154","system_id":"levelo_inurba_marseille","lat":43.28077,"lon":5.39661,"is_reserved":false,"is_disabled":false,"rental_uris":{"android":"levelo://app?vid=25f64b96-6a1a-484e-8c7d-c4d4ae37c154","ios":"levelo://app?vid=25f64b96-6a1a-484e-8c7d-c4d4ae37c154"},"vehicle_type_id":"4","last_reported":1728393428,"current_range_meters":33600,"station_id":"ce4bho12rcd13ifvqh2g","pricing_plan_id":"cebpf4jnsgd1na2vs0mg"},{"bike_id":"7f8896c9-e044-4169-ba02-75989da632b5","system_id":"levelo_inurba_marseille","lat":43.24812,"lon":5.37462,"is_reserved":false,"is_disabled":false,"rental_uris":{"android":"levelo://app?vid=7f8896c9-e044-4169-ba02-75989da632b5","ios":"levelo://app?vid=7f8896c9-e044-4169-ba02-75989da632b5"},"vehicle_type_id":"4","last_reported":1728393428,"current_range_meters":37600,"station_id":"ce4bhgh2rcd13ifvqfb0","pricing_plan_id":"cebpf4jnsgd1na2vs0mg"},{"bike_id":"2f6e66ca-f032-4e1b-aea5-c776ba795ccb","system_id":"levelo_inurba_marseille","lat":43.26681,"lon":5.38265,"is_reserved":false,"is_disabled":false,"rental_uris":{"android":"levelo://app?vid=2f6e66ca-f032-4e1b-aea5-c776ba795ccb","ios":"levelo://app?vid=2f6e66ca-f032-4e1b-aea5-c776ba795ccb"},"vehicle_type_id":"4","last_reported":1728393428,"current_range_meters":30400,"station_id":"ce4bhg92rcd13ifvqf90","pricing_plan_id":"cebpf4jnsgd1na2vs0mg"},{"bike_id":"8682febe-528c-4298-bd29-78479ffa4f95","system_id":"levelo_inurba_marseille","lat":43.29421,"lon":5.38618,"is_reserved":false,"is_disabled":false,"rental_uris":{"android":"levelo://app?vid=8682febe-528c-4298-bd29-78479ffa4f95","ios":"levelo://app?vid=8682febe-528c-4298-bd29-78479ffa4f95"},"vehicle_type_id":"4","last_reported":1728393428,"current_range_meters":24800,"station_id":"ce4bh2h2rcd13ifvqdh0","pricing_plan_id":"cebpf4jnsgd1na2vs0mg"},{"bike_id":"81b07a05-4c57-4e76-99d6-5f6e3acbb201","system_id":"levelo_inurba_marseille","lat":43.23064,"lon":5.35484,"is_reserved":false,"is_disabled":false,"rental_uris":{"android":"levelo://app?vid=81b07a05-4c57-4e76-99d6-5f6e3acbb201","ios":"levelo://app?vid=81b07a05-4c57-4e76-99d6-5f6e3acbb201"},"vehicle_type_id":"4","last_reported":1728393428,"current_range_meters":6800,"station_id":"cpo3342slgdg3j2ifvpg","pricing_plan_id":"cebpf4jnsgd1na2vs0mg"},{"bike_id":"247b05e4-264c-45d5-a7c7-7fd35792d640","system_id":"levelo_inurba_marseille","lat":43.33755,"lon":5.3747,"is_reserved":false,"is_disabled":false,"rental_uris":{"android":"levelo://app?vid=247b05e4-264c-45d5-a7c7-7fd35792d640","ios":"levelo://app?vid=247b05e4-264c-45d5-a7c7-7fd35792d640"},"vehicle_type_id":"4","last_reported":1728393428,"current_range_meters":36000,"station_id":"","pricing_plan_id":"cebpf4jnsgd1na2vs0mg"},{"bike_id":"553df947-caf6-4536-a36f-f5b78240b269","system_id":"levelo_inurba_marseille","lat":43.33024,"lon":5.39041,"is_reserved":false,"is_disabled":false,"rental_uris":{"android":"levelo://app?vid=553df947-caf6-4536-a36f-f5b78240b269","ios":"levelo://app?vid=553df947-caf6-4536-a36f-f5b78240b269"},"vehicle_type_id":"4","last_reported":1728393428,"current_range_meters":29600,"station_id":"ce4bhr92rcd13ifvqhrg","pricing_plan_id":"cebpf4jnsgd1na2vs0mg"},{"bike_id":"fb0da022-1dc5-4016-9b8e-26640cb9d473","system_id":"levelo_inurba_marseille","lat":43.29261,"lon":5.40916,"is_reserved":false,"is_disabled":false,"rental_uris":{"android":"levelo://app?vid=fb0da022-1dc5-4016-9b8e-26640cb9d473","ios":"levelo://app?vid=fb0da022-1dc5-4016-9b8e-26640cb9d473"},"vehicle_type_id":"4","last_reported":1728393428,"current_range_meters":8800,"station_id":"ce4bh192rcd13ifvqdc0","pricing_plan_id":"cebpf4jnsgd1na2vs0mg"},{"bike_id":"5ee247ae-fbdb-4b53-aaae-5c994fd8f921","system_id":"levelo_inurba_marseille","lat":43.3122,"lon":5.36854,"is_reserved":false,"is_disabled":false,"rental_uris":{"android":"levelo://app?vid=5ee247ae-fbdb-4b53-aaae-5c994fd8f921","ios":"levelo://app?vid=5ee247ae-fbdb-4b53-aaae-5c994fd8f921"},"vehicle_type_id":"4","last_reported":1728393428,"current_range_meters":14000,"station_id":"ce4bgl92rcd13ifvqbq0","pricing_plan_id":"cebpf4jnsgd1na2vs0mg"},{"bike_id":"45055548-0ba7-479b-b100-48529c2583b9","system_id":"levelo_inurba_marseille","lat":43.30946,"lon":5.39034,"is_reserved":false,"is_disabled":false,"rental_uris":{"android":"levelo://app?vid=45055548-0ba7-479b-b100-48529c2583b9","ios":"levelo://app?vid=45055548-0ba7-479b-b100-48529c2583b9"},"vehicle_type_id":"4","last_reported":1728393428,"current_range_meters":17600,"station_id":"ce4bgup2rcd13ifvqco0","pricing_plan_id":"cebpf4jnsgd1na2vs0mg"},{"bike_id":"9f4b1d8a-a409-48fd-ba73-4bc3dfb4e229","system_id":"levelo_inurba_marseille","lat":43.24075,"lon":5.37751,"is_reserved":false,"is_disabled":false,"rental_uris":{"android":"levelo://app?vid=9f4b1d8a-a409-48fd-ba73-4bc3dfb4e229","ios":"levelo://app?vid=9f4b1d8a-a409-48fd-ba73-4bc3dfb4e229"},"vehicle_type_id":"4","last_reported":1728393428,"current_range_meters":19200,"station_id":"ce4bhnp2rcd13ifvqgvg","pricing_plan_id":"cebpf4jnsgd1na2vs0mg"},{"bike_id":"5256c220-b28f-4888-a433-a045a5a24c5e","system_id":"levelo_inurba_marseille","lat":43.30936,"lon":5.39042,"is_reserved":false,"is_disabled":false,"rental_uris":{"android":"levelo://app?vid=5256c220-b28f-4888-a433-a045a5a24c5e","ios":"levelo://app?vid=5256c220-b28f-4888-a433-a045a5a24c5e"},"vehicle_type_id":"4","last_reported":1728393428,"current_range_meters":10800,"station_id":"ce4bgup2rcd13ifvqco0","pricing_plan_id":"cebpf4jnsgd1na2vs0mg"},{"bike_id":"51634492-5993-4e5d-9a47-1e4662641aa0","system_id":"levelo_inurba_marseille","lat":43.29007,"lon":5.35602,"is_reserved":false,"is_disabled":false,"rental_uris":{"android":"levelo://app?vid=51634492-5993-4e5d-9a47-1e4662641aa0","ios":"levelo://app?vid=51634492-5993-4e5d-9a47-1e4662641aa0"},"vehicle_type_id":"4","last_reported":1728393428,"current_range_meters":36400,"station_id":"ce4bhb92rcd13ifvqen0","pricing_plan_id":"cebpf4jnsgd1na2vs0mg"},{"bike_id":"d53ec7be-8ee6-4345-b4eb-dd05a13c01a3","system_id":"levelo_inurba_marseille","lat":43.27567,"lon":5.38406,"is_reserved":false,"is_disabled":false,"rental_uris":{"android":"levelo://app?vid=d53ec7be-8ee6-4345-b4eb-dd05a13c01a3","ios":"levelo://app?vid=d53ec7be-8ee6-4345-b4eb-dd05a13c01a3"},"vehicle_type_id":"4","last_reported":1728393428,"current_range_meters":16000,"station_id":"ce4bhh92rcd13ifvqfi0","pricing_plan_id":"cebpf4jnsgd1na2vs0mg"},{"bike_id":"f3c69a0b-a047-46e6-b250-508813fe07cc","system_id":"levelo_inurba_marseille","lat":43.32038,"lon":5.4157,"is_reserved":false,"is_disabled":false,"rental_uris":{"android":"levelo://app?vid=f3c69a0b-a047-46e6-b250-508813fe07cc","ios":"levelo://app?vid=f3c69a0b-a047-46e6-b250-508813fe07cc"},"vehicle_type_id":"4","last_reported":1728393428,"current_range_meters":38400,"station_id":"ce4bhq92rcd13ifvqhkg","pricing_plan_id":"cebpf4jnsgd1na2vs0mg"},{"bike_id":"0a90724d-ff71-4dc3-b728-e33a92a931d1","system_id":"levelo_inurba_marseille","lat":43.29007,"lon":5.35606,"is_reserved":false,"is_disabled":false,"rental_uris":{"android":"levelo://app?vid=0a90724d-ff71-4dc3-b728-e33a92a931d1","ios":"levelo://app?vid=0a90724d-ff71-4dc3-b728-e33a92a931d1"},"vehicle_type_id":"4","last_reported":1728393428,"current_range_meters":25200,"station_id":"ce4bhb92rcd13ifvqen0","pricing_plan_id":"cebpf4jnsgd1na2vs0mg"},{"bike_id":"aa3103db-f865-40d4-97ce-aa89e199ca1d","system_id":"levelo_inurba_marseille","lat":43.28268,"lon":5.35054,"is_reserved":false,"is_disabled":false,"rental_uris":{"android":"levelo://app?vid=aa3103db-f865-40d4-97ce-aa89e199ca1d","ios":"levelo://app?vid=aa3103db-f865-40d4-97ce-aa89e199ca1d"},"vehicle_type_id":"4","last_reported":1728393428,"current_range_meters":28800,"station_id":"ce4bhbp2rcd13ifvqerg","pricing_plan_id":"cebpf4jnsgd1na2vs0mg"},{"bike_id":"066ccb90-6b9a-4302-bde4-9c97dfce747d","system_id":"levelo_inurba_marseille","lat":43.33724,"lon":5.39195,"is_reserved":false,"is_disabled":false,"rental_uris":{"android":"levelo://app?vid=066ccb90-6b9a-4302-bde4-9c97dfce747d","ios":"levelo://app?vid=066ccb90-6b9a-4302-bde4-9c97dfce747d"},"vehicle_type_id":"4","last_reported":1728393428,"current_range_meters":36800,"station_id":"ce4bhr92rcd13ifvqhsg","pricing_plan_id":"cebpf4jnsgd1na2vs0mg"},{"bike_id":"f50162c6-b604-4fac-8f3c-6b59d21e8e0f","system_id":"levelo_inurba_marseille","lat":43.2418,"lon":5.39717,"is_reserved":false,"is_disabled":false,"rental_uris":{"android":"levelo://app?vid=f50162c6-b604-4fac-8f3c-6b59d21e8e0f","ios":"levelo://app?vid=f50162c6-b604-4fac-8f3c-6b59d21e8e0f"},"vehicle_type_id":"4","last_reported":1728393428,"current_range_meters":10800,"station_id":"ce4bhn12rcd13ifvqgpg","pricing_plan_id":"cebpf4jnsgd1na2vs0mg"},{"bike_id":"4afa70cd-6713-4863-bd22-a2235fe4bd29","system_id":"levelo_inurba_marseille","lat":43.2408,"lon":5.37759,"is_reserved":false,"is_disabled":false,"rental_uris":{"android":"levelo://app?vid=4afa70cd-6713-4863-bd22-a2235fe4bd29","ios":"levelo://app?vid=4afa70cd-6713-4863-bd22-a2235fe4bd29"},"vehicle_type_id":"4","last_reported":1728393428,"current_range_meters":4800,"station_id":"ce4bhnp2rcd13ifvqgvg","pricing_plan_id":"cebpf4jnsgd1na2vs0mg"},{"bike_id":"12974a0f-2544-4d26-91a5-435eae1a2365","system_id":"levelo_inurba_marseille","lat":43.3169,"lon":5.40473,"is_reserved":false,"is_disabled":false,"rental_uris":{"android":"levelo://app?vid=12974a0f-2544-4d26-91a5-435eae1a2365","ios":"levelo://app?vid=12974a0f-2544-4d26-91a5-435eae1a2365"},"vehicle_type_id":"4","last_reported":1728393428,"current_range_meters":36800,"station_id":"ce4bh012rcd13ifvqd00","pricing_plan_id":"cebpf4jnsgd1na2vs0mg"},{"bike_id":"b86fc600-2b91-4b84-961b-f338f765214a","system_id":"levelo_inurba_marseille","lat":43.29574,"lon":5.37492,"is_reserved":false,"is_disabled":false,"rental_uris":{"android":"levelo://app?vid=b86fc600-2b91-4b84-961b-f338f765214a","ios":"levelo://app?vid=b86fc600-2b91-4b84-961b-f338f765214a"},"vehicle_type_id":"4","last_reported":1728393428,"current_range_meters":37600,"station_id":"ce4bgh92rcd13ifvqb50","pricing_plan_id":"cebpf4jnsgd1na2vs0mg"},{"bike_id":"2d5bad90-372b-4959-bca8-db3a93327907","system_id":"levelo_inurba_marseille","lat":43.30142,"lon":5.37406,"is_reserved":false,"is_disabled":false,"rental_uris":{"android":"levelo://app?vid=2d5bad90-372b-4959-bca8-db3a93327907","ios":"levelo://app?vid=2d5bad90-372b-4959-bca8-db3a93327907"},"vehicle_type_id":"4","last_reported":1728393428,"current_range_meters":30000,"station_id":"ce4bgs92rcd13ifvqcc0","pricing_plan_id":"cebpf4jnsgd1na2vs0mg"},{"bike_id":"35db5aab-a536-4286-87d7-90ec43783f24","system_id":"levelo_inurba_marseille","lat":43.23193,"lon":5.35554,"is_reserved":false,"is_disabled":false,"rental_uris":{"android":"levelo://app?vid=35db5aab-a536-4286-87d7-90ec43783f24","ios":"levelo://app?vid=35db5aab-a536-4286-87d7-90ec43783f24"},"vehicle_type_id":"4","last_reported":1728393428,"current_range_meters":30400,"station_id":"ce4bhu92rcd13ifvqi70","pricing_plan_id":"cebpf4jnsgd1na2vs0mg"},{"bike_id":"235cdb6f-1426-4ef8-ae83-eb7099b9cd14","system_id":"levelo_inurba_marseille","lat":43.30427,"lon":5.39744,"is_reserved":false,"is_disabled":false,"rental_uris":{"android":"levelo://app?vid=235cdb6f-1426-4ef8-ae83-eb7099b9cd14","ios":"levelo://app?vid=235cdb6f-1426-4ef8-ae83-eb7099b9cd14"},"vehicle_type_id":"4","last_reported":1728393428,"current_range_meters":21600,"station_id":"ce4bh092rcd13ifvqd20","pricing_plan_id":"cebpf4jnsgd1na2vs0mg"},{"bike_id":"6c2f11dd-451b-4760-b8fb-9823d2029f2a","system_id":"levelo_inurba_marseille","lat":43.2957,"lon":5.37518,"is_reserved":false,"is_disabled":false,"rental_uris":{"android":"levelo://app?vid=6c2f11dd-451b-4760-b8fb-9823d2029f2a","ios":"levelo://app?vid=6c2f11dd-451b-4760-b8fb-9823d2029f2a"},"vehicle_type_id":"4","last_reported":1728393428,"current_range_meters":5600,"station_id":"ce4bgh92rcd13ifvqb50","pricing_plan_id":"cebpf4jnsgd1na2vs0mg"},{"bike_id":"3ccf9689-a046-4d8d-a8fe-996006ee6888","system_id":"levelo_inurba_marseille","lat":43.29173,"lon":5.37156,"is_reserved":false,"is_disabled":false,"rental_uris":{"android":"levelo://app?vid=3ccf9689-a046-4d8d-a8fe-996006ee6888","ios":"levelo://app?vid=3ccf9689-a046-4d8d-a8fe-996006ee6888"},"vehicle_type_id":"4","last_reported":1728393428,"current_range_meters":30400,"station_id":"ce4bha92rcd13ifvqeh0","pricing_plan_id":"cebpf4jnsgd1na2vs0mg"},{"bike_id":"24c4519e-310e-426d-93a1-ff44ec0f9d1d","system_id":"levelo_inurba_marseille","lat":43.23148,"lon":5.43723,"is_reserved":false,"is_disabled":false,"rental_uris":{"android":"levelo://app?vid=24c4519e-310e-426d-93a1-ff44ec0f9d1d","ios":"levelo://app?vid=24c4519e-310e-426d-93a1-ff44ec0f9d1d"},"vehicle_type_id":"4","last_reported":1728393428,"current_range_meters":30800,"station_id":"ce4bhmp2rcd13ifvqgog","pricing_plan_id":"cebpf4jnsgd1na2vs0mg"},{"bike_id":"62dfd99c-f976-4937-b2d0-5b50f5ae699f","system_id":"levelo_inurba_marseille","lat":43.2417,"lon":5.36396,"is_reserved":false,"is_disabled":false,"rental_uris":{"android":"levelo://app?vid=62dfd99c-f976-4937-b2d0-5b50f5ae699f","ios":"levelo://app?vid=62dfd99c-f976-4937-b2d0-5b50f5ae699f"},"vehicle_type_id":"4","last_reported":1728393428,"current_range_meters":5600,"station_id":"cpo36qri1sfpv3e86is0","pricing_plan_id":"cebpf4jnsgd1na2vs0mg"},{"bike_id":"064dab72-1866-4dfb-8899-8b655881bae9","system_id":"levelo_inurba_marseille","lat":43.3096,"lon":5.39027,"is_reserved":false,"is_disabled":false,"rental_uris":{"android":"levelo://app?vid=064dab72-1866-4dfb-8899-8b655881bae9","ios":"levelo://app?vid=064dab72-1866-4dfb-8899-8b655881bae9"},"vehicle_type_id":"4","last_reported":1728393428,"current_range_meters":27200,"station_id":"ce4bgup2rcd13ifvqco0","pricing_plan_id":"cebpf4jnsgd1na2vs0mg"},{"bike_id":"51ea515d-944c-489c-8a74-b1f09acd3971","system_id":"levelo_inurba_marseille","lat":43.25583,"lon":5.3824,"is_reserved":false,"is_disabled":false,"rental_uris":{"android":"levelo://app?vid=51ea515d-944c-489c-8a74-b1f09acd3971","ios":"levelo://app?vid=51ea515d-944c-489c-8a74-b1f09acd3971"},"vehicle_type_id":"4","last_reported":1728393428,"current_range_meters":39200,"station_id":"ce4bhih2rcd13ifvqfs0","pricing_plan_id":"cebpf4jnsgd1na2vs0mg"},{"bike_id":"844aa9b6-cab0-4ac7-8222-f8bf78296376","system_id":"levelo_inurba_marseille","lat":43.29024,"lon":5.38131,"is_reserved":false,"is_disabled":false,"rental_uris":{"android":"levelo://app?vid=844aa9b6-cab0-4ac7-8222-f8bf78296376","ios":"levelo://app?vid=844aa9b6-cab0-4ac7-8222-f8bf78296376"},"vehicle_type_id":"4","last_reported":1728393428,"current_range_meters":39200,"station_id":"ce4bh4p2rcd13ifvqe1g","pricing_plan_id":"cebpf4jnsgd1na2vs0mg"},{"bike_id":"312be069-018c-4e2b-8659-24d0a47ffefb","system_id":"levelo_inurba_marseille","lat":43.29418,"lon":5.3862,"is_reserved":false,"is_disabled":false,"rental_uris":{"android":"levelo://app?vid=312be069-018c-4e2b-8659-24d0a47ffefb","ios":"levelo://app?vid=312be069-018c-4e2b-8659-24d0a47ffefb"},"vehicle_type_id":"4","last_reported":1728393428,"current_range_meters":38800,"station_id":"ce4bh2h2rcd13ifvqdh0","pricing_plan_id":"cebpf4jnsgd1na2vs0mg"},{"bike_id":"848a0fe8-7f6b-45bf-937d-289c95e0e2c0","system_id":"levelo_inurba_marseille","lat":43.31882,"lon":5.40725,"is_reserved":false,"is_disabled":false,"rental_uris":{"android":"levelo://app?vid=848a0fe8-7f6b-45bf-937d-289c95e0e2c0","ios":"levelo://app?vid=848a0fe8-7f6b-45bf-937d-289c95e0e2c0"},"vehicle_type_id":"4","last_reported":1728393428,"current_range_meters":16800,"station_id":"ce4bhq12rcd13ifvqhig","pricing_plan_id":"cebpf4jnsgd1na2vs0mg"},{"bike_id":"e339ab47-5bfa-4bc0-9021-8f0020c0febe","system_id":"levelo_inurba_marseille","lat":43.3025,"lon":5.401,"is_reserved":false,"is_disabled":false,"rental_uris":{"android":"levelo://app?vid=e339ab47-5bfa-4bc0-9021-8f0020c0febe","ios":"levelo://app?vid=e339ab47-5bfa-4bc0-9021-8f0020c0febe"},"vehicle_type_id":"4","last_reported":1728393428,"current_range_meters":37600,"station_id":"ce4bgvh2rcd13ifvqcs0","pricing_plan_id":"cebpf4jnsgd1na2vs0mg"},{"bike_id":"a4a2b2ef-f9e7-4ba5-88b9-5b6e8b9caed8","system_id":"levelo_inurba_marseille","lat":43.28409,"lon":5.37515,"is_reserved":false,"is_disabled":false,"rental_uris":{"android":"levelo://app?vid=a4a2b2ef-f9e7-4ba5-88b9-5b6e8b9caed8","ios":"levelo://app?vid=a4a2b2ef-f9e7-4ba5-88b9-5b6e8b9caed8"},"vehicle_type_id":"4","last_reported":1728393428,"current_range_meters":38800,"station_id":"ce4bh412rcd13ifvqds0","pricing_plan_id":"cebpf4jnsgd1na2vs0mg"},{"bike_id":"e22e3d78-6574-4497-9480-a4b2a3948e5e","system_id":"levelo_inurba_marseille","lat":43.25494,"lon":5.37643,"is_reserved":false,"is_disabled":false,"rental_uris":{"android":"levelo://app?vid=e22e3d78-6574-4497-9480-a4b2a3948e5e","ios":"levelo://app?vid=e22e3d78-6574-4497-9480-a4b2a3948e5e"},"vehicle_type_id":"4","last_reported":1728393428,"current_range_meters":38800,"station_id":"ce4bhh12rcd13ifvqff0","pricing_plan_id":"cebpf4jnsgd1na2vs0mg"},{"bike_id":"68b91817-e55e-4fa7-b3f0-48e4a02c17c7","system_id":"levelo_inurba_marseille","lat":43.27069,"lon":5.42274,"is_reserved":false,"is_disabled":false,"rental_uris":{"android":"levelo://app?vid=68b91817-e55e-4fa7-b3f0-48e4a02c17c7","ios":"levelo://app?vid=68b91817-e55e-4fa7-b3f0-48e4a02c17c7"},"vehicle_type_id":"4","last_reported":1728393428,"current_range_meters":36800,"station_id":"ce4bhk92rcd13ifvqgb0","pricing_plan_id":"cebpf4jnsgd1na2vs0mg"},{"bike_id":"9d9de456-3f55-4909-a3cb-d4686c8dd2f8","system_id":"levelo_inurba_marseille","lat":43.23059,"lon":5.35487,"is_reserved":false,"is_disabled":false,"rental_uris":{"android":"levelo://app?vid=9d9de456-3f55-4909-a3cb-d4686c8dd2f8","ios":"levelo://app?vid=9d9de456-3f55-4909-a3cb-d4686c8dd2f8"},"vehicle_type_id":"4","last_reported":1728393428,"current_range_meters":12800,"station_id":"cpo3342slgdg3j2ifvpg","pricing_plan_id":"cebpf4jnsgd1na2vs0mg"},{"bike_id":"72f390d6-8036-4225-a9fd-bbdc6e34eeea","system_id":"levelo_inurba_marseille","lat":43.23193,"lon":5.39989,"is_reserved":false,"is_disabled":false,"rental_uris":{"android":"levelo://app?vid=72f390d6-8036-4225-a9fd-bbdc6e34eeea","ios":"levelo://app?vid=72f390d6-8036-4225-a9fd-bbdc6e34eeea"},"vehicle_type_id":"4","last_reported":1728393428,"current_range_meters":37600,"station_id":"ce4bhn12rcd13ifvqgqg","pricing_plan_id":"cebpf4jnsgd1na2vs0mg"},{"bike_id":"4af55307-045f-4c66-a045-a91d88bb4c16","system_id":"levelo_inurba_marseille","lat":43.22935,"lon":5.35369,"is_reserved":false,"is_disabled":false,"rental_uris":{"android":"levelo://app?vid=4af55307-045f-4c66-a045-a91d88bb4c16","ios":"levelo://app?vid=4af55307-045f-4c66-a045-a91d88bb4c16"},"vehicle_type_id":"4","last_reported":1728393428,"current_range_meters":20800,"station_id":"cpo3532slgdg3j2ikp40","pricing_plan_id":"cebpf4jnsgd1na2vs0mg"},{"bike_id":"1108f945-2562-4a37-b07f-6ae5d87c264e","system_id":"levelo_inurba_marseille","lat":43.337444,"lon":5.374475,"is_reserved":false,"is_disabled":false,"rental_uris":{"android":"levelo://app?vid=1108f945-2562-4a37-b07f-6ae5d87c264e","ios":"levelo://app?vid=1108f945-2562-4a37-b07f-6ae5d87c264e"},"vehicle_type_id":"4","last_reported":1728393428,"current_range_meters":38000,"station_id":"","pricing_plan_id":"cebpf4jnsgd1na2vs0mg"},{"bike_id":"cedeb7ce-bec1-4c88-8cf2-3477a8518575","system_id":"levelo_inurba_marseille","lat":43.29265,"lon":5.38435,"is_reserved":false,"is_disabled":false,"rental_uris":{"android":"levelo://app?vid=cedeb7ce-bec1-4c88-8cf2-3477a8518575","ios":"levelo://app?vid=cedeb7ce-bec1-4c88-8cf2-3477a8518575"},"vehicle_type_id":"4","last_reported":1728393428,"current_range_meters":26000,"station_id":"ce4bh692rcd13ifvqea0","pricing_plan_id":"cebpf4jnsgd1na2vs0mg"},{"bike_id":"38e4c4e8-5870-4ba2-85da-59199c6b3f26","system_id":"levelo_inurba_marseille","lat":43.23152,"lon":5.43713,"is_reserved":false,"is_disabled":false,"rental_uris":{"android":"levelo://app?vid=38e4c4e8-5870-4ba2-85da-59199c6b3f26","ios":"levelo://app?vid=38e4c4e8-5870-4ba2-85da-59199c6b3f26"},"vehicle_type_id":"4","last_reported":1728393428,"current_range_meters":38800,"station_id":"ce4bhmp2rcd13ifvqgog","pricing_plan_id":"cebpf4jnsgd1na2vs0mg"},{"bike_id":"47efe985-66e3-4fb1-a00d-60851f779f19","system_id":"levelo_inurba_marseille","lat":43.32546,"lon":5.41432,"is_reserved":false,"is_disabled":false,"rental_uris":{"android":"levelo://app?vid=47efe985-66e3-4fb1-a00d-60851f779f19","ios":"levelo://app?vid=47efe985-66e3-4fb1-a00d-60851f779f19"},"vehicle_type_id":"4","last_reported":1728393428,"current_range_meters":26000,"station_id":"ce4bhq12rcd13ifvqhhg","pricing_plan_id":"cebpf4jnsgd1na2vs0mg"},{"bike_id":"8d79dde4-d406-40c0-b4c5-ddf52a69f5db","system_id":"levelo_inurba_marseille","lat":43.31489,"lon":5.37309,"is_reserved":false,"is_disabled":false,"rental_uris":{"android":"levelo://app?vid=8d79dde4-d406-40c0-b4c5-ddf52a69f5db","ios":"levelo://app?vid=8d79dde4-d406-40c0-b4c5-ddf52a69f5db"},"vehicle_type_id":"4","last_reported":1728393428,"current_range_meters":31200,"station_id":"ce4bgt12rcd13ifvqcd0","pricing_plan_id":"cebpf4jnsgd1na2vs0mg"},{"bike_id":"a389a5e3-356e-4f54-9205-867015cae9da","system_id":"levelo_inurba_marseille","lat":43.30189,"lon":5.36618,"is_reserved":false,"is_disabled":false,"rental_uris":{"android":"levelo://app?vid=a389a5e3-356e-4f54-9205-867015cae9da","ios":"levelo://app?vid=a389a5e3-356e-4f54-9205-867015cae9da"},"vehicle_type_id":"4","last_reported":1728393428,"current_range_meters":35600,"station_id":"ce4bgrh2rcd13ifvqc8g","pricing_plan_id":"cebpf4jnsgd1na2vs0mg"},{"bike_id":"7d8a1d5f-b53f-4f2f-97b5-c346ed61b505","system_id":"levelo_inurba_marseille","lat":43.26208,"lon":5.37441,"is_reserved":false,"is_disabled":false,"rental_uris":{"android":"levelo://app?vid=7d8a1d5f-b53f-4f2f-97b5-c346ed61b505","ios":"levelo://app?vid=7d8a1d5f-b53f-4f2f-97b5-c346ed61b505"},"vehicle_type_id":"4","last_reported":1728393428,"current_range_meters":30000,"station_id":"ce4bhgp2rcd13ifvqfc0","pricing_plan_id":"cebpf4jnsgd1na2vs0mg"},{"bike_id":"c12c46a4-bd86-493d-803e-5d507cd7924b","system_id":"levelo_inurba_marseille","lat":43.23196,"lon":5.35543,"is_reserved":false,"is_disabled":false,"rental_uris":{"android":"levelo://app?vid=c12c46a4-bd86-493d-803e-5d507cd7924b","ios":"levelo://app?vid=c12c46a4-bd86-493d-803e-5d507cd7924b"},"vehicle_type_id":"4","last_reported":1728393428,"current_range_meters":18000,"station_id":"ce4bhu92rcd13ifvqi70","pricing_plan_id":"cebpf4jnsgd1na2vs0mg"},{"bike_id":"1e22ea5d-d406-4b63-92d6-06a783dc0af8","system_id":"levelo_inurba_marseille","lat":43.23185,"lon":5.39978,"is_reserved":false,"is_disabled":false,"rental_uris":{"android":"levelo://app?vid=1e22ea5d-d406-4b63-92d6-06a783dc0af8","ios":"levelo://app?vid=1e22ea5d-d406-4b63-92d6-06a783dc0af8"},"vehicle_type_id":"4","last_reported":1728393428,"current_range_meters":18000,"station_id":"ce4bhn12rcd13ifvqgqg","pricing_plan_id":"cebpf4jnsgd1na2vs0mg"},{"bike_id":"c19e637b-a9df-4896-bb6a-b56e60a34764","system_id":"levelo_inurba_marseille","lat":43.2509,"lon":5.39516,"is_reserved":false,"is_disabled":false,"rental_uris":{"android":"levelo://app?vid=c19e637b-a9df-4896-bb6a-b56e60a34764","ios":"levelo://app?vid=c19e637b-a9df-4896-bb6a-b56e60a34764"},"vehicle_type_id":"4","last_reported":1728393428,"current_range_meters":20000,"station_id":"ce4bhm12rcd13ifvqgkg","pricing_plan_id":"cebpf4jnsgd1na2vs0mg"},{"bike_id":"662f4970-f45a-4eb7-8b5b-5f2d14dbdf57","system_id":"levelo_inurba_marseille","lat":43.26682,"lon":5.38272,"is_reserved":false,"is_disabled":false,"rental_uris":{"android":"levelo://app?vid=662f4970-f45a-4eb7-8b5b-5f2d14dbdf57","ios":"levelo://app?vid=662f4970-f45a-4eb7-8b5b-5f2d14dbdf57"},"vehicle_type_id":"4","last_reported":1728393428,"current_range_meters":38000,"station_id":"ce4bhg92rcd13ifvqf90","pricing_plan_id":"cebpf4jnsgd1na2vs0mg"},{"bike_id":"37a65884-691d-4edc-8008-de0d135b90fa","system_id":"levelo_inurba_marseille","lat":43.24182,"lon":5.39721,"is_reserved":false,"is_disabled":false,"rental_uris":{"android":"levelo://app?vid=37a65884-691d-4edc-8008-de0d135b90fa","ios":"levelo://app?vid=37a65884-691d-4edc-8008-de0d135b90fa"},"vehicle_type_id":"4","last_reported":1728393428,"current_range_meters":7200,"station_id":"ce4bhn12rcd13ifvqgpg","pricing_plan_id":"cebpf4jnsgd1na2vs0mg"},{"bike_id":"5e4b940b-1905-4cfc-9cca-c861df936c8e","system_id":"levelo_inurba_marseille","lat":43.31524,"lon":5.38033,"is_reserved":false,"is_disabled":false,"rental_uris":{"android":"levelo://app?vid=5e4b940b-1905-4cfc-9cca-c861df936c8e","ios":"levelo://app?vid=5e4b940b-1905-4cfc-9cca-c861df936c8e"},"vehicle_type_id":"4","last_reported":1728393428,"current_range_meters":22800,"station_id":"ce4bhsp2rcd13ifvqi50","pricing_plan_id":"cebpf4jnsgd1na2vs0mg"},{"bike_id":"b6640f17-7ab3-4932-bbd1-5fe22e83845e","system_id":"levelo_inurba_marseille","lat":43.32286,"lon":5.38275,"is_reserved":false,"is_disabled":false,"rental_uris":{"android":"levelo://app?vid=b6640f17-7ab3-4932-bbd1-5fe22e83845e","ios":"levelo://app?vid=b6640f17-7ab3-4932-bbd1-5fe22e83845e"},"vehicle_type_id":"4","last_reported":1728393428,"current_range_meters":39200,"station_id":"ce4bhr12rcd13ifvqhqg","pricing_plan_id":"cebpf4jnsgd1na2vs0mg"},{"bike_id":"a5c459cc-1b4c-42d6-a411-afd06cacbfb5","system_id":"levelo_inurba_marseille","lat":43.32106,"lon":5.36763,"is_reserved":false,"is_disabled":false,"rental_uris":{"android":"levelo://app?vid=a5c459cc-1b4c-42d6-a411-afd06cacbfb5","ios":"levelo://app?vid=a5c459cc-1b4c-42d6-a411-afd06cacbfb5"},"vehicle_type_id":"4","last_reported":1728393428,"current_range_meters":28400,"station_id":"ce4bhrh2rcd13ifvqhug","pricing_plan_id":"cebpf4jnsgd1na2vs0mg"},{"bike_id":"2a7b87ec-3bd6-4571-ad9c-e91092dfcb43","system_id":"levelo_inurba_marseille","lat":43.29264,"lon":5.38436,"is_reserved":false,"is_disabled":false,"rental_uris":{"android":"levelo://app?vid=2a7b87ec-3bd6-4571-ad9c-e91092dfcb43","ios":"levelo://app?vid=2a7b87ec-3bd6-4571-ad9c-e91092dfcb43"},"vehicle_type_id":"4","last_reported":1728393428,"current_range_meters":38800,"station_id":"ce4bh692rcd13ifvqea0","pricing_plan_id":"cebpf4jnsgd1na2vs0mg"},{"bike_id":"01e8c42a-46c5-4898-8ea7-d525f892468a","system_id":"levelo_inurba_marseille","lat":43.29006,"lon":5.35609,"is_reserved":false,"is_disabled":false,"rental_uris":{"android":"levelo://app?vid=01e8c42a-46c5-4898-8ea7-d525f892468a","ios":"levelo://app?vid=01e8c42a-46c5-4898-8ea7-d525f892468a"},"vehicle_type_id":"4","last_reported":1728393428,"current_range_meters":10800,"station_id":"ce4bhb92rcd13ifvqen0","pricing_plan_id":"cebpf4jnsgd1na2vs0mg"},{"bike_id":"8a230e39-8ef1-44bd-9062-08774cd42ca1","system_id":"levelo_inurba_marseille","lat":43.29728,"lon":5.37691,"is_reserved":false,"is_disabled":false,"rental_uris":{"android":"levelo://app?vid=8a230e39-8ef1-44bd-9062-08774cd42ca1","ios":"levelo://app?vid=8a230e39-8ef1-44bd-9062-08774cd42ca1"},"vehicle_type_id":"4","last_reported":1728393428,"current_range_meters":38800,"station_id":"ce4bgkh2rcd13ifvqbl0","pricing_plan_id":"cebpf4jnsgd1na2vs0mg"},{"bike_id":"9b30c2b3-4135-4047-8ae2-60c611553cb6","system_id":"levelo_inurba_marseille","lat":43.29286,"lon":5.40114,"is_reserved":false,"is_disabled":false,"rental_uris":{"android":"levelo://app?vid=9b30c2b3-4135-4047-8ae2-60c611553cb6","ios":"levelo://app?vid=9b30c2b3-4135-4047-8ae2-60c611553cb6"},"vehicle_type_id":"4","last_reported":1728393428,"current_range_meters":20800,"station_id":"ce4bh312rcd13ifvqdk0","pricing_plan_id":"cebpf4jnsgd1na2vs0mg"},{"bike_id":"9cd4f5ca-57d8-4288-aaf5-9eb68d2cd7ee","system_id":"levelo_inurba_marseille","lat":43.29792,"lon":5.37102,"is_reserved":false,"is_disabled":false,"rental_uris":{"android":"levelo://app?vid=9cd4f5ca-57d8-4288-aaf5-9eb68d2cd7ee","ios":"levelo://app?vid=9cd4f5ca-57d8-4288-aaf5-9eb68d2cd7ee"},"vehicle_type_id":"4","last_reported":1728393428,"current_range_meters":19200,"station_id":"ce4bgop2rcd13ifvqc1g","pricing_plan_id":"cebpf4jnsgd1na2vs0mg"},{"bike_id":"8614b994-ae2d-4ba6-9c50-9dc14a4d72af","system_id":"levelo_inurba_marseille","lat":43.255,"lon":5.37654,"is_reserved":false,"is_disabled":false,"rental_uris":{"android":"levelo://app?vid=8614b994-ae2d-4ba6-9c50-9dc14a4d72af","ios":"levelo://app?vid=8614b994-ae2d-4ba6-9c50-9dc14a4d72af"},"vehicle_type_id":"4","last_reported":1728393428,"current_range_meters":29600,"station_id":"ce4bhh12rcd13ifvqff0","pricing_plan_id":"cebpf4jnsgd1na2vs0mg"},{"bike_id":"89fcb1ea-f4c9-424e-9760-2c39f1d59be1","system_id":"levelo_inurba_marseille","lat":43.25585,"lon":5.38236,"is_reserved":false,"is_disabled":false,"rental_uris":{"android":"levelo://app?vid=89fcb1ea-f4c9-424e-9760-2c39f1d59be1","ios":"levelo://app?vid=89fcb1ea-f4c9-424e-9760-2c39f1d59be1"},"vehicle_type_id":"4","last_reported":1728393428,"current_range_meters":21600,"station_id":"ce4bhih2rcd13ifvqfs0","pricing_plan_id":"cebpf4jnsgd1na2vs0mg"},{"bike_id":"c768d694-3ac2-4e51-b5bd-6a1ffe503a60","system_id":"levelo_inurba_marseille","lat":43.305475,"lon":5.365542,"is_reserved":false,"is_disabled":false,"rental_uris":{"android":"levelo://app?vid=c768d694-3ac2-4e51-b5bd-6a1ffe503a60","ios":"levelo://app?vid=c768d694-3ac2-4e51-b5bd-6a1ffe503a60"},"vehicle_type_id":"4","last_reported":1728393428,"current_range_meters":30000,"station_id":"ce4bgs12rcd13ifvqcag","pricing_plan_id":"cebpf4jnsgd1na2vs0mg"},{"bike_id":"a81ba7c1-2346-44ad-be54-bc7cff7d4ee0","system_id":"levelo_inurba_marseille","lat":43.30194,"lon":5.39567,"is_reserved":false,"is_disabled":false,"rental_uris":{"android":"levelo://app?vid=a81ba7c1-2346-44ad-be54-bc7cff7d4ee0","ios":"levelo://app?vid=a81ba7c1-2346-44ad-be54-bc7cff7d4ee0"},"vehicle_type_id":"4","last_reported":1728393428,"current_range_meters":34800,"station_id":"ce4bh0h2rcd13ifvqd50","pricing_plan_id":"cebpf4jnsgd1na2vs0mg"},{"bike_id":"d00a3477-782a-4de0-b711-15ed9dd434f4","system_id":"levelo_inurba_marseille","lat":43.23054,"lon":5.35488,"is_reserved":false,"is_disabled":false,"rental_uris":{"android":"levelo://app?vid=d00a3477-782a-4de0-b711-15ed9dd434f4","ios":"levelo://app?vid=d00a3477-782a-4de0-b711-15ed9dd434f4"},"vehicle_type_id":"4","last_reported":1728393428,"current_range_meters":4400,"station_id":"cpo3342slgdg3j2ifvpg","pricing_plan_id":"cebpf4jnsgd1na2vs0mg"},{"bike_id":"97c7f632-2b0b-4ab3-ae11-7232ba2e9760","system_id":"levelo_inurba_marseille","lat":43.30422,"lon":5.41274,"is_reserved":false,"is_disabled":false,"rental_uris":{"android":"levelo://app?vid=97c7f632-2b0b-4ab3-ae11-7232ba2e9760","ios":"levelo://app?vid=97c7f632-2b0b-4ab3-ae11-7232ba2e9760"},"vehicle_type_id":"4","last_reported":1728393428,"current_range_meters":17600,"station_id":"ce4bhop2rcd13ifvqh8g","pricing_plan_id":"cebpf4jnsgd1na2vs0mg"},{"bike_id":"cec3c99e-ca48-4d80-8754-f9affa5d8948","system_id":"levelo_inurba_marseille","lat":43.23155,"lon":5.43706,"is_reserved":false,"is_disabled":false,"rental_uris":{"android":"levelo://app?vid=cec3c99e-ca48-4d80-8754-f9affa5d8948","ios":"levelo://app?vid=cec3c99e-ca48-4d80-8754-f9affa5d8948"},"vehicle_type_id":"4","last_reported":1728393428,"current_range_meters":20800,"station_id":"ce4bhmp2rcd13ifvqgog","pricing_plan_id":"cebpf4jnsgd1na2vs0mg"},{"bike_id":"76da1b89-2804-4eb2-8698-d6b60e0ba786","system_id":"levelo_inurba_marseille","lat":43.30276,"lon":5.37702,"is_reserved":false,"is_disabled":false,"rental_uris":{"android":"levelo://app?vid=76da1b89-2804-4eb2-8698-d6b60e0ba786","ios":"levelo://app?vid=76da1b89-2804-4eb2-8698-d6b60e0ba786"},"vehicle_type_id":"4","last_reported":1728393428,"current_range_meters":38000,"station_id":"ce4bguh2rcd13ifvqcj0","pricing_plan_id":"cebpf4jnsgd1na2vs0mg"},{"bike_id":"441c99f5-9ec1-4a47-80dc-8b4a10bb7d09","system_id":"levelo_inurba_marseille","lat":43.30551,"lon":5.36549,"is_reserved":false,"is_disabled":false,"rental_uris":{"android":"levelo://app?vid=441c99f5-9ec1-4a47-80dc-8b4a10bb7d09","ios":"levelo://app?vid=441c99f5-9ec1-4a47-80dc-8b4a10bb7d09"},"vehicle_type_id":"4","last_reported":1728393428,"current_range_meters":26000,"station_id":"ce4bgs12rcd13ifvqcag","pricing_plan_id":"cebpf4jnsgd1na2vs0mg"},{"bike_id":"e8fc03fc-b789-43de-a556-67c3ddaa9a8d","system_id":"levelo_inurba_marseille","lat":43.29895,"lon":5.43666,"is_reserved":false,"is_disabled":false,"rental_uris":{"android":"levelo://app?vid=e8fc03fc-b789-43de-a556-67c3ddaa9a8d","ios":"levelo://app?vid=e8fc03fc-b789-43de-a556-67c3ddaa9a8d"},"vehicle_type_id":"4","last_reported":1728393428,"current_range_meters":9200,"station_id":"ce4bhpp2rcd13ifvqhfg","pricing_plan_id":"cebpf4jnsgd1na2vs0mg"},{"bike_id":"e62bf6bd-4c80-4f2f-b196-52c66ebe6082","system_id":"levelo_inurba_marseille","lat":43.30553,"lon":5.36528,"is_reserved":false,"is_disabled":false,"rental_uris":{"android":"levelo://app?vid=e62bf6bd-4c80-4f2f-b196-52c66ebe6082","ios":"levelo://app?vid=e62bf6bd-4c80-4f2f-b196-52c66ebe6082"},"vehicle_type_id":"4","last_reported":1728393428,"current_range_meters":13600,"station_id":"ce4bgs12rcd13ifvqcag","pricing_plan_id":"cebpf4jnsgd1na2vs0mg"},{"bike_id":"e8f38f77-6572-42be-9296-0cbe6e7cb972","system_id":"levelo_inurba_marseille","lat":43.23054,"lon":5.35492,"is_reserved":false,"is_disabled":false,"rental_uris":{"android":"levelo://app?vid=e8f38f77-6572-42be-9296-0cbe6e7cb972","ios":"levelo://app?vid=e8f38f77-6572-42be-9296-0cbe6e7cb972"},"vehicle_type_id":"4","last_reported":1728393428,"current_range_meters":31200,"station_id":"cpo3342slgdg3j2ifvpg","pricing_plan_id":"cebpf4jnsgd1na2vs0mg"},{"bike_id":"7ee5d40e-0447-49f3-8c39-763964a522ff","system_id":"levelo_inurba_marseille","lat":43.29627,"lon":5.37722,"is_reserved":false,"is_disabled":false,"rental_uris":{"android":"levelo://app?vid=7ee5d40e-0447-49f3-8c39-763964a522ff","ios":"levelo://app?vid=7ee5d40e-0447-49f3-8c39-763964a522ff"},"vehicle_type_id":"4","last_reported":1728393428,"current_range_meters":25200,"station_id":"ce4bgi92rcd13ifvqb90","pricing_plan_id":"cebpf4jnsgd1na2vs0mg"},{"bike_id":"b16dc9e0-3a26-48a0-8528-6cee38f98885","system_id":"levelo_inurba_marseille","lat":43.308938,"lon":5.378277,"is_reserved":false,"is_disabled":false,"rental_uris":{"android":"levelo://app?vid=b16dc9e0-3a26-48a0-8528-6cee38f98885","ios":"levelo://app?vid=b16dc9e0-3a26-48a0-8528-6cee38f98885"},"vehicle_type_id":"4","last_reported":1728393428,"current_range_meters":16800,"station_id":"ce4bgv92rcd13ifvqcq0","pricing_plan_id":"cebpf4jnsgd1na2vs0mg"},{"bike_id":"485bc90e-76e5-4ef0-8a60-6695dcc5102a","system_id":"levelo_inurba_marseille","lat":43.3249,"lon":5.36566,"is_reserved":false,"is_disabled":false,"rental_uris":{"android":"levelo://app?vid=485bc90e-76e5-4ef0-8a60-6695dcc5102a","ios":"levelo://app?vid=485bc90e-76e5-4ef0-8a60-6695dcc5102a"},"vehicle_type_id":"4","last_reported":1728393428,"current_range_meters":12000,"station_id":"ce4bhs12rcd13ifvqhvg","pricing_plan_id":"cebpf4jnsgd1na2vs0mg"},{"bike_id":"77d131a6-db5f-44eb-adb1-7fc7032d111b","system_id":"levelo_inurba_marseille","lat":43.24652,"lon":5.38897,"is_reserved":false,"is_disabled":false,"rental_uris":{"android":"levelo://app?vid=77d131a6-db5f-44eb-adb1-7fc7032d111b","ios":"levelo://app?vid=77d131a6-db5f-44eb-adb1-7fc7032d111b"},"vehicle_type_id":"4","last_reported":1728393428,"current_range_meters":12800,"station_id":"ce4bhg12rcd13ifvqf60","pricing_plan_id":"cebpf4jnsgd1na2vs0mg"},{"bike_id":"8da57c2e-1418-41dc-a936-f606449b4929","system_id":"levelo_inurba_marseille","lat":43.23486,"lon":5.39909,"is_reserved":false,"is_disabled":false,"rental_uris":{"android":"levelo://app?vid=8da57c2e-1418-41dc-a936-f606449b4929","ios":"levelo://app?vid=8da57c2e-1418-41dc-a936-f606449b4929"},"vehicle_type_id":"4","last_reported":1728393428,"current_range_meters":4800,"station_id":"ce4bhnp2rcd13ifvqgvg","pricing_plan_id":"cebpf4jnsgd1na2vs0mg"},{"bike_id":"28c8a995-683c-40ff-ada1-05dccb3b8437","system_id":"levelo_inurba_marseille","lat":43.29265,"lon":5.38445,"is_reserved":false,"is_disabled":false,"rental_uris":{"android":"levelo://app?vid=28c8a995-683c-40ff-ada1-05dccb3b8437","ios":"levelo://app?vid=28c8a995-683c-40ff-ada1-05dccb3b8437"},"vehicle_type_id":"4","last_reported":1728393428,"current_range_meters":27600,"station_id":"ce4bh692rcd13ifvqea0","pricing_plan_id":"cebpf4jnsgd1na2vs0mg"},{"bike_id":"2fe330c3-d527-47fc-bca3-c0536e295037","system_id":"levelo_inurba_marseille","lat":43.29908,"lon":5.3813,"is_reserved":false,"is_disabled":false,"rental_uris":{"android":"levelo://app?vid=2fe330c3-d527-47fc-bca3-c0536e295037","ios":"levelo://app?vid=2fe330c3-d527-47fc-bca3-c0536e295037"},"vehicle_type_id":"4","last_reported":1728393428,"current_range_meters":15200,"station_id":"ce4bgj12rcd13ifvqbc0","pricing_plan_id":"cebpf4jnsgd1na2vs0mg"},{"bike_id":"989fdfdf-e873-49f0-bbdd-d025f6dce2f6","system_id":"levelo_inurba_marseille","lat":43.30206,"lon":5.3946,"is_reserved":false,"is_disabled":false,"rental_uris":{"android":"levelo://app?vid=989fdfdf-e873-49f0-bbdd-d025f6dce2f6","ios":"levelo://app?vid=989fdfdf-e873-49f0-bbdd-d025f6dce2f6"},"vehicle_type_id":"4","last_reported":1728393428,"current_range_meters":19200,"station_id":"ce4bh0p2rcd13ifvqd70","pricing_plan_id":"cebpf4jnsgd1na2vs0mg"},{"bike_id":"e66d212e-6b9b-443e-b4e1-4b743bb4a76e","system_id":"levelo_inurba_marseille","lat":43.29875,"lon":5.38898,"is_reserved":false,"is_disabled":false,"rental_uris":{"android":"levelo://app?vid=e66d212e-6b9b-443e-b4e1-4b743bb4a76e","ios":"levelo://app?vid=e66d212e-6b9b-443e-b4e1-4b743bb4a76e"},"vehicle_type_id":"4","last_reported":1728393428,"current_range_meters":20800,"station_id":"ce4bh392rcd13ifvqdl0","pricing_plan_id":"cebpf4jnsgd1na2vs0mg"},{"bike_id":"8538ab49-eebf-404b-a819-c9339c9bad9a","system_id":"levelo_inurba_marseille","lat":43.28723,"lon":5.36087,"is_reserved":false,"is_disabled":false,"rental_uris":{"android":"levelo://app?vid=8538ab49-eebf-404b-a819-c9339c9bad9a","ios":"levelo://app?vid=8538ab49-eebf-404b-a819-c9339c9bad9a"},"vehicle_type_id":"4","last_reported":1728393428,"current_range_meters":21600,"station_id":"cki0cbj6b192h4jlfktg","pricing_plan_id":"cebpf4jnsgd1na2vs0mg"},{"bike_id":"4756f994-dcd0-40f0-8c02-f11efbc81576","system_id":"levelo_inurba_marseille","lat":43.25579,"lon":5.38225,"is_reserved":false,"is_disabled":false,"rental_uris":{"android":"levelo://app?vid=4756f994-dcd0-40f0-8c02-f11efbc81576","ios":"levelo://app?vid=4756f994-dcd0-40f0-8c02-f11efbc81576"},"vehicle_type_id":"4","last_reported":1728393428,"current_range_meters":33200,"station_id":"ce4bhih2rcd13ifvqfs0","pricing_plan_id":"cebpf4jnsgd1na2vs0mg"},{"bike_id":"539eacbc-92e3-40a6-ae36-ff0b108b53ac","system_id":"levelo_inurba_marseille","lat":43.31332,"lon":5.39695,"is_reserved":false,"is_disabled":false,"rental_uris":{"android":"levelo://app?vid=539eacbc-92e3-40a6-ae36-ff0b108b53ac","ios":"levelo://app?vid=539eacbc-92e3-40a6-ae36-ff0b108b53ac"},"vehicle_type_id":"4","last_reported":1728393428,"current_range_meters":3600,"station_id":"ce4bgvp2rcd13ifvqcu0","pricing_plan_id":"cebpf4jnsgd1na2vs0mg"},{"bike_id":"076665b3-6ffb-45a8-8c52-61c0a712b548","system_id":"levelo_inurba_marseille","lat":43.25121,"lon":5.40313,"is_reserved":false,"is_disabled":false,"rental_uris":{"android":"levelo://app?vid=076665b3-6ffb-45a8-8c52-61c0a712b548","ios":"levelo://app?vid=076665b3-6ffb-45a8-8c52-61c0a712b548"},"vehicle_type_id":"4","last_reported":1728393428,"current_range_meters":30000,"station_id":"ce4bhlh2rcd13ifvqgig","pricing_plan_id":"cebpf4jnsgd1na2vs0mg"},{"bike_id":"89066a96-3687-4a6b-84b3-b2e441a88dfb","system_id":"levelo_inurba_marseille","lat":43.3029,"lon":5.37701,"is_reserved":false,"is_disabled":false,"rental_uris":{"android":"levelo://app?vid=89066a96-3687-4a6b-84b3-b2e441a88dfb","ios":"levelo://app?vid=89066a96-3687-4a6b-84b3-b2e441a88dfb"},"vehicle_type_id":"4","last_reported":1728393428,"current_range_meters":23200,"station_id":"ce4bguh2rcd13ifvqcj0","pricing_plan_id":"cebpf4jnsgd1na2vs0mg"},{"bike_id":"3ca47dd9-9821-4c9c-8913-43d3a11a3514","system_id":"levelo_inurba_marseille","lat":43.2962,"lon":5.37171,"is_reserved":false,"is_disabled":false,"rental_uris":{"android":"levelo://app?vid=3ca47dd9-9821-4c9c-8913-43d3a11a3514","ios":"levelo://app?vid=3ca47dd9-9821-4c9c-8913-43d3a11a3514"},"vehicle_type_id":"4","last_reported":1728393428,"current_range_meters":10800,"station_id":"ce4bgnh2rcd13ifvqc0g","pricing_plan_id":"cebpf4jnsgd1na2vs0mg"},{"bike_id":"b5142c12-3f3f-452c-853c-bcb33ce12fbf","system_id":"levelo_inurba_marseille","lat":43.23194,"lon":5.35551,"is_reserved":false,"is_disabled":false,"rental_uris":{"android":"levelo://app?vid=b5142c12-3f3f-452c-853c-bcb33ce12fbf","ios":"levelo://app?vid=b5142c12-3f3f-452c-853c-bcb33ce12fbf"},"vehicle_type_id":"4","last_reported":1728393428,"current_range_meters":37600,"station_id":"ce4bhu92rcd13ifvqi70","pricing_plan_id":"cebpf4jnsgd1na2vs0mg"},{"bike_id":"72bcc678-cbb6-4608-9f5c-d1b1bd96f0de","system_id":"levelo_inurba_marseille","lat":43.30176,"lon":5.36621,"is_reserved":false,"is_disabled":false,"rental_uris":{"android":"levelo://app?vid=72bcc678-cbb6-4608-9f5c-d1b1bd96f0de","ios":"levelo://app?vid=72bcc678-cbb6-4608-9f5c-d1b1bd96f0de"},"vehicle_type_id":"4","last_reported":1728393428,"current_range_meters":24000,"station_id":"ce4bgrh2rcd13ifvqc8g","pricing_plan_id":"cebpf4jnsgd1na2vs0mg"},{"bike_id":"3b6a553f-198f-4f96-81b9-a3caac7903fe","system_id":"levelo_inurba_marseille","lat":43.2981,"lon":5.38097,"is_reserved":false,"is_disabled":false,"rental_uris":{"android":"levelo://app?vid=3b6a553f-198f-4f96-81b9-a3caac7903fe","ios":"levelo://app?vid=3b6a553f-198f-4f96-81b9-a3caac7903fe"},"vehicle_type_id":"4","last_reported":1728393428,"current_range_meters":27200,"station_id":"ce4bgip2rcd13ifvqbb0","pricing_plan_id":"cebpf4jnsgd1na2vs0mg"},{"bike_id":"4b637ae3-e875-4553-a852-43238d937b92","system_id":"levelo_inurba_marseille","lat":43.29617,"lon":5.37727,"is_reserved":false,"is_disabled":false,"rental_uris":{"android":"levelo://app?vid=4b637ae3-e875-4553-a852-43238d937b92","ios":"levelo://app?vid=4b637ae3-e875-4553-a852-43238d937b92"},"vehicle_type_id":"4","last_reported":1728393428,"current_range_meters":36800,"station_id":"ce4bgi92rcd13ifvqb90","pricing_plan_id":"cebpf4jnsgd1na2vs0mg"},{"bike_id":"c4236907-ce27-48ac-abd9-c181a707f095","system_id":"levelo_inurba_marseille","lat":43.24082,"lon":5.37748,"is_reserved":false,"is_disabled":false,"rental_uris":{"android":"levelo://app?vid=c4236907-ce27-48ac-abd9-c181a707f095","ios":"levelo://app?vid=c4236907-ce27-48ac-abd9-c181a707f095"},"vehicle_type_id":"4","last_reported":1728393428,"current_range_meters":10000,"station_id":"ce4bhnp2rcd13ifvqgvg","pricing_plan_id":"cebpf4jnsgd1na2vs0mg"},{"bike_id":"2b180ed1-c5eb-4da3-b549-c1c629710ffa","system_id":"levelo_inurba_marseille","lat":43.29785,"lon":5.38091,"is_reserved":false,"is_disabled":false,"rental_uris":{"android":"levelo://app?vid=2b180ed1-c5eb-4da3-b549-c1c629710ffa","ios":"levelo://app?vid=2b180ed1-c5eb-4da3-b549-c1c629710ffa"},"vehicle_type_id":"4","last_reported":1728393428,"current_range_meters":22800,"station_id":"ce4bgip2rcd13ifvqbb0","pricing_plan_id":"cebpf4jnsgd1na2vs0mg"},{"bike_id":"93d45870-2e1c-4ed1-9664-7b219a4ed443","system_id":"levelo_inurba_marseille","lat":43.22927,"lon":5.35381,"is_reserved":false,"is_disabled":false,"rental_uris":{"android":"levelo://app?vid=93d45870-2e1c-4ed1-9664-7b219a4ed443","ios":"levelo://app?vid=93d45870-2e1c-4ed1-9664-7b219a4ed443"},"vehicle_type_id":"4","last_reported":1728393428,"current_range_meters":30800,"station_id":"cpo3532slgdg3j2ikp40","pricing_plan_id":"cebpf4jnsgd1na2vs0mg"},{"bike_id":"9a9d7542-6c26-40b3-9306-c6d7725ffc14","system_id":"levelo_inurba_marseille","lat":43.31492,"lon":5.37311,"is_reserved":false,"is_disabled":false,"rental_uris":{"android":"levelo://app?vid=9a9d7542-6c26-40b3-9306-c6d7725ffc14","ios":"levelo://app?vid=9a9d7542-6c26-40b3-9306-c6d7725ffc14"},"vehicle_type_id":"4","last_reported":1728393428,"current_range_meters":16400,"station_id":"ce4bgt12rcd13ifvqcd0","pricing_plan_id":"cebpf4jnsgd1na2vs0mg"},{"bike_id":"dcfa3e5f-ca99-4cfc-8ebf-7d3f30255834","system_id":"levelo_inurba_marseille","lat":43.32047,"lon":5.41539,"is_reserved":false,"is_disabled":false,"rental_uris":{"android":"levelo://app?vid=dcfa3e5f-ca99-4cfc-8ebf-7d3f30255834","ios":"levelo://app?vid=dcfa3e5f-ca99-4cfc-8ebf-7d3f30255834"},"vehicle_type_id":"4","last_reported":1728393428,"current_range_meters":9600,"station_id":"ce4bhq92rcd13ifvqhkg","pricing_plan_id":"cebpf4jnsgd1na2vs0mg"},{"bike_id":"0e3bfff6-2bee-4be5-8568-766c0160a493","system_id":"levelo_inurba_marseille","lat":43.31707,"lon":5.43697,"is_reserved":false,"is_disabled":false,"rental_uris":{"android":"levelo://app?vid=0e3bfff6-2bee-4be5-8568-766c0160a493","ios":"levelo://app?vid=0e3bfff6-2bee-4be5-8568-766c0160a493"},"vehicle_type_id":"4","last_reported":1728393428,"current_range_meters":8000,"station_id":"ce4bhp92rcd13ifvqhcg","pricing_plan_id":"cebpf4jnsgd1na2vs0mg"},{"bike_id":"a28251c4-ff93-47c6-829b-dbe7867b1430","system_id":"levelo_inurba_marseille","lat":43.30251,"lon":5.40062,"is_reserved":false,"is_disabled":false,"rental_uris":{"android":"levelo://app?vid=a28251c4-ff93-47c6-829b-dbe7867b1430","ios":"levelo://app?vid=a28251c4-ff93-47c6-829b-dbe7867b1430"},"vehicle_type_id":"4","last_reported":1728393428,"current_range_meters":39200,"station_id":"ce4bgvh2rcd13ifvqcs0","pricing_plan_id":"cebpf4jnsgd1na2vs0mg"},{"bike_id":"68a15803-7161-4d8a-9c98-d979734f5b64","system_id":"levelo_inurba_marseille","lat":43.26033,"lon":5.37549,"is_reserved":false,"is_disabled":false,"rental_uris":{"android":"levelo://app?vid=68a15803-7161-4d8a-9c98-d979734f5b64","ios":"levelo://app?vid=68a15803-7161-4d8a-9c98-d979734f5b64"},"vehicle_type_id":"4","last_reported":1728393428,"current_range_meters":40000,"station_id":"ce4bhgh2rcd13ifvqfa0","pricing_plan_id":"cebpf4jnsgd1na2vs0mg"},{"bike_id":"96a623fa-01c1-4c78-9800-b0889a8ba433","system_id":"levelo_inurba_marseille","lat":43.28339,"lon":5.38107,"is_reserved":false,"is_disabled":false,"rental_uris":{"android":"levelo://app?vid=96a623fa-01c1-4c78-9800-b0889a8ba433","ios":"levelo://app?vid=96a623fa-01c1-4c78-9800-b0889a8ba433"},"vehicle_type_id":"4","last_reported":1728393428,"current_range_meters":31200,"station_id":"ce4bh412rcd13ifvqdr0","pricing_plan_id":"cebpf4jnsgd1na2vs0mg"},{"bike_id":"1f3b66e4-d20d-49df-baa6-aad5c31c7f69","system_id":"levelo_inurba_marseille","lat":43.29619,"lon":5.37153,"is_reserved":false,"is_disabled":false,"rental_uris":{"android":"levelo://app?vid=1f3b66e4-d20d-49df-baa6-aad5c31c7f69","ios":"levelo://app?vid=1f3b66e4-d20d-49df-baa6-aad5c31c7f69"},"vehicle_type_id":"4","last_reported":1728393428,"current_range_meters":36800,"station_id":"ce4bgnh2rcd13ifvqc0g","pricing_plan_id":"cebpf4jnsgd1na2vs0mg"},{"bike_id":"c51b3b25-2a50-466b-acaa-e98177040c7c","system_id":"levelo_inurba_marseille","lat":43.27901,"lon":5.39916,"is_reserved":false,"is_disabled":false,"rental_uris":{"android":"levelo://app?vid=c51b3b25-2a50-466b-acaa-e98177040c7c","ios":"levelo://app?vid=c51b3b25-2a50-466b-acaa-e98177040c7c"},"vehicle_type_id":"4","last_reported":1728393428,"current_range_meters":32000,"station_id":"ce4bhdp2rcd13ifvqf20","pricing_plan_id":"cebpf4jnsgd1na2vs0mg"},{"bike_id":"7bc06b01-6cb6-495b-9813-7087ac4b1485","system_id":"levelo_inurba_marseille","lat":43.29621,"lon":5.3772,"is_reserved":false,"is_disabled":false,"rental_uris":{"android":"levelo://app?vid=7bc06b01-6cb6-495b-9813-7087ac4b1485","ios":"levelo://app?vid=7bc06b01-6cb6-495b-9813-7087ac4b1485"},"vehicle_type_id":"4","last_reported":1728393428,"current_range_meters":6800,"station_id":"ce4bgi92rcd13ifvqb90","pricing_plan_id":"cebpf4jnsgd1na2vs0mg"},{"bike_id":"83ca7793-fb7f-4f63-843d-a13c4fc0bddf","system_id":"levelo_inurba_marseille","lat":43.2594,"lon":5.40898,"is_reserved":false,"is_disabled":false,"rental_uris":{"android":"levelo://app?vid=83ca7793-fb7f-4f63-843d-a13c4fc0bddf","ios":"levelo://app?vid=83ca7793-fb7f-4f63-843d-a13c4fc0bddf"},"vehicle_type_id":"4","last_reported":1728393428,"current_range_meters":32000,"station_id":"ce4bhm92rcd13ifvqglg","pricing_plan_id":"cebpf4jnsgd1na2vs0mg"},{"bike_id":"6f9b24aa-d1bd-44e3-bfac-777b21b81549","system_id":"levelo_inurba_marseille","lat":43.25118,"lon":5.40314,"is_reserved":false,"is_disabled":false,"rental_uris":{"android":"levelo://app?vid=6f9b24aa-d1bd-44e3-bfac-777b21b81549","ios":"levelo://app?vid=6f9b24aa-d1bd-44e3-bfac-777b21b81549"},"vehicle_type_id":"4","last_reported":1728393428,"current_range_meters":32400,"station_id":"ce4bhlh2rcd13ifvqgig","pricing_plan_id":"cebpf4jnsgd1na2vs0mg"},{"bike_id":"93a538e2-33d2-44e2-ac66-feb42e05dfad","system_id":"levelo_inurba_marseille","lat":43.24165,"lon":5.36392,"is_reserved":false,"is_disabled":false,"rental_uris":{"android":"levelo://app?vid=93a538e2-33d2-44e2-ac66-feb42e05dfad","ios":"levelo://app?vid=93a538e2-33d2-44e2-ac66-feb42e05dfad"},"vehicle_type_id":"4","last_reported":1728393428,"current_range_meters":24400,"station_id":"cpo36qri1sfpv3e86is0","pricing_plan_id":"cebpf4jnsgd1na2vs0mg"},{"bike_id":"c10ec073-1f61-4027-9292-feb6b02f12bf","system_id":"levelo_inurba_marseille","lat":43.30256,"lon":5.40097,"is_reserved":false,"is_disabled":false,"rental_uris":{"android":"levelo://app?vid=c10ec073-1f61-4027-9292-feb6b02f12bf","ios":"levelo://app?vid=c10ec073-1f61-4027-9292-feb6b02f12bf"},"vehicle_type_id":"4","last_reported":1728393428,"current_range_meters":11600,"station_id":"ce4bgvh2rcd13ifvqcs0","pricing_plan_id":"cebpf4jnsgd1na2vs0mg"},{"bike_id":"513a314a-2e43-41c2-8068-cde83c973037","system_id":"levelo_inurba_marseille","lat":43.31262,"lon":5.40162,"is_reserved":false,"is_disabled":false,"rental_uris":{"android":"levelo://app?vid=513a314a-2e43-41c2-8068-cde83c973037","ios":"levelo://app?vid=513a314a-2e43-41c2-8068-cde83c973037"},"vehicle_type_id":"4","last_reported":1728393428,"current_range_meters":27600,"station_id":"ce4bh092rcd13ifvqd30","pricing_plan_id":"cebpf4jnsgd1na2vs0mg"},{"bike_id":"d52f37f4-ea3a-48e4-a1f4-449bf387606f","system_id":"levelo_inurba_marseille","lat":43.28481,"lon":5.38562,"is_reserved":false,"is_disabled":false,"rental_uris":{"android":"levelo://app?vid=d52f37f4-ea3a-48e4-a1f4-449bf387606f","ios":"levelo://app?vid=d52f37f4-ea3a-48e4-a1f4-449bf387606f"},"vehicle_type_id":"4","last_reported":1728393428,"current_range_meters":18800,"station_id":"ce4bh8p2rcd13ifvqeb0","pricing_plan_id":"cebpf4jnsgd1na2vs0mg"},{"bike_id":"79a2c664-63f6-4cfb-b8a8-0ec71d559050","system_id":"levelo_inurba_marseille","lat":43.29903,"lon":5.38146,"is_reserved":false,"is_disabled":false,"rental_uris":{"android":"levelo://app?vid=79a2c664-63f6-4cfb-b8a8-0ec71d559050","ios":"levelo://app?vid=79a2c664-63f6-4cfb-b8a8-0ec71d559050"},"vehicle_type_id":"4","last_reported":1728393428,"current_range_meters":36800,"station_id":"ce4bgj12rcd13ifvqbc0","pricing_plan_id":"cebpf4jnsgd1na2vs0mg"},{"bike_id":"98121d41-f024-4cf3-9fab-8b1ba4d7d1f1","system_id":"levelo_inurba_marseille","lat":43.29625,"lon":5.37165,"is_reserved":false,"is_disabled":false,"rental_uris":{"android":"levelo://app?vid=98121d41-f024-4cf3-9fab-8b1ba4d7d1f1","ios":"levelo://app?vid=98121d41-f024-4cf3-9fab-8b1ba4d7d1f1"},"vehicle_type_id":"4","last_reported":1728393428,"current_range_meters":37600,"station_id":"ce4bgnh2rcd13ifvqc0g","pricing_plan_id":"cebpf4jnsgd1na2vs0mg"},{"bike_id":"89879212-d25c-43be-8e9e-dcd9f4df0a1a","system_id":"levelo_inurba_marseille","lat":43.29815,"lon":5.38122,"is_reserved":false,"is_disabled":false,"rental_uris":{"android":"levelo://app?vid=89879212-d25c-43be-8e9e-dcd9f4df0a1a","ios":"levelo://app?vid=89879212-d25c-43be-8e9e-dcd9f4df0a1a"},"vehicle_type_id":"4","last_reported":1728393428,"current_range_meters":36800,"station_id":"ce4bgip2rcd13ifvqbb0","pricing_plan_id":"cebpf4jnsgd1na2vs0mg"},{"bike_id":"a92f6206-1720-4e29-9ed4-ca1db6a5dc4b","system_id":"levelo_inurba_marseille","lat":43.29842,"lon":5.37662,"is_reserved":false,"is_disabled":false,"rental_uris":{"android":"levelo://app?vid=a92f6206-1720-4e29-9ed4-ca1db6a5dc4b","ios":"levelo://app?vid=a92f6206-1720-4e29-9ed4-ca1db6a5dc4b"},"vehicle_type_id":"4","last_reported":1728393428,"current_range_meters":28800,"station_id":"","pricing_plan_id":"cebpf4jnsgd1na2vs0mg"},{"bike_id":"198866cb-0cca-43e2-adab-7ce48075092c","system_id":"levelo_inurba_marseille","lat":43.29073,"lon":5.37153,"is_reserved":false,"is_disabled":false,"rental_uris":{"android":"levelo://app?vid=198866cb-0cca-43e2-adab-7ce48075092c","ios":"levelo://app?vid=198866cb-0cca-43e2-adab-7ce48075092c"},"vehicle_type_id":"4","last_reported":1728393428,"current_range_meters":30400,"station_id":"ce4bh5p2rcd13ifvqe4g","pricing_plan_id":"cebpf4jnsgd1na2vs0mg"},{"bike_id":"feac16a6-9d40-4cb8-a580-5c0463645055","system_id":"levelo_inurba_marseille","lat":43.24068,"lon":5.37757,"is_reserved":false,"is_disabled":false,"rental_uris":{"android":"levelo://app?vid=feac16a6-9d40-4cb8-a580-5c0463645055","ios":"levelo://app?vid=feac16a6-9d40-4cb8-a580-5c0463645055"},"vehicle_type_id":"4","last_reported":1728393428,"current_range_meters":29600,"station_id":"ce4bhnp2rcd13ifvqgvg","pricing_plan_id":"cebpf4jnsgd1na2vs0mg"},{"bike_id":"f456090f-a0c7-4fc2-8fae-d7810399099f","system_id":"levelo_inurba_marseille","lat":43.30438,"lon":5.37696,"is_reserved":false,"is_disabled":false,"rental_uris":{"android":"levelo://app?vid=f456090f-a0c7-4fc2-8fae-d7810399099f","ios":"levelo://app?vid=f456090f-a0c7-4fc2-8fae-d7810399099f"},"vehicle_type_id":"4","last_reported":1728393428,"current_range_meters":24400,"station_id":"ce4bgt12rcd13ifvqcd0","pricing_plan_id":"cebpf4jnsgd1na2vs0mg"},{"bike_id":"6090b859-1bd4-4a2b-af82-9eb6fc46b1b2","system_id":"levelo_inurba_marseille","lat":43.30459,"lon":5.37898,"is_reserved":false,"is_disabled":false,"rental_uris":{"android":"levelo://app?vid=6090b859-1bd4-4a2b-af82-9eb6fc46b1b2","ios":"levelo://app?vid=6090b859-1bd4-4a2b-af82-9eb6fc46b1b2"},"vehicle_type_id":"4","last_reported":1728393428,"current_range_meters":24800,"station_id":"ce4bgup2rcd13ifvqcn0","pricing_plan_id":"cebpf4jnsgd1na2vs0mg"},{"bike_id":"7ad06205-868a-4802-a1e3-0dc7e4c673d2","system_id":"levelo_inurba_marseille","lat":43.32483,"lon":5.36566,"is_reserved":false,"is_disabled":false,"rental_uris":{"android":"levelo://app?vid=7ad06205-868a-4802-a1e3-0dc7e4c673d2","ios":"levelo://app?vid=7ad06205-868a-4802-a1e3-0dc7e4c673d2"},"vehicle_type_id":"4","last_reported":1728393428,"current_range_meters":30400,"station_id":"ce4bhs12rcd13ifvqhvg","pricing_plan_id":"cebpf4jnsgd1na2vs0mg"},{"bike_id":"6ba2c342-a7a1-4c75-b24b-4ba0a6ade0ad","system_id":"levelo_inurba_marseille","lat":43.28154,"lon":5.42648,"is_reserved":false,"is_disabled":false,"rental_uris":{"android":"levelo://app?vid=6ba2c342-a7a1-4c75-b24b-4ba0a6ade0ad","ios":"levelo://app?vid=6ba2c342-a7a1-4c75-b24b-4ba0a6ade0ad"},"vehicle_type_id":"4","last_reported":1728393428,"current_range_meters":12800,"station_id":"ce4bhnh2rcd13ifvqgug","pricing_plan_id":"cebpf4jnsgd1na2vs0mg"},{"bike_id":"3cdf3d4d-c19c-4779-8544-4d4830f22025","system_id":"levelo_inurba_marseille","lat":43.24649,"lon":5.38891,"is_reserved":false,"is_disabled":false,"rental_uris":{"android":"levelo://app?vid=3cdf3d4d-c19c-4779-8544-4d4830f22025","ios":"levelo://app?vid=3cdf3d4d-c19c-4779-8544-4d4830f22025"},"vehicle_type_id":"4","last_reported":1728393428,"current_range_meters":2800,"station_id":"ce4bhg12rcd13ifvqf60","pricing_plan_id":"cebpf4jnsgd1na2vs0mg"},{"bike_id":"5ffd1d5c-f110-4d1c-881b-a88677adda97","system_id":"levelo_inurba_marseille","lat":43.30264,"lon":5.40054,"is_reserved":false,"is_disabled":false,"rental_uris":{"android":"levelo://app?vid=5ffd1d5c-f110-4d1c-881b-a88677adda97","ios":"levelo://app?vid=5ffd1d5c-f110-4d1c-881b-a88677adda97"},"vehicle_type_id":"4","last_reported":1728393428,"current_range_meters":24800,"station_id":"ce4bgvh2rcd13ifvqcs0","pricing_plan_id":"cebpf4jnsgd1na2vs0mg"},{"bike_id":"f7612392-4f4b-453b-a64c-499de3c2600f","system_id":"levelo_inurba_marseille","lat":43.24168,"lon":5.36389,"is_reserved":false,"is_disabled":false,"rental_uris":{"android":"levelo://app?vid=f7612392-4f4b-453b-a64c-499de3c2600f","ios":"levelo://app?vid=f7612392-4f4b-453b-a64c-499de3c2600f"},"vehicle_type_id":"4","last_reported":1728393428,"current_range_meters":31200,"station_id":"cpo36qri1sfpv3e86is0","pricing_plan_id":"cebpf4jnsgd1na2vs0mg"},{"bike_id":"8e044f90-9407-4e83-9450-7994c948c41c","system_id":"levelo_inurba_marseille","lat":43.27495,"lon":5.42447,"is_reserved":false,"is_disabled":false,"rental_uris":{"android":"levelo://app?vid=8e044f90-9407-4e83-9450-7994c948c41c","ios":"levelo://app?vid=8e044f90-9407-4e83-9450-7994c948c41c"},"vehicle_type_id":"4","last_reported":1728393428,"current_range_meters":39200,"station_id":"ce4bhn92rcd13ifvqgrg","pricing_plan_id":"cebpf4jnsgd1na2vs0mg"},{"bike_id":"1ac68b24-638e-4cf6-87c6-af3533b9ec37","system_id":"levelo_inurba_marseille","lat":43.26214,"lon":5.37438,"is_reserved":false,"is_disabled":false,"rental_uris":{"android":"levelo://app?vid=1ac68b24-638e-4cf6-87c6-af3533b9ec37","ios":"levelo://app?vid=1ac68b24-638e-4cf6-87c6-af3533b9ec37"},"vehicle_type_id":"4","last_reported":1728393428,"current_range_meters":27200,"station_id":"ce4bhgp2rcd13ifvqfc0","pricing_plan_id":"cebpf4jnsgd1na2vs0mg"},{"bike_id":"7d8b5b98-f33c-47c3-a3f0-364fecb754a9","system_id":"levelo_inurba_marseille","lat":43.2696,"lon":5.38603,"is_reserved":false,"is_disabled":false,"rental_uris":{"android":"levelo://app?vid=7d8b5b98-f33c-47c3-a3f0-364fecb754a9","ios":"levelo://app?vid=7d8b5b98-f33c-47c3-a3f0-364fecb754a9"},"vehicle_type_id":"4","last_reported":1728393428,"current_range_meters":38400,"station_id":"ce4bhh92rcd13ifvqfh0","pricing_plan_id":"cebpf4jnsgd1na2vs0mg"},{"bike_id":"41c9fdb8-fe00-4b88-abd8-9ed1f3551cdf","system_id":"levelo_inurba_marseille","lat":43.28084,"lon":5.39658,"is_reserved":false,"is_disabled":false,"rental_uris":{"android":"levelo://app?vid=41c9fdb8-fe00-4b88-abd8-9ed1f3551cdf","ios":"levelo://app?vid=41c9fdb8-fe00-4b88-abd8-9ed1f3551cdf"},"vehicle_type_id":"4","last_reported":1728393428,"current_range_meters":32000,"station_id":"ce4bho12rcd13ifvqh2g","pricing_plan_id":"cebpf4jnsgd1na2vs0mg"},{"bike_id":"aa704487-dbbb-4b32-851e-1ce314d1cfa2","system_id":"levelo_inurba_marseille","lat":43.26553,"lon":5.37282,"is_reserved":false,"is_disabled":false,"rental_uris":{"android":"levelo://app?vid=aa704487-dbbb-4b32-851e-1ce314d1cfa2","ios":"levelo://app?vid=aa704487-dbbb-4b32-851e-1ce314d1cfa2"},"vehicle_type_id":"4","last_reported":1728393428,"current_range_meters":32400,"station_id":"ce4bhg12rcd13ifvqf70","pricing_plan_id":"cebpf4jnsgd1na2vs0mg"},{"bike_id":"ef13235d-8214-4395-ab09-7a42b5ade229","system_id":"levelo_inurba_marseille","lat":43.31337,"lon":5.36704,"is_reserved":false,"is_disabled":false,"rental_uris":{"android":"levelo://app?vid=ef13235d-8214-4395-ab09-7a42b5ade229","ios":"levelo://app?vid=ef13235d-8214-4395-ab09-7a42b5ade229"},"vehicle_type_id":"4","last_reported":1728393428,"current_range_meters":17600,"station_id":"ce4bgr92rcd13ifvqc6g","pricing_plan_id":"cebpf4jnsgd1na2vs0mg"},{"bike_id":"01c29f55-9891-4bf6-b457-0ca8c223bf4a","system_id":"levelo_inurba_marseille","lat":43.29603,"lon":5.38092,"is_reserved":false,"is_disabled":false,"rental_uris":{"android":"levelo://app?vid=01c29f55-9891-4bf6-b457-0ca8c223bf4a","ios":"levelo://app?vid=01c29f55-9891-4bf6-b457-0ca8c223bf4a"},"vehicle_type_id":"4","last_reported":1728393428,"current_range_meters":32800,"station_id":"ce4bgl12rcd13ifvqbo0","pricing_plan_id":"cebpf4jnsgd1na2vs0mg"},{"bike_id":"df3eb79c-2562-43cb-93d7-18cc0bacb55d","system_id":"levelo_inurba_marseille","lat":43.24807,"lon":5.37459,"is_reserved":false,"is_disabled":false,"rental_uris":{"android":"levelo://app?vid=df3eb79c-2562-43cb-93d7-18cc0bacb55d","ios":"levelo://app?vid=df3eb79c-2562-43cb-93d7-18cc0bacb55d"},"vehicle_type_id":"4","last_reported":1728393428,"current_range_meters":28000,"station_id":"ce4bhgh2rcd13ifvqfb0","pricing_plan_id":"cebpf4jnsgd1na2vs0mg"},{"bike_id":"30f7b44a-38bc-4a20-836f-31340ca39939","system_id":"levelo_inurba_marseille","lat":43.29274,"lon":5.3684,"is_reserved":false,"is_disabled":false,"rental_uris":{"android":"levelo://app?vid=30f7b44a-38bc-4a20-836f-31340ca39939","ios":"levelo://app?vid=30f7b44a-38bc-4a20-836f-31340ca39939"},"vehicle_type_id":"4","last_reported":1728393428,"current_range_meters":36800,"station_id":"ce4bhbp2rcd13ifvqesg","pricing_plan_id":"cebpf4jnsgd1na2vs0mg"},{"bike_id":"300f54cf-901c-4735-81dc-169e5609836a","system_id":"levelo_inurba_marseille","lat":43.25117,"lon":5.4032,"is_reserved":false,"is_disabled":false,"rental_uris":{"android":"levelo://app?vid=300f54cf-901c-4735-81dc-169e5609836a","ios":"levelo://app?vid=300f54cf-901c-4735-81dc-169e5609836a"},"vehicle_type_id":"4","last_reported":1728393428,"current_range_meters":12000,"station_id":"ce4bhlh2rcd13ifvqgig","pricing_plan_id":"cebpf4jnsgd1na2vs0mg"},{"bike_id":"0a8ccba5-237d-43b9-a077-96384e616267","system_id":"levelo_inurba_marseille","lat":43.25929,"lon":5.40898,"is_reserved":false,"is_disabled":false,"rental_uris":{"android":"levelo://app?vid=0a8ccba5-237d-43b9-a077-96384e616267","ios":"levelo://app?vid=0a8ccba5-237d-43b9-a077-96384e616267"},"vehicle_type_id":"4","last_reported":1728393428,"current_range_meters":22000,"station_id":"ce4bhm92rcd13ifvqglg","pricing_plan_id":"cebpf4jnsgd1na2vs0mg"},{"bike_id":"cf927195-cafe-4fe6-8a9b-b503bf9be2b0","system_id":"levelo_inurba_marseille","lat":43.23186,"lon":5.3998,"is_reserved":false,"is_disabled":false,"rental_uris":{"android":"levelo://app?vid=cf927195-cafe-4fe6-8a9b-b503bf9be2b0","ios":"levelo://app?vid=cf927195-cafe-4fe6-8a9b-b503bf9be2b0"},"vehicle_type_id":"4","last_reported":1728393428,"current_range_meters":36400,"station_id":"ce4bhn12rcd13ifvqgqg","pricing_plan_id":"cebpf4jnsgd1na2vs0mg"},{"bike_id":"47d5a9c0-2c62-4cce-a497-70cd8b4916cb","system_id":"levelo_inurba_marseille","lat":43.31344,"lon":5.36711,"is_reserved":false,"is_disabled":false,"rental_uris":{"android":"levelo://app?vid=47d5a9c0-2c62-4cce-a497-70cd8b4916cb","ios":"levelo://app?vid=47d5a9c0-2c62-4cce-a497-70cd8b4916cb"},"vehicle_type_id":"4","last_reported":1728393428,"current_range_meters":8000,"station_id":"ce4bgr92rcd13ifvqc6g","pricing_plan_id":"cebpf4jnsgd1na2vs0mg"},{"bike_id":"22942128-eccb-447c-a404-8ab36ea27ffe","system_id":"levelo_inurba_marseille","lat":43.25937,"lon":5.40892,"is_reserved":false,"is_disabled":false,"rental_uris":{"android":"levelo://app?vid=22942128-eccb-447c-a404-8ab36ea27ffe","ios":"levelo://app?vid=22942128-eccb-447c-a404-8ab36ea27ffe"},"vehicle_type_id":"4","last_reported":1728393428,"current_range_meters":37600,"station_id":"ce4bhm92rcd13ifvqglg","pricing_plan_id":"cebpf4jnsgd1na2vs0mg"},{"bike_id":"a30f9b65-a51f-4e9a-b34c-dde60cc1578b","system_id":"levelo_inurba_marseille","lat":43.27492,"lon":5.4245,"is_reserved":false,"is_disabled":false,"rental_uris":{"android":"levelo://app?vid=a30f9b65-a51f-4e9a-b34c-dde60cc1578b","ios":"levelo://app?vid=a30f9b65-a51f-4e9a-b34c-dde60cc1578b"},"vehicle_type_id":"4","last_reported":1728393428,"current_range_meters":2800,"station_id":"ce4bhn92rcd13ifvqgrg","pricing_plan_id":"cebpf4jnsgd1na2vs0mg"},{"bike_id":"7f1ed9c2-e947-4526-981a-56a4a4ef5620","system_id":"levelo_inurba_marseille","lat":43.2656,"lon":5.37281,"is_reserved":false,"is_disabled":false,"rental_uris":{"android":"levelo://app?vid=7f1ed9c2-e947-4526-981a-56a4a4ef5620","ios":"levelo://app?vid=7f1ed9c2-e947-4526-981a-56a4a4ef5620"},"vehicle_type_id":"4","last_reported":1728393428,"current_range_meters":14000,"station_id":"ce4bhg12rcd13ifvqf70","pricing_plan_id":"cebpf4jnsgd1na2vs0mg"},{"bike_id":"f34fc3f9-5917-4d2f-954e-36be790e722d","system_id":"levelo_inurba_marseille","lat":43.30098,"lon":5.39073,"is_reserved":false,"is_disabled":false,"rental_uris":{"android":"levelo://app?vid=f34fc3f9-5917-4d2f-954e-36be790e722d","ios":"levelo://app?vid=f34fc3f9-5917-4d2f-954e-36be790e722d"},"vehicle_type_id":"4","last_reported":1728393428,"current_range_meters":24000,"station_id":"ce4bh192rcd13ifvqdb0","pricing_plan_id":"cebpf4jnsgd1na2vs0mg"},{"bike_id":"15b97e4d-3bd8-44ac-905a-406fec14c6d5","system_id":"levelo_inurba_marseille","lat":43.31348,"lon":5.36705,"is_reserved":false,"is_disabled":false,"rental_uris":{"android":"levelo://app?vid=15b97e4d-3bd8-44ac-905a-406fec14c6d5","ios":"levelo://app?vid=15b97e4d-3bd8-44ac-905a-406fec14c6d5"},"vehicle_type_id":"4","last_reported":1728393428,"current_range_meters":36400,"station_id":"ce4bgr92rcd13ifvqc6g","pricing_plan_id":"cebpf4jnsgd1na2vs0mg"},{"bike_id":"542404d0-7ad8-4d88-9837-14b7ea9cdc5a","system_id":"levelo_inurba_marseille","lat":43.31709,"lon":5.437,"is_reserved":false,"is_disabled":false,"rental_uris":{"android":"levelo://app?vid=542404d0-7ad8-4d88-9837-14b7ea9cdc5a","ios":"levelo://app?vid=542404d0-7ad8-4d88-9837-14b7ea9cdc5a"},"vehicle_type_id":"4","last_reported":1728393428,"current_range_meters":37600,"station_id":"ce4bhp92rcd13ifvqhcg","pricing_plan_id":"cebpf4jnsgd1na2vs0mg"},{"bike_id":"6731d1b1-b391-47f7-84a2-e5222ded00d2","system_id":"levelo_inurba_marseille","lat":43.3302,"lon":5.39035,"is_reserved":false,"is_disabled":false,"rental_uris":{"android":"levelo://app?vid=6731d1b1-b391-47f7-84a2-e5222ded00d2","ios":"levelo://app?vid=6731d1b1-b391-47f7-84a2-e5222ded00d2"},"vehicle_type_id":"4","last_reported":1728393428,"current_range_meters":25200,"station_id":"ce4bhr92rcd13ifvqhrg","pricing_plan_id":"cebpf4jnsgd1na2vs0mg"},{"bike_id":"0b48fe96-5a73-4eb1-a1e0-ff84cc376fde","system_id":"levelo_inurba_marseille","lat":43.25495,"lon":5.3765,"is_reserved":false,"is_disabled":false,"rental_uris":{"android":"levelo://app?vid=0b48fe96-5a73-4eb1-a1e0-ff84cc376fde","ios":"levelo://app?vid=0b48fe96-5a73-4eb1-a1e0-ff84cc376fde"},"vehicle_type_id":"4","last_reported":1728393428,"current_range_meters":30800,"station_id":"ce4bhh12rcd13ifvqff0","pricing_plan_id":"cebpf4jnsgd1na2vs0mg"},{"bike_id":"39585e24-9284-4558-bd63-27a4a9dd3a64","system_id":"levelo_inurba_marseille","lat":43.25587,"lon":5.38234,"is_reserved":false,"is_disabled":false,"rental_uris":{"android":"levelo://app?vid=39585e24-9284-4558-bd63-27a4a9dd3a64","ios":"levelo://app?vid=39585e24-9284-4558-bd63-27a4a9dd3a64"},"vehicle_type_id":"4","last_reported":1728393428,"current_range_meters":14800,"station_id":"ce4bhih2rcd13ifvqfs0","pricing_plan_id":"cebpf4jnsgd1na2vs0mg"},{"bike_id":"0b176aa5-38c9-4a29-9309-342777105da4","system_id":"levelo_inurba_marseille","lat":43.29621,"lon":5.37165,"is_reserved":false,"is_disabled":false,"rental_uris":{"android":"levelo://app?vid=0b176aa5-38c9-4a29-9309-342777105da4","ios":"levelo://app?vid=0b176aa5-38c9-4a29-9309-342777105da4"},"vehicle_type_id":"4","last_reported":1728393428,"current_range_meters":34000,"station_id":"ce4bgnh2rcd13ifvqc0g","pricing_plan_id":"cebpf4jnsgd1na2vs0mg"},{"bike_id":"2daa0c02-4ad6-4aec-8adf-88d1beaca6a2","system_id":"levelo_inurba_marseille","lat":43.24069,"lon":5.37758,"is_reserved":false,"is_disabled":false,"rental_uris":{"android":"levelo://app?vid=2daa0c02-4ad6-4aec-8adf-88d1beaca6a2","ios":"levelo://app?vid=2daa0c02-4ad6-4aec-8adf-88d1beaca6a2"},"vehicle_type_id":"4","last_reported":1728393428,"current_range_meters":30000,"station_id":"ce4bhnp2rcd13ifvqgvg","pricing_plan_id":"cebpf4jnsgd1na2vs0mg"},{"bike_id":"66dfb237-26d1-4a86-90c5-70160dcc09ca","system_id":"levelo_inurba_marseille","lat":43.25088,"lon":5.39505,"is_reserved":false,"is_disabled":false,"rental_uris":{"android":"levelo://app?vid=66dfb237-26d1-4a86-90c5-70160dcc09ca","ios":"levelo://app?vid=66dfb237-26d1-4a86-90c5-70160dcc09ca"},"vehicle_type_id":"4","last_reported":1728393428,"current_range_meters":38800,"station_id":"ce4bhm12rcd13ifvqgkg","pricing_plan_id":"cebpf4jnsgd1na2vs0mg"},{"bike_id":"8000440f-f294-441c-9731-7f9155837c35","system_id":"levelo_inurba_marseille","lat":43.28102,"lon":5.3783,"is_reserved":false,"is_disabled":false,"rental_uris":{"android":"levelo://app?vid=8000440f-f294-441c-9731-7f9155837c35","ios":"levelo://app?vid=8000440f-f294-441c-9731-7f9155837c35"},"vehicle_type_id":"4","last_reported":1728393428,"current_range_meters":36000,"station_id":"ce4bha12rcd13ifvqee0","pricing_plan_id":"cebpf4jnsgd1na2vs0mg"},{"bike_id":"8c57ef0e-a429-4a21-8b4d-70eeecda1108","system_id":"levelo_inurba_marseille","lat":43.25937,"lon":5.40902,"is_reserved":false,"is_disabled":false,"rental_uris":{"android":"levelo://app?vid=8c57ef0e-a429-4a21-8b4d-70eeecda1108","ios":"levelo://app?vid=8c57ef0e-a429-4a21-8b4d-70eeecda1108"},"vehicle_type_id":"4","last_reported":1728393428,"current_range_meters":8800,"station_id":"ce4bhm92rcd13ifvqglg","pricing_plan_id":"cebpf4jnsgd1na2vs0mg"},{"bike_id":"18926fb2-af7d-4d25-8086-2f8e3bd0c576","system_id":"levelo_inurba_marseille","lat":43.337444,"lon":5.374475,"is_reserved":false,"is_disabled":false,"rental_uris":{"android":"levelo://app?vid=18926fb2-af7d-4d25-8086-2f8e3bd0c576","ios":"levelo://app?vid=18926fb2-af7d-4d25-8086-2f8e3bd0c576"},"vehicle_type_id":"4","last_reported":1728393428,"current_range_meters":38800,"station_id":"","pricing_plan_id":"cebpf4jnsgd1na2vs0mg"},{"bike_id":"c27de94a-2a57-4824-8f8f-12b5ae8c874e","system_id":"levelo_inurba_marseille","lat":43.27074,"lon":5.42277,"is_reserved":false,"is_disabled":false,"rental_uris":{"android":"levelo://app?vid=c27de94a-2a57-4824-8f8f-12b5ae8c874e","ios":"levelo://app?vid=c27de94a-2a57-4824-8f8f-12b5ae8c874e"},"vehicle_type_id":"4","last_reported":1728393428,"current_range_meters":36000,"station_id":"ce4bhk92rcd13ifvqgb0","pricing_plan_id":"cebpf4jnsgd1na2vs0mg"},{"bike_id":"c62bb082-d790-41ad-81b0-d43e997fc250","system_id":"levelo_inurba_marseille","lat":43.30149,"lon":5.3808,"is_reserved":false,"is_disabled":false,"rental_uris":{"android":"levelo://app?vid=c62bb082-d790-41ad-81b0-d43e997fc250","ios":"levelo://app?vid=c62bb082-d790-41ad-81b0-d43e997fc250"},"vehicle_type_id":"4","last_reported":1728393428,"current_range_meters":32800,"station_id":"ce4bgjp2rcd13ifvqbh0","pricing_plan_id":"cebpf4jnsgd1na2vs0mg"},{"bike_id":"f471f928-1baa-4a02-b649-d880c72bf033","system_id":"levelo_inurba_marseille","lat":43.29866,"lon":5.39729,"is_reserved":false,"is_disabled":false,"rental_uris":{"android":"levelo://app?vid=f471f928-1baa-4a02-b649-d880c72bf033","ios":"levelo://app?vid=f471f928-1baa-4a02-b649-d880c72bf033"},"vehicle_type_id":"4","last_reported":1728393428,"current_range_meters":18800,"station_id":"ce4bh0h2rcd13ifvqd50","pricing_plan_id":"cebpf4jnsgd1na2vs0mg"},{"bike_id":"42baa13c-c38a-4f93-ae69-486b55c36a69","system_id":"levelo_inurba_marseille","lat":43.31528,"lon":5.38032,"is_reserved":false,"is_disabled":false,"rental_uris":{"android":"levelo://app?vid=42baa13c-c38a-4f93-ae69-486b55c36a69","ios":"levelo://app?vid=42baa13c-c38a-4f93-ae69-486b55c36a69"},"vehicle_type_id":"4","last_reported":1728393428,"current_range_meters":17600,"station_id":"ce4bhsp2rcd13ifvqi50","pricing_plan_id":"cebpf4jnsgd1na2vs0mg"},{"bike_id":"f1510c6a-ec9a-4cb6-ba53-8ced3616703a","system_id":"levelo_inurba_marseille","lat":43.32489,"lon":5.36568,"is_reserved":false,"is_disabled":false,"rental_uris":{"android":"levelo://app?vid=f1510c6a-ec9a-4cb6-ba53-8ced3616703a","ios":"levelo://app?vid=f1510c6a-ec9a-4cb6-ba53-8ced3616703a"},"vehicle_type_id":"4","last_reported":1728393428,"current_range_meters":38000,"station_id":"ce4bhs12rcd13ifvqhvg","pricing_plan_id":"cebpf4jnsgd1na2vs0mg"},{"bike_id":"fdd7439b-074a-4927-af07-9a57245eee63","system_id":"levelo_inurba_marseille","lat":43.30134,"lon":5.387762,"is_reserved":false,"is_disabled":false,"rental_uris":{"android":"levelo://app?vid=fdd7439b-074a-4927-af07-9a57245eee63","ios":"levelo://app?vid=fdd7439b-074a-4927-af07-9a57245eee63"},"vehicle_type_id":"4","last_reported":1728393428,"current_range_meters":10000,"station_id":"ce4bghh2rcd13ifvqb60","pricing_plan_id":"cebpf4jnsgd1na2vs0mg"},{"bike_id":"ad55d042-b417-43fb-8f52-1d68f25bf7cd","system_id":"levelo_inurba_marseille","lat":43.30536,"lon":5.36523,"is_reserved":false,"is_disabled":false,"rental_uris":{"android":"levelo://app?vid=ad55d042-b417-43fb-8f52-1d68f25bf7cd","ios":"levelo://app?vid=ad55d042-b417-43fb-8f52-1d68f25bf7cd"},"vehicle_type_id":"4","last_reported":1728393428,"current_range_meters":39200,"station_id":"ce4bgs12rcd13ifvqcag","pricing_plan_id":"cebpf4jnsgd1na2vs0mg"},{"bike_id":"ed30d988-8b65-4b54-a85f-0327a57c206f","system_id":"levelo_inurba_marseille","lat":43.337444,"lon":5.374475,"is_reserved":false,"is_disabled":false,"rental_uris":{"android":"levelo://app?vid=ed30d988-8b65-4b54-a85f-0327a57c206f","ios":"levelo://app?vid=ed30d988-8b65-4b54-a85f-0327a57c206f"},"vehicle_type_id":"4","last_reported":1728393428,"current_range_meters":20000,"station_id":"ce4bhb92rcd13ifvqen0","pricing_plan_id":"cebpf4jnsgd1na2vs0mg"},{"bike_id":"cda84d20-71e8-43cd-bb90-c228b9b1f69c","system_id":"levelo_inurba_marseille","lat":43.29804,"lon":5.38089,"is_reserved":false,"is_disabled":false,"rental_uris":{"android":"levelo://app?vid=cda84d20-71e8-43cd-bb90-c228b9b1f69c","ios":"levelo://app?vid=cda84d20-71e8-43cd-bb90-c228b9b1f69c"},"vehicle_type_id":"4","last_reported":1728393428,"current_range_meters":37600,"station_id":"ce4bgip2rcd13ifvqbb0","pricing_plan_id":"cebpf4jnsgd1na2vs0mg"},{"bike_id":"e6d86d2f-929e-412d-b639-89761e6c74e0","system_id":"levelo_inurba_marseille","lat":43.337444,"lon":5.374475,"is_reserved":false,"is_disabled":false,"rental_uris":{"android":"levelo://app?vid=e6d86d2f-929e-412d-b639-89761e6c74e0","ios":"levelo://app?vid=e6d86d2f-929e-412d-b639-89761e6c74e0"},"vehicle_type_id":"4","last_reported":1728393428,"current_range_meters":30400,"station_id":"","pricing_plan_id":"cebpf4jnsgd1na2vs0mg"},{"bike_id":"c796f2d4-3bc9-4750-897d-524f0497017c","system_id":"levelo_inurba_marseille","lat":43.23965,"lon":5.36624,"is_reserved":false,"is_disabled":false,"rental_uris":{"android":"levelo://app?vid=c796f2d4-3bc9-4750-897d-524f0497017c","ios":"levelo://app?vid=c796f2d4-3bc9-4750-897d-524f0497017c"},"vehicle_type_id":"4","last_reported":1728393428,"current_range_meters":4000,"station_id":"ce4bhi12rcd13ifvqfp0","pricing_plan_id":"cebpf4jnsgd1na2vs0mg"},{"bike_id":"de29de76-cb6e-4159-b496-a41415fb52db","system_id":"levelo_inurba_marseille","lat":43.2958,"lon":5.3674,"is_reserved":false,"is_disabled":false,"rental_uris":{"android":"levelo://app?vid=de29de76-cb6e-4159-b496-a41415fb52db","ios":"levelo://app?vid=de29de76-cb6e-4159-b496-a41415fb52db"},"vehicle_type_id":"4","last_reported":1728393428,"current_range_meters":36400,"station_id":"ce4bgph2rcd13ifvqc2g","pricing_plan_id":"cebpf4jnsgd1na2vs0mg"},{"bike_id":"2bc8224e-64f6-45f5-a13f-e383a4583002","system_id":"levelo_inurba_marseille","lat":43.32339,"lon":5.40619,"is_reserved":false,"is_disabled":false,"rental_uris":{"android":"levelo://app?vid=2bc8224e-64f6-45f5-a13f-e383a4583002","ios":"levelo://app?vid=2bc8224e-64f6-45f5-a13f-e383a4583002"},"vehicle_type_id":"4","last_reported":1728393428,"current_range_meters":29600,"station_id":"ce4bhq92rcd13ifvqhjg","pricing_plan_id":"cebpf4jnsgd1na2vs0mg"},{"bike_id":"beb18f7a-c189-435a-b722-7a216f5e3950","system_id":"levelo_inurba_marseille","lat":43.24077,"lon":5.37757,"is_reserved":false,"is_disabled":false,"rental_uris":{"android":"levelo://app?vid=beb18f7a-c189-435a-b722-7a216f5e3950","ios":"levelo://app?vid=beb18f7a-c189-435a-b722-7a216f5e3950"},"vehicle_type_id":"4","last_reported":1728393428,"current_range_meters":38000,"station_id":"ce4bhnp2rcd13ifvqgvg","pricing_plan_id":"cebpf4jnsgd1na2vs0mg"},{"bike_id":"71be41e5-3ea9-405d-9b5c-c071f532b71d","system_id":"levelo_inurba_marseille","lat":43.30354,"lon":5.41872,"is_reserved":false,"is_disabled":false,"rental_uris":{"android":"levelo://app?vid=71be41e5-3ea9-405d-9b5c-c071f532b71d","ios":"levelo://app?vid=71be41e5-3ea9-405d-9b5c-c071f532b71d"},"vehicle_type_id":"4","last_reported":1728393428,"current_range_meters":37600,"station_id":"ce4bhop2rcd13ifvqh7g","pricing_plan_id":"cebpf4jnsgd1na2vs0mg"},{"bike_id":"673b4105-7056-411c-a739-bd815d7760ca","system_id":"levelo_inurba_marseille","lat":43.32363,"lon":5.38883,"is_reserved":false,"is_disabled":false,"rental_uris":{"android":"levelo://app?vid=673b4105-7056-411c-a739-bd815d7760ca","ios":"levelo://app?vid=673b4105-7056-411c-a739-bd815d7760ca"},"vehicle_type_id":"4","last_reported":1728393428,"current_range_meters":10800,"station_id":"ce4bhqp2rcd13ifvqhog","pricing_plan_id":"cebpf4jnsgd1na2vs0mg"},{"bike_id":"7a284141-427f-4b3a-b279-a9138bc649ca","system_id":"levelo_inurba_marseille","lat":43.33024,"lon":5.39041,"is_reserved":false,"is_disabled":false,"rental_uris":{"android":"levelo://app?vid=7a284141-427f-4b3a-b279-a9138bc649ca","ios":"levelo://app?vid=7a284141-427f-4b3a-b279-a9138bc649ca"},"vehicle_type_id":"4","last_reported":1728393428,"current_range_meters":36800,"station_id":"ce4bhr92rcd13ifvqhrg","pricing_plan_id":"cebpf4jnsgd1na2vs0mg"},{"bike_id":"c190b4a1-ea1d-47e2-b2e8-eefa3099f9cc","system_id":"levelo_inurba_marseille","lat":43.23198,"lon":5.35561,"is_reserved":false,"is_disabled":false,"rental_uris":{"android":"levelo://app?vid=c190b4a1-ea1d-47e2-b2e8-eefa3099f9cc","ios":"levelo://app?vid=c190b4a1-ea1d-47e2-b2e8-eefa3099f9cc"},"vehicle_type_id":"4","last_reported":1728393428,"current_range_meters":36400,"station_id":"ce4bhu92rcd13ifvqi70","pricing_plan_id":"cebpf4jnsgd1na2vs0mg"},{"bike_id":"6f34ba66-dc7e-4580-ad03-13f9f6e9f96e","system_id":"levelo_inurba_marseille","lat":43.3248,"lon":5.36563,"is_reserved":false,"is_disabled":false,"rental_uris":{"android":"levelo://app?vid=6f34ba66-dc7e-4580-ad03-13f9f6e9f96e","ios":"levelo://app?vid=6f34ba66-dc7e-4580-ad03-13f9f6e9f96e"},"vehicle_type_id":"4","last_reported":1728393428,"current_range_meters":38800,"station_id":"ce4bhs12rcd13ifvqhvg","pricing_plan_id":"cebpf4jnsgd1na2vs0mg"},{"bike_id":"ff5ba5ff-b9bc-44eb-9be7-e35bd733d917","system_id":"levelo_inurba_marseille","lat":43.24169,"lon":5.36396,"is_reserved":false,"is_disabled":false,"rental_uris":{"android":"levelo://app?vid=ff5ba5ff-b9bc-44eb-9be7-e35bd733d917","ios":"levelo://app?vid=ff5ba5ff-b9bc-44eb-9be7-e35bd733d917"},"vehicle_type_id":"4","last_reported":1728393428,"current_range_meters":36800,"station_id":"cpo36qri1sfpv3e86is0","pricing_plan_id":"cebpf4jnsgd1na2vs0mg"},{"bike_id":"92858b3e-8932-4b62-8ab8-5c65b635e7d9","system_id":"levelo_inurba_marseille","lat":43.27496,"lon":5.42454,"is_reserved":false,"is_disabled":false,"rental_uris":{"android":"levelo://app?vid=92858b3e-8932-4b62-8ab8-5c65b635e7d9","ios":"levelo://app?vid=92858b3e-8932-4b62-8ab8-5c65b635e7d9"},"vehicle_type_id":"4","last_reported":1728393428,"current_range_meters":39200,"station_id":"ce4bhn92rcd13ifvqgrg","pricing_plan_id":"cebpf4jnsgd1na2vs0mg"},{"bike_id":"1d6fe866-e5a6-4cae-9c9a-6f55815c6cc1","system_id":"levelo_inurba_marseille","lat":43.31223,"lon":5.36849,"is_reserved":false,"is_disabled":false,"rental_uris":{"android":"levelo://app?vid=1d6fe866-e5a6-4cae-9c9a-6f55815c6cc1","ios":"levelo://app?vid=1d6fe866-e5a6-4cae-9c9a-6f55815c6cc1"},"vehicle_type_id":"4","last_reported":1728393428,"current_range_meters":30800,"station_id":"ce4bgl92rcd13ifvqbq0","pricing_plan_id":"cebpf4jnsgd1na2vs0mg"},{"bike_id":"2a75358c-c53d-4d85-b84f-ba43cbf3d3c3","system_id":"levelo_inurba_marseille","lat":43.337444,"lon":5.374475,"is_reserved":false,"is_disabled":false,"rental_uris":{"android":"levelo://app?vid=2a75358c-c53d-4d85-b84f-ba43cbf3d3c3","ios":"levelo://app?vid=2a75358c-c53d-4d85-b84f-ba43cbf3d3c3"},"vehicle_type_id":"4","last_reported":1728393428,"current_range_meters":37600,"station_id":"","pricing_plan_id":"cebpf4jnsgd1na2vs0mg"},{"bike_id":"74352523-fc79-427a-86a6-ae3fd512dbc6","system_id":"levelo_inurba_marseille","lat":43.24078,"lon":5.37736,"is_reserved":false,"is_disabled":false,"rental_uris":{"android":"levelo://app?vid=74352523-fc79-427a-86a6-ae3fd512dbc6","ios":"levelo://app?vid=74352523-fc79-427a-86a6-ae3fd512dbc6"},"vehicle_type_id":"4","last_reported":1728393428,"current_range_meters":17200,"station_id":"ce4bhnp2rcd13ifvqgvg","pricing_plan_id":"cebpf4jnsgd1na2vs0mg"},{"bike_id":"fa4c4cc3-cf3f-4f9a-a727-2ef93f50288a","system_id":"levelo_inurba_marseille","lat":43.23152,"lon":5.43714,"is_reserved":false,"is_disabled":false,"rental_uris":{"android":"levelo://app?vid=fa4c4cc3-cf3f-4f9a-a727-2ef93f50288a","ios":"levelo://app?vid=fa4c4cc3-cf3f-4f9a-a727-2ef93f50288a"},"vehicle_type_id":"4","last_reported":1728393428,"current_range_meters":38800,"station_id":"ce4bhmp2rcd13ifvqgog","pricing_plan_id":"cebpf4jnsgd1na2vs0mg"},{"bike_id":"44e96d7c-26a2-4be1-a575-0ace6aa45798","system_id":"levelo_inurba_marseille","lat":43.32538,"lon":5.41424,"is_reserved":false,"is_disabled":false,"rental_uris":{"android":"levelo://app?vid=44e96d7c-26a2-4be1-a575-0ace6aa45798","ios":"levelo://app?vid=44e96d7c-26a2-4be1-a575-0ace6aa45798"},"vehicle_type_id":"4","last_reported":1728393428,"current_range_meters":12000,"station_id":"ce4bhq12rcd13ifvqhhg","pricing_plan_id":"cebpf4jnsgd1na2vs0mg"},{"bike_id":"74d9a3c9-96b5-4dbf-b3c3-81ef3a14d238","system_id":"levelo_inurba_marseille","lat":43.23149,"lon":5.4372,"is_reserved":false,"is_disabled":false,"rental_uris":{"android":"levelo://app?vid=74d9a3c9-96b5-4dbf-b3c3-81ef3a14d238","ios":"levelo://app?vid=74d9a3c9-96b5-4dbf-b3c3-81ef3a14d238"},"vehicle_type_id":"4","last_reported":1728393428,"current_range_meters":6800,"station_id":"ce4bhmp2rcd13ifvqgog","pricing_plan_id":"cebpf4jnsgd1na2vs0mg"},{"bike_id":"3c372c91-2c1d-4e56-8813-0b94655503a7","system_id":"levelo_inurba_marseille","lat":43.29984,"lon":5.37179,"is_reserved":false,"is_disabled":false,"rental_uris":{"android":"levelo://app?vid=3c372c91-2c1d-4e56-8813-0b94655503a7","ios":"levelo://app?vid=3c372c91-2c1d-4e56-8813-0b94655503a7"},"vehicle_type_id":"4","last_reported":1728393428,"current_range_meters":37600,"station_id":"ce4bgr92rcd13ifvqc7g","pricing_plan_id":"cebpf4jnsgd1na2vs0mg"},{"bike_id":"730532e3-7547-4993-87e9-9890df04a777","system_id":"levelo_inurba_marseille","lat":43.26684,"lon":5.38266,"is_reserved":false,"is_disabled":false,"rental_uris":{"android":"levelo://app?vid=730532e3-7547-4993-87e9-9890df04a777","ios":"levelo://app?vid=730532e3-7547-4993-87e9-9890df04a777"},"vehicle_type_id":"4","last_reported":1728393428,"current_range_meters":12400,"station_id":"ce4bhg92rcd13ifvqf90","pricing_plan_id":"cebpf4jnsgd1na2vs0mg"},{"bike_id":"e42026bc-1eaf-4ab0-8872-58fafaf9f081","system_id":"levelo_inurba_marseille","lat":43.27281,"lon":5.39936,"is_reserved":false,"is_disabled":false,"rental_uris":{"android":"levelo://app?vid=e42026bc-1eaf-4ab0-8872-58fafaf9f081","ios":"levelo://app?vid=e42026bc-1eaf-4ab0-8872-58fafaf9f081"},"vehicle_type_id":"4","last_reported":1728393428,"current_range_meters":30000,"station_id":"","pricing_plan_id":"cebpf4jnsgd1na2vs0mg"},{"bike_id":"0a574f35-4326-48c6-b4f6-ce9737ecfe71","system_id":"levelo_inurba_marseille","lat":43.30433,"lon":5.38887,"is_reserved":false,"is_disabled":false,"rental_uris":{"android":"levelo://app?vid=0a574f35-4326-48c6-b4f6-ce9737ecfe71","ios":"levelo://app?vid=0a574f35-4326-48c6-b4f6-ce9737ecfe71"},"vehicle_type_id":"4","last_reported":1728393428,"current_range_meters":39200,"station_id":"ce4bgk12rcd13ifvqbi0","pricing_plan_id":"cebpf4jnsgd1na2vs0mg"},{"bike_id":"69cddfa3-b348-45c9-8947-c82e447396aa","system_id":"levelo_inurba_marseille","lat":43.31228,"lon":5.36851,"is_reserved":false,"is_disabled":false,"rental_uris":{"android":"levelo://app?vid=69cddfa3-b348-45c9-8947-c82e447396aa","ios":"levelo://app?vid=69cddfa3-b348-45c9-8947-c82e447396aa"},"vehicle_type_id":"4","last_reported":1728393428,"current_range_meters":3200,"station_id":"ce4bgl92rcd13ifvqbq0","pricing_plan_id":"cebpf4jnsgd1na2vs0mg"},{"bike_id":"5ac37687-3953-4e87-ab18-4615269211df","system_id":"levelo_inurba_marseille","lat":43.29622,"lon":5.37161,"is_reserved":false,"is_disabled":false,"rental_uris":{"android":"levelo://app?vid=5ac37687-3953-4e87-ab18-4615269211df","ios":"levelo://app?vid=5ac37687-3953-4e87-ab18-4615269211df"},"vehicle_type_id":"4","last_reported":1728393428,"current_range_meters":32400,"station_id":"ce4bgnh2rcd13ifvqc0g","pricing_plan_id":"cebpf4jnsgd1na2vs0mg"},{"bike_id":"dafbe001-ebbb-4e98-b3d7-c871b5fc47e0","system_id":"levelo_inurba_marseille","lat":43.3134,"lon":5.36717,"is_reserved":false,"is_disabled":false,"rental_uris":{"android":"levelo://app?vid=dafbe001-ebbb-4e98-b3d7-c871b5fc47e0","ios":"levelo://app?vid=dafbe001-ebbb-4e98-b3d7-c871b5fc47e0"},"vehicle_type_id":"4","last_reported":1728393428,"current_range_meters":30000,"station_id":"ce4bgr92rcd13ifvqc6g","pricing_plan_id":"cebpf4jnsgd1na2vs0mg"},{"bike_id":"79f12c1b-c99b-408b-b988-55b5506dd72b","system_id":"levelo_inurba_marseille","lat":43.30327,"lon":5.40436,"is_reserved":false,"is_disabled":false,"rental_uris":{"android":"levelo://app?vid=79f12c1b-c99b-408b-b988-55b5506dd72b","ios":"levelo://app?vid=79f12c1b-c99b-408b-b988-55b5506dd72b"},"vehicle_type_id":"4","last_reported":1728393428,"current_range_meters":38000,"station_id":"ce4bh012rcd13ifvqd10","pricing_plan_id":"cebpf4jnsgd1na2vs0mg"},{"bike_id":"ec17a668-5085-45ed-ae72-ebb2103aa5e5","system_id":"levelo_inurba_marseille","lat":43.25812,"lon":5.39417,"is_reserved":false,"is_disabled":false,"rental_uris":{"android":"levelo://app?vid=ec17a668-5085-45ed-ae72-ebb2103aa5e5","ios":"levelo://app?vid=ec17a668-5085-45ed-ae72-ebb2103aa5e5"},"vehicle_type_id":"4","last_reported":1728393428,"current_range_meters":36800,"station_id":"ce4bhip2rcd13ifvqft0","pricing_plan_id":"cebpf4jnsgd1na2vs0mg"},{"bike_id":"669fe7e6-124f-4e15-b926-4fdbc66bdd5c","system_id":"levelo_inurba_marseille","lat":43.29597,"lon":5.38099,"is_reserved":false,"is_disabled":false,"rental_uris":{"android":"levelo://app?vid=669fe7e6-124f-4e15-b926-4fdbc66bdd5c","ios":"levelo://app?vid=669fe7e6-124f-4e15-b926-4fdbc66bdd5c"},"vehicle_type_id":"4","last_reported":1728393428,"current_range_meters":20000,"station_id":"ce4bgl12rcd13ifvqbo0","pricing_plan_id":"cebpf4jnsgd1na2vs0mg"},{"bike_id":"7f93f468-9346-4601-93c4-3ac20bfa3325","system_id":"levelo_inurba_marseille","lat":43.28712,"lon":5.37942,"is_reserved":false,"is_disabled":false,"rental_uris":{"android":"levelo://app?vid=7f93f468-9346-4601-93c4-3ac20bfa3325","ios":"levelo://app?vid=7f93f468-9346-4601-93c4-3ac20bfa3325"},"vehicle_type_id":"4","last_reported":1728393428,"current_range_meters":39200,"station_id":"ce4bh9p2rcd13ifvqec0","pricing_plan_id":"cebpf4jnsgd1na2vs0mg"},{"bike_id":"7835ccc4-dc46-4842-84a8-a5c2e837c5e6","system_id":"levelo_inurba_marseille","lat":43.26035,"lon":5.3755,"is_reserved":false,"is_disabled":false,"rental_uris":{"android":"levelo://app?vid=7835ccc4-dc46-4842-84a8-a5c2e837c5e6","ios":"levelo://app?vid=7835ccc4-dc46-4842-84a8-a5c2e837c5e6"},"vehicle_type_id":"4","last_reported":1728393428,"current_range_meters":39200,"station_id":"ce4bhgh2rcd13ifvqfa0","pricing_plan_id":"cebpf4jnsgd1na2vs0mg"},{"bike_id":"89323adc-67ad-479c-bd6d-b95120522de9","system_id":"levelo_inurba_marseille","lat":43.28726,"lon":5.36093,"is_reserved":false,"is_disabled":false,"rental_uris":{"android":"levelo://app?vid=89323adc-67ad-479c-bd6d-b95120522de9","ios":"levelo://app?vid=89323adc-67ad-479c-bd6d-b95120522de9"},"vehicle_type_id":"4","last_reported":1728393428,"current_range_meters":38800,"station_id":"cki0cbj6b192h4jlfktg","pricing_plan_id":"cebpf4jnsgd1na2vs0mg"},{"bike_id":"f236458b-a68f-4be5-ae65-f5ccd4ea25a1","system_id":"levelo_inurba_marseille","lat":43.31996,"lon":5.3815,"is_reserved":false,"is_disabled":false,"rental_uris":{"android":"levelo://app?vid=f236458b-a68f-4be5-ae65-f5ccd4ea25a1","ios":"levelo://app?vid=f236458b-a68f-4be5-ae65-f5ccd4ea25a1"},"vehicle_type_id":"4","last_reported":1728393428,"current_range_meters":39200,"station_id":"ce4bhr12rcd13ifvqhpg","pricing_plan_id":"cebpf4jnsgd1na2vs0mg"},{"bike_id":"404b4697-2249-46d0-afb0-44351c2d122f","system_id":"levelo_inurba_marseille","lat":43.29552,"lon":5.42295,"is_reserved":false,"is_disabled":false,"rental_uris":{"android":"levelo://app?vid=404b4697-2249-46d0-afb0-44351c2d122f","ios":"levelo://app?vid=404b4697-2249-46d0-afb0-44351c2d122f"},"vehicle_type_id":"4","last_reported":1728393428,"current_range_meters":16800,"station_id":"ce4bhph2rcd13ifvqhdg","pricing_plan_id":"cebpf4jnsgd1na2vs0mg"},{"bike_id":"68b3b584-054f-4195-be53-cafb573c46a5","system_id":"levelo_inurba_marseille","lat":43.28848,"lon":5.39309,"is_reserved":false,"is_disabled":false,"rental_uris":{"android":"levelo://app?vid=68b3b584-054f-4195-be53-cafb573c46a5","ios":"levelo://app?vid=68b3b584-054f-4195-be53-cafb573c46a5"},"vehicle_type_id":"4","last_reported":1728393428,"current_range_meters":28800,"station_id":"ce4bh2p2rcd13ifvqdi0","pricing_plan_id":"cebpf4jnsgd1na2vs0mg"},{"bike_id":"b625834a-54ef-4eab-8c9d-e8c85e149a97","system_id":"levelo_inurba_marseille","lat":43.31081,"lon":5.4243,"is_reserved":false,"is_disabled":false,"rental_uris":{"android":"levelo://app?vid=b625834a-54ef-4eab-8c9d-e8c85e149a97","ios":"levelo://app?vid=b625834a-54ef-4eab-8c9d-e8c85e149a97"},"vehicle_type_id":"4","last_reported":1728393428,"current_range_meters":37600,"station_id":"ce4bhp92rcd13ifvqhag","pricing_plan_id":"cebpf4jnsgd1na2vs0mg"},{"bike_id":"d5c4ef42-f49e-4132-8030-e662853db584","system_id":"levelo_inurba_marseille","lat":43.25582,"lon":5.38234,"is_reserved":false,"is_disabled":false,"rental_uris":{"android":"levelo://app?vid=d5c4ef42-f49e-4132-8030-e662853db584","ios":"levelo://app?vid=d5c4ef42-f49e-4132-8030-e662853db584"},"vehicle_type_id":"4","last_reported":1728393428,"current_range_meters":36400,"station_id":"ce4bhih2rcd13ifvqfs0","pricing_plan_id":"cebpf4jnsgd1na2vs0mg"},{"bike_id":"d4b41b5a-4cec-47fc-8b0f-4ee889ae7964","system_id":"levelo_inurba_marseille","lat":43.31216,"lon":5.36853,"is_reserved":false,"is_disabled":false,"rental_uris":{"android":"levelo://app?vid=d4b41b5a-4cec-47fc-8b0f-4ee889ae7964","ios":"levelo://app?vid=d4b41b5a-4cec-47fc-8b0f-4ee889ae7964"},"vehicle_type_id":"4","last_reported":1728393428,"current_range_meters":28400,"station_id":"ce4bgl92rcd13ifvqbq0","pricing_plan_id":"cebpf4jnsgd1na2vs0mg"},{"bike_id":"23ec937b-eeb6-4dbb-acb6-a406a9e18fdd","system_id":"levelo_inurba_marseille","lat":43.290334,"lon":5.375192,"is_reserved":false,"is_disabled":false,"rental_uris":{"android":"levelo://app?vid=23ec937b-eeb6-4dbb-acb6-a406a9e18fdd","ios":"levelo://app?vid=23ec937b-eeb6-4dbb-acb6-a406a9e18fdd"},"vehicle_type_id":"4","last_reported":1728393428,"current_range_meters":30800,"station_id":"ce4bh692rcd13ifvqe90","pricing_plan_id":"cebpf4jnsgd1na2vs0mg"},{"bike_id":"b866e855-a922-48ce-9405-a60438ec022e","system_id":"levelo_inurba_marseille","lat":43.299,"lon":5.3814,"is_reserved":false,"is_disabled":false,"rental_uris":{"android":"levelo://app?vid=b866e855-a922-48ce-9405-a60438ec022e","ios":"levelo://app?vid=b866e855-a922-48ce-9405-a60438ec022e"},"vehicle_type_id":"4","last_reported":1728393428,"current_range_meters":36400,"station_id":"ce4bgj12rcd13ifvqbc0","pricing_plan_id":"cebpf4jnsgd1na2vs0mg"},{"bike_id":"27dd2239-65c0-41ce-a52f-058e5a039e0d","system_id":"levelo_inurba_marseille","lat":43.30427,"lon":5.39744,"is_reserved":false,"is_disabled":false,"rental_uris":{"android":"levelo://app?vid=27dd2239-65c0-41ce-a52f-058e5a039e0d","ios":"levelo://app?vid=27dd2239-65c0-41ce-a52f-058e5a039e0d"},"vehicle_type_id":"4","last_reported":1728393428,"current_range_meters":38800,"station_id":"ce4bh092rcd13ifvqd20","pricing_plan_id":"cebpf4jnsgd1na2vs0mg"},{"bike_id":"8b2ae2e2-bf8c-4445-8c58-4af37144e487","system_id":"levelo_inurba_marseille","lat":43.32484,"lon":5.36571,"is_reserved":false,"is_disabled":false,"rental_uris":{"android":"levelo://app?vid=8b2ae2e2-bf8c-4445-8c58-4af37144e487","ios":"levelo://app?vid=8b2ae2e2-bf8c-4445-8c58-4af37144e487"},"vehicle_type_id":"4","last_reported":1728393428,"current_range_meters":32800,"station_id":"ce4bhs12rcd13ifvqhvg","pricing_plan_id":"cebpf4jnsgd1na2vs0mg"},