{"last_updated":1706418445,"ttl":30,"version":"2.2","data":{"bikes":[{"bike_id":"5fe6d8d7-76e9-461f-a01d-29cd385680dd","system_id":"levelo_inurba_marseille","lat":43.312239,"lon":5.368562,"is_reserved":false,"is_disabled":false,"rental_uris":{"android":"levelo://app?vid=5fe6d8d7-76e9-461f-a01d-29cd385680dd","ios":"levelo://app?vid=5fe6d8d7-76e9-461f-a01d-29cd385680dd"},"vehicle_type_id":"4","last_reported":1706418445,"current_range_meters":26800,"station_id":"ce4bgl92rcd13ifvqbq0","pricing_plan_id":"free"},{"bike_id":"b1a565b2-1faf-4cef-86e8-62232c821183","system_id":"levelo_inurba_marseille","lat":43.309076,"lon":5.368465,"is_reserved":false,"is_disabled":false,"rental_uris":{"android":"levelo://app?vid=b1a565b2-1faf-4cef-86e8-62232c821183","ios":"levelo://app?vid=b1a565b2-1faf-4cef-86e8-62232c821183"},"vehicle_type_id":"4","last_reported":1706418445,"current_range_meters":25200,"station_id":"ce4bgn92rcd13ifvqbvg","pricing_plan_id":"free"},{"bike_id":"9fbd1394-f62b-4f2a-b775-769726bec851","system_id":"levelo_inurba_marseille","lat":43.314811,"lon":5.373103,"is_reserved":false,"is_disabled":false,"rental_uris":{"android":"levelo://app?vid=9fbd1394-f62b-4f2a-b775-769726bec851","ios":"levelo://app?vid=9fbd1394-f62b-4f2a-b775-769726bec851"},"vehicle_type_id":"4","last_reported":1706418445,"current_range_meters":31600,"station_id":"ce4bgt12rcd13ifvqcd0","pricing_plan_id":"free"},{"bike_id":"a8ab23e8-1be9-448a-90f7-58b9fadc1511","system_id":"levelo_inurba_marseille","lat":43.314811,"lon":5.373103,"is_reserved":false,"is_disabled":false,"rental_uris":{"android":"levelo://app?vid=a8ab23e8-1be9-448a-90f7-58b9fadc1511","ios":"levelo://app?vid=a8ab23e8-1be9-448a-90f7-58b9fadc1511"},"vehicle_type_id":"4","last_reported":1706418445,"current_range_meters":29200,"station_id":"ce4bgt12rcd13ifvqcd0","pricing_plan_id":"free"},{"bike_id":"3d15222e-d116-4806-8173-ed20829aa86b","system_id":"levelo_inurba_marseille","lat":43.314811,"lon":5.373104,"is_reserved":false,"is_disabled":false,"rental_uris":{"android":"levelo://app?vid=3d15222e-d116-4806-8173-ed20829aa86b","ios":"levelo://app?vid=3d15222e-d116-4806-8173-ed20829aa86b"},"vehicle_type_id":"4","last_reported":1706418445,"current_range_meters":3200,"station_id":"ce4bgt12rcd13ifvqcd0","pricing_plan_id":"free"},{"bike_id":"c5070563-51ee-452b-a1d8-1f9664cbb6b9","system_id":"levelo_inurba_marseille","lat":43.314811,"lon":5.373103,"is_reserved":false,"is_disabled":false,"rental_uris":{"android":"levelo://app?vid=c5070563-51ee-452b-a1d8-1f9664cbb6b9","ios":"levelo://app?vid=c5070563-51ee-452b-a1d8-1f9664cbb6b9"},"vehicle_type_id":"4","last_reported":1706418445,"current_range_meters":27200,"station_id":"ce4bgt12rcd13ifvqcd0","pricing_plan_id":"free"},{"bike_id":"8ced2901-be8f-47eb-92cd-d368d32b4755","system_id":"levelo_inurba_marseille","lat":43.314811,"lon":5.373103,"is_reserved":false,"is_disabled":false,"rental_uris":{"android":"levelo://app?vid=8ced2901-be8f-47eb-92cd-d368d32b4755","ios":"levelo://app?vid=8ced2901-be8f-47eb-92cd-d368d32b4755"},"vehicle_type_id":"4","last_reported":1706418445,"current_range_meters":31600,"station_id":"ce4bgt12rcd13ifvqcd0","pricing_plan_id":"free"},{"bike_id":"0bff1dd7-d588-44f6-9d74-e9040ba27bb7","system_id":"levelo_inurba_marseille","lat":43.314811,"lon":5.373103,"is_reserved":false,"is_disabled":false,"rental_uris":{"android":"levelo://app?vid=0bff1dd7-d588-44f6-9d74-e9040ba27bb7","ios":"levelo://app?vid=0bff1dd7-d588-44f6-9d74-e9040ba27bb7"},"vehicle_type_id":"4","last_reported":1706418445,"current_range_meters":17200,"station_id":"ce4bgt12rcd13ifvqcd0","pricing_plan_id":"free"},{"bike_id":"1a3d829b-da0a-440e-bd77-4996fdba56bf","system_id":"levelo_inurba_marseille","lat":43.314811,"lon":5.373104,"is_reserved":false,"is_disabled":false,"rental_uris":{"android":"levelo://app?vid=1a3d829b-da0a-440e-bd77-4996fdba56bf","ios":"levelo://app?vid=1a3d829b-da0a-440e-bd77-4996fdba56bf"},"vehicle_type_id":"4","last_reported":1706418445,"current_range_meters":23600,"station_id":"ce4bgt12rcd13ifvqcd0","pricing_plan_id":"free"},{"bike_id":"0c879c7c-b478-4341-b557-d8fa9e7ce411","system_id":"levelo_inurba_marseille","lat":43.314811,"lon":5.373104,"is_reserved":false,"is_disabled":false,"rental_uris":{"android":"levelo://app?vid=0c879c7c-b478-4341-b557-d8fa9e7ce411","ios":"levelo://app?vid=0c879c7c-b478-4341-b557-d8fa9e7ce411"},"vehicle_type_id":"4","last_reported":1706418445,"current_range_meters":30000,"station_id":"ce4bgt12rcd13ifvqcd0","pricing_plan_id":"free"},{"bike_id":"cf666fee-9862-40f0-8271-74852148745c","system_id":"levelo_inurba_marseille","lat":43.309039,"lon":5.371797,"is_reserved":false,"is_disabled":false,"rental_uris":{"android":"levelo://app?vid=cf666fee-9862-40f0-8271-74852148745c","ios":"levelo://app?vid=cf666fee-9862-40f0-8271-74852148745c"},"vehicle_type_id":"4","last_reported":1706418445,"current_range_meters":31200,"station_id":"ce4bguh2rcd13ifvqckg","pricing_plan_id":"free"},{"bike_id":"ff6c1c25-8287-4f32-9d54-133fa7cb156b","system_id":"levelo_inurba_marseille","lat":43.309039,"lon":5.371797,"is_reserved":false,"is_disabled":false,"rental_uris":{"android":"levelo://app?vid=ff6c1c25-8287-4f32-9d54-133fa7cb156b","ios":"levelo://app?vid=ff6c1c25-8287-4f32-9d54-133fa7cb156b"},"vehicle_type_id":"4","last_reported":1706418445,"current_range_meters":28400,"station_id":"ce4bguh2rcd13ifvqckg","pricing_plan_id":"free"},{"bike_id":"908da375-d874-4c63-a2a2-6983b6a4fe17","system_id":"levelo_inurba_marseille","lat":43.305368,"lon":5.367343,"is_reserved":false,"is_disabled":false,"rental_uris":{"android":"levelo://app?vid=908da375-d874-4c63-a2a2-6983b6a4fe17","ios":"levelo://app?vid=908da375-d874-4c63-a2a2-6983b6a4fe17"},"vehicle_type_id":"4","last_reported":1706418445,"current_range_meters":18400,"station_id":"ce4bgrp2rcd13ifvqc9g","pricing_plan_id":"free"},{"bike_id":"7d034e6f-21a5-4e2f-bf5e-3f1ebc8c0d4a","system_id":"levelo_inurba_marseille","lat":43.311125,"lon":5.377624,"is_reserved":false,"is_disabled":false,"rental_uris":{"android":"levelo://app?vid=7d034e6f-21a5-4e2f-bf5e-3f1ebc8c0d4a","ios":"levelo://app?vid=7d034e6f-21a5-4e2f-bf5e-3f1ebc8c0d4a"},"vehicle_type_id":"4","last_reported":1706418445,"current_range_meters":12000,"station_id":"ce4bgt92rcd13ifvqcg0","pricing_plan_id":"free"},{"bike_id":"da184317-2c21-476e-b578-c9a40d3883c2","system_id":"levelo_inurba_marseille","lat":43.31113,"lon":5.37766,"is_reserved":false,"is_disabled":false,"rental_uris":{"android":"levelo://app?vid=da184317-2c21-476e-b578-c9a40d3883c2","ios":"levelo://app?vid=da184317-2c21-476e-b578-c9a40d3883c2"},"vehicle_type_id":"4","last_reported":1706418445,"current_range_meters":0,"station_id":"ce4bgt92rcd13ifvqcg0","pricing_plan_id":"free"},{"bike_id":"ea44dfca-f4ac-450b-b546-fc8d91d4136b","system_id":"levelo_inurba_marseille","lat":43.30783,"lon":5.3764,"is_reserved":false,"is_disabled":false,"rental_uris":{"android":"levelo://app?vid=ea44dfca-f4ac-450b-b546-fc8d91d4136b","ios":"levelo://app?vid=ea44dfca-f4ac-450b-b546-fc8d91d4136b"},"vehicle_type_id":"4","last_reported":1706418445,"current_range_meters":11600,"station_id":"ce4bgv92rcd13ifvqcq0","pricing_plan_id":"free"},{"bike_id":"3d20d9c4-7385-4dad-81ad-1e14e934ea85","system_id":"levelo_inurba_marseille","lat":43.30792,"lon":5.37656,"is_reserved":false,"is_disabled":false,"rental_uris":{"android":"levelo://app?vid=3d20d9c4-7385-4dad-81ad-1e14e934ea85","ios":"levelo://app?vid=3d20d9c4-7385-4dad-81ad-1e14e934ea85"},"vehicle_type_id":"4","last_reported":1706418445,"current_range_meters":8400,"station_id":"ce4bgv92rcd13ifvqcq0","pricing_plan_id":"free"},{"bike_id":"bff2f768-032b-40b3-bc87-f4d05864a143","system_id":"levelo_inurba_marseille","lat":43.307945,"lon":5.376487,"is_reserved":false,"is_disabled":false,"rental_uris":{"android":"levelo://app?vid=bff2f768-032b-40b3-bc87-f4d05864a143","ios":"levelo://app?vid=bff2f768-032b-40b3-bc87-f4d05864a143"},"vehicle_type_id":"4","last_reported":1706418445,"current_range_meters":24800,"station_id":"ce4bgv92rcd13ifvqcq0","pricing_plan_id":"free"},{"bike_id":"386f9084-6bdf-4086-9339-59c7928794bf","system_id":"levelo_inurba_marseille","lat":43.307945,"lon":5.376487,"is_reserved":false,"is_disabled":false,"rental_uris":{"android":"levelo://app?vid=386f9084-6bdf-4086-9339-59c7928794bf","ios":"levelo://app?vid=386f9084-6bdf-4086-9339-59c7928794bf"},"vehicle_type_id":"4","last_reported":1706418445,"current_range_meters":15600,"station_id":"ce4bgv92rcd13ifvqcq0","pricing_plan_id":"free"},{"bike_id":"d3314d46-374b-47d7-a330-fbb85ff3b132","system_id":"levelo_inurba_marseille","lat":43.307945,"lon":5.376487,"is_reserved":false,"is_disabled":false,"rental_uris":{"android":"levelo://app?vid=d3314d46-374b-47d7-a330-fbb85ff3b132","ios":"levelo://app?vid=d3314d46-374b-47d7-a330-fbb85ff3b132"},"vehicle_type_id":"4","last_reported":1706418445,"current_range_meters":16000,"station_id":"ce4bgv92rcd13ifvqcq0","pricing_plan_id":"free"},{"bike_id":"f0c31732-301a-4d0f-9fd3-25ad0ecb4b3c","system_id":"levelo_inurba_marseille","lat":43.317075,"lon":5.377367,"is_reserved":false,"is_disabled":false,"rental_uris":{"android":"levelo://app?vid=f0c31732-301a-4d0f-9fd3-25ad0ecb4b3c","ios":"levelo://app?vid=f0c31732-301a-4d0f-9fd3-25ad0ecb4b3c"},"vehicle_type_id":"4","last_reported":1706418445,"current_range_meters":10800,"station_id":"ce4bgth2rcd13ifvqch0","pricing_plan_id":"free"},{"bike_id":"6fff0b7d-2514-4e0c-a138-b6e9cb85be95","system_id":"levelo_inurba_marseille","lat":43.317075,"lon":5.377367,"is_reserved":false,"is_disabled":false,"rental_uris":{"android":"levelo://app?vid=6fff0b7d-2514-4e0c-a138-b6e9cb85be95","ios":"levelo://app?vid=6fff0b7d-2514-4e0c-a138-b6e9cb85be95"},"vehicle_type_id":"4","last_reported":1706418445,"current_range_meters":31600,"station_id":"ce4bgth2rcd13ifvqch0","pricing_plan_id":"free"},{"bike_id":"bf70306f-e475-47ca-8724-a7e42b25d923","system_id":"levelo_inurba_marseille","lat":43.317075,"lon":5.377367,"is_reserved":false,"is_disabled":false,"rental_uris":{"android":"levelo://app?vid=bf70306f-e475-47ca-8724-a7e42b25d923","ios":"levelo://app?vid=bf70306f-e475-47ca-8724-a7e42b25d923"},"vehicle_type_id":"4","last_reported":1706418445,"current_range_meters":30400,"station_id":"ce4bgth2rcd13ifvqch0","pricing_plan_id":"free"},{"bike_id":"4805029b-b495-4c2a-9699-25b9c84d94f3","system_id":"levelo_inurba_marseille","lat":43.317075,"lon":5.377367,"is_reserved":false,"is_disabled":false,"rental_uris":{"android":"levelo://app?vid=4805029b-b495-4c2a-9699-25b9c84d94f3","ios":"levelo://app?vid=4805029b-b495-4c2a-9699-25b9c84d94f3"},"vehicle_type_id":"4","last_reported":1706418445,"current_range_meters":24000,"station_id":"ce4bgth2rcd13ifvqch0","pricing_plan_id":"free"},{"bike_id":"e6c874a7-4c53-46c7-b3b9-101410bd4b5b","system_id":"levelo_inurba_marseille","lat":43.317075,"lon":5.377367,"is_reserved":false,"is_disabled":false,"rental_uris":{"android":"levelo://app?vid=e6c874a7-4c53-46c7-b3b9-101410bd4b5b","ios":"levelo://app?vid=e6c874a7-4c53-46c7-b3b9-101410bd4b5b"},"vehicle_type_id":"4","last_reported":1706418445,"current_range_meters":27200,"station_id":"ce4bgth2rcd13ifvqch0","pricing_plan_id":"free"},{"bike_id":"9f86dc43-ecdf-45da-bab2-1f4d50f10dcd","system_id":"levelo_inurba_marseille","lat":43.30302,"lon":5.36896,"is_reserved":false,"is_disabled":false,"rental_uris":{"android":"levelo://app?vid=9f86dc43-ecdf-45da-bab2-1f4d50f10dcd","ios":"levelo://app?vid=9f86dc43-ecdf-45da-bab2-1f4d50f10dcd"},"vehicle_type_id":"4","last_reported":1706418445,"current_range_meters":22000,"station_id":"ce4bgqh2rcd13ifvqc5g","pricing_plan_id":"free"},{"bike_id":"b83daeb9-a39c-4884-86e2-16a37c651f7f","system_id":"levelo_inurba_marseille","lat":43.32002,"lon":5.376192,"is_reserved":false,"is_disabled":false,"rental_uris":{"android":"levelo://app?vid=b83daeb9-a39c-4884-86e2-16a37c651f7f","ios":"levelo://app?vid=b83daeb9-a39c-4884-86e2-16a37c651f7f"},"vehicle_type_id":"4","last_reported":1706418445,"current_range_meters":7600,"station_id":"","pricing_plan_id":"free"},{"bike_id":"2b9973b9-e21f-458a-9e13-6cc909633bbf","system_id":"levelo_inurba_marseille","lat":43.315344,"lon":5.380327,"is_reserved":false,"is_disabled":false,"rental_uris":{"android":"levelo://app?vid=2b9973b9-e21f-458a-9e13-6cc909633bbf","ios":"levelo://app?vid=2b9973b9-e21f-458a-9e13-6cc909633bbf"},"vehicle_type_id":"4","last_reported":1706418445,"current_range_meters":0,"station_id":"ce4bhsp2rcd13ifvqi50","pricing_plan_id":"free"},{"bike_id":"87925675-054b-44af-85e0-866843b85e48","system_id":"levelo_inurba_marseille","lat":43.301939,"lon":5.366286,"is_reserved":false,"is_disabled":false,"rental_uris":{"android":"levelo://app?vid=87925675-054b-44af-85e0-866843b85e48","ios":"levelo://app?vid=87925675-054b-44af-85e0-866843b85e48"},"vehicle_type_id":"4","last_reported":1706418445,"current_range_meters":20000,"station_id":"ce4bgrh2rcd13ifvqc8g","pricing_plan_id":"free"},{"bike_id":"958a2925-6dcb-47ab-a9cd-6207e72b0f7e","system_id":"levelo_inurba_marseille","lat":43.308012,"lon":5.381511,"is_reserved":false,"is_disabled":false,"rental_uris":{"android":"levelo://app?vid=958a2925-6dcb-47ab-a9cd-6207e72b0f7e","ios":"levelo://app?vid=958a2925-6dcb-47ab-a9cd-6207e72b0f7e"},"vehicle_type_id":"4","last_reported":1706418445,"current_range_meters":0,"station_id":"ce4bgt12rcd13ifvqce0","pricing_plan_id":"free"},{"bike_id":"335a9ee8-f4a4-47f3-865a-f8ddf92de82a","system_id":"levelo_inurba_marseille","lat":43.30464,"lon":5.37902,"is_reserved":false,"is_disabled":false,"rental_uris":{"android":"levelo://app?vid=335a9ee8-f4a4-47f3-865a-f8ddf92de82a","ios":"levelo://app?vid=335a9ee8-f4a4-47f3-865a-f8ddf92de82a"},"vehicle_type_id":"4","last_reported":1706418445,"current_range_meters":21600,"station_id":"ce4bgup2rcd13ifvqcn0","pricing_plan_id":"free"},{"bike_id":"6eab842e-b4d3-4192-8008-085b6fd96870","system_id":"levelo_inurba_marseille","lat":43.304606,"lon":5.379026,"is_reserved":false,"is_disabled":false,"rental_uris":{"android":"levelo://app?vid=6eab842e-b4d3-4192-8008-085b6fd96870","ios":"levelo://app?vid=6eab842e-b4d3-4192-8008-085b6fd96870"},"vehicle_type_id":"4","last_reported":1706418445,"current_range_meters":24400,"station_id":"ce4bgup2rcd13ifvqcn0","pricing_plan_id":"free"},{"bike_id":"4d7dadf6-10bf-4195-8d6b-b932af872d23","system_id":"levelo_inurba_marseille","lat":43.30459,"lon":5.37905,"is_reserved":false,"is_disabled":false,"rental_uris":{"android":"levelo://app?vid=4d7dadf6-10bf-4195-8d6b-b932af872d23","ios":"levelo://app?vid=4d7dadf6-10bf-4195-8d6b-b932af872d23"},"vehicle_type_id":"4","last_reported":1706418445,"current_range_meters":2000,"station_id":"ce4bgup2rcd13ifvqcn0","pricing_plan_id":"free"},{"bike_id":"dc00bdf8-dc57-4b02-8d44-8ea4906debe3","system_id":"levelo_inurba_marseille","lat":43.324771,"lon":5.36557,"is_reserved":false,"is_disabled":false,"rental_uris":{"android":"levelo://app?vid=dc00bdf8-dc57-4b02-8d44-8ea4906debe3","ios":"levelo://app?vid=dc00bdf8-dc57-4b02-8d44-8ea4906debe3"},"vehicle_type_id":"4","last_reported":1706418445,"current_range_meters":6800,"station_id":"ce4bhs12rcd13ifvqhvg","pricing_plan_id":"free"},{"bike_id":"3a3a59d3-87fb-406b-bb04-d1c39f656673","system_id":"levelo_inurba_marseille","lat":43.324771,"lon":5.36557,"is_reserved":false,"is_disabled":false,"rental_uris":{"android":"levelo://app?vid=3a3a59d3-87fb-406b-bb04-d1c39f656673","ios":"levelo://app?vid=3a3a59d3-87fb-406b-bb04-d1c39f656673"},"vehicle_type_id":"4","last_reported":1706418445,"current_range_meters":3600,"station_id":"ce4bhs12rcd13ifvqhvg","pricing_plan_id":"free"},{"bike_id":"1aa02228-2f1b-463e-8efd-48a87ba76624","system_id":"levelo_inurba_marseille","lat":43.324771,"lon":5.36557,"is_reserved":false,"is_disabled":false,"rental_uris":{"android":"levelo://app?vid=1aa02228-2f1b-463e-8efd-48a87ba76624","ios":"levelo://app?vid=1aa02228-2f1b-463e-8efd-48a87ba76624"},"vehicle_type_id":"4","last_reported":1706418445,"current_range_meters":4800,"station_id":"ce4bhs12rcd13ifvqhvg","pricing_plan_id":"free"},{"bike_id":"572ead1e-c9a7-4b4c-9333-47a5d41db3fb","system_id":"levelo_inurba_marseille","lat":43.301429,"lon":5.37413,"is_reserved":false,"is_disabled":false,"rental_uris":{"android":"levelo://app?vid=572ead1e-c9a7-4b4c-9333-47a5d41db3fb","ios":"levelo://app?vid=572ead1e-c9a7-4b4c-9333-47a5d41db3fb"},"vehicle_type_id":"4","last_reported":1706418445,"current_range_meters":24400,"station_id":"ce4bgs92rcd13ifvqcc0","pricing_plan_id":"free"},{"bike_id":"30a02579-630f-400c-86e8-710edbd1d15a","system_id":"levelo_inurba_marseille","lat":43.302784,"lon":5.377158,"is_reserved":false,"is_disabled":false,"rental_uris":{"android":"levelo://app?vid=30a02579-630f-400c-86e8-710edbd1d15a","ios":"levelo://app?vid=30a02579-630f-400c-86e8-710edbd1d15a"},"vehicle_type_id":"4","last_reported":1706418445,"current_range_meters":20800,"station_id":"ce4bguh2rcd13ifvqcj0","pricing_plan_id":"free"},{"bike_id":"d1379e4f-9f76-496d-aef7-4d8e0817a0bd","system_id":"levelo_inurba_marseille","lat":43.301832,"lon":5.375572,"is_reserved":false,"is_disabled":false,"rental_uris":{"android":"levelo://app?vid=d1379e4f-9f76-496d-aef7-4d8e0817a0bd","ios":"levelo://app?vid=d1379e4f-9f76-496d-aef7-4d8e0817a0bd"},"vehicle_type_id":"4","last_reported":1706418445,"current_range_meters":22400,"station_id":"","pricing_plan_id":"free"},{"bike_id":"6c121b79-46d9-4eb0-b3b6-ae9fe8e5830e","system_id":"levelo_inurba_marseille","lat":43.319935,"lon":5.381699,"is_reserved":false,"is_disabled":false,"rental_uris":{"android":"levelo://app?vid=6c121b79-46d9-4eb0-b3b6-ae9fe8e5830e","ios":"levelo://app?vid=6c121b79-46d9-4eb0-b3b6-ae9fe8e5830e"},"vehicle_type_id":"4","last_reported":1706418445,"current_range_meters":6000,"station_id":"ce4bhr12rcd13ifvqhpg","pricing_plan_id":"free"},{"bike_id":"2fa4cada-2396-49f4-a4f6-986dc36c82d3","system_id":"levelo_inurba_marseille","lat":43.313571,"lon":5.384829,"is_reserved":false,"is_disabled":false,"rental_uris":{"android":"levelo://app?vid=2fa4cada-2396-49f4-a4f6-986dc36c82d3","ios":"levelo://app?vid=2fa4cada-2396-49f4-a4f6-986dc36c82d3"},"vehicle_type_id":"4","last_reported":1706418445,"current_range_meters":26800,"station_id":"ce4bgt92rcd13ifvqcf0","pricing_plan_id":"free"},{"bike_id":"5695d3d6-2009-4498-b4a6-e5fca3b03314","system_id":"levelo_inurba_marseille","lat":43.30526,"lon":5.38433,"is_reserved":false,"is_disabled":false,"rental_uris":{"android":"levelo://app?vid=5695d3d6-2009-4498-b4a6-e5fca3b03314","ios":"levelo://app?vid=5695d3d6-2009-4498-b4a6-e5fca3b03314"},"vehicle_type_id":"4","last_reported":1706418445,"current_range_meters":30000,"station_id":"ce4bgg92rcd13ifvqb30","pricing_plan_id":"free"},{"bike_id":"6ff4a019-0928-44b1-a98a-e53f548bf66c","system_id":"levelo_inurba_marseille","lat":43.297794,"lon":5.370888,"is_reserved":false,"is_disabled":false,"rental_uris":{"android":"levelo://app?vid=6ff4a019-0928-44b1-a98a-e53f548bf66c","ios":"levelo://app?vid=6ff4a019-0928-44b1-a98a-e53f548bf66c"},"vehicle_type_id":"4","last_reported":1706418445,"current_range_meters":26800,"station_id":"ce4bgop2rcd13ifvqc1g","pricing_plan_id":"free"},{"bike_id":"64661d11-5a46-4468-b80e-b6de6ba13f43","system_id":"levelo_inurba_marseille","lat":43.297794,"lon":5.370888,"is_reserved":false,"is_disabled":false,"rental_uris":{"android":"levelo://app?vid=64661d11-5a46-4468-b80e-b6de6ba13f43","ios":"levelo://app?vid=64661d11-5a46-4468-b80e-b6de6ba13f43"},"vehicle_type_id":"4","last_reported":1706418445,"current_range_meters":27600,"station_id":"ce4bgop2rcd13ifvqc1g","pricing_plan_id":"free"},{"bike_id":"0b19ca06-b49b-4fbb-9e1e-54f84a170c1e","system_id":"levelo_inurba_marseille","lat":43.297794,"lon":5.370888,"is_reserved":false,"is_disabled":false,"rental_uris":{"android":"levelo://app?vid=0b19ca06-b49b-4fbb-9e1e-54f84a170c1e","ios":"levelo://app?vid=0b19ca06-b49b-4fbb-9e1e-54f84a170c1e"},"vehicle_type_id":"4","last_reported":1706418445,"current_range_meters":22000,"station_id":"ce4bgop2rcd13ifvqc1g","pricing_plan_id":"free"},{"bike_id":"5ee7305d-fc16-42f6-9d08-f9216f0c8b44","system_id":"levelo_inurba_marseille","lat":43.297794,"lon":5.370888,"is_reserved":false,"is_disabled":false,"rental_uris":{"android":"levelo://app?vid=5ee7305d-fc16-42f6-9d08-f9216f0c8b44","ios":"levelo://app?vid=5ee7305d-fc16-42f6-9d08-f9216f0c8b44"},"vehicle_type_id":"4","last_reported":1706418445,"current_range_meters":31200,"station_id":"ce4bgop2rcd13ifvqc1g","pricing_plan_id":"free"},{"bike_id":"a3b74381-0d58-448f-9a1c-2f1261e3769d","system_id":"levelo_inurba_marseille","lat":43.322872,"lon":5.382756,"is_reserved":false,"is_disabled":false,"rental_uris":{"android":"levelo://app?vid=a3b74381-0d58-448f-9a1c-2f1261e3769d","ios":"levelo://app?vid=a3b74381-0d58-448f-9a1c-2f1261e3769d"},"vehicle_type_id":"4","last_reported":1706418445,"current_range_meters":31200,"station_id":"ce4bhr12rcd13ifvqhqg","pricing_plan_id":"free"},{"bike_id":"965a5dab-e227-4efc-b518-9780186a9de9","system_id":"levelo_inurba_marseille","lat":43.322872,"lon":5.382756,"is_reserved":false,"is_disabled":false,"rental_uris":{"android":"levelo://app?vid=965a5dab-e227-4efc-b518-9780186a9de9","ios":"levelo://app?vid=965a5dab-e227-4efc-b518-9780186a9de9"},"vehicle_type_id":"4","last_reported":1706418445,"current_range_meters":28000,"station_id":"ce4bhr12rcd13ifvqhqg","pricing_plan_id":"free"},{"bike_id":"62fa000f-0787-400e-b08b-47c2786f6d67","system_id":"levelo_inurba_marseille","lat":43.322872,"lon":5.382756,"is_reserved":false,"is_disabled":false,"rental_uris":{"android":"levelo://app?vid=62fa000f-0787-400e-b08b-47c2786f6d67","ios":"levelo://app?vid=62fa000f-0787-400e-b08b-47c2786f6d67"},"vehicle_type_id":"4","last_reported":1706418445,"current_range_meters":18000,"station_id":"ce4bhr12rcd13ifvqhqg","pricing_plan_id":"free"},{"bike_id":"f333593b-a055-4773-b1bc-9da5ee05312e","system_id":"levelo_inurba_marseille","lat":43.322872,"lon":5.382756,"is_reserved":false,"is_disabled":false,"rental_uris":{"android":"levelo://app?vid=f333593b-a055-4773-b1bc-9da5ee05312e","ios":"levelo://app?vid=f333593b-a055-4773-b1bc-9da5ee05312e"},"vehicle_type_id":"4","last_reported":1706418445,"current_range_meters":31200,"station_id":"ce4bhr12rcd13ifvqhqg","pricing_plan_id":"free"},{"bike_id":"ab98e573-92e3-4c87-b938-e8306447ae15","system_id":"levelo_inurba_marseille","lat":43.322872,"lon":5.382756,"is_reserved":false,"is_disabled":false,"rental_uris":{"android":"levelo://app?vid=ab98e573-92e3-4c87-b938-e8306447ae15","ios":"levelo://app?vid=ab98e573-92e3-4c87-b938-e8306447ae15"},"vehicle_type_id":"4","last_reported":1706418445,"current_range_meters":30400,"station_id":"ce4bhr12rcd13ifvqhqg","pricing_plan_id":"free"},{"bike_id":"9c4d9993-7f7a-4f86-9392-50f8b41cf1ca","system_id":"levelo_inurba_marseille","lat":43.322872,"lon":5.382756,"is_reserved":false,"is_disabled":false,"rental_uris":{"android":"levelo://app?vid=9c4d9993-7f7a-4f86-9392-50f8b41cf1ca","ios":"levelo://app?vid=9c4d9993-7f7a-4f86-9392-50f8b41cf1ca"},"vehicle_type_id":"4","last_reported":1706418445,"current_range_meters":26800,"station_id":"ce4bhr12rcd13ifvqhqg","pricing_plan_id":"free"},{"bike_id":"12edd8fe-ac42-424b-86a0-ddbc64b4f114","system_id":"levelo_inurba_marseille","lat":43.328371,"lon":5.366909,"is_reserved":false,"is_disabled":false,"rental_uris":{"android":"levelo://app?vid=12edd8fe-ac42-424b-86a0-ddbc64b4f114","ios":"levelo://app?vid=12edd8fe-ac42-424b-86a0-ddbc64b4f114"},"vehicle_type_id":"4","last_reported":1706418445,"current_range_meters":15200,"station_id":"ce4bhs92rcd13ifvqi0g","pricing_plan_id":"free"},{"bike_id":"52d93b09-8ac2-4d59-97f7-57c9e1dac79c","system_id":"levelo_inurba_marseille","lat":43.297163,"lon":5.365866,"is_reserved":false,"is_disabled":false,"rental_uris":{"android":"levelo://app?vid=52d93b09-8ac2-4d59-97f7-57c9e1dac79c","ios":"levelo://app?vid=52d93b09-8ac2-4d59-97f7-57c9e1dac79c"},"vehicle_type_id":"4","last_reported":1706418445,"current_range_meters":28000,"station_id":"ce4bgn12rcd13ifvqbt0","pricing_plan_id":"free"},{"bike_id":"4ab9868d-627e-4be9-8871-185d069d035d","system_id":"levelo_inurba_marseille","lat":43.297163,"lon":5.365866,"is_reserved":false,"is_disabled":false,"rental_uris":{"android":"levelo://app?vid=4ab9868d-627e-4be9-8871-185d069d035d","ios":"levelo://app?vid=4ab9868d-627e-4be9-8871-185d069d035d"},"vehicle_type_id":"4","last_reported":1706418445,"current_range_meters":30800,"station_id":"ce4bgn12rcd13ifvqbt0","pricing_plan_id":"free"},{"bike_id":"af1c8fc0-8183-4d68-848c-9159b1d2bf45","system_id":"levelo_inurba_marseille","lat":43.328371,"lon":5.366909,"is_reserved":false,"is_disabled":false,"rental_uris":{"android":"levelo://app?vid=af1c8fc0-8183-4d68-848c-9159b1d2bf45","ios":"levelo://app?vid=af1c8fc0-8183-4d68-848c-9159b1d2bf45"},"vehicle_type_id":"4","last_reported":1706418445,"current_range_meters":12000,"station_id":"ce4bhs92rcd13ifvqi0g","pricing_plan_id":"free"},{"bike_id":"16eb086f-d449-4ebf-a8bf-5366f3f1e6ed","system_id":"levelo_inurba_marseille","lat":43.297163,"lon":5.365866,"is_reserved":false,"is_disabled":false,"rental_uris":{"android":"levelo://app?vid=16eb086f-d449-4ebf-a8bf-5366f3f1e6ed","ios":"levelo://app?vid=16eb086f-d449-4ebf-a8bf-5366f3f1e6ed"},"vehicle_type_id":"4","last_reported":1706418445,"current_range_meters":31600,"station_id":"ce4bgn12rcd13ifvqbt0","pricing_plan_id":"free"},{"bike_id":"dcec37da-d38a-43f8-923e-0a60c5b5d075","system_id":"levelo_inurba_marseille","lat":43.297163,"lon":5.365866,"is_reserved":false,"is_disabled":false,"rental_uris":{"android":"levelo://app?vid=dcec37da-d38a-43f8-923e-0a60c5b5d075","ios":"levelo://app?vid=dcec37da-d38a-43f8-923e-0a60c5b5d075"},"vehicle_type_id":"4","last_reported":1706418445,"current_range_meters":16400,"station_id":"ce4bgn12rcd13ifvqbt0","pricing_plan_id":"free"},{"bike_id":"5849c8f1-de07-480c-ab10-c023b55280ba","system_id":"levelo_inurba_marseille","lat":43.322591,"lon":5.386824,"is_reserved":false,"is_disabled":false,"rental_uris":{"android":"levelo://app?vid=5849c8f1-de07-480c-ab10-c023b55280ba","ios":"levelo://app?vid=5849c8f1-de07-480c-ab10-c023b55280ba"},"vehicle_type_id":"4","last_reported":1706418445,"current_range_meters":0,"station_id":"","pricing_plan_id":"free"},{"bike_id":"003be8bb-e19b-4ce3-bebc-b9877864fa6b","system_id":"levelo_inurba_marseille","lat":43.317557,"lon":5.390173,"is_reserved":false,"is_disabled":false,"rental_uris":{"android":"levelo://app?vid=003be8bb-e19b-4ce3-bebc-b9877864fa6b","ios":"levelo://app?vid=003be8bb-e19b-4ce3-bebc-b9877864fa6b"},"vehicle_type_id":"4","last_reported":1706418445,"current_range_meters":23200,"station_id":"ce4bhqp2rcd13ifvqhng","pricing_plan_id":"free"},{"bike_id":"9aa6da6d-8661-43ef-a5cb-eccf4edfdb0d","system_id":"levelo_inurba_marseille","lat":43.298037,"lon":5.381066,"is_reserved":false,"is_disabled":false,"rental_uris":{"android":"levelo://app?vid=9aa6da6d-8661-43ef-a5cb-eccf4edfdb0d","ios":"levelo://app?vid=9aa6da6d-8661-43ef-a5cb-eccf4edfdb0d"},"vehicle_type_id":"4","last_reported":1706418445,"current_range_meters":27200,"station_id":"ce4bgip2rcd13ifvqbb0","pricing_plan_id":"free"},{"bike_id":"e8c3f5cb-678d-49a4-aaf4-5f71dd987c27","system_id":"levelo_inurba_marseille","lat":43.304274,"lon":5.388873,"is_reserved":false,"is_disabled":false,"rental_uris":{"android":"levelo://app?vid=e8c3f5cb-678d-49a4-aaf4-5f71dd987c27","ios":"levelo://app?vid=e8c3f5cb-678d-49a4-aaf4-5f71dd987c27"},"vehicle_type_id":"4","last_reported":1706418445,"current_range_meters":28000,"station_id":"ce4bgk12rcd13ifvqbi0","pricing_plan_id":"free"},{"bike_id":"fd6dce2a-eb99-485b-a839-9d829db41d88","system_id":"levelo_inurba_marseille","lat":43.299707,"lon":5.384859,"is_reserved":false,"is_disabled":false,"rental_uris":{"android":"levelo://app?vid=fd6dce2a-eb99-485b-a839-9d829db41d88","ios":"levelo://app?vid=fd6dce2a-eb99-485b-a839-9d829db41d88"},"vehicle_type_id":"4","last_reported":1706418445,"current_range_meters":0,"station_id":"ce4bgj92rcd13ifvqbd0","pricing_plan_id":"free"},{"bike_id":"621b2eaf-5b1b-4a8a-bdab-8203d983b142","system_id":"levelo_inurba_marseille","lat":43.32367,"lon":5.388836,"is_reserved":false,"is_disabled":false,"rental_uris":{"android":"levelo://app?vid=621b2eaf-5b1b-4a8a-bdab-8203d983b142","ios":"levelo://app?vid=621b2eaf-5b1b-4a8a-bdab-8203d983b142"},"vehicle_type_id":"4","last_reported":1706418445,"current_range_meters":15600,"station_id":"ce4bhqp2rcd13ifvqhog","pricing_plan_id":"free"},{"bike_id":"311f2bb5-da85-44fc-915b-153e21fa0c75","system_id":"levelo_inurba_marseille","lat":43.32367,"lon":5.388836,"is_reserved":false,"is_disabled":false,"rental_uris":{"android":"levelo://app?vid=311f2bb5-da85-44fc-915b-153e21fa0c75","ios":"levelo://app?vid=311f2bb5-da85-44fc-915b-153e21fa0c75"},"vehicle_type_id":"4","last_reported":1706418445,"current_range_meters":1200,"station_id":"ce4bhqp2rcd13ifvqhog","pricing_plan_id":"free"},{"bike_id":"36fdf3a9-6637-4abe-9106-b80fdb7b6025","system_id":"levelo_inurba_marseille","lat":43.32367,"lon":5.388836,"is_reserved":false,"is_disabled":false,"rental_uris":{"android":"levelo://app?vid=36fdf3a9-6637-4abe-9106-b80fdb7b6025","ios":"levelo://app?vid=36fdf3a9-6637-4abe-9106-b80fdb7b6025"},"vehicle_type_id":"4","last_reported":1706418445,"current_range_meters":14800,"station_id":"ce4bhqp2rcd13ifvqhog","pricing_plan_id":"free"},{"bike_id":"3654ffe5-d330-4f22-b55f-81d4ad923fcf","system_id":"levelo_inurba_marseille","lat":43.295914,"lon":5.381014,"is_reserved":false,"is_disabled":false,"rental_uris":{"android":"levelo://app?vid=3654ffe5-d330-4f22-b55f-81d4ad923fcf","ios":"levelo://app?vid=3654ffe5-d330-4f22-b55f-81d4ad923fcf"},"vehicle_type_id":"4","last_reported":1706418445,"current_range_meters":0,"station_id":"ce4bgl12rcd13ifvqbo0","pricing_plan_id":"free"},{"bike_id":"7bcf8506-76b9-4762-9deb-578aafc908cf","system_id":"levelo_inurba_marseille","lat":43.29285,"lon":5.36812,"is_reserved":false,"is_disabled":false,"rental_uris":{"android":"levelo://app?vid=7bcf8506-76b9-4762-9deb-578aafc908cf","ios":"levelo://app?vid=7bcf8506-76b9-4762-9deb-578aafc908cf"},"vehicle_type_id":"4","last_reported":1706418445,"current_range_meters":29600,"station_id":"ce4bhbp2rcd13ifvqesg","pricing_plan_id":"free"},{"bike_id":"80906e2a-12d7-4d68-9425-b5f85c940c89","system_id":"levelo_inurba_marseille","lat":43.292749,"lon":5.368402,"is_reserved":false,"is_disabled":false,"rental_uris":{"android":"levelo://app?vid=80906e2a-12d7-4d68-9425-b5f85c940c89","ios":"levelo://app?vid=80906e2a-12d7-4d68-9425-b5f85c940c89"},"vehicle_type_id":"4","last_reported":1706418445,"current_range_meters":24000,"station_id":"ce4bhbp2rcd13ifvqesg","pricing_plan_id":"free"},{"bike_id":"cd56fb6a-d8e9-45fd-9e0f-60c04465e6d3","system_id":"levelo_inurba_marseille","lat":43.292749,"lon":5.368402,"is_reserved":false,"is_disabled":false,"rental_uris":{"android":"levelo://app?vid=cd56fb6a-d8e9-45fd-9e0f-60c04465e6d3","ios":"levelo://app?vid=cd56fb6a-d8e9-45fd-9e0f-60c04465e6d3"},"vehicle_type_id":"4","last_reported":1706418445,"current_range_meters":28000,"station_id":"ce4bhbp2rcd13ifvqesg","pricing_plan_id":"free"},{"bike_id":"b5464451-4d67-4d10-9fee-5d8424e84241","system_id":"levelo_inurba_marseille","lat":43.292749,"lon":5.368402,"is_reserved":false,"is_disabled":false,"rental_uris":{"android":"levelo://app?vid=b5464451-4d67-4d10-9fee-5d8424e84241","ios":"levelo://app?vid=b5464451-4d67-4d10-9fee-5d8424e84241"},"vehicle_type_id":"4","last_reported":1706418445,"current_range_meters":26800,"station_id":"ce4bhbp2rcd13ifvqesg","pricing_plan_id":"free"},{"bike_id":"bb824c7d-19d4-4d7c-96d6-48382a285396","system_id":"levelo_inurba_marseille","lat":43.29273,"lon":5.368489,"is_reserved":false,"is_disabled":false,"rental_uris":{"android":"levelo://app?vid=bb824c7d-19d4-4d7c-96d6-48382a285396","ios":"levelo://app?vid=bb824c7d-19d4-4d7c-96d6-48382a285396"},"vehicle_type_id":"4","last_reported":1706418445,"current_range_meters":28000,"station_id":"ce4bhbp2rcd13ifvqesg","pricing_plan_id":"free"},{"bike_id":"455878c2-fd4e-4be1-b90e-cea8b760a9c9","system_id":"levelo_inurba_marseille","lat":43.292749,"lon":5.368398,"is_reserved":false,"is_disabled":false,"rental_uris":{"android":"levelo://app?vid=455878c2-fd4e-4be1-b90e-cea8b760a9c9","ios":"levelo://app?vid=455878c2-fd4e-4be1-b90e-cea8b760a9c9"},"vehicle_type_id":"4","last_reported":1706418445,"current_range_meters":26800,"station_id":"ce4bhbp2rcd13ifvqesg","pricing_plan_id":"free"},{"bike_id":"674ec721-013b-448c-8dc4-63e094dcd879","system_id":"levelo_inurba_marseille","lat":43.29271,"lon":5.36849,"is_reserved":false,"is_disabled":false,"rental_uris":{"android":"levelo://app?vid=674ec721-013b-448c-8dc4-63e094dcd879","ios":"levelo://app?vid=674ec721-013b-448c-8dc4-63e094dcd879"},"vehicle_type_id":"4","last_reported":1706418445,"current_range_meters":29200,"station_id":"ce4bhbp2rcd13ifvqesg","pricing_plan_id":"free"},{"bike_id":"d5f4b731-261b-4935-b6d6-3fd7bf4195ec","system_id":"levelo_inurba_marseille","lat":43.292749,"lon":5.368402,"is_reserved":false,"is_disabled":false,"rental_uris":{"android":"levelo://app?vid=d5f4b731-261b-4935-b6d6-3fd7bf4195ec","ios":"levelo://app?vid=d5f4b731-261b-4935-b6d6-3fd7bf4195ec"},"vehicle_type_id":"4","last_reported":1706418445,"current_range_meters":14000,"station_id":"ce4bhbp2rcd13ifvqesg","pricing_plan_id":"free"},{"bike_id":"66e06646-18dc-444c-8a40-ae3c3c21b6ce","system_id":"levelo_inurba_marseille","lat":43.292675,"lon":5.368532,"is_reserved":false,"is_disabled":false,"rental_uris":{"android":"levelo://app?vid=66e06646-18dc-444c-8a40-ae3c3c21b6ce","ios":"levelo://app?vid=66e06646-18dc-444c-8a40-ae3c3c21b6ce"},"vehicle_type_id":"4","last_reported":1706418445,"current_range_meters":28800,"station_id":"ce4bhbp2rcd13ifvqesg","pricing_plan_id":"free"},{"bike_id":"014ab2a2-dba5-4b46-be9f-410f6edc0d41","system_id":"levelo_inurba_marseille","lat":43.29264,"lon":5.3685,"is_reserved":false,"is_disabled":false,"rental_uris":{"android":"levelo://app?vid=014ab2a2-dba5-4b46-be9f-410f6edc0d41","ios":"levelo://app?vid=014ab2a2-dba5-4b46-be9f-410f6edc0d41"},"vehicle_type_id":"4","last_reported":1706418445,"current_range_meters":28800,"station_id":"ce4bhbp2rcd13ifvqesg","pricing_plan_id":"free"},{"bike_id":"bf1dea18-d203-4bac-83f2-8aebc5cff5ca","system_id":"levelo_inurba_marseille","lat":43.2936,"lon":5.37835,"is_reserved":false,"is_disabled":false,"rental_uris":{"android":"levelo://app?vid=bf1dea18-d203-4bac-83f2-8aebc5cff5ca","ios":"levelo://app?vid=bf1dea18-d203-4bac-83f2-8aebc5cff5ca"},"vehicle_type_id":"4","last_reported":1706418445,"current_range_meters":13200,"station_id":"ce4bgjh2rcd13ifvqbf0","pricing_plan_id":"free"},{"bike_id":"58fdaf7f-f194-4a6e-adad-6fbb359797bc","system_id":"levelo_inurba_marseille","lat":43.29372,"lon":5.378493,"is_reserved":false,"is_disabled":false,"rental_uris":{"android":"levelo://app?vid=58fdaf7f-f194-4a6e-adad-6fbb359797bc","ios":"levelo://app?vid=58fdaf7f-f194-4a6e-adad-6fbb359797bc"},"vehicle_type_id":"4","last_reported":1706418445,"current_range_meters":0,"station_id":"ce4bgjh2rcd13ifvqbf0","pricing_plan_id":"free"},{"bike_id":"221ed109-4a3c-467c-95fd-341bf4bc65a4","system_id":"levelo_inurba_marseille","lat":43.2936,"lon":5.37835,"is_reserved":false,"is_disabled":false,"rental_uris":{"android":"levelo://app?vid=221ed109-4a3c-467c-95fd-341bf4bc65a4","ios":"levelo://app?vid=221ed109-4a3c-467c-95fd-341bf4bc65a4"},"vehicle_type_id":"4","last_reported":1706418445,"current_range_meters":9600,"station_id":"ce4bgjh2rcd13ifvqbf0","pricing_plan_id":"free"},{"bike_id":"8cc70635-7b78-4cdf-87a8-f8a6d0f92be6","system_id":"levelo_inurba_marseille","lat":43.300852,"lon":5.390859,"is_reserved":false,"is_disabled":false,"rental_uris":{"android":"levelo://app?vid=8cc70635-7b78-4cdf-87a8-f8a6d0f92be6","ios":"levelo://app?vid=8cc70635-7b78-4cdf-87a8-f8a6d0f92be6"},"vehicle_type_id":"4","last_reported":1706418445,"current_range_meters":28400,"station_id":"ce4bh192rcd13ifvqdb0","pricing_plan_id":"free"},{"bike_id":"5440966e-3ec5-4bac-b49d-1d16fa26075b","system_id":"levelo_inurba_marseille","lat":43.291994,"lon":5.357886,"is_reserved":false,"is_disabled":false,"rental_uris":{"android":"levelo://app?vid=5440966e-3ec5-4bac-b49d-1d16fa26075b","ios":"levelo://app?vid=5440966e-3ec5-4bac-b49d-1d16fa26075b"},"vehicle_type_id":"4","last_reported":1706418445,"current_range_meters":6000,"station_id":"ce4bhb12rcd13ifvqel0","pricing_plan_id":"free"},{"bike_id":"fc08cf01-4e65-4878-97af-4b5b12bc3e46","system_id":"levelo_inurba_marseille","lat":43.309047,"lon":5.396551,"is_reserved":false,"is_disabled":false,"rental_uris":{"android":"levelo://app?vid=fc08cf01-4e65-4878-97af-4b5b12bc3e46","ios":"levelo://app?vid=fc08cf01-4e65-4878-97af-4b5b12bc3e46"},"vehicle_type_id":"4","last_reported":1706418445,"current_range_meters":6800,"station_id":"ce4bh012rcd13ifvqcv0","pricing_plan_id":"free"},{"bike_id":"da33d4fa-f5c8-4901-b5ff-1899734aa532","system_id":"levelo_inurba_marseille","lat":43.309047,"lon":5.396551,"is_reserved":false,"is_disabled":false,"rental_uris":{"android":"levelo://app?vid=da33d4fa-f5c8-4901-b5ff-1899734aa532","ios":"levelo://app?vid=da33d4fa-f5c8-4901-b5ff-1899734aa532"},"vehicle_type_id":"4","last_reported":1706418445,"current_range_meters":22000,"station_id":"ce4bh012rcd13ifvqcv0","pricing_plan_id":"free"},{"bike_id":"6b614f3c-262d-4b32-a03c-d6d0d6972bba","system_id":"levelo_inurba_marseille","lat":43.309038,"lon":5.396546,"is_reserved":false,"is_disabled":false,"rental_uris":{"android":"levelo://app?vid=6b614f3c-262d-4b32-a03c-d6d0d6972bba","ios":"levelo://app?vid=6b614f3c-262d-4b32-a03c-d6d0d6972bba"},"vehicle_type_id":"4","last_reported":1706418445,"current_range_meters":18800,"station_id":"ce4bh012rcd13ifvqcv0","pricing_plan_id":"free"},{"bike_id":"df4b9df1-5216-4645-a198-552ee6e763d1","system_id":"levelo_inurba_marseille","lat":43.309047,"lon":5.396551,"is_reserved":false,"is_disabled":false,"rental_uris":{"android":"levelo://app?vid=df4b9df1-5216-4645-a198-552ee6e763d1","ios":"levelo://app?vid=df4b9df1-5216-4645-a198-552ee6e763d1"},"vehicle_type_id":"4","last_reported":1706418445,"current_range_meters":18400,"station_id":"ce4bh012rcd13ifvqcv0","pricing_plan_id":"free"},{"bike_id":"574def04-39c7-4c66-9b46-fe4131c1b6ec","system_id":"levelo_inurba_marseille","lat":43.313291,"lon":5.396838,"is_reserved":false,"is_disabled":false,"rental_uris":{"android":"levelo://app?vid=574def04-39c7-4c66-9b46-fe4131c1b6ec","ios":"levelo://app?vid=574def04-39c7-4c66-9b46-fe4131c1b6ec"},"vehicle_type_id":"4","last_reported":1706418445,"current_range_meters":11600,"station_id":"ce4bgvp2rcd13ifvqcu0","pricing_plan_id":"free"},{"bike_id":"5c06aa8f-024f-4399-a569-0ef54f0aef7c","system_id":"levelo_inurba_marseille","lat":43.313291,"lon":5.396838,"is_reserved":false,"is_disabled":false,"rental_uris":{"android":"levelo://app?vid=5c06aa8f-024f-4399-a569-0ef54f0aef7c","ios":"levelo://app?vid=5c06aa8f-024f-4399-a569-0ef54f0aef7c"},"vehicle_type_id":"4","last_reported":1706418445,"current_range_meters":20000,"station_id":"ce4bgvp2rcd13ifvqcu0","pricing_plan_id":"free"},{"bike_id":"b28e11c3-f4fb-4688-9428-99a3a01b5406","system_id":"levelo_inurba_marseille","lat":43.309038,"lon":5.396546,"is_reserved":false,"is_disabled":false,"rental_uris":{"android":"levelo://app?vid=b28e11c3-f4fb-4688-9428-99a3a01b5406","ios":"levelo://app?vid=b28e11c3-f4fb-4688-9428-99a3a01b5406"},"vehicle_type_id":"4","last_reported":1706418445,"current_range_meters":31600,"station_id":"ce4bh012rcd13ifvqcv0","pricing_plan_id":"free"},{"bike_id":"350b1c12-f01b-4e76-b7e5-c2b800e68838","system_id":"levelo_inurba_marseille","lat":43.313291,"lon":5.396838,"is_reserved":false,"is_disabled":false,"rental_uris":{"android":"levelo://app?vid=350b1c12-f01b-4e76-b7e5-c2b800e68838","ios":"levelo://app?vid=350b1c12-f01b-4e76-b7e5-c2b800e68838"},"vehicle_type_id":"4","last_reported":1706418445,"current_range_meters":26000,"station_id":"ce4bgvp2rcd13ifvqcu0","pricing_plan_id":"free"},{"bike_id":"8a5ef749-d5e1-4777-9ec6-e172c7840457","system_id":"levelo_inurba_marseille","lat":43.313291,"lon":5.396838,"is_reserved":false,"is_disabled":false,"rental_uris":{"android":"levelo://app?vid=8a5ef749-d5e1-4777-9ec6-e172c7840457","ios":"levelo://app?vid=8a5ef749-d5e1-4777-9ec6-e172c7840457"},"vehicle_type_id":"4","last_reported":1706418445,"current_range_meters":28400,"station_id":"ce4bgvp2rcd13ifvqcu0","pricing_plan_id":"free"},{"bike_id":"1c2f4dfb-e9af-4d96-9753-6f479653e589","system_id":"levelo_inurba_marseille","lat":43.313291,"lon":5.396838,"is_reserved":false,"is_disabled":false,"rental_uris":{"android":"levelo://app?vid=1c2f4dfb-e9af-4d96-9753-6f479653e589","ios":"levelo://app?vid=1c2f4dfb-e9af-4d96-9753-6f479653e589"},"vehicle_type_id":"4","last_reported":1706418445,"current_range_meters":31200,"station_id":"ce4bgvp2rcd13ifvqcu0","pricing_plan_id":"free"},{"bike_id":"841a47e1-89ae-4544-a907-6b7c3ab89792","system_id":"levelo_inurba_marseille","lat":43.309047,"lon":5.396551,"is_reserved":false,"is_disabled":false,"rental_uris":{"android":"levelo://app?vid=841a47e1-89ae-4544-a907-6b7c3ab89792","ios":"levelo://app?vid=841a47e1-89ae-4544-a907-6b7c3ab89792"},"vehicle_type_id":"4","last_reported":1706418445,"current_range_meters":31600,"station_id":"ce4bh012rcd13ifvqcv0","pricing_plan_id":"free"},{"bike_id":"c566c3a7-8ed1-470a-b229-ec3971106c14","system_id":"levelo_inurba_marseille","lat":43.302008,"lon":5.394694,"is_reserved":false,"is_disabled":false,"rental_uris":{"android":"levelo://app?vid=c566c3a7-8ed1-470a-b229-ec3971106c14","ios":"levelo://app?vid=c566c3a7-8ed1-470a-b229-ec3971106c14"},"vehicle_type_id":"4","last_reported":1706418445,"current_range_meters":4800,"station_id":"ce4bh0p2rcd13ifvqd70","pricing_plan_id":"free"},{"bike_id":"a7d85f0f-61ee-4761-a65e-c26e4b7cb4e7","system_id":"levelo_inurba_marseille","lat":43.290441,"lon":5.359123,"is_reserved":false,"is_disabled":false,"rental_uris":{"android":"levelo://app?vid=a7d85f0f-61ee-4761-a65e-c26e4b7cb4e7","ios":"levelo://app?vid=a7d85f0f-61ee-4761-a65e-c26e4b7cb4e7"},"vehicle_type_id":"4","last_reported":1706418445,"current_range_meters":26800,"station_id":"","pricing_plan_id":"free"},{"bike_id":"318ee44b-de6b-4a24-9cca-96fff6bbef1a","system_id":"levelo_inurba_marseille","lat":43.290631,"lon":5.359244,"is_reserved":false,"is_disabled":false,"rental_uris":{"android":"levelo://app?vid=318ee44b-de6b-4a24-9cca-96fff6bbef1a","ios":"levelo://app?vid=318ee44b-de6b-4a24-9cca-96fff6bbef1a"},"vehicle_type_id":"4","last_reported":1706418445,"current_range_meters":20000,"station_id":"ce4bha92rcd13ifvqeg0","pricing_plan_id":"free"},{"bike_id":"f7ee8f29-f6e4-4ae8-8aa5-c5379c233935","system_id":"levelo_inurba_marseille","lat":43.290631,"lon":5.359244,"is_reserved":false,"is_disabled":false,"rental_uris":{"android":"levelo://app?vid=f7ee8f29-f6e4-4ae8-8aa5-c5379c233935","ios":"levelo://app?vid=f7ee8f29-f6e4-4ae8-8aa5-c5379c233935"},"vehicle_type_id":"4","last_reported":1706418445,"current_range_meters":26800,"station_id":"ce4bha92rcd13ifvqeg0","pricing_plan_id":"free"},{"bike_id":"0c3d3be9-70e0-424c-81a6-c924048e5786","system_id":"levelo_inurba_marseille","lat":43.290103,"lon":5.356114,"is_reserved":false,"is_disabled":false,"rental_uris":{"android":"levelo://app?vid=0c3d3be9-70e0-424c-81a6-c924048e5786","ios":"levelo://app?vid=0c3d3be9-70e0-424c-81a6-c924048e5786"},"vehicle_type_id":"4","last_reported":1706418445,"current_range_meters":14800,"station_id":"ce4bhb92rcd13ifvqen0","pricing_plan_id":"free"},{"bike_id":"7159e3a2-6dd9-481b-8951-758c0f0fffbd","system_id":"levelo_inurba_marseille","lat":43.290995,"lon":5.381361,"is_reserved":false,"is_disabled":false,"rental_uris":{"android":"levelo://app?vid=7159e3a2-6dd9-481b-8951-758c0f0fffbd","ios":"levelo://app?vid=7159e3a2-6dd9-481b-8951-758c0f0fffbd"},"vehicle_type_id":"4","last_reported":1706418445,"current_range_meters":24800,"station_id":"ce4bh512rcd13ifvqe2g","pricing_plan_id":"free"},{"bike_id":"5a51bf89-8e2f-481e-b310-6eca00de6f35","system_id":"levelo_inurba_marseille","lat":43.29787,"lon":5.393363,"is_reserved":false,"is_disabled":false,"rental_uris":{"android":"levelo://app?vid=5a51bf89-8e2f-481e-b310-6eca00de6f35","ios":"levelo://app?vid=5a51bf89-8e2f-481e-b310-6eca00de6f35"},"vehicle_type_id":"4","last_reported":1706418445,"current_range_meters":16000,"station_id":"chh1huq6cuj3fo74tm60","pricing_plan_id":"free"},{"bike_id":"59e02cdd-baf5-40b9-aa17-f77e9d38b52a","system_id":"levelo_inurba_marseille","lat":43.297913,"lon":5.393457,"is_reserved":false,"is_disabled":false,"rental_uris":{"android":"levelo://app?vid=59e02cdd-baf5-40b9-aa17-f77e9d38b52a","ios":"levelo://app?vid=59e02cdd-baf5-40b9-aa17-f77e9d38b52a"},"vehicle_type_id":"4","last_reported":1706418445,"current_range_meters":28800,"station_id":"chh1huq6cuj3fo74tm60","pricing_plan_id":"free"},{"bike_id":"c048bd00-d01b-418e-b5f7-d84dfbd9f6a5","system_id":"levelo_inurba_marseille","lat":43.297873,"lon":5.393476,"is_reserved":false,"is_disabled":false,"rental_uris":{"android":"levelo://app?vid=c048bd00-d01b-418e-b5f7-d84dfbd9f6a5","ios":"levelo://app?vid=c048bd00-d01b-418e-b5f7-d84dfbd9f6a5"},"vehicle_type_id":"4","last_reported":1706418445,"current_range_meters":24400,"station_id":"chh1huq6cuj3fo74tm60","pricing_plan_id":"free"},{"bike_id":"481dad6f-9967-4f6f-97c2-139abd002c75","system_id":"levelo_inurba_marseille","lat":43.330442,"lon":5.389148,"is_reserved":false,"is_disabled":false,"rental_uris":{"android":"levelo://app?vid=481dad6f-9967-4f6f-97c2-139abd002c75","ios":"levelo://app?vid=481dad6f-9967-4f6f-97c2-139abd002c75"},"vehicle_type_id":"4","last_reported":1706418445,"current_range_meters":3600,"station_id":"ce4bhr92rcd13ifvqhrg","pricing_plan_id":"free"},{"bike_id":"f0009d7c-4ac4-46c4-8b7c-d72b8c74aa1a","system_id":"levelo_inurba_marseille","lat":43.297815,"lon":5.393548,"is_reserved":false,"is_disabled":false,"rental_uris":{"android":"levelo://app?vid=f0009d7c-4ac4-46c4-8b7c-d72b8c74aa1a","ios":"levelo://app?vid=f0009d7c-4ac4-46c4-8b7c-d72b8c74aa1a"},"vehicle_type_id":"4","last_reported":1706418445,"current_range_meters":31200,"station_id":"chh1huq6cuj3fo74tm60","pricing_plan_id":"free"},{"bike_id":"d17a2a71-24a2-4090-bfe4-0a93d917c57c","system_id":"levelo_inurba_marseille","lat":43.309371,"lon":5.401449,"is_reserved":false,"is_disabled":false,"rental_uris":{"android":"levelo://app?vid=d17a2a71-24a2-4090-bfe4-0a93d917c57c","ios":"levelo://app?vid=d17a2a71-24a2-4090-bfe4-0a93d917c57c"},"vehicle_type_id":"4","last_reported":1706418445,"current_range_meters":5200,"station_id":"ce4bgvp2rcd13ifvqct0","pricing_plan_id":"free"},{"bike_id":"a5bb70b8-7176-4cc4-8da5-65881c82a486","system_id":"levelo_inurba_marseille","lat":43.309371,"lon":5.401449,"is_reserved":false,"is_disabled":false,"rental_uris":{"android":"levelo://app?vid=a5bb70b8-7176-4cc4-8da5-65881c82a486","ios":"levelo://app?vid=a5bb70b8-7176-4cc4-8da5-65881c82a486"},"vehicle_type_id":"4","last_reported":1706418445,"current_range_meters":17600,"station_id":"ce4bgvp2rcd13ifvqct0","pricing_plan_id":"free"},{"bike_id":"a563cdbf-78b8-441c-8dce-8da1c3325b92","system_id":"levelo_inurba_marseille","lat":43.337486,"lon":5.374602,"is_reserved":false,"is_disabled":false,"rental_uris":{"android":"levelo://app?vid=a563cdbf-78b8-441c-8dce-8da1c3325b92","ios":"levelo://app?vid=a563cdbf-78b8-441c-8dce-8da1c3325b92"},"vehicle_type_id":"4","last_reported":1706418445,"current_range_meters":15200,"station_id":"","pricing_plan_id":"free"},{"bike_id":"c138c08b-ac5f-4b47-b873-0efc7215c2e5","system_id":"levelo_inurba_marseille","lat":43.306412,"lon":5.401035,"is_reserved":false,"is_disabled":false,"rental_uris":{"android":"levelo://app?vid=c138c08b-ac5f-4b47-b873-0efc7215c2e5","ios":"levelo://app?vid=c138c08b-ac5f-4b47-b873-0efc7215c2e5"},"vehicle_type_id":"4","last_reported":1706418445,"current_range_meters":22000,"station_id":"ce4bh112rcd13ifvqda0","pricing_plan_id":"free"},{"bike_id":"2fe24097-b1c2-4583-ba1f-cf8501171a4c","system_id":"levelo_inurba_marseille","lat":43.337473,"lon":5.374936,"is_reserved":false,"is_disabled":false,"rental_uris":{"android":"levelo://app?vid=2fe24097-b1c2-4583-ba1f-cf8501171a4c","ios":"levelo://app?vid=2fe24097-b1c2-4583-ba1f-cf8501171a4c"},"vehicle_type_id":"4","last_reported":1706418445,"current_range_meters":13200,"station_id":"","pricing_plan_id":"free"},{"bike_id":"6a4cda04-8a10-4b2c-89d8-c6fab204537e","system_id":"levelo_inurba_marseille","lat":43.300592,"lon":5.397726,"is_reserved":false,"is_disabled":false,"rental_uris":{"android":"levelo://app?vid=6a4cda04-8a10-4b2c-89d8-c6fab204537e","ios":"levelo://app?vid=6a4cda04-8a10-4b2c-89d8-c6fab204537e"},"vehicle_type_id":"4","last_reported":1706418445,"current_range_meters":16000,"station_id":"","pricing_plan_id":"free"},{"bike_id":"02cc1ce4-717f-4b60-a8ae-e32a4e8fb56c","system_id":"levelo_inurba_marseille","lat":43.33759,"lon":5.37486,"is_reserved":false,"is_disabled":false,"rental_uris":{"android":"levelo://app?vid=02cc1ce4-717f-4b60-a8ae-e32a4e8fb56c","ios":"levelo://app?vid=02cc1ce4-717f-4b60-a8ae-e32a4e8fb56c"},"vehicle_type_id":"4","last_reported":1706418445,"current_range_meters":9200,"station_id":"","pricing_plan_id":"free"},{"bike_id":"b7f12eab-e0a6-499e-87ec-2b4381c4602a","system_id":"levelo_inurba_marseille","lat":43.337581,"lon":5.374951,"is_reserved":false,"is_disabled":false,"rental_uris":{"android":"levelo://app?vid=b7f12eab-e0a6-499e-87ec-2b4381c4602a","ios":"levelo://app?vid=b7f12eab-e0a6-499e-87ec-2b4381c4602a"},"vehicle_type_id":"4","last_reported":1706418445,"current_range_meters":20800,"station_id":"","pricing_plan_id":"free"},{"bike_id":"1facbbf3-baac-42f8-85eb-cb1e36f3e4b9","system_id":"levelo_inurba_marseille","lat":43.3376,"lon":5.374906,"is_reserved":false,"is_disabled":false,"rental_uris":{"android":"levelo://app?vid=1facbbf3-baac-42f8-85eb-cb1e36f3e4b9","ios":"levelo://app?vid=1facbbf3-baac-42f8-85eb-cb1e36f3e4b9"},"vehicle_type_id":"4","last_reported":1706418445,"current_range_meters":16000,"station_id":"","pricing_plan_id":"free"},{"bike_id":"a9554a78-0f9d-4cdd-9ecd-598bb2d54931","system_id":"levelo_inurba_marseille","lat":43.33761,"lon":5.37485,"is_reserved":false,"is_disabled":false,"rental_uris":{"android":"levelo://app?vid=a9554a78-0f9d-4cdd-9ecd-598bb2d54931","ios":"levelo://app?vid=a9554a78-0f9d-4cdd-9ecd-598bb2d54931"},"vehicle_type_id":"4","last_reported":1706418445,"current_range_meters":29200,"station_id":"","pricing_plan_id":"free"},{"bike_id":"b7d3b81d-d85a-44b5-a0c7-8f9c9f74639e","system_id":"levelo_inurba_marseille","lat":43.33765,"lon":5.374672,"is_reserved":false,"is_disabled":false,"rental_uris":{"android":"levelo://app?vid=b7d3b81d-d85a-44b5-a0c7-8f9c9f74639e","ios":"levelo://app?vid=b7d3b81d-d85a-44b5-a0c7-8f9c9f74639e"},"vehicle_type_id":"4","last_reported":1706418445,"current_range_meters":28400,"station_id":"","pricing_plan_id":"free"},{"bike_id":"eaeff2f9-be33-4cbc-b315-c230be10dd9b","system_id":"levelo_inurba_marseille","lat":43.337646,"lon":5.374871,"is_reserved":false,"is_disabled":false,"rental_uris":{"android":"levelo://app?vid=eaeff2f9-be33-4cbc-b315-c230be10dd9b","ios":"levelo://app?vid=eaeff2f9-be33-4cbc-b315-c230be10dd9b"},"vehicle_type_id":"4","last_reported":1706418445,"current_range_meters":6800,"station_id":"","pricing_plan_id":"free"},{"bike_id":"d2ef723a-6c51-4ad9-8f8d-003770b1bdb0","system_id":"levelo_inurba_marseille","lat":43.30642,"lon":5.401031,"is_reserved":false,"is_disabled":false,"rental_uris":{"android":"levelo://app?vid=d2ef723a-6c51-4ad9-8f8d-003770b1bdb0","ios":"levelo://app?vid=d2ef723a-6c51-4ad9-8f8d-003770b1bdb0"},"vehicle_type_id":"4","last_reported":1706418445,"current_range_meters":29600,"station_id":"ce4bh112rcd13ifvqda0","pricing_plan_id":"free"},{"bike_id":"bd7c49e0-243f-4049-bc25-2de8f060bb29","system_id":"levelo_inurba_marseille","lat":43.337702,"lon":5.374873,"is_reserved":false,"is_disabled":false,"rental_uris":{"android":"levelo://app?vid=bd7c49e0-243f-4049-bc25-2de8f060bb29","ios":"levelo://app?vid=bd7c49e0-243f-4049-bc25-2de8f060bb29"},"vehicle_type_id":"4","last_reported":1706418445,"current_range_meters":21600,"station_id":"","pricing_plan_id":"free"},{"bike_id":"dac9ed43-ea5e-4a0e-bc5f-eab78d5d63d0","system_id":"levelo_inurba_marseille","lat":43.301117,"lon":5.398795,"is_reserved":false,"is_disabled":false,"rental_uris":{"android":"levelo://app?vid=dac9ed43-ea5e-4a0e-bc5f-eab78d5d63d0","ios":"levelo://app?vid=dac9ed43-ea5e-4a0e-bc5f-eab78d5d63d0"},"vehicle_type_id":"4","last_reported":1706418445,"current_range_meters":14400,"station_id":"ce4bh0h2rcd13ifvqd40","pricing_plan_id":"free"},{"bike_id":"742b6877-fd6b-4336-8f30-0cb036bd8655","system_id":"levelo_inurba_marseille","lat":43.301117,"lon":5.398795,"is_reserved":false,"is_disabled":false,"rental_uris":{"android":"levelo://app?vid=742b6877-fd6b-4336-8f30-0cb036bd8655","ios":"levelo://app?vid=742b6877-fd6b-4336-8f30-0cb036bd8655"},"vehicle_type_id":"4","last_reported":1706418445,"current_range_meters":23600,"station_id":"ce4bh0h2rcd13ifvqd40","pricing_plan_id":"free"},{"bike_id":"0a43d3df-0884-4882-9c1a-4fa1b058edf2","system_id":"levelo_inurba_marseille","lat":43.301117,"lon":5.398795,"is_reserved":false,"is_disabled":false,"rental_uris":{"android":"levelo://app?vid=0a43d3df-0884-4882-9c1a-4fa1b058edf2","ios":"levelo://app?vid=0a43d3df-0884-4882-9c1a-4fa1b058edf2"},"vehicle_type_id":"4","last_reported":1706418445,"current_range_meters":19600,"station_id":"ce4bh0h2rcd13ifvqd40","pricing_plan_id":"free"},{"bike_id":"78342988-3ec7-4651-adab-04f5c4da5dcc","system_id":"levelo_inurba_marseille","lat":43.286961,"lon":5.373785,"is_reserved":false,"is_disabled":false,"rental_uris":{"android":"levelo://app?vid=78342988-3ec7-4651-adab-04f5c4da5dcc","ios":"levelo://app?vid=78342988-3ec7-4651-adab-04f5c4da5dcc"},"vehicle_type_id":"4","last_reported":1706418445,"current_range_meters":10800,"station_id":"ce4bh3p2rcd13ifvqdq0","pricing_plan_id":"free"},{"bike_id":"2c32b177-8f00-4e76-b35b-731e427d935f","system_id":"levelo_inurba_marseille","lat":43.286961,"lon":5.373785,"is_reserved":false,"is_disabled":false,"rental_uris":{"android":"levelo://app?vid=2c32b177-8f00-4e76-b35b-731e427d935f","ios":"levelo://app?vid=2c32b177-8f00-4e76-b35b-731e427d935f"},"vehicle_type_id":"4","last_reported":1706418445,"current_range_meters":30400,"station_id":"ce4bh3p2rcd13ifvqdq0","pricing_plan_id":"free"},{"bike_id":"e3978e40-0119-4976-9f81-7b19e55a50c8","system_id":"levelo_inurba_marseille","lat":43.286591,"lon":5.363346,"is_reserved":false,"is_disabled":false,"rental_uris":{"android":"levelo://app?vid=e3978e40-0119-4976-9f81-7b19e55a50c8","ios":"levelo://app?vid=e3978e40-0119-4976-9f81-7b19e55a50c8"},"vehicle_type_id":"4","last_reported":1706418445,"current_range_meters":28800,"station_id":"ce4bhah2rcd13ifvqej0","pricing_plan_id":"free"},{"bike_id":"84a62e03-5e21-43f6-af3e-473d82a55d39","system_id":"levelo_inurba_marseille","lat":43.286961,"lon":5.373785,"is_reserved":false,"is_disabled":false,"rental_uris":{"android":"levelo://app?vid=84a62e03-5e21-43f6-af3e-473d82a55d39","ios":"levelo://app?vid=84a62e03-5e21-43f6-af3e-473d82a55d39"},"vehicle_type_id":"4","last_reported":1706418445,"current_range_meters":14000,"station_id":"ce4bh3p2rcd13ifvqdq0","pricing_plan_id":"free"},{"bike_id":"183bb1c1-398f-466c-b05d-327ac4efc436","system_id":"levelo_inurba_marseille","lat":43.302511,"lon":5.400653,"is_reserved":false,"is_disabled":false,"rental_uris":{"android":"levelo://app?vid=183bb1c1-398f-466c-b05d-327ac4efc436","ios":"levelo://app?vid=183bb1c1-398f-466c-b05d-327ac4efc436"},"vehicle_type_id":"4","last_reported":1706418445,"current_range_meters":12400,"station_id":"ce4bgth2rcd13ifvqch0","pricing_plan_id":"free"},{"bike_id":"03447749-0c25-43f9-b101-2dd420e40b4a","system_id":"levelo_inurba_marseille","lat":43.286039,"lon":5.370681,"is_reserved":false,"is_disabled":false,"rental_uris":{"android":"levelo://app?vid=03447749-0c25-43f9-b101-2dd420e40b4a","ios":"levelo://app?vid=03447749-0c25-43f9-b101-2dd420e40b4a"},"vehicle_type_id":"4","last_reported":1706418445,"current_range_meters":7600,"station_id":"ce4bht12rcd13ifvqi60","pricing_plan_id":"free"},{"bike_id":"b629200a-a7cd-40bc-ba12-13f5aff96d13","system_id":"levelo_inurba_marseille","lat":43.28604,"lon":5.37067,"is_reserved":false,"is_disabled":false,"rental_uris":{"android":"levelo://app?vid=b629200a-a7cd-40bc-ba12-13f5aff96d13","ios":"levelo://app?vid=b629200a-a7cd-40bc-ba12-13f5aff96d13"},"vehicle_type_id":"4","last_reported":1706418445,"current_range_meters":10400,"station_id":"","pricing_plan_id":"free"},{"bike_id":"36e8c209-5f7f-48c4-b22c-a7f983abea08","system_id":"levelo_inurba_marseille","lat":43.284534,"lon":5.358662,"is_reserved":false,"is_disabled":false,"rental_uris":{"android":"levelo://app?vid=36e8c209-5f7f-48c4-b22c-a7f983abea08","ios":"levelo://app?vid=36e8c209-5f7f-48c4-b22c-a7f983abea08"},"vehicle_type_id":"4","last_reported":1706418445,"current_range_meters":30800,"station_id":"ce4bhah2rcd13ifvqei0","pricing_plan_id":"free"},{"bike_id":"e0da2a2a-63e9-4984-80e7-5e9216816733","system_id":"levelo_inurba_marseille","lat":43.284538,"lon":5.358657,"is_reserved":false,"is_disabled":false,"rental_uris":{"android":"levelo://app?vid=e0da2a2a-63e9-4984-80e7-5e9216816733","ios":"levelo://app?vid=e0da2a2a-63e9-4984-80e7-5e9216816733"},"vehicle_type_id":"4","last_reported":1706418445,"current_range_meters":29600,"station_id":"ce4bhah2rcd13ifvqei0","pricing_plan_id":"free"},{"bike_id":"8e475eb0-4e0b-4679-96bd-7cdf870caeda","system_id":"levelo_inurba_marseille","lat":43.284587,"lon":5.358779,"is_reserved":false,"is_disabled":false,"rental_uris":{"android":"levelo://app?vid=8e475eb0-4e0b-4679-96bd-7cdf870caeda","ios":"levelo://app?vid=8e475eb0-4e0b-4679-96bd-7cdf870caeda"},"vehicle_type_id":"4","last_reported":1706418445,"current_range_meters":0,"station_id":"ce4bhah2rcd13ifvqei0","pricing_plan_id":"free"},{"bike_id":"5282539e-285a-4690-8227-fc1efa056504","system_id":"levelo_inurba_marseille","lat":43.284538,"lon":5.358657,"is_reserved":false,"is_disabled":false,"rental_uris":{"android":"levelo://app?vid=5282539e-285a-4690-8227-fc1efa056504","ios":"levelo://app?vid=5282539e-285a-4690-8227-fc1efa056504"},"vehicle_type_id":"4","last_reported":1706418445,"current_range_meters":0,"station_id":"ce4bhah2rcd13ifvqei0","pricing_plan_id":"free"},{"bike_id":"ec0bf64a-ba42-4917-8dc9-48d93eaba98c","system_id":"levelo_inurba_marseille","lat":43.285848,"lon":5.350787,"is_reserved":false,"is_disabled":false,"rental_uris":{"android":"levelo://app?vid=ec0bf64a-ba42-4917-8dc9-48d93eaba98c","ios":"levelo://app?vid=ec0bf64a-ba42-4917-8dc9-48d93eaba98c"},"vehicle_type_id":"4","last_reported":1706418445,"current_range_meters":30000,"station_id":"ce4bhch2rcd13ifvqeug","pricing_plan_id":"free"},{"bike_id":"ae2cf496-615b-45fa-8ce9-99fc9d9cdc81","system_id":"levelo_inurba_marseille","lat":43.28616,"lon":5.35107,"is_reserved":false,"is_disabled":false,"rental_uris":{"android":"levelo://app?vid=ae2cf496-615b-45fa-8ce9-99fc9d9cdc81","ios":"levelo://app?vid=ae2cf496-615b-45fa-8ce9-99fc9d9cdc81"},"vehicle_type_id":"4","last_reported":1706418445,"current_range_meters":31200,"station_id":"ce4bhch2rcd13ifvqeug","pricing_plan_id":"free"},{"bike_id":"27db4e6a-839d-449a-b5f4-f8ddb7801f04","system_id":"levelo_inurba_marseille","lat":43.28613,"lon":5.351,"is_reserved":false,"is_disabled":false,"rental_uris":{"android":"levelo://app?vid=27db4e6a-839d-449a-b5f4-f8ddb7801f04","ios":"levelo://app?vid=27db4e6a-839d-449a-b5f4-f8ddb7801f04"},"vehicle_type_id":"4","last_reported":1706418445,"current_range_meters":30800,"station_id":"ce4bhch2rcd13ifvqeug","pricing_plan_id":"free"},{"bike_id":"84939456-6752-47ce-b628-fed93bcd290d","system_id":"levelo_inurba_marseille","lat":43.2861,"lon":5.35107,"is_reserved":false,"is_disabled":false,"rental_uris":{"android":"levelo://app?vid=84939456-6752-47ce-b628-fed93bcd290d","ios":"levelo://app?vid=84939456-6752-47ce-b628-fed93bcd290d"},"vehicle_type_id":"4","last_reported":1706418445,"current_range_meters":29200,"station_id":"ce4bhch2rcd13ifvqeug","pricing_plan_id":"free"},{"bike_id":"78b04be9-ed77-4351-90cc-031c63acfb01","system_id":"levelo_inurba_marseille","lat":43.285856,"lon":5.350771,"is_reserved":false,"is_disabled":false,"rental_uris":{"android":"levelo://app?vid=78b04be9-ed77-4351-90cc-031c63acfb01","ios":"levelo://app?vid=78b04be9-ed77-4351-90cc-031c63acfb01"},"vehicle_type_id":"4","last_reported":1706418445,"current_range_meters":20000,"station_id":"ce4bhch2rcd13ifvqeug","pricing_plan_id":"free"},{"bike_id":"f0b7c554-d341-42b8-a469-b5e490ff0b52","system_id":"levelo_inurba_marseille","lat":43.29567,"lon":5.39981,"is_reserved":false,"is_disabled":false,"rental_uris":{"android":"levelo://app?vid=f0b7c554-d341-42b8-a469-b5e490ff0b52","ios":"levelo://app?vid=f0b7c554-d341-42b8-a469-b5e490ff0b52"},"vehicle_type_id":"4","last_reported":1706418445,"current_range_meters":2000,"station_id":"ce4bh312rcd13ifvqdj0","pricing_plan_id":"free"},{"bike_id":"b29b4b3a-7a43-4939-bb05-5f4f2fe881f9","system_id":"levelo_inurba_marseille","lat":43.319179,"lon":5.407725,"is_reserved":false,"is_disabled":false,"rental_uris":{"android":"levelo://app?vid=b29b4b3a-7a43-4939-bb05-5f4f2fe881f9","ios":"levelo://app?vid=b29b4b3a-7a43-4939-bb05-5f4f2fe881f9"},"vehicle_type_id":"4","last_reported":1706418445,"current_range_meters":31600,"station_id":"ce4bhq12rcd13ifvqhig","pricing_plan_id":"free"},{"bike_id":"a7ef742f-9cf2-4c2f-938a-27fe62d2c015","system_id":"levelo_inurba_marseille","lat":43.319179,"lon":5.407725,"is_reserved":false,"is_disabled":false,"rental_uris":{"android":"levelo://app?vid=a7ef742f-9cf2-4c2f-938a-27fe62d2c015","ios":"levelo://app?vid=a7ef742f-9cf2-4c2f-938a-27fe62d2c015"},"vehicle_type_id":"4","last_reported":1706418445,"current_range_meters":4800,"station_id":"ce4bhq12rcd13ifvqhig","pricing_plan_id":"free"},{"bike_id":"e63b7e05-da47-404b-a3ca-035d8af322bb","system_id":"levelo_inurba_marseille","lat":43.319179,"lon":5.407725,"is_reserved":false,"is_disabled":false,"rental_uris":{"android":"levelo://app?vid=e63b7e05-da47-404b-a3ca-035d8af322bb","ios":"levelo://app?vid=e63b7e05-da47-404b-a3ca-035d8af322bb"},"vehicle_type_id":"4","last_reported":1706418445,"current_range_meters":31200,"station_id":"ce4bhq12rcd13ifvqhig","pricing_plan_id":"free"},{"bike_id":"40975b42-2dae-4c78-9990-d091247266be","system_id":"levelo_inurba_marseille","lat":43.319179,"lon":5.407725,"is_reserved":false,"is_disabled":false,"rental_uris":{"android":"levelo://app?vid=40975b42-2dae-4c78-9990-d091247266be","ios":"levelo://app?vid=40975b42-2dae-4c78-9990-d091247266be"},"vehicle_type_id":"4","last_reported":1706418445,"current_range_meters":24400,"station_id":"ce4bhq12rcd13ifvqhig","pricing_plan_id":"free"},{"bike_id":"77308e31-fc80-4c42-923c-57fc362eb70a","system_id":"levelo_inurba_marseille","lat":43.319179,"lon":5.407725,"is_reserved":false,"is_disabled":false,"rental_uris":{"android":"levelo://app?vid=77308e31-fc80-4c42-923c-57fc362eb70a","ios":"levelo://app?vid=77308e31-fc80-4c42-923c-57fc362eb70a"},"vehicle_type_id":"4","last_reported":1706418445,"current_range_meters":18800,"station_id":"ce4bhq12rcd13ifvqhig","pricing_plan_id":"free"},{"bike_id":"3c982f92-c162-4958-96ed-bd3ab8ee1412","system_id":"levelo_inurba_marseille","lat":43.323464,"lon":5.406297,"is_reserved":false,"is_disabled":false,"rental_uris":{"android":"levelo://app?vid=3c982f92-c162-4958-96ed-bd3ab8ee1412","ios":"levelo://app?vid=3c982f92-c162-4958-96ed-bd3ab8ee1412"},"vehicle_type_id":"4","last_reported":1706418445,"current_range_meters":25200,"station_id":"ce4bhq92rcd13ifvqhjg","pricing_plan_id":"free"},{"bike_id":"2b5f4982-548b-4158-a72b-a9e801ba15e5","system_id":"levelo_inurba_marseille","lat":43.323464,"lon":5.406297,"is_reserved":false,"is_disabled":false,"rental_uris":{"android":"levelo://app?vid=2b5f4982-548b-4158-a72b-a9e801ba15e5","ios":"levelo://app?vid=2b5f4982-548b-4158-a72b-a9e801ba15e5"},"vehicle_type_id":"4","last_reported":1706418445,"current_range_meters":31600,"station_id":"ce4bhq92rcd13ifvqhjg","pricing_plan_id":"free"},{"bike_id":"2bb38835-1a5e-4d01-8935-6396d43e5266","system_id":"levelo_inurba_marseille","lat":43.337168,"lon":5.391825,"is_reserved":false,"is_disabled":false,"rental_uris":{"android":"levelo://app?vid=2bb38835-1a5e-4d01-8935-6396d43e5266","ios":"levelo://app?vid=2bb38835-1a5e-4d01-8935-6396d43e5266"},"vehicle_type_id":"4","last_reported":1706418445,"current_range_meters":23200,"station_id":"ce4bhr92rcd13ifvqhsg","pricing_plan_id":"free"},{"bike_id":"a3f30509-feaf-4375-af71-8a441027e5bd","system_id":"levelo_inurba_marseille","lat":43.33717,"lon":5.391857,"is_reserved":false,"is_disabled":false,"rental_uris":{"android":"levelo://app?vid=a3f30509-feaf-4375-af71-8a441027e5bd","ios":"levelo://app?vid=a3f30509-feaf-4375-af71-8a441027e5bd"},"vehicle_type_id":"4","last_reported":1706418445,"current_range_meters":27200,"station_id":"ce4bhr92rcd13ifvqhsg","pricing_plan_id":"free"},{"bike_id":"49927298-0456-42e8-8955-c51541c9e6dc","system_id":"levelo_inurba_marseille","lat":43.323464,"lon":5.406297,"is_reserved":false,"is_disabled":false,"rental_uris":{"android":"levelo://app?vid=49927298-0456-42e8-8955-c51541c9e6dc","ios":"levelo://app?vid=49927298-0456-42e8-8955-c51541c9e6dc"},"vehicle_type_id":"4","last_reported":1706418445,"current_range_meters":24000,"station_id":"ce4bhq92rcd13ifvqhjg","pricing_plan_id":"free"},{"bike_id":"ac5c9510-b4bc-4486-970f-c884dfd21675","system_id":"levelo_inurba_marseille","lat":43.288501,"lon":5.393087,"is_reserved":false,"is_disabled":false,"rental_uris":{"android":"levelo://app?vid=ac5c9510-b4bc-4486-970f-c884dfd21675","ios":"levelo://app?vid=ac5c9510-b4bc-4486-970f-c884dfd21675"},"vehicle_type_id":"4","last_reported":1706418445,"current_range_meters":24400,"station_id":"ce4bh2p2rcd13ifvqdi0","pricing_plan_id":"free"},{"bike_id":"1516259c-bba1-468f-a75e-c6c788a922aa","system_id":"levelo_inurba_marseille","lat":43.283494,"lon":5.380945,"is_reserved":false,"is_disabled":false,"rental_uris":{"android":"levelo://app?vid=1516259c-bba1-468f-a75e-c6c788a922aa","ios":"levelo://app?vid=1516259c-bba1-468f-a75e-c6c788a922aa"},"vehicle_type_id":"4","last_reported":1706418445,"current_range_meters":8800,"station_id":"ce4bh412rcd13ifvqdr0","pricing_plan_id":"free"},{"bike_id":"b2dbb7d2-41b7-4a89-934f-10e965738d21","system_id":"levelo_inurba_marseille","lat":43.283494,"lon":5.380945,"is_reserved":false,"is_disabled":false,"rental_uris":{"android":"levelo://app?vid=b2dbb7d2-41b7-4a89-934f-10e965738d21","ios":"levelo://app?vid=b2dbb7d2-41b7-4a89-934f-10e965738d21"},"vehicle_type_id":"4","last_reported":1706418445,"current_range_meters":8400,"station_id":"ce4bh412rcd13ifvqdr0","pricing_plan_id":"free"},{"bike_id":"23cf6a62-ac04-4bb3-824f-cbe35f43e169","system_id":"levelo_inurba_marseille","lat":43.283498,"lon":5.380948,"is_reserved":false,"is_disabled":false,"rental_uris":{"android":"levelo://app?vid=23cf6a62-ac04-4bb3-824f-cbe35f43e169","ios":"levelo://app?vid=23cf6a62-ac04-4bb3-824f-cbe35f43e169"},"vehicle_type_id":"4","last_reported":1706418445,"current_range_meters":26800,"station_id":"ce4bh412rcd13ifvqdr0","pricing_plan_id":"free"},{"bike_id":"c43608e5-e62a-4682-b590-62f0d28f52b0","system_id":"levelo_inurba_marseille","lat":43.2834,"lon":5.381159,"is_reserved":false,"is_disabled":false,"rental_uris":{"android":"levelo://app?vid=c43608e5-e62a-4682-b590-62f0d28f52b0","ios":"levelo://app?vid=c43608e5-e62a-4682-b590-62f0d28f52b0"},"vehicle_type_id":"4","last_reported":1706418445,"current_range_meters":0,"station_id":"ce4bh412rcd13ifvqdr0","pricing_plan_id":"free"},{"bike_id":"07afa4d3-71d4-4c6c-ab84-e801d481ffea","system_id":"levelo_inurba_marseille","lat":43.284209,"lon":5.34986,"is_reserved":false,"is_disabled":false,"rental_uris":{"android":"levelo://app?vid=07afa4d3-71d4-4c6c-ab84-e801d481ffea","ios":"levelo://app?vid=07afa4d3-71d4-4c6c-ab84-e801d481ffea"},"vehicle_type_id":"4","last_reported":1706418445,"current_range_meters":26800,"station_id":"ce4bhbh2rcd13ifvqepg","pricing_plan_id":"free"},{"bike_id":"4de18cd9-ad60-4d61-924f-6142e63f1a0a","system_id":"levelo_inurba_marseille","lat":43.28419,"lon":5.34991,"is_reserved":false,"is_disabled":false,"rental_uris":{"android":"levelo://app?vid=4de18cd9-ad60-4d61-924f-6142e63f1a0a","ios":"levelo://app?vid=4de18cd9-ad60-4d61-924f-6142e63f1a0a"},"vehicle_type_id":"4","last_reported":1706418445,"current_range_meters":30000,"station_id":"ce4bhbh2rcd13ifvqepg","pricing_plan_id":"free"},{"bike_id":"5bfa4ac2-9603-4ea9-bd8f-9e9f40018fbe","system_id":"levelo_inurba_marseille","lat":43.284217,"lon":5.349697,"is_reserved":false,"is_disabled":false,"rental_uris":{"android":"levelo://app?vid=5bfa4ac2-9603-4ea9-bd8f-9e9f40018fbe","ios":"levelo://app?vid=5bfa4ac2-9603-4ea9-bd8f-9e9f40018fbe"},"vehicle_type_id":"4","last_reported":1706418445,"current_range_meters":19600,"station_id":"ce4bhbh2rcd13ifvqepg","pricing_plan_id":"free"},{"bike_id":"190f043b-27ef-4c26-adf1-e87975c28a49","system_id":"levelo_inurba_marseille","lat":43.284217,"lon":5.349697,"is_reserved":false,"is_disabled":false,"rental_uris":{"android":"levelo://app?vid=190f043b-27ef-4c26-adf1-e87975c28a49","ios":"levelo://app?vid=190f043b-27ef-4c26-adf1-e87975c28a49"},"vehicle_type_id":"4","last_reported":1706418445,"current_range_meters":30400,"station_id":"ce4bhbh2rcd13ifvqepg","pricing_plan_id":"free"},{"bike_id":"b41bcd76-cb12-4b33-95cd-9444d1e23578","system_id":"levelo_inurba_marseille","lat":43.293556,"lon":5.401561,"is_reserved":false,"is_disabled":false,"rental_uris":{"android":"levelo://app?vid=b41bcd76-cb12-4b33-95cd-9444d1e23578","ios":"levelo://app?vid=b41bcd76-cb12-4b33-95cd-9444d1e23578"},"vehicle_type_id":"4","last_reported":1706418445,"current_range_meters":7600,"station_id":"","pricing_plan_id":"free"},{"bike_id":"572468fd-0f9a-4073-a705-45b8d7bb6897","system_id":"levelo_inurba_marseille","lat":43.292724,"lon":5.401131,"is_reserved":false,"is_disabled":false,"rental_uris":{"android":"levelo://app?vid=572468fd-0f9a-4073-a705-45b8d7bb6897","ios":"levelo://app?vid=572468fd-0f9a-4073-a705-45b8d7bb6897"},"vehicle_type_id":"4","last_reported":1706418445,"current_range_meters":24400,"station_id":"ce4bh312rcd13ifvqdk0","pricing_plan_id":"free"},{"bike_id":"0c439df9-63ac-436e-b27d-1fe8cf17aacd","system_id":"levelo_inurba_marseille","lat":43.292587,"lon":5.401253,"is_reserved":false,"is_disabled":false,"rental_uris":{"android":"levelo://app?vid=0c439df9-63ac-436e-b27d-1fe8cf17aacd","ios":"levelo://app?vid=0c439df9-63ac-436e-b27d-1fe8cf17aacd"},"vehicle_type_id":"4","last_reported":1706418445,"current_range_meters":26800,"station_id":"","pricing_plan_id":"free"},{"bike_id":"eb4e4ac4-62ea-47bd-8c21-b27d5480ce5b","system_id":"levelo_inurba_marseille","lat":43.283502,"lon":5.386471,"is_reserved":false,"is_disabled":false,"rental_uris":{"android":"levelo://app?vid=eb4e4ac4-62ea-47bd-8c21-b27d5480ce5b","ios":"levelo://app?vid=eb4e4ac4-62ea-47bd-8c21-b27d5480ce5b"},"vehicle_type_id":"4","last_reported":1706418445,"current_range_meters":22800,"station_id":"ce4bh492rcd13ifvqdvg","pricing_plan_id":"free"},{"bike_id":"8260046f-2529-4645-b9a6-53220628a170","system_id":"levelo_inurba_marseille","lat":43.282736,"lon":5.350736,"is_reserved":false,"is_disabled":false,"rental_uris":{"android":"levelo://app?vid=8260046f-2529-4645-b9a6-53220628a170","ios":"levelo://app?vid=8260046f-2529-4645-b9a6-53220628a170"},"vehicle_type_id":"4","last_reported":1706418445,"current_range_meters":31200,"station_id":"ce4bhbp2rcd13ifvqerg","pricing_plan_id":"free"},{"bike_id":"a4dee076-d77d-4907-b73b-8abb8cf21261","system_id":"levelo_inurba_marseille","lat":43.28039,"lon":5.369297,"is_reserved":false,"is_disabled":false,"rental_uris":{"android":"levelo://app?vid=a4dee076-d77d-4907-b73b-8abb8cf21261","ios":"levelo://app?vid=a4dee076-d77d-4907-b73b-8abb8cf21261"},"vehicle_type_id":"4","last_reported":1706418445,"current_range_meters":23600,"station_id":"ce4bha12rcd13ifvqef0","pricing_plan_id":"free"},{"bike_id":"054d4a3b-93bd-4f0a-ac3f-670037b46552","system_id":"levelo_inurba_marseille","lat":43.292724,"lon":5.401131,"is_reserved":false,"is_disabled":false,"rental_uris":{"android":"levelo://app?vid=054d4a3b-93bd-4f0a-ac3f-670037b46552","ios":"levelo://app?vid=054d4a3b-93bd-4f0a-ac3f-670037b46552"},"vehicle_type_id":"4","last_reported":1706418445,"current_range_meters":18800,"station_id":"ce4bh312rcd13ifvqdk0","pricing_plan_id":"free"},{"bike_id":"9b4a9518-965f-4ef4-bcae-b9ba5a2be020","system_id":"levelo_inurba_marseille","lat":43.280382,"lon":5.369291,"is_reserved":false,"is_disabled":false,"rental_uris":{"android":"levelo://app?vid=9b4a9518-965f-4ef4-bcae-b9ba5a2be020","ios":"levelo://app?vid=9b4a9518-965f-4ef4-bcae-b9ba5a2be020"},"vehicle_type_id":"4","last_reported":1706418445,"current_range_meters":26800,"station_id":"ce4bha12rcd13ifvqef0","pricing_plan_id":"free"},{"bike_id":"a2fd409c-99ce-4249-8d63-fdea0254a9c9","system_id":"levelo_inurba_marseille","lat":43.28039,"lon":5.369297,"is_reserved":false,"is_disabled":false,"rental_uris":{"android":"levelo://app?vid=a2fd409c-99ce-4249-8d63-fdea0254a9c9","ios":"levelo://app?vid=a2fd409c-99ce-4249-8d63-fdea0254a9c9"},"vehicle_type_id":"4","last_reported":1706418445,"current_range_meters":18400,"station_id":"ce4bha12rcd13ifvqef0","pricing_plan_id":"free"},{"bike_id":"7d56b545-ea86-423c-9c7b-f611e297116c","system_id":"levelo_inurba_marseille","lat":43.280382,"lon":5.369291,"is_reserved":false,"is_disabled":false,"rental_uris":{"android":"levelo://app?vid=7d56b545-ea86-423c-9c7b-f611e297116c","ios":"levelo://app?vid=7d56b545-ea86-423c-9c7b-f611e297116c"},"vehicle_type_id":"4","last_reported":1706418445,"current_range_meters":28400,"station_id":"ce4bha12rcd13ifvqef0","pricing_plan_id":"free"},{"bike_id":"5c91d4cd-cacb-4112-8e26-9288e7567cdc","system_id":"levelo_inurba_marseille","lat":43.28039,"lon":5.369297,"is_reserved":false,"is_disabled":false,"rental_uris":{"android":"levelo://app?vid=5c91d4cd-cacb-4112-8e26-9288e7567cdc","ios":"levelo://app?vid=5c91d4cd-cacb-4112-8e26-9288e7567cdc"},"vehicle_type_id":"4","last_reported":1706418445,"current_range_meters":30400,"station_id":"ce4bha12rcd13ifvqef0","pricing_plan_id":"free"},{"bike_id":"40533b1f-b24c-4993-9175-b37f741a5cd7","system_id":"levelo_inurba_marseille","lat":43.296263,"lon":5.40601,"is_reserved":false,"is_disabled":false,"rental_uris":{"android":"levelo://app?vid=40533b1f-b24c-4993-9175-b37f741a5cd7","ios":"levelo://app?vid=40533b1f-b24c-4993-9175-b37f741a5cd7"},"vehicle_type_id":"4","last_reported":1706418445,"current_range_meters":30000,"station_id":"ce4bh0h2rcd13ifvqd60","pricing_plan_id":"free"},{"bike_id":"ca37fd7c-d220-41a8-a9d8-9e0559ab5f40","system_id":"levelo_inurba_marseille","lat":43.296263,"lon":5.40601,"is_reserved":false,"is_disabled":false,"rental_uris":{"android":"levelo://app?vid=ca37fd7c-d220-41a8-a9d8-9e0559ab5f40","ios":"levelo://app?vid=ca37fd7c-d220-41a8-a9d8-9e0559ab5f40"},"vehicle_type_id":"4","last_reported":1706418445,"current_range_meters":26400,"station_id":"ce4bh0h2rcd13ifvqd60","pricing_plan_id":"free"},{"bike_id":"72a878d7-a2c2-4325-95c5-2a98161bbcc2","system_id":"levelo_inurba_marseille","lat":43.296263,"lon":5.40601,"is_reserved":false,"is_disabled":false,"rental_uris":{"android":"levelo://app?vid=72a878d7-a2c2-4325-95c5-2a98161bbcc2","ios":"levelo://app?vid=72a878d7-a2c2-4325-95c5-2a98161bbcc2"},"vehicle_type_id":"4","last_reported":1706418445,"current_range_meters":29200,"station_id":"ce4bh0h2rcd13ifvqd60","pricing_plan_id":"free"},{"bike_id":"85283570-766e-4f09-b6d7-924805593782","system_id":"levelo_inurba_marseille","lat":43.284462,"lon":5.392121,"is_reserved":false,"is_disabled":false,"rental_uris":{"android":"levelo://app?vid=85283570-766e-4f09-b6d7-924805593782","ios":"levelo://app?vid=85283570-766e-4f09-b6d7-924805593782"},"vehicle_type_id":"4","last_reported":1706418445,"current_range_meters":22000,"station_id":"ce4bhoh2rcd13ifvqh5g","pricing_plan_id":"free"},{"bike_id":"ebd50005-3faa-4b4c-bc65-0c0a5a2afc4f","system_id":"levelo_inurba_marseille","lat":43.28573,"lon":5.394992,"is_reserved":false,"is_disabled":false,"rental_uris":{"android":"levelo://app?vid=ebd50005-3faa-4b4c-bc65-0c0a5a2afc4f","ios":"levelo://app?vid=ebd50005-3faa-4b4c-bc65-0c0a5a2afc4f"},"vehicle_type_id":"4","last_reported":1706418445,"current_range_meters":30400,"station_id":"ce4bh292rcd13ifvqdg0","pricing_plan_id":"free"},{"bike_id":"046406e2-3124-4f65-a46c-e831ec439c33","system_id":"levelo_inurba_marseille","lat":43.326605,"lon":5.409903,"is_reserved":false,"is_disabled":false,"rental_uris":{"android":"levelo://app?vid=046406e2-3124-4f65-a46c-e831ec439c33","ios":"levelo://app?vid=046406e2-3124-4f65-a46c-e831ec439c33"},"vehicle_type_id":"4","last_reported":1706418445,"current_range_meters":30000,"station_id":"ce4bhpp2rcd13ifvqhgg","pricing_plan_id":"free"},{"bike_id":"e17fd06b-aaed-4b58-8ddd-8de8911cc03d","system_id":"levelo_inurba_marseille","lat":43.304188,"lon":5.412904,"is_reserved":false,"is_disabled":false,"rental_uris":{"android":"levelo://app?vid=e17fd06b-aaed-4b58-8ddd-8de8911cc03d","ios":"levelo://app?vid=e17fd06b-aaed-4b58-8ddd-8de8911cc03d"},"vehicle_type_id":"4","last_reported":1706418445,"current_range_meters":31200,"station_id":"ce4bhop2rcd13ifvqh8g","pricing_plan_id":"free"},{"bike_id":"bb00f9fd-c33a-4782-b405-d2b5fb2eb549","system_id":"levelo_inurba_marseille","lat":43.304188,"lon":5.412904,"is_reserved":false,"is_disabled":false,"rental_uris":{"android":"levelo://app?vid=bb00f9fd-c33a-4782-b405-d2b5fb2eb549","ios":"levelo://app?vid=bb00f9fd-c33a-4782-b405-d2b5fb2eb549"},"vehicle_type_id":"4","last_reported":1706418445,"current_range_meters":15600,"station_id":"ce4bhop2rcd13ifvqh8g","pricing_plan_id":"free"},{"bike_id":"1e236eff-08d0-4fd7-afa5-dba795c059f5","system_id":"levelo_inurba_marseille","lat":43.304188,"lon":5.412904,"is_reserved":false,"is_disabled":false,"rental_uris":{"android":"levelo://app?vid=1e236eff-08d0-4fd7-afa5-dba795c059f5","ios":"levelo://app?vid=1e236eff-08d0-4fd7-afa5-dba795c059f5"},"vehicle_type_id":"4","last_reported":1706418445,"current_range_meters":22000,"station_id":"ce4bhop2rcd13ifvqh8g","pricing_plan_id":"free"},{"bike_id":"2686bc5a-ad76-4b36-92e4-05b0fc7f6a53","system_id":"levelo_inurba_marseille","lat":43.287154,"lon":5.399979,"is_reserved":false,"is_disabled":false,"rental_uris":{"android":"levelo://app?vid=2686bc5a-ad76-4b36-92e4-05b0fc7f6a53","ios":"levelo://app?vid=2686bc5a-ad76-4b36-92e4-05b0fc7f6a53"},"vehicle_type_id":"4","last_reported":1706418445,"current_range_meters":29600,"station_id":"ce4bho92rcd13ifvqh3g","pricing_plan_id":"free"},{"bike_id":"81f5be19-416c-4fea-b525-1189272fb41f","system_id":"levelo_inurba_marseille","lat":43.320045,"lon":5.415046,"is_reserved":false,"is_disabled":false,"rental_uris":{"android":"levelo://app?vid=81f5be19-416c-4fea-b525-1189272fb41f","ios":"levelo://app?vid=81f5be19-416c-4fea-b525-1189272fb41f"},"vehicle_type_id":"4","last_reported":1706418445,"current_range_meters":28000,"station_id":"ce4bhq92rcd13ifvqhkg","pricing_plan_id":"free"},{"bike_id":"a77471f6-0819-4e3d-865c-9ab4148b581f","system_id":"levelo_inurba_marseille","lat":43.320045,"lon":5.415046,"is_reserved":false,"is_disabled":false,"rental_uris":{"android":"levelo://app?vid=a77471f6-0819-4e3d-865c-9ab4148b581f","ios":"levelo://app?vid=a77471f6-0819-4e3d-865c-9ab4148b581f"},"vehicle_type_id":"4","last_reported":1706418445,"current_range_meters":27200,"station_id":"ce4bhq92rcd13ifvqhkg","pricing_plan_id":"free"},{"bike_id":"f1f80413-fe0c-41b0-9110-a75a9e425725","system_id":"levelo_inurba_marseille","lat":43.320045,"lon":5.415046,"is_reserved":false,"is_disabled":false,"rental_uris":{"android":"levelo://app?vid=f1f80413-fe0c-41b0-9110-a75a9e425725","ios":"levelo://app?vid=f1f80413-fe0c-41b0-9110-a75a9e425725"},"vehicle_type_id":"4","last_reported":1706418445,"current_range_meters":15200,"station_id":"ce4bhq92rcd13ifvqhkg","pricing_plan_id":"free"},{"bike_id":"8594565b-8f47-4423-875a-5c16a17b2eea","system_id":"levelo_inurba_marseille","lat":43.27947,"lon":5.38716,"is_reserved":false,"is_disabled":false,"rental_uris":{"android":"levelo://app?vid=8594565b-8f47-4423-875a-5c16a17b2eea","ios":"levelo://app?vid=8594565b-8f47-4423-875a-5c16a17b2eea"},"vehicle_type_id":"4","last_reported":1706418445,"current_range_meters":0,"station_id":"ce4bhg12rcd13ifvqf80","pricing_plan_id":"free"},{"bike_id":"e52d60ed-1c8c-48bb-ba0b-5f987a38c713","system_id":"levelo_inurba_marseille","lat":43.276179,"lon":5.361009,"is_reserved":false,"is_disabled":false,"rental_uris":{"android":"levelo://app?vid=e52d60ed-1c8c-48bb-ba0b-5f987a38c713","ios":"levelo://app?vid=e52d60ed-1c8c-48bb-ba0b-5f987a38c713"},"vehicle_type_id":"4","last_reported":1706418445,"current_range_meters":24000,"station_id":"ce4bgj92rcd13ifvqbe0","pricing_plan_id":"free"},{"bike_id":"adb8fcf8-9dad-464c-89b3-1f63ea3fcee3","system_id":"levelo_inurba_marseille","lat":43.278401,"lon":5.392152,"is_reserved":false,"is_disabled":false,"rental_uris":{"android":"levelo://app?vid=adb8fcf8-9dad-464c-89b3-1f63ea3fcee3","ios":"levelo://app?vid=adb8fcf8-9dad-464c-89b3-1f63ea3fcee3"},"vehicle_type_id":"4","last_reported":1706418445,"current_range_meters":4400,"station_id":"ce4bhjp2rcd13ifvqga0","pricing_plan_id":"free"},{"bike_id":"2d25c670-c708-4438-b65b-e5e5c5963a57","system_id":"levelo_inurba_marseille","lat":43.275625,"lon":5.384392,"is_reserved":false,"is_disabled":false,"rental_uris":{"android":"levelo://app?vid=2d25c670-c708-4438-b65b-e5e5c5963a57","ios":"levelo://app?vid=2d25c670-c708-4438-b65b-e5e5c5963a57"},"vehicle_type_id":"4","last_reported":1706418445,"current_range_meters":26000,"station_id":"ce4bhh92rcd13ifvqfi0","pricing_plan_id":"free"},{"bike_id":"76d7c7cc-4d99-4ec3-9c11-3659d8e5ea82","system_id":"levelo_inurba_marseille","lat":43.336064,"lon":5.410212,"is_reserved":false,"is_disabled":false,"rental_uris":{"android":"levelo://app?vid=76d7c7cc-4d99-4ec3-9c11-3659d8e5ea82","ios":"levelo://app?vid=76d7c7cc-4d99-4ec3-9c11-3659d8e5ea82"},"vehicle_type_id":"4","last_reported":1706418445,"current_range_meters":6400,"station_id":"ce4bhqh2rcd13ifvqhmg","pricing_plan_id":"free"},{"bike_id":"e0ffbd3c-6ebf-4289-8c42-97714d54c4c7","system_id":"levelo_inurba_marseille","lat":43.336074,"lon":5.410224,"is_reserved":false,"is_disabled":false,"rental_uris":{"android":"levelo://app?vid=e0ffbd3c-6ebf-4289-8c42-97714d54c4c7","ios":"levelo://app?vid=e0ffbd3c-6ebf-4289-8c42-97714d54c4c7"},"vehicle_type_id":"4","last_reported":1706418445,"current_range_meters":0,"station_id":"ce4bhqh2rcd13ifvqhmg","pricing_plan_id":"free"},{"bike_id":"710a6d3b-7695-45f4-926e-1e8a9793c4ad","system_id":"levelo_inurba_marseille","lat":43.336134,"lon":5.410341,"is_reserved":false,"is_disabled":false,"rental_uris":{"android":"levelo://app?vid=710a6d3b-7695-45f4-926e-1e8a9793c4ad","ios":"levelo://app?vid=710a6d3b-7695-45f4-926e-1e8a9793c4ad"},"vehicle_type_id":"4","last_reported":1706418445,"current_range_meters":14800,"station_id":"ce4bhqh2rcd13ifvqhmg","pricing_plan_id":"free"},{"bike_id":"873f92f1-d9d5-4bc4-bdf2-853eb7fc96a8","system_id":"levelo_inurba_marseille","lat":43.336099,"lon":5.410268,"is_reserved":false,"is_disabled":false,"rental_uris":{"android":"levelo://app?vid=873f92f1-d9d5-4bc4-bdf2-853eb7fc96a8","ios":"levelo://app?vid=873f92f1-d9d5-4bc4-bdf2-853eb7fc96a8"},"vehicle_type_id":"4","last_reported":1706418445,"current_range_meters":0,"station_id":"ce4bhqh2rcd13ifvqhmg","pricing_plan_id":"free"},{"bike_id":"44999208-a454-4a0b-9867-130853f10f43","system_id":"levelo_inurba_marseille","lat":43.336134,"lon":5.410341,"is_reserved":false,"is_disabled":false,"rental_uris":{"android":"levelo://app?vid=44999208-a454-4a0b-9867-130853f10f43","ios":"levelo://app?vid=44999208-a454-4a0b-9867-130853f10f43"},"vehicle_type_id":"4","last_reported":1706418445,"current_range_meters":11600,"station_id":"ce4bhqh2rcd13ifvqhmg","pricing_plan_id":"free"},{"bike_id":"ed20b58d-ea3b-42d2-8388-0bc616a6cd4a","system_id":"levelo_inurba_marseille","lat":43.336134,"lon":5.410341,"is_reserved":false,"is_disabled":false,"rental_uris":{"android":"levelo://app?vid=ed20b58d-ea3b-42d2-8388-0bc616a6cd4a","ios":"levelo://app?vid=ed20b58d-ea3b-42d2-8388-0bc616a6cd4a"},"vehicle_type_id":"4","last_reported":1706418445,"current_range_meters":0,"station_id":"ce4bhqh2rcd13ifvqhmg","pricing_plan_id":"free"},{"bike_id":"e43ca11c-c250-4606-92b1-16adfe316fd1","system_id":"levelo_inurba_marseille","lat":43.336103,"lon":5.41028,"is_reserved":false,"is_disabled":false,"rental_uris":{"android":"levelo://app?vid=e43ca11c-c250-4606-92b1-16adfe316fd1","ios":"levelo://app?vid=e43ca11c-c250-4606-92b1-16adfe316fd1"},"vehicle_type_id":"4","last_reported":1706418445,"current_range_meters":14000,"station_id":"ce4bhqh2rcd13ifvqhmg","pricing_plan_id":"free"},{"bike_id":"8f5a4b00-5747-43af-8fb9-6bf63647eb7f","system_id":"levelo_inurba_marseille","lat":43.336134,"lon":5.410341,"is_reserved":false,"is_disabled":false,"rental_uris":{"android":"levelo://app?vid=8f5a4b00-5747-43af-8fb9-6bf63647eb7f","ios":"levelo://app?vid=8f5a4b00-5747-43af-8fb9-6bf63647eb7f"},"vehicle_type_id":"4","last_reported":1706418445,"current_range_meters":10800,"station_id":"ce4bhqh2rcd13ifvqhmg","pricing_plan_id":"free"},{"bike_id":"9f6f24ea-1749-4e2a-8811-657325fbc10a","system_id":"levelo_inurba_marseille","lat":43.336134,"lon":5.410341,"is_reserved":false,"is_disabled":false,"rental_uris":{"android":"levelo://app?vid=9f6f24ea-1749-4e2a-8811-657325fbc10a","ios":"levelo://app?vid=9f6f24ea-1749-4e2a-8811-657325fbc10a"},"vehicle_type_id":"4","last_reported":1706418445,"current_range_meters":28000,"station_id":"ce4bhqh2rcd13ifvqhmg","pricing_plan_id":"free"},{"bike_id":"78cc0567-5135-4c08-bbf8-b9984e9c17fd","system_id":"levelo_inurba_marseille","lat":43.336101,"lon":5.410307,"is_reserved":false,"is_disabled":false,"rental_uris":{"android":"levelo://app?vid=78cc0567-5135-4c08-bbf8-b9984e9c17fd","ios":"levelo://app?vid=78cc0567-5135-4c08-bbf8-b9984e9c17fd"},"vehicle_type_id":"4","last_reported":1706418445,"current_range_meters":0,"station_id":"ce4bhqh2rcd13ifvqhmg","pricing_plan_id":"free"},{"bike_id":"959fff51-1b41-4ee2-9da2-86579e5a7590","system_id":"levelo_inurba_marseille","lat":43.336134,"lon":5.410341,"is_reserved":false,"is_disabled":false,"rental_uris":{"android":"levelo://app?vid=959fff51-1b41-4ee2-9da2-86579e5a7590","ios":"levelo://app?vid=959fff51-1b41-4ee2-9da2-86579e5a7590"},"vehicle_type_id":"4","last_reported":1706418445,"current_range_meters":24400,"station_id":"ce4bhqh2rcd13ifvqhmg","pricing_plan_id":"free"},{"bike_id":"662dc768-8d66-452a-9022-759985e18a90","system_id":"levelo_inurba_marseille","lat":43.336134,"lon":5.410341,"is_reserved":false,"is_disabled":false,"rental_uris":{"android":"levelo://app?vid=662dc768-8d66-452a-9022-759985e18a90","ios":"levelo://app?vid=662dc768-8d66-452a-9022-759985e18a90"},"vehicle_type_id":"4","last_reported":1706418445,"current_range_meters":2400,"station_id":"ce4bhqh2rcd13ifvqhmg","pricing_plan_id":"free"},{"bike_id":"7c340cc5-8aa7-449a-bbcf-bbd63e0d35df","system_id":"levelo_inurba_marseille","lat":43.336134,"lon":5.410341,"is_reserved":false,"is_disabled":false,"rental_uris":{"android":"levelo://app?vid=7c340cc5-8aa7-449a-bbcf-bbd63e0d35df","ios":"levelo://app?vid=7c340cc5-8aa7-449a-bbcf-bbd63e0d35df"},"vehicle_type_id":"4","last_reported":1706418445,"current_range_meters":20400,"station_id":"ce4bhqh2rcd13ifvqhmg","pricing_plan_id":"free"},{"bike_id":"0bd470c3-afd0-46ed-b569-4279e2016a2d","system_id":"levelo_inurba_marseille","lat":43.336134,"lon":5.410341,"is_reserved":false,"is_disabled":false,"rental_uris":{"android":"levelo://app?vid=0bd470c3-afd0-46ed-b569-4279e2016a2d","ios":"levelo://app?vid=0bd470c3-afd0-46ed-b569-4279e2016a2d"},"vehicle_type_id":"4","last_reported":1706418445,"current_range_meters":18000,"station_id":"ce4bhqh2rcd13ifvqhmg","pricing_plan_id":"free"},{"bike_id":"c7b0841f-989f-4f23-a6fc-018bcbc28966","system_id":"levelo_inurba_marseille","lat":43.336143,"lon":5.410322,"is_reserved":false,"is_disabled":false,"rental_uris":{"android":"levelo://app?vid=c7b0841f-989f-4f23-a6fc-018bcbc28966","ios":"levelo://app?vid=c7b0841f-989f-4f23-a6fc-018bcbc28966"},"vehicle_type_id":"4","last_reported":1706418445,"current_range_meters":2400,"station_id":"ce4bhqh2rcd13ifvqhmg","pricing_plan_id":"free"},{"bike_id":"af6a2fac-3558-4be3-a2fc-180bd943daa3","system_id":"levelo_inurba_marseille","lat":43.27997,"lon":5.40008,"is_reserved":false,"is_disabled":false,"rental_uris":{"android":"levelo://app?vid=af6a2fac-3558-4be3-a2fc-180bd943daa3","ios":"levelo://app?vid=af6a2fac-3558-4be3-a2fc-180bd943daa3"},"vehicle_type_id":"4","last_reported":1706418445,"current_range_meters":6000,"station_id":"ce4bho92rcd13ifvqh4g","pricing_plan_id":"free"},{"bike_id":"6f46a34b-d5d1-4592-8607-98eec5146735","system_id":"levelo_inurba_marseille","lat":43.283699,"lon":5.407128,"is_reserved":false,"is_disabled":false,"rental_uris":{"android":"levelo://app?vid=6f46a34b-d5d1-4592-8607-98eec5146735","ios":"levelo://app?vid=6f46a34b-d5d1-4592-8607-98eec5146735"},"vehicle_type_id":"4","last_reported":1706418445,"current_range_meters":4000,"station_id":"","pricing_plan_id":"free"},{"bike_id":"ee875769-e8b7-4caa-b3b8-2dad519b3fb1","system_id":"levelo_inurba_marseille","lat":43.31086,"lon":5.42423,"is_reserved":false,"is_disabled":false,"rental_uris":{"android":"levelo://app?vid=ee875769-e8b7-4caa-b3b8-2dad519b3fb1","ios":"levelo://app?vid=ee875769-e8b7-4caa-b3b8-2dad519b3fb1"},"vehicle_type_id":"4","last_reported":1706418445,"current_range_meters":16000,"station_id":"ce4bhp92rcd13ifvqhag","pricing_plan_id":"free"},{"bike_id":"2f12b2cc-ff75-4df3-bc65-1f65f6db24ec","system_id":"levelo_inurba_marseille","lat":43.317239,"lon":5.42398,"is_reserved":false,"is_disabled":false,"rental_uris":{"android":"levelo://app?vid=2f12b2cc-ff75-4df3-bc65-1f65f6db24ec","ios":"levelo://app?vid=2f12b2cc-ff75-4df3-bc65-1f65f6db24ec"},"vehicle_type_id":"4","last_reported":1706418445,"current_range_meters":29200,"station_id":"ce4bhp92rcd13ifvqhbg","pricing_plan_id":"free"},{"bike_id":"1dc6aee1-185a-4c87-8b91-93bb335cd229","system_id":"levelo_inurba_marseille","lat":43.310785,"lon":5.424305,"is_reserved":false,"is_disabled":false,"rental_uris":{"android":"levelo://app?vid=1dc6aee1-185a-4c87-8b91-93bb335cd229","ios":"levelo://app?vid=1dc6aee1-185a-4c87-8b91-93bb335cd229"},"vehicle_type_id":"4","last_reported":1706418445,"current_range_meters":27600,"station_id":"ce4bhp92rcd13ifvqhag","pricing_plan_id":"free"},{"bike_id":"16d1c813-3c9d-44a0-9af6-93f02ed74d30","system_id":"levelo_inurba_marseille","lat":43.317121,"lon":5.423936,"is_reserved":false,"is_disabled":false,"rental_uris":{"android":"levelo://app?vid=16d1c813-3c9d-44a0-9af6-93f02ed74d30","ios":"levelo://app?vid=16d1c813-3c9d-44a0-9af6-93f02ed74d30"},"vehicle_type_id":"4","last_reported":1706418445,"current_range_meters":26800,"station_id":"ce4bhp92rcd13ifvqhbg","pricing_plan_id":"free"},{"bike_id":"76a1444e-7429-4c72-9ae5-313749a04157","system_id":"levelo_inurba_marseille","lat":43.3108,"lon":5.42435,"is_reserved":false,"is_disabled":false,"rental_uris":{"android":"levelo://app?vid=76a1444e-7429-4c72-9ae5-313749a04157","ios":"levelo://app?vid=76a1444e-7429-4c72-9ae5-313749a04157"},"vehicle_type_id":"4","last_reported":1706418445,"current_range_meters":15200,"station_id":"ce4bhp92rcd13ifvqhag","pricing_plan_id":"free"},{"bike_id":"a7f8a6ab-52ad-4377-85b6-101c1eb0b9ed","system_id":"levelo_inurba_marseille","lat":43.340804,"lon":5.410219,"is_reserved":false,"is_disabled":false,"rental_uris":{"android":"levelo://app?vid=a7f8a6ab-52ad-4377-85b6-101c1eb0b9ed","ios":"levelo://app?vid=a7f8a6ab-52ad-4377-85b6-101c1eb0b9ed"},"vehicle_type_id":"4","last_reported":1706418445,"current_range_meters":18400,"station_id":"ce4bhqh2rcd13ifvqhlg","pricing_plan_id":"free"},{"bike_id":"b08d2d15-41fe-4a76-b19b-40e27b76f749","system_id":"levelo_inurba_marseille","lat":43.304096,"lon":5.425385,"is_reserved":false,"is_disabled":false,"rental_uris":{"android":"levelo://app?vid=b08d2d15-41fe-4a76-b19b-40e27b76f749","ios":"levelo://app?vid=b08d2d15-41fe-4a76-b19b-40e27b76f749"},"vehicle_type_id":"4","last_reported":1706418445,"current_range_meters":2400,"station_id":"ce4bhoh2rcd13ifvqh6g","pricing_plan_id":"free"},{"bike_id":"81cf8603-9b15-4253-af15-180b3101588a","system_id":"levelo_inurba_marseille","lat":43.295523,"lon":5.422926,"is_reserved":false,"is_disabled":false,"rental_uris":{"android":"levelo://app?vid=81cf8603-9b15-4253-af15-180b3101588a","ios":"levelo://app?vid=81cf8603-9b15-4253-af15-180b3101588a"},"vehicle_type_id":"4","last_reported":1706418445,"current_range_meters":16400,"station_id":"ce4bhph2rcd13ifvqhdg","pricing_plan_id":"free"},{"bike_id":"03b87ff7-4c71-47f3-9e83-b3cf89296a19","system_id":"levelo_inurba_marseille","lat":43.272133,"lon":5.39182,"is_reserved":false,"is_disabled":false,"rental_uris":{"android":"levelo://app?vid=03b87ff7-4c71-47f3-9e83-b3cf89296a19","ios":"levelo://app?vid=03b87ff7-4c71-47f3-9e83-b3cf89296a19"},"vehicle_type_id":"4","last_reported":1706418445,"current_range_meters":0,"station_id":"ce4bhhp2rcd13ifvqfm0","pricing_plan_id":"free"},{"bike_id":"67bc7a6c-010a-4a8b-952e-049062d8627b","system_id":"levelo_inurba_marseille","lat":43.2721,"lon":5.39184,"is_reserved":false,"is_disabled":false,"rental_uris":{"android":"levelo://app?vid=67bc7a6c-010a-4a8b-952e-049062d8627b","ios":"levelo://app?vid=67bc7a6c-010a-4a8b-952e-049062d8627b"},"vehicle_type_id":"4","last_reported":1706418445,"current_range_meters":2800,"station_id":"ce4bhhp2rcd13ifvqfm0","pricing_plan_id":"free"},{"bike_id":"8aea92dd-af85-42ba-910d-522f250eb873","system_id":"levelo_inurba_marseille","lat":43.27211,"lon":5.3919,"is_reserved":false,"is_disabled":false,"rental_uris":{"android":"levelo://app?vid=8aea92dd-af85-42ba-910d-522f250eb873","ios":"levelo://app?vid=8aea92dd-af85-42ba-910d-522f250eb873"},"vehicle_type_id":"4","last_reported":1706418445,"current_range_meters":0,"station_id":"ce4bhhp2rcd13ifvqfm0","pricing_plan_id":"free"},{"bike_id":"966041a0-9581-4f81-8201-5c521f759034","system_id":"levelo_inurba_marseille","lat":43.271907,"lon":5.391645,"is_reserved":false,"is_disabled":false,"rental_uris":{"android":"levelo://app?vid=966041a0-9581-4f81-8201-5c521f759034","ios":"levelo://app?vid=966041a0-9581-4f81-8201-5c521f759034"},"vehicle_type_id":"4","last_reported":1706418445,"current_range_meters":25600,"station_id":"ce4bhhp2rcd13ifvqfm0","pricing_plan_id":"free"},{"bike_id":"f2f20b18-7736-4412-a31b-83332408b202","system_id":"levelo_inurba_marseille","lat":43.278128,"lon":5.407195,"is_reserved":false,"is_disabled":false,"rental_uris":{"android":"levelo://app?vid=f2f20b18-7736-4412-a31b-83332408b202","ios":"levelo://app?vid=f2f20b18-7736-4412-a31b-83332408b202"},"vehicle_type_id":"4","last_reported":1706418445,"current_range_meters":27600,"station_id":"ce4bhnh2rcd13ifvqgtg","pricing_plan_id":"free"},{"bike_id":"9a9d9252-11ea-4064-9c2c-0df3fba0651c","system_id":"levelo_inurba_marseille","lat":43.269467,"lon":5.386439,"is_reserved":false,"is_disabled":false,"rental_uris":{"android":"levelo://app?vid=9a9d9252-11ea-4064-9c2c-0df3fba0651c","ios":"levelo://app?vid=9a9d9252-11ea-4064-9c2c-0df3fba0651c"},"vehicle_type_id":"4","last_reported":1706418445,"current_range_meters":15600,"station_id":"ce4bhh92rcd13ifvqfh0","pricing_plan_id":"free"},{"bike_id":"0f11d406-7590-44e0-bd8d-cb92808bfe07","system_id":"levelo_inurba_marseille","lat":43.279465,"lon":5.410561,"is_reserved":false,"is_disabled":false,"rental_uris":{"android":"levelo://app?vid=0f11d406-7590-44e0-bd8d-cb92808bfe07","ios":"levelo://app?vid=0f11d406-7590-44e0-bd8d-cb92808bfe07"},"vehicle_type_id":"4","last_reported":1706418445,"current_range_meters":12000,"station_id":"ce4bhnp2rcd13ifvqh0g","pricing_plan_id":"free"},{"bike_id":"4865b2d3-9a89-4171-8999-605365cb8bae","system_id":"levelo_inurba_marseille","lat":43.279397,"lon":5.41045,"is_reserved":false,"is_disabled":false,"rental_uris":{"android":"levelo://app?vid=4865b2d3-9a89-4171-8999-605365cb8bae","ios":"levelo://app?vid=4865b2d3-9a89-4171-8999-605365cb8bae"},"vehicle_type_id":"4","last_reported":1706418445,"current_range_meters":4000,"station_id":"ce4bhnp2rcd13ifvqh0g","pricing_plan_id":"free"},{"bike_id":"7fa9847f-3716-45a8-936b-87ef400e8e68","system_id":"levelo_inurba_marseille","lat":43.27996,"lon":5.416624,"is_reserved":false,"is_disabled":false,"rental_uris":{"android":"levelo://app?vid=7fa9847f-3716-45a8-936b-87ef400e8e68","ios":"levelo://app?vid=7fa9847f-3716-45a8-936b-87ef400e8e68"},"vehicle_type_id":"4","last_reported":1706418445,"current_range_meters":26400,"station_id":"ce4bho12rcd13ifvqh1g","pricing_plan_id":"free"},{"bike_id":"32624d75-812d-4303-bd5a-1af1369fa77a","system_id":"levelo_inurba_marseille","lat":43.308051,"lon":5.43527,"is_reserved":false,"is_disabled":false,"rental_uris":{"android":"levelo://app?vid=32624d75-812d-4303-bd5a-1af1369fa77a","ios":"levelo://app?vid=32624d75-812d-4303-bd5a-1af1369fa77a"},"vehicle_type_id":"4","last_reported":1706418445,"current_range_meters":20800,"station_id":"ce4bhph2rcd13ifvqheg","pricing_plan_id":"free"},{"bike_id":"e515107f-d284-4a36-a195-f165f6207fc2","system_id":"levelo_inurba_marseille","lat":43.308051,"lon":5.43527,"is_reserved":false,"is_disabled":false,"rental_uris":{"android":"levelo://app?vid=e515107f-d284-4a36-a195-f165f6207fc2","ios":"levelo://app?vid=e515107f-d284-4a36-a195-f165f6207fc2"},"vehicle_type_id":"4","last_reported":1706418445,"current_range_meters":24400,"station_id":"ce4bhph2rcd13ifvqheg","pricing_plan_id":"free"},{"bike_id":"1e40395a-6c07-4615-87a8-850912c17241","system_id":"levelo_inurba_marseille","lat":43.265569,"lon":5.390047,"is_reserved":false,"is_disabled":false,"rental_uris":{"android":"levelo://app?vid=1e40395a-6c07-4615-87a8-850912c17241","ios":"levelo://app?vid=1e40395a-6c07-4615-87a8-850912c17241"},"vehicle_type_id":"4","last_reported":1706418445,"current_range_meters":6800,"station_id":"ce4bhe12rcd13ifvqf30","pricing_plan_id":"free"},{"bike_id":"a0c1da5c-da2c-4591-819f-e09460076444","system_id":"levelo_inurba_marseille","lat":43.334257,"lon":5.4293,"is_reserved":false,"is_disabled":false,"rental_uris":{"android":"levelo://app?vid=a0c1da5c-da2c-4591-819f-e09460076444","ios":"levelo://app?vid=a0c1da5c-da2c-4591-819f-e09460076444"},"vehicle_type_id":"4","last_reported":1706418445,"current_range_meters":5600,"station_id":"","pricing_plan_id":"free"},{"bike_id":"2b8411f9-f98e-4185-9b31-ae91c546d090","system_id":"levelo_inurba_marseille","lat":43.261782,"lon":5.374515,"is_reserved":false,"is_disabled":false,"rental_uris":{"android":"levelo://app?vid=2b8411f9-f98e-4185-9b31-ae91c546d090","ios":"levelo://app?vid=2b8411f9-f98e-4185-9b31-ae91c546d090"},"vehicle_type_id":"4","last_reported":1706418445,"current_range_meters":30000,"station_id":"ce4bhgp2rcd13ifvqfc0","pricing_plan_id":"free"},{"bike_id":"04f1749c-9414-46b0-bfbc-63e5947f973f","system_id":"levelo_inurba_marseille","lat":43.261782,"lon":5.374515,"is_reserved":false,"is_disabled":false,"rental_uris":{"android":"levelo://app?vid=04f1749c-9414-46b0-bfbc-63e5947f973f","ios":"levelo://app?vid=04f1749c-9414-46b0-bfbc-63e5947f973f"},"vehicle_type_id":"4","last_reported":1706418445,"current_range_meters":18400,"station_id":"ce4bhgp2rcd13ifvqfc0","pricing_plan_id":"free"},{"bike_id":"7320ca53-1a3a-4bcb-b80d-5e5f4af56134","system_id":"levelo_inurba_marseille","lat":43.31709,"lon":5.43706,"is_reserved":false,"is_disabled":false,"rental_uris":{"android":"levelo://app?vid=7320ca53-1a3a-4bcb-b80d-5e5f4af56134","ios":"levelo://app?vid=7320ca53-1a3a-4bcb-b80d-5e5f4af56134"},"vehicle_type_id":"4","last_reported":1706418445,"current_range_meters":15600,"station_id":"ce4bhp92rcd13ifvqhcg","pricing_plan_id":"free"},{"bike_id":"23d956f6-8c9c-4e6d-a624-43f5b184af20","system_id":"levelo_inurba_marseille","lat":43.271368,"lon":5.40928,"is_reserved":false,"is_disabled":false,"rental_uris":{"android":"levelo://app?vid=23d956f6-8c9c-4e6d-a624-43f5b184af20","ios":"levelo://app?vid=23d956f6-8c9c-4e6d-a624-43f5b184af20"},