{"last_updated":1726683112,"ttl":30,"version":"2.2","data":{"bikes":[{"bike_id":"903eb79c-db2a-4bdc-be8d-35e16e9db6cd","system_id":"levelo_inurba_marseille","lat":43.28359,"lon":5.38641,"is_reserved":false,"is_disabled":false,"rental_uris":{"android":"levelo://app?vid=903eb79c-db2a-4bdc-be8d-35e16e9db6cd","ios":"levelo://app?vid=903eb79c-db2a-4bdc-be8d-35e16e9db6cd"},"vehicle_type_id":"4","last_reported":1726683112,"current_range_meters":23200,"station_id":"ce4bh492rcd13ifvqdvg","pricing_plan_id":"cebpf4jnsgd1na2vs0mg"},{"bike_id":"0288d614-6e4f-4934-ad15-cf509b72b6b9","system_id":"levelo_inurba_marseille","lat":43.27495,"lon":5.42457,"is_reserved":false,"is_disabled":false,"rental_uris":{"android":"levelo://app?vid=0288d614-6e4f-4934-ad15-cf509b72b6b9","ios":"levelo://app?vid=0288d614-6e4f-4934-ad15-cf509b72b6b9"},"vehicle_type_id":"4","last_reported":1726683112,"current_range_meters":40000,"station_id":"ce4bhn92rcd13ifvqgrg","pricing_plan_id":"cebpf4jnsgd1na2vs0mg"},{"bike_id":"2079a78f-59a6-44d5-9b6c-d3692438a29b","system_id":"levelo_inurba_marseille","lat":43.25588,"lon":5.38242,"is_reserved":false,"is_disabled":false,"rental_uris":{"android":"levelo://app?vid=2079a78f-59a6-44d5-9b6c-d3692438a29b","ios":"levelo://app?vid=2079a78f-59a6-44d5-9b6c-d3692438a29b"},"vehicle_type_id":"4","last_reported":1726683112,"current_range_meters":40000,"station_id":"ce4bhih2rcd13ifvqfs0","pricing_plan_id":"cebpf4jnsgd1na2vs0mg"},{"bike_id":"4e716995-f263-4f52-b2fb-2ed7cf45ae45","system_id":"levelo_inurba_marseille","lat":43.28271,"lon":5.35085,"is_reserved":false,"is_disabled":false,"rental_uris":{"android":"levelo://app?vid=4e716995-f263-4f52-b2fb-2ed7cf45ae45","ios":"levelo://app?vid=4e716995-f263-4f52-b2fb-2ed7cf45ae45"},"vehicle_type_id":"4","last_reported":1726683112,"current_range_meters":38800,"station_id":"ce4bhbp2rcd13ifvqerg","pricing_plan_id":"cebpf4jnsgd1na2vs0mg"},{"bike_id":"6a3ddc2a-1be4-4577-a233-5cc468852dcd","system_id":"levelo_inurba_marseille","lat":43.28668,"lon":5.36348,"is_reserved":false,"is_disabled":false,"rental_uris":{"android":"levelo://app?vid=6a3ddc2a-1be4-4577-a233-5cc468852dcd","ios":"levelo://app?vid=6a3ddc2a-1be4-4577-a233-5cc468852dcd"},"vehicle_type_id":"4","last_reported":1726683112,"current_range_meters":11200,"station_id":"ce4bhah2rcd13ifvqej0","pricing_plan_id":"cebpf4jnsgd1na2vs0mg"},{"bike_id":"6cb80f7a-647c-431f-af80-0a5fa80b3e12","system_id":"levelo_inurba_marseille","lat":43.31326,"lon":5.397,"is_reserved":false,"is_disabled":false,"rental_uris":{"android":"levelo://app?vid=6cb80f7a-647c-431f-af80-0a5fa80b3e12","ios":"levelo://app?vid=6cb80f7a-647c-431f-af80-0a5fa80b3e12"},"vehicle_type_id":"4","last_reported":1726683112,"current_range_meters":15200,"station_id":"ce4bgvp2rcd13ifvqcu0","pricing_plan_id":"cebpf4jnsgd1na2vs0mg"},{"bike_id":"bc429879-8fad-4b8c-9e35-3b3be0e24853","system_id":"levelo_inurba_marseille","lat":43.27815,"lon":5.40721,"is_reserved":false,"is_disabled":false,"rental_uris":{"android":"levelo://app?vid=bc429879-8fad-4b8c-9e35-3b3be0e24853","ios":"levelo://app?vid=bc429879-8fad-4b8c-9e35-3b3be0e24853"},"vehicle_type_id":"4","last_reported":1726683112,"current_range_meters":37600,"station_id":"ce4bhnh2rcd13ifvqgtg","pricing_plan_id":"cebpf4jnsgd1na2vs0mg"},{"bike_id":"12ca8798-d15b-49cc-a8e7-75f7c34ba400","system_id":"levelo_inurba_marseille","lat":43.33026,"lon":5.39044,"is_reserved":false,"is_disabled":false,"rental_uris":{"android":"levelo://app?vid=12ca8798-d15b-49cc-a8e7-75f7c34ba400","ios":"levelo://app?vid=12ca8798-d15b-49cc-a8e7-75f7c34ba400"},"vehicle_type_id":"4","last_reported":1726683112,"current_range_meters":33600,"station_id":"ce4bhr92rcd13ifvqhrg","pricing_plan_id":"cebpf4jnsgd1na2vs0mg"},{"bike_id":"e532fd53-ad12-4848-82ea-70ac934c1c37","system_id":"levelo_inurba_marseille","lat":43.337444,"lon":5.374475,"is_reserved":false,"is_disabled":false,"rental_uris":{"android":"levelo://app?vid=e532fd53-ad12-4848-82ea-70ac934c1c37","ios":"levelo://app?vid=e532fd53-ad12-4848-82ea-70ac934c1c37"},"vehicle_type_id":"4","last_reported":1726683112,"current_range_meters":19200,"station_id":"","pricing_plan_id":"cebpf4jnsgd1na2vs0mg"},{"bike_id":"7332dc89-86f5-4102-96be-093ed50799dc","system_id":"levelo_inurba_marseille","lat":43.24658,"lon":5.38163,"is_reserved":false,"is_disabled":false,"rental_uris":{"android":"levelo://app?vid=7332dc89-86f5-4102-96be-093ed50799dc","ios":"levelo://app?vid=7332dc89-86f5-4102-96be-093ed50799dc"},"vehicle_type_id":"4","last_reported":1726683112,"current_range_meters":24000,"station_id":"ce4bhih2rcd13ifvqfr0","pricing_plan_id":"cebpf4jnsgd1na2vs0mg"},{"bike_id":"6cfc5976-7e37-4d46-bc57-b5e2b2264b2b","system_id":"levelo_inurba_marseille","lat":43.29437,"lon":5.39748,"is_reserved":false,"is_disabled":false,"rental_uris":{"android":"levelo://app?vid=6cfc5976-7e37-4d46-bc57-b5e2b2264b2b","ios":"levelo://app?vid=6cfc5976-7e37-4d46-bc57-b5e2b2264b2b"},"vehicle_type_id":"4","last_reported":1726683112,"current_range_meters":21600,"station_id":"ce4bh3h2rcd13ifvqdo0","pricing_plan_id":"cebpf4jnsgd1na2vs0mg"},{"bike_id":"d4f26076-11cd-4740-a38c-784311337c6e","system_id":"levelo_inurba_marseille","lat":43.279,"lon":5.38025,"is_reserved":false,"is_disabled":false,"rental_uris":{"android":"levelo://app?vid=d4f26076-11cd-4740-a38c-784311337c6e","ios":"levelo://app?vid=d4f26076-11cd-4740-a38c-784311337c6e"},"vehicle_type_id":"4","last_reported":1726683112,"current_range_meters":32000,"station_id":"ce4bhf92rcd13ifvqf50","pricing_plan_id":"cebpf4jnsgd1na2vs0mg"},{"bike_id":"df1003b0-3c83-469a-aeeb-2eaf283222f8","system_id":"levelo_inurba_marseille","lat":43.30192,"lon":5.39481,"is_reserved":false,"is_disabled":false,"rental_uris":{"android":"levelo://app?vid=df1003b0-3c83-469a-aeeb-2eaf283222f8","ios":"levelo://app?vid=df1003b0-3c83-469a-aeeb-2eaf283222f8"},"vehicle_type_id":"4","last_reported":1726683112,"current_range_meters":26000,"station_id":"ce4bh0p2rcd13ifvqd70","pricing_plan_id":"cebpf4jnsgd1na2vs0mg"},{"bike_id":"4e871cbb-8554-40d4-8be2-dd07b4559d20","system_id":"levelo_inurba_marseille","lat":43.28615,"lon":5.35102,"is_reserved":false,"is_disabled":false,"rental_uris":{"android":"levelo://app?vid=4e871cbb-8554-40d4-8be2-dd07b4559d20","ios":"levelo://app?vid=4e871cbb-8554-40d4-8be2-dd07b4559d20"},"vehicle_type_id":"4","last_reported":1726683112,"current_range_meters":8000,"station_id":"ce4bhch2rcd13ifvqeug","pricing_plan_id":"cebpf4jnsgd1na2vs0mg"},{"bike_id":"bc1bd2ef-9110-48ca-af9c-70c2221fea1c","system_id":"levelo_inurba_marseille","lat":43.268036,"lon":5.402747,"is_reserved":false,"is_disabled":false,"rental_uris":{"android":"levelo://app?vid=bc1bd2ef-9110-48ca-af9c-70c2221fea1c","ios":"levelo://app?vid=bc1bd2ef-9110-48ca-af9c-70c2221fea1c"},"vehicle_type_id":"4","last_reported":1726683112,"current_range_meters":36800,"station_id":"ce501612rcd8frsf0b60","pricing_plan_id":"cebpf4jnsgd1na2vs0mg"},{"bike_id":"1990f9ed-b0a9-4db5-8aa8-97b4d764c0af","system_id":"levelo_inurba_marseille","lat":43.26685,"lon":5.38273,"is_reserved":false,"is_disabled":false,"rental_uris":{"android":"levelo://app?vid=1990f9ed-b0a9-4db5-8aa8-97b4d764c0af","ios":"levelo://app?vid=1990f9ed-b0a9-4db5-8aa8-97b4d764c0af"},"vehicle_type_id":"4","last_reported":1726683112,"current_range_meters":38800,"station_id":"ce4bhg92rcd13ifvqf90","pricing_plan_id":"cebpf4jnsgd1na2vs0mg"},{"bike_id":"2f2579d7-da8e-4d48-acd6-80dced6622e3","system_id":"levelo_inurba_marseille","lat":43.29031,"lon":5.37559,"is_reserved":false,"is_disabled":false,"rental_uris":{"android":"levelo://app?vid=2f2579d7-da8e-4d48-acd6-80dced6622e3","ios":"levelo://app?vid=2f2579d7-da8e-4d48-acd6-80dced6622e3"},"vehicle_type_id":"4","last_reported":1726683112,"current_range_meters":8000,"station_id":"ce4bh692rcd13ifvqe90","pricing_plan_id":"cebpf4jnsgd1na2vs0mg"},{"bike_id":"c351e4f9-3de5-4732-bc8f-8cff7151f81d","system_id":"levelo_inurba_marseille","lat":43.25499,"lon":5.37647,"is_reserved":false,"is_disabled":false,"rental_uris":{"android":"levelo://app?vid=c351e4f9-3de5-4732-bc8f-8cff7151f81d","ios":"levelo://app?vid=c351e4f9-3de5-4732-bc8f-8cff7151f81d"},"vehicle_type_id":"4","last_reported":1726683112,"current_range_meters":24000,"station_id":"ce4bhh12rcd13ifvqff0","pricing_plan_id":"cebpf4jnsgd1na2vs0mg"},{"bike_id":"c8b16021-ad4f-4c1b-80b1-7d1b9c811227","system_id":"levelo_inurba_marseille","lat":43.32361,"lon":5.3888,"is_reserved":false,"is_disabled":false,"rental_uris":{"android":"levelo://app?vid=c8b16021-ad4f-4c1b-80b1-7d1b9c811227","ios":"levelo://app?vid=c8b16021-ad4f-4c1b-80b1-7d1b9c811227"},"vehicle_type_id":"4","last_reported":1726683112,"current_range_meters":8800,"station_id":"ce4bhqp2rcd13ifvqhog","pricing_plan_id":"cebpf4jnsgd1na2vs0mg"},{"bike_id":"734aa74e-b926-4042-9aab-1e80809573f6","system_id":"levelo_inurba_marseille","lat":43.28772,"lon":5.39141,"is_reserved":false,"is_disabled":false,"rental_uris":{"android":"levelo://app?vid=734aa74e-b926-4042-9aab-1e80809573f6","ios":"levelo://app?vid=734aa74e-b926-4042-9aab-1e80809573f6"},"vehicle_type_id":"4","last_reported":1726683112,"current_range_meters":27200,"station_id":"","pricing_plan_id":"cebpf4jnsgd1na2vs0mg"},{"bike_id":"01d4723d-68cd-4b49-b3ec-2f7c5f367b24","system_id":"levelo_inurba_marseille","lat":43.30131,"lon":5.3879,"is_reserved":false,"is_disabled":false,"rental_uris":{"android":"levelo://app?vid=01d4723d-68cd-4b49-b3ec-2f7c5f367b24","ios":"levelo://app?vid=01d4723d-68cd-4b49-b3ec-2f7c5f367b24"},"vehicle_type_id":"4","last_reported":1726683112,"current_range_meters":10800,"station_id":"ce4bghh2rcd13ifvqb60","pricing_plan_id":"cebpf4jnsgd1na2vs0mg"},{"bike_id":"90d40abe-b095-4f0b-8811-2a51c6549295","system_id":"levelo_inurba_marseille","lat":43.26057,"lon":5.39397,"is_reserved":false,"is_disabled":false,"rental_uris":{"android":"levelo://app?vid=90d40abe-b095-4f0b-8811-2a51c6549295","ios":"levelo://app?vid=90d40abe-b095-4f0b-8811-2a51c6549295"},"vehicle_type_id":"4","last_reported":1726683112,"current_range_meters":37600,"station_id":"ce4bhh92rcd13ifvqfj0","pricing_plan_id":"cebpf4jnsgd1na2vs0mg"},{"bike_id":"187f7ecf-ccc0-4e0f-a855-d748a5435d6f","system_id":"levelo_inurba_marseille","lat":43.24658,"lon":5.38161,"is_reserved":false,"is_disabled":false,"rental_uris":{"android":"levelo://app?vid=187f7ecf-ccc0-4e0f-a855-d748a5435d6f","ios":"levelo://app?vid=187f7ecf-ccc0-4e0f-a855-d748a5435d6f"},"vehicle_type_id":"4","last_reported":1726683112,"current_range_meters":22800,"station_id":"ce4bhih2rcd13ifvqfr0","pricing_plan_id":"cebpf4jnsgd1na2vs0mg"},{"bike_id":"3ceb4910-26dd-4e94-a3d0-4274cb5a83f0","system_id":"levelo_inurba_marseille","lat":43.30125,"lon":5.40285,"is_reserved":false,"is_disabled":false,"rental_uris":{"android":"levelo://app?vid=3ceb4910-26dd-4e94-a3d0-4274cb5a83f0","ios":"levelo://app?vid=3ceb4910-26dd-4e94-a3d0-4274cb5a83f0"},"vehicle_type_id":"4","last_reported":1726683112,"current_range_meters":6400,"station_id":"","pricing_plan_id":"cebpf4jnsgd1na2vs0mg"},{"bike_id":"0a3ffc0e-8e0f-478e-a002-b5e086f1ac54","system_id":"levelo_inurba_marseille","lat":43.25712,"lon":5.41093,"is_reserved":false,"is_disabled":false,"rental_uris":{"android":"levelo://app?vid=0a3ffc0e-8e0f-478e-a002-b5e086f1ac54","ios":"levelo://app?vid=0a3ffc0e-8e0f-478e-a002-b5e086f1ac54"},"vehicle_type_id":"4","last_reported":1726683112,"current_range_meters":20000,"station_id":"ce4bhkp2rcd13ifvqgd0","pricing_plan_id":"cebpf4jnsgd1na2vs0mg"},{"bike_id":"5c20a958-d490-41db-84a7-f9730ee7ce03","system_id":"levelo_inurba_marseille","lat":43.2957,"lon":5.39966,"is_reserved":false,"is_disabled":false,"rental_uris":{"android":"levelo://app?vid=5c20a958-d490-41db-84a7-f9730ee7ce03","ios":"levelo://app?vid=5c20a958-d490-41db-84a7-f9730ee7ce03"},"vehicle_type_id":"4","last_reported":1726683112,"current_range_meters":23200,"station_id":"ce4bh312rcd13ifvqdj0","pricing_plan_id":"cebpf4jnsgd1na2vs0mg"},{"bike_id":"18a09199-92c2-4742-ab1c-bdb65d499525","system_id":"levelo_inurba_marseille","lat":43.291229,"lon":5.392282,"is_reserved":false,"is_disabled":false,"rental_uris":{"android":"levelo://app?vid=18a09199-92c2-4742-ab1c-bdb65d499525","ios":"levelo://app?vid=18a09199-92c2-4742-ab1c-bdb65d499525"},"vehicle_type_id":"4","last_reported":1726683112,"current_range_meters":18000,"station_id":"ce4bh192rcd13ifvqdd0","pricing_plan_id":"cebpf4jnsgd1na2vs0mg"},{"bike_id":"ab8b1643-9e7f-47cc-b599-33f414e2c958","system_id":"levelo_inurba_marseille","lat":43.23188,"lon":5.3999,"is_reserved":false,"is_disabled":false,"rental_uris":{"android":"levelo://app?vid=ab8b1643-9e7f-47cc-b599-33f414e2c958","ios":"levelo://app?vid=ab8b1643-9e7f-47cc-b599-33f414e2c958"},"vehicle_type_id":"4","last_reported":1726683112,"current_range_meters":38800,"station_id":"ce4bhn12rcd13ifvqgqg","pricing_plan_id":"cebpf4jnsgd1na2vs0mg"},{"bike_id":"ddc2f7e6-d23b-4d89-96bc-a18a7029d574","system_id":"levelo_inurba_marseille","lat":43.31753,"lon":5.39019,"is_reserved":false,"is_disabled":false,"rental_uris":{"android":"levelo://app?vid=ddc2f7e6-d23b-4d89-96bc-a18a7029d574","ios":"levelo://app?vid=ddc2f7e6-d23b-4d89-96bc-a18a7029d574"},"vehicle_type_id":"4","last_reported":1726683112,"current_range_meters":30000,"station_id":"ce4bhqp2rcd13ifvqhng","pricing_plan_id":"cebpf4jnsgd1na2vs0mg"},{"bike_id":"c2667222-5d26-4d9c-a938-761c480fe584","system_id":"levelo_inurba_marseille","lat":43.33024,"lon":5.39049,"is_reserved":false,"is_disabled":false,"rental_uris":{"android":"levelo://app?vid=c2667222-5d26-4d9c-a938-761c480fe584","ios":"levelo://app?vid=c2667222-5d26-4d9c-a938-761c480fe584"},"vehicle_type_id":"4","last_reported":1726683112,"current_range_meters":9600,"station_id":"ce4bhr92rcd13ifvqhrg","pricing_plan_id":"cebpf4jnsgd1na2vs0mg"},{"bike_id":"3af0d51b-5d00-4b16-bf0a-8089f8a4f138","system_id":"levelo_inurba_marseille","lat":43.29275,"lon":5.40115,"is_reserved":false,"is_disabled":false,"rental_uris":{"android":"levelo://app?vid=3af0d51b-5d00-4b16-bf0a-8089f8a4f138","ios":"levelo://app?vid=3af0d51b-5d00-4b16-bf0a-8089f8a4f138"},"vehicle_type_id":"4","last_reported":1726683112,"current_range_meters":2800,"station_id":"ce4bh312rcd13ifvqdk0","pricing_plan_id":"cebpf4jnsgd1na2vs0mg"},{"bike_id":"67862bba-f398-466f-ba35-b4de292b2526","system_id":"levelo_inurba_marseille","lat":43.25727,"lon":5.41114,"is_reserved":false,"is_disabled":false,"rental_uris":{"android":"levelo://app?vid=67862bba-f398-466f-ba35-b4de292b2526","ios":"levelo://app?vid=67862bba-f398-466f-ba35-b4de292b2526"},"vehicle_type_id":"4","last_reported":1726683112,"current_range_meters":39200,"station_id":"ce4bhkp2rcd13ifvqgd0","pricing_plan_id":"cebpf4jnsgd1na2vs0mg"},{"bike_id":"608bc886-7142-4d07-8c02-3bda548dc5a6","system_id":"levelo_inurba_marseille","lat":43.2926,"lon":5.38444,"is_reserved":false,"is_disabled":false,"rental_uris":{"android":"levelo://app?vid=608bc886-7142-4d07-8c02-3bda548dc5a6","ios":"levelo://app?vid=608bc886-7142-4d07-8c02-3bda548dc5a6"},"vehicle_type_id":"4","last_reported":1726683112,"current_range_meters":37600,"station_id":"ce4bh692rcd13ifvqea0","pricing_plan_id":"cebpf4jnsgd1na2vs0mg"},{"bike_id":"8b112cbb-4cd8-45f0-af2c-7659ba45fefa","system_id":"levelo_inurba_marseille","lat":43.29792,"lon":5.38085,"is_reserved":false,"is_disabled":false,"rental_uris":{"android":"levelo://app?vid=8b112cbb-4cd8-45f0-af2c-7659ba45fefa","ios":"levelo://app?vid=8b112cbb-4cd8-45f0-af2c-7659ba45fefa"},"vehicle_type_id":"4","last_reported":1726683112,"current_range_meters":28400,"station_id":"ce4bgip2rcd13ifvqbb0","pricing_plan_id":"cebpf4jnsgd1na2vs0mg"},{"bike_id":"619281b5-7f14-4ae1-8cb9-57aec77434cc","system_id":"levelo_inurba_marseille","lat":43.26951,"lon":5.38627,"is_reserved":false,"is_disabled":false,"rental_uris":{"android":"levelo://app?vid=619281b5-7f14-4ae1-8cb9-57aec77434cc","ios":"levelo://app?vid=619281b5-7f14-4ae1-8cb9-57aec77434cc"},"vehicle_type_id":"4","last_reported":1726683112,"current_range_meters":39200,"station_id":"ce4bhh92rcd13ifvqfh0","pricing_plan_id":"cebpf4jnsgd1na2vs0mg"},{"bike_id":"d325cef9-4c42-4313-82a5-afd80f597758","system_id":"levelo_inurba_marseille","lat":43.3091,"lon":5.3685,"is_reserved":false,"is_disabled":false,"rental_uris":{"android":"levelo://app?vid=d325cef9-4c42-4313-82a5-afd80f597758","ios":"levelo://app?vid=d325cef9-4c42-4313-82a5-afd80f597758"},"vehicle_type_id":"4","last_reported":1726683112,"current_range_meters":38800,"station_id":"ce4bgn92rcd13ifvqbvg","pricing_plan_id":"cebpf4jnsgd1na2vs0mg"},{"bike_id":"f73cab25-e77c-47a3-8def-b8875f74ecae","system_id":"levelo_inurba_marseille","lat":43.27832,"lon":5.39203,"is_reserved":false,"is_disabled":false,"rental_uris":{"android":"levelo://app?vid=f73cab25-e77c-47a3-8def-b8875f74ecae","ios":"levelo://app?vid=f73cab25-e77c-47a3-8def-b8875f74ecae"},"vehicle_type_id":"4","last_reported":1726683112,"current_range_meters":8800,"station_id":"ce4bhjp2rcd13ifvqga0","pricing_plan_id":"cebpf4jnsgd1na2vs0mg"},{"bike_id":"0dd3cd64-9b1b-470d-90e1-cb799c6f2a9b","system_id":"levelo_inurba_marseille","lat":43.24071,"lon":5.37763,"is_reserved":false,"is_disabled":false,"rental_uris":{"android":"levelo://app?vid=0dd3cd64-9b1b-470d-90e1-cb799c6f2a9b","ios":"levelo://app?vid=0dd3cd64-9b1b-470d-90e1-cb799c6f2a9b"},"vehicle_type_id":"4","last_reported":1726683112,"current_range_meters":16400,"station_id":"ce4bhnp2rcd13ifvqgvg","pricing_plan_id":"cebpf4jnsgd1na2vs0mg"},{"bike_id":"3681120e-e611-4cdd-bbd2-18c63b746d28","system_id":"levelo_inurba_marseille","lat":43.29562,"lon":5.39974,"is_reserved":false,"is_disabled":false,"rental_uris":{"android":"levelo://app?vid=3681120e-e611-4cdd-bbd2-18c63b746d28","ios":"levelo://app?vid=3681120e-e611-4cdd-bbd2-18c63b746d28"},"vehicle_type_id":"4","last_reported":1726683112,"current_range_meters":28400,"station_id":"ce4bh312rcd13ifvqdj0","pricing_plan_id":"cebpf4jnsgd1na2vs0mg"},{"bike_id":"dfff78ab-da85-42d2-bb0d-737102304dd3","system_id":"levelo_inurba_marseille","lat":43.29267,"lon":5.38446,"is_reserved":false,"is_disabled":false,"rental_uris":{"android":"levelo://app?vid=dfff78ab-da85-42d2-bb0d-737102304dd3","ios":"levelo://app?vid=dfff78ab-da85-42d2-bb0d-737102304dd3"},"vehicle_type_id":"4","last_reported":1726683112,"current_range_meters":2000,"station_id":"ce4bh692rcd13ifvqea0","pricing_plan_id":"cebpf4jnsgd1na2vs0mg"},{"bike_id":"a8cf1998-7f9f-4af3-9620-4b99d5e3ad99","system_id":"levelo_inurba_marseille","lat":43.28458,"lon":5.35881,"is_reserved":false,"is_disabled":false,"rental_uris":{"android":"levelo://app?vid=a8cf1998-7f9f-4af3-9620-4b99d5e3ad99","ios":"levelo://app?vid=a8cf1998-7f9f-4af3-9620-4b99d5e3ad99"},"vehicle_type_id":"4","last_reported":1726683112,"current_range_meters":18800,"station_id":"ce4bhah2rcd13ifvqei0","pricing_plan_id":"cebpf4jnsgd1na2vs0mg"},{"bike_id":"646b3e73-3d30-4b6d-a473-ca7cbdd4be03","system_id":"levelo_inurba_marseille","lat":43.29001,"lon":5.35615,"is_reserved":false,"is_disabled":false,"rental_uris":{"android":"levelo://app?vid=646b3e73-3d30-4b6d-a473-ca7cbdd4be03","ios":"levelo://app?vid=646b3e73-3d30-4b6d-a473-ca7cbdd4be03"},"vehicle_type_id":"4","last_reported":1726683112,"current_range_meters":7200,"station_id":"ce4bhb92rcd13ifvqen0","pricing_plan_id":"cebpf4jnsgd1na2vs0mg"},{"bike_id":"096f29f8-3b34-4fac-afbc-13bacdbf7f7f","system_id":"levelo_inurba_marseille","lat":43.29452,"lon":5.39754,"is_reserved":false,"is_disabled":false,"rental_uris":{"android":"levelo://app?vid=096f29f8-3b34-4fac-afbc-13bacdbf7f7f","ios":"levelo://app?vid=096f29f8-3b34-4fac-afbc-13bacdbf7f7f"},"vehicle_type_id":"4","last_reported":1726683112,"current_range_meters":37600,"station_id":"ce4bh3h2rcd13ifvqdo0","pricing_plan_id":"cebpf4jnsgd1na2vs0mg"},{"bike_id":"33fd88cc-39de-4ce5-bfe7-d0b5e5bb1327","system_id":"levelo_inurba_marseille","lat":43.3171,"lon":5.43705,"is_reserved":false,"is_disabled":false,"rental_uris":{"android":"levelo://app?vid=33fd88cc-39de-4ce5-bfe7-d0b5e5bb1327","ios":"levelo://app?vid=33fd88cc-39de-4ce5-bfe7-d0b5e5bb1327"},"vehicle_type_id":"4","last_reported":1726683112,"current_range_meters":24400,"station_id":"ce4bhp92rcd13ifvqhcg","pricing_plan_id":"cebpf4jnsgd1na2vs0mg"},{"bike_id":"80f39cb8-50bb-4b49-8dbe-926866404154","system_id":"levelo_inurba_marseille","lat":43.29624,"lon":5.37716,"is_reserved":false,"is_disabled":false,"rental_uris":{"android":"levelo://app?vid=80f39cb8-50bb-4b49-8dbe-926866404154","ios":"levelo://app?vid=80f39cb8-50bb-4b49-8dbe-926866404154"},"vehicle_type_id":"4","last_reported":1726683112,"current_range_meters":6400,"station_id":"ce4bgi92rcd13ifvqb90","pricing_plan_id":"cebpf4jnsgd1na2vs0mg"},{"bike_id":"8f63ed9f-0d3a-4ab5-baf2-ef0c4ac64707","system_id":"levelo_inurba_marseille","lat":43.29553,"lon":5.42286,"is_reserved":false,"is_disabled":false,"rental_uris":{"android":"levelo://app?vid=8f63ed9f-0d3a-4ab5-baf2-ef0c4ac64707","ios":"levelo://app?vid=8f63ed9f-0d3a-4ab5-baf2-ef0c4ac64707"},"vehicle_type_id":"4","last_reported":1726683112,"current_range_meters":33600,"station_id":"ce4bhph2rcd13ifvqhdg","pricing_plan_id":"cebpf4jnsgd1na2vs0mg"},{"bike_id":"93260361-be99-4098-9fea-7f42551dad24","system_id":"levelo_inurba_marseille","lat":43.32472,"lon":5.36553,"is_reserved":false,"is_disabled":false,"rental_uris":{"android":"levelo://app?vid=93260361-be99-4098-9fea-7f42551dad24","ios":"levelo://app?vid=93260361-be99-4098-9fea-7f42551dad24"},"vehicle_type_id":"4","last_reported":1726683112,"current_range_meters":9200,"station_id":"ce4bhs12rcd13ifvqhvg","pricing_plan_id":"cebpf4jnsgd1na2vs0mg"},{"bike_id":"beb15bd0-b449-4862-b0ef-bc6b9508122c","system_id":"levelo_inurba_marseille","lat":43.276184,"lon":5.361046,"is_reserved":false,"is_disabled":false,"rental_uris":{"android":"levelo://app?vid=beb15bd0-b449-4862-b0ef-bc6b9508122c","ios":"levelo://app?vid=beb15bd0-b449-4862-b0ef-bc6b9508122c"},"vehicle_type_id":"4","last_reported":1726683112,"current_range_meters":8800,"station_id":"","pricing_plan_id":"cebpf4jnsgd1na2vs0mg"},{"bike_id":"d1d285b9-a61b-4822-b5aa-4e98478fb445","system_id":"levelo_inurba_marseille","lat":43.29283,"lon":5.4013,"is_reserved":false,"is_disabled":false,"rental_uris":{"android":"levelo://app?vid=d1d285b9-a61b-4822-b5aa-4e98478fb445","ios":"levelo://app?vid=d1d285b9-a61b-4822-b5aa-4e98478fb445"},"vehicle_type_id":"4","last_reported":1726683112,"current_range_meters":18000,"station_id":"ce4bh312rcd13ifvqdk0","pricing_plan_id":"cebpf4jnsgd1na2vs0mg"},{"bike_id":"5d78b308-9505-4ed0-832a-dc6eb31a5971","system_id":"levelo_inurba_marseille","lat":43.25579,"lon":5.38229,"is_reserved":false,"is_disabled":false,"rental_uris":{"android":"levelo://app?vid=5d78b308-9505-4ed0-832a-dc6eb31a5971","ios":"levelo://app?vid=5d78b308-9505-4ed0-832a-dc6eb31a5971"},"vehicle_type_id":"4","last_reported":1726683112,"current_range_meters":24800,"station_id":"ce4bhih2rcd13ifvqfs0","pricing_plan_id":"cebpf4jnsgd1na2vs0mg"},{"bike_id":"a39efeb3-260e-4279-8b05-c9cf0f422186","system_id":"levelo_inurba_marseille","lat":43.29705,"lon":5.36602,"is_reserved":false,"is_disabled":false,"rental_uris":{"android":"levelo://app?vid=a39efeb3-260e-4279-8b05-c9cf0f422186","ios":"levelo://app?vid=a39efeb3-260e-4279-8b05-c9cf0f422186"},"vehicle_type_id":"4","last_reported":1726683112,"current_range_meters":8800,"station_id":"ce4bgn12rcd13ifvqbt0","pricing_plan_id":"cebpf4jnsgd1na2vs0mg"},{"bike_id":"e4c73386-64c2-4b69-914e-0933ad2c5d9c","system_id":"levelo_inurba_marseille","lat":43.27604,"lon":5.3612,"is_reserved":false,"is_disabled":false,"rental_uris":{"android":"levelo://app?vid=e4c73386-64c2-4b69-914e-0933ad2c5d9c","ios":"levelo://app?vid=e4c73386-64c2-4b69-914e-0933ad2c5d9c"},"vehicle_type_id":"4","last_reported":1726683112,"current_range_meters":26000,"station_id":"ce4bgj92rcd13ifvqbe0","pricing_plan_id":"cebpf4jnsgd1na2vs0mg"},{"bike_id":"89032a77-9464-4c19-a181-2011b45be0e9","system_id":"levelo_inurba_marseille","lat":43.25112,"lon":5.40322,"is_reserved":false,"is_disabled":false,"rental_uris":{"android":"levelo://app?vid=89032a77-9464-4c19-a181-2011b45be0e9","ios":"levelo://app?vid=89032a77-9464-4c19-a181-2011b45be0e9"},"vehicle_type_id":"4","last_reported":1726683112,"current_range_meters":10000,"station_id":"ce4bhlh2rcd13ifvqgig","pricing_plan_id":"cebpf4jnsgd1na2vs0mg"},{"bike_id":"1978230f-3c57-4d11-bead-4bcb995f33f0","system_id":"levelo_inurba_marseille","lat":43.284202,"lon":5.349847,"is_reserved":false,"is_disabled":false,"rental_uris":{"android":"levelo://app?vid=1978230f-3c57-4d11-bead-4bcb995f33f0","ios":"levelo://app?vid=1978230f-3c57-4d11-bead-4bcb995f33f0"},"vehicle_type_id":"4","last_reported":1726683112,"current_range_meters":6800,"station_id":"ce4bhbh2rcd13ifvqepg","pricing_plan_id":"cebpf4jnsgd1na2vs0mg"},{"bike_id":"89d2e671-f0b9-44b6-9f35-a805a345c1b2","system_id":"levelo_inurba_marseille","lat":43.29024,"lon":5.38655,"is_reserved":false,"is_disabled":false,"rental_uris":{"android":"levelo://app?vid=89d2e671-f0b9-44b6-9f35-a805a345c1b2","ios":"levelo://app?vid=89d2e671-f0b9-44b6-9f35-a805a345c1b2"},"vehicle_type_id":"4","last_reported":1726683112,"current_range_meters":14400,"station_id":"ce4bh4p2rcd13ifvqe0g","pricing_plan_id":"cebpf4jnsgd1na2vs0mg"},{"bike_id":"7a795971-b5fd-4366-868f-8bf46f015c47","system_id":"levelo_inurba_marseille","lat":43.29573,"lon":5.39982,"is_reserved":false,"is_disabled":false,"rental_uris":{"android":"levelo://app?vid=7a795971-b5fd-4366-868f-8bf46f015c47","ios":"levelo://app?vid=7a795971-b5fd-4366-868f-8bf46f015c47"},"vehicle_type_id":"4","last_reported":1726683112,"current_range_meters":36800,"station_id":"ce4bh312rcd13ifvqdj0","pricing_plan_id":"cebpf4jnsgd1na2vs0mg"},{"bike_id":"aaf76d3e-3d39-4ed3-9e3b-76d8eacf89aa","system_id":"levelo_inurba_marseille","lat":43.29572,"lon":5.39972,"is_reserved":false,"is_disabled":false,"rental_uris":{"android":"levelo://app?vid=aaf76d3e-3d39-4ed3-9e3b-76d8eacf89aa","ios":"levelo://app?vid=aaf76d3e-3d39-4ed3-9e3b-76d8eacf89aa"},"vehicle_type_id":"4","last_reported":1726683112,"current_range_meters":12800,"station_id":"ce4bh312rcd13ifvqdj0","pricing_plan_id":"cebpf4jnsgd1na2vs0mg"},{"bike_id":"2553f65a-0d97-46ca-9f5c-3aa56544235b","system_id":"levelo_inurba_marseille","lat":43.26552,"lon":5.37287,"is_reserved":false,"is_disabled":false,"rental_uris":{"android":"levelo://app?vid=2553f65a-0d97-46ca-9f5c-3aa56544235b","ios":"levelo://app?vid=2553f65a-0d97-46ca-9f5c-3aa56544235b"},"vehicle_type_id":"4","last_reported":1726683112,"current_range_meters":5600,"station_id":"ce4bhg12rcd13ifvqf70","pricing_plan_id":"cebpf4jnsgd1na2vs0mg"},{"bike_id":"c8f976ed-9b9a-4c66-aad2-3809f436115c","system_id":"levelo_inurba_marseille","lat":43.25585,"lon":5.3823,"is_reserved":false,"is_disabled":false,"rental_uris":{"android":"levelo://app?vid=c8f976ed-9b9a-4c66-aad2-3809f436115c","ios":"levelo://app?vid=c8f976ed-9b9a-4c66-aad2-3809f436115c"},"vehicle_type_id":"4","last_reported":1726683112,"current_range_meters":11600,"station_id":"ce4bhih2rcd13ifvqfs0","pricing_plan_id":"cebpf4jnsgd1na2vs0mg"},{"bike_id":"938a1d8e-8f7a-4dbb-a7f7-9b765b9ff51b","system_id":"levelo_inurba_marseille","lat":43.27611,"lon":5.3612,"is_reserved":false,"is_disabled":false,"rental_uris":{"android":"levelo://app?vid=938a1d8e-8f7a-4dbb-a7f7-9b765b9ff51b","ios":"levelo://app?vid=938a1d8e-8f7a-4dbb-a7f7-9b765b9ff51b"},"vehicle_type_id":"4","last_reported":1726683112,"current_range_meters":26800,"station_id":"ce4bgj92rcd13ifvqbe0","pricing_plan_id":"cebpf4jnsgd1na2vs0mg"},{"bike_id":"fa77e604-95b4-476d-a30f-499c3aaf710d","system_id":"levelo_inurba_marseille","lat":43.33722,"lon":5.39187,"is_reserved":false,"is_disabled":false,"rental_uris":{"android":"levelo://app?vid=fa77e604-95b4-476d-a30f-499c3aaf710d","ios":"levelo://app?vid=fa77e604-95b4-476d-a30f-499c3aaf710d"},"vehicle_type_id":"4","last_reported":1726683112,"current_range_meters":10800,"station_id":"ce4bhr92rcd13ifvqhsg","pricing_plan_id":"cebpf4jnsgd1na2vs0mg"},{"bike_id":"d35e1a72-b703-49bc-bba6-f5de9c5fd6a8","system_id":"levelo_inurba_marseille","lat":43.33024,"lon":5.39035,"is_reserved":false,"is_disabled":false,"rental_uris":{"android":"levelo://app?vid=d35e1a72-b703-49bc-bba6-f5de9c5fd6a8","ios":"levelo://app?vid=d35e1a72-b703-49bc-bba6-f5de9c5fd6a8"},"vehicle_type_id":"4","last_reported":1726683112,"current_range_meters":23200,"station_id":"ce4bhr92rcd13ifvqhrg","pricing_plan_id":"cebpf4jnsgd1na2vs0mg"},{"bike_id":"6bea07ff-b7cf-43d7-9614-efd55ed0f2d6","system_id":"levelo_inurba_marseille","lat":43.24646,"lon":5.38899,"is_reserved":false,"is_disabled":false,"rental_uris":{"android":"levelo://app?vid=6bea07ff-b7cf-43d7-9614-efd55ed0f2d6","ios":"levelo://app?vid=6bea07ff-b7cf-43d7-9614-efd55ed0f2d6"},"vehicle_type_id":"4","last_reported":1726683112,"current_range_meters":30000,"station_id":"ce4bhg12rcd13ifvqf60","pricing_plan_id":"cebpf4jnsgd1na2vs0mg"},{"bike_id":"5304ed70-fad3-470c-b0c3-63f08a2a0a36","system_id":"levelo_inurba_marseille","lat":43.31324,"lon":5.39695,"is_reserved":false,"is_disabled":false,"rental_uris":{"android":"levelo://app?vid=5304ed70-fad3-470c-b0c3-63f08a2a0a36","ios":"levelo://app?vid=5304ed70-fad3-470c-b0c3-63f08a2a0a36"},"vehicle_type_id":"4","last_reported":1726683112,"current_range_meters":17600,"station_id":"ce4bgvp2rcd13ifvqcu0","pricing_plan_id":"cebpf4jnsgd1na2vs0mg"},{"bike_id":"9be94feb-a495-4651-8693-da9a946157ae","system_id":"levelo_inurba_marseille","lat":43.25005,"lon":5.3891,"is_reserved":false,"is_disabled":false,"rental_uris":{"android":"levelo://app?vid=9be94feb-a495-4651-8693-da9a946157ae","ios":"levelo://app?vid=9be94feb-a495-4651-8693-da9a946157ae"},"vehicle_type_id":"4","last_reported":1726683112,"current_range_meters":22000,"station_id":"ce4bhgp2rcd13ifvqfd0","pricing_plan_id":"cebpf4jnsgd1na2vs0mg"},{"bike_id":"1d7380bc-f6a9-4388-9188-755564b0eec4","system_id":"levelo_inurba_marseille","lat":43.24168,"lon":5.36394,"is_reserved":false,"is_disabled":false,"rental_uris":{"android":"levelo://app?vid=1d7380bc-f6a9-4388-9188-755564b0eec4","ios":"levelo://app?vid=1d7380bc-f6a9-4388-9188-755564b0eec4"},"vehicle_type_id":"4","last_reported":1726683112,"current_range_meters":25200,"station_id":"cpo36qri1sfpv3e86is0","pricing_plan_id":"cebpf4jnsgd1na2vs0mg"},{"bike_id":"8028020e-d6d9-4596-84d9-f47c7b1b844d","system_id":"levelo_inurba_marseille","lat":43.30936,"lon":5.4014,"is_reserved":false,"is_disabled":false,"rental_uris":{"android":"levelo://app?vid=8028020e-d6d9-4596-84d9-f47c7b1b844d","ios":"levelo://app?vid=8028020e-d6d9-4596-84d9-f47c7b1b844d"},"vehicle_type_id":"4","last_reported":1726683112,"current_range_meters":24000,"station_id":"ce4bgvp2rcd13ifvqct0","pricing_plan_id":"cebpf4jnsgd1na2vs0mg"},{"bike_id":"c62f1230-0a2f-4249-a200-adcef78073a6","system_id":"levelo_inurba_marseille","lat":43.22929,"lon":5.35384,"is_reserved":false,"is_disabled":false,"rental_uris":{"android":"levelo://app?vid=c62f1230-0a2f-4249-a200-adcef78073a6","ios":"levelo://app?vid=c62f1230-0a2f-4249-a200-adcef78073a6"},"vehicle_type_id":"4","last_reported":1726683112,"current_range_meters":38800,"station_id":"cpo3532slgdg3j2ikp40","pricing_plan_id":"cebpf4jnsgd1na2vs0mg"},{"bike_id":"53773973-4df1-49a3-b879-f53c2d0c8602","system_id":"levelo_inurba_marseille","lat":43.29414,"lon":5.38626,"is_reserved":false,"is_disabled":false,"rental_uris":{"android":"levelo://app?vid=53773973-4df1-49a3-b879-f53c2d0c8602","ios":"levelo://app?vid=53773973-4df1-49a3-b879-f53c2d0c8602"},"vehicle_type_id":"4","last_reported":1726683112,"current_range_meters":18800,"station_id":"ce4bh2h2rcd13ifvqdh0","pricing_plan_id":"cebpf4jnsgd1na2vs0mg"},{"bike_id":"982a42f4-df79-40e2-a0ba-e564bd95f845","system_id":"levelo_inurba_marseille","lat":43.29575,"lon":5.39969,"is_reserved":false,"is_disabled":false,"rental_uris":{"android":"levelo://app?vid=982a42f4-df79-40e2-a0ba-e564bd95f845","ios":"levelo://app?vid=982a42f4-df79-40e2-a0ba-e564bd95f845"},"vehicle_type_id":"4","last_reported":1726683112,"current_range_meters":9200,"station_id":"ce4bh312rcd13ifvqdj0","pricing_plan_id":"cebpf4jnsgd1na2vs0mg"},{"bike_id":"3d6b58cb-a363-46f7-a16f-0b66da801688","system_id":"levelo_inurba_marseille","lat":43.29519,"lon":5.39043,"is_reserved":false,"is_disabled":false,"rental_uris":{"android":"levelo://app?vid=3d6b58cb-a363-46f7-a16f-0b66da801688","ios":"levelo://app?vid=3d6b58cb-a363-46f7-a16f-0b66da801688"},"vehicle_type_id":"4","last_reported":1726683112,"current_range_meters":17200,"station_id":"ce4bh3p2rcd13ifvqdp0","pricing_plan_id":"cebpf4jnsgd1na2vs0mg"},{"bike_id":"de1d9071-35df-4bcd-b58b-8a7f092c2f01","system_id":"levelo_inurba_marseille","lat":43.28731,"lon":5.36089,"is_reserved":false,"is_disabled":false,"rental_uris":{"android":"levelo://app?vid=de1d9071-35df-4bcd-b58b-8a7f092c2f01","ios":"levelo://app?vid=de1d9071-35df-4bcd-b58b-8a7f092c2f01"},"vehicle_type_id":"4","last_reported":1726683112,"current_range_meters":14800,"station_id":"cki0cbj6b192h4jlfktg","pricing_plan_id":"cebpf4jnsgd1na2vs0mg"},{"bike_id":"b18d8b94-ea3f-41c4-a439-b580881ddfe3","system_id":"levelo_inurba_marseille","lat":43.31323,"lon":5.39696,"is_reserved":false,"is_disabled":false,"rental_uris":{"android":"levelo://app?vid=b18d8b94-ea3f-41c4-a439-b580881ddfe3","ios":"levelo://app?vid=b18d8b94-ea3f-41c4-a439-b580881ddfe3"},"vehicle_type_id":"4","last_reported":1726683112,"current_range_meters":38800,"station_id":"ce4bgvp2rcd13ifvqcu0","pricing_plan_id":"cebpf4jnsgd1na2vs0mg"},{"bike_id":"b645ac77-0d58-4fa9-8ad3-947af8bdb1d9","system_id":"levelo_inurba_marseille","lat":43.299,"lon":5.43667,"is_reserved":false,"is_disabled":false,"rental_uris":{"android":"levelo://app?vid=b645ac77-0d58-4fa9-8ad3-947af8bdb1d9","ios":"levelo://app?vid=b645ac77-0d58-4fa9-8ad3-947af8bdb1d9"},"vehicle_type_id":"4","last_reported":1726683112,"current_range_meters":17600,"station_id":"ce4bhpp2rcd13ifvqhfg","pricing_plan_id":"cebpf4jnsgd1na2vs0mg"},{"bike_id":"d788f6f8-3615-4e1a-8cf1-c61dcb015d0f","system_id":"levelo_inurba_marseille","lat":43.24071,"lon":5.3776,"is_reserved":false,"is_disabled":false,"rental_uris":{"android":"levelo://app?vid=d788f6f8-3615-4e1a-8cf1-c61dcb015d0f","ios":"levelo://app?vid=d788f6f8-3615-4e1a-8cf1-c61dcb015d0f"},"vehicle_type_id":"4","last_reported":1726683112,"current_range_meters":10000,"station_id":"ce4bhnp2rcd13ifvqgvg","pricing_plan_id":"cebpf4jnsgd1na2vs0mg"},{"bike_id":"55fed244-caf4-46e6-99fc-fcd916ddb5b7","system_id":"levelo_inurba_marseille","lat":43.232,"lon":5.35548,"is_reserved":false,"is_disabled":false,"rental_uris":{"android":"levelo://app?vid=55fed244-caf4-46e6-99fc-fcd916ddb5b7","ios":"levelo://app?vid=55fed244-caf4-46e6-99fc-fcd916ddb5b7"},"vehicle_type_id":"4","last_reported":1726683112,"current_range_meters":24000,"station_id":"ce4bhu92rcd13ifvqi70","pricing_plan_id":"cebpf4jnsgd1na2vs0mg"},{"bike_id":"3f7da9c1-e887-441d-8808-9e98153d4023","system_id":"levelo_inurba_marseille","lat":43.28613,"lon":5.35101,"is_reserved":false,"is_disabled":false,"rental_uris":{"android":"levelo://app?vid=3f7da9c1-e887-441d-8808-9e98153d4023","ios":"levelo://app?vid=3f7da9c1-e887-441d-8808-9e98153d4023"},"vehicle_type_id":"4","last_reported":1726683112,"current_range_meters":6800,"station_id":"ce4bhch2rcd13ifvqeug","pricing_plan_id":"cebpf4jnsgd1na2vs0mg"},{"bike_id":"185a2e6c-ad6c-4da5-9e3c-aea021d668cb","system_id":"levelo_inurba_marseille","lat":43.30641,"lon":5.40102,"is_reserved":false,"is_disabled":false,"rental_uris":{"android":"levelo://app?vid=185a2e6c-ad6c-4da5-9e3c-aea021d668cb","ios":"levelo://app?vid=185a2e6c-ad6c-4da5-9e3c-aea021d668cb"},"vehicle_type_id":"4","last_reported":1726683112,"current_range_meters":17200,"station_id":"ce4bh112rcd13ifvqda0","pricing_plan_id":"cebpf4jnsgd1na2vs0mg"},{"bike_id":"62e335eb-aaec-4647-b7e9-321a9f4dff46","system_id":"levelo_inurba_marseille","lat":43.28462,"lon":5.35888,"is_reserved":false,"is_disabled":false,"rental_uris":{"android":"levelo://app?vid=62e335eb-aaec-4647-b7e9-321a9f4dff46","ios":"levelo://app?vid=62e335eb-aaec-4647-b7e9-321a9f4dff46"},"vehicle_type_id":"4","last_reported":1726683112,"current_range_meters":3600,"station_id":"ce4bhah2rcd13ifvqei0","pricing_plan_id":"cebpf4jnsgd1na2vs0mg"},{"bike_id":"8ceb5aea-b40e-4dad-98b0-1dcabb72c74a","system_id":"levelo_inurba_marseille","lat":43.3143,"lon":5.40521,"is_reserved":false,"is_disabled":false,"rental_uris":{"android":"levelo://app?vid=8ceb5aea-b40e-4dad-98b0-1dcabb72c74a","ios":"levelo://app?vid=8ceb5aea-b40e-4dad-98b0-1dcabb72c74a"},"vehicle_type_id":"4","last_reported":1726683112,"current_range_meters":25200,"station_id":"","pricing_plan_id":"cebpf4jnsgd1na2vs0mg"},{"bike_id":"72671321-b8e7-4e0d-b6f9-d7d932fb8779","system_id":"levelo_inurba_marseille","lat":43.33021,"lon":5.39043,"is_reserved":false,"is_disabled":false,"rental_uris":{"android":"levelo://app?vid=72671321-b8e7-4e0d-b6f9-d7d932fb8779","ios":"levelo://app?vid=72671321-b8e7-4e0d-b6f9-d7d932fb8779"},"vehicle_type_id":"4","last_reported":1726683112,"current_range_meters":5600,"station_id":"ce4bhr92rcd13ifvqhrg","pricing_plan_id":"cebpf4jnsgd1na2vs0mg"},{"bike_id":"3e5ce477-7f69-4c9f-bf73-e98e38620e8a","system_id":"levelo_inurba_marseille","lat":43.317545,"lon":5.390114,"is_reserved":false,"is_disabled":false,"rental_uris":{"android":"levelo://app?vid=3e5ce477-7f69-4c9f-bf73-e98e38620e8a","ios":"levelo://app?vid=3e5ce477-7f69-4c9f-bf73-e98e38620e8a"},"vehicle_type_id":"4","last_reported":1726683112,"current_range_meters":9200,"station_id":"ce4bhqp2rcd13ifvqhng","pricing_plan_id":"cebpf4jnsgd1na2vs0mg"},{"bike_id":"67e3a6af-f6ee-4466-86cf-1bd6401a24ff","system_id":"levelo_inurba_marseille","lat":43.2827,"lon":5.35071,"is_reserved":false,"is_disabled":false,"rental_uris":{"android":"levelo://app?vid=67e3a6af-f6ee-4466-86cf-1bd6401a24ff","ios":"levelo://app?vid=67e3a6af-f6ee-4466-86cf-1bd6401a24ff"},"vehicle_type_id":"4","last_reported":1726683112,"current_range_meters":4000,"station_id":"ce4bhbp2rcd13ifvqerg","pricing_plan_id":"cebpf4jnsgd1na2vs0mg"},{"bike_id":"677498c9-746b-4650-9a8e-2c7479635944","system_id":"levelo_inurba_marseille","lat":43.33023,"lon":5.39047,"is_reserved":false,"is_disabled":false,"rental_uris":{"android":"levelo://app?vid=677498c9-746b-4650-9a8e-2c7479635944","ios":"levelo://app?vid=677498c9-746b-4650-9a8e-2c7479635944"},"vehicle_type_id":"4","last_reported":1726683112,"current_range_meters":12800,"station_id":"ce4bhr92rcd13ifvqhrg","pricing_plan_id":"cebpf4jnsgd1na2vs0mg"},{"bike_id":"a4c2d31a-5a3d-44d8-943e-6a9ae7240a99","system_id":"levelo_inurba_marseille","lat":43.30798,"lon":5.43518,"is_reserved":false,"is_disabled":false,"rental_uris":{"android":"levelo://app?vid=a4c2d31a-5a3d-44d8-943e-6a9ae7240a99","ios":"levelo://app?vid=a4c2d31a-5a3d-44d8-943e-6a9ae7240a99"},"vehicle_type_id":"4","last_reported":1726683112,"current_range_meters":3200,"station_id":"ce4bhph2rcd13ifvqheg","pricing_plan_id":"cebpf4jnsgd1na2vs0mg"},{"bike_id":"2cbb6dd5-2ec8-4ba5-808a-c5301f897d27","system_id":"levelo_inurba_marseille","lat":43.23961,"lon":5.36622,"is_reserved":false,"is_disabled":false,"rental_uris":{"android":"levelo://app?vid=2cbb6dd5-2ec8-4ba5-808a-c5301f897d27","ios":"levelo://app?vid=2cbb6dd5-2ec8-4ba5-808a-c5301f897d27"},"vehicle_type_id":"4","last_reported":1726683112,"current_range_meters":26800,"station_id":"ce4bhi12rcd13ifvqfp0","pricing_plan_id":"cebpf4jnsgd1na2vs0mg"},{"bike_id":"9dda1cef-2107-4eb9-93b9-5c147fb2d559","system_id":"levelo_inurba_marseille","lat":43.299679,"lon":5.384894,"is_reserved":false,"is_disabled":false,"rental_uris":{"android":"levelo://app?vid=9dda1cef-2107-4eb9-93b9-5c147fb2d559","ios":"levelo://app?vid=9dda1cef-2107-4eb9-93b9-5c147fb2d559"},"vehicle_type_id":"4","last_reported":1726683112,"current_range_meters":29600,"station_id":"ce4bhbh2rcd13ifvqepg","pricing_plan_id":"cebpf4jnsgd1na2vs0mg"},{"bike_id":"f5ddcaf2-4df3-4791-8314-9ff825829baa","system_id":"levelo_inurba_marseille","lat":43.28461,"lon":5.35892,"is_reserved":false,"is_disabled":false,"rental_uris":{"android":"levelo://app?vid=f5ddcaf2-4df3-4791-8314-9ff825829baa","ios":"levelo://app?vid=f5ddcaf2-4df3-4791-8314-9ff825829baa"},"vehicle_type_id":"4","last_reported":1726683112,"current_range_meters":26000,"station_id":"ce4bhah2rcd13ifvqei0","pricing_plan_id":"cebpf4jnsgd1na2vs0mg"},{"bike_id":"60a48ecc-9daa-48c2-b121-ddd2616d1aab","system_id":"levelo_inurba_marseille","lat":43.28346,"lon":5.38105,"is_reserved":false,"is_disabled":false,"rental_uris":{"android":"levelo://app?vid=60a48ecc-9daa-48c2-b121-ddd2616d1aab","ios":"levelo://app?vid=60a48ecc-9daa-48c2-b121-ddd2616d1aab"},"vehicle_type_id":"4","last_reported":1726683112,"current_range_meters":8400,"station_id":"ce4bh412rcd13ifvqdr0","pricing_plan_id":"cebpf4jnsgd1na2vs0mg"},{"bike_id":"67f71a78-adf6-472e-9e30-0c5102b1d7b9","system_id":"levelo_inurba_marseille","lat":43.30786,"lon":5.38178,"is_reserved":false,"is_disabled":false,"rental_uris":{"android":"levelo://app?vid=67f71a78-adf6-472e-9e30-0c5102b1d7b9","ios":"levelo://app?vid=67f71a78-adf6-472e-9e30-0c5102b1d7b9"},"vehicle_type_id":"4","last_reported":1726683112,"current_range_meters":2800,"station_id":"ce4bgt12rcd13ifvqce0","pricing_plan_id":"cebpf4jnsgd1na2vs0mg"},{"bike_id":"2f4906fe-56ab-44db-a516-03480ce1a647","system_id":"levelo_inurba_marseille","lat":43.33724,"lon":5.39194,"is_reserved":false,"is_disabled":false,"rental_uris":{"android":"levelo://app?vid=2f4906fe-56ab-44db-a516-03480ce1a647","ios":"levelo://app?vid=2f4906fe-56ab-44db-a516-03480ce1a647"},"vehicle_type_id":"4","last_reported":1726683112,"current_range_meters":8400,"station_id":"ce4bhr92rcd13ifvqhsg","pricing_plan_id":"cebpf4jnsgd1na2vs0mg"},{"bike_id":"47d9a46e-4fa4-4550-a090-b6d021f2733d","system_id":"levelo_inurba_marseille","lat":43.33022,"lon":5.39036,"is_reserved":false,"is_disabled":false,"rental_uris":{"android":"levelo://app?vid=47d9a46e-4fa4-4550-a090-b6d021f2733d","ios":"levelo://app?vid=47d9a46e-4fa4-4550-a090-b6d021f2733d"},"vehicle_type_id":"4","last_reported":1726683112,"current_range_meters":24000,"station_id":"ce4bhr92rcd13ifvqhrg","pricing_plan_id":"cebpf4jnsgd1na2vs0mg"},{"bike_id":"13c15046-5f97-48ee-bbd3-ceecf382f2a8","system_id":"levelo_inurba_marseille","lat":43.32367,"lon":5.38889,"is_reserved":false,"is_disabled":false,"rental_uris":{"android":"levelo://app?vid=13c15046-5f97-48ee-bbd3-ceecf382f2a8","ios":"levelo://app?vid=13c15046-5f97-48ee-bbd3-ceecf382f2a8"},"vehicle_type_id":"4","last_reported":1726683112,"current_range_meters":24400,"station_id":"ce4bhqp2rcd13ifvqhog","pricing_plan_id":"cebpf4jnsgd1na2vs0mg"},{"bike_id":"52fffaf1-dd98-4e0a-a39d-48011512624f","system_id":"levelo_inurba_marseille","lat":43.25499,"lon":5.37652,"is_reserved":false,"is_disabled":false,"rental_uris":{"android":"levelo://app?vid=52fffaf1-dd98-4e0a-a39d-48011512624f","ios":"levelo://app?vid=52fffaf1-dd98-4e0a-a39d-48011512624f"},"vehicle_type_id":"4","last_reported":1726683112,"current_range_meters":30800,"station_id":"ce4bhh12rcd13ifvqff0","pricing_plan_id":"cebpf4jnsgd1na2vs0mg"},{"bike_id":"62eb64bf-1496-4e1f-9221-724f499e1636","system_id":"levelo_inurba_marseille","lat":43.29524,"lon":5.38544,"is_reserved":false,"is_disabled":false,"rental_uris":{"android":"levelo://app?vid=62eb64bf-1496-4e1f-9221-724f499e1636","ios":"levelo://app?vid=62eb64bf-1496-4e1f-9221-724f499e1636"},"vehicle_type_id":"4","last_reported":1726683112,"current_range_meters":9200,"station_id":"ce4bgih2rcd13ifvqba0","pricing_plan_id":"cebpf4jnsgd1na2vs0mg"},{"bike_id":"5535e34d-2fc8-4fe2-ab46-097a6c74cdd8","system_id":"levelo_inurba_marseille","lat":43.3148,"lon":5.37306,"is_reserved":false,"is_disabled":false,"rental_uris":{"android":"levelo://app?vid=5535e34d-2fc8-4fe2-ab46-097a6c74cdd8","ios":"levelo://app?vid=5535e34d-2fc8-4fe2-ab46-097a6c74cdd8"},"vehicle_type_id":"4","last_reported":1726683112,"current_range_meters":2000,"station_id":"ce4bgt12rcd13ifvqcd0","pricing_plan_id":"cebpf4jnsgd1na2vs0mg"},{"bike_id":"d63120bc-169c-406e-a8d7-ba98dc14d92a","system_id":"levelo_inurba_marseille","lat":43.298059,"lon":5.380821,"is_reserved":false,"is_disabled":false,"rental_uris":{"android":"levelo://app?vid=d63120bc-169c-406e-a8d7-ba98dc14d92a","ios":"levelo://app?vid=d63120bc-169c-406e-a8d7-ba98dc14d92a"},"vehicle_type_id":"4","last_reported":1726683112,"current_range_meters":18800,"station_id":"ce4bgip2rcd13ifvqbb0","pricing_plan_id":"cebpf4jnsgd1na2vs0mg"},{"bike_id":"5ab7b336-5033-4e65-9f0e-0aa83a43454d","system_id":"levelo_inurba_marseille","lat":43.27944,"lon":5.41048,"is_reserved":false,"is_disabled":false,"rental_uris":{"android":"levelo://app?vid=5ab7b336-5033-4e65-9f0e-0aa83a43454d","ios":"levelo://app?vid=5ab7b336-5033-4e65-9f0e-0aa83a43454d"},"vehicle_type_id":"4","last_reported":1726683112,"current_range_meters":11600,"station_id":"ce4bhnp2rcd13ifvqh0g","pricing_plan_id":"cebpf4jnsgd1na2vs0mg"},{"bike_id":"b51480c2-9b9c-41e3-9bfc-f3e2a0ce7444","system_id":"levelo_inurba_marseille","lat":43.23193,"lon":5.35551,"is_reserved":false,"is_disabled":false,"rental_uris":{"android":"levelo://app?vid=b51480c2-9b9c-41e3-9bfc-f3e2a0ce7444","ios":"levelo://app?vid=b51480c2-9b9c-41e3-9bfc-f3e2a0ce7444"},"vehicle_type_id":"4","last_reported":1726683112,"current_range_meters":38800,"station_id":"ce4bhu92rcd13ifvqi70","pricing_plan_id":"cebpf4jnsgd1na2vs0mg"},{"bike_id":"5a81ebfd-c296-4f60-9a59-ca70601e9979","system_id":"levelo_inurba_marseille","lat":43.29413,"lon":5.38625,"is_reserved":false,"is_disabled":false,"rental_uris":{"android":"levelo://app?vid=5a81ebfd-c296-4f60-9a59-ca70601e9979","ios":"levelo://app?vid=5a81ebfd-c296-4f60-9a59-ca70601e9979"},"vehicle_type_id":"4","last_reported":1726683112,"current_range_meters":8000,"station_id":"ce4bh2h2rcd13ifvqdh0","pricing_plan_id":"cebpf4jnsgd1na2vs0mg"},{"bike_id":"433c5cd3-5480-4899-9784-ac32bd157489","system_id":"levelo_inurba_marseille","lat":43.29797,"lon":5.40402,"is_reserved":false,"is_disabled":false,"rental_uris":{"android":"levelo://app?vid=433c5cd3-5480-4899-9784-ac32bd157489","ios":"levelo://app?vid=433c5cd3-5480-4899-9784-ac32bd157489"},"vehicle_type_id":"4","last_reported":1726683112,"current_range_meters":35200,"station_id":"ce4bh112rcd13ifvqd90","pricing_plan_id":"cebpf4jnsgd1na2vs0mg"},{"bike_id":"67a8476c-33bf-434d-9fa2-428297d9e7e5","system_id":"levelo_inurba_marseille","lat":43.33602,"lon":5.41034,"is_reserved":false,"is_disabled":false,"rental_uris":{"android":"levelo://app?vid=67a8476c-33bf-434d-9fa2-428297d9e7e5","ios":"levelo://app?vid=67a8476c-33bf-434d-9fa2-428297d9e7e5"},"vehicle_type_id":"4","last_reported":1726683112,"current_range_meters":23200,"station_id":"ce4bhqh2rcd13ifvqhmg","pricing_plan_id":"cebpf4jnsgd1na2vs0mg"},{"bike_id":"2b714e73-49f8-4f26-bb6d-7d72ce23aabc","system_id":"levelo_inurba_marseille","lat":43.23051,"lon":5.35491,"is_reserved":false,"is_disabled":false,"rental_uris":{"android":"levelo://app?vid=2b714e73-49f8-4f26-bb6d-7d72ce23aabc","ios":"levelo://app?vid=2b714e73-49f8-4f26-bb6d-7d72ce23aabc"},"vehicle_type_id":"4","last_reported":1726683112,"current_range_meters":7200,"station_id":"cpo3342slgdg3j2ifvpg","pricing_plan_id":"cebpf4jnsgd1na2vs0mg"},{"bike_id":"d0bbec34-2099-483b-9947-462ce86c910b","system_id":"levelo_inurba_marseille","lat":43.29415,"lon":5.38622,"is_reserved":false,"is_disabled":false,"rental_uris":{"android":"levelo://app?vid=d0bbec34-2099-483b-9947-462ce86c910b","ios":"levelo://app?vid=d0bbec34-2099-483b-9947-462ce86c910b"},"vehicle_type_id":"4","last_reported":1726683112,"current_range_meters":28400,"station_id":"ce4bh2h2rcd13ifvqdh0","pricing_plan_id":"cebpf4jnsgd1na2vs0mg"},{"bike_id":"2e64ac77-37d0-42c4-9b89-df897b66197d","system_id":"levelo_inurba_marseille","lat":43.29955,"lon":5.41325,"is_reserved":false,"is_disabled":false,"rental_uris":{"android":"levelo://app?vid=2e64ac77-37d0-42c4-9b89-df897b66197d","ios":"levelo://app?vid=2e64ac77-37d0-42c4-9b89-df897b66197d"},"vehicle_type_id":"4","last_reported":1726683112,"current_range_meters":38000,"station_id":"ce4bhp12rcd13ifvqh9g","pricing_plan_id":"cebpf4jnsgd1na2vs0mg"},{"bike_id":"451cd4e6-d747-4d42-b652-d593351ccec4","system_id":"levelo_inurba_marseille","lat":43.24387,"lon":5.37052,"is_reserved":false,"is_disabled":false,"rental_uris":{"android":"levelo://app?vid=451cd4e6-d747-4d42-b652-d593351ccec4","ios":"levelo://app?vid=451cd4e6-d747-4d42-b652-d593351ccec4"},"vehicle_type_id":"4","last_reported":1726683112,"current_range_meters":38400,"station_id":"ce4bhhh2rcd13ifvqfk0","pricing_plan_id":"cebpf4jnsgd1na2vs0mg"},{"bike_id":"eb5b6bd7-0540-489c-8ec8-a41f2b25c774","system_id":"levelo_inurba_marseille","lat":43.31266,"lon":5.40167,"is_reserved":false,"is_disabled":false,"rental_uris":{"android":"levelo://app?vid=eb5b6bd7-0540-489c-8ec8-a41f2b25c774","ios":"levelo://app?vid=eb5b6bd7-0540-489c-8ec8-a41f2b25c774"},"vehicle_type_id":"4","last_reported":1726683112,"current_range_meters":9200,"station_id":"ce4bh092rcd13ifvqd30","pricing_plan_id":"cebpf4jnsgd1na2vs0mg"},{"bike_id":"95f98e57-26bc-481e-bc92-df511c6abfe8","system_id":"levelo_inurba_marseille","lat":43.2942,"lon":5.38625,"is_reserved":false,"is_disabled":false,"rental_uris":{"android":"levelo://app?vid=95f98e57-26bc-481e-bc92-df511c6abfe8","ios":"levelo://app?vid=95f98e57-26bc-481e-bc92-df511c6abfe8"},"vehicle_type_id":"4","last_reported":1726683112,"current_range_meters":8400,"station_id":"ce4bh2h2rcd13ifvqdh0","pricing_plan_id":"cebpf4jnsgd1na2vs0mg"},{"bike_id":"7b1fa1e3-2d10-46ed-9d74-95e18bd1f72d","system_id":"levelo_inurba_marseille","lat":43.24548,"lon":5.39529,"is_reserved":false,"is_disabled":false,"rental_uris":{"android":"levelo://app?vid=7b1fa1e3-2d10-46ed-9d74-95e18bd1f72d","ios":"levelo://app?vid=7b1fa1e3-2d10-46ed-9d74-95e18bd1f72d"},"vehicle_type_id":"4","last_reported":1726683112,"current_range_meters":20000,"station_id":"ce4bhlp2rcd13ifvqgjg","pricing_plan_id":"cebpf4jnsgd1na2vs0mg"},{"bike_id":"814c3ad7-ae62-4a71-888b-ee4b0342d150","system_id":"levelo_inurba_marseille","lat":43.31749,"lon":5.3902,"is_reserved":false,"is_disabled":false,"rental_uris":{"android":"levelo://app?vid=814c3ad7-ae62-4a71-888b-ee4b0342d150","ios":"levelo://app?vid=814c3ad7-ae62-4a71-888b-ee4b0342d150"},"vehicle_type_id":"4","last_reported":1726683112,"current_range_meters":17600,"station_id":"ce4bhqp2rcd13ifvqhng","pricing_plan_id":"cebpf4jnsgd1na2vs0mg"},{"bike_id":"03f2d651-0f27-4e49-8434-99ded49a443f","system_id":"levelo_inurba_marseille","lat":43.28271,"lon":5.35084,"is_reserved":false,"is_disabled":false,"rental_uris":{"android":"levelo://app?vid=03f2d651-0f27-4e49-8434-99ded49a443f","ios":"levelo://app?vid=03f2d651-0f27-4e49-8434-99ded49a443f"},"vehicle_type_id":"4","last_reported":1726683112,"current_range_meters":16800,"station_id":"ce4bhbp2rcd13ifvqerg","pricing_plan_id":"cebpf4jnsgd1na2vs0mg"},{"bike_id":"62605b61-4e41-49b0-8ed2-e4c0780af73e","system_id":"levelo_inurba_marseille","lat":43.29967,"lon":5.38495,"is_reserved":false,"is_disabled":false,"rental_uris":{"android":"levelo://app?vid=62605b61-4e41-49b0-8ed2-e4c0780af73e","ios":"levelo://app?vid=62605b61-4e41-49b0-8ed2-e4c0780af73e"},"vehicle_type_id":"4","last_reported":1726683112,"current_range_meters":38000,"station_id":"ce4bhap2rcd13ifvqek0","pricing_plan_id":"cebpf4jnsgd1na2vs0mg"},{"bike_id":"b2942ee2-a526-41c1-8eb3-256243591197","system_id":"levelo_inurba_marseille","lat":43.30202,"lon":5.39457,"is_reserved":false,"is_disabled":false,"rental_uris":{"android":"levelo://app?vid=b2942ee2-a526-41c1-8eb3-256243591197","ios":"levelo://app?vid=b2942ee2-a526-41c1-8eb3-256243591197"},"vehicle_type_id":"4","last_reported":1726683112,"current_range_meters":6800,"station_id":"ce4bh0p2rcd13ifvqd70","pricing_plan_id":"cebpf4jnsgd1na2vs0mg"},{"bike_id":"33ee6a6f-0871-45c6-9a35-5b97a1938251","system_id":"levelo_inurba_marseille","lat":43.25577,"lon":5.38234,"is_reserved":false,"is_disabled":false,"rental_uris":{"android":"levelo://app?vid=33ee6a6f-0871-45c6-9a35-5b97a1938251","ios":"levelo://app?vid=33ee6a6f-0871-45c6-9a35-5b97a1938251"},"vehicle_type_id":"4","last_reported":1726683112,"current_range_meters":9600,"station_id":"ce4bhih2rcd13ifvqfs0","pricing_plan_id":"cebpf4jnsgd1na2vs0mg"},{"bike_id":"02c639a4-fe62-499a-a69a-f474d98d7667","system_id":"levelo_inurba_marseille","lat":43.28454,"lon":5.35895,"is_reserved":false,"is_disabled":false,"rental_uris":{"android":"levelo://app?vid=02c639a4-fe62-499a-a69a-f474d98d7667","ios":"levelo://app?vid=02c639a4-fe62-499a-a69a-f474d98d7667"},"vehicle_type_id":"4","last_reported":1726683112,"current_range_meters":38800,"station_id":"ce4bhah2rcd13ifvqei0","pricing_plan_id":"cebpf4jnsgd1na2vs0mg"},{"bike_id":"6dd17a2f-59bb-4453-859d-2c09ab795824","system_id":"levelo_inurba_marseille","lat":43.33026,"lon":5.39049,"is_reserved":false,"is_disabled":false,"rental_uris":{"android":"levelo://app?vid=6dd17a2f-59bb-4453-859d-2c09ab795824","ios":"levelo://app?vid=6dd17a2f-59bb-4453-859d-2c09ab795824"},"vehicle_type_id":"4","last_reported":1726683112,"current_range_meters":24000,"station_id":"ce4bhr92rcd13ifvqhrg","pricing_plan_id":"cebpf4jnsgd1na2vs0mg"},{"bike_id":"682c326f-9756-4537-a3eb-f525cbc855ff","system_id":"levelo_inurba_marseille","lat":43.25722,"lon":5.41113,"is_reserved":false,"is_disabled":false,"rental_uris":{"android":"levelo://app?vid=682c326f-9756-4537-a3eb-f525cbc855ff","ios":"levelo://app?vid=682c326f-9756-4537-a3eb-f525cbc855ff"},"vehicle_type_id":"4","last_reported":1726683112,"current_range_meters":24800,"station_id":"ce4bhkp2rcd13ifvqgd0","pricing_plan_id":"cebpf4jnsgd1na2vs0mg"},{"bike_id":"fc2c37fd-b30e-4e49-9975-3233bf5effda","system_id":"levelo_inurba_marseille","lat":43.32303,"lon":5.38247,"is_reserved":false,"is_disabled":false,"rental_uris":{"android":"levelo://app?vid=fc2c37fd-b30e-4e49-9975-3233bf5effda","ios":"levelo://app?vid=fc2c37fd-b30e-4e49-9975-3233bf5effda"},"vehicle_type_id":"4","last_reported":1726683112,"current_range_meters":30400,"station_id":"ce4bhr12rcd13ifvqhqg","pricing_plan_id":"cebpf4jnsgd1na2vs0mg"},{"bike_id":"296c223c-f60d-4532-94cb-6d4310f56912","system_id":"levelo_inurba_marseille","lat":43.24994,"lon":5.38928,"is_reserved":false,"is_disabled":false,"rental_uris":{"android":"levelo://app?vid=296c223c-f60d-4532-94cb-6d4310f56912","ios":"levelo://app?vid=296c223c-f60d-4532-94cb-6d4310f56912"},"vehicle_type_id":"4","last_reported":1726683112,"current_range_meters":9200,"station_id":"ce4bhgp2rcd13ifvqfd0","pricing_plan_id":"cebpf4jnsgd1na2vs0mg"},{"bike_id":"4db3e6af-ece3-46a3-93c4-f66f6128bb53","system_id":"levelo_inurba_marseille","lat":43.29073,"lon":5.37173,"is_reserved":false,"is_disabled":false,"rental_uris":{"android":"levelo://app?vid=4db3e6af-ece3-46a3-93c4-f66f6128bb53","ios":"levelo://app?vid=4db3e6af-ece3-46a3-93c4-f66f6128bb53"},"vehicle_type_id":"4","last_reported":1726683112,"current_range_meters":8000,"station_id":"ce4bh5p2rcd13ifvqe4g","pricing_plan_id":"cebpf4jnsgd1na2vs0mg"},{"bike_id":"f2c95146-36ce-4175-8035-0c4ee99efa92","system_id":"levelo_inurba_marseille","lat":43.231934,"lon":5.35552,"is_reserved":false,"is_disabled":false,"rental_uris":{"android":"levelo://app?vid=f2c95146-36ce-4175-8035-0c4ee99efa92","ios":"levelo://app?vid=f2c95146-36ce-4175-8035-0c4ee99efa92"},"vehicle_type_id":"4","last_reported":1726683112,"current_range_meters":14400,"station_id":"ce4bhu92rcd13ifvqi70","pricing_plan_id":"cebpf4jnsgd1na2vs0mg"},{"bike_id":"11859f6c-e16b-4ee4-8084-fee7beccc9d9","system_id":"levelo_inurba_marseille","lat":43.29027,"lon":5.38653,"is_reserved":false,"is_disabled":false,"rental_uris":{"android":"levelo://app?vid=11859f6c-e16b-4ee4-8084-fee7beccc9d9","ios":"levelo://app?vid=11859f6c-e16b-4ee4-8084-fee7beccc9d9"},"vehicle_type_id":"4","last_reported":1726683112,"current_range_meters":8800,"station_id":"ce4bh4p2rcd13ifvqe0g","pricing_plan_id":"cebpf4jnsgd1na2vs0mg"},{"bike_id":"aaac9508-0c06-4711-abd5-74f9e3e3462c","system_id":"levelo_inurba_marseille","lat":43.30119,"lon":5.39871,"is_reserved":false,"is_disabled":false,"rental_uris":{"android":"levelo://app?vid=aaac9508-0c06-4711-abd5-74f9e3e3462c","ios":"levelo://app?vid=aaac9508-0c06-4711-abd5-74f9e3e3462c"},"vehicle_type_id":"4","last_reported":1726683112,"current_range_meters":27600,"station_id":"ce4bh0h2rcd13ifvqd40","pricing_plan_id":"cebpf4jnsgd1na2vs0mg"},{"bike_id":"b9023cd3-1925-40ef-a361-62c93882c1dc","system_id":"levelo_inurba_marseille","lat":43.30879,"lon":5.37196,"is_reserved":false,"is_disabled":false,"rental_uris":{"android":"levelo://app?vid=b9023cd3-1925-40ef-a361-62c93882c1dc","ios":"levelo://app?vid=b9023cd3-1925-40ef-a361-62c93882c1dc"},"vehicle_type_id":"4","last_reported":1726683112,"current_range_meters":38800,"station_id":"ce4bguh2rcd13ifvqckg","pricing_plan_id":"cebpf4jnsgd1na2vs0mg"},{"bike_id":"750e8351-13f9-43b0-b164-24061995e5de","system_id":"levelo_inurba_marseille","lat":43.30899,"lon":5.3719,"is_reserved":false,"is_disabled":false,"rental_uris":{"android":"levelo://app?vid=750e8351-13f9-43b0-b164-24061995e5de","ios":"levelo://app?vid=750e8351-13f9-43b0-b164-24061995e5de"},"vehicle_type_id":"4","last_reported":1726683112,"current_range_meters":39200,"station_id":"ce4bguh2rcd13ifvqckg","pricing_plan_id":"cebpf4jnsgd1na2vs0mg"},{"bike_id":"af404afe-769a-496b-ba72-445ba6de1c1c","system_id":"levelo_inurba_marseille","lat":43.27939,"lon":5.41043,"is_reserved":false,"is_disabled":false,"rental_uris":{"android":"levelo://app?vid=af404afe-769a-496b-ba72-445ba6de1c1c","ios":"levelo://app?vid=af404afe-769a-496b-ba72-445ba6de1c1c"},"vehicle_type_id":"4","last_reported":1726683112,"current_range_meters":33600,"station_id":"ce4bhnp2rcd13ifvqh0g","pricing_plan_id":"cebpf4jnsgd1na2vs0mg"},{"bike_id":"db5bed51-afb9-4548-98e9-7b7ae226c501","system_id":"levelo_inurba_marseille","lat":43.33745,"lon":5.37454,"is_reserved":false,"is_disabled":false,"rental_uris":{"android":"levelo://app?vid=db5bed51-afb9-4548-98e9-7b7ae226c501","ios":"levelo://app?vid=db5bed51-afb9-4548-98e9-7b7ae226c501"},"vehicle_type_id":"4","last_reported":1726683112,"current_range_meters":34800,"station_id":"","pricing_plan_id":"cebpf4jnsgd1na2vs0mg"},{"bike_id":"6a78926c-7c24-4114-b69b-79fe85c63250","system_id":"levelo_inurba_marseille","lat":43.30881,"lon":5.39651,"is_reserved":false,"is_disabled":false,"rental_uris":{"android":"levelo://app?vid=6a78926c-7c24-4114-b69b-79fe85c63250","ios":"levelo://app?vid=6a78926c-7c24-4114-b69b-79fe85c63250"},"vehicle_type_id":"4","last_reported":1726683112,"current_range_meters":24400,"station_id":"ce4bh012rcd13ifvqcv0","pricing_plan_id":"cebpf4jnsgd1na2vs0mg"},{"bike_id":"952d092d-5f33-43f1-9ff7-89211f1bb103","system_id":"levelo_inurba_marseille","lat":43.297316,"lon":5.380033,"is_reserved":false,"is_disabled":false,"rental_uris":{"android":"levelo://app?vid=952d092d-5f33-43f1-9ff7-89211f1bb103","ios":"levelo://app?vid=952d092d-5f33-43f1-9ff7-89211f1bb103"},"vehicle_type_id":"4","last_reported":1726683112,"current_range_meters":24400,"station_id":"ce4bgv12rcd13ifvqcp0","pricing_plan_id":"cebpf4jnsgd1na2vs0mg"},{"bike_id":"26713ac2-c97b-4002-8b32-d3bc1b24a691","system_id":"levelo_inurba_marseille","lat":43.241608,"lon":5.363994,"is_reserved":false,"is_disabled":false,"rental_uris":{"android":"levelo://app?vid=26713ac2-c97b-4002-8b32-d3bc1b24a691","ios":"levelo://app?vid=26713ac2-c97b-4002-8b32-d3bc1b24a691"},"vehicle_type_id":"4","last_reported":1726683112,"current_range_meters":38800,"station_id":"cpo36qri1sfpv3e86is0","pricing_plan_id":"cebpf4jnsgd1na2vs0mg"},{"bike_id":"8dc360b7-8b07-495d-b28c-41c414338f48","system_id":"levelo_inurba_marseille","lat":43.26944,"lon":5.3863,"is_reserved":false,"is_disabled":false,"rental_uris":{"android":"levelo://app?vid=8dc360b7-8b07-495d-b28c-41c414338f48","ios":"levelo://app?vid=8dc360b7-8b07-495d-b28c-41c414338f48"},"vehicle_type_id":"4","last_reported":1726683112,"current_range_meters":20000,"station_id":"ce4bhh92rcd13ifvqfh0","pricing_plan_id":"cebpf4jnsgd1na2vs0mg"},{"bike_id":"a748aa19-aa0a-4511-ba33-7fe7309322d3","system_id":"levelo_inurba_marseille","lat":43.28937,"lon":5.3664,"is_reserved":false,"is_disabled":false,"rental_uris":{"android":"levelo://app?vid=a748aa19-aa0a-4511-ba33-7fe7309322d3","ios":"levelo://app?vid=a748aa19-aa0a-4511-ba33-7fe7309322d3"},"vehicle_type_id":"4","last_reported":1726683112,"current_range_meters":27200,"station_id":"ce4bhap2rcd13ifvqek0","pricing_plan_id":"cebpf4jnsgd1na2vs0mg"},{"bike_id":"d06834b6-14ec-477c-92f7-a04b5630a0da","system_id":"levelo_inurba_marseille","lat":43.26547,"lon":5.37293,"is_reserved":false,"is_disabled":false,"rental_uris":{"android":"levelo://app?vid=d06834b6-14ec-477c-92f7-a04b5630a0da","ios":"levelo://app?vid=d06834b6-14ec-477c-92f7-a04b5630a0da"},"vehicle_type_id":"4","last_reported":1726683112,"current_range_meters":8800,"station_id":"ce4bhg12rcd13ifvqf70","pricing_plan_id":"cebpf4jnsgd1na2vs0mg"},{"bike_id":"0146a43c-73b1-43e4-b476-84526d8cbecf","system_id":"levelo_inurba_marseille","lat":43.27928,"lon":5.38045,"is_reserved":false,"is_disabled":false,"rental_uris":{"android":"levelo://app?vid=0146a43c-73b1-43e4-b476-84526d8cbecf","ios":"levelo://app?vid=0146a43c-73b1-43e4-b476-84526d8cbecf"},"vehicle_type_id":"4","last_reported":1726683112,"current_range_meters":27600,"station_id":"ce4bhf92rcd13ifvqf50","pricing_plan_id":"cebpf4jnsgd1na2vs0mg"},{"bike_id":"f5fd2cd8-f299-47e7-8665-70bc6ad5f778","system_id":"levelo_inurba_marseille","lat":43.23149,"lon":5.43718,"is_reserved":false,"is_disabled":false,"rental_uris":{"android":"levelo://app?vid=f5fd2cd8-f299-47e7-8665-70bc6ad5f778","ios":"levelo://app?vid=f5fd2cd8-f299-47e7-8665-70bc6ad5f778"},"vehicle_type_id":"4","last_reported":1726683112,"current_range_meters":18800,"station_id":"ce4bhmp2rcd13ifvqgog","pricing_plan_id":"cebpf4jnsgd1na2vs0mg"},{"bike_id":"955951c0-82ad-457e-818d-1db9706d249f","system_id":"levelo_inurba_marseille","lat":43.28457,"lon":5.35886,"is_reserved":false,"is_disabled":false,"rental_uris":{"android":"levelo://app?vid=955951c0-82ad-457e-818d-1db9706d249f","ios":"levelo://app?vid=955951c0-82ad-457e-818d-1db9706d249f"},"vehicle_type_id":"4","last_reported":1726683112,"current_range_meters":4800,"station_id":"ce4bhah2rcd13ifvqei0","pricing_plan_id":"cebpf4jnsgd1na2vs0mg"},{"bike_id":"58014cc6-4f39-4119-a8a0-cdc0e2507820","system_id":"levelo_inurba_marseille","lat":43.32288,"lon":5.38286,"is_reserved":false,"is_disabled":false,"rental_uris":{"android":"levelo://app?vid=58014cc6-4f39-4119-a8a0-cdc0e2507820","ios":"levelo://app?vid=58014cc6-4f39-4119-a8a0-cdc0e2507820"},"vehicle_type_id":"4","last_reported":1726683112,"current_range_meters":38800,"station_id":"ce4bhr12rcd13ifvqhqg","pricing_plan_id":"cebpf4jnsgd1na2vs0mg"},{"bike_id":"e44af868-4966-44b0-8cc7-3715f0eab69d","system_id":"levelo_inurba_marseille","lat":43.29415,"lon":5.38621,"is_reserved":false,"is_disabled":false,"rental_uris":{"android":"levelo://app?vid=e44af868-4966-44b0-8cc7-3715f0eab69d","ios":"levelo://app?vid=e44af868-4966-44b0-8cc7-3715f0eab69d"},"vehicle_type_id":"4","last_reported":1726683112,"current_range_meters":3200,"station_id":"ce4bh2h2rcd13ifvqdh0","pricing_plan_id":"cebpf4jnsgd1na2vs0mg"},{"bike_id":"c4659c66-b58f-4b38-a442-d6ed3190485d","system_id":"levelo_inurba_marseille","lat":43.28265,"lon":5.35071,"is_reserved":false,"is_disabled":false,"rental_uris":{"android":"levelo://app?vid=c4659c66-b58f-4b38-a442-d6ed3190485d","ios":"levelo://app?vid=c4659c66-b58f-4b38-a442-d6ed3190485d"},"vehicle_type_id":"4","last_reported":1726683112,"current_range_meters":29600,"station_id":"ce4bhbp2rcd13ifvqerg","pricing_plan_id":"cebpf4jnsgd1na2vs0mg"},{"bike_id":"b168231b-2f3d-4b28-bd24-348b4b373070","system_id":"levelo_inurba_marseille","lat":43.31323,"lon":5.39688,"is_reserved":false,"is_disabled":false,"rental_uris":{"android":"levelo://app?vid=b168231b-2f3d-4b28-bd24-348b4b373070","ios":"levelo://app?vid=b168231b-2f3d-4b28-bd24-348b4b373070"},"vehicle_type_id":"4","last_reported":1726683112,"current_range_meters":38800,"station_id":"ce4bgvp2rcd13ifvqcu0","pricing_plan_id":"cebpf4jnsgd1na2vs0mg"},{"bike_id":"67101e27-2fdd-4e84-bdf7-495c619879ab","system_id":"levelo_inurba_marseille","lat":43.31999,"lon":5.38154,"is_reserved":false,"is_disabled":false,"rental_uris":{"android":"levelo://app?vid=67101e27-2fdd-4e84-bdf7-495c619879ab","ios":"levelo://app?vid=67101e27-2fdd-4e84-bdf7-495c619879ab"},"vehicle_type_id":"4","last_reported":1726683112,"current_range_meters":13600,"station_id":"ce4bhr12rcd13ifvqhpg","pricing_plan_id":"cebpf4jnsgd1na2vs0mg"},{"bike_id":"13ee2a72-83d4-4ef5-8ab9-b048ac85604d","system_id":"levelo_inurba_marseille","lat":43.28458,"lon":5.35887,"is_reserved":false,"is_disabled":false,"rental_uris":{"android":"levelo://app?vid=13ee2a72-83d4-4ef5-8ab9-b048ac85604d","ios":"levelo://app?vid=13ee2a72-83d4-4ef5-8ab9-b048ac85604d"},"vehicle_type_id":"4","last_reported":1726683112,"current_range_meters":4000,"station_id":"ce4bhah2rcd13ifvqei0","pricing_plan_id":"cebpf4jnsgd1na2vs0mg"},{"bike_id":"9de036c4-decb-465b-a775-32e663a8924f","system_id":"levelo_inurba_marseille","lat":43.33023,"lon":5.39035,"is_reserved":false,"is_disabled":false,"rental_uris":{"android":"levelo://app?vid=9de036c4-decb-465b-a775-32e663a8924f","ios":"levelo://app?vid=9de036c4-decb-465b-a775-32e663a8924f"},"vehicle_type_id":"4","last_reported":1726683112,"current_range_meters":32800,"station_id":"ce4bhr92rcd13ifvqhrg","pricing_plan_id":"cebpf4jnsgd1na2vs0mg"},{"bike_id":"96211740-6e1d-45e9-9c86-66044f2ab359","system_id":"levelo_inurba_marseille","lat":43.26931,"lon":5.38911,"is_reserved":false,"is_disabled":false,"rental_uris":{"android":"levelo://app?vid=96211740-6e1d-45e9-9c86-66044f2ab359","ios":"levelo://app?vid=96211740-6e1d-45e9-9c86-66044f2ab359"},"vehicle_type_id":"4","last_reported":1726683112,"current_range_meters":7200,"station_id":"ce4bhhh2rcd13ifvqfl0","pricing_plan_id":"cebpf4jnsgd1na2vs0mg"},{"bike_id":"55256b03-7844-4d77-9601-6f7e880a9bdc","system_id":"levelo_inurba_marseille","lat":43.28357,"lon":5.38638,"is_reserved":false,"is_disabled":false,"rental_uris":{"android":"levelo://app?vid=55256b03-7844-4d77-9601-6f7e880a9bdc","ios":"levelo://app?vid=55256b03-7844-4d77-9601-6f7e880a9bdc"},"vehicle_type_id":"4","last_reported":1726683112,"current_range_meters":17600,"station_id":"ce4bh492rcd13ifvqdvg","pricing_plan_id":"cebpf4jnsgd1na2vs0mg"},{"bike_id":"84fbf4f9-98c6-46b9-9084-3ae2cfd33300","system_id":"levelo_inurba_marseille","lat":43.27313,"lon":5.39081,"is_reserved":false,"is_disabled":false,"rental_uris":{"android":"levelo://app?vid=84fbf4f9-98c6-46b9-9084-3ae2cfd33300","ios":"levelo://app?vid=84fbf4f9-98c6-46b9-9084-3ae2cfd33300"},"vehicle_type_id":"4","last_reported":1726683112,"current_range_meters":2800,"station_id":"ce4bhgp2rcd13ifvqfe0","pricing_plan_id":"cebpf4jnsgd1na2vs0mg"},{"bike_id":"6e00666a-f02f-4580-a990-0531883c2cb7","system_id":"levelo_inurba_marseille","lat":43.29901,"lon":5.43671,"is_reserved":false,"is_disabled":false,"rental_uris":{"android":"levelo://app?vid=6e00666a-f02f-4580-a990-0531883c2cb7","ios":"levelo://app?vid=6e00666a-f02f-4580-a990-0531883c2cb7"},"vehicle_type_id":"4","last_reported":1726683112,"current_range_meters":6000,"station_id":"ce4bhpp2rcd13ifvqhfg","pricing_plan_id":"cebpf4jnsgd1na2vs0mg"},{"bike_id":"7d54046c-3cf1-4344-8137-17101feedbd5","system_id":"levelo_inurba_marseille","lat":43.32289,"lon":5.38282,"is_reserved":false,"is_disabled":false,"rental_uris":{"android":"levelo://app?vid=7d54046c-3cf1-4344-8137-17101feedbd5","ios":"levelo://app?vid=7d54046c-3cf1-4344-8137-17101feedbd5"},"vehicle_type_id":"4","last_reported":1726683112,"current_range_meters":38800,"station_id":"ce4bhr12rcd13ifvqhqg","pricing_plan_id":"cebpf4jnsgd1na2vs0mg"},{"bike_id":"77d6b913-8acb-441f-8cb7-8e3953bab408","system_id":"levelo_inurba_marseille","lat":43.29414,"lon":5.38626,"is_reserved":false,"is_disabled":false,"rental_uris":{"android":"levelo://app?vid=77d6b913-8acb-441f-8cb7-8e3953bab408","ios":"levelo://app?vid=77d6b913-8acb-441f-8cb7-8e3953bab408"},"vehicle_type_id":"4","last_reported":1726683112,"current_range_meters":28400,"station_id":"ce4bh2h2rcd13ifvqdh0","pricing_plan_id":"cebpf4jnsgd1na2vs0mg"},{"bike_id":"cda18d4d-3dad-4cd6-8961-50f7e45f4851","system_id":"levelo_inurba_marseille","lat":43.27814,"lon":5.40703,"is_reserved":false,"is_disabled":false,"rental_uris":{"android":"levelo://app?vid=cda18d4d-3dad-4cd6-8961-50f7e45f4851","ios":"levelo://app?vid=cda18d4d-3dad-4cd6-8961-50f7e45f4851"},"vehicle_type_id":"4","last_reported":1726683112,"current_range_meters":2000,"station_id":"ce4bhnh2rcd13ifvqgtg","pricing_plan_id":"cebpf4jnsgd1na2vs0mg"},{"bike_id":"2828bd69-0c75-4d81-b85e-7e7dee15c6fc","system_id":"levelo_inurba_marseille","lat":43.29416,"lon":5.3862,"is_reserved":false,"is_disabled":false,"rental_uris":{"android":"levelo://app?vid=2828bd69-0c75-4d81-b85e-7e7dee15c6fc","ios":"levelo://app?vid=2828bd69-0c75-4d81-b85e-7e7dee15c6fc"},"vehicle_type_id":"4","last_reported":1726683112,"current_range_meters":8000,"station_id":"ce4bh2h2rcd13ifvqdh0","pricing_plan_id":"cebpf4jnsgd1na2vs0mg"},{"bike_id":"07757a7a-bf28-497d-8f44-57de425d9baa","system_id":"levelo_inurba_marseille","lat":43.29274,"lon":5.38436,"is_reserved":false,"is_disabled":false,"rental_uris":{"android":"levelo://app?vid=07757a7a-bf28-497d-8f44-57de425d9baa","ios":"levelo://app?vid=07757a7a-bf28-497d-8f44-57de425d9baa"},"vehicle_type_id":"4","last_reported":1726683112,"current_range_meters":38800,"station_id":"ce4bh692rcd13ifvqea0","pricing_plan_id":"cebpf4jnsgd1na2vs0mg"},{"bike_id":"fa2e946d-01fe-4bb4-a2b0-55af60a0bcec","system_id":"levelo_inurba_marseille","lat":43.33727,"lon":5.39178,"is_reserved":false,"is_disabled":false,"rental_uris":{"android":"levelo://app?vid=fa2e946d-01fe-4bb4-a2b0-55af60a0bcec","ios":"levelo://app?vid=fa2e946d-01fe-4bb4-a2b0-55af60a0bcec"},"vehicle_type_id":"4","last_reported":1726683112,"current_range_meters":38800,"station_id":"ce4bhr92rcd13ifvqhsg","pricing_plan_id":"cebpf4jnsgd1na2vs0mg"},{"bike_id":"d4d297e3-f102-4b87-83c1-732ef9cd040d","system_id":"levelo_inurba_marseille","lat":43.29575,"lon":5.39973,"is_reserved":false,"is_disabled":false,"rental_uris":{"android":"levelo://app?vid=d4d297e3-f102-4b87-83c1-732ef9cd040d","ios":"levelo://app?vid=d4d297e3-f102-4b87-83c1-732ef9cd040d"},"vehicle_type_id":"4","last_reported":1726683112,"current_range_meters":38800,"station_id":"ce4bh312rcd13ifvqdj0","pricing_plan_id":"cebpf4jnsgd1na2vs0mg"},{"bike_id":"3884d8c9-8196-43c1-8e1b-85179e85dab7","system_id":"levelo_inurba_marseille","lat":43.25864,"lon":5.39899,"is_reserved":false,"is_disabled":false,"rental_uris":{"android":"levelo://app?vid=3884d8c9-8196-43c1-8e1b-85179e85dab7","ios":"levelo://app?vid=3884d8c9-8196-43c1-8e1b-85179e85dab7"},"vehicle_type_id":"4","last_reported":1726683112,"current_range_meters":30400,"station_id":"ce4bhl92rcd13ifvqghg","pricing_plan_id":"cebpf4jnsgd1na2vs0mg"},{"bike_id":"7c715b02-f4ac-4c2e-bc8d-bc233b086c58","system_id":"levelo_inurba_marseille","lat":43.25493,"lon":5.37653,"is_reserved":false,"is_disabled":false,"rental_uris":{"android":"levelo://app?vid=7c715b02-f4ac-4c2e-bc8d-bc233b086c58","ios":"levelo://app?vid=7c715b02-f4ac-4c2e-bc8d-bc233b086c58"},"vehicle_type_id":"4","last_reported":1726683112,"current_range_meters":38800,"station_id":"ce4bhh12rcd13ifvqff0","pricing_plan_id":"cebpf4jnsgd1na2vs0mg"},{"bike_id":"3f57c083-0ba8-42ea-b589-5e2559532041","system_id":"levelo_inurba_marseille","lat":43.28611,"lon":5.3706,"is_reserved":false,"is_disabled":false,"rental_uris":{"android":"levelo://app?vid=3f57c083-0ba8-42ea-b589-5e2559532041","ios":"levelo://app?vid=3f57c083-0ba8-42ea-b589-5e2559532041"},"vehicle_type_id":"4","last_reported":1726683112,"current_range_meters":27600,"station_id":"ce4bht12rcd13ifvqi60","pricing_plan_id":"cebpf4jnsgd1na2vs0mg"},{"bike_id":"897f36fe-5290-421f-81e1-d238d9a21fa7","system_id":"levelo_inurba_marseille","lat":43.30122,"lon":5.39864,"is_reserved":false,"is_disabled":false,"rental_uris":{"android":"levelo://app?vid=897f36fe-5290-421f-81e1-d238d9a21fa7","ios":"levelo://app?vid=897f36fe-5290-421f-81e1-d238d9a21fa7"},"vehicle_type_id":"4","last_reported":1726683112,"current_range_meters":21600,"station_id":"ce4bh0h2rcd13ifvqd40","pricing_plan_id":"cebpf4jnsgd1na2vs0mg"},{"bike_id":"f84c07cb-ff23-4dd7-9634-7c6d17498a94","system_id":"levelo_inurba_marseille","lat":43.28852,"lon":5.35852,"is_reserved":false,"is_disabled":false,"rental_uris":{"android":"levelo://app?vid=f84c07cb-ff23-4dd7-9634-7c6d17498a94","ios":"levelo://app?vid=f84c07cb-ff23-4dd7-9634-7c6d17498a94"},"vehicle_type_id":"4","last_reported":1726683112,"current_range_meters":4800,"station_id":"ce4bhb12rcd13ifvqem0","pricing_plan_id":"cebpf4jnsgd1na2vs0mg"},{"bike_id":"6056df30-85de-40e0-bb88-709b3d3c52a5","system_id":"levelo_inurba_marseille","lat":43.29257,"lon":5.38447,"is_reserved":false,"is_disabled":false,"rental_uris":{"android":"levelo://app?vid=6056df30-85de-40e0-bb88-709b3d3c52a5","ios":"levelo://app?vid=6056df30-85de-40e0-bb88-709b3d3c52a5"},"vehicle_type_id":"4","last_reported":1726683112,"current_range_meters":35600,"station_id":"ce4bh692rcd13ifvqea0","pricing_plan_id":"cebpf4jnsgd1na2vs0mg"},{"bike_id":"328d45f9-980e-4811-97c0-47d761861509","system_id":"levelo_inurba_marseille","lat":43.29847,"lon":5.37836,"is_reserved":false,"is_disabled":false,"rental_uris":{"android":"levelo://app?vid=328d45f9-980e-4811-97c0-47d761861509","ios":"levelo://app?vid=328d45f9-980e-4811-97c0-47d761861509"},"vehicle_type_id":"4","last_reported":1726683112,"current_range_meters":9600,"station_id":"ce4bgkh2rcd13ifvqbl0","pricing_plan_id":"cebpf4jnsgd1na2vs0mg"},{"bike_id":"27b3e3e3-53ae-4cca-8120-15c90d74ec47","system_id":"levelo_inurba_marseille","lat":43.30861,"lon":5.39181,"is_reserved":false,"is_disabled":false,"rental_uris":{"android":"levelo://app?vid=27b3e3e3-53ae-4cca-8120-15c90d74ec47","ios":"levelo://app?vid=27b3e3e3-53ae-4cca-8120-15c90d74ec47"},"vehicle_type_id":"4","last_reported":1726683112,"current_range_meters":16000,"station_id":"ce4bgup2rcd13ifvqcn0","pricing_plan_id":"cebpf4jnsgd1na2vs0mg"},{"bike_id":"70d6316d-15d8-443b-9f41-9417530b2115","system_id":"levelo_inurba_marseille","lat":43.27986,"lon":5.41665,"is_reserved":false,"is_disabled":false,"rental_uris":{"android":"levelo://app?vid=70d6316d-15d8-443b-9f41-9417530b2115","ios":"levelo://app?vid=70d6316d-15d8-443b-9f41-9417530b2115"},"vehicle_type_id":"4","last_reported":1726683112,"current_range_meters":4400,"station_id":"ce4bho12rcd13ifvqh1g","pricing_plan_id":"cebpf4jnsgd1na2vs0mg"},{"bike_id":"fa690805-233a-4a70-a9f3-33f1b67cdb1f","system_id":"levelo_inurba_marseille","lat":43.3229,"lon":5.38273,"is_reserved":false,"is_disabled":false,"rental_uris":{"android":"levelo://app?vid=fa690805-233a-4a70-a9f3-33f1b67cdb1f","ios":"levelo://app?vid=fa690805-233a-4a70-a9f3-33f1b67cdb1f"},"vehicle_type_id":"4","last_reported":1726683112,"current_range_meters":27200,"station_id":"ce4bhr12rcd13ifvqhqg","pricing_plan_id":"cebpf4jnsgd1na2vs0mg"},{"bike_id":"cbe1f610-9ee1-4b04-a8cd-7f6ae05b413e","system_id":"levelo_inurba_marseille","lat":43.29262,"lon":5.38451,"is_reserved":false,"is_disabled":false,"rental_uris":{"android":"levelo://app?vid=cbe1f610-9ee1-4b04-a8cd-7f6ae05b413e","ios":"levelo://app?vid=cbe1f610-9ee1-4b04-a8cd-7f6ae05b413e"},"vehicle_type_id":"4","last_reported":1726683112,"current_range_meters":38800,"station_id":"ce4bh692rcd13ifvqea0","pricing_plan_id":"cebpf4jnsgd1na2vs0mg"},{"bike_id":"8b608b96-fedf-4511-8d4b-09bad2606e1a","system_id":"levelo_inurba_marseille","lat":43.2772,"lon":5.41132,"is_reserved":false,"is_disabled":false,"rental_uris":{"android":"levelo://app?vid=8b608b96-fedf-4511-8d4b-09bad2606e1a","ios":"levelo://app?vid=8b608b96-fedf-4511-8d4b-09bad2606e1a"},"vehicle_type_id":"4","last_reported":1726683112,"current_range_meters":3600,"station_id":"","pricing_plan_id":"cebpf4jnsgd1na2vs0mg"},{"bike_id":"8c12bd83-89b9-4649-8c2d-757175de3b87","system_id":"levelo_inurba_marseille","lat":43.300446,"lon":5.388574,"is_reserved":false,"is_disabled":false,"rental_uris":{"android":"levelo://app?vid=8c12bd83-89b9-4649-8c2d-757175de3b87","ios":"levelo://app?vid=8c12bd83-89b9-4649-8c2d-757175de3b87"},"vehicle_type_id":"4","last_reported":1726683112,"current_range_meters":34800,"station_id":"ce4bghh2rcd13ifvqb60","pricing_plan_id":"cebpf4jnsgd1na2vs0mg"},{"bike_id":"6295a2d5-a262-41cd-b602-712d9ee9a468","system_id":"levelo_inurba_marseille","lat":43.28937,"lon":5.36642,"is_reserved":false,"is_disabled":false,"rental_uris":{"android":"levelo://app?vid=6295a2d5-a262-41cd-b602-712d9ee9a468","ios":"levelo://app?vid=6295a2d5-a262-41cd-b602-712d9ee9a468"},"vehicle_type_id":"4","last_reported":1726683112,"current_range_meters":14000,"station_id":"ce4bhap2rcd13ifvqek0","pricing_plan_id":"cebpf4jnsgd1na2vs0mg"},{"bike_id":"76a821bf-b661-4132-8252-92134dbb113e","system_id":"levelo_inurba_marseille","lat":43.30256,"lon":5.40081,"is_reserved":false,"is_disabled":false,"rental_uris":{"android":"levelo://app?vid=76a821bf-b661-4132-8252-92134dbb113e","ios":"levelo://app?vid=76a821bf-b661-4132-8252-92134dbb113e"},"vehicle_type_id":"4","last_reported":1726683112,"current_range_meters":28400,"station_id":"ce4bgvh2rcd13ifvqcs0","pricing_plan_id":"cebpf4jnsgd1na2vs0mg"},{"bike_id":"5a5670bf-02f2-409e-91a1-66a418fef6b7","system_id":"levelo_inurba_marseille","lat":43.27898,"lon":5.38007,"is_reserved":false,"is_disabled":false,"rental_uris":{"android":"levelo://app?vid=5a5670bf-02f2-409e-91a1-66a418fef6b7","ios":"levelo://app?vid=5a5670bf-02f2-409e-91a1-66a418fef6b7"},"vehicle_type_id":"4","last_reported":1726683112,"current_range_meters":28400,"station_id":"ce4bhf92rcd13ifvqf50","pricing_plan_id":"cebpf4jnsgd1na2vs0mg"},{"bike_id":"a2e4bcbf-e3f1-4b09-9ec2-6bd2b8536fc7","system_id":"levelo_inurba_marseille","lat":43.29872,"lon":5.38912,"is_reserved":false,"is_disabled":false,"rental_uris":{"android":"levelo://app?vid=a2e4bcbf-e3f1-4b09-9ec2-6bd2b8536fc7","ios":"levelo://app?vid=a2e4bcbf-e3f1-4b09-9ec2-6bd2b8536fc7"},"vehicle_type_id":"4","last_reported":1726683112,"current_range_meters":8800,"station_id":"ce4bh392rcd13ifvqdl0","pricing_plan_id":"cebpf4jnsgd1na2vs0mg"},{"bike_id":"f0c6f8eb-1ccb-4334-a1f7-8d11a82ce2d4","system_id":"levelo_inurba_marseille","lat":43.28439,"lon":5.39177,"is_reserved":false,"is_disabled":false,"rental_uris":{"android":"levelo://app?vid=f0c6f8eb-1ccb-4334-a1f7-8d11a82ce2d4","ios":"levelo://app?vid=f0c6f8eb-1ccb-4334-a1f7-8d11a82ce2d4"},"vehicle_type_id":"4","last_reported":1726683112,"current_range_meters":16400,"station_id":"ce4bhoh2rcd13ifvqh5g","pricing_plan_id":"cebpf4jnsgd1na2vs0mg"},{"bike_id":"0233f0af-35d2-47b6-b2fc-15e59b18717b","system_id":"levelo_inurba_marseille","lat":43.23058,"lon":5.3549,"is_reserved":false,"is_disabled":false,"rental_uris":{"android":"levelo://app?vid=0233f0af-35d2-47b6-b2fc-15e59b18717b","ios":"levelo://app?vid=0233f0af-35d2-47b6-b2fc-15e59b18717b"},"vehicle_type_id":"4","last_reported":1726683112,"current_range_meters":21600,"station_id":"cpo3342slgdg3j2ifvpg","pricing_plan_id":"cebpf4jnsgd1na2vs0mg"},{"bike_id":"6341f889-dc90-4971-b8cc-50a024eced54","system_id":"levelo_inurba_marseille","lat":43.29514,"lon":5.39397,"is_reserved":false,"is_disabled":false,"rental_uris":{"android":"levelo://app?vid=6341f889-dc90-4971-b8cc-50a024eced54","ios":"levelo://app?vid=6341f889-dc90-4971-b8cc-50a024eced54"},"vehicle_type_id":"4","last_reported":1726683112,"current_range_meters":34000,"station_id":"ce4bh292rcd13ifvqdf0","pricing_plan_id":"cebpf4jnsgd1na2vs0mg"},{"bike_id":"1be052d1-ff94-4095-aab0-4664d445c421","system_id":"levelo_inurba_marseille","lat":43.25089,"lon":5.39526,"is_reserved":false,"is_disabled":false,"rental_uris":{"android":"levelo://app?vid=1be052d1-ff94-4095-aab0-4664d445c421","ios":"levelo://app?vid=1be052d1-ff94-4095-aab0-4664d445c421"},"vehicle_type_id":"4","last_reported":1726683112,"current_range_meters":13600,"station_id":"ce4bhm12rcd13ifvqgkg","pricing_plan_id":"cebpf4jnsgd1na2vs0mg"},{"bike_id":"28cc4f42-0c59-4c04-b868-2d61f35ef940","system_id":"levelo_inurba_marseille","lat":43.290039,"lon":5.356229,"is_reserved":false,"is_disabled":false,"rental_uris":{"android":"levelo://app?vid=28cc4f42-0c59-4c04-b868-2d61f35ef940","ios":"levelo://app?vid=28cc4f42-0c59-4c04-b868-2d61f35ef940"},"vehicle_type_id":"4","last_reported":1726683112,"current_range_meters":7200,"station_id":"ce4bhb92rcd13ifvqen0","pricing_plan_id":"cebpf4jnsgd1na2vs0mg"},{"bike_id":"ce7e22e0-75a4-4136-a0a6-da2fed727889","system_id":"levelo_inurba_marseille","lat":43.30243,"lon":5.40052,"is_reserved":false,"is_disabled":false,"rental_uris":{"android":"levelo://app?vid=ce7e22e0-75a4-4136-a0a6-da2fed727889","ios":"levelo://app?vid=ce7e22e0-75a4-4136-a0a6-da2fed727889"},"vehicle_type_id":"4","last_reported":1726683112,"current_range_meters":32000,"station_id":"ce4bgvh2rcd13ifvqcs0","pricing_plan_id":"cebpf4jnsgd1na2vs0mg"},{"bike_id":"cf7d013c-5245-4c76-bcf2-215851cf4c01","system_id":"levelo_inurba_marseille","lat":43.26937,"lon":5.38914,"is_reserved":false,"is_disabled":false,"rental_uris":{"android":"levelo://app?vid=cf7d013c-5245-4c76-bcf2-215851cf4c01","ios":"levelo://app?vid=cf7d013c-5245-4c76-bcf2-215851cf4c01"},"vehicle_type_id":"4","last_reported":1726683112,"current_range_meters":38400,"station_id":"ce4bhhh2rcd13ifvqfl0","pricing_plan_id":"cebpf4jnsgd1na2vs0mg"},{"bike_id":"e2421df7-1c7d-4e98-96e2-c048573d19af","system_id":"levelo_inurba_marseille","lat":43.29783,"lon":5.39357,"is_reserved":false,"is_disabled":false,"rental_uris":{"android":"levelo://app?vid=e2421df7-1c7d-4e98-96e2-c048573d19af","ios":"levelo://app?vid=e2421df7-1c7d-4e98-96e2-c048573d19af"},"vehicle_type_id":"4","last_reported":1726683112,"current_range_meters":24000,"station_id":"chh1huq6cuj3fo74tm60","pricing_plan_id":"cebpf4jnsgd1na2vs0mg"},{"bike_id":"70dcd1d7-5d54-48d8-8076-85211bacffe7","system_id":"levelo_inurba_marseille","lat":43.26939,"lon":5.40251,"is_reserved":false,"is_disabled":false,"rental_uris":{"android":"levelo://app?vid=70dcd1d7-5d54-48d8-8076-85211bacffe7","ios":"levelo://app?vid=70dcd1d7-5d54-48d8-8076-85211bacffe7"},"vehicle_type_id":"4","last_reported":1726683112,"current_range_meters":14000,"station_id":"cjm6bp8fraef2m0cb0m0","pricing_plan_id":"cebpf4jnsgd1na2vs0mg"},{"bike_id":"ac167c3b-08cb-4a46-bff3-3dd429a98a44","system_id":"levelo_inurba_marseille","lat":43.29021,"lon":5.38137,"is_reserved":false,"is_disabled":false,"rental_uris":{"android":"levelo://app?vid=ac167c3b-08cb-4a46-bff3-3dd429a98a44","ios":"levelo://app?vid=ac167c3b-08cb-4a46-bff3-3dd429a98a44"},"vehicle_type_id":"4","last_reported":1726683112,"current_range_meters":35600,"station_id":"ce4bh4p2rcd13ifvqe1g","pricing_plan_id":"cebpf4jnsgd1na2vs0mg"},{"bike_id":"ae5fe34a-33d8-41d0-aaad-6eb8613438c1","system_id":"levelo_inurba_marseille","lat":43.29968,"lon":5.38487,"is_reserved":false,"is_disabled":false,"rental_uris":{"android":"levelo://app?vid=ae5fe34a-33d8-41d0-aaad-6eb8613438c1","ios":"levelo://app?vid=ae5fe34a-33d8-41d0-aaad-6eb8613438c1"},"vehicle_type_id":"4","last_reported":1726683112,"current_range_meters":40000,"station_id":"ce4bgj92rcd13ifvqbd0","pricing_plan_id":"cebpf4jnsgd1na2vs0mg"},{"bike_id":"c2c9a555-6ec8-4b92-b33e-073571605c93","system_id":"levelo_inurba_marseille","lat":43.23194,"lon":5.35552,"is_reserved":false,"is_disabled":false,"rental_uris":{"android":"levelo://app?vid=c2c9a555-6ec8-4b92-b33e-073571605c93","ios":"levelo://app?vid=c2c9a555-6ec8-4b92-b33e-073571605c93"},"vehicle_type_id":"4","last_reported":1726683112,"current_range_meters":36400,"station_id":"ce4bhu92rcd13ifvqi70","pricing_plan_id":"cebpf4jnsgd1na2vs0mg"},{"bike_id":"5a82f295-988a-4376-8039-2b42eaaf0a77","system_id":"levelo_inurba_marseille","lat":43.27185,"lon":5.39047,"is_reserved":false,"is_disabled":false,"rental_uris":{"android":"levelo://app?vid=5a82f295-988a-4376-8039-2b42eaaf0a77","ios":"levelo://app?vid=5a82f295-988a-4376-8039-2b42eaaf0a77"},"vehicle_type_id":"4","last_reported":1726683112,"current_range_meters":24400,"station_id":"ce4bh012rcd13ifvqcv0","pricing_plan_id":"cebpf4jnsgd1na2vs0mg"},{"bike_id":"27109f1d-8ca1-4ba1-8193-7ca41a45028e","system_id":"levelo_inurba_marseille","lat":43.26682,"lon":5.38273,"is_reserved":false,"is_disabled":false,"rental_uris":{"android":"levelo://app?vid=27109f1d-8ca1-4ba1-8193-7ca41a45028e","ios":"levelo://app?vid=27109f1d-8ca1-4ba1-8193-7ca41a45028e"},"vehicle_type_id":"4","last_reported":1726683112,"current_range_meters":28400,"station_id":"ce4bhg92rcd13ifvqf90","pricing_plan_id":"cebpf4jnsgd1na2vs0mg"},{"bike_id":"bbaf7a35-3951-419b-a46e-6b1de6656039","system_id":"levelo_inurba_marseille","lat":43.25,"lon":5.38929,"is_reserved":false,"is_disabled":false,"rental_uris":{"android":"levelo://app?vid=bbaf7a35-3951-419b-a46e-6b1de6656039","ios":"levelo://app?vid=bbaf7a35-3951-419b-a46e-6b1de6656039"},"vehicle_type_id":"4","last_reported":1726683112,"current_range_meters":23200,"station_id":"ce4bhgp2rcd13ifvqfd0","pricing_plan_id":"cebpf4jnsgd1na2vs0mg"},{"bike_id":"e5ce120e-f189-4882-876a-d185220bcf95","system_id":"levelo_inurba_marseille","lat":43.3302,"lon":5.39049,"is_reserved":false,"is_disabled":false,"rental_uris":{"android":"levelo://app?vid=e5ce120e-f189-4882-876a-d185220bcf95","ios":"levelo://app?vid=e5ce120e-f189-4882-876a-d185220bcf95"},"vehicle_type_id":"4","last_reported":1726683112,"current_range_meters":9200,"station_id":"ce4bhr92rcd13ifvqhrg","pricing_plan_id":"cebpf4jnsgd1na2vs0mg"},{"bike_id":"0a3283f9-1885-4d53-8177-f8e3517fc853","system_id":"levelo_inurba_marseille","lat":43.28909,"lon":5.37812,"is_reserved":false,"is_disabled":false,"rental_uris":{"android":"levelo://app?vid=0a3283f9-1885-4d53-8177-f8e3517fc853","ios":"levelo://app?vid=0a3283f9-1885-4d53-8177-f8e3517fc853"},"vehicle_type_id":"4","last_reported":1726683112,"current_range_meters":28000,"station_id":"","pricing_plan_id":"cebpf4jnsgd1na2vs0mg"},{"bike_id":"b3519fa5-b215-4006-896e-757859019804","system_id":"levelo_inurba_marseille","lat":43.29418,"lon":5.38624,"is_reserved":false,"is_disabled":false,"rental_uris":{"android":"levelo://app?vid=b3519fa5-b215-4006-896e-757859019804","ios":"levelo://app?vid=b3519fa5-b215-4006-896e-757859019804"},"vehicle_type_id":"4","last_reported":1726683112,"current_range_meters":4400,"station_id":"ce4bh2h2rcd13ifvqdh0","pricing_plan_id":"cebpf4jnsgd1na2vs0mg"},{"bike_id":"f1ea9117-60c3-4d22-8207-c297dee9583d","system_id":"levelo_inurba_marseille","lat":43.26566,"lon":5.39026,"is_reserved":false,"is_disabled":false,"rental_uris":{"android":"levelo://app?vid=f1ea9117-60c3-4d22-8207-c297dee9583d","ios":"levelo://app?vid=f1ea9117-60c3-4d22-8207-c297dee9583d"},"vehicle_type_id":"4","last_reported":1726683112,"current_range_meters":15200,"station_id":"ce4bhe12rcd13ifvqf30","pricing_plan_id":"cebpf4jnsgd1na2vs0mg"},{"bike_id":"d203676a-239e-4dec-b8eb-df4734e452a3","system_id":"levelo_inurba_marseille","lat":43.29039,"lon":5.37231,"is_reserved":false,"is_disabled":false,"rental_uris":{"android":"levelo://app?vid=d203676a-239e-4dec-b8eb-df4734e452a3","ios":"levelo://app?vid=d203676a-239e-4dec-b8eb-df4734e452a3"},"vehicle_type_id":"4","last_reported":1726683112,"current_range_meters":4400,"station_id":"ce4bhap2rcd13ifvqek0","pricing_plan_id":"cebpf4jnsgd1na2vs0mg"},{"bike_id":"10a2d158-47c7-40d4-8378-ffb25fc878d3","system_id":"levelo_inurba_marseille","lat":43.29012,"lon":5.38137,"is_reserved":false,"is_disabled":false,"rental_uris":{"android":"levelo://app?vid=10a2d158-47c7-40d4-8378-ffb25fc878d3","ios":"levelo://app?vid=10a2d158-47c7-40d4-8378-ffb25fc878d3"},"vehicle_type_id":"4","last_reported":1726683112,"current_range_meters":14400,"station_id":"ce4bh4p2rcd13ifvqe1g","pricing_plan_id":"cebpf4jnsgd1na2vs0mg"},{"bike_id":"6f387a41-1a28-4619-ac86-26875678b81b","system_id":"levelo_inurba_marseille","lat":43.29899,"lon":5.43668,"is_reserved":false,"is_disabled":false,"rental_uris":{"android":"levelo://app?vid=6f387a41-1a28-4619-ac86-26875678b81b","ios":"levelo://app?vid=6f387a41-1a28-4619-ac86-26875678b81b"},"vehicle_type_id":"4","last_reported":1726683112,"current_range_meters":13600,"station_id":"ce4bhpp2rcd13ifvqhfg","pricing_plan_id":"cebpf4jnsgd1na2vs0mg"},{"bike_id":"fffdbd3b-7dd4-4b0c-8c6d-5c6f40392088","system_id":"levelo_inurba_marseille","lat":43.31329,"lon":5.39687,"is_reserved":false,"is_disabled":false,"rental_uris":{"android":"levelo://app?vid=fffdbd3b-7dd4-4b0c-8c6d-5c6f40392088","ios":"levelo://app?vid=fffdbd3b-7dd4-4b0c-8c6d-5c6f40392088"},"vehicle_type_id":"4","last_reported":1726683112,"current_range_meters":10800,"station_id":"ce4bgvp2rcd13ifvqcu0","pricing_plan_id":"cebpf4jnsgd1na2vs0mg"},{"bike_id":"426811f5-0b22-40dd-8ab4-a5bcbf4f25dd","system_id":"levelo_inurba_marseille","lat":43.33023,"lon":5.39039,"is_reserved":false,"is_disabled":false,"rental_uris":{"android":"levelo://app?vid=426811f5-0b22-40dd-8ab4-a5bcbf4f25dd","ios":"levelo://app?vid=426811f5-0b22-40dd-8ab4-a5bcbf4f25dd"},"vehicle_type_id":"4","last_reported":1726683112,"current_range_meters":38800,"station_id":"ce4bhr92rcd13ifvqhrg","pricing_plan_id":"cebpf4jnsgd1na2vs0mg"},{"bike_id":"66075e51-c532-41b2-837a-c8514ef0a0cb","system_id":"levelo_inurba_marseille","lat":43.25729,"lon":5.41109,"is_reserved":false,"is_disabled":false,"rental_uris":{"android":"levelo://app?vid=66075e51-c532-41b2-837a-c8514ef0a0cb","ios":"levelo://app?vid=66075e51-c532-41b2-837a-c8514ef0a0cb"},"vehicle_type_id":"4","last_reported":1726683112,"current_range_meters":6400,"station_id":"ce4bhkp2rcd13ifvqgd0","pricing_plan_id":"cebpf4jnsgd1na2vs0mg"},{"bike_id":"e34d27a5-774b-4dfe-9466-23252e76dde7","system_id":"levelo_inurba_marseille","lat":43.29279,"lon":5.40124,"is_reserved":false,"is_disabled":false,"rental_uris":{"android":"levelo://app?vid=e34d27a5-774b-4dfe-9466-23252e76dde7","ios":"levelo://app?vid=e34d27a5-774b-4dfe-9466-23252e76dde7"},"vehicle_type_id":"4","last_reported":1726683112,"current_range_meters":33200,"station_id":"ce4bh312rcd13ifvqdk0","pricing_plan_id":"cebpf4jnsgd1na2vs0mg"},{"bike_id":"5ab24690-db5b-4fc8-95d0-bbca224817ea","system_id":"levelo_inurba_marseille","lat":43.32364,"lon":5.38886,"is_reserved":false,"is_disabled":false,"rental_uris":{"android":"levelo://app?vid=5ab24690-db5b-4fc8-95d0-bbca224817ea","ios":"levelo://app?vid=5ab24690-db5b-4fc8-95d0-bbca224817ea"},"vehicle_type_id":"4","last_reported":1726683112,"current_range_meters":17200,"station_id":"ce4bhqp2rcd13ifvqhog","pricing_plan_id":"cebpf4jnsgd1na2vs0mg"},{"bike_id":"e441e964-5847-4786-bf3e-61fb156c12f5","system_id":"levelo_inurba_marseille","lat":43.26555,"lon":5.37295,"is_reserved":false,"is_disabled":false,"rental_uris":{"android":"levelo://app?vid=e441e964-5847-4786-bf3e-61fb156c12f5","ios":"levelo://app?vid=e441e964-5847-4786-bf3e-61fb156c12f5"},"vehicle_type_id":"4","last_reported":1726683112,"current_range_meters":38800,"station_id":"ce4bhg12rcd13ifvqf70","pricing_plan_id":"cebpf4jnsgd1na2vs0mg"},{"bike_id":"88068615-8377-4919-a422-c6e9bcaa3ab4","system_id":"levelo_inurba_marseille","lat":43.32292,"lon":5.38277,"is_reserved":false,"is_disabled":false,"rental_uris":{"android":"levelo://app?vid=88068615-8377-4919-a422-c6e9bcaa3ab4","ios":"levelo://app?vid=88068615-8377-4919-a422-c6e9bcaa3ab4"},"vehicle_type_id":"4","last_reported":1726683112,"current_range_meters":38800,"station_id":"ce4bhr12rcd13ifvqhqg","pricing_plan_id":"cebpf4jnsgd1na2vs0mg"},{"bike_id":"76dff922-44ff-4c2a-a45c-74ffe6a43c8b","system_id":"levelo_inurba_marseille","lat":43.29008,"lon":5.38136,"is_reserved":false,"is_disabled":false,"rental_uris":{"android":"levelo://app?vid=76dff922-44ff-4c2a-a45c-74ffe6a43c8b","ios":"levelo://app?vid=76dff922-44ff-4c2a-a45c-74ffe6a43c8b"},"vehicle_type_id":"4","last_reported":1726683112,"current_range_meters":39200,"station_id":"ce4bh4p2rcd13ifvqe1g","pricing_plan_id":"cebpf4jnsgd1na2vs0mg"},{"bike_id":"7c63adda-4228-4ba2-907a-ce1df8b3266e","system_id":"levelo_inurba_marseille","lat":43.337444,"lon":5.374475,"is_reserved":false,"is_disabled":false,"rental_uris":{"android":"levelo://app?vid=7c63adda-4228-4ba2-907a-ce1df8b3266e","ios":"levelo://app?vid=7c63adda-4228-4ba2-907a-ce1df8b3266e"},"vehicle_type_id":"4","last_reported":1726683112,"current_range_meters":31200,"station_id":"","pricing_plan_id":"cebpf4jnsgd1na2vs0mg"},{"bike_id":"c52def84-52b7-4caf-bed2-13a109072626","system_id":"levelo_inurba_marseille","lat":43.30249,"lon":5.40067,"is_reserved":false,"is_disabled":false,"rental_uris":{"android":"levelo://app?vid=c52def84-52b7-4caf-bed2-13a109072626","ios":"levelo://app?vid=c52def84-52b7-4caf-bed2-13a109072626"},"vehicle_type_id":"4","last_reported":1726683112,"current_range_meters":24000,"station_id":"ce4bgvh2rcd13ifvqcs0","pricing_plan_id":"cebpf4jnsgd1na2vs0mg"},{"bike_id":"e8b74d23-325b-40d9-a822-6f8130508c8d","system_id":"levelo_inurba_marseille","lat":43.32,"lon":5.38164,"is_reserved":false,"is_disabled":false,"rental_uris":{"android":"levelo://app?vid=e8b74d23-325b-40d9-a822-6f8130508c8d","ios":"levelo://app?vid=e8b74d23-325b-40d9-a822-6f8130508c8d"},"vehicle_type_id":"4","last_reported":1726683112,"current_range_meters":9200,"station_id":"ce4bhr12rcd13ifvqhpg","pricing_plan_id":"cebpf4jnsgd1na2vs0mg"},{"bike_id":"7bf97a93-375d-4e88-8edc-15efddfa0548","system_id":"levelo_inurba_marseille","lat":43.28567,"lon":5.39493,"is_reserved":false,"is_disabled":false,"rental_uris":{"android":"levelo://app?vid=7bf97a93-375d-4e88-8edc-15efddfa0548","ios":"levelo://app?vid=7bf97a93-375d-4e88-8edc-15efddfa0548"},"vehicle_type_id":"4","last_reported":1726683112,"current_range_meters":5600,"station_id":"ce4bh292rcd13ifvqdg0","pricing_plan_id":"cebpf4jnsgd1na2vs0mg"},{"bike_id":"cb612164-ef29-4863-8347-b66b3d45f902","system_id":"levelo_inurba_marseille","lat":43.32006,"lon":5.38173,"is_reserved":false,"is_disabled":false,"rental_uris":{"android":"levelo://app?vid=cb612164-ef29-4863-8347-b66b3d45f902","ios":"levelo://app?vid=cb612164-ef29-4863-8347-b66b3d45f902"},"vehicle_type_id":"4","last_reported":1726683112,"current_range_meters":27600,"station_id":"ce4bhr12rcd13ifvqhpg","pricing_plan_id":"cebpf4jnsgd1na2vs0mg"},{"bike_id":"79bd3874-8524-44c1-868e-3943d13e7eab","system_id":"levelo_inurba_marseille","lat":43.24385,"lon":5.37053,"is_reserved":false,"is_disabled":false,"rental_uris":{"android":"levelo://app?vid=79bd3874-8524-44c1-868e-3943d13e7eab","ios":"levelo://app?vid=79bd3874-8524-44c1-868e-3943d13e7eab"},"vehicle_type_id":"4","last_reported":1726683112,"current_range_meters":30800,"station_id":"ce4bhhh2rcd13ifvqfk0","pricing_plan_id":"cebpf4jnsgd1na2vs0mg"},{"bike_id":"ac05600b-357f-4346-bbd8-a3d404bc9f7c","system_id":"levelo_inurba_marseille","lat":43.28614,"lon":5.35102,"is_reserved":false,"is_disabled":false,"rental_uris":{"android":"levelo://app?vid=ac05600b-357f-4346-bbd8-a3d404bc9f7c","ios":"levelo://app?vid=ac05600b-357f-4346-bbd8-a3d404bc9f7c"},"vehicle_type_id":"4","last_reported":1726683112,"current_range_meters":14000,"station_id":"ce4bhch2rcd13ifvqeug","pricing_plan_id":"cebpf4jnsgd1na2vs0mg"},{"bike_id":"ab331113-84f6-4f5b-a006-0580210e020c","system_id":"levelo_inurba_marseille","lat":43.28939,"lon":5.36642,"is_reserved":false,"is_disabled":false,"rental_uris":{"android":"levelo://app?vid=ab331113-84f6-4f5b-a006-0580210e020c","ios":"levelo://app?vid=ab331113-84f6-4f5b-a006-0580210e020c"},"vehicle_type_id":"4","last_reported":1726683112,"current_range_meters":5600,"station_id":"ce4bhap2rcd13ifvqek0","pricing_plan_id":"cebpf4jnsgd1na2vs0mg"},{"bike_id":"dfb74749-f788-4962-aa3b-85fda7764b4d","system_id":"levelo_inurba_marseille","lat":43.297041,"lon":5.365783,"is_reserved":false,"is_disabled":false,"rental_uris":{"android":"levelo://app?vid=dfb74749-f788-4962-aa3b-85fda7764b4d","ios":"levelo://app?vid=dfb74749-f788-4962-aa3b-85fda7764b4d"},"vehicle_type_id":"4","last_reported":1726683112,"current_range_meters":17600,"station_id":"ce4bgn12rcd13ifvqbt0","pricing_plan_id":"cebpf4jnsgd1na2vs0mg"},{"bike_id":"e9d1b596-8fb6-4359-a54e-499e180ea760","system_id":"levelo_inurba_marseille","lat":43.30779,"lon":5.37656,"is_reserved":false,"is_disabled":false,"rental_uris":{"android":"levelo://app?vid=e9d1b596-8fb6-4359-a54e-499e180ea760","ios":"levelo://app?vid=e9d1b596-8fb6-4359-a54e-499e180ea760"},"vehicle_type_id":"4","last_reported":1726683112,"current_range_meters":20400,"station_id":"ce4bgv92rcd13ifvqcq0","pricing_plan_id":"cebpf4jnsgd1na2vs0mg"},{"bike_id":"f432ac9b-7fdc-4e0c-bcd6-836091ac1e4b","system_id":"levelo_inurba_marseille","lat":43.28618,"lon":5.35108,"is_reserved":false,"is_disabled":false,"rental_uris":{"android":"levelo://app?vid=f432ac9b-7fdc-4e0c-bcd6-836091ac1e4b","ios":"levelo://app?vid=f432ac9b-7fdc-4e0c-bcd6-836091ac1e4b"},"vehicle_type_id":"4","last_reported":1726683112,"current_range_meters":2800,"station_id":"ce4bhch2rcd13ifvqeug","pricing_plan_id":"cebpf4jnsgd1na2vs0mg"},{"bike_id":"69a73ca1-4d0f-42fe-b8b4-795e87ff7a1c","system_id":"levelo_inurba_marseille","lat":43.25574,"lon":5.38242,"is_reserved":false,"is_disabled":false,"rental_uris":{"android":"levelo://app?vid=69a73ca1-4d0f-42fe-b8b4-795e87ff7a1c","ios":"levelo://app?vid=69a73ca1-4d0f-42fe-b8b4-795e87ff7a1c"},"vehicle_type_id":"4","last_reported":1726683112,"current_range_meters":38800,"station_id":"ce4bhih2rcd13ifvqfs0","pricing_plan_id":"cebpf4jnsgd1na2vs0mg"},{"bike_id":"ca87f2af-453b-4fab-a151-e5e09e7a9bfc","system_id":"levelo_inurba_marseille","lat":43.2942,"lon":5.38624,"is_reserved":false,"is_disabled":false,"rental_uris":{"android":"levelo://app?vid=ca87f2af-453b-4fab-a151-e5e09e7a9bfc","ios":"levelo://app?vid=ca87f2af-453b-4fab-a151-e5e09e7a9bfc"},"vehicle_type_id":"4","last_reported":1726683112,"current_range_meters":3600,"station_id":"ce4bh2h2rcd13ifvqdh0","pricing_plan_id":"cebpf4jnsgd1na2vs0mg"},{"bike_id":"6264636e-08ed-4e88-9bb2-8e76e4e918ac","system_id":"levelo_inurba_marseille","lat":43.29418,"lon":5.3862,"is_reserved":false,"is_disabled":false,"rental_uris":{"android":"levelo://app?vid=6264636e-08ed-4e88-9bb2-8e76e4e918ac","ios":"levelo://app?vid=6264636e-08ed-4e88-9bb2-8e76e4e918ac"},"vehicle_type_id":"4","last_reported":1726683112,"current_range_meters":19200,"station_id":"ce4bh2h2rcd13ifvqdh0","pricing_plan_id":"cebpf4jnsgd1na2vs0mg"},{"bike_id":"d939c77f-3184-44da-88f8-2e2d2b1eb43d","system_id":"levelo_inurba_marseille","lat":43.2558,"lon":5.3824,"is_reserved":false,"is_disabled":false,"rental_uris":{"android":"levelo://app?vid=d939c77f-3184-44da-88f8-2e2d2b1eb43d","ios":"levelo://app?vid=d939c77f-3184-44da-88f8-2e2d2b1eb43d"},"vehicle_type_id":"4","last_reported":1726683112,"current_range_meters":39200,"station_id":"ce4bhih2rcd13ifvqfs0","pricing_plan_id":"cebpf4jnsgd1na2vs0mg"},{"bike_id":"486f4545-e241-46d5-9683-b86b54c17423","system_id":"levelo_inurba_marseille","lat":43.26676,"lon":5.3827,"is_reserved":false,"is_disabled":false,"rental_uris":{"android":"levelo://app?vid=486f4545-e241-46d5-9683-b86b54c17423","ios":"levelo://app?vid=486f4545-e241-46d5-9683-b86b54c17423"},"vehicle_type_id":"4","last_reported":1726683112,"current_range_meters":17600,"station_id":"ce4bhg92rcd13ifvqf90","pricing_plan_id":"cebpf4jnsgd1na2vs0mg"},{"bike_id":"b5c49ee3-ff34-4e10-bf1b-bb67c5569b3f","system_id":"levelo_inurba_marseille","lat":43.30886,"lon":5.39647,"is_reserved":false,"is_disabled":false,"rental_uris":{"android":"levelo://app?vid=b5c49ee3-ff34-4e10-bf1b-bb67c5569b3f","ios":"levelo://app?vid=b5c49ee3-ff34-4e10-bf1b-bb67c5569b3f"},"vehicle_type_id":"4","last_reported":1726683112,"current_range_meters":26000,"station_id":"ce4bh012rcd13ifvqcv0","pricing_plan_id":"cebpf4jnsgd1na2vs0mg"},{"bike_id":"4c034b9f-cbab-4e04-b5bc-ee83cd01a53c","system_id":"levelo_inurba_marseille","lat":43.3229,"lon":5.38285,"is_reserved":false,"is_disabled":false,"rental_uris":{"android":"levelo://app?vid=4c034b9f-cbab-4e04-b5bc-ee83cd01a53c","ios":"levelo://app?vid=4c034b9f-cbab-4e04-b5bc-ee83cd01a53c"},"vehicle_type_id":"4","last_reported":1726683112,"current_range_meters":38800,"station_id":"ce4bhr12rcd13ifvqhqg","pricing_plan_id":"cebpf4jnsgd1na2vs0mg"},