{"last_updated":1739776223,"ttl":60,"version":"2.2","data":{"bikes":[{"bike_id":"0c4f4644-af4f-484a-bf12-d927dce6cd6d","system_id":"levelo_inurba_marseille","lat":43.31544,"lon":5.38028,"is_reserved":false,"is_disabled":false,"rental_uris":{"android":"levelo://app?vid=0c4f4644-af4f-484a-bf12-d927dce6cd6d","ios":"levelo://app?vid=0c4f4644-af4f-484a-bf12-d927dce6cd6d"},"vehicle_type_id":"4","last_reported":1739776223,"current_range_meters":38800,"station_id":"ce4bhsp2rcd13ifvqi50","pricing_plan_id":"cebpf4jnsgd1na2vs0mg"},{"bike_id":"f0e15311-7300-41c1-aa38-b0373ecc7e52","system_id":"levelo_inurba_marseille","lat":43.248064,"lon":5.374514,"is_reserved":false,"is_disabled":false,"rental_uris":{"android":"levelo://app?vid=f0e15311-7300-41c1-aa38-b0373ecc7e52","ios":"levelo://app?vid=f0e15311-7300-41c1-aa38-b0373ecc7e52"},"vehicle_type_id":"4","last_reported":1739776223,"current_range_meters":32000,"station_id":"ce4bhgh2rcd13ifvqfb0","pricing_plan_id":"cebpf4jnsgd1na2vs0mg"},{"bike_id":"040bf6da-b374-40b3-b70a-0f85f37b58a3","system_id":"levelo_inurba_marseille","lat":43.29269,"lon":5.401136,"is_reserved":false,"is_disabled":true,"rental_uris":{"android":"levelo://app?vid=040bf6da-b374-40b3-b70a-0f85f37b58a3","ios":"levelo://app?vid=040bf6da-b374-40b3-b70a-0f85f37b58a3"},"vehicle_type_id":"4","last_reported":1739776223,"current_range_meters":28800,"station_id":"ce4bh312rcd13ifvqdk0","pricing_plan_id":"cebpf4jnsgd1na2vs0mg"},{"bike_id":"8e397bc5-342e-4c28-a35e-e858d27a65be","system_id":"levelo_inurba_marseille","lat":43.27055,"lon":5.40265,"is_reserved":false,"is_disabled":false,"rental_uris":{"android":"levelo://app?vid=8e397bc5-342e-4c28-a35e-e858d27a65be","ios":"levelo://app?vid=8e397bc5-342e-4c28-a35e-e858d27a65be"},"vehicle_type_id":"4","last_reported":1739776223,"current_range_meters":32400,"station_id":"ce4bhk92rcd13ifvqgc0","pricing_plan_id":"cebpf4jnsgd1na2vs0mg"},{"bike_id":"f661b7e0-1628-4b53-9b0f-1de5abd25562","system_id":"levelo_inurba_marseille","lat":43.30794,"lon":5.3749,"is_reserved":false,"is_disabled":false,"rental_uris":{"android":"levelo://app?vid=f661b7e0-1628-4b53-9b0f-1de5abd25562","ios":"levelo://app?vid=f661b7e0-1628-4b53-9b0f-1de5abd25562"},"vehicle_type_id":"4","last_reported":1739776223,"current_range_meters":27600,"station_id":"","pricing_plan_id":"cebpf4jnsgd1na2vs0mg"},{"bike_id":"cfc771a7-2d39-4d13-bd0a-fcb02e92a328","system_id":"levelo_inurba_marseille","lat":43.29778,"lon":5.39368,"is_reserved":false,"is_disabled":false,"rental_uris":{"android":"levelo://app?vid=cfc771a7-2d39-4d13-bd0a-fcb02e92a328","ios":"levelo://app?vid=cfc771a7-2d39-4d13-bd0a-fcb02e92a328"},"vehicle_type_id":"4","last_reported":1739776223,"current_range_meters":33200,"station_id":"chh1huq6cuj3fo74tm60","pricing_plan_id":"cebpf4jnsgd1na2vs0mg"},{"bike_id":"db3ecbb7-2901-4ed4-8ed5-39715fcb9051","system_id":"levelo_inurba_marseille","lat":43.3015,"lon":5.38076,"is_reserved":false,"is_disabled":false,"rental_uris":{"android":"levelo://app?vid=db3ecbb7-2901-4ed4-8ed5-39715fcb9051","ios":"levelo://app?vid=db3ecbb7-2901-4ed4-8ed5-39715fcb9051"},"vehicle_type_id":"4","last_reported":1739776223,"current_range_meters":20400,"station_id":"ce4bgjp2rcd13ifvqbh0","pricing_plan_id":"cebpf4jnsgd1na2vs0mg"},{"bike_id":"f65c7e91-fcbe-4858-ba1d-0e5dbbd204f1","system_id":"levelo_inurba_marseille","lat":43.30772,"lon":5.37649,"is_reserved":false,"is_disabled":false,"rental_uris":{"android":"levelo://app?vid=f65c7e91-fcbe-4858-ba1d-0e5dbbd204f1","ios":"levelo://app?vid=f65c7e91-fcbe-4858-ba1d-0e5dbbd204f1"},"vehicle_type_id":"4","last_reported":1739776223,"current_range_meters":30800,"station_id":"ce4bgv92rcd13ifvqcq0","pricing_plan_id":"cebpf4jnsgd1na2vs0mg"},{"bike_id":"126c91b0-88db-4386-b6a1-90f14b6f5bfd","system_id":"levelo_inurba_marseille","lat":43.30882,"lon":5.37186,"is_reserved":false,"is_disabled":false,"rental_uris":{"android":"levelo://app?vid=126c91b0-88db-4386-b6a1-90f14b6f5bfd","ios":"levelo://app?vid=126c91b0-88db-4386-b6a1-90f14b6f5bfd"},"vehicle_type_id":"4","last_reported":1739776223,"current_range_meters":32000,"station_id":"ce4bguh2rcd13ifvqckg","pricing_plan_id":"cebpf4jnsgd1na2vs0mg"},{"bike_id":"314c29ce-510f-45ce-8df0-2406130d486b","system_id":"levelo_inurba_marseille","lat":43.28697,"lon":5.38678,"is_reserved":false,"is_disabled":false,"rental_uris":{"android":"levelo://app?vid=314c29ce-510f-45ce-8df0-2406130d486b","ios":"levelo://app?vid=314c29ce-510f-45ce-8df0-2406130d486b"},"vehicle_type_id":"4","last_reported":1739776223,"current_range_meters":19200,"station_id":"ce4bh492rcd13ifvqdug","pricing_plan_id":"cebpf4jnsgd1na2vs0mg"},{"bike_id":"ff426081-3726-4b6c-aa9f-0d0db0cbc7e6","system_id":"levelo_inurba_marseille","lat":43.280328,"lon":5.369548,"is_reserved":false,"is_disabled":false,"rental_uris":{"android":"levelo://app?vid=ff426081-3726-4b6c-aa9f-0d0db0cbc7e6","ios":"levelo://app?vid=ff426081-3726-4b6c-aa9f-0d0db0cbc7e6"},"vehicle_type_id":"4","last_reported":1739776223,"current_range_meters":38800,"station_id":"ce4bha12rcd13ifvqef0","pricing_plan_id":"cebpf4jnsgd1na2vs0mg"},{"bike_id":"d0efb828-1935-4b15-973e-51ed0b413367","system_id":"levelo_inurba_marseille","lat":43.28931,"lon":5.36394,"is_reserved":false,"is_disabled":false,"rental_uris":{"android":"levelo://app?vid=d0efb828-1935-4b15-973e-51ed0b413367","ios":"levelo://app?vid=d0efb828-1935-4b15-973e-51ed0b413367"},"vehicle_type_id":"4","last_reported":1739776223,"current_range_meters":11600,"station_id":"ce4bhc92rcd13ifvqetg","pricing_plan_id":"cebpf4jnsgd1na2vs0mg"},{"bike_id":"3597f271-3655-440e-95b7-5ec762c02c2d","system_id":"levelo_inurba_marseille","lat":43.29186,"lon":5.35813,"is_reserved":false,"is_disabled":false,"rental_uris":{"android":"levelo://app?vid=3597f271-3655-440e-95b7-5ec762c02c2d","ios":"levelo://app?vid=3597f271-3655-440e-95b7-5ec762c02c2d"},"vehicle_type_id":"4","last_reported":1739776223,"current_range_meters":38800,"station_id":"ce4bhb12rcd13ifvqel0","pricing_plan_id":"cebpf4jnsgd1na2vs0mg"},{"bike_id":"f39f49ab-4a7b-4819-b357-8972e6f9bd96","system_id":"levelo_inurba_marseille","lat":43.30462,"lon":5.37904,"is_reserved":false,"is_disabled":false,"rental_uris":{"android":"levelo://app?vid=f39f49ab-4a7b-4819-b357-8972e6f9bd96","ios":"levelo://app?vid=f39f49ab-4a7b-4819-b357-8972e6f9bd96"},"vehicle_type_id":"4","last_reported":1739776223,"current_range_meters":25200,"station_id":"ce4bgup2rcd13ifvqcn0","pricing_plan_id":"cebpf4jnsgd1na2vs0mg"},{"bike_id":"942a1531-dd91-46c3-8655-4a3baa12f206","system_id":"levelo_inurba_marseille","lat":43.30528,"lon":5.36526,"is_reserved":false,"is_disabled":false,"rental_uris":{"android":"levelo://app?vid=942a1531-dd91-46c3-8655-4a3baa12f206","ios":"levelo://app?vid=942a1531-dd91-46c3-8655-4a3baa12f206"},"vehicle_type_id":"4","last_reported":1739776223,"current_range_meters":35200,"station_id":"ce4bgs12rcd13ifvqcag","pricing_plan_id":"cebpf4jnsgd1na2vs0mg"},{"bike_id":"26a17947-bae0-49a0-a0e6-dbcc7c3eae9e","system_id":"levelo_inurba_marseille","lat":43.24812,"lon":5.41854,"is_reserved":false,"is_disabled":false,"rental_uris":{"android":"levelo://app?vid=26a17947-bae0-49a0-a0e6-dbcc7c3eae9e","ios":"levelo://app?vid=26a17947-bae0-49a0-a0e6-dbcc7c3eae9e"},"vehicle_type_id":"4","last_reported":1739776223,"current_range_meters":26800,"station_id":"","pricing_plan_id":"cebpf4jnsgd1na2vs0mg"},{"bike_id":"0594397e-5b4a-4bc1-9dae-734c570709eb","system_id":"levelo_inurba_marseille","lat":43.278083,"lon":5.406996,"is_reserved":false,"is_disabled":false,"rental_uris":{"android":"levelo://app?vid=0594397e-5b4a-4bc1-9dae-734c570709eb","ios":"levelo://app?vid=0594397e-5b4a-4bc1-9dae-734c570709eb"},"vehicle_type_id":"4","last_reported":1739776223,"current_range_meters":38800,"station_id":"ce4bhnh2rcd13ifvqgtg","pricing_plan_id":"cebpf4jnsgd1na2vs0mg"},{"bike_id":"3d119f7e-598c-4ee5-af25-41604854cde7","system_id":"levelo_inurba_marseille","lat":43.29706,"lon":5.36608,"is_reserved":false,"is_disabled":false,"rental_uris":{"android":"levelo://app?vid=3d119f7e-598c-4ee5-af25-41604854cde7","ios":"levelo://app?vid=3d119f7e-598c-4ee5-af25-41604854cde7"},"vehicle_type_id":"4","last_reported":1739776223,"current_range_meters":39200,"station_id":"ce4bgn12rcd13ifvqbt0","pricing_plan_id":"cebpf4jnsgd1na2vs0mg"},{"bike_id":"913d0e98-b130-402b-a0ae-1d58fb07afd6","system_id":"levelo_inurba_marseille","lat":43.28691,"lon":5.40003,"is_reserved":false,"is_disabled":false,"rental_uris":{"android":"levelo://app?vid=913d0e98-b130-402b-a0ae-1d58fb07afd6","ios":"levelo://app?vid=913d0e98-b130-402b-a0ae-1d58fb07afd6"},"vehicle_type_id":"4","last_reported":1739776223,"current_range_meters":36400,"station_id":"ce4bho92rcd13ifvqh3g","pricing_plan_id":"cebpf4jnsgd1na2vs0mg"},{"bike_id":"9035e8da-cc4e-4be8-8c6e-9cb5fa10fedf","system_id":"levelo_inurba_marseille","lat":43.27667,"lon":5.38915,"is_reserved":false,"is_disabled":false,"rental_uris":{"android":"levelo://app?vid=9035e8da-cc4e-4be8-8c6e-9cb5fa10fedf","ios":"levelo://app?vid=9035e8da-cc4e-4be8-8c6e-9cb5fa10fedf"},"vehicle_type_id":"4","last_reported":1739776223,"current_range_meters":36800,"station_id":"ce4bhi12rcd13ifvqfo0","pricing_plan_id":"cebpf4jnsgd1na2vs0mg"},{"bike_id":"c32dc259-272c-4046-bfc5-c734edfacf9d","system_id":"levelo_inurba_marseille","lat":43.26678,"lon":5.38273,"is_reserved":false,"is_disabled":false,"rental_uris":{"android":"levelo://app?vid=c32dc259-272c-4046-bfc5-c734edfacf9d","ios":"levelo://app?vid=c32dc259-272c-4046-bfc5-c734edfacf9d"},"vehicle_type_id":"4","last_reported":1739776223,"current_range_meters":38800,"station_id":"ce4bhg92rcd13ifvqf90","pricing_plan_id":"cebpf4jnsgd1na2vs0mg"},{"bike_id":"fab5bc09-3072-4253-9c2a-b7b62ab516b6","system_id":"levelo_inurba_marseille","lat":43.29815,"lon":5.39335,"is_reserved":false,"is_disabled":false,"rental_uris":{"android":"levelo://app?vid=fab5bc09-3072-4253-9c2a-b7b62ab516b6","ios":"levelo://app?vid=fab5bc09-3072-4253-9c2a-b7b62ab516b6"},"vehicle_type_id":"4","last_reported":1739776223,"current_range_meters":12800,"station_id":"chh1huq6cuj3fo74tm60","pricing_plan_id":"cebpf4jnsgd1na2vs0mg"},{"bike_id":"badf6502-54fc-4858-b3f4-c931bebd493c","system_id":"levelo_inurba_marseille","lat":43.30532,"lon":5.36523,"is_reserved":false,"is_disabled":false,"rental_uris":{"android":"levelo://app?vid=badf6502-54fc-4858-b3f4-c931bebd493c","ios":"levelo://app?vid=badf6502-54fc-4858-b3f4-c931bebd493c"},"vehicle_type_id":"4","last_reported":1739776223,"current_range_meters":22400,"station_id":"ce4bgs12rcd13ifvqcag","pricing_plan_id":"cebpf4jnsgd1na2vs0mg"},{"bike_id":"9ffc487c-5243-41a7-83bb-0cda23036b98","system_id":"levelo_inurba_marseille","lat":43.275056,"lon":5.434388,"is_reserved":false,"is_disabled":true,"rental_uris":{"android":"levelo://app?vid=9ffc487c-5243-41a7-83bb-0cda23036b98","ios":"levelo://app?vid=9ffc487c-5243-41a7-83bb-0cda23036b98"},"vehicle_type_id":"4","last_reported":1739776223,"current_range_meters":0,"station_id":"","pricing_plan_id":"cebpf4jnsgd1na2vs0mg"},{"bike_id":"2821d2ff-3fc8-480e-81a3-1928b04e4a1d","system_id":"levelo_inurba_marseille","lat":43.31458,"lon":5.37406,"is_reserved":false,"is_disabled":false,"rental_uris":{"android":"levelo://app?vid=2821d2ff-3fc8-480e-81a3-1928b04e4a1d","ios":"levelo://app?vid=2821d2ff-3fc8-480e-81a3-1928b04e4a1d"},"vehicle_type_id":"4","last_reported":1739776223,"current_range_meters":7200,"station_id":"","pricing_plan_id":"cebpf4jnsgd1na2vs0mg"},{"bike_id":"8047b060-b144-4fed-a8cb-8616d953f2d5","system_id":"levelo_inurba_marseille","lat":43.23136,"lon":5.43716,"is_reserved":false,"is_disabled":false,"rental_uris":{"android":"levelo://app?vid=8047b060-b144-4fed-a8cb-8616d953f2d5","ios":"levelo://app?vid=8047b060-b144-4fed-a8cb-8616d953f2d5"},"vehicle_type_id":"4","last_reported":1739776223,"current_range_meters":24800,"station_id":"ce4bhmp2rcd13ifvqgog","pricing_plan_id":"cebpf4jnsgd1na2vs0mg"},{"bike_id":"543cab73-f1d3-4629-bf9b-0144dad3f0f9","system_id":"levelo_inurba_marseille","lat":43.281043,"lon":5.442495,"is_reserved":false,"is_disabled":false,"rental_uris":{"android":"levelo://app?vid=543cab73-f1d3-4629-bf9b-0144dad3f0f9","ios":"levelo://app?vid=543cab73-f1d3-4629-bf9b-0144dad3f0f9"},"vehicle_type_id":"4","last_reported":1739776223,"current_range_meters":4800,"station_id":"","pricing_plan_id":"cebpf4jnsgd1na2vs0mg"},{"bike_id":"d48b880c-5787-4eca-994b-610c9fc548ed","system_id":"levelo_inurba_marseille","lat":43.241612,"lon":5.363942,"is_reserved":false,"is_disabled":false,"rental_uris":{"android":"levelo://app?vid=d48b880c-5787-4eca-994b-610c9fc548ed","ios":"levelo://app?vid=d48b880c-5787-4eca-994b-610c9fc548ed"},"vehicle_type_id":"4","last_reported":1739776223,"current_range_meters":38000,"station_id":"cpo36qri1sfpv3e86is0","pricing_plan_id":"cebpf4jnsgd1na2vs0mg"},{"bike_id":"34c66d3d-b5aa-4bec-ab71-66b17e80e2a1","system_id":"levelo_inurba_marseille","lat":43.32269,"lon":5.38269,"is_reserved":false,"is_disabled":false,"rental_uris":{"android":"levelo://app?vid=34c66d3d-b5aa-4bec-ab71-66b17e80e2a1","ios":"levelo://app?vid=34c66d3d-b5aa-4bec-ab71-66b17e80e2a1"},"vehicle_type_id":"4","last_reported":1739776223,"current_range_meters":38800,"station_id":"ce4bhr12rcd13ifvqhqg","pricing_plan_id":"cebpf4jnsgd1na2vs0mg"},{"bike_id":"a4086f16-18bf-41c0-9517-08c5a8deab50","system_id":"levelo_inurba_marseille","lat":43.29984,"lon":5.37183,"is_reserved":false,"is_disabled":false,"rental_uris":{"android":"levelo://app?vid=a4086f16-18bf-41c0-9517-08c5a8deab50","ios":"levelo://app?vid=a4086f16-18bf-41c0-9517-08c5a8deab50"},"vehicle_type_id":"4","last_reported":1739776223,"current_range_meters":30400,"station_id":"ce4bgr92rcd13ifvqc7g","pricing_plan_id":"cebpf4jnsgd1na2vs0mg"},{"bike_id":"cbac07fd-0079-4791-b8c7-e5aa5d16d99b","system_id":"levelo_inurba_marseille","lat":43.274959,"lon":5.424583,"is_reserved":false,"is_disabled":false,"rental_uris":{"android":"levelo://app?vid=cbac07fd-0079-4791-b8c7-e5aa5d16d99b","ios":"levelo://app?vid=cbac07fd-0079-4791-b8c7-e5aa5d16d99b"},"vehicle_type_id":"4","last_reported":1739776223,"current_range_meters":39200,"station_id":"ce4bhn92rcd13ifvqgrg","pricing_plan_id":"cebpf4jnsgd1na2vs0mg"},{"bike_id":"940ffad1-8d03-466c-a361-1bdb8859eb0e","system_id":"levelo_inurba_marseille","lat":43.28612,"lon":5.35099,"is_reserved":false,"is_disabled":true,"rental_uris":{"android":"levelo://app?vid=940ffad1-8d03-466c-a361-1bdb8859eb0e","ios":"levelo://app?vid=940ffad1-8d03-466c-a361-1bdb8859eb0e"},"vehicle_type_id":"4","last_reported":1739776223,"current_range_meters":0,"station_id":"ce4bhch2rcd13ifvqeug","pricing_plan_id":"cebpf4jnsgd1na2vs0mg"},{"bike_id":"d54f6a5b-fb11-4541-a0e3-f68e1c817ab7","system_id":"levelo_inurba_marseille","lat":43.2667,"lon":5.38251,"is_reserved":false,"is_disabled":true,"rental_uris":{"android":"levelo://app?vid=d54f6a5b-fb11-4541-a0e3-f68e1c817ab7","ios":"levelo://app?vid=d54f6a5b-fb11-4541-a0e3-f68e1c817ab7"},"vehicle_type_id":"4","last_reported":1739776223,"current_range_meters":800,"station_id":"ce4bhg92rcd13ifvqf90","pricing_plan_id":"cebpf4jnsgd1na2vs0mg"},{"bike_id":"91e20a00-0a61-4c4d-ac1e-de492ad0d12a","system_id":"levelo_inurba_marseille","lat":43.29528,"lon":5.37509,"is_reserved":false,"is_disabled":true,"rental_uris":{"android":"levelo://app?vid=91e20a00-0a61-4c4d-ac1e-de492ad0d12a","ios":"levelo://app?vid=91e20a00-0a61-4c4d-ac1e-de492ad0d12a"},"vehicle_type_id":"4","last_reported":1739776223,"current_range_meters":18800,"station_id":"ce4bgkp2rcd13ifvqbmg","pricing_plan_id":"cebpf4jnsgd1na2vs0mg"},{"bike_id":"86a75285-7243-40ee-925b-d20bf72a6a49","system_id":"levelo_inurba_marseille","lat":43.298215,"lon":5.36241,"is_reserved":false,"is_disabled":false,"rental_uris":{"android":"levelo://app?vid=86a75285-7243-40ee-925b-d20bf72a6a49","ios":"levelo://app?vid=86a75285-7243-40ee-925b-d20bf72a6a49"},"vehicle_type_id":"4","last_reported":1739776223,"current_range_meters":38800,"station_id":"ce4bgpp2rcd13ifvqc3g","pricing_plan_id":"cebpf4jnsgd1na2vs0mg"},{"bike_id":"1f0657bb-7196-41de-84fc-c834bbf90b28","system_id":"levelo_inurba_marseille","lat":43.28077,"lon":5.39648,"is_reserved":false,"is_disabled":true,"rental_uris":{"android":"levelo://app?vid=1f0657bb-7196-41de-84fc-c834bbf90b28","ios":"levelo://app?vid=1f0657bb-7196-41de-84fc-c834bbf90b28"},"vehicle_type_id":"4","last_reported":1739776223,"current_range_meters":38800,"station_id":"ce4bho12rcd13ifvqh2g","pricing_plan_id":"cebpf4jnsgd1na2vs0mg"},{"bike_id":"6a8a9fc1-af4d-49a9-8679-5d56a555c641","system_id":"levelo_inurba_marseille","lat":43.27923,"lon":5.39626,"is_reserved":false,"is_disabled":false,"rental_uris":{"android":"levelo://app?vid=6a8a9fc1-af4d-49a9-8679-5d56a555c641","ios":"levelo://app?vid=6a8a9fc1-af4d-49a9-8679-5d56a555c641"},"vehicle_type_id":"4","last_reported":1739776223,"current_range_meters":10000,"station_id":"ce4bhf92rcd13ifvqf40","pricing_plan_id":"cebpf4jnsgd1na2vs0mg"},{"bike_id":"529d9c7b-f8b9-4ea8-a7a1-d297b0706fbc","system_id":"levelo_inurba_marseille","lat":43.29713,"lon":5.3662,"is_reserved":false,"is_disabled":false,"rental_uris":{"android":"levelo://app?vid=529d9c7b-f8b9-4ea8-a7a1-d297b0706fbc","ios":"levelo://app?vid=529d9c7b-f8b9-4ea8-a7a1-d297b0706fbc"},"vehicle_type_id":"4","last_reported":1739776223,"current_range_meters":38800,"station_id":"ce4bgn12rcd13ifvqbt0","pricing_plan_id":"cebpf4jnsgd1na2vs0mg"},{"bike_id":"3ad53059-9aa4-49f8-9e6c-7fff04507d27","system_id":"levelo_inurba_marseille","lat":43.28609,"lon":5.35105,"is_reserved":false,"is_disabled":false,"rental_uris":{"android":"levelo://app?vid=3ad53059-9aa4-49f8-9e6c-7fff04507d27","ios":"levelo://app?vid=3ad53059-9aa4-49f8-9e6c-7fff04507d27"},"vehicle_type_id":"4","last_reported":1739776223,"current_range_meters":20000,"station_id":"ce4bhch2rcd13ifvqeug","pricing_plan_id":"cebpf4jnsgd1na2vs0mg"},{"bike_id":"edda1ad3-82ad-41f9-8e9c-88195b92dd49","system_id":"levelo_inurba_marseille","lat":43.31726,"lon":5.38809,"is_reserved":false,"is_disabled":false,"rental_uris":{"android":"levelo://app?vid=edda1ad3-82ad-41f9-8e9c-88195b92dd49","ios":"levelo://app?vid=edda1ad3-82ad-41f9-8e9c-88195b92dd49"},"vehicle_type_id":"4","last_reported":1739776223,"current_range_meters":10000,"station_id":"","pricing_plan_id":"cebpf4jnsgd1na2vs0mg"},{"bike_id":"ac1f4837-f920-4f11-a0f5-b75095ff3c61","system_id":"levelo_inurba_marseille","lat":43.286996,"lon":5.399731,"is_reserved":false,"is_disabled":false,"rental_uris":{"android":"levelo://app?vid=ac1f4837-f920-4f11-a0f5-b75095ff3c61","ios":"levelo://app?vid=ac1f4837-f920-4f11-a0f5-b75095ff3c61"},"vehicle_type_id":"4","last_reported":1739776223,"current_range_meters":26000,"station_id":"ce4bho92rcd13ifvqh3g","pricing_plan_id":"cebpf4jnsgd1na2vs0mg"},{"bike_id":"6c2c1d95-3302-4ba8-942d-64ecaa7dbe03","system_id":"levelo_inurba_marseille","lat":43.25497,"lon":5.37661,"is_reserved":false,"is_disabled":true,"rental_uris":{"android":"levelo://app?vid=6c2c1d95-3302-4ba8-942d-64ecaa7dbe03","ios":"levelo://app?vid=6c2c1d95-3302-4ba8-942d-64ecaa7dbe03"},"vehicle_type_id":"4","last_reported":1739776223,"current_range_meters":16000,"station_id":"ce4bhh12rcd13ifvqff0","pricing_plan_id":"cebpf4jnsgd1na2vs0mg"},{"bike_id":"706f4f95-a6a0-445c-84a1-28d6e95b6b9f","system_id":"levelo_inurba_marseille","lat":43.27207,"lon":5.39181,"is_reserved":false,"is_disabled":false,"rental_uris":{"android":"levelo://app?vid=706f4f95-a6a0-445c-84a1-28d6e95b6b9f","ios":"levelo://app?vid=706f4f95-a6a0-445c-84a1-28d6e95b6b9f"},"vehicle_type_id":"4","last_reported":1739776223,"current_range_meters":26800,"station_id":"ce4bhhp2rcd13ifvqfm0","pricing_plan_id":"cebpf4jnsgd1na2vs0mg"},{"bike_id":"d1406852-fd4d-4f3f-b868-95fa220b828c","system_id":"levelo_inurba_marseille","lat":43.33717,"lon":5.39194,"is_reserved":false,"is_disabled":false,"rental_uris":{"android":"levelo://app?vid=d1406852-fd4d-4f3f-b868-95fa220b828c","ios":"levelo://app?vid=d1406852-fd4d-4f3f-b868-95fa220b828c"},"vehicle_type_id":"4","last_reported":1739776223,"current_range_meters":18000,"station_id":"ce4bhr92rcd13ifvqhsg","pricing_plan_id":"cebpf4jnsgd1na2vs0mg"},{"bike_id":"9b4dac76-38fd-4906-8602-eb481d9bf993","system_id":"levelo_inurba_marseille","lat":43.30096,"lon":5.39096,"is_reserved":false,"is_disabled":false,"rental_uris":{"android":"levelo://app?vid=9b4dac76-38fd-4906-8602-eb481d9bf993","ios":"levelo://app?vid=9b4dac76-38fd-4906-8602-eb481d9bf993"},"vehicle_type_id":"4","last_reported":1739776223,"current_range_meters":27600,"station_id":"ce4bh192rcd13ifvqdb0","pricing_plan_id":"cebpf4jnsgd1na2vs0mg"},{"bike_id":"f92e748a-9f9b-4e54-8084-07e33515f3d5","system_id":"levelo_inurba_marseille","lat":43.27071,"lon":5.39347,"is_reserved":false,"is_disabled":true,"rental_uris":{"android":"levelo://app?vid=f92e748a-9f9b-4e54-8084-07e33515f3d5","ios":"levelo://app?vid=f92e748a-9f9b-4e54-8084-07e33515f3d5"},"vehicle_type_id":"4","last_reported":1739776223,"current_range_meters":0,"station_id":"","pricing_plan_id":"cebpf4jnsgd1na2vs0mg"},{"bike_id":"e2724f77-6977-420c-92f6-8c8e62268b2c","system_id":"levelo_inurba_marseille","lat":43.2835,"lon":5.38117,"is_reserved":false,"is_disabled":false,"rental_uris":{"android":"levelo://app?vid=e2724f77-6977-420c-92f6-8c8e62268b2c","ios":"levelo://app?vid=e2724f77-6977-420c-92f6-8c8e62268b2c"},"vehicle_type_id":"4","last_reported":1739776223,"current_range_meters":29600,"station_id":"ce4bh412rcd13ifvqdr0","pricing_plan_id":"cebpf4jnsgd1na2vs0mg"},{"bike_id":"bcecc5e4-cc7b-4177-9ff8-db3a19d83949","system_id":"levelo_inurba_marseille","lat":43.24822,"lon":5.37497,"is_reserved":false,"is_disabled":false,"rental_uris":{"android":"levelo://app?vid=bcecc5e4-cc7b-4177-9ff8-db3a19d83949","ios":"levelo://app?vid=bcecc5e4-cc7b-4177-9ff8-db3a19d83949"},"vehicle_type_id":"4","last_reported":1739776223,"current_range_meters":36800,"station_id":"","pricing_plan_id":"cebpf4jnsgd1na2vs0mg"},{"bike_id":"61fe6277-49a0-44f4-84d1-394f738592e1","system_id":"levelo_inurba_marseille","lat":43.28279,"lon":5.3508,"is_reserved":false,"is_disabled":false,"rental_uris":{"android":"levelo://app?vid=61fe6277-49a0-44f4-84d1-394f738592e1","ios":"levelo://app?vid=61fe6277-49a0-44f4-84d1-394f738592e1"},"vehicle_type_id":"4","last_reported":1739776223,"current_range_meters":39200,"station_id":"ce4bhbp2rcd13ifvqerg","pricing_plan_id":"cebpf4jnsgd1na2vs0mg"},{"bike_id":"cdce7712-6581-4c83-b89a-651a3a5e8611","system_id":"levelo_inurba_marseille","lat":43.27671,"lon":5.38879,"is_reserved":false,"is_disabled":false,"rental_uris":{"android":"levelo://app?vid=cdce7712-6581-4c83-b89a-651a3a5e8611","ios":"levelo://app?vid=cdce7712-6581-4c83-b89a-651a3a5e8611"},"vehicle_type_id":"4","last_reported":1739776223,"current_range_meters":38000,"station_id":"ce4bhi12rcd13ifvqfo0","pricing_plan_id":"cebpf4jnsgd1na2vs0mg"},{"bike_id":"f3b9e4b6-5b2b-4ba6-a0eb-a63da1a33c37","system_id":"levelo_inurba_marseille","lat":43.29866,"lon":5.39734,"is_reserved":false,"is_disabled":false,"rental_uris":{"android":"levelo://app?vid=f3b9e4b6-5b2b-4ba6-a0eb-a63da1a33c37","ios":"levelo://app?vid=f3b9e4b6-5b2b-4ba6-a0eb-a63da1a33c37"},"vehicle_type_id":"4","last_reported":1739776223,"current_range_meters":36400,"station_id":"ce4bh0h2rcd13ifvqd50","pricing_plan_id":"cebpf4jnsgd1na2vs0mg"},{"bike_id":"8ba3aa93-3780-4693-97c2-a2f07a8a20fd","system_id":"levelo_inurba_marseille","lat":43.23179,"lon":5.39989,"is_reserved":false,"is_disabled":false,"rental_uris":{"android":"levelo://app?vid=8ba3aa93-3780-4693-97c2-a2f07a8a20fd","ios":"levelo://app?vid=8ba3aa93-3780-4693-97c2-a2f07a8a20fd"},"vehicle_type_id":"4","last_reported":1739776223,"current_range_meters":9200,"station_id":"ce4bhn12rcd13ifvqgqg","pricing_plan_id":"cebpf4jnsgd1na2vs0mg"},{"bike_id":"58efad17-13ed-4bd4-bfa7-23dfc65448b8","system_id":"levelo_inurba_marseille","lat":43.28101,"lon":5.37831,"is_reserved":false,"is_disabled":false,"rental_uris":{"android":"levelo://app?vid=58efad17-13ed-4bd4-bfa7-23dfc65448b8","ios":"levelo://app?vid=58efad17-13ed-4bd4-bfa7-23dfc65448b8"},"vehicle_type_id":"4","last_reported":1739776223,"current_range_meters":36400,"station_id":"ce4bha12rcd13ifvqee0","pricing_plan_id":"cebpf4jnsgd1na2vs0mg"},{"bike_id":"9cf8e6d9-67b8-441b-8ab4-08ef8560d2b0","system_id":"levelo_inurba_marseille","lat":43.33514,"lon":5.35585,"is_reserved":false,"is_disabled":true,"rental_uris":{"android":"levelo://app?vid=9cf8e6d9-67b8-441b-8ab4-08ef8560d2b0","ios":"levelo://app?vid=9cf8e6d9-67b8-441b-8ab4-08ef8560d2b0"},"vehicle_type_id":"4","last_reported":1739776223,"current_range_meters":0,"station_id":"","pricing_plan_id":"cebpf4jnsgd1na2vs0mg"},{"bike_id":"fd13bb29-5ecb-4d89-856c-c2c31ebf937c","system_id":"levelo_inurba_marseille","lat":43.301473,"lon":5.380945,"is_reserved":false,"is_disabled":false,"rental_uris":{"android":"levelo://app?vid=fd13bb29-5ecb-4d89-856c-c2c31ebf937c","ios":"levelo://app?vid=fd13bb29-5ecb-4d89-856c-c2c31ebf937c"},"vehicle_type_id":"4","last_reported":1739776223,"current_range_meters":33600,"station_id":"ce4bgjp2rcd13ifvqbh0","pricing_plan_id":"cebpf4jnsgd1na2vs0mg"},{"bike_id":"320b0839-cf97-442b-a81f-f530716606b3","system_id":"levelo_inurba_marseille","lat":43.26225,"lon":5.40448,"is_reserved":false,"is_disabled":false,"rental_uris":{"android":"levelo://app?vid=320b0839-cf97-442b-a81f-f530716606b3","ios":"levelo://app?vid=320b0839-cf97-442b-a81f-f530716606b3"},"vehicle_type_id":"4","last_reported":1739776223,"current_range_meters":24800,"station_id":"ce4bhmh2rcd13ifvqgmg","pricing_plan_id":"cebpf4jnsgd1na2vs0mg"},{"bike_id":"6c78b8dd-a446-427f-ad7f-5dabcc9c995c","system_id":"levelo_inurba_marseille","lat":43.29778,"lon":5.39357,"is_reserved":false,"is_disabled":false,"rental_uris":{"android":"levelo://app?vid=6c78b8dd-a446-427f-ad7f-5dabcc9c995c","ios":"levelo://app?vid=6c78b8dd-a446-427f-ad7f-5dabcc9c995c"},"vehicle_type_id":"4","last_reported":1739776223,"current_range_meters":38800,"station_id":"chh1huq6cuj3fo74tm60","pricing_plan_id":"cebpf4jnsgd1na2vs0mg"},{"bike_id":"dbd212c7-9372-41c0-b2c1-a6104d7e3419","system_id":"levelo_inurba_marseille","lat":43.27326,"lon":5.39128,"is_reserved":false,"is_disabled":false,"rental_uris":{"android":"levelo://app?vid=dbd212c7-9372-41c0-b2c1-a6104d7e3419","ios":"levelo://app?vid=dbd212c7-9372-41c0-b2c1-a6104d7e3419"},"vehicle_type_id":"4","last_reported":1739776223,"current_range_meters":38800,"station_id":"ce4bhgp2rcd13ifvqfe0","pricing_plan_id":"cebpf4jnsgd1na2vs0mg"},{"bike_id":"fc6c250c-ce8d-4a79-9f04-86e2daa69ddd","system_id":"levelo_inurba_marseille","lat":43.28475,"lon":5.35915,"is_reserved":false,"is_disabled":false,"rental_uris":{"android":"levelo://app?vid=fc6c250c-ce8d-4a79-9f04-86e2daa69ddd","ios":"levelo://app?vid=fc6c250c-ce8d-4a79-9f04-86e2daa69ddd"},"vehicle_type_id":"4","last_reported":1739776223,"current_range_meters":22800,"station_id":"ce4bhah2rcd13ifvqei0","pricing_plan_id":"cebpf4jnsgd1na2vs0mg"},{"bike_id":"4bb8f935-f0d7-49f5-9dd4-3c3dcbae4c88","system_id":"levelo_inurba_marseille","lat":43.311722,"lon":5.38713,"is_reserved":false,"is_disabled":false,"rental_uris":{"android":"levelo://app?vid=4bb8f935-f0d7-49f5-9dd4-3c3dcbae4c88","ios":"levelo://app?vid=4bb8f935-f0d7-49f5-9dd4-3c3dcbae4c88"},"vehicle_type_id":"4","last_reported":1739776223,"current_range_meters":23200,"station_id":"ce4bgv12rcd13ifvqcp0","pricing_plan_id":"cebpf4jnsgd1na2vs0mg"},{"bike_id":"471dcda7-392d-4f73-a89e-513bc3c3dba5","system_id":"levelo_inurba_marseille","lat":43.32045,"lon":5.41542,"is_reserved":false,"is_disabled":false,"rental_uris":{"android":"levelo://app?vid=471dcda7-392d-4f73-a89e-513bc3c3dba5","ios":"levelo://app?vid=471dcda7-392d-4f73-a89e-513bc3c3dba5"},"vehicle_type_id":"4","last_reported":1739776223,"current_range_meters":38800,"station_id":"ce4bhq92rcd13ifvqhkg","pricing_plan_id":"cebpf4jnsgd1na2vs0mg"},{"bike_id":"699b4ead-7083-4b29-85c3-471cfd54f9e5","system_id":"levelo_inurba_marseille","lat":43.29808,"lon":5.404013,"is_reserved":false,"is_disabled":true,"rental_uris":{"android":"levelo://app?vid=699b4ead-7083-4b29-85c3-471cfd54f9e5","ios":"levelo://app?vid=699b4ead-7083-4b29-85c3-471cfd54f9e5"},"vehicle_type_id":"4","last_reported":1739776223,"current_range_meters":37600,"station_id":"ce4bh112rcd13ifvqd90","pricing_plan_id":"cebpf4jnsgd1na2vs0mg"},{"bike_id":"0287f0d7-f1be-4f59-9230-c953775628db","system_id":"levelo_inurba_marseille","lat":43.32339,"lon":5.40638,"is_reserved":false,"is_disabled":false,"rental_uris":{"android":"levelo://app?vid=0287f0d7-f1be-4f59-9230-c953775628db","ios":"levelo://app?vid=0287f0d7-f1be-4f59-9230-c953775628db"},"vehicle_type_id":"4","last_reported":1739776223,"current_range_meters":38800,"station_id":"ce4bhq92rcd13ifvqhjg","pricing_plan_id":"cebpf4jnsgd1na2vs0mg"},{"bike_id":"51ab7186-5043-4bed-baca-73708608a302","system_id":"levelo_inurba_marseille","lat":43.29584,"lon":5.37026,"is_reserved":false,"is_disabled":true,"rental_uris":{"android":"levelo://app?vid=51ab7186-5043-4bed-baca-73708608a302","ios":"levelo://app?vid=51ab7186-5043-4bed-baca-73708608a302"},"vehicle_type_id":"4","last_reported":1739776223,"current_range_meters":0,"station_id":"","pricing_plan_id":"cebpf4jnsgd1na2vs0mg"},{"bike_id":"9760b051-4e9e-4125-bdb3-bbff49eb6279","system_id":"levelo_inurba_marseille","lat":43.31637,"lon":5.40495,"is_reserved":false,"is_disabled":false,"rental_uris":{"android":"levelo://app?vid=9760b051-4e9e-4125-bdb3-bbff49eb6279","ios":"levelo://app?vid=9760b051-4e9e-4125-bdb3-bbff49eb6279"},"vehicle_type_id":"4","last_reported":1739776223,"current_range_meters":8400,"station_id":"","pricing_plan_id":"cebpf4jnsgd1na2vs0mg"},{"bike_id":"ef1d4c74-2713-453f-aa59-65551529c49d","system_id":"levelo_inurba_marseille","lat":43.232,"lon":5.39993,"is_reserved":false,"is_disabled":false,"rental_uris":{"android":"levelo://app?vid=ef1d4c74-2713-453f-aa59-65551529c49d","ios":"levelo://app?vid=ef1d4c74-2713-453f-aa59-65551529c49d"},"vehicle_type_id":"4","last_reported":1739776223,"current_range_meters":16400,"station_id":"ce4bhn12rcd13ifvqgqg","pricing_plan_id":"cebpf4jnsgd1na2vs0mg"},{"bike_id":"c5559994-20bc-48c5-9397-a0a5bf13f2e6","system_id":"levelo_inurba_marseille","lat":43.25856,"lon":5.3992,"is_reserved":false,"is_disabled":true,"rental_uris":{"android":"levelo://app?vid=c5559994-20bc-48c5-9397-a0a5bf13f2e6","ios":"levelo://app?vid=c5559994-20bc-48c5-9397-a0a5bf13f2e6"},"vehicle_type_id":"4","last_reported":1739776223,"current_range_meters":6800,"station_id":"ce4bhl92rcd13ifvqghg","pricing_plan_id":"cebpf4jnsgd1na2vs0mg"},{"bike_id":"20aa5b23-fbe5-4790-ad90-ddc22f8f839f","system_id":"levelo_inurba_marseille","lat":43.241584,"lon":5.363997,"is_reserved":false,"is_disabled":false,"rental_uris":{"android":"levelo://app?vid=20aa5b23-fbe5-4790-ad90-ddc22f8f839f","ios":"levelo://app?vid=20aa5b23-fbe5-4790-ad90-ddc22f8f839f"},"vehicle_type_id":"4","last_reported":1739776223,"current_range_meters":25200,"station_id":"cpo36qri1sfpv3e86is0","pricing_plan_id":"cebpf4jnsgd1na2vs0mg"},{"bike_id":"d353c95e-51cd-47bc-8fab-ad1b8a1b9157","system_id":"levelo_inurba_marseille","lat":43.34172,"lon":5.40907,"is_reserved":false,"is_disabled":false,"rental_uris":{"android":"levelo://app?vid=d353c95e-51cd-47bc-8fab-ad1b8a1b9157","ios":"levelo://app?vid=d353c95e-51cd-47bc-8fab-ad1b8a1b9157"},"vehicle_type_id":"4","last_reported":1739776223,"current_range_meters":38400,"station_id":"ce4bhqh2rcd13ifvqhlg","pricing_plan_id":"cebpf4jnsgd1na2vs0mg"},{"bike_id":"3fb25178-0097-4c0d-aa7c-df7cf9b4f5f8","system_id":"levelo_inurba_marseille","lat":43.29196,"lon":5.393305,"is_reserved":false,"is_disabled":false,"rental_uris":{"android":"levelo://app?vid=3fb25178-0097-4c0d-aa7c-df7cf9b4f5f8","ios":"levelo://app?vid=3fb25178-0097-4c0d-aa7c-df7cf9b4f5f8"},"vehicle_type_id":"4","last_reported":1739776223,"current_range_meters":26000,"station_id":"ce4bh192rcd13ifvqdd0","pricing_plan_id":"cebpf4jnsgd1na2vs0mg"},{"bike_id":"505bf071-ba9c-4a3e-9ed9-67c34ca9bd00","system_id":"levelo_inurba_marseille","lat":43.29985,"lon":5.37186,"is_reserved":false,"is_disabled":false,"rental_uris":{"android":"levelo://app?vid=505bf071-ba9c-4a3e-9ed9-67c34ca9bd00","ios":"levelo://app?vid=505bf071-ba9c-4a3e-9ed9-67c34ca9bd00"},"vehicle_type_id":"4","last_reported":1739776223,"current_range_meters":38000,"station_id":"ce4bgr92rcd13ifvqc7g","pricing_plan_id":"cebpf4jnsgd1na2vs0mg"},{"bike_id":"c40e2cb9-b89c-4dbd-956b-535ef79f1d37","system_id":"levelo_inurba_marseille","lat":43.248107,"lon":5.374574,"is_reserved":false,"is_disabled":false,"rental_uris":{"android":"levelo://app?vid=c40e2cb9-b89c-4dbd-956b-535ef79f1d37","ios":"levelo://app?vid=c40e2cb9-b89c-4dbd-956b-535ef79f1d37"},"vehicle_type_id":"4","last_reported":1739776223,"current_range_meters":15200,"station_id":"ce4bhgh2rcd13ifvqfb0","pricing_plan_id":"cebpf4jnsgd1na2vs0mg"},{"bike_id":"621aa48b-6d99-46c4-b886-2c6eb903854e","system_id":"levelo_inurba_marseille","lat":43.292696,"lon":5.368387,"is_reserved":false,"is_disabled":true,"rental_uris":{"android":"levelo://app?vid=621aa48b-6d99-46c4-b886-2c6eb903854e","ios":"levelo://app?vid=621aa48b-6d99-46c4-b886-2c6eb903854e"},"vehicle_type_id":"4","last_reported":1739776223,"current_range_meters":25600,"station_id":"ce4bhbp2rcd13ifvqesg","pricing_plan_id":"cebpf4jnsgd1na2vs0mg"},{"bike_id":"2aa8da52-5ab6-4ef9-94c7-0ae92f14be84","system_id":"levelo_inurba_marseille","lat":43.27986,"lon":5.40035,"is_reserved":false,"is_disabled":false,"rental_uris":{"android":"levelo://app?vid=2aa8da52-5ab6-4ef9-94c7-0ae92f14be84","ios":"levelo://app?vid=2aa8da52-5ab6-4ef9-94c7-0ae92f14be84"},"vehicle_type_id":"4","last_reported":1739776223,"current_range_meters":24800,"station_id":"ce4bho92rcd13ifvqh4g","pricing_plan_id":"cebpf4jnsgd1na2vs0mg"},{"bike_id":"206f1ce2-224a-4d1d-b6e4-199f90d3a887","system_id":"levelo_inurba_marseille","lat":43.32671,"lon":5.41003,"is_reserved":false,"is_disabled":false,"rental_uris":{"android":"levelo://app?vid=206f1ce2-224a-4d1d-b6e4-199f90d3a887","ios":"levelo://app?vid=206f1ce2-224a-4d1d-b6e4-199f90d3a887"},"vehicle_type_id":"4","last_reported":1739776223,"current_range_meters":38400,"station_id":"ce4bhpp2rcd13ifvqhgg","pricing_plan_id":"cebpf4jnsgd1na2vs0mg"},{"bike_id":"4dcff944-55c5-4520-aada-aef8d42b6fbc","system_id":"levelo_inurba_marseille","lat":43.24798,"lon":5.37483,"is_reserved":false,"is_disabled":false,"rental_uris":{"android":"levelo://app?vid=4dcff944-55c5-4520-aada-aef8d42b6fbc","ios":"levelo://app?vid=4dcff944-55c5-4520-aada-aef8d42b6fbc"},"vehicle_type_id":"4","last_reported":1739776223,"current_range_meters":26800,"station_id":"ce4bhgh2rcd13ifvqfb0","pricing_plan_id":"cebpf4jnsgd1na2vs0mg"},{"bike_id":"4afd05b5-41e1-4012-b907-304d88773920","system_id":"levelo_inurba_marseille","lat":43.239619,"lon":5.366408,"is_reserved":false,"is_disabled":false,"rental_uris":{"android":"levelo://app?vid=4afd05b5-41e1-4012-b907-304d88773920","ios":"levelo://app?vid=4afd05b5-41e1-4012-b907-304d88773920"},"vehicle_type_id":"4","last_reported":1739776223,"current_range_meters":33200,"station_id":"ce4bhi12rcd13ifvqfp0","pricing_plan_id":"cebpf4jnsgd1na2vs0mg"},{"bike_id":"d1f97693-e93e-48f3-9fdd-d0dbc0cc44e0","system_id":"levelo_inurba_marseille","lat":43.29962,"lon":5.38495,"is_reserved":false,"is_disabled":false,"rental_uris":{"android":"levelo://app?vid=d1f97693-e93e-48f3-9fdd-d0dbc0cc44e0","ios":"levelo://app?vid=d1f97693-e93e-48f3-9fdd-d0dbc0cc44e0"},"vehicle_type_id":"4","last_reported":1739776223,"current_range_meters":37600,"station_id":"ce4bgj92rcd13ifvqbd0","pricing_plan_id":"cebpf4jnsgd1na2vs0mg"},{"bike_id":"af02ac68-734a-4337-a76f-2d6f15936fdf","system_id":"levelo_inurba_marseille","lat":43.31752,"lon":5.38897,"is_reserved":false,"is_disabled":false,"rental_uris":{"android":"levelo://app?vid=af02ac68-734a-4337-a76f-2d6f15936fdf","ios":"levelo://app?vid=af02ac68-734a-4337-a76f-2d6f15936fdf"},"vehicle_type_id":"4","last_reported":1739776223,"current_range_meters":38000,"station_id":"","pricing_plan_id":"cebpf4jnsgd1na2vs0mg"},{"bike_id":"aa65e4ee-faaf-4eea-b682-b92b4380af90","system_id":"levelo_inurba_marseille","lat":43.278918,"lon":5.380045,"is_reserved":false,"is_disabled":false,"rental_uris":{"android":"levelo://app?vid=aa65e4ee-faaf-4eea-b682-b92b4380af90","ios":"levelo://app?vid=aa65e4ee-faaf-4eea-b682-b92b4380af90"},"vehicle_type_id":"4","last_reported":1739776223,"current_range_meters":37600,"station_id":"ce4bhf92rcd13ifvqf50","pricing_plan_id":"cebpf4jnsgd1na2vs0mg"},{"bike_id":"1f334960-2a33-46d4-8f61-cbc89b5e905b","system_id":"levelo_inurba_marseille","lat":43.30299,"lon":5.37705,"is_reserved":false,"is_disabled":false,"rental_uris":{"android":"levelo://app?vid=1f334960-2a33-46d4-8f61-cbc89b5e905b","ios":"levelo://app?vid=1f334960-2a33-46d4-8f61-cbc89b5e905b"},"vehicle_type_id":"4","last_reported":1739776223,"current_range_meters":39200,"station_id":"ce4bguh2rcd13ifvqcj0","pricing_plan_id":"cebpf4jnsgd1na2vs0mg"},{"bike_id":"5594aa58-c2b1-485c-9ad1-51f835900558","system_id":"levelo_inurba_marseille","lat":43.3117,"lon":5.38701,"is_reserved":false,"is_disabled":false,"rental_uris":{"android":"levelo://app?vid=5594aa58-c2b1-485c-9ad1-51f835900558","ios":"levelo://app?vid=5594aa58-c2b1-485c-9ad1-51f835900558"},"vehicle_type_id":"4","last_reported":1739776223,"current_range_meters":37600,"station_id":"ce4bgv12rcd13ifvqcp0","pricing_plan_id":"cebpf4jnsgd1na2vs0mg"},{"bike_id":"5eb38cc3-ff5a-43e0-b28d-455252669b85","system_id":"levelo_inurba_marseille","lat":43.31112,"lon":5.37813,"is_reserved":false,"is_disabled":false,"rental_uris":{"android":"levelo://app?vid=5eb38cc3-ff5a-43e0-b28d-455252669b85","ios":"levelo://app?vid=5eb38cc3-ff5a-43e0-b28d-455252669b85"},"vehicle_type_id":"4","last_reported":1739776223,"current_range_meters":38000,"station_id":"ce4bgt92rcd13ifvqcg0","pricing_plan_id":"cebpf4jnsgd1na2vs0mg"},{"bike_id":"3ce3dae2-ed5f-43cb-bad9-b317ce2471d9","system_id":"levelo_inurba_marseille","lat":43.24814,"lon":5.37486,"is_reserved":false,"is_disabled":false,"rental_uris":{"android":"levelo://app?vid=3ce3dae2-ed5f-43cb-bad9-b317ce2471d9","ios":"levelo://app?vid=3ce3dae2-ed5f-43cb-bad9-b317ce2471d9"},"vehicle_type_id":"4","last_reported":1739776223,"current_range_meters":34000,"station_id":"ce4bhgh2rcd13ifvqfb0","pricing_plan_id":"cebpf4jnsgd1na2vs0mg"},{"bike_id":"21c73d34-f80d-427a-ac4c-13a1d03eadcf","system_id":"levelo_inurba_marseille","lat":43.31463,"lon":5.37316,"is_reserved":false,"is_disabled":false,"rental_uris":{"android":"levelo://app?vid=21c73d34-f80d-427a-ac4c-13a1d03eadcf","ios":"levelo://app?vid=21c73d34-f80d-427a-ac4c-13a1d03eadcf"},"vehicle_type_id":"4","last_reported":1739776223,"current_range_meters":38400,"station_id":"ce4bgt12rcd13ifvqcd0","pricing_plan_id":"cebpf4jnsgd1na2vs0mg"},{"bike_id":"397f7144-3e20-4f61-9149-2720265fc375","system_id":"levelo_inurba_marseille","lat":43.24075,"lon":5.37756,"is_reserved":false,"is_disabled":false,"rental_uris":{"android":"levelo://app?vid=397f7144-3e20-4f61-9149-2720265fc375","ios":"levelo://app?vid=397f7144-3e20-4f61-9149-2720265fc375"},"vehicle_type_id":"4","last_reported":1739776223,"current_range_meters":31200,"station_id":"ce4bhnp2rcd13ifvqgvg","pricing_plan_id":"cebpf4jnsgd1na2vs0mg"},{"bike_id":"b9d8dfe8-babc-4cd7-8d6a-52c4a8753e0a","system_id":"levelo_inurba_marseille","lat":43.295698,"lon":5.39968,"is_reserved":false,"is_disabled":true,"rental_uris":{"android":"levelo://app?vid=b9d8dfe8-babc-4cd7-8d6a-52c4a8753e0a","ios":"levelo://app?vid=b9d8dfe8-babc-4cd7-8d6a-52c4a8753e0a"},"vehicle_type_id":"4","last_reported":1739776223,"current_range_meters":0,"station_id":"ce4bh312rcd13ifvqdj0","pricing_plan_id":"cebpf4jnsgd1na2vs0mg"},{"bike_id":"aa97b58d-3998-48c0-b411-eb1a93eb853d","system_id":"levelo_inurba_marseille","lat":43.317113,"lon":5.37757,"is_reserved":false,"is_disabled":false,"rental_uris":{"android":"levelo://app?vid=aa97b58d-3998-48c0-b411-eb1a93eb853d","ios":"levelo://app?vid=aa97b58d-3998-48c0-b411-eb1a93eb853d"},"vehicle_type_id":"4","last_reported":1739776223,"current_range_meters":37600,"station_id":"ce4bgth2rcd13ifvqch0","pricing_plan_id":"cebpf4jnsgd1na2vs0mg"},{"bike_id":"457a030d-6858-4f7a-8278-228571f059fd","system_id":"levelo_inurba_marseille","lat":43.23162,"lon":5.43723,"is_reserved":false,"is_disabled":true,"rental_uris":{"android":"levelo://app?vid=457a030d-6858-4f7a-8278-228571f059fd","ios":"levelo://app?vid=457a030d-6858-4f7a-8278-228571f059fd"},"vehicle_type_id":"4","last_reported":1739776223,"current_range_meters":800,"station_id":"ce4bhmp2rcd13ifvqgog","pricing_plan_id":"cebpf4jnsgd1na2vs0mg"},{"bike_id":"e4ee0db0-c0ed-47fb-b734-6207764a70c0","system_id":"levelo_inurba_marseille","lat":43.28674,"lon":5.38669,"is_reserved":false,"is_disabled":true,"rental_uris":{"android":"levelo://app?vid=e4ee0db0-c0ed-47fb-b734-6207764a70c0","ios":"levelo://app?vid=e4ee0db0-c0ed-47fb-b734-6207764a70c0"},"vehicle_type_id":"4","last_reported":1739776223,"current_range_meters":2000,"station_id":"ce4bh492rcd13ifvqdug","pricing_plan_id":"cebpf4jnsgd1na2vs0mg"},{"bike_id":"0f557ba6-1385-4f55-a922-e29804c1b1b0","system_id":"levelo_inurba_marseille","lat":43.29274,"lon":5.36844,"is_reserved":false,"is_disabled":false,"rental_uris":{"android":"levelo://app?vid=0f557ba6-1385-4f55-a922-e29804c1b1b0","ios":"levelo://app?vid=0f557ba6-1385-4f55-a922-e29804c1b1b0"},"vehicle_type_id":"4","last_reported":1739776223,"current_range_meters":32400,"station_id":"ce4bhbp2rcd13ifvqesg","pricing_plan_id":"cebpf4jnsgd1na2vs0mg"},{"bike_id":"d505ae6b-8401-49d2-a7e3-85c98bc77f1c","system_id":"levelo_inurba_marseille","lat":43.323477,"lon":5.406185,"is_reserved":false,"is_disabled":false,"rental_uris":{"android":"levelo://app?vid=d505ae6b-8401-49d2-a7e3-85c98bc77f1c","ios":"levelo://app?vid=d505ae6b-8401-49d2-a7e3-85c98bc77f1c"},"vehicle_type_id":"4","last_reported":1739776223,"current_range_meters":15200,"station_id":"ce4bhq92rcd13ifvqhjg","pricing_plan_id":"cebpf4jnsgd1na2vs0mg"},{"bike_id":"9ef51e36-6b91-4370-b608-25268899d671","system_id":"levelo_inurba_marseille","lat":43.278077,"lon":5.407084,"is_reserved":false,"is_disabled":false,"rental_uris":{"android":"levelo://app?vid=9ef51e36-6b91-4370-b608-25268899d671","ios":"levelo://app?vid=9ef51e36-6b91-4370-b608-25268899d671"},"vehicle_type_id":"4","last_reported":1739776223,"current_range_meters":18800,"station_id":"ce4bhnh2rcd13ifvqgtg","pricing_plan_id":"cebpf4jnsgd1na2vs0mg"},{"bike_id":"6408b994-ae56-4e32-95b9-cb0502299b0f","system_id":"levelo_inurba_marseille","lat":43.295511,"lon":5.422902,"is_reserved":false,"is_disabled":false,"rental_uris":{"android":"levelo://app?vid=6408b994-ae56-4e32-95b9-cb0502299b0f","ios":"levelo://app?vid=6408b994-ae56-4e32-95b9-cb0502299b0f"},"vehicle_type_id":"4","last_reported":1739776223,"current_range_meters":36000,"station_id":"ce4bhph2rcd13ifvqhdg","pricing_plan_id":"cebpf4jnsgd1na2vs0mg"},{"bike_id":"e87d3a2a-e0eb-491b-a724-860180a65cab","system_id":"levelo_inurba_marseille","lat":43.27255,"lon":5.40076,"is_reserved":false,"is_disabled":false,"rental_uris":{"android":"levelo://app?vid=e87d3a2a-e0eb-491b-a724-860180a65cab","ios":"levelo://app?vid=e87d3a2a-e0eb-491b-a724-860180a65cab"},"vehicle_type_id":"4","last_reported":1739776223,"current_range_meters":14400,"station_id":"","pricing_plan_id":"cebpf4jnsgd1na2vs0mg"},{"bike_id":"982c499f-f482-40de-b19f-0c738b7d10ae","system_id":"levelo_inurba_marseille","lat":43.24795,"lon":5.37469,"is_reserved":false,"is_disabled":false,"rental_uris":{"android":"levelo://app?vid=982c499f-f482-40de-b19f-0c738b7d10ae","ios":"levelo://app?vid=982c499f-f482-40de-b19f-0c738b7d10ae"},"vehicle_type_id":"4","last_reported":1739776223,"current_range_meters":38000,"station_id":"ce4bhgh2rcd13ifvqfb0","pricing_plan_id":"cebpf4jnsgd1na2vs0mg"},{"bike_id":"98f62326-8a26-4889-8233-3fa661e57e03","system_id":"levelo_inurba_marseille","lat":43.251049,"lon":5.403166,"is_reserved":false,"is_disabled":false,"rental_uris":{"android":"levelo://app?vid=98f62326-8a26-4889-8233-3fa661e57e03","ios":"levelo://app?vid=98f62326-8a26-4889-8233-3fa661e57e03"},"vehicle_type_id":"4","last_reported":1739776223,"current_range_meters":38400,"station_id":"ce4bhlh2rcd13ifvqgig","pricing_plan_id":"cebpf4jnsgd1na2vs0mg"},{"bike_id":"7f3d31c8-066f-4b9d-b987-28a73c221cd5","system_id":"levelo_inurba_marseille","lat":43.30643,"lon":5.40079,"is_reserved":false,"is_disabled":false,"rental_uris":{"android":"levelo://app?vid=7f3d31c8-066f-4b9d-b987-28a73c221cd5","ios":"levelo://app?vid=7f3d31c8-066f-4b9d-b987-28a73c221cd5"},"vehicle_type_id":"4","last_reported":1739776223,"current_range_meters":38800,"station_id":"ce4bh112rcd13ifvqda0","pricing_plan_id":"cebpf4jnsgd1na2vs0mg"},{"bike_id":"f364e7fd-b7af-4331-9c85-154b4666d931","system_id":"levelo_inurba_marseille","lat":43.28409,"lon":5.35001,"is_reserved":false,"is_disabled":true,"rental_uris":{"android":"levelo://app?vid=f364e7fd-b7af-4331-9c85-154b4666d931","ios":"levelo://app?vid=f364e7fd-b7af-4331-9c85-154b4666d931"},"vehicle_type_id":"4","last_reported":1739776223,"current_range_meters":0,"station_id":"ce4bhbh2rcd13ifvqepg","pricing_plan_id":"cebpf4jnsgd1na2vs0mg"},{"bike_id":"836d2467-2106-4be0-ad87-19b4129378f1","system_id":"levelo_inurba_marseille","lat":43.29634,"lon":5.40599,"is_reserved":false,"is_disabled":false,"rental_uris":{"android":"levelo://app?vid=836d2467-2106-4be0-ad87-19b4129378f1","ios":"levelo://app?vid=836d2467-2106-4be0-ad87-19b4129378f1"},"vehicle_type_id":"4","last_reported":1739776223,"current_range_meters":35200,"station_id":"ce4bh0h2rcd13ifvqd60","pricing_plan_id":"cebpf4jnsgd1na2vs0mg"},{"bike_id":"d41bd212-63b7-457d-8ea1-e3e91cc8b27a","system_id":"levelo_inurba_marseille","lat":43.28846,"lon":5.35891,"is_reserved":false,"is_disabled":false,"rental_uris":{"android":"levelo://app?vid=d41bd212-63b7-457d-8ea1-e3e91cc8b27a","ios":"levelo://app?vid=d41bd212-63b7-457d-8ea1-e3e91cc8b27a"},"vehicle_type_id":"4","last_reported":1739776223,"current_range_meters":30000,"station_id":"ce4bhb12rcd13ifvqem0","pricing_plan_id":"cebpf4jnsgd1na2vs0mg"},{"bike_id":"7df33989-9cd1-4583-a90f-25c190f648b5","system_id":"levelo_inurba_marseille","lat":43.293784,"lon":5.386149,"is_reserved":false,"is_disabled":false,"rental_uris":{"android":"levelo://app?vid=7df33989-9cd1-4583-a90f-25c190f648b5","ios":"levelo://app?vid=7df33989-9cd1-4583-a90f-25c190f648b5"},"vehicle_type_id":"4","last_reported":1739776223,"current_range_meters":28000,"station_id":"ce4bh2h2rcd13ifvqdh0","pricing_plan_id":"cebpf4jnsgd1na2vs0mg"},{"bike_id":"7e15b6ad-756b-4a1f-b46b-586396e2f46f","system_id":"levelo_inurba_marseille","lat":43.28721,"lon":5.36098,"is_reserved":false,"is_disabled":false,"rental_uris":{"android":"levelo://app?vid=7e15b6ad-756b-4a1f-b46b-586396e2f46f","ios":"levelo://app?vid=7e15b6ad-756b-4a1f-b46b-586396e2f46f"},"vehicle_type_id":"4","last_reported":1739776223,"current_range_meters":19600,"station_id":"cki0cbj6b192h4jlfktg","pricing_plan_id":"cebpf4jnsgd1na2vs0mg"},{"bike_id":"8305f6a0-7254-407d-95be-23c9d9324fe7","system_id":"levelo_inurba_marseille","lat":43.2904,"lon":5.38654,"is_reserved":false,"is_disabled":false,"rental_uris":{"android":"levelo://app?vid=8305f6a0-7254-407d-95be-23c9d9324fe7","ios":"levelo://app?vid=8305f6a0-7254-407d-95be-23c9d9324fe7"},"vehicle_type_id":"4","last_reported":1739776223,"current_range_meters":38000,"station_id":"ce4bh4p2rcd13ifvqe0g","pricing_plan_id":"cebpf4jnsgd1na2vs0mg"},{"bike_id":"05f82d89-fa80-4f7f-95e3-de8829322c89","system_id":"levelo_inurba_marseille","lat":43.25493,"lon":5.37649,"is_reserved":false,"is_disabled":true,"rental_uris":{"android":"levelo://app?vid=05f82d89-fa80-4f7f-95e3-de8829322c89","ios":"levelo://app?vid=05f82d89-fa80-4f7f-95e3-de8829322c89"},"vehicle_type_id":"4","last_reported":1739776223,"current_range_meters":28800,"station_id":"ce4bhh12rcd13ifvqff0","pricing_plan_id":"cebpf4jnsgd1na2vs0mg"},{"bike_id":"35df47ce-0b89-4e84-8074-f756c0f89f44","system_id":"levelo_inurba_marseille","lat":43.32481,"lon":5.36573,"is_reserved":false,"is_disabled":false,"rental_uris":{"android":"levelo://app?vid=35df47ce-0b89-4e84-8074-f756c0f89f44","ios":"levelo://app?vid=35df47ce-0b89-4e84-8074-f756c0f89f44"},"vehicle_type_id":"4","last_reported":1739776223,"current_range_meters":25600,"station_id":"ce4bhs12rcd13ifvqhvg","pricing_plan_id":"cebpf4jnsgd1na2vs0mg"},{"bike_id":"50104807-7bb2-4490-81db-27ac7fadea28","system_id":"levelo_inurba_marseille","lat":43.31171,"lon":5.38714,"is_reserved":false,"is_disabled":false,"rental_uris":{"android":"levelo://app?vid=50104807-7bb2-4490-81db-27ac7fadea28","ios":"levelo://app?vid=50104807-7bb2-4490-81db-27ac7fadea28"},"vehicle_type_id":"4","last_reported":1739776223,"current_range_meters":16000,"station_id":"ce4bgv12rcd13ifvqcp0","pricing_plan_id":"cebpf4jnsgd1na2vs0mg"},{"bike_id":"38d6334f-19e1-4dc9-afb2-b5c941e259f5","system_id":"levelo_inurba_marseille","lat":43.2951,"lon":5.39036,"is_reserved":false,"is_disabled":false,"rental_uris":{"android":"levelo://app?vid=38d6334f-19e1-4dc9-afb2-b5c941e259f5","ios":"levelo://app?vid=38d6334f-19e1-4dc9-afb2-b5c941e259f5"},"vehicle_type_id":"4","last_reported":1739776223,"current_range_meters":28400,"station_id":"ce4bh3p2rcd13ifvqdp0","pricing_plan_id":"cebpf4jnsgd1na2vs0mg"},{"bike_id":"281b84f3-58f9-4822-a666-06aa2e562366","system_id":"levelo_inurba_marseille","lat":43.241601,"lon":5.363978,"is_reserved":false,"is_disabled":false,"rental_uris":{"android":"levelo://app?vid=281b84f3-58f9-4822-a666-06aa2e562366","ios":"levelo://app?vid=281b84f3-58f9-4822-a666-06aa2e562366"},"vehicle_type_id":"4","last_reported":1739776223,"current_range_meters":24000,"station_id":"cpo36qri1sfpv3e86is0","pricing_plan_id":"cebpf4jnsgd1na2vs0mg"},{"bike_id":"f58c78ee-fb4b-4848-9574-1fd30425a15a","system_id":"levelo_inurba_marseille","lat":43.324761,"lon":5.365645,"is_reserved":false,"is_disabled":false,"rental_uris":{"android":"levelo://app?vid=f58c78ee-fb4b-4848-9574-1fd30425a15a","ios":"levelo://app?vid=f58c78ee-fb4b-4848-9574-1fd30425a15a"},"vehicle_type_id":"4","last_reported":1739776223,"current_range_meters":28000,"station_id":"ce4bhs12rcd13ifvqhvg","pricing_plan_id":"cebpf4jnsgd1na2vs0mg"},{"bike_id":"ad464612-ddad-49fc-a807-b87bef42b41a","system_id":"levelo_inurba_marseille","lat":43.31234,"lon":5.3686,"is_reserved":false,"is_disabled":false,"rental_uris":{"android":"levelo://app?vid=ad464612-ddad-49fc-a807-b87bef42b41a","ios":"levelo://app?vid=ad464612-ddad-49fc-a807-b87bef42b41a"},"vehicle_type_id":"4","last_reported":1739776223,"current_range_meters":30800,"station_id":"ce4bgl92rcd13ifvqbq0","pricing_plan_id":"cebpf4jnsgd1na2vs0mg"},{"bike_id":"0d60bc89-f62c-4653-a287-e71867fc3464","system_id":"levelo_inurba_marseille","lat":43.28702,"lon":5.40004,"is_reserved":false,"is_disabled":false,"rental_uris":{"android":"levelo://app?vid=0d60bc89-f62c-4653-a287-e71867fc3464","ios":"levelo://app?vid=0d60bc89-f62c-4653-a287-e71867fc3464"},"vehicle_type_id":"4","last_reported":1739776223,"current_range_meters":27200,"station_id":"ce4bho92rcd13ifvqh3g","pricing_plan_id":"cebpf4jnsgd1na2vs0mg"},{"bike_id":"4c7b6b2e-5136-4634-8137-782d17393c3b","system_id":"levelo_inurba_marseille","lat":43.299821,"lon":5.371695,"is_reserved":false,"is_disabled":false,"rental_uris":{"android":"levelo://app?vid=4c7b6b2e-5136-4634-8137-782d17393c3b","ios":"levelo://app?vid=4c7b6b2e-5136-4634-8137-782d17393c3b"},"vehicle_type_id":"4","last_reported":1739776223,"current_range_meters":27600,"station_id":"ce4bgr92rcd13ifvqc7g","pricing_plan_id":"cebpf4jnsgd1na2vs0mg"},{"bike_id":"06d8bc70-1b69-4c2c-b808-e4ae97d1cdfc","system_id":"levelo_inurba_marseille","lat":43.24074,"lon":5.37762,"is_reserved":false,"is_disabled":false,"rental_uris":{"android":"levelo://app?vid=06d8bc70-1b69-4c2c-b808-e4ae97d1cdfc","ios":"levelo://app?vid=06d8bc70-1b69-4c2c-b808-e4ae97d1cdfc"},"vehicle_type_id":"4","last_reported":1739776223,"current_range_meters":28800,"station_id":"ce4bhnp2rcd13ifvqgvg","pricing_plan_id":"cebpf4jnsgd1na2vs0mg"},{"bike_id":"d09cb115-3ac6-494c-8d8a-fb5d876de7f4","system_id":"levelo_inurba_marseille","lat":43.301421,"lon":5.380601,"is_reserved":false,"is_disabled":false,"rental_uris":{"android":"levelo://app?vid=d09cb115-3ac6-494c-8d8a-fb5d876de7f4","ios":"levelo://app?vid=d09cb115-3ac6-494c-8d8a-fb5d876de7f4"},"vehicle_type_id":"4","last_reported":1739776223,"current_range_meters":30400,"station_id":"ce4bgjp2rcd13ifvqbh0","pricing_plan_id":"cebpf4jnsgd1na2vs0mg"},{"bike_id":"917b1dc0-adb2-4903-84ef-22990e0daa55","system_id":"levelo_inurba_marseille","lat":43.30394,"lon":5.41295,"is_reserved":false,"is_disabled":false,"rental_uris":{"android":"levelo://app?vid=917b1dc0-adb2-4903-84ef-22990e0daa55","ios":"levelo://app?vid=917b1dc0-adb2-4903-84ef-22990e0daa55"},"vehicle_type_id":"4","last_reported":1739776223,"current_range_meters":30000,"station_id":"ce4bhop2rcd13ifvqh8g","pricing_plan_id":"cebpf4jnsgd1na2vs0mg"},{"bike_id":"f44027ef-774c-4ac4-8d50-81d21aa2b847","system_id":"levelo_inurba_marseille","lat":43.2861,"lon":5.35118,"is_reserved":false,"is_disabled":false,"rental_uris":{"android":"levelo://app?vid=f44027ef-774c-4ac4-8d50-81d21aa2b847","ios":"levelo://app?vid=f44027ef-774c-4ac4-8d50-81d21aa2b847"},"vehicle_type_id":"4","last_reported":1739776223,"current_range_meters":38400,"station_id":"ce4bhch2rcd13ifvqeug","pricing_plan_id":"cebpf4jnsgd1na2vs0mg"},{"bike_id":"03eba1d0-92c1-4e6e-a4d0-7c546f2439c0","system_id":"levelo_inurba_marseille","lat":43.337444,"lon":5.374475,"is_reserved":false,"is_disabled":true,"rental_uris":{"android":"levelo://app?vid=03eba1d0-92c1-4e6e-a4d0-7c546f2439c0","ios":"levelo://app?vid=03eba1d0-92c1-4e6e-a4d0-7c546f2439c0"},"vehicle_type_id":"4","last_reported":1739776223,"current_range_meters":0,"station_id":"","pricing_plan_id":"cebpf4jnsgd1na2vs0mg"},{"bike_id":"7670b8ae-6f61-4d26-b077-17100b95f8ab","system_id":"levelo_inurba_marseille","lat":43.28453,"lon":5.392,"is_reserved":false,"is_disabled":true,"rental_uris":{"android":"levelo://app?vid=7670b8ae-6f61-4d26-b077-17100b95f8ab","ios":"levelo://app?vid=7670b8ae-6f61-4d26-b077-17100b95f8ab"},"vehicle_type_id":"4","last_reported":1739776223,"current_range_meters":25200,"station_id":"ce4bhoh2rcd13ifvqh5g","pricing_plan_id":"cebpf4jnsgd1na2vs0mg"},{"bike_id":"496e0267-f4a3-4e46-98dc-aa633c403f12","system_id":"levelo_inurba_marseille","lat":43.25486,"lon":5.3764,"is_reserved":false,"is_disabled":true,"rental_uris":{"android":"levelo://app?vid=496e0267-f4a3-4e46-98dc-aa633c403f12","ios":"levelo://app?vid=496e0267-f4a3-4e46-98dc-aa633c403f12"},"vehicle_type_id":"4","last_reported":1739776223,"current_range_meters":29600,"station_id":"ce4bhh12rcd13ifvqff0","pricing_plan_id":"cebpf4jnsgd1na2vs0mg"},{"bike_id":"22d03988-cef2-4c32-901a-c2d50b43d3a9","system_id":"levelo_inurba_marseille","lat":43.29536,"lon":5.38536,"is_reserved":false,"is_disabled":true,"rental_uris":{"android":"levelo://app?vid=22d03988-cef2-4c32-901a-c2d50b43d3a9","ios":"levelo://app?vid=22d03988-cef2-4c32-901a-c2d50b43d3a9"},"vehicle_type_id":"4","last_reported":1739776223,"current_range_meters":37600,"station_id":"ce4bgih2rcd13ifvqba0","pricing_plan_id":"cebpf4jnsgd1na2vs0mg"},{"bike_id":"8c6e1647-a201-42d6-9e2c-07bf21681fa3","system_id":"levelo_inurba_marseille","lat":43.318947,"lon":5.407354,"is_reserved":false,"is_disabled":true,"rental_uris":{"android":"levelo://app?vid=8c6e1647-a201-42d6-9e2c-07bf21681fa3","ios":"levelo://app?vid=8c6e1647-a201-42d6-9e2c-07bf21681fa3"},"vehicle_type_id":"4","last_reported":1739776223,"current_range_meters":13600,"station_id":"ce4bhq12rcd13ifvqhig","pricing_plan_id":"cebpf4jnsgd1na2vs0mg"},{"bike_id":"873b26e7-d475-4a09-824a-62bb799bc16f","system_id":"levelo_inurba_marseille","lat":43.2583,"lon":5.39439,"is_reserved":false,"is_disabled":false,"rental_uris":{"android":"levelo://app?vid=873b26e7-d475-4a09-824a-62bb799bc16f","ios":"levelo://app?vid=873b26e7-d475-4a09-824a-62bb799bc16f"},"vehicle_type_id":"4","last_reported":1739776223,"current_range_meters":28000,"station_id":"ce4bhip2rcd13ifvqft0","pricing_plan_id":"cebpf4jnsgd1na2vs0mg"},{"bike_id":"d7bb91c7-1e6c-4011-85a2-08678dbfba66","system_id":"levelo_inurba_marseille","lat":43.24382,"lon":5.37071,"is_reserved":false,"is_disabled":false,"rental_uris":{"android":"levelo://app?vid=d7bb91c7-1e6c-4011-85a2-08678dbfba66","ios":"levelo://app?vid=d7bb91c7-1e6c-4011-85a2-08678dbfba66"},"vehicle_type_id":"4","last_reported":1739776223,"current_range_meters":36400,"station_id":"ce4bhhh2rcd13ifvqfk0","pricing_plan_id":"cebpf4jnsgd1na2vs0mg"},{"bike_id":"0708a0eb-1ca4-41db-8b4e-8a337bdbbfb6","system_id":"levelo_inurba_marseille","lat":43.272134,"lon":5.391894,"is_reserved":false,"is_disabled":false,"rental_uris":{"android":"levelo://app?vid=0708a0eb-1ca4-41db-8b4e-8a337bdbbfb6","ios":"levelo://app?vid=0708a0eb-1ca4-41db-8b4e-8a337bdbbfb6"},"vehicle_type_id":"4","last_reported":1739776223,"current_range_meters":30800,"station_id":"ce4bhhp2rcd13ifvqfm0","pricing_plan_id":"cebpf4jnsgd1na2vs0mg"},{"bike_id":"72020030-30b6-4ce6-a444-1f6f3a9b26ca","system_id":"levelo_inurba_marseille","lat":43.29544,"lon":5.42282,"is_reserved":false,"is_disabled":false,"rental_uris":{"android":"levelo://app?vid=72020030-30b6-4ce6-a444-1f6f3a9b26ca","ios":"levelo://app?vid=72020030-30b6-4ce6-a444-1f6f3a9b26ca"},"vehicle_type_id":"4","last_reported":1739776223,"current_range_meters":27600,"station_id":"ce4bhph2rcd13ifvqhdg","pricing_plan_id":"cebpf4jnsgd1na2vs0mg"},{"bike_id":"1f52f3b3-3e4c-4076-9fe5-f4b3bb4b252a","system_id":"levelo_inurba_marseille","lat":43.27474,"lon":5.435129,"is_reserved":false,"is_disabled":true,"rental_uris":{"android":"levelo://app?vid=1f52f3b3-3e4c-4076-9fe5-f4b3bb4b252a","ios":"levelo://app?vid=1f52f3b3-3e4c-4076-9fe5-f4b3bb4b252a"},"vehicle_type_id":"4","last_reported":1739776223,"current_range_meters":0,"station_id":"","pricing_plan_id":"cebpf4jnsgd1na2vs0mg"},{"bike_id":"2544cb1f-5d8b-418a-aaf0-7a450896b91a","system_id":"levelo_inurba_marseille","lat":43.31502,"lon":5.3735,"is_reserved":false,"is_disabled":false,"rental_uris":{"android":"levelo://app?vid=2544cb1f-5d8b-418a-aaf0-7a450896b91a","ios":"levelo://app?vid=2544cb1f-5d8b-418a-aaf0-7a450896b91a"},"vehicle_type_id":"4","last_reported":1739776223,"current_range_meters":32000,"station_id":"ce4bgt12rcd13ifvqcd0","pricing_plan_id":"cebpf4jnsgd1na2vs0mg"},{"bike_id":"eefb42e1-5d0b-4e4b-b7e3-30827f488ef0","system_id":"levelo_inurba_marseille","lat":43.31223,"lon":5.36854,"is_reserved":false,"is_disabled":false,"rental_uris":{"android":"levelo://app?vid=eefb42e1-5d0b-4e4b-b7e3-30827f488ef0","ios":"levelo://app?vid=eefb42e1-5d0b-4e4b-b7e3-30827f488ef0"},"vehicle_type_id":"4","last_reported":1739776223,"current_range_meters":26800,"station_id":"ce4bgl92rcd13ifvqbq0","pricing_plan_id":"cebpf4jnsgd1na2vs0mg"},{"bike_id":"8c2cb4e7-cc7a-458e-beca-ed80b12306ff","system_id":"levelo_inurba_marseille","lat":43.30109,"lon":5.39892,"is_reserved":false,"is_disabled":true,"rental_uris":{"android":"levelo://app?vid=8c2cb4e7-cc7a-458e-beca-ed80b12306ff","ios":"levelo://app?vid=8c2cb4e7-cc7a-458e-beca-ed80b12306ff"},"vehicle_type_id":"4","last_reported":1739776223,"current_range_meters":0,"station_id":"ce4bh0h2rcd13ifvqd40","pricing_plan_id":"cebpf4jnsgd1na2vs0mg"},{"bike_id":"bd1fbd17-5ecd-4c2a-9290-d1ffd1a70214","system_id":"levelo_inurba_marseille","lat":43.29545,"lon":5.42297,"is_reserved":false,"is_disabled":false,"rental_uris":{"android":"levelo://app?vid=bd1fbd17-5ecd-4c2a-9290-d1ffd1a70214","ios":"levelo://app?vid=bd1fbd17-5ecd-4c2a-9290-d1ffd1a70214"},"vehicle_type_id":"4","last_reported":1739776223,"current_range_meters":25600,"station_id":"ce4bhph2rcd13ifvqhdg","pricing_plan_id":"cebpf4jnsgd1na2vs0mg"},{"bike_id":"4a967575-c32f-481c-8f1b-30d107b8f3c7","system_id":"levelo_inurba_marseille","lat":43.27975,"lon":5.38734,"is_reserved":false,"is_disabled":false,"rental_uris":{"android":"levelo://app?vid=4a967575-c32f-481c-8f1b-30d107b8f3c7","ios":"levelo://app?vid=4a967575-c32f-481c-8f1b-30d107b8f3c7"},"vehicle_type_id":"4","last_reported":1739776223,"current_range_meters":28800,"station_id":"ce4bhg12rcd13ifvqf80","pricing_plan_id":"cebpf4jnsgd1na2vs0mg"},{"bike_id":"dd548764-7d84-4656-8245-ec59f80c7eb7","system_id":"levelo_inurba_marseille","lat":43.304157,"lon":5.412836,"is_reserved":false,"is_disabled":false,"rental_uris":{"android":"levelo://app?vid=dd548764-7d84-4656-8245-ec59f80c7eb7","ios":"levelo://app?vid=dd548764-7d84-4656-8245-ec59f80c7eb7"},"vehicle_type_id":"4","last_reported":1739776223,"current_range_meters":38000,"station_id":"ce4bhop2rcd13ifvqh8g","pricing_plan_id":"cebpf4jnsgd1na2vs0mg"},{"bike_id":"d2e01317-2950-420e-b1aa-8f1e4398c1e8","system_id":"levelo_inurba_marseille","lat":43.231867,"lon":5.355718,"is_reserved":false,"is_disabled":false,"rental_uris":{"android":"levelo://app?vid=d2e01317-2950-420e-b1aa-8f1e4398c1e8","ios":"levelo://app?vid=d2e01317-2950-420e-b1aa-8f1e4398c1e8"},"vehicle_type_id":"4","last_reported":1739776223,"current_range_meters":38000,"station_id":"ce4bhu92rcd13ifvqi70","pricing_plan_id":"cebpf4jnsgd1na2vs0mg"},{"bike_id":"99b60497-417a-4e6c-9e27-ce3655ce5e57","system_id":"levelo_inurba_marseille","lat":43.30649,"lon":5.40099,"is_reserved":false,"is_disabled":true,"rental_uris":{"android":"levelo://app?vid=99b60497-417a-4e6c-9e27-ce3655ce5e57","ios":"levelo://app?vid=99b60497-417a-4e6c-9e27-ce3655ce5e57"},"vehicle_type_id":"4","last_reported":1739776223,"current_range_meters":20400,"station_id":"ce4bh112rcd13ifvqda0","pricing_plan_id":"cebpf4jnsgd1na2vs0mg"},{"bike_id":"59e036e7-72f3-453a-b8d4-8e0f3750b512","system_id":"levelo_inurba_marseille","lat":43.27423,"lon":5.3942,"is_reserved":false,"is_disabled":false,"rental_uris":{"android":"levelo://app?vid=59e036e7-72f3-453a-b8d4-8e0f3750b512","ios":"levelo://app?vid=59e036e7-72f3-453a-b8d4-8e0f3750b512"},"vehicle_type_id":"4","last_reported":1739776223,"current_range_meters":8000,"station_id":"ce4bhdp2rcd13ifvqf20","pricing_plan_id":"cebpf4jnsgd1na2vs0mg"},{"bike_id":"fdbe1c87-3470-4d42-a2f8-e6c80454708a","system_id":"levelo_inurba_marseille","lat":43.23966,"lon":5.36639,"is_reserved":false,"is_disabled":false,"rental_uris":{"android":"levelo://app?vid=fdbe1c87-3470-4d42-a2f8-e6c80454708a","ios":"levelo://app?vid=fdbe1c87-3470-4d42-a2f8-e6c80454708a"},"vehicle_type_id":"4","last_reported":1739776223,"current_range_meters":6400,"station_id":"ce4bhi12rcd13ifvqfp0","pricing_plan_id":"cebpf4jnsgd1na2vs0mg"},{"bike_id":"68e091eb-0298-4cb5-b5eb-8dfc36218da6","system_id":"levelo_inurba_marseille","lat":43.23188,"lon":5.3999,"is_reserved":false,"is_disabled":false,"rental_uris":{"android":"levelo://app?vid=68e091eb-0298-4cb5-b5eb-8dfc36218da6","ios":"levelo://app?vid=68e091eb-0298-4cb5-b5eb-8dfc36218da6"},"vehicle_type_id":"4","last_reported":1739776223,"current_range_meters":39200,"station_id":"ce4bhn12rcd13ifvqgqg","pricing_plan_id":"cebpf4jnsgd1na2vs0mg"},{"bike_id":"d63b7867-53a4-4bca-be72-b856d1cbea50","system_id":"levelo_inurba_marseille","lat":43.23971,"lon":5.36625,"is_reserved":false,"is_disabled":false,"rental_uris":{"android":"levelo://app?vid=d63b7867-53a4-4bca-be72-b856d1cbea50","ios":"levelo://app?vid=d63b7867-53a4-4bca-be72-b856d1cbea50"},"vehicle_type_id":"4","last_reported":1739776223,"current_range_meters":17200,"station_id":"ce4bhi12rcd13ifvqfp0","pricing_plan_id":"cebpf4jnsgd1na2vs0mg"},{"bike_id":"8a6c5fd3-bd8f-4eaa-bf19-9b35233ab017","system_id":"levelo_inurba_marseille","lat":43.29711,"lon":5.36606,"is_reserved":false,"is_disabled":false,"rental_uris":{"android":"levelo://app?vid=8a6c5fd3-bd8f-4eaa-bf19-9b35233ab017","ios":"levelo://app?vid=8a6c5fd3-bd8f-4eaa-bf19-9b35233ab017"},"vehicle_type_id":"4","last_reported":1739776223,"current_range_meters":38800,"station_id":"ce4bgn12rcd13ifvqbt0","pricing_plan_id":"cebpf4jnsgd1na2vs0mg"},{"bike_id":"57a5c251-6123-470e-813e-a9340a0256fe","system_id":"levelo_inurba_marseille","lat":43.24157,"lon":5.3642,"is_reserved":false,"is_disabled":false,"rental_uris":{"android":"levelo://app?vid=57a5c251-6123-470e-813e-a9340a0256fe","ios":"levelo://app?vid=57a5c251-6123-470e-813e-a9340a0256fe"},"vehicle_type_id":"4","last_reported":1739776223,"current_range_meters":38000,"station_id":"cpo36qri1sfpv3e86is0","pricing_plan_id":"cebpf4jnsgd1na2vs0mg"},{"bike_id":"ef172359-3e68-4bf2-b045-8d26f74d9415","system_id":"levelo_inurba_marseille","lat":43.29516,"lon":5.39421,"is_reserved":false,"is_disabled":false,"rental_uris":{"android":"levelo://app?vid=ef172359-3e68-4bf2-b045-8d26f74d9415","ios":"levelo://app?vid=ef172359-3e68-4bf2-b045-8d26f74d9415"},"vehicle_type_id":"4","last_reported":1739776223,"current_range_meters":38400,"station_id":"ce4bh292rcd13ifvqdf0","pricing_plan_id":"cebpf4jnsgd1na2vs0mg"},{"bike_id":"77932811-e2b8-478c-8f12-865094071f88","system_id":"levelo_inurba_marseille","lat":43.25733,"lon":5.41107,"is_reserved":false,"is_disabled":false,"rental_uris":{"android":"levelo://app?vid=77932811-e2b8-478c-8f12-865094071f88","ios":"levelo://app?vid=77932811-e2b8-478c-8f12-865094071f88"},"vehicle_type_id":"4","last_reported":1739776223,"current_range_meters":37600,"station_id":"ce4bhkp2rcd13ifvqgd0","pricing_plan_id":"cebpf4jnsgd1na2vs0mg"},{"bike_id":"27823819-3a1f-42dd-8df7-b6ed3ae2b70c","system_id":"levelo_inurba_marseille","lat":43.25,"lon":5.38928,"is_reserved":false,"is_disabled":false,"rental_uris":{"android":"levelo://app?vid=27823819-3a1f-42dd-8df7-b6ed3ae2b70c","ios":"levelo://app?vid=27823819-3a1f-42dd-8df7-b6ed3ae2b70c"},"vehicle_type_id":"4","last_reported":1739776223,"current_range_meters":36400,"station_id":"ce4bhgp2rcd13ifvqfd0","pricing_plan_id":"cebpf4jnsgd1na2vs0mg"},{"bike_id":"02db7a28-fc2d-4a4a-92a0-cec040e64718","system_id":"levelo_inurba_marseille","lat":43.23957,"lon":5.36646,"is_reserved":false,"is_disabled":true,"rental_uris":{"android":"levelo://app?vid=02db7a28-fc2d-4a4a-92a0-cec040e64718","ios":"levelo://app?vid=02db7a28-fc2d-4a4a-92a0-cec040e64718"},"vehicle_type_id":"4","last_reported":1739776223,"current_range_meters":0,"station_id":"ce4bhi12rcd13ifvqfp0","pricing_plan_id":"cebpf4jnsgd1na2vs0mg"},{"bike_id":"d621b219-709a-4fa7-833d-975d445dc6ff","system_id":"levelo_inurba_marseille","lat":43.30146,"lon":5.38093,"is_reserved":false,"is_disabled":false,"rental_uris":{"android":"levelo://app?vid=d621b219-709a-4fa7-833d-975d445dc6ff","ios":"levelo://app?vid=d621b219-709a-4fa7-833d-975d445dc6ff"},"vehicle_type_id":"4","last_reported":1739776223,"current_range_meters":20800,"station_id":"ce4bgjp2rcd13ifvqbh0","pricing_plan_id":"cebpf4jnsgd1na2vs0mg"},{"bike_id":"6f820518-8b07-484a-8c43-5d5451e338e7","system_id":"levelo_inurba_marseille","lat":43.231995,"lon":5.355585,"is_reserved":false,"is_disabled":false,"rental_uris":{"android":"levelo://app?vid=6f820518-8b07-484a-8c43-5d5451e338e7","ios":"levelo://app?vid=6f820518-8b07-484a-8c43-5d5451e338e7"},"vehicle_type_id":"4","last_reported":1739776223,"current_range_meters":26800,"station_id":"ce4bhu92rcd13ifvqi70","pricing_plan_id":"cebpf4jnsgd1na2vs0mg"},{"bike_id":"e9df70a0-1b8c-4c51-a61c-68ff2e71de13","system_id":"levelo_inurba_marseille","lat":43.23067,"lon":5.35527,"is_reserved":false,"is_disabled":true,"rental_uris":{"android":"levelo://app?vid=e9df70a0-1b8c-4c51-a61c-68ff2e71de13","ios":"levelo://app?vid=e9df70a0-1b8c-4c51-a61c-68ff2e71de13"},"vehicle_type_id":"4","last_reported":1739776223,"current_range_meters":0,"station_id":"cpo3342slgdg3j2ifvpg","pricing_plan_id":"cebpf4jnsgd1na2vs0mg"},{"bike_id":"a3b76a23-e719-4cac-9132-63d31b15a8de","system_id":"levelo_inurba_marseille","lat":43.241608,"lon":5.36398,"is_reserved":false,"is_disabled":false,"rental_uris":{"android":"levelo://app?vid=a3b76a23-e719-4cac-9132-63d31b15a8de","ios":"levelo://app?vid=a3b76a23-e719-4cac-9132-63d31b15a8de"},"vehicle_type_id":"4","last_reported":1739776223,"current_range_meters":21600,"station_id":"cpo36qri1sfpv3e86is0","pricing_plan_id":"cebpf4jnsgd1na2vs0mg"},{"bike_id":"11047dbe-c3b1-4253-8f49-9d6097067e0f","system_id":"levelo_inurba_marseille","lat":43.292526,"lon":5.409163,"is_reserved":false,"is_disabled":false,"rental_uris":{"android":"levelo://app?vid=11047dbe-c3b1-4253-8f49-9d6097067e0f","ios":"levelo://app?vid=11047dbe-c3b1-4253-8f49-9d6097067e0f"},"vehicle_type_id":"4","last_reported":1739776223,"current_range_meters":18000,"station_id":"ce4bh192rcd13ifvqdc0","pricing_plan_id":"cebpf4jnsgd1na2vs0mg"},{"bike_id":"ec90772d-f71e-4fca-a945-9124afb4acb2","system_id":"levelo_inurba_marseille","lat":43.28346,"lon":5.38112,"is_reserved":false,"is_disabled":false,"rental_uris":{"android":"levelo://app?vid=ec90772d-f71e-4fca-a945-9124afb4acb2","ios":"levelo://app?vid=ec90772d-f71e-4fca-a945-9124afb4acb2"},"vehicle_type_id":"4","last_reported":1739776223,"current_range_meters":38800,"station_id":"ce4bh412rcd13ifvqdr0","pricing_plan_id":"cebpf4jnsgd1na2vs0mg"},{"bike_id":"fe0f12a8-8d62-4d79-b629-bda6901e6297","system_id":"levelo_inurba_marseille","lat":43.269462,"lon":5.402663,"is_reserved":false,"is_disabled":true,"rental_uris":{"android":"levelo://app?vid=fe0f12a8-8d62-4d79-b629-bda6901e6297","ios":"levelo://app?vid=fe0f12a8-8d62-4d79-b629-bda6901e6297"},"vehicle_type_id":"4","last_reported":1739776223,"current_range_meters":24800,"station_id":"cjm6bp8fraef2m0cb0m0","pricing_plan_id":"cebpf4jnsgd1na2vs0mg"},{"bike_id":"843b3a42-78de-480f-bf3e-15d3576a2187","system_id":"levelo_inurba_marseille","lat":43.29248,"lon":5.36066,"is_reserved":false,"is_disabled":false,"rental_uris":{"android":"levelo://app?vid=843b3a42-78de-480f-bf3e-15d3576a2187","ios":"levelo://app?vid=843b3a42-78de-480f-bf3e-15d3576a2187"},"vehicle_type_id":"4","last_reported":1739776223,"current_range_meters":33200,"station_id":"ce4bhbh2rcd13ifvqeqg","pricing_plan_id":"cebpf4jnsgd1na2vs0mg"},{"bike_id":"8e45c299-8b07-46a8-9f44-fc071ce5f65b","system_id":"levelo_inurba_marseille","lat":43.31905,"lon":5.40752,"is_reserved":false,"is_disabled":false,"rental_uris":{"android":"levelo://app?vid=8e45c299-8b07-46a8-9f44-fc071ce5f65b","ios":"levelo://app?vid=8e45c299-8b07-46a8-9f44-fc071ce5f65b"},"vehicle_type_id":"4","last_reported":1739776223,"current_range_meters":36000,"station_id":"ce4bhq12rcd13ifvqhig","pricing_plan_id":"cebpf4jnsgd1na2vs0mg"},{"bike_id":"69bce1c7-a56a-4d18-9a99-7b6ad5507c16","system_id":"levelo_inurba_marseille","lat":43.311329,"lon":5.384386,"is_reserved":false,"is_disabled":false,"rental_uris":{"android":"levelo://app?vid=69bce1c7-a56a-4d18-9a99-7b6ad5507c16","ios":"levelo://app?vid=69bce1c7-a56a-4d18-9a99-7b6ad5507c16"},"vehicle_type_id":"4","last_reported":1739776223,"current_range_meters":38000,"station_id":"","pricing_plan_id":"cebpf4jnsgd1na2vs0mg"},{"bike_id":"cfbe67cf-6420-4945-9471-2d464aa6fcd4","system_id":"levelo_inurba_marseille","lat":43.278314,"lon":5.392,"is_reserved":false,"is_disabled":true,"rental_uris":{"android":"levelo://app?vid=cfbe67cf-6420-4945-9471-2d464aa6fcd4","ios":"levelo://app?vid=cfbe67cf-6420-4945-9471-2d464aa6fcd4"},"vehicle_type_id":"4","last_reported":1739776223,"current_range_meters":0,"station_id":"ce4bhjp2rcd13ifvqga0","pricing_plan_id":"cebpf4jnsgd1na2vs0mg"},{"bike_id":"82f93201-9ddb-4e09-abcb-9f6f41679371","system_id":"levelo_inurba_marseille","lat":43.241611,"lon":5.36399,"is_reserved":false,"is_disabled":false,"rental_uris":{"android":"levelo://app?vid=82f93201-9ddb-4e09-abcb-9f6f41679371","ios":"levelo://app?vid=82f93201-9ddb-4e09-abcb-9f6f41679371"},"vehicle_type_id":"4","last_reported":1739776223,"current_range_meters":6400,"station_id":"cpo36qri1sfpv3e86is0","pricing_plan_id":"cebpf4jnsgd1na2vs0mg"},{"bike_id":"5bfe098d-e254-4497-b695-1f07a0a18a68","system_id":"levelo_inurba_marseille","lat":43.26505,"lon":5.39529,"is_reserved":false,"is_disabled":false,"rental_uris":{"android":"levelo://app?vid=5bfe098d-e254-4497-b695-1f07a0a18a68","ios":"levelo://app?vid=5bfe098d-e254-4497-b695-1f07a0a18a68"},"vehicle_type_id":"4","last_reported":1739776223,"current_range_meters":36800,"station_id":"ce4bhi12rcd13ifvqfq0","pricing_plan_id":"cebpf4jnsgd1na2vs0mg"},{"bike_id":"6d79873e-795a-4be9-bcd5-15ce848370ac","system_id":"levelo_inurba_marseille","lat":43.30477,"lon":5.37907,"is_reserved":false,"is_disabled":false,"rental_uris":{"android":"levelo://app?vid=6d79873e-795a-4be9-bcd5-15ce848370ac","ios":"levelo://app?vid=6d79873e-795a-4be9-bcd5-15ce848370ac"},"vehicle_type_id":"4","last_reported":1739776223,"current_range_meters":30000,"station_id":"ce4bgup2rcd13ifvqcn0","pricing_plan_id":"cebpf4jnsgd1na2vs0mg"},{"bike_id":"6079bd9b-12bc-4167-8cea-252673662cac","system_id":"levelo_inurba_marseille","lat":43.27181,"lon":5.39154,"is_reserved":false,"is_disabled":false,"rental_uris":{"android":"levelo://app?vid=6079bd9b-12bc-4167-8cea-252673662cac","ios":"levelo://app?vid=6079bd9b-12bc-4167-8cea-252673662cac"},"vehicle_type_id":"4","last_reported":1739776223,"current_range_meters":37600,"station_id":"ce4bhhp2rcd13ifvqfm0","pricing_plan_id":"cebpf4jnsgd1na2vs0mg"},{"bike_id":"d51dae00-1397-44a8-a24e-bbe2751eddd0","system_id":"levelo_inurba_marseille","lat":43.28705,"lon":5.39992,"is_reserved":false,"is_disabled":false,"rental_uris":{"android":"levelo://app?vid=d51dae00-1397-44a8-a24e-bbe2751eddd0","ios":"levelo://app?vid=d51dae00-1397-44a8-a24e-bbe2751eddd0"},"vehicle_type_id":"4","last_reported":1739776223,"current_range_meters":38400,"station_id":"ce4bho92rcd13ifvqh3g","pricing_plan_id":"cebpf4jnsgd1na2vs0mg"},{"bike_id":"c2b6f1c3-5b23-4561-aabf-2b14785f1dbb","system_id":"levelo_inurba_marseille","lat":43.30149,"lon":5.3809,"is_reserved":false,"is_disabled":false,"rental_uris":{"android":"levelo://app?vid=c2b6f1c3-5b23-4561-aabf-2b14785f1dbb","ios":"levelo://app?vid=c2b6f1c3-5b23-4561-aabf-2b14785f1dbb"},"vehicle_type_id":"4","last_reported":1739776223,"current_range_meters":16000,"station_id":"ce4bgjp2rcd13ifvqbh0","pricing_plan_id":"cebpf4jnsgd1na2vs0mg"},{"bike_id":"5427cb6d-8b60-4b0e-8eb3-08cab2be1723","system_id":"levelo_inurba_marseille","lat":43.30809,"lon":5.381591,"is_reserved":false,"is_disabled":false,"rental_uris":{"android":"levelo://app?vid=5427cb6d-8b60-4b0e-8eb3-08cab2be1723","ios":"levelo://app?vid=5427cb6d-8b60-4b0e-8eb3-08cab2be1723"},"vehicle_type_id":"4","last_reported":1739776223,"current_range_meters":36400,"station_id":"ce4bgt12rcd13ifvqce0","pricing_plan_id":"cebpf4jnsgd1na2vs0mg"},{"bike_id":"e48bf254-3a08-47c6-85cf-5c2067e662cb","system_id":"levelo_inurba_marseille","lat":43.30314,"lon":5.40505,"is_reserved":false,"is_disabled":false,"rental_uris":{"android":"levelo://app?vid=e48bf254-3a08-47c6-85cf-5c2067e662cb","ios":"levelo://app?vid=e48bf254-3a08-47c6-85cf-5c2067e662cb"},"vehicle_type_id":"4","last_reported":1739776223,"current_range_meters":30400,"station_id":"","pricing_plan_id":"cebpf4jnsgd1na2vs0mg"},{"bike_id":"2a6c58cb-f054-4039-81ae-947c02e356c8","system_id":"levelo_inurba_marseille","lat":43.29686,"lon":5.37288,"is_reserved":false,"is_disabled":false,"rental_uris":{"android":"levelo://app?vid=2a6c58cb-f054-4039-81ae-947c02e356c8","ios":"levelo://app?vid=2a6c58cb-f054-4039-81ae-947c02e356c8"},"vehicle_type_id":"4","last_reported":1739776223,"current_range_meters":38400,"station_id":"ce4bgk12rcd13ifvqbj0","pricing_plan_id":"cebpf4jnsgd1na2vs0mg"},{"bike_id":"7caf98b0-e00c-4906-886b-b6921de4b115","system_id":"levelo_inurba_marseille","lat":43.303169,"lon":5.368897,"is_reserved":false,"is_disabled":false,"rental_uris":{"android":"levelo://app?vid=7caf98b0-e00c-4906-886b-b6921de4b115","ios":"levelo://app?vid=7caf98b0-e00c-4906-886b-b6921de4b115"},"vehicle_type_id":"4","last_reported":1739776223,"current_range_meters":36400,"station_id":"ce4bgqh2rcd13ifvqc5g","pricing_plan_id":"cebpf4jnsgd1na2vs0mg"},{"bike_id":"da8f52c7-71b4-4511-8701-42c9a2f47ad3","system_id":"levelo_inurba_marseille","lat":43.28607,"lon":5.35115,"is_reserved":false,"is_disabled":false,"rental_uris":{"android":"levelo://app?vid=da8f52c7-71b4-4511-8701-42c9a2f47ad3","ios":"levelo://app?vid=da8f52c7-71b4-4511-8701-42c9a2f47ad3"},"vehicle_type_id":"4","last_reported":1739776223,"current_range_meters":38000,"station_id":"ce4bhch2rcd13ifvqeug","pricing_plan_id":"cebpf4jnsgd1na2vs0mg"},{"bike_id":"fdbcbbd1-9712-4f4c-bf7a-52f3765f94e5","system_id":"levelo_inurba_marseille","lat":43.25117,"lon":5.40351,"is_reserved":false,"is_disabled":false,"rental_uris":{"android":"levelo://app?vid=fdbcbbd1-9712-4f4c-bf7a-52f3765f94e5","ios":"levelo://app?vid=fdbcbbd1-9712-4f4c-bf7a-52f3765f94e5"},"vehicle_type_id":"4","last_reported":1739776223,"current_range_meters":30800,"station_id":"ce4bhlh2rcd13ifvqgig","pricing_plan_id":"cebpf4jnsgd1na2vs0mg"},{"bike_id":"66c2d9f4-633b-4a20-973c-7bd23021bb96","system_id":"levelo_inurba_marseille","lat":43.27568,"lon":5.38427,"is_reserved":false,"is_disabled":false,"rental_uris":{"android":"levelo://app?vid=66c2d9f4-633b-4a20-973c-7bd23021bb96","ios":"levelo://app?vid=66c2d9f4-633b-4a20-973c-7bd23021bb96"},"vehicle_type_id":"4","last_reported":1739776223,"current_range_meters":38800,"station_id":"ce4bhh92rcd13ifvqfi0","pricing_plan_id":"cebpf4jnsgd1na2vs0mg"},{"bike_id":"d511c3fa-d5f4-4a0f-91ee-268d02b5310f","system_id":"levelo_inurba_marseille","lat":43.28608,"lon":5.35104,"is_reserved":false,"is_disabled":true,"rental_uris":{"android":"levelo://app?vid=d511c3fa-d5f4-4a0f-91ee-268d02b5310f","ios":"levelo://app?vid=d511c3fa-d5f4-4a0f-91ee-268d02b5310f"},"vehicle_type_id":"4","last_reported":1739776223,"current_range_meters":12000,"station_id":"ce4bhch2rcd13ifvqeug","pricing_plan_id":"cebpf4jnsgd1na2vs0mg"},{"bike_id":"1688ff34-1aa5-4509-9163-944a0042ff0b","system_id":"levelo_inurba_marseille","lat":43.291876,"lon":5.393258,"is_reserved":false,"is_disabled":false,"rental_uris":{"android":"levelo://app?vid=1688ff34-1aa5-4509-9163-944a0042ff0b","ios":"levelo://app?vid=1688ff34-1aa5-4509-9163-944a0042ff0b"},"vehicle_type_id":"4","last_reported":1739776223,"current_range_meters":33200,"station_id":"ce4bh192rcd13ifvqdd0","pricing_plan_id":"cebpf4jnsgd1na2vs0mg"},{"bike_id":"6404351c-177e-4a86-9411-60d75b91ef78","system_id":"levelo_inurba_marseille","lat":43.24781,"lon":5.37441,"is_reserved":false,"is_disabled":false,"rental_uris":{"android":"levelo://app?vid=6404351c-177e-4a86-9411-60d75b91ef78","ios":"levelo://app?vid=6404351c-177e-4a86-9411-60d75b91ef78"},"vehicle_type_id":"4","last_reported":1739776223,"current_range_meters":27200,"station_id":"ce4bhgh2rcd13ifvqfb0","pricing_plan_id":"cebpf4jnsgd1na2vs0mg"},{"bike_id":"f00620ae-2110-4dbd-a2e7-cd7bf13fe429","system_id":"levelo_inurba_marseille","lat":43.2319,"lon":5.40003,"is_reserved":false,"is_disabled":true,"rental_uris":{"android":"levelo://app?vid=f00620ae-2110-4dbd-a2e7-cd7bf13fe429","ios":"levelo://app?vid=f00620ae-2110-4dbd-a2e7-cd7bf13fe429"},"vehicle_type_id":"4","last_reported":1739776223,"current_range_meters":33200,"station_id":"ce4bhn12rcd13ifvqgqg","pricing_plan_id":"cebpf4jnsgd1na2vs0mg"},{"bike_id":"05df7975-71a5-4cd7-9732-f6e0ff429d46","system_id":"levelo_inurba_marseille","lat":43.29548,"lon":5.42282,"is_reserved":false,"is_disabled":false,"rental_uris":{"android":"levelo://app?vid=05df7975-71a5-4cd7-9732-f6e0ff429d46","ios":"levelo://app?vid=05df7975-71a5-4cd7-9732-f6e0ff429d46"},"vehicle_type_id":"4","last_reported":1739776223,"current_range_meters":24400,"station_id":"ce4bhph2rcd13ifvqhdg","pricing_plan_id":"cebpf4jnsgd1na2vs0mg"},{"bike_id":"f60b4d33-99e9-409b-a615-d7d2f5b7eea4","system_id":"levelo_inurba_marseille","lat":43.2896,"lon":5.3783,"is_reserved":false,"is_disabled":false,"rental_uris":{"android":"levelo://app?vid=f60b4d33-99e9-409b-a615-d7d2f5b7eea4","ios":"levelo://app?vid=f60b4d33-99e9-409b-a615-d7d2f5b7eea4"},"vehicle_type_id":"4","last_reported":1739776223,"current_range_meters":37600,"station_id":"ce4bh9p2rcd13ifvqed0","pricing_plan_id":"cebpf4jnsgd1na2vs0mg"},{"bike_id":"150e067c-6ba5-4203-9ddd-8c9062a09bff","system_id":"levelo_inurba_marseille","lat":43.27069,"lon":5.42279,"is_reserved":false,"is_disabled":false,"rental_uris":{"android":"levelo://app?vid=150e067c-6ba5-4203-9ddd-8c9062a09bff","ios":"levelo://app?vid=150e067c-6ba5-4203-9ddd-8c9062a09bff"},"vehicle_type_id":"4","last_reported":1739776223,"current_range_meters":38400,"station_id":"ce4bhk92rcd13ifvqgb0","pricing_plan_id":"cebpf4jnsgd1na2vs0mg"},{"bike_id":"ddf1d674-41d6-443f-b0f1-1da7df267862","system_id":"levelo_inurba_marseille","lat":43.23055,"lon":5.354976,"is_reserved":false,"is_disabled":false,"rental_uris":{"android":"levelo://app?vid=ddf1d674-41d6-443f-b0f1-1da7df267862","ios":"levelo://app?vid=ddf1d674-41d6-443f-b0f1-1da7df267862"},"vehicle_type_id":"4","last_reported":1739776223,"current_range_meters":11200,"station_id":"cpo3342slgdg3j2ifvpg","pricing_plan_id":"cebpf4jnsgd1na2vs0mg"},{"bike_id":"94729826-cfa5-4ed9-8abd-5e8e49cce84e","system_id":"levelo_inurba_marseille","lat":43.290714,"lon":5.432433,"is_reserved":false,"is_disabled":true,"rental_uris":{"android":"levelo://app?vid=94729826-cfa5-4ed9-8abd-5e8e49cce84e","ios":"levelo://app?vid=94729826-cfa5-4ed9-8abd-5e8e49cce84e"},"vehicle_type_id":"4","last_reported":1739776223,"current_range_meters":0,"station_id":"","pricing_plan_id":"cebpf4jnsgd1na2vs0mg"},{"bike_id":"59897d86-c0b3-4acb-bf89-133a9364e1f4","system_id":"levelo_inurba_marseille","lat":43.230511,"lon":5.354874,"is_reserved":false,"is_disabled":true,"rental_uris":{"android":"levelo://app?vid=59897d86-c0b3-4acb-bf89-133a9364e1f4","ios":"levelo://app?vid=59897d86-c0b3-4acb-bf89-133a9364e1f4"},"vehicle_type_id":"4","last_reported":1739776223,"current_range_meters":34800,"station_id":"cpo3342slgdg3j2ifvpg","pricing_plan_id":"cebpf4jnsgd1na2vs0mg"},{"bike_id":"b72c7149-5e6d-4a10-a6f5-545bd3d67a30","system_id":"levelo_inurba_marseille","lat":43.28462,"lon":5.38423,"is_reserved":false,"is_disabled":false,"rental_uris":{"android":"levelo://app?vid=b72c7149-5e6d-4a10-a6f5-545bd3d67a30","ios":"levelo://app?vid=b72c7149-5e6d-4a10-a6f5-545bd3d67a30"},"vehicle_type_id":"4","last_reported":1739776223,"current_range_meters":39200,"station_id":"ce4bh512rcd13ifvqe3g","pricing_plan_id":"cebpf4jnsgd1na2vs0mg"},{"bike_id":"bfc916d6-860f-4844-b78c-003d88309d03","system_id":"levelo_inurba_marseille","lat":43.28464,"lon":5.3842,"is_reserved":false,"is_disabled":false,"rental_uris":{"android":"levelo://app?vid=bfc916d6-860f-4844-b78c-003d88309d03","ios":"levelo://app?vid=bfc916d6-860f-4844-b78c-003d88309d03"},"vehicle_type_id":"4","last_reported":1739776223,"current_range_meters":39200,"station_id":"ce4bh512rcd13ifvqe3g","pricing_plan_id":"cebpf4jnsgd1na2vs0mg"},{"bike_id":"e6806870-1029-41fc-b091-11e346b78753","system_id":"levelo_inurba_marseille","lat":43.30308,"lon":5.36903,"is_reserved":false,"is_disabled":false,"rental_uris":{"android":"levelo://app?vid=e6806870-1029-41fc-b091-11e346b78753","ios":"levelo://app?vid=e6806870-1029-41fc-b091-11e346b78753"},"vehicle_type_id":"4","last_reported":1739776223,"current_range_meters":36800,"station_id":"ce4bgqh2rcd13ifvqc5g","pricing_plan_id":"cebpf4jnsgd1na2vs0mg"},{"bike_id":"a5388f3c-ef58-4c28-816a-6fe358bcf931","system_id":"levelo_inurba_marseille","lat":43.30146,"lon":5.38087,"is_reserved":false,"is_disabled":false,"rental_uris":{"android":"levelo://app?vid=a5388f3c-ef58-4c28-816a-6fe358bcf931","ios":"levelo://app?vid=a5388f3c-ef58-4c28-816a-6fe358bcf931"},"vehicle_type_id":"4","last_reported":1739776223,"current_range_meters":38400,"station_id":"ce4bgjp2rcd13ifvqbh0","pricing_plan_id":"cebpf4jnsgd1na2vs0mg"},{"bike_id":"fddf9633-377f-489e-9c7d-38f1665ca695","system_id":"levelo_inurba_marseille","lat":43.295977,"lon":5.381018,"is_reserved":false,"is_disabled":true,"rental_uris":{"android":"levelo://app?vid=fddf9633-377f-489e-9c7d-38f1665ca695","ios":"levelo://app?vid=fddf9633-377f-489e-9c7d-38f1665ca695"},"vehicle_type_id":"4","last_reported":1739776223,"current_range_meters":15200,"station_id":"ce4bgl12rcd13ifvqbo0","pricing_plan_id":"cebpf4jnsgd1na2vs0mg"},{"bike_id":"40c4421e-be80-49b9-9035-ec8bd05923a2","system_id":"levelo_inurba_marseille","lat":43.28865,"lon":5.39336,"is_reserved":false,"is_disabled":true,"rental_uris":{"android":"levelo://app?vid=40c4421e-be80-49b9-9035-ec8bd05923a2","ios":"levelo://app?vid=40c4421e-be80-49b9-9035-ec8bd05923a2"},"vehicle_type_id":"4","last_reported":1739776223,"current_range_meters":15200,"station_id":"ce4bh2p2rcd13ifvqdi0","pricing_plan_id":"cebpf4jnsgd1na2vs0mg"},{"bike_id":"4bc50c17-9aeb-4487-a054-afb81c6c63dc","system_id":"levelo_inurba_marseille","lat":43.27621,"lon":5.36111,"is_reserved":false,"is_disabled":true,"rental_uris":{"android":"levelo://app?vid=4bc50c17-9aeb-4487-a054-afb81c6c63dc","ios":"levelo://app?vid=4bc50c17-9aeb-4487-a054-afb81c6c63dc"},"vehicle_type_id":"4","last_reported":1739776223,"current_range_meters":25600,"station_id":"ce4bgj92rcd13ifvqbe0","pricing_plan_id":"cebpf4jnsgd1na2vs0mg"},{"bike_id":"728fc909-8dc4-47d5-b8e4-2435fc4572a3","system_id":"levelo_inurba_marseille","lat":43.286919,"lon":5.386607,"is_reserved":false,"is_disabled":false,"rental_uris":{"android":"levelo://app?vid=728fc909-8dc4-47d5-b8e4-2435fc4572a3","ios":"levelo://app?vid=728fc909-8dc4-47d5-b8e4-2435fc4572a3"},"vehicle_type_id":"4","last_reported":1739776223,"current_range_meters":31200,"station_id":"ce4bh492rcd13ifvqdug","pricing_plan_id":"cebpf4jnsgd1na2vs0mg"},{"bike_id":"2c8b8a41-5401-4b3a-be72-574e3bbf0407","system_id":"levelo_inurba_marseille","lat":43.31159,"lon":5.36707,"is_reserved":false,"is_disabled":false,"rental_uris":{"android":"levelo://app?vid=2c8b8a41-5401-4b3a-be72-574e3bbf0407","ios":"levelo://app?vid=2c8b8a41-5401-4b3a-be72-574e3bbf0407"},"vehicle_type_id":"4","last_reported":1739776223,"current_range_meters":27600,"station_id":"","pricing_plan_id":"cebpf4jnsgd1na2vs0mg"},{"bike_id":"04571007-c5d8-4797-9a27-0ef7f8e3a3d8","system_id":"levelo_inurba_marseille","lat":43.304207,"lon":5.397589,"is_reserved":false,"is_disabled":false,"rental_uris":{"android":"levelo://app?vid=04571007-c5d8-4797-9a27-0ef7f8e3a3d8","ios":"levelo://app?vid=04571007-c5d8-4797-9a27-0ef7f8e3a3d8"},"vehicle_type_id":"4","last_reported":1739776223,"current_range_meters":36800,"station_id":"ce4bh092rcd13ifvqd20","pricing_plan_id":"cebpf4jnsgd1na2vs0mg"},{"bike_id":"20dc10c3-0d87-46d9-abf0-251ba8dc0a20","system_id":"levelo_inurba_marseille","lat":43.30278,"lon":5.377,"is_reserved":false,"is_disabled":false,"rental_uris":{"android":"levelo://app?vid=20dc10c3-0d87-46d9-abf0-251ba8dc0a20","ios":"levelo://app?vid=20dc10c3-0d87-46d9-abf0-251ba8dc0a20"},"vehicle_type_id":"4","last_reported":1739776223,"current_range_meters":38000,"station_id":"ce4bguh2rcd13ifvqcj0","pricing_plan_id":"cebpf4jnsgd1na2vs0mg"},{"bike_id":"5e1db2e9-1fb7-4bc1-82ce-b23a1711971b","system_id":"levelo_inurba_marseille","lat":43.255811,"lon":5.38248,"is_reserved":false,"is_disabled":false,"rental_uris":{"android":"levelo://app?vid=5e1db2e9-1fb7-4bc1-82ce-b23a1711971b","ios":"levelo://app?vid=5e1db2e9-1fb7-4bc1-82ce-b23a1711971b"},"vehicle_type_id":"4","last_reported":1739776223,"current_range_meters":38800,"station_id":"ce4bhih2rcd13ifvqfs0","pricing_plan_id":"cebpf4jnsgd1na2vs0mg"},{"bike_id":"3625836a-8a03-4572-80d5-fadff11603e7","system_id":"levelo_inurba_marseille","lat":43.280342,"lon":5.369416,"is_reserved":false,"is_disabled":false,"rental_uris":{"android":"levelo://app?vid=3625836a-8a03-4572-80d5-fadff11603e7","ios":"levelo://app?vid=3625836a-8a03-4572-80d5-fadff11603e7"},"vehicle_type_id":"4","last_reported":1739776223,"current_range_meters":38800,"station_id":"ce4bha12rcd13ifvqef0","pricing_plan_id":"cebpf4jnsgd1na2vs0mg"},{"bike_id":"2d98863e-f2cb-4f45-9131-5c4bf4172c40","system_id":"levelo_inurba_marseille","lat":43.29433,"lon":5.39762,"is_reserved":false,"is_disabled":true,"rental_uris":{"android":"levelo://app?vid=2d98863e-f2cb-4f45-9131-5c4bf4172c40","ios":"levelo://app?vid=2d98863e-f2cb-4f45-9131-5c4bf4172c40"},"vehicle_type_id":"4","last_reported":1739776223,"current_range_meters":34800,"station_id":"ce4bh3h2rcd13ifvqdo0","pricing_plan_id":"cebpf4jnsgd1na2vs0mg"},{"bike_id":"b7675672-ea91-4212-a3c2-1e75ea117425","system_id":"levelo_inurba_marseille","lat":43.28169,"lon":5.42646,"is_reserved":false,"is_disabled":true,"rental_uris":{"android":"levelo://app?vid=b7675672-ea91-4212-a3c2-1e75ea117425","ios":"levelo://app?vid=b7675672-ea91-4212-a3c2-1e75ea117425"},"vehicle_type_id":"4","last_reported":1739776223,"current_range_meters":0,"station_id":"ce4bhnh2rcd13ifvqgug","pricing_plan_id":"cebpf4jnsgd1na2vs0mg"},{"bike_id":"e5b1a2c4-a73a-43ab-a984-e8a17fcbc00f","system_id":"levelo_inurba_marseille","lat":43.28418,"lon":5.37531,"is_reserved":false,"is_disabled":false,"rental_uris":{"android":"levelo://app?vid=e5b1a2c4-a73a-43ab-a984-e8a17fcbc00f","ios":"levelo://app?vid=e5b1a2c4-a73a-43ab-a984-e8a17fcbc00f"},"vehicle_type_id":"4","last_reported":1739776223,"current_range_meters":37600,"station_id":"ce4bh412rcd13ifvqds0","pricing_plan_id":"cebpf4jnsgd1na2vs0mg"},{"bike_id":"91e27922-e676-45ea-94da-baf83d9c520d","system_id":"levelo_inurba_marseille","lat":43.280434,"lon":5.369373,"is_reserved":false,"is_disabled":true,"rental_uris":{"android":"levelo://app?vid=91e27922-e676-45ea-94da-baf83d9c520d","ios":"levelo://app?vid=91e27922-e676-45ea-94da-baf83d9c520d"},"vehicle_type_id":"4","last_reported":1739776223,"current_range_meters":30400,"station_id":"ce4bha12rcd13ifvqef0","pricing_plan_id":"cebpf4jnsgd1na2vs0mg"},{"bike_id":"a4d37ccb-5cc8-40c4-b672-611d4168f305","system_id":"levelo_inurba_marseille","lat":43.32481,"lon":5.36564,"is_reserved":false,"is_disabled":false,"rental_uris":{"android":"levelo://app?vid=a4d37ccb-5cc8-40c4-b672-611d4168f305","ios":"levelo://app?vid=a4d37ccb-5cc8-40c4-b672-611d4168f305"},"vehicle_type_id":"4","last_reported":1739776223,"current_range_meters":24400,"station_id":"ce4bhs12rcd13ifvqhvg","pricing_plan_id":"cebpf4jnsgd1na2vs0mg"},{"bike_id":"b8d59589-c626-4928-a7da-716f4f630662","system_id":"levelo_inurba_marseille","lat":43.29972,"lon":5.3719,"is_reserved":false,"is_disabled":false,"rental_uris":{"android":"levelo://app?vid=b8d59589-c626-4928-a7da-716f4f630662","ios":"levelo://app?vid=b8d59589-c626-4928-a7da-716f4f630662"},"vehicle_type_id":"4","last_reported":1739776223,"current_range_meters":39200,"station_id":"ce4bgr92rcd13ifvqc7g","pricing_plan_id":"cebpf4jnsgd1na2vs0mg"},{"bike_id":"e4f088f9-e3e8-4f82-824b-eaedfe8505d4","system_id":"levelo_inurba_marseille","lat":43.26888,"lon":5.40375,"is_reserved":false,"is_disabled":true,"rental_uris":{"android":"levelo://app?vid=e4f088f9-e3e8-4f82-824b-eaedfe8505d4","ios":"levelo://app?vid=e4f088f9-e3e8-4f82-824b-eaedfe8505d4"},"vehicle_type_id":"4","last_reported":1739776223,"current_range_meters":27200,"station_id":"","pricing_plan_id":"cebpf4jnsgd1na2vs0mg"},{"bike_id":"25c06d87-f05a-433f-ad42-460938cc694b","system_id":"levelo_inurba_marseille","lat":43.283366,"lon":5.381153,"is_reserved":false,"is_disabled":false,"rental_uris":{"android":"levelo://app?vid=25c06d87-f05a-433f-ad42-460938cc694b","ios":"levelo://app?vid=25c06d87-f05a-433f-ad42-460938cc694b"},"vehicle_type_id":"4","last_reported":1739776223,"current_range_meters":36400,"station_id":"ce4bh412rcd13ifvqdr0","pricing_plan_id":"cebpf4jnsgd1na2vs0mg"},{"bike_id":"9bcc3779-160f-4f11-a908-15bc41b1ac43","system_id":"levelo_inurba_marseille","lat":43.279876,"lon":5.40008,"is_reserved":false,"is_disabled":true,"rental_uris":{"android":"levelo://app?vid=9bcc3779-160f-4f11-a908-15bc41b1ac43","ios":"levelo://app?vid=9bcc3779-160f-4f11-a908-15bc41b1ac43"},"vehicle_type_id":"4","last_reported":1739776223,"current_range_meters":0,"station_id":"ce4bho92rcd13ifvqh4g","pricing_plan_id":"cebpf4jnsgd1na2vs0mg"},{"bike_id":"3c64c24f-16f7-46ec-b068-15fe4ebda356","system_id":"levelo_inurba_marseille","lat":43.29493,"lon":5.36395,"is_reserved":false,"is_disabled":true,"rental_uris":{"android":"levelo://app?vid=3c64c24f-16f7-46ec-b068-15fe4ebda356","ios":"levelo://app?vid=3c64c24f-16f7-46ec-b068-15fe4ebda356"},"vehicle_type_id":"4","last_reported":1739776223,"current_range_meters":14000,"station_id":"","pricing_plan_id":"cebpf4jnsgd1na2vs0mg"},{"bike_id":"d5fb239f-f346-4cba-936a-cdcac2986de4","system_id":"levelo_inurba_marseille","lat":43.2836,"lon":5.38659,"is_reserved":false,"is_disabled":false,"rental_uris":{"android":"levelo://app?vid=d5fb239f-f346-4cba-936a-cdcac2986de4","ios":"levelo://app?vid=d5fb239f-f346-4cba-936a-cdcac2986de4"},"vehicle_type_id":"4","last_reported":1739776223,"current_range_meters":39200,"station_id":"ce4bh492rcd13ifvqdvg","pricing_plan_id":"cebpf4jnsgd1na2vs0mg"},{"bike_id":"7fa2f52d-aa55-4da7-8f6c-d8bd07556923","system_id":"levelo_inurba_marseille","lat":43.261955,"lon":5.379276,"is_reserved":false,"is_disabled":false,"rental_uris":{"android":"levelo://app?vid=7fa2f52d-aa55-4da7-8f6c-d8bd07556923","ios":"levelo://app?vid=7fa2f52d-aa55-4da7-8f6c-d8bd07556923"},"vehicle_type_id":"4","last_reported":1739776223,"current_range_meters":36800,"station_id":"ce4bhjp2rcd13ifvqg90","pricing_plan_id":"cebpf4jnsgd1na2vs0mg"},{"bike_id":"32c16816-bf22-45bf-bae6-15a3b36aa2ac","system_id":"levelo_inurba_marseille","lat":43.25713,"lon":5.41123,"is_reserved":false,"is_disabled":false,"rental_uris":{"android":"levelo://app?vid=32c16816-bf22-45bf-bae6-15a3b36aa2ac","ios":"levelo://app?vid=32c16816-bf22-45bf-bae6-15a3b36aa2ac"},"vehicle_type_id":"4","last_reported":1739776223,"current_range_meters":38800,"station_id":"ce4bhkp2rcd13ifvqgd0","pricing_plan_id":"cebpf4jnsgd1na2vs0mg"},{"bike_id":"0a8131f0-8aa1-442f-a102-dd6461b5c6ed","system_id":"levelo_inurba_marseille","lat":43.24176,"lon":5.39723,"is_reserved":false,"is_disabled":false,"rental_uris":{"android":"levelo://app?vid=0a8131f0-8aa1-442f-a102-dd6461b5c6ed","ios":"levelo://app?vid=0a8131f0-8aa1-442f-a102-dd6461b5c6ed"},"vehicle_type_id":"4","last_reported":1739776223,"current_range_meters":37600,"station_id":"ce4bhn12rcd13ifvqgpg","pricing_plan_id":"cebpf4jnsgd1na2vs0mg"},{"bike_id":"8f11c228-24cc-4b77-985d-5d227317d19c","system_id":"levelo_inurba_marseille","lat":43.27805,"lon":5.40728,"is_reserved":false,"is_disabled":false,"rental_uris":{"android":"levelo://app?vid=8f11c228-24cc-4b77-985d-5d227317d19c","ios":"levelo://app?vid=8f11c228-24cc-4b77-985d-5d227317d19c"},"vehicle_type_id":"4","last_reported":1739776223,"current_range_meters":36800,"station_id":"ce4bhnh2rcd13ifvqgtg","pricing_plan_id":"cebpf4jnsgd1na2vs0mg"},{"bike_id":"73bce4e6-9a0e-44ff-baeb-9bf51c390137","system_id":"levelo_inurba_marseille","lat":43.273225,"lon":5.39096,"is_reserved":false,"is_disabled":true,"rental_uris":{"android":"levelo://app?vid=73bce4e6-9a0e-44ff-baeb-9bf51c390137","ios":"levelo://app?vid=73bce4e6-9a0e-44ff-baeb-9bf51c390137"},"vehicle_type_id":"4","last_reported":1739776223,"current_range_meters":6000,"station_id":"ce4bhgp2rcd13ifvqfe0","pricing_plan_id":"cebpf4jnsgd1na2vs0mg"},{"bike_id":"453b5d03-74b1-4b80-b3f1-f8af80ba4690","system_id":"levelo_inurba_marseille","lat":43.24161,"lon":5.36408,"is_reserved":false,"is_disabled":false,"rental_uris":{"android":"levelo://app?vid=453b5d03-74b1-4b80-b3f1-f8af80ba4690","ios":"levelo://app?vid=453b5d03-74b1-4b80-b3f1-f8af80ba4690"},"vehicle_type_id":"4","last_reported":1739776223,"current_range_meters":9600,"station_id":"cpo36qri1sfpv3e86is0","pricing_plan_id":"cebpf4jnsgd1na2vs0mg"},{"bike_id":"62f459ed-cc8f-4c96-9b8f-2d43c5050f1f","system_id":"levelo_inurba_marseille","lat":43.30476,"lon":5.37909,"is_reserved":false,"is_disabled":false,"rental_uris":{"android":"levelo://app?vid=62f459ed-cc8f-4c96-9b8f-2d43c5050f1f","ios":"levelo://app?vid=62f459ed-cc8f-4c96-9b8f-2d43c5050f1f"},"vehicle_type_id":"4","last_reported":1739776223,"current_range_meters":35600,"station_id":"ce4bgup2rcd13ifvqcn0","pricing_plan_id":"cebpf4jnsgd1na2vs0mg"},{"bike_id":"2dea0667-1db6-4775-857f-894e60e0a4c7","system_id":"levelo_inurba_marseille","lat":43.30409,"lon":5.39762,"is_reserved":false,"is_disabled":true,"rental_uris":{"android":"levelo://app?vid=2dea0667-1db6-4775-857f-894e60e0a4c7","ios":"levelo://app?vid=2dea0667-1db6-4775-857f-894e60e0a4c7"},"vehicle_type_id":"4","last_reported":1739776223,"current_range_meters":25200,"station_id":"ce4bh092rcd13ifvqd20","pricing_plan_id":"cebpf4jnsgd1na2vs0mg"},{"bike_id":"ff2cbd59-5738-4b72-a212-196bf1e91733","system_id":"levelo_inurba_marseille","lat":43.28023,"lon":5.44119,"is_reserved":false,"is_disabled":false,"rental_uris":{"android":"levelo://app?vid=ff2cbd59-5738-4b72-a212-196bf1e91733","ios":"levelo://app?vid=ff2cbd59-5738-4b72-a212-196bf1e91733"},"vehicle_type_id":"4","last_reported":1739776223,"current_range_meters":10800,"station_id":"","pricing_plan_id":"cebpf4jnsgd1na2vs0mg"},{"bike_id":"f0ca4bf2-562f-4cb6-94a4-de2a9ab7e128","system_id":"levelo_inurba_marseille","lat":43.28702,"lon":5.39974,"is_reserved":false,"is_disabled":false,"rental_uris":{"android":"levelo://app?vid=f0ca4bf2-562f-4cb6-94a4-de2a9ab7e128","ios":"levelo://app?vid=f0ca4bf2-562f-4cb6-94a4-de2a9ab7e128"},"vehicle_type_id":"4","last_reported":1739776223,"current_range_meters":38800,"station_id":"ce4bho92rcd13ifvqh3g","pricing_plan_id":"cebpf4jnsgd1na2vs0mg"},{"bike_id":"43aabb64-5e58-454d-ba55-67b210a581b8","system_id":"levelo_inurba_marseille","lat":43.29034,"lon":5.39968,"is_reserved":false,"is_disabled":false,"rental_uris":{"android":"levelo://app?vid=43aabb64-5e58-454d-ba55-67b210a581b8","ios":"levelo://app?vid=43aabb64-5e58-454d-ba55-67b210a581b8"},"vehicle_type_id":"4","last_reported":1739776223,"current_range_meters":37600,"station_id":"ce4bh392rcd13ifvqdm0","pricing_plan_id":"cebpf4jnsgd1na2vs0mg"},{"bike_id":"ad4af932-f51b-41b8-983b-7e431dcc24a9","system_id":"levelo_inurba_marseille","lat":43.337444,"lon":5.374475,"is_reserved":false,"is_disabled":true,"rental_uris":{"android":"levelo://app?vid=ad4af932-f51b-41b8-983b-7e431dcc24a9","ios":"levelo://app?vid=ad4af932-f51b-41b8-983b-7e431dcc24a9"},"vehicle_type_id":"4","last_reported":1739776223,"current_range_meters":0,"station_id":"","pricing_plan_id":"cebpf4jnsgd1na2vs0mg"},{"bike_id":"95d42703-1a37-4cb4-8b06-69616f6b8e6d","system_id":"levelo_inurba_marseille","lat":43.27665,"lon":5.38911,"is_reserved":false,"is_disabled":true,"rental_uris":{"android":"levelo://app?vid=95d42703-1a37-4cb4-8b06-69616f6b8e6d","ios":"levelo://app?vid=95d42703-1a37-4cb4-8b06-69616f6b8e6d"},"vehicle_type_id":"4","last_reported":1739776223,"current_range_meters":28800,"station_id":"ce4bhi12rcd13ifvqfo0","pricing_plan_id":"cebpf4jnsgd1na2vs0mg"},{"bike_id":"dfb8b4bf-66b7-4f69-91ef-2703e7099d0d","system_id":"levelo_inurba_marseille","lat":43.26786,"lon":5.39425,"is_reserved":false,"is_disabled":true,"rental_uris":{"android":"levelo://app?vid=dfb8b4bf-66b7-4f69-91ef-2703e7099d0d","ios":"levelo://app?vid=dfb8b4bf-66b7-4f69-91ef-2703e7099d0d"},"vehicle_type_id":"4","last_reported":1739776223,"current_range_meters":0,"station_id":"ce4bhh12rcd13ifvqfg0","pricing_plan_id":"cebpf4jnsgd1na2vs0mg"},{"bike_id":"5ac5a152-4424-4cd3-b06a-e6cb1228368f","system_id":"levelo_inurba_marseille","lat":43.28707,"lon":5.39993,"is_reserved":false,"is_disabled":false,"rental_uris":{"android":"levelo://app?vid=5ac5a152-4424-4cd3-b06a-e6cb1228368f","ios":"levelo://app?vid=5ac5a152-4424-4cd3-b06a-e6cb1228368f"},"vehicle_type_id":"4","last_reported":1739776223,"current_range_meters":35600,"station_id":"ce4bho92rcd13ifvqh3g","pricing_plan_id":"cebpf4jnsgd1na2vs0mg"},{"bike_id":"04ddc6ae-0cc3-4f3d-aa91-af0ef3e2ca6c","system_id":"levelo_inurba_marseille","lat":43.28683,"lon":5.38672,"is_reserved":false,"is_disabled":false,"rental_uris":{"android":"levelo://app?vid=04ddc6ae-0cc3-4f3d-aa91-af0ef3e2ca6c","ios":"levelo://app?vid=04ddc6ae-0cc3-4f3d-aa91-af0ef3e2ca6c"},"vehicle_type_id":"4","last_reported":1739776223,"current_range_meters":9200,"station_id":"ce4bh492rcd13ifvqdug","pricing_plan_id":"cebpf4jnsgd1na2vs0mg"},{"bike_id":"81ec488e-3038-4bdb-9b14-0cc70825f743","system_id":"levelo_inurba_marseille","lat":43.23393,"lon":5.40466,"is_reserved":false,"is_disabled":false,"rental_uris":{"android":"levelo://app?vid=81ec488e-3038-4bdb-9b14-0cc70825f743","ios":"levelo://app?vid=81ec488e-3038-4bdb-9b14-0cc70825f743"},