{"last_updated":1746997720,"ttl":60,"version":"2.2","data":{"bikes":[{"bike_id":"c0b9fd4f-e181-46ce-b0bf-f5119973334f","system_id":"levelo_inurba_marseille","lat":43.33771,"lon":5.37424,"is_reserved":false,"is_disabled":false,"rental_uris":{"android":"levelo://app?vid=c0b9fd4f-e181-46ce-b0bf-f5119973334f","ios":"levelo://app?vid=c0b9fd4f-e181-46ce-b0bf-f5119973334f"},"vehicle_type_id":"4","last_reported":1746997720,"current_range_meters":30800,"station_id":"","pricing_plan_id":"cebpf4jnsgd1na2vs0mg"},{"bike_id":"229001d2-7627-43e0-aeea-2d75580fd339","system_id":"levelo_inurba_marseille","lat":43.28265,"lon":5.43205,"is_reserved":false,"is_disabled":true,"rental_uris":{"android":"levelo://app?vid=229001d2-7627-43e0-aeea-2d75580fd339","ios":"levelo://app?vid=229001d2-7627-43e0-aeea-2d75580fd339"},"vehicle_type_id":"4","last_reported":1746997720,"current_range_meters":0,"station_id":"","pricing_plan_id":"cebpf4jnsgd1na2vs0mg"},{"bike_id":"ad17c5b4-973a-4cb5-ad8c-32068ccae9d2","system_id":"levelo_inurba_marseille","lat":43.28986,"lon":5.43218,"is_reserved":false,"is_disabled":true,"rental_uris":{"android":"levelo://app?vid=ad17c5b4-973a-4cb5-ad8c-32068ccae9d2","ios":"levelo://app?vid=ad17c5b4-973a-4cb5-ad8c-32068ccae9d2"},"vehicle_type_id":"4","last_reported":1746997720,"current_range_meters":0,"station_id":"","pricing_plan_id":"cebpf4jnsgd1na2vs0mg"},{"bike_id":"a72028ca-425b-4f2c-9e2d-16be28a01f65","system_id":"levelo_inurba_marseille","lat":43.26018,"lon":5.41745,"is_reserved":false,"is_disabled":true,"rental_uris":{"android":"levelo://app?vid=a72028ca-425b-4f2c-9e2d-16be28a01f65","ios":"levelo://app?vid=a72028ca-425b-4f2c-9e2d-16be28a01f65"},"vehicle_type_id":"4","last_reported":1746997720,"current_range_meters":0,"station_id":"","pricing_plan_id":"cebpf4jnsgd1na2vs0mg"},{"bike_id":"e43d995b-a136-4201-b650-ca62eacfe18a","system_id":"levelo_inurba_marseille","lat":43.27135,"lon":5.36371,"is_reserved":false,"is_disabled":true,"rental_uris":{"android":"levelo://app?vid=e43d995b-a136-4201-b650-ca62eacfe18a","ios":"levelo://app?vid=e43d995b-a136-4201-b650-ca62eacfe18a"},"vehicle_type_id":"4","last_reported":1746997720,"current_range_meters":0,"station_id":"","pricing_plan_id":"cebpf4jnsgd1na2vs0mg"},{"bike_id":"b600f07f-8165-4689-9fa7-b98a30ef3866","system_id":"levelo_inurba_marseille","lat":43.29037,"lon":5.39984,"is_reserved":false,"is_disabled":true,"rental_uris":{"android":"levelo://app?vid=b600f07f-8165-4689-9fa7-b98a30ef3866","ios":"levelo://app?vid=b600f07f-8165-4689-9fa7-b98a30ef3866"},"vehicle_type_id":"4","last_reported":1746997720,"current_range_meters":1200,"station_id":"ce4bh392rcd13ifvqdm0","pricing_plan_id":"cebpf4jnsgd1na2vs0mg"},{"bike_id":"a2c63fe2-1a4c-4119-974b-15d485603b06","system_id":"levelo_inurba_marseille","lat":43.281177,"lon":5.368403,"is_reserved":false,"is_disabled":true,"rental_uris":{"android":"levelo://app?vid=a2c63fe2-1a4c-4119-974b-15d485603b06","ios":"levelo://app?vid=a2c63fe2-1a4c-4119-974b-15d485603b06"},"vehicle_type_id":"4","last_reported":1746997720,"current_range_meters":1600,"station_id":"","pricing_plan_id":"cebpf4jnsgd1na2vs0mg"},{"bike_id":"2f0b858a-68fa-40ef-a490-3c0c47308575","system_id":"levelo_inurba_marseille","lat":43.27941,"lon":5.41042,"is_reserved":false,"is_disabled":false,"rental_uris":{"android":"levelo://app?vid=2f0b858a-68fa-40ef-a490-3c0c47308575","ios":"levelo://app?vid=2f0b858a-68fa-40ef-a490-3c0c47308575"},"vehicle_type_id":"4","last_reported":1746997720,"current_range_meters":3600,"station_id":"ce4bhnp2rcd13ifvqh0g","pricing_plan_id":"cebpf4jnsgd1na2vs0mg"},{"bike_id":"8f3dc120-9652-4ea3-aa9a-75d4f018e4d9","system_id":"levelo_inurba_marseille","lat":43.26923,"lon":5.38918,"is_reserved":false,"is_disabled":false,"rental_uris":{"android":"levelo://app?vid=8f3dc120-9652-4ea3-aa9a-75d4f018e4d9","ios":"levelo://app?vid=8f3dc120-9652-4ea3-aa9a-75d4f018e4d9"},"vehicle_type_id":"4","last_reported":1746997720,"current_range_meters":4000,"station_id":"ce4bhhh2rcd13ifvqfl0","pricing_plan_id":"cebpf4jnsgd1na2vs0mg"},{"bike_id":"6b63f256-e4c9-423c-9099-134b1b80e406","system_id":"levelo_inurba_marseille","lat":43.26494,"lon":5.395416,"is_reserved":false,"is_disabled":false,"rental_uris":{"android":"levelo://app?vid=6b63f256-e4c9-423c-9099-134b1b80e406","ios":"levelo://app?vid=6b63f256-e4c9-423c-9099-134b1b80e406"},"vehicle_type_id":"4","last_reported":1746997720,"current_range_meters":4000,"station_id":"ce4bhi12rcd13ifvqfq0","pricing_plan_id":"cebpf4jnsgd1na2vs0mg"},{"bike_id":"23a79623-bd28-4e4e-846d-c54e6a6324a1","system_id":"levelo_inurba_marseille","lat":43.3214,"lon":5.40741,"is_reserved":false,"is_disabled":false,"rental_uris":{"android":"levelo://app?vid=23a79623-bd28-4e4e-846d-c54e6a6324a1","ios":"levelo://app?vid=23a79623-bd28-4e4e-846d-c54e6a6324a1"},"vehicle_type_id":"4","last_reported":1746997720,"current_range_meters":4400,"station_id":"","pricing_plan_id":"cebpf4jnsgd1na2vs0mg"},{"bike_id":"b639e3ef-1110-4c97-a908-ecdeaf1f634f","system_id":"levelo_inurba_marseille","lat":43.29422,"lon":5.38626,"is_reserved":false,"is_disabled":false,"rental_uris":{"android":"levelo://app?vid=b639e3ef-1110-4c97-a908-ecdeaf1f634f","ios":"levelo://app?vid=b639e3ef-1110-4c97-a908-ecdeaf1f634f"},"vehicle_type_id":"4","last_reported":1746997720,"current_range_meters":4400,"station_id":"ce4bh2h2rcd13ifvqdh0","pricing_plan_id":"cebpf4jnsgd1na2vs0mg"},{"bike_id":"49eff1fc-8639-406d-8a58-78a119a349b8","system_id":"levelo_inurba_marseille","lat":43.28638,"lon":5.363777,"is_reserved":false,"is_disabled":false,"rental_uris":{"android":"levelo://app?vid=49eff1fc-8639-406d-8a58-78a119a349b8","ios":"levelo://app?vid=49eff1fc-8639-406d-8a58-78a119a349b8"},"vehicle_type_id":"4","last_reported":1746997720,"current_range_meters":4400,"station_id":"ce4bhah2rcd13ifvqej0","pricing_plan_id":"cebpf4jnsgd1na2vs0mg"},{"bike_id":"2d5b4db7-7c14-4903-9008-aaf07b7322a7","system_id":"levelo_inurba_marseille","lat":43.341406,"lon":5.409099,"is_reserved":false,"is_disabled":false,"rental_uris":{"android":"levelo://app?vid=2d5b4db7-7c14-4903-9008-aaf07b7322a7","ios":"levelo://app?vid=2d5b4db7-7c14-4903-9008-aaf07b7322a7"},"vehicle_type_id":"4","last_reported":1746997720,"current_range_meters":4400,"station_id":"ce4bhqh2rcd13ifvqhlg","pricing_plan_id":"cebpf4jnsgd1na2vs0mg"},{"bike_id":"c7b2effd-ed37-4223-a0c6-29d0e842dbd5","system_id":"levelo_inurba_marseille","lat":43.300557,"lon":5.378177,"is_reserved":false,"is_disabled":false,"rental_uris":{"android":"levelo://app?vid=c7b2effd-ed37-4223-a0c6-29d0e842dbd5","ios":"levelo://app?vid=c7b2effd-ed37-4223-a0c6-29d0e842dbd5"},"vehicle_type_id":"4","last_reported":1746997720,"current_range_meters":4800,"station_id":"","pricing_plan_id":"cebpf4jnsgd1na2vs0mg"},{"bike_id":"a56fb59c-734b-47d4-95f8-eb040692ba64","system_id":"levelo_inurba_marseille","lat":43.283478,"lon":5.38114,"is_reserved":false,"is_disabled":false,"rental_uris":{"android":"levelo://app?vid=a56fb59c-734b-47d4-95f8-eb040692ba64","ios":"levelo://app?vid=a56fb59c-734b-47d4-95f8-eb040692ba64"},"vehicle_type_id":"4","last_reported":1746997720,"current_range_meters":4800,"station_id":"ce4bh412rcd13ifvqdr0","pricing_plan_id":"cebpf4jnsgd1na2vs0mg"},{"bike_id":"712c3a92-936e-42bc-8c2c-8b4dac8faebc","system_id":"levelo_inurba_marseille","lat":43.25857,"lon":5.39911,"is_reserved":false,"is_disabled":false,"rental_uris":{"android":"levelo://app?vid=712c3a92-936e-42bc-8c2c-8b4dac8faebc","ios":"levelo://app?vid=712c3a92-936e-42bc-8c2c-8b4dac8faebc"},"vehicle_type_id":"4","last_reported":1746997720,"current_range_meters":4800,"station_id":"ce4bhl92rcd13ifvqghg","pricing_plan_id":"cebpf4jnsgd1na2vs0mg"},{"bike_id":"cd3b5a09-8915-49a6-8c6e-94bf0b92f5a7","system_id":"levelo_inurba_marseille","lat":43.25582,"lon":5.38236,"is_reserved":false,"is_disabled":false,"rental_uris":{"android":"levelo://app?vid=cd3b5a09-8915-49a6-8c6e-94bf0b92f5a7","ios":"levelo://app?vid=cd3b5a09-8915-49a6-8c6e-94bf0b92f5a7"},"vehicle_type_id":"4","last_reported":1746997720,"current_range_meters":5600,"station_id":"ce4bhih2rcd13ifvqfs0","pricing_plan_id":"cebpf4jnsgd1na2vs0mg"},{"bike_id":"22932bc6-1947-449b-a3ce-701d2ddc38d2","system_id":"levelo_inurba_marseille","lat":43.24078,"lon":5.37754,"is_reserved":false,"is_disabled":false,"rental_uris":{"android":"levelo://app?vid=22932bc6-1947-449b-a3ce-701d2ddc38d2","ios":"levelo://app?vid=22932bc6-1947-449b-a3ce-701d2ddc38d2"},"vehicle_type_id":"4","last_reported":1746997720,"current_range_meters":7200,"station_id":"ce4bhnp2rcd13ifvqgvg","pricing_plan_id":"cebpf4jnsgd1na2vs0mg"},{"bike_id":"63bdd50a-b728-4d10-9320-dbc9bfa5973f","system_id":"levelo_inurba_marseille","lat":43.27067,"lon":5.42269,"is_reserved":false,"is_disabled":false,"rental_uris":{"android":"levelo://app?vid=63bdd50a-b728-4d10-9320-dbc9bfa5973f","ios":"levelo://app?vid=63bdd50a-b728-4d10-9320-dbc9bfa5973f"},"vehicle_type_id":"4","last_reported":1746997720,"current_range_meters":8400,"station_id":"ce4bhk92rcd13ifvqgb0","pricing_plan_id":"cebpf4jnsgd1na2vs0mg"},{"bike_id":"4be526c1-c099-4e56-8476-6a072fafda70","system_id":"levelo_inurba_marseille","lat":43.25124,"lon":5.40319,"is_reserved":false,"is_disabled":false,"rental_uris":{"android":"levelo://app?vid=4be526c1-c099-4e56-8476-6a072fafda70","ios":"levelo://app?vid=4be526c1-c099-4e56-8476-6a072fafda70"},"vehicle_type_id":"4","last_reported":1746997720,"current_range_meters":8400,"station_id":"ce4bhlh2rcd13ifvqgig","pricing_plan_id":"cebpf4jnsgd1na2vs0mg"},{"bike_id":"a2caaaf9-7893-49ed-8650-aedce0e60aba","system_id":"levelo_inurba_marseille","lat":43.25088,"lon":5.39513,"is_reserved":false,"is_disabled":false,"rental_uris":{"android":"levelo://app?vid=a2caaaf9-7893-49ed-8650-aedce0e60aba","ios":"levelo://app?vid=a2caaaf9-7893-49ed-8650-aedce0e60aba"},"vehicle_type_id":"4","last_reported":1746997720,"current_range_meters":8400,"station_id":"ce4bhm12rcd13ifvqgkg","pricing_plan_id":"cebpf4jnsgd1na2vs0mg"},{"bike_id":"bfd5e787-a75e-4dab-9738-e35cbb0c870a","system_id":"levelo_inurba_marseille","lat":43.32485,"lon":5.36569,"is_reserved":false,"is_disabled":false,"rental_uris":{"android":"levelo://app?vid=bfd5e787-a75e-4dab-9738-e35cbb0c870a","ios":"levelo://app?vid=bfd5e787-a75e-4dab-9738-e35cbb0c870a"},"vehicle_type_id":"4","last_reported":1746997720,"current_range_meters":8400,"station_id":"ce4bhs12rcd13ifvqhvg","pricing_plan_id":"cebpf4jnsgd1na2vs0mg"},{"bike_id":"fc2577e7-1497-425b-9d4f-ab8d7dc843c6","system_id":"levelo_inurba_marseille","lat":43.33771,"lon":5.37485,"is_reserved":false,"is_disabled":false,"rental_uris":{"android":"levelo://app?vid=fc2577e7-1497-425b-9d4f-ab8d7dc843c6","ios":"levelo://app?vid=fc2577e7-1497-425b-9d4f-ab8d7dc843c6"},"vehicle_type_id":"4","last_reported":1746997720,"current_range_meters":8800,"station_id":"","pricing_plan_id":"cebpf4jnsgd1na2vs0mg"},{"bike_id":"06f516e2-a624-409e-9fe6-be2ca00c1950","system_id":"levelo_inurba_marseille","lat":43.24666,"lon":5.38157,"is_reserved":false,"is_disabled":false,"rental_uris":{"android":"levelo://app?vid=06f516e2-a624-409e-9fe6-be2ca00c1950","ios":"levelo://app?vid=06f516e2-a624-409e-9fe6-be2ca00c1950"},"vehicle_type_id":"4","last_reported":1746997720,"current_range_meters":8800,"station_id":"ce4bhih2rcd13ifvqfr0","pricing_plan_id":"cebpf4jnsgd1na2vs0mg"},{"bike_id":"b1b013fd-f0df-4fdf-b291-26a881a8b080","system_id":"levelo_inurba_marseille","lat":43.23199,"lon":5.3998,"is_reserved":false,"is_disabled":false,"rental_uris":{"android":"levelo://app?vid=b1b013fd-f0df-4fdf-b291-26a881a8b080","ios":"levelo://app?vid=b1b013fd-f0df-4fdf-b291-26a881a8b080"},"vehicle_type_id":"4","last_reported":1746997720,"current_range_meters":8800,"station_id":"ce4bhn12rcd13ifvqgqg","pricing_plan_id":"cebpf4jnsgd1na2vs0mg"},{"bike_id":"3aa75863-fce6-4b94-9f5b-9c0ad58d1acf","system_id":"levelo_inurba_marseille","lat":43.24168,"lon":5.36403,"is_reserved":false,"is_disabled":false,"rental_uris":{"android":"levelo://app?vid=3aa75863-fce6-4b94-9f5b-9c0ad58d1acf","ios":"levelo://app?vid=3aa75863-fce6-4b94-9f5b-9c0ad58d1acf"},"vehicle_type_id":"4","last_reported":1746997720,"current_range_meters":8800,"station_id":"cpo36qri1sfpv3e86is0","pricing_plan_id":"cebpf4jnsgd1na2vs0mg"},{"bike_id":"79ae0aca-448b-4e6b-b2a5-1eca06e4ee41","system_id":"levelo_inurba_marseille","lat":43.27375,"lon":5.36254,"is_reserved":false,"is_disabled":false,"rental_uris":{"android":"levelo://app?vid=79ae0aca-448b-4e6b-b2a5-1eca06e4ee41","ios":"levelo://app?vid=79ae0aca-448b-4e6b-b2a5-1eca06e4ee41"},"vehicle_type_id":"4","last_reported":1746997720,"current_range_meters":9200,"station_id":"ce4bhbh2rcd13ifvqeo0","pricing_plan_id":"cebpf4jnsgd1na2vs0mg"},{"bike_id":"f9d16859-c623-411e-bbcb-c426981ab6d7","system_id":"levelo_inurba_marseille","lat":43.26569,"lon":5.39032,"is_reserved":false,"is_disabled":false,"rental_uris":{"android":"levelo://app?vid=f9d16859-c623-411e-bbcb-c426981ab6d7","ios":"levelo://app?vid=f9d16859-c623-411e-bbcb-c426981ab6d7"},"vehicle_type_id":"4","last_reported":1746997720,"current_range_meters":9200,"station_id":"ce4bhe12rcd13ifvqf30","pricing_plan_id":"cebpf4jnsgd1na2vs0mg"},{"bike_id":"a02ff3d0-dabc-4f80-a7ca-75d2665902bc","system_id":"levelo_inurba_marseille","lat":43.28419,"lon":5.37514,"is_reserved":false,"is_disabled":false,"rental_uris":{"android":"levelo://app?vid=a02ff3d0-dabc-4f80-a7ca-75d2665902bc","ios":"levelo://app?vid=a02ff3d0-dabc-4f80-a7ca-75d2665902bc"},"vehicle_type_id":"4","last_reported":1746997720,"current_range_meters":9600,"station_id":"ce4bh412rcd13ifvqds0","pricing_plan_id":"cebpf4jnsgd1na2vs0mg"},{"bike_id":"c781db57-0d15-4bd3-ae62-a55ba5955038","system_id":"levelo_inurba_marseille","lat":43.23201,"lon":5.39984,"is_reserved":false,"is_disabled":false,"rental_uris":{"android":"levelo://app?vid=c781db57-0d15-4bd3-ae62-a55ba5955038","ios":"levelo://app?vid=c781db57-0d15-4bd3-ae62-a55ba5955038"},"vehicle_type_id":"4","last_reported":1746997720,"current_range_meters":9600,"station_id":"ce4bhn12rcd13ifvqgqg","pricing_plan_id":"cebpf4jnsgd1na2vs0mg"},{"bike_id":"3e5f282e-b6c7-489d-9c5b-6ba24372d546","system_id":"levelo_inurba_marseille","lat":43.33597,"lon":5.41029,"is_reserved":false,"is_disabled":false,"rental_uris":{"android":"levelo://app?vid=3e5f282e-b6c7-489d-9c5b-6ba24372d546","ios":"levelo://app?vid=3e5f282e-b6c7-489d-9c5b-6ba24372d546"},"vehicle_type_id":"4","last_reported":1746997720,"current_range_meters":9600,"station_id":"ce4bhqh2rcd13ifvqhmg","pricing_plan_id":"cebpf4jnsgd1na2vs0mg"},{"bike_id":"237c3cfb-c5b3-4b77-a847-367a3775064d","system_id":"levelo_inurba_marseille","lat":43.31999,"lon":5.38161,"is_reserved":false,"is_disabled":false,"rental_uris":{"android":"levelo://app?vid=237c3cfb-c5b3-4b77-a847-367a3775064d","ios":"levelo://app?vid=237c3cfb-c5b3-4b77-a847-367a3775064d"},"vehicle_type_id":"4","last_reported":1746997720,"current_range_meters":9600,"station_id":"ce4bhr12rcd13ifvqhpg","pricing_plan_id":"cebpf4jnsgd1na2vs0mg"},{"bike_id":"136b433b-b0c6-4ce4-aa46-4974fd56094e","system_id":"levelo_inurba_marseille","lat":43.27418,"lon":5.39405,"is_reserved":false,"is_disabled":false,"rental_uris":{"android":"levelo://app?vid=136b433b-b0c6-4ce4-aa46-4974fd56094e","ios":"levelo://app?vid=136b433b-b0c6-4ce4-aa46-4974fd56094e"},"vehicle_type_id":"4","last_reported":1746997720,"current_range_meters":10000,"station_id":"ce4bhdp2rcd13ifvqf20","pricing_plan_id":"cebpf4jnsgd1na2vs0mg"},{"bike_id":"d83b7170-8eed-47c1-b0ec-1140d3a45dea","system_id":"levelo_inurba_marseille","lat":43.308209,"lon":5.43528,"is_reserved":false,"is_disabled":false,"rental_uris":{"android":"levelo://app?vid=d83b7170-8eed-47c1-b0ec-1140d3a45dea","ios":"levelo://app?vid=d83b7170-8eed-47c1-b0ec-1140d3a45dea"},"vehicle_type_id":"4","last_reported":1746997720,"current_range_meters":10000,"station_id":"ce4bhph2rcd13ifvqheg","pricing_plan_id":"cebpf4jnsgd1na2vs0mg"},{"bike_id":"eedccd53-0700-44cb-b54c-7af6cbc70cda","system_id":"levelo_inurba_marseille","lat":43.33608,"lon":5.41027,"is_reserved":false,"is_disabled":false,"rental_uris":{"android":"levelo://app?vid=eedccd53-0700-44cb-b54c-7af6cbc70cda","ios":"levelo://app?vid=eedccd53-0700-44cb-b54c-7af6cbc70cda"},"vehicle_type_id":"4","last_reported":1746997720,"current_range_meters":10000,"station_id":"ce4bhqh2rcd13ifvqhmg","pricing_plan_id":"cebpf4jnsgd1na2vs0mg"},{"bike_id":"7a1bbf1b-6190-4d0a-b203-09fe7bf4d3b0","system_id":"levelo_inurba_marseille","lat":43.28716,"lon":5.36094,"is_reserved":false,"is_disabled":false,"rental_uris":{"android":"levelo://app?vid=7a1bbf1b-6190-4d0a-b203-09fe7bf4d3b0","ios":"levelo://app?vid=7a1bbf1b-6190-4d0a-b203-09fe7bf4d3b0"},"vehicle_type_id":"4","last_reported":1746997720,"current_range_meters":10000,"station_id":"cki0cbj6b192h4jlfktg","pricing_plan_id":"cebpf4jnsgd1na2vs0mg"},{"bike_id":"efc0a0d5-a353-4db4-9aad-8fb20bd2a998","system_id":"levelo_inurba_marseille","lat":43.25726,"lon":5.41031,"is_reserved":false,"is_disabled":false,"rental_uris":{"android":"levelo://app?vid=efc0a0d5-a353-4db4-9aad-8fb20bd2a998","ios":"levelo://app?vid=efc0a0d5-a353-4db4-9aad-8fb20bd2a998"},"vehicle_type_id":"4","last_reported":1746997720,"current_range_meters":10800,"station_id":"","pricing_plan_id":"cebpf4jnsgd1na2vs0mg"},{"bike_id":"a1121b36-b5cd-4dda-96ef-13a3dfaa55e1","system_id":"levelo_inurba_marseille","lat":43.301401,"lon":5.387791,"is_reserved":false,"is_disabled":false,"rental_uris":{"android":"levelo://app?vid=a1121b36-b5cd-4dda-96ef-13a3dfaa55e1","ios":"levelo://app?vid=a1121b36-b5cd-4dda-96ef-13a3dfaa55e1"},"vehicle_type_id":"4","last_reported":1746997720,"current_range_meters":10800,"station_id":"","pricing_plan_id":"cebpf4jnsgd1na2vs0mg"},{"bike_id":"3ee007b4-701a-43a3-a268-87c67c8eea49","system_id":"levelo_inurba_marseille","lat":43.26232,"lon":5.40421,"is_reserved":false,"is_disabled":false,"rental_uris":{"android":"levelo://app?vid=3ee007b4-701a-43a3-a268-87c67c8eea49","ios":"levelo://app?vid=3ee007b4-701a-43a3-a268-87c67c8eea49"},"vehicle_type_id":"4","last_reported":1746997720,"current_range_meters":10800,"station_id":"ce4bhmh2rcd13ifvqgmg","pricing_plan_id":"cebpf4jnsgd1na2vs0mg"},{"bike_id":"e52bd7d4-e04d-400f-87c6-90264f742d5d","system_id":"levelo_inurba_marseille","lat":43.28407,"lon":5.37514,"is_reserved":false,"is_disabled":false,"rental_uris":{"android":"levelo://app?vid=e52bd7d4-e04d-400f-87c6-90264f742d5d","ios":"levelo://app?vid=e52bd7d4-e04d-400f-87c6-90264f742d5d"},"vehicle_type_id":"4","last_reported":1746997720,"current_range_meters":11200,"station_id":"ce4bh412rcd13ifvqds0","pricing_plan_id":"cebpf4jnsgd1na2vs0mg"},{"bike_id":"9c54648a-e987-4681-990c-bc1749d61914","system_id":"levelo_inurba_marseille","lat":43.25246,"lon":5.402559,"is_reserved":false,"is_disabled":false,"rental_uris":{"android":"levelo://app?vid=9c54648a-e987-4681-990c-bc1749d61914","ios":"levelo://app?vid=9c54648a-e987-4681-990c-bc1749d61914"},"vehicle_type_id":"4","last_reported":1746997720,"current_range_meters":11200,"station_id":"ce4bhlh2rcd13ifvqgig","pricing_plan_id":"cebpf4jnsgd1na2vs0mg"},{"bike_id":"7f58c9cf-e41c-4db7-be2d-3f2518a5cbd2","system_id":"levelo_inurba_marseille","lat":43.30951,"lon":5.39036,"is_reserved":false,"is_disabled":false,"rental_uris":{"android":"levelo://app?vid=7f58c9cf-e41c-4db7-be2d-3f2518a5cbd2","ios":"levelo://app?vid=7f58c9cf-e41c-4db7-be2d-3f2518a5cbd2"},"vehicle_type_id":"4","last_reported":1746997720,"current_range_meters":11600,"station_id":"ce4bgup2rcd13ifvqco0","pricing_plan_id":"cebpf4jnsgd1na2vs0mg"},{"bike_id":"5348d4a8-c265-4e72-9e16-e28ef128fad4","system_id":"levelo_inurba_marseille","lat":43.28708,"lon":5.39978,"is_reserved":false,"is_disabled":false,"rental_uris":{"android":"levelo://app?vid=5348d4a8-c265-4e72-9e16-e28ef128fad4","ios":"levelo://app?vid=5348d4a8-c265-4e72-9e16-e28ef128fad4"},"vehicle_type_id":"4","last_reported":1746997720,"current_range_meters":11600,"station_id":"ce4bho92rcd13ifvqh3g","pricing_plan_id":"cebpf4jnsgd1na2vs0mg"},{"bike_id":"9d828475-a348-47a0-9366-9751984af581","system_id":"levelo_inurba_marseille","lat":43.304173,"lon":5.412867,"is_reserved":false,"is_disabled":false,"rental_uris":{"android":"levelo://app?vid=9d828475-a348-47a0-9366-9751984af581","ios":"levelo://app?vid=9d828475-a348-47a0-9366-9751984af581"},"vehicle_type_id":"4","last_reported":1746997720,"current_range_meters":11600,"station_id":"ce4bhop2rcd13ifvqh8g","pricing_plan_id":"cebpf4jnsgd1na2vs0mg"},{"bike_id":"6da7775b-526f-48dc-ad5b-7aff7117e159","system_id":"levelo_inurba_marseille","lat":43.268,"lon":5.40258,"is_reserved":false,"is_disabled":false,"rental_uris":{"android":"levelo://app?vid=6da7775b-526f-48dc-ad5b-7aff7117e159","ios":"levelo://app?vid=6da7775b-526f-48dc-ad5b-7aff7117e159"},"vehicle_type_id":"4","last_reported":1746997720,"current_range_meters":11600,"station_id":"ce501612rcd8frsf0b60","pricing_plan_id":"cebpf4jnsgd1na2vs0mg"},{"bike_id":"19708695-a8ee-4716-9e14-a794ed2f1a40","system_id":"levelo_inurba_marseille","lat":43.2657,"lon":5.39016,"is_reserved":false,"is_disabled":false,"rental_uris":{"android":"levelo://app?vid=19708695-a8ee-4716-9e14-a794ed2f1a40","ios":"levelo://app?vid=19708695-a8ee-4716-9e14-a794ed2f1a40"},"vehicle_type_id":"4","last_reported":1746997720,"current_range_meters":12400,"station_id":"ce4bhe12rcd13ifvqf30","pricing_plan_id":"cebpf4jnsgd1na2vs0mg"},{"bike_id":"f52c819d-ca4b-4640-b458-b877db1bf990","system_id":"levelo_inurba_marseille","lat":43.29865,"lon":5.41011,"is_reserved":false,"is_disabled":false,"rental_uris":{"android":"levelo://app?vid=f52c819d-ca4b-4640-b458-b877db1bf990","ios":"levelo://app?vid=f52c819d-ca4b-4640-b458-b877db1bf990"},"vehicle_type_id":"4","last_reported":1746997720,"current_range_meters":12800,"station_id":"","pricing_plan_id":"cebpf4jnsgd1na2vs0mg"},{"bike_id":"fe8a300c-df4c-42e1-b092-cce77e5975ce","system_id":"levelo_inurba_marseille","lat":43.2574,"lon":5.41107,"is_reserved":false,"is_disabled":false,"rental_uris":{"android":"levelo://app?vid=fe8a300c-df4c-42e1-b092-cce77e5975ce","ios":"levelo://app?vid=fe8a300c-df4c-42e1-b092-cce77e5975ce"},"vehicle_type_id":"4","last_reported":1746997720,"current_range_meters":12800,"station_id":"ce4bhkp2rcd13ifvqgd0","pricing_plan_id":"cebpf4jnsgd1na2vs0mg"},{"bike_id":"350f96e5-9d35-4552-ab8b-75cc94649a94","system_id":"levelo_inurba_marseille","lat":43.25116,"lon":5.4032,"is_reserved":false,"is_disabled":false,"rental_uris":{"android":"levelo://app?vid=350f96e5-9d35-4552-ab8b-75cc94649a94","ios":"levelo://app?vid=350f96e5-9d35-4552-ab8b-75cc94649a94"},"vehicle_type_id":"4","last_reported":1746997720,"current_range_meters":13600,"station_id":"ce4bhlh2rcd13ifvqgig","pricing_plan_id":"cebpf4jnsgd1na2vs0mg"},{"bike_id":"ef551541-9d23-4760-a47c-ef4b9d35b0ec","system_id":"levelo_inurba_marseille","lat":43.26563,"lon":5.39015,"is_reserved":false,"is_disabled":false,"rental_uris":{"android":"levelo://app?vid=ef551541-9d23-4760-a47c-ef4b9d35b0ec","ios":"levelo://app?vid=ef551541-9d23-4760-a47c-ef4b9d35b0ec"},"vehicle_type_id":"4","last_reported":1746997720,"current_range_meters":14000,"station_id":"ce4bhe12rcd13ifvqf30","pricing_plan_id":"cebpf4jnsgd1na2vs0mg"},{"bike_id":"9401e170-3654-4a41-bf35-9a468db0c37f","system_id":"levelo_inurba_marseille","lat":43.25116,"lon":5.40322,"is_reserved":false,"is_disabled":false,"rental_uris":{"android":"levelo://app?vid=9401e170-3654-4a41-bf35-9a468db0c37f","ios":"levelo://app?vid=9401e170-3654-4a41-bf35-9a468db0c37f"},"vehicle_type_id":"4","last_reported":1746997720,"current_range_meters":14000,"station_id":"ce4bhlh2rcd13ifvqgig","pricing_plan_id":"cebpf4jnsgd1na2vs0mg"},{"bike_id":"83a5dddc-f08f-476e-a316-d0e0dfb65037","system_id":"levelo_inurba_marseille","lat":43.31724,"lon":5.4242,"is_reserved":false,"is_disabled":false,"rental_uris":{"android":"levelo://app?vid=83a5dddc-f08f-476e-a316-d0e0dfb65037","ios":"levelo://app?vid=83a5dddc-f08f-476e-a316-d0e0dfb65037"},"vehicle_type_id":"4","last_reported":1746997720,"current_range_meters":14000,"station_id":"ce4bhp92rcd13ifvqhbg","pricing_plan_id":"cebpf4jnsgd1na2vs0mg"},{"bike_id":"e6b4eb89-523a-433c-85b9-7338e01db3b6","system_id":"levelo_inurba_marseille","lat":43.30248,"lon":5.40073,"is_reserved":false,"is_disabled":false,"rental_uris":{"android":"levelo://app?vid=e6b4eb89-523a-433c-85b9-7338e01db3b6","ios":"levelo://app?vid=e6b4eb89-523a-433c-85b9-7338e01db3b6"},"vehicle_type_id":"4","last_reported":1746997720,"current_range_meters":14400,"station_id":"ce4bgvh2rcd13ifvqcs0","pricing_plan_id":"cebpf4jnsgd1na2vs0mg"},{"bike_id":"88c80310-ca1b-421c-afe7-bd8b5ffd37d5","system_id":"levelo_inurba_marseille","lat":43.2512,"lon":5.40323,"is_reserved":false,"is_disabled":false,"rental_uris":{"android":"levelo://app?vid=88c80310-ca1b-421c-afe7-bd8b5ffd37d5","ios":"levelo://app?vid=88c80310-ca1b-421c-afe7-bd8b5ffd37d5"},"vehicle_type_id":"4","last_reported":1746997720,"current_range_meters":14800,"station_id":"ce4bhlh2rcd13ifvqgig","pricing_plan_id":"cebpf4jnsgd1na2vs0mg"},{"bike_id":"9efab106-cd21-4f9c-9f1e-8e487fbcd4fa","system_id":"levelo_inurba_marseille","lat":43.27324,"lon":5.3908,"is_reserved":false,"is_disabled":false,"rental_uris":{"android":"levelo://app?vid=9efab106-cd21-4f9c-9f1e-8e487fbcd4fa","ios":"levelo://app?vid=9efab106-cd21-4f9c-9f1e-8e487fbcd4fa"},"vehicle_type_id":"4","last_reported":1746997720,"current_range_meters":15200,"station_id":"","pricing_plan_id":"cebpf4jnsgd1na2vs0mg"},{"bike_id":"d9937dd6-e4c2-4ca6-b3ad-8e2542d9c843","system_id":"levelo_inurba_marseille","lat":43.302661,"lon":5.400819,"is_reserved":false,"is_disabled":false,"rental_uris":{"android":"levelo://app?vid=d9937dd6-e4c2-4ca6-b3ad-8e2542d9c843","ios":"levelo://app?vid=d9937dd6-e4c2-4ca6-b3ad-8e2542d9c843"},"vehicle_type_id":"4","last_reported":1746997720,"current_range_meters":15200,"station_id":"ce4bgvh2rcd13ifvqcs0","pricing_plan_id":"cebpf4jnsgd1na2vs0mg"},{"bike_id":"cbdcf005-6e74-4edd-bc9f-0084869f35cb","system_id":"levelo_inurba_marseille","lat":43.30875,"lon":5.39637,"is_reserved":false,"is_disabled":false,"rental_uris":{"android":"levelo://app?vid=cbdcf005-6e74-4edd-bc9f-0084869f35cb","ios":"levelo://app?vid=cbdcf005-6e74-4edd-bc9f-0084869f35cb"},"vehicle_type_id":"4","last_reported":1746997720,"current_range_meters":15200,"station_id":"ce4bh012rcd13ifvqcv0","pricing_plan_id":"cebpf4jnsgd1na2vs0mg"},{"bike_id":"f73cf722-6d28-410b-96d0-7787b89b0f79","system_id":"levelo_inurba_marseille","lat":43.28846,"lon":5.393137,"is_reserved":false,"is_disabled":false,"rental_uris":{"android":"levelo://app?vid=f73cf722-6d28-410b-96d0-7787b89b0f79","ios":"levelo://app?vid=f73cf722-6d28-410b-96d0-7787b89b0f79"},"vehicle_type_id":"4","last_reported":1746997720,"current_range_meters":15200,"station_id":"ce4bh2p2rcd13ifvqdi0","pricing_plan_id":"cebpf4jnsgd1na2vs0mg"},{"bike_id":"f3bc9fe4-a9bd-43c8-8a47-ffaeebc00913","system_id":"levelo_inurba_marseille","lat":43.32335,"lon":5.40617,"is_reserved":false,"is_disabled":false,"rental_uris":{"android":"levelo://app?vid=f3bc9fe4-a9bd-43c8-8a47-ffaeebc00913","ios":"levelo://app?vid=f3bc9fe4-a9bd-43c8-8a47-ffaeebc00913"},"vehicle_type_id":"4","last_reported":1746997720,"current_range_meters":15200,"station_id":"ce4bhq92rcd13ifvqhjg","pricing_plan_id":"cebpf4jnsgd1na2vs0mg"},{"bike_id":"ab38ef62-870b-4715-a349-e205eeb08a6e","system_id":"levelo_inurba_marseille","lat":43.323658,"lon":5.36769,"is_reserved":false,"is_disabled":false,"rental_uris":{"android":"levelo://app?vid=ab38ef62-870b-4715-a349-e205eeb08a6e","ios":"levelo://app?vid=ab38ef62-870b-4715-a349-e205eeb08a6e"},"vehicle_type_id":"4","last_reported":1746997720,"current_range_meters":16000,"station_id":"ce4bhsh2rcd13ifvqi2g","pricing_plan_id":"cebpf4jnsgd1na2vs0mg"},{"bike_id":"4df9daef-0799-4493-bd6d-0419f3d02ab7","system_id":"levelo_inurba_marseille","lat":43.30421,"lon":5.41267,"is_reserved":false,"is_disabled":false,"rental_uris":{"android":"levelo://app?vid=4df9daef-0799-4493-bd6d-0419f3d02ab7","ios":"levelo://app?vid=4df9daef-0799-4493-bd6d-0419f3d02ab7"},"vehicle_type_id":"4","last_reported":1746997720,"current_range_meters":16400,"station_id":"ce4bhop2rcd13ifvqh8g","pricing_plan_id":"cebpf4jnsgd1na2vs0mg"},{"bike_id":"58d6adba-6679-41d8-bdc9-d9413f61af87","system_id":"levelo_inurba_marseille","lat":43.31487,"lon":5.36901,"is_reserved":false,"is_disabled":false,"rental_uris":{"android":"levelo://app?vid=58d6adba-6679-41d8-bdc9-d9413f61af87","ios":"levelo://app?vid=58d6adba-6679-41d8-bdc9-d9413f61af87"},"vehicle_type_id":"4","last_reported":1746997720,"current_range_meters":16800,"station_id":"","pricing_plan_id":"cebpf4jnsgd1na2vs0mg"},{"bike_id":"0b1c8292-c329-4aa8-92d1-c391c9c0fef8","system_id":"levelo_inurba_marseille","lat":43.27846,"lon":5.42157,"is_reserved":false,"is_disabled":false,"rental_uris":{"android":"levelo://app?vid=0b1c8292-c329-4aa8-92d1-c391c9c0fef8","ios":"levelo://app?vid=0b1c8292-c329-4aa8-92d1-c391c9c0fef8"},"vehicle_type_id":"4","last_reported":1746997720,"current_range_meters":16800,"station_id":"","pricing_plan_id":"cebpf4jnsgd1na2vs0mg"},{"bike_id":"02612b6c-94a8-478d-b856-3dfaee1cd969","system_id":"levelo_inurba_marseille","lat":43.29914,"lon":5.374673,"is_reserved":false,"is_disabled":false,"rental_uris":{"android":"levelo://app?vid=02612b6c-94a8-478d-b856-3dfaee1cd969","ios":"levelo://app?vid=02612b6c-94a8-478d-b856-3dfaee1cd969"},"vehicle_type_id":"4","last_reported":1746997720,"current_range_meters":16800,"station_id":"ce4bgjh2rcd13ifvqbg0","pricing_plan_id":"cebpf4jnsgd1na2vs0mg"},{"bike_id":"c2d26363-c111-4e54-98d2-ac34f8d787a8","system_id":"levelo_inurba_marseille","lat":43.25147,"lon":5.40302,"is_reserved":false,"is_disabled":false,"rental_uris":{"android":"levelo://app?vid=c2d26363-c111-4e54-98d2-ac34f8d787a8","ios":"levelo://app?vid=c2d26363-c111-4e54-98d2-ac34f8d787a8"},"vehicle_type_id":"4","last_reported":1746997720,"current_range_meters":16800,"station_id":"ce4bhlh2rcd13ifvqgig","pricing_plan_id":"cebpf4jnsgd1na2vs0mg"},{"bike_id":"b6f0504a-f7d7-4a97-b810-e7c9e7b1c671","system_id":"levelo_inurba_marseille","lat":43.279,"lon":5.4122,"is_reserved":false,"is_disabled":false,"rental_uris":{"android":"levelo://app?vid=b6f0504a-f7d7-4a97-b810-e7c9e7b1c671","ios":"levelo://app?vid=b6f0504a-f7d7-4a97-b810-e7c9e7b1c671"},"vehicle_type_id":"4","last_reported":1746997720,"current_range_meters":17200,"station_id":"","pricing_plan_id":"cebpf4jnsgd1na2vs0mg"},{"bike_id":"1257872e-7836-400e-8338-59a701866811","system_id":"levelo_inurba_marseille","lat":43.24805,"lon":5.37459,"is_reserved":false,"is_disabled":false,"rental_uris":{"android":"levelo://app?vid=1257872e-7836-400e-8338-59a701866811","ios":"levelo://app?vid=1257872e-7836-400e-8338-59a701866811"},"vehicle_type_id":"4","last_reported":1746997720,"current_range_meters":17200,"station_id":"ce4bhgh2rcd13ifvqfb0","pricing_plan_id":"cebpf4jnsgd1na2vs0mg"},{"bike_id":"eacaa53e-f4d4-4a72-bd34-9e30dbd3c32f","system_id":"levelo_inurba_marseille","lat":43.31772,"lon":5.39003,"is_reserved":false,"is_disabled":false,"rental_uris":{"android":"levelo://app?vid=eacaa53e-f4d4-4a72-bd34-9e30dbd3c32f","ios":"levelo://app?vid=eacaa53e-f4d4-4a72-bd34-9e30dbd3c32f"},"vehicle_type_id":"4","last_reported":1746997720,"current_range_meters":17200,"station_id":"ce4bhqp2rcd13ifvqhng","pricing_plan_id":"cebpf4jnsgd1na2vs0mg"},{"bike_id":"2a2e92a8-9be2-42a0-8f8b-e8c99ed20b3a","system_id":"levelo_inurba_marseille","lat":43.23203,"lon":5.39897,"is_reserved":false,"is_disabled":false,"rental_uris":{"android":"levelo://app?vid=2a2e92a8-9be2-42a0-8f8b-e8c99ed20b3a","ios":"levelo://app?vid=2a2e92a8-9be2-42a0-8f8b-e8c99ed20b3a"},"vehicle_type_id":"4","last_reported":1746997720,"current_range_meters":17600,"station_id":"","pricing_plan_id":"cebpf4jnsgd1na2vs0mg"},{"bike_id":"d6c19613-88e4-4d90-ac5f-9fc3032e5508","system_id":"levelo_inurba_marseille","lat":43.30246,"lon":5.40058,"is_reserved":false,"is_disabled":false,"rental_uris":{"android":"levelo://app?vid=d6c19613-88e4-4d90-ac5f-9fc3032e5508","ios":"levelo://app?vid=d6c19613-88e4-4d90-ac5f-9fc3032e5508"},"vehicle_type_id":"4","last_reported":1746997720,"current_range_meters":17600,"station_id":"ce4bgvh2rcd13ifvqcs0","pricing_plan_id":"cebpf4jnsgd1na2vs0mg"},{"bike_id":"e198eafd-0d8d-4a27-a02c-9200fc95ca65","system_id":"levelo_inurba_marseille","lat":43.28939,"lon":5.36389,"is_reserved":false,"is_disabled":false,"rental_uris":{"android":"levelo://app?vid=e198eafd-0d8d-4a27-a02c-9200fc95ca65","ios":"levelo://app?vid=e198eafd-0d8d-4a27-a02c-9200fc95ca65"},"vehicle_type_id":"4","last_reported":1746997720,"current_range_meters":17600,"station_id":"ce4bhc92rcd13ifvqetg","pricing_plan_id":"cebpf4jnsgd1na2vs0mg"},{"bike_id":"923bc3c8-9653-42f6-ab2d-a12cb585d499","system_id":"levelo_inurba_marseille","lat":43.29454,"lon":5.38692,"is_reserved":false,"is_disabled":false,"rental_uris":{"android":"levelo://app?vid=923bc3c8-9653-42f6-ab2d-a12cb585d499","ios":"levelo://app?vid=923bc3c8-9653-42f6-ab2d-a12cb585d499"},"vehicle_type_id":"4","last_reported":1746997720,"current_range_meters":18000,"station_id":"","pricing_plan_id":"cebpf4jnsgd1na2vs0mg"},{"bike_id":"d99afe62-41a1-4367-a50e-55727c42a2a5","system_id":"levelo_inurba_marseille","lat":43.28707,"lon":5.39983,"is_reserved":false,"is_disabled":false,"rental_uris":{"android":"levelo://app?vid=d99afe62-41a1-4367-a50e-55727c42a2a5","ios":"levelo://app?vid=d99afe62-41a1-4367-a50e-55727c42a2a5"},"vehicle_type_id":"4","last_reported":1746997720,"current_range_meters":18000,"station_id":"ce4bho92rcd13ifvqh3g","pricing_plan_id":"cebpf4jnsgd1na2vs0mg"},{"bike_id":"aca142bd-2716-4ee3-8c04-bd27c952c647","system_id":"levelo_inurba_marseille","lat":43.264644,"lon":5.374971,"is_reserved":false,"is_disabled":false,"rental_uris":{"android":"levelo://app?vid=aca142bd-2716-4ee3-8c04-bd27c952c647","ios":"levelo://app?vid=aca142bd-2716-4ee3-8c04-bd27c952c647"},"vehicle_type_id":"4","last_reported":1746997720,"current_range_meters":18800,"station_id":"","pricing_plan_id":"cebpf4jnsgd1na2vs0mg"},{"bike_id":"b07bfc09-4ee4-480d-951d-bf310d1d8d6c","system_id":"levelo_inurba_marseille","lat":43.321369,"lon":5.384722,"is_reserved":false,"is_disabled":false,"rental_uris":{"android":"levelo://app?vid=b07bfc09-4ee4-480d-951d-bf310d1d8d6c","ios":"levelo://app?vid=b07bfc09-4ee4-480d-951d-bf310d1d8d6c"},"vehicle_type_id":"4","last_reported":1746997720,"current_range_meters":18800,"station_id":"","pricing_plan_id":"cebpf4jnsgd1na2vs0mg"},{"bike_id":"58ca3082-502b-4f40-858f-4a60772f8be9","system_id":"levelo_inurba_marseille","lat":43.30602,"lon":5.39349,"is_reserved":false,"is_disabled":false,"rental_uris":{"android":"levelo://app?vid=58ca3082-502b-4f40-858f-4a60772f8be9","ios":"levelo://app?vid=58ca3082-502b-4f40-858f-4a60772f8be9"},"vehicle_type_id":"4","last_reported":1746997720,"current_range_meters":18800,"station_id":"ce4bh0p2rcd13ifvqd80","pricing_plan_id":"cebpf4jnsgd1na2vs0mg"},{"bike_id":"4b6c1528-1d2a-4eef-acaf-0e2c8aa28257","system_id":"levelo_inurba_marseille","lat":43.30589,"lon":5.39365,"is_reserved":false,"is_disabled":false,"rental_uris":{"android":"levelo://app?vid=4b6c1528-1d2a-4eef-acaf-0e2c8aa28257","ios":"levelo://app?vid=4b6c1528-1d2a-4eef-acaf-0e2c8aa28257"},"vehicle_type_id":"4","last_reported":1746997720,"current_range_meters":18800,"station_id":"ce4bh0p2rcd13ifvqd80","pricing_plan_id":"cebpf4jnsgd1na2vs0mg"},{"bike_id":"577a00ad-d6f2-4c19-b097-aee95e242500","system_id":"levelo_inurba_marseille","lat":43.25583,"lon":5.38238,"is_reserved":false,"is_disabled":false,"rental_uris":{"android":"levelo://app?vid=577a00ad-d6f2-4c19-b097-aee95e242500","ios":"levelo://app?vid=577a00ad-d6f2-4c19-b097-aee95e242500"},"vehicle_type_id":"4","last_reported":1746997720,"current_range_meters":18800,"station_id":"ce4bhih2rcd13ifvqfs0","pricing_plan_id":"cebpf4jnsgd1na2vs0mg"},{"bike_id":"81c5cc67-f513-4ff6-95a4-1fcf1b55cbb3","system_id":"levelo_inurba_marseille","lat":43.31715,"lon":5.42403,"is_reserved":false,"is_disabled":false,"rental_uris":{"android":"levelo://app?vid=81c5cc67-f513-4ff6-95a4-1fcf1b55cbb3","ios":"levelo://app?vid=81c5cc67-f513-4ff6-95a4-1fcf1b55cbb3"},"vehicle_type_id":"4","last_reported":1746997720,"current_range_meters":18800,"station_id":"ce4bhp92rcd13ifvqhbg","pricing_plan_id":"cebpf4jnsgd1na2vs0mg"},{"bike_id":"99dbe6a3-f5d7-427a-b808-17b5bb6cd725","system_id":"levelo_inurba_marseille","lat":43.297786,"lon":5.393501,"is_reserved":false,"is_disabled":false,"rental_uris":{"android":"levelo://app?vid=99dbe6a3-f5d7-427a-b808-17b5bb6cd725","ios":"levelo://app?vid=99dbe6a3-f5d7-427a-b808-17b5bb6cd725"},"vehicle_type_id":"4","last_reported":1746997720,"current_range_meters":18800,"station_id":"chh1huq6cuj3fo74tm60","pricing_plan_id":"cebpf4jnsgd1na2vs0mg"},{"bike_id":"4d7e69b3-fd69-4c4f-9d4c-d3a4ecae472a","system_id":"levelo_inurba_marseille","lat":43.30594,"lon":5.39353,"is_reserved":false,"is_disabled":false,"rental_uris":{"android":"levelo://app?vid=4d7e69b3-fd69-4c4f-9d4c-d3a4ecae472a","ios":"levelo://app?vid=4d7e69b3-fd69-4c4f-9d4c-d3a4ecae472a"},"vehicle_type_id":"4","last_reported":1746997720,"current_range_meters":19200,"station_id":"ce4bh0p2rcd13ifvqd80","pricing_plan_id":"cebpf4jnsgd1na2vs0mg"},{"bike_id":"3c3937e8-019b-44c0-8a46-b0d173ff7808","system_id":"levelo_inurba_marseille","lat":43.28341,"lon":5.38092,"is_reserved":false,"is_disabled":false,"rental_uris":{"android":"levelo://app?vid=3c3937e8-019b-44c0-8a46-b0d173ff7808","ios":"levelo://app?vid=3c3937e8-019b-44c0-8a46-b0d173ff7808"},"vehicle_type_id":"4","last_reported":1746997720,"current_range_meters":19200,"station_id":"ce4bh412rcd13ifvqdr0","pricing_plan_id":"cebpf4jnsgd1na2vs0mg"},{"bike_id":"c1a87d98-ae1b-4a96-8676-6f3473b69ff6","system_id":"levelo_inurba_marseille","lat":43.28402,"lon":5.375074,"is_reserved":false,"is_disabled":false,"rental_uris":{"android":"levelo://app?vid=c1a87d98-ae1b-4a96-8676-6f3473b69ff6","ios":"levelo://app?vid=c1a87d98-ae1b-4a96-8676-6f3473b69ff6"},"vehicle_type_id":"4","last_reported":1746997720,"current_range_meters":19200,"station_id":"ce4bh412rcd13ifvqds0","pricing_plan_id":"cebpf4jnsgd1na2vs0mg"},{"bike_id":"7c4d27bd-dfd1-4f8c-9744-3e170f8a909b","system_id":"levelo_inurba_marseille","lat":43.27839,"lon":5.39207,"is_reserved":false,"is_disabled":false,"rental_uris":{"android":"levelo://app?vid=7c4d27bd-dfd1-4f8c-9744-3e170f8a909b","ios":"levelo://app?vid=7c4d27bd-dfd1-4f8c-9744-3e170f8a909b"},"vehicle_type_id":"4","last_reported":1746997720,"current_range_meters":19200,"station_id":"ce4bhjp2rcd13ifvqga0","pricing_plan_id":"cebpf4jnsgd1na2vs0mg"},{"bike_id":"e58e2ce6-f326-47d4-94dc-2a7bac20a6f5","system_id":"levelo_inurba_marseille","lat":43.28433,"lon":5.37529,"is_reserved":false,"is_disabled":false,"rental_uris":{"android":"levelo://app?vid=e58e2ce6-f326-47d4-94dc-2a7bac20a6f5","ios":"levelo://app?vid=e58e2ce6-f326-47d4-94dc-2a7bac20a6f5"},"vehicle_type_id":"4","last_reported":1746997720,"current_range_meters":19600,"station_id":"ce4bh412rcd13ifvqds0","pricing_plan_id":"cebpf4jnsgd1na2vs0mg"},{"bike_id":"b563129d-dbe8-41ec-ad41-e58670601124","system_id":"levelo_inurba_marseille","lat":43.28351,"lon":5.38107,"is_reserved":false,"is_disabled":false,"rental_uris":{"android":"levelo://app?vid=b563129d-dbe8-41ec-ad41-e58670601124","ios":"levelo://app?vid=b563129d-dbe8-41ec-ad41-e58670601124"},"vehicle_type_id":"4","last_reported":1746997720,"current_range_meters":20000,"station_id":"ce4bh412rcd13ifvqdr0","pricing_plan_id":"cebpf4jnsgd1na2vs0mg"},{"bike_id":"188758f6-692a-41e7-8487-79133bbf1856","system_id":"levelo_inurba_marseille","lat":43.28434,"lon":5.375,"is_reserved":false,"is_disabled":false,"rental_uris":{"android":"levelo://app?vid=188758f6-692a-41e7-8487-79133bbf1856","ios":"levelo://app?vid=188758f6-692a-41e7-8487-79133bbf1856"},"vehicle_type_id":"4","last_reported":1746997720,"current_range_meters":20000,"station_id":"ce4bh412rcd13ifvqds0","pricing_plan_id":"cebpf4jnsgd1na2vs0mg"},{"bike_id":"552a2edc-97c2-4e6b-be49-82bbd491069a","system_id":"levelo_inurba_marseille","lat":43.28446,"lon":5.37501,"is_reserved":false,"is_disabled":false,"rental_uris":{"android":"levelo://app?vid=552a2edc-97c2-4e6b-be49-82bbd491069a","ios":"levelo://app?vid=552a2edc-97c2-4e6b-be49-82bbd491069a"},"vehicle_type_id":"4","last_reported":1746997720,"current_range_meters":20400,"station_id":"","pricing_plan_id":"cebpf4jnsgd1na2vs0mg"},{"bike_id":"873127f0-5960-43b7-af15-7b68eacdf132","system_id":"levelo_inurba_marseille","lat":43.313332,"lon":5.396986,"is_reserved":false,"is_disabled":false,"rental_uris":{"android":"levelo://app?vid=873127f0-5960-43b7-af15-7b68eacdf132","ios":"levelo://app?vid=873127f0-5960-43b7-af15-7b68eacdf132"},"vehicle_type_id":"4","last_reported":1746997720,"current_range_meters":20400,"station_id":"ce4bgvp2rcd13ifvqcu0","pricing_plan_id":"cebpf4jnsgd1na2vs0mg"},{"bike_id":"581a76c6-406f-436c-80cf-424046378536","system_id":"levelo_inurba_marseille","lat":43.23152,"lon":5.43718,"is_reserved":false,"is_disabled":false,"rental_uris":{"android":"levelo://app?vid=581a76c6-406f-436c-80cf-424046378536","ios":"levelo://app?vid=581a76c6-406f-436c-80cf-424046378536"},"vehicle_type_id":"4","last_reported":1746997720,"current_range_meters":20400,"station_id":"ce4bhmp2rcd13ifvqgog","pricing_plan_id":"cebpf4jnsgd1na2vs0mg"},{"bike_id":"b336a229-0bf1-452c-97d8-afd000b0f02e","system_id":"levelo_inurba_marseille","lat":43.32483,"lon":5.36581,"is_reserved":false,"is_disabled":false,"rental_uris":{"android":"levelo://app?vid=b336a229-0bf1-452c-97d8-afd000b0f02e","ios":"levelo://app?vid=b336a229-0bf1-452c-97d8-afd000b0f02e"},"vehicle_type_id":"4","last_reported":1746997720,"current_range_meters":20400,"station_id":"ce4bhs12rcd13ifvqhvg","pricing_plan_id":"cebpf4jnsgd1na2vs0mg"},{"bike_id":"c6f94e68-7c7b-43ef-8184-27f8965ee836","system_id":"levelo_inurba_marseille","lat":43.25137,"lon":5.40321,"is_reserved":false,"is_disabled":false,"rental_uris":{"android":"levelo://app?vid=c6f94e68-7c7b-43ef-8184-27f8965ee836","ios":"levelo://app?vid=c6f94e68-7c7b-43ef-8184-27f8965ee836"},"vehicle_type_id":"4","last_reported":1746997720,"current_range_meters":20800,"station_id":"ce4bhlh2rcd13ifvqgig","pricing_plan_id":"cebpf4jnsgd1na2vs0mg"},{"bike_id":"12fd312b-a236-4b26-878b-0432501ea6fd","system_id":"levelo_inurba_marseille","lat":43.30255,"lon":5.40067,"is_reserved":false,"is_disabled":false,"rental_uris":{"android":"levelo://app?vid=12fd312b-a236-4b26-878b-0432501ea6fd","ios":"levelo://app?vid=12fd312b-a236-4b26-878b-0432501ea6fd"},"vehicle_type_id":"4","last_reported":1746997720,"current_range_meters":22400,"station_id":"ce4bgvh2rcd13ifvqcs0","pricing_plan_id":"cebpf4jnsgd1na2vs0mg"},{"bike_id":"e6adc396-be82-4a12-97e0-95dd6dbe63be","system_id":"levelo_inurba_marseille","lat":43.26239,"lon":5.40487,"is_reserved":false,"is_disabled":false,"rental_uris":{"android":"levelo://app?vid=e6adc396-be82-4a12-97e0-95dd6dbe63be","ios":"levelo://app?vid=e6adc396-be82-4a12-97e0-95dd6dbe63be"},"vehicle_type_id":"4","last_reported":1746997720,"current_range_meters":22400,"station_id":"ce4bhmh2rcd13ifvqgmg","pricing_plan_id":"cebpf4jnsgd1na2vs0mg"},{"bike_id":"fd8f2c60-0cee-402f-86bd-bf9f27ea9ecc","system_id":"levelo_inurba_marseille","lat":43.28696,"lon":5.40005,"is_reserved":false,"is_disabled":false,"rental_uris":{"android":"levelo://app?vid=fd8f2c60-0cee-402f-86bd-bf9f27ea9ecc","ios":"levelo://app?vid=fd8f2c60-0cee-402f-86bd-bf9f27ea9ecc"},"vehicle_type_id":"4","last_reported":1746997720,"current_range_meters":22400,"station_id":"ce4bho92rcd13ifvqh3g","pricing_plan_id":"cebpf4jnsgd1na2vs0mg"},{"bike_id":"4975ccc1-965c-448c-87d9-ed0a16969927","system_id":"levelo_inurba_marseille","lat":43.29864,"lon":5.39743,"is_reserved":false,"is_disabled":false,"rental_uris":{"android":"levelo://app?vid=4975ccc1-965c-448c-87d9-ed0a16969927","ios":"levelo://app?vid=4975ccc1-965c-448c-87d9-ed0a16969927"},"vehicle_type_id":"4","last_reported":1746997720,"current_range_meters":22800,"station_id":"ce4bh0h2rcd13ifvqd50","pricing_plan_id":"cebpf4jnsgd1na2vs0mg"},{"bike_id":"1384212c-ae1d-451c-884b-41c1e2dd7822","system_id":"levelo_inurba_marseille","lat":43.30586,"lon":5.39364,"is_reserved":false,"is_disabled":false,"rental_uris":{"android":"levelo://app?vid=1384212c-ae1d-451c-884b-41c1e2dd7822","ios":"levelo://app?vid=1384212c-ae1d-451c-884b-41c1e2dd7822"},"vehicle_type_id":"4","last_reported":1746997720,"current_range_meters":22800,"station_id":"ce4bh0p2rcd13ifvqd80","pricing_plan_id":"cebpf4jnsgd1na2vs0mg"},{"bike_id":"e890cd41-1b81-4edc-9da4-3f7eabad83bb","system_id":"levelo_inurba_marseille","lat":43.29189,"lon":5.39319,"is_reserved":false,"is_disabled":false,"rental_uris":{"android":"levelo://app?vid=e890cd41-1b81-4edc-9da4-3f7eabad83bb","ios":"levelo://app?vid=e890cd41-1b81-4edc-9da4-3f7eabad83bb"},"vehicle_type_id":"4","last_reported":1746997720,"current_range_meters":22800,"station_id":"ce4bh192rcd13ifvqdd0","pricing_plan_id":"cebpf4jnsgd1na2vs0mg"},{"bike_id":"1f22ce9a-6e5e-4c64-bc01-4c3f0b7b0082","system_id":"levelo_inurba_marseille","lat":43.295388,"lon":5.394013,"is_reserved":false,"is_disabled":false,"rental_uris":{"android":"levelo://app?vid=1f22ce9a-6e5e-4c64-bc01-4c3f0b7b0082","ios":"levelo://app?vid=1f22ce9a-6e5e-4c64-bc01-4c3f0b7b0082"},"vehicle_type_id":"4","last_reported":1746997720,"current_range_meters":22800,"station_id":"ce4bh292rcd13ifvqdf0","pricing_plan_id":"cebpf4jnsgd1na2vs0mg"},{"bike_id":"bf8ab2b3-a5b8-4b44-9ccf-e0d7e23d9454","system_id":"levelo_inurba_marseille","lat":43.284604,"lon":5.358894,"is_reserved":false,"is_disabled":false,"rental_uris":{"android":"levelo://app?vid=bf8ab2b3-a5b8-4b44-9ccf-e0d7e23d9454","ios":"levelo://app?vid=bf8ab2b3-a5b8-4b44-9ccf-e0d7e23d9454"},"vehicle_type_id":"4","last_reported":1746997720,"current_range_meters":22800,"station_id":"ce4bhah2rcd13ifvqei0","pricing_plan_id":"cebpf4jnsgd1na2vs0mg"},{"bike_id":"b1045d83-6642-422b-a985-bd0dc7c72632","system_id":"levelo_inurba_marseille","lat":43.23151,"lon":5.4372,"is_reserved":false,"is_disabled":false,"rental_uris":{"android":"levelo://app?vid=b1045d83-6642-422b-a985-bd0dc7c72632","ios":"levelo://app?vid=b1045d83-6642-422b-a985-bd0dc7c72632"},"vehicle_type_id":"4","last_reported":1746997720,"current_range_meters":22800,"station_id":"ce4bhmp2rcd13ifvqgog","pricing_plan_id":"cebpf4jnsgd1na2vs0mg"},{"bike_id":"9452505f-01b8-4367-bd7d-95c55b501b8b","system_id":"levelo_inurba_marseille","lat":43.27516,"lon":5.4244,"is_reserved":false,"is_disabled":false,"rental_uris":{"android":"levelo://app?vid=9452505f-01b8-4367-bd7d-95c55b501b8b","ios":"levelo://app?vid=9452505f-01b8-4367-bd7d-95c55b501b8b"},"vehicle_type_id":"4","last_reported":1746997720,"current_range_meters":22800,"station_id":"ce4bhn92rcd13ifvqgrg","pricing_plan_id":"cebpf4jnsgd1na2vs0mg"},{"bike_id":"a54f9bbf-6ecf-4cab-b322-35c36879a63e","system_id":"levelo_inurba_marseille","lat":43.3148,"lon":5.37312,"is_reserved":false,"is_disabled":false,"rental_uris":{"android":"levelo://app?vid=a54f9bbf-6ecf-4cab-b322-35c36879a63e","ios":"levelo://app?vid=a54f9bbf-6ecf-4cab-b322-35c36879a63e"},"vehicle_type_id":"4","last_reported":1746997720,"current_range_meters":23200,"station_id":"ce4bgt12rcd13ifvqcd0","pricing_plan_id":"cebpf4jnsgd1na2vs0mg"},{"bike_id":"a7a014fc-96d5-4016-b4b6-4cd6cd64bc59","system_id":"levelo_inurba_marseille","lat":43.29261,"lon":5.40914,"is_reserved":false,"is_disabled":false,"rental_uris":{"android":"levelo://app?vid=a7a014fc-96d5-4016-b4b6-4cd6cd64bc59","ios":"levelo://app?vid=a7a014fc-96d5-4016-b4b6-4cd6cd64bc59"},"vehicle_type_id":"4","last_reported":1746997720,"current_range_meters":23200,"station_id":"ce4bh192rcd13ifvqdc0","pricing_plan_id":"cebpf4jnsgd1na2vs0mg"},{"bike_id":"b4bedfa0-7c0b-45b9-a680-c63f3bae97b9","system_id":"levelo_inurba_marseille","lat":43.28347,"lon":5.38105,"is_reserved":false,"is_disabled":false,"rental_uris":{"android":"levelo://app?vid=b4bedfa0-7c0b-45b9-a680-c63f3bae97b9","ios":"levelo://app?vid=b4bedfa0-7c0b-45b9-a680-c63f3bae97b9"},"vehicle_type_id":"4","last_reported":1746997720,"current_range_meters":23200,"station_id":"ce4bh412rcd13ifvqdr0","pricing_plan_id":"cebpf4jnsgd1na2vs0mg"},{"bike_id":"bf04c912-4efc-4db8-bc9f-08cba475759c","system_id":"levelo_inurba_marseille","lat":43.246457,"lon":5.388923,"is_reserved":false,"is_disabled":false,"rental_uris":{"android":"levelo://app?vid=bf04c912-4efc-4db8-bc9f-08cba475759c","ios":"levelo://app?vid=bf04c912-4efc-4db8-bc9f-08cba475759c"},"vehicle_type_id":"4","last_reported":1746997720,"current_range_meters":23200,"station_id":"ce4bhg12rcd13ifvqf60","pricing_plan_id":"cebpf4jnsgd1na2vs0mg"},{"bike_id":"36fd7042-62d9-493c-8a59-a394652c22d0","system_id":"levelo_inurba_marseille","lat":43.251151,"lon":5.403199,"is_reserved":false,"is_disabled":false,"rental_uris":{"android":"levelo://app?vid=36fd7042-62d9-493c-8a59-a394652c22d0","ios":"levelo://app?vid=36fd7042-62d9-493c-8a59-a394652c22d0"},"vehicle_type_id":"4","last_reported":1746997720,"current_range_meters":23200,"station_id":"ce4bhlh2rcd13ifvqgig","pricing_plan_id":"cebpf4jnsgd1na2vs0mg"},{"bike_id":"ad0cdf23-3974-4bf1-b2ea-09921100cd69","system_id":"levelo_inurba_marseille","lat":43.23171,"lon":5.39991,"is_reserved":false,"is_disabled":false,"rental_uris":{"android":"levelo://app?vid=ad0cdf23-3974-4bf1-b2ea-09921100cd69","ios":"levelo://app?vid=ad0cdf23-3974-4bf1-b2ea-09921100cd69"},"vehicle_type_id":"4","last_reported":1746997720,"current_range_meters":23200,"station_id":"ce4bhn12rcd13ifvqgqg","pricing_plan_id":"cebpf4jnsgd1na2vs0mg"},{"bike_id":"fcf9463b-401b-4157-a5a9-4c36ca7d015d","system_id":"levelo_inurba_marseille","lat":43.306747,"lon":5.37052,"is_reserved":false,"is_disabled":false,"rental_uris":{"android":"levelo://app?vid=fcf9463b-401b-4157-a5a9-4c36ca7d015d","ios":"levelo://app?vid=fcf9463b-401b-4157-a5a9-4c36ca7d015d"},"vehicle_type_id":"4","last_reported":1746997720,"current_range_meters":24000,"station_id":"","pricing_plan_id":"cebpf4jnsgd1na2vs0mg"},{"bike_id":"76bdf626-8fd3-415e-9581-aad85110d22f","system_id":"levelo_inurba_marseille","lat":43.30329,"lon":5.36918,"is_reserved":false,"is_disabled":false,"rental_uris":{"android":"levelo://app?vid=76bdf626-8fd3-415e-9581-aad85110d22f","ios":"levelo://app?vid=76bdf626-8fd3-415e-9581-aad85110d22f"},"vehicle_type_id":"4","last_reported":1746997720,"current_range_meters":24000,"station_id":"ce4bgqh2rcd13ifvqc5g","pricing_plan_id":"cebpf4jnsgd1na2vs0mg"},{"bike_id":"14ac466a-8628-46a8-8466-2d2847d108b4","system_id":"levelo_inurba_marseille","lat":43.30248,"lon":5.40079,"is_reserved":false,"is_disabled":false,"rental_uris":{"android":"levelo://app?vid=14ac466a-8628-46a8-8466-2d2847d108b4","ios":"levelo://app?vid=14ac466a-8628-46a8-8466-2d2847d108b4"},"vehicle_type_id":"4","last_reported":1746997720,"current_range_meters":24000,"station_id":"ce4bgvh2rcd13ifvqcs0","pricing_plan_id":"cebpf4jnsgd1na2vs0mg"},{"bike_id":"dd46afa1-67d4-40de-a777-de7ef5078d08","system_id":"levelo_inurba_marseille","lat":43.29023,"lon":5.38142,"is_reserved":false,"is_disabled":false,"rental_uris":{"android":"levelo://app?vid=dd46afa1-67d4-40de-a777-de7ef5078d08","ios":"levelo://app?vid=dd46afa1-67d4-40de-a777-de7ef5078d08"},"vehicle_type_id":"4","last_reported":1746997720,"current_range_meters":24000,"station_id":"ce4bh4p2rcd13ifvqe1g","pricing_plan_id":"cebpf4jnsgd1na2vs0mg"},{"bike_id":"94643c87-a910-464c-8beb-f9e9d8854450","system_id":"levelo_inurba_marseille","lat":43.28084,"lon":5.39654,"is_reserved":false,"is_disabled":false,"rental_uris":{"android":"levelo://app?vid=94643c87-a910-464c-8beb-f9e9d8854450","ios":"levelo://app?vid=94643c87-a910-464c-8beb-f9e9d8854450"},"vehicle_type_id":"4","last_reported":1746997720,"current_range_meters":24000,"station_id":"ce4bho12rcd13ifvqh2g","pricing_plan_id":"cebpf4jnsgd1na2vs0mg"},{"bike_id":"e63ab882-2423-4a54-9b70-bd378960c3f7","system_id":"levelo_inurba_marseille","lat":43.32662,"lon":5.40989,"is_reserved":false,"is_disabled":false,"rental_uris":{"android":"levelo://app?vid=e63ab882-2423-4a54-9b70-bd378960c3f7","ios":"levelo://app?vid=e63ab882-2423-4a54-9b70-bd378960c3f7"},"vehicle_type_id":"4","last_reported":1746997720,"current_range_meters":24000,"station_id":"ce4bhpp2rcd13ifvqhgg","pricing_plan_id":"cebpf4jnsgd1na2vs0mg"},{"bike_id":"f9005faa-02fb-4bb4-94a5-9d7f782355e7","system_id":"levelo_inurba_marseille","lat":43.31359,"lon":5.38504,"is_reserved":false,"is_disabled":false,"rental_uris":{"android":"levelo://app?vid=f9005faa-02fb-4bb4-94a5-9d7f782355e7","ios":"levelo://app?vid=f9005faa-02fb-4bb4-94a5-9d7f782355e7"},"vehicle_type_id":"4","last_reported":1746997720,"current_range_meters":24400,"station_id":"ce4bgt92rcd13ifvqcf0","pricing_plan_id":"cebpf4jnsgd1na2vs0mg"},{"bike_id":"e9616221-7423-4bfb-9840-191e8a239b7d","system_id":"levelo_inurba_marseille","lat":43.28402,"lon":5.3753,"is_reserved":false,"is_disabled":false,"rental_uris":{"android":"levelo://app?vid=e9616221-7423-4bfb-9840-191e8a239b7d","ios":"levelo://app?vid=e9616221-7423-4bfb-9840-191e8a239b7d"},"vehicle_type_id":"4","last_reported":1746997720,"current_range_meters":24400,"station_id":"ce4bh412rcd13ifvqds0","pricing_plan_id":"cebpf4jnsgd1na2vs0mg"},{"bike_id":"64e36ef4-0ad9-4728-b99a-0b36201b9967","system_id":"levelo_inurba_marseille","lat":43.305374,"lon":5.365502,"is_reserved":false,"is_disabled":false,"rental_uris":{"android":"levelo://app?vid=64e36ef4-0ad9-4728-b99a-0b36201b9967","ios":"levelo://app?vid=64e36ef4-0ad9-4728-b99a-0b36201b9967"},"vehicle_type_id":"4","last_reported":1746997720,"current_range_meters":24800,"station_id":"ce4bgs12rcd13ifvqcag","pricing_plan_id":"cebpf4jnsgd1na2vs0mg"},{"bike_id":"90e6c42d-2cbb-471b-a4a7-67ed571b6807","system_id":"levelo_inurba_marseille","lat":43.29196,"lon":5.39334,"is_reserved":false,"is_disabled":false,"rental_uris":{"android":"levelo://app?vid=90e6c42d-2cbb-471b-a4a7-67ed571b6807","ios":"levelo://app?vid=90e6c42d-2cbb-471b-a4a7-67ed571b6807"},"vehicle_type_id":"4","last_reported":1746997720,"current_range_meters":24800,"station_id":"ce4bh192rcd13ifvqdd0","pricing_plan_id":"cebpf4jnsgd1na2vs0mg"},{"bike_id":"bf0c4a52-4226-46a9-ba4c-0bc9d19b1429","system_id":"levelo_inurba_marseille","lat":43.29258,"lon":5.37608,"is_reserved":false,"is_disabled":false,"rental_uris":{"android":"levelo://app?vid=bf0c4a52-4226-46a9-ba4c-0bc9d19b1429","ios":"levelo://app?vid=bf0c4a52-4226-46a9-ba4c-0bc9d19b1429"},"vehicle_type_id":"4","last_reported":1746997720,"current_range_meters":25200,"station_id":"ce4bgi12rcd13ifvqb80","pricing_plan_id":"cebpf4jnsgd1na2vs0mg"},{"bike_id":"e387dba6-e784-4638-af80-a7c3d47f838d","system_id":"levelo_inurba_marseille","lat":43.31323,"lon":5.39694,"is_reserved":false,"is_disabled":false,"rental_uris":{"android":"levelo://app?vid=e387dba6-e784-4638-af80-a7c3d47f838d","ios":"levelo://app?vid=e387dba6-e784-4638-af80-a7c3d47f838d"},"vehicle_type_id":"4","last_reported":1746997720,"current_range_meters":25200,"station_id":"ce4bgvp2rcd13ifvqcu0","pricing_plan_id":"cebpf4jnsgd1na2vs0mg"},{"bike_id":"29e16365-5965-4ec3-8bb4-6648ec3e22c6","system_id":"levelo_inurba_marseille","lat":43.2582,"lon":5.39423,"is_reserved":false,"is_disabled":false,"rental_uris":{"android":"levelo://app?vid=29e16365-5965-4ec3-8bb4-6648ec3e22c6","ios":"levelo://app?vid=29e16365-5965-4ec3-8bb4-6648ec3e22c6"},"vehicle_type_id":"4","last_reported":1746997720,"current_range_meters":25200,"station_id":"ce4bhip2rcd13ifvqft0","pricing_plan_id":"cebpf4jnsgd1na2vs0mg"},{"bike_id":"3cefa205-9db3-403f-9466-99653a0c908b","system_id":"levelo_inurba_marseille","lat":43.25113,"lon":5.4032,"is_reserved":false,"is_disabled":false,"rental_uris":{"android":"levelo://app?vid=3cefa205-9db3-403f-9466-99653a0c908b","ios":"levelo://app?vid=3cefa205-9db3-403f-9466-99653a0c908b"},"vehicle_type_id":"4","last_reported":1746997720,"current_range_meters":25200,"station_id":"ce4bhlh2rcd13ifvqgig","pricing_plan_id":"cebpf4jnsgd1na2vs0mg"},{"bike_id":"81e56a83-0f38-4053-8247-0af6d61d1407","system_id":"levelo_inurba_marseille","lat":43.31881,"lon":5.40747,"is_reserved":false,"is_disabled":false,"rental_uris":{"android":"levelo://app?vid=81e56a83-0f38-4053-8247-0af6d61d1407","ios":"levelo://app?vid=81e56a83-0f38-4053-8247-0af6d61d1407"},"vehicle_type_id":"4","last_reported":1746997720,"current_range_meters":25200,"station_id":"ce4bhq12rcd13ifvqhig","pricing_plan_id":"cebpf4jnsgd1na2vs0mg"},{"bike_id":"0994dcf6-2f1e-46bb-b94c-71d5ec3dd243","system_id":"levelo_inurba_marseille","lat":43.268,"lon":5.40269,"is_reserved":false,"is_disabled":false,"rental_uris":{"android":"levelo://app?vid=0994dcf6-2f1e-46bb-b94c-71d5ec3dd243","ios":"levelo://app?vid=0994dcf6-2f1e-46bb-b94c-71d5ec3dd243"},"vehicle_type_id":"4","last_reported":1746997720,"current_range_meters":25200,"station_id":"ce501612rcd8frsf0b60","pricing_plan_id":"cebpf4jnsgd1na2vs0mg"},{"bike_id":"c7e49f24-e3ee-4dae-9794-2cd6113e9290","system_id":"levelo_inurba_marseille","lat":43.30595,"lon":5.37214,"is_reserved":false,"is_disabled":false,"rental_uris":{"android":"levelo://app?vid=c7e49f24-e3ee-4dae-9794-2cd6113e9290","ios":"levelo://app?vid=c7e49f24-e3ee-4dae-9794-2cd6113e9290"},"vehicle_type_id":"4","last_reported":1746997720,"current_range_meters":25600,"station_id":"","pricing_plan_id":"cebpf4jnsgd1na2vs0mg"},{"bike_id":"2bf711b2-1142-4c01-9fb1-74e4fed3e63b","system_id":"levelo_inurba_marseille","lat":43.30273,"lon":5.40085,"is_reserved":false,"is_disabled":false,"rental_uris":{"android":"levelo://app?vid=2bf711b2-1142-4c01-9fb1-74e4fed3e63b","ios":"levelo://app?vid=2bf711b2-1142-4c01-9fb1-74e4fed3e63b"},"vehicle_type_id":"4","last_reported":1746997720,"current_range_meters":25600,"station_id":"ce4bgvh2rcd13ifvqcs0","pricing_plan_id":"cebpf4jnsgd1na2vs0mg"},{"bike_id":"326b48fe-eb64-4ebd-98ba-17d6cbc04dfd","system_id":"levelo_inurba_marseille","lat":43.27173,"lon":5.40998,"is_reserved":false,"is_disabled":false,"rental_uris":{"android":"levelo://app?vid=326b48fe-eb64-4ebd-98ba-17d6cbc04dfd","ios":"levelo://app?vid=326b48fe-eb64-4ebd-98ba-17d6cbc04dfd"},"vehicle_type_id":"4","last_reported":1746997720,"current_range_meters":25600,"station_id":"ce4bhl12rcd13ifvqgf0","pricing_plan_id":"cebpf4jnsgd1na2vs0mg"},{"bike_id":"15c429a6-f364-4d0a-a6e5-8ce4b35ac061","system_id":"levelo_inurba_marseille","lat":43.287025,"lon":5.3999,"is_reserved":false,"is_disabled":false,"rental_uris":{"android":"levelo://app?vid=15c429a6-f364-4d0a-a6e5-8ce4b35ac061","ios":"levelo://app?vid=15c429a6-f364-4d0a-a6e5-8ce4b35ac061"},"vehicle_type_id":"4","last_reported":1746997720,"current_range_meters":25600,"station_id":"ce4bho92rcd13ifvqh3g","pricing_plan_id":"cebpf4jnsgd1na2vs0mg"},{"bike_id":"e3cd6c73-5b35-4790-aac4-22e9aabaa69e","system_id":"levelo_inurba_marseille","lat":43.304293,"lon":5.388887,"is_reserved":false,"is_disabled":false,"rental_uris":{"android":"levelo://app?vid=e3cd6c73-5b35-4790-aac4-22e9aabaa69e","ios":"levelo://app?vid=e3cd6c73-5b35-4790-aac4-22e9aabaa69e"},"vehicle_type_id":"4","last_reported":1746997720,"current_range_meters":26000,"station_id":"ce4bgk12rcd13ifvqbi0","pricing_plan_id":"cebpf4jnsgd1na2vs0mg"},{"bike_id":"5e3238a4-3e86-4f25-aaf4-02779f1803e2","system_id":"levelo_inurba_marseille","lat":43.30303,"lon":5.39203,"is_reserved":false,"is_disabled":false,"rental_uris":{"android":"levelo://app?vid=5e3238a4-3e86-4f25-aaf4-02779f1803e2","ios":"levelo://app?vid=5e3238a4-3e86-4f25-aaf4-02779f1803e2"},"vehicle_type_id":"4","last_reported":1746997720,"current_range_meters":26000,"station_id":"ce4bgkh2rcd13ifvqbk0","pricing_plan_id":"cebpf4jnsgd1na2vs0mg"},{"bike_id":"5c3b95e8-97d2-4ffe-8b68-313f931335cf","system_id":"levelo_inurba_marseille","lat":43.30177,"lon":5.36614,"is_reserved":false,"is_disabled":false,"rental_uris":{"android":"levelo://app?vid=5c3b95e8-97d2-4ffe-8b68-313f931335cf","ios":"levelo://app?vid=5c3b95e8-97d2-4ffe-8b68-313f931335cf"},"vehicle_type_id":"4","last_reported":1746997720,"current_range_meters":26000,"station_id":"ce4bgrh2rcd13ifvqc8g","pricing_plan_id":"cebpf4jnsgd1na2vs0mg"},{"bike_id":"f8820f41-7d36-42cb-bff2-4c094299c3cd","system_id":"levelo_inurba_marseille","lat":43.30798,"lon":5.38151,"is_reserved":false,"is_disabled":false,"rental_uris":{"android":"levelo://app?vid=f8820f41-7d36-42cb-bff2-4c094299c3cd","ios":"levelo://app?vid=f8820f41-7d36-42cb-bff2-4c094299c3cd"},"vehicle_type_id":"4","last_reported":1746997720,"current_range_meters":26000,"station_id":"ce4bgt12rcd13ifvqce0","pricing_plan_id":"cebpf4jnsgd1na2vs0mg"},{"bike_id":"be360f27-a14f-4a1a-be7b-c6c1632d61f1","system_id":"levelo_inurba_marseille","lat":43.29197,"lon":5.39318,"is_reserved":false,"is_disabled":false,"rental_uris":{"android":"levelo://app?vid=be360f27-a14f-4a1a-be7b-c6c1632d61f1","ios":"levelo://app?vid=be360f27-a14f-4a1a-be7b-c6c1632d61f1"},"vehicle_type_id":"4","last_reported":1746997720,"current_range_meters":26000,"station_id":"ce4bh192rcd13ifvqdd0","pricing_plan_id":"cebpf4jnsgd1na2vs0mg"},{"bike_id":"90bc692b-24d3-4076-99e6-3e95c95a3c14","system_id":"levelo_inurba_marseille","lat":43.298687,"lon":5.397315,"is_reserved":false,"is_disabled":false,"rental_uris":{"android":"levelo://app?vid=90bc692b-24d3-4076-99e6-3e95c95a3c14","ios":"levelo://app?vid=90bc692b-24d3-4076-99e6-3e95c95a3c14"},"vehicle_type_id":"4","last_reported":1746997720,"current_range_meters":26800,"station_id":"ce4bh0h2rcd13ifvqd50","pricing_plan_id":"cebpf4jnsgd1na2vs0mg"},{"bike_id":"010945c0-9e1e-444b-bbcc-86fe469cc7bb","system_id":"levelo_inurba_marseille","lat":43.29874,"lon":5.39733,"is_reserved":false,"is_disabled":false,"rental_uris":{"android":"levelo://app?vid=010945c0-9e1e-444b-bbcc-86fe469cc7bb","ios":"levelo://app?vid=010945c0-9e1e-444b-bbcc-86fe469cc7bb"},"vehicle_type_id":"4","last_reported":1746997720,"current_range_meters":26800,"station_id":"ce4bh0h2rcd13ifvqd50","pricing_plan_id":"cebpf4jnsgd1na2vs0mg"},{"bike_id":"6f9dc125-ca04-4bf7-a364-15381009f19b","system_id":"levelo_inurba_marseille","lat":43.30635,"lon":5.40079,"is_reserved":false,"is_disabled":false,"rental_uris":{"android":"levelo://app?vid=6f9dc125-ca04-4bf7-a364-15381009f19b","ios":"levelo://app?vid=6f9dc125-ca04-4bf7-a364-15381009f19b"},"vehicle_type_id":"4","last_reported":1746997720,"current_range_meters":26800,"station_id":"ce4bh112rcd13ifvqda0","pricing_plan_id":"cebpf4jnsgd1na2vs0mg"},{"bike_id":"7d1e6df6-cc8c-41a0-8b07-dffd8111f276","system_id":"levelo_inurba_marseille","lat":43.3176,"lon":5.39002,"is_reserved":false,"is_disabled":false,"rental_uris":{"android":"levelo://app?vid=7d1e6df6-cc8c-41a0-8b07-dffd8111f276","ios":"levelo://app?vid=7d1e6df6-cc8c-41a0-8b07-dffd8111f276"},"vehicle_type_id":"4","last_reported":1746997720,"current_range_meters":26800,"station_id":"ce4bhqp2rcd13ifvqhng","pricing_plan_id":"cebpf4jnsgd1na2vs0mg"},{"bike_id":"2aff00df-3d4f-4caa-90ca-4c8fb72f5c08","system_id":"levelo_inurba_marseille","lat":43.31309,"lon":5.37325,"is_reserved":false,"is_disabled":false,"rental_uris":{"android":"levelo://app?vid=2aff00df-3d4f-4caa-90ca-4c8fb72f5c08","ios":"levelo://app?vid=2aff00df-3d4f-4caa-90ca-4c8fb72f5c08"},"vehicle_type_id":"4","last_reported":1746997720,"current_range_meters":27200,"station_id":"","pricing_plan_id":"cebpf4jnsgd1na2vs0mg"},{"bike_id":"814acf07-2798-4337-bf25-14e3e8912a0a","system_id":"levelo_inurba_marseille","lat":43.30789,"lon":5.37641,"is_reserved":false,"is_disabled":false,"rental_uris":{"android":"levelo://app?vid=814acf07-2798-4337-bf25-14e3e8912a0a","ios":"levelo://app?vid=814acf07-2798-4337-bf25-14e3e8912a0a"},"vehicle_type_id":"4","last_reported":1746997720,"current_range_meters":27200,"station_id":"ce4bgv92rcd13ifvqcq0","pricing_plan_id":"cebpf4jnsgd1na2vs0mg"},{"bike_id":"6fbdccf1-5524-4b12-ad0e-de515cab4423","system_id":"levelo_inurba_marseille","lat":43.303,"lon":5.39654,"is_reserved":false,"is_disabled":false,"rental_uris":{"android":"levelo://app?vid=6fbdccf1-5524-4b12-ad0e-de515cab4423","ios":"levelo://app?vid=6fbdccf1-5524-4b12-ad0e-de515cab4423"},"vehicle_type_id":"4","last_reported":1746997720,"current_range_meters":27200,"station_id":"ce4bgvh2rcd13ifvqcs0","pricing_plan_id":"cebpf4jnsgd1na2vs0mg"},{"bike_id":"09f04a62-ce78-48cf-8cdf-38bb2bf3eac8","system_id":"levelo_inurba_marseille","lat":43.29871,"lon":5.39735,"is_reserved":false,"is_disabled":false,"rental_uris":{"android":"levelo://app?vid=09f04a62-ce78-48cf-8cdf-38bb2bf3eac8","ios":"levelo://app?vid=09f04a62-ce78-48cf-8cdf-38bb2bf3eac8"},"vehicle_type_id":"4","last_reported":1746997720,"current_range_meters":27200,"station_id":"ce4bh0h2rcd13ifvqd50","pricing_plan_id":"cebpf4jnsgd1na2vs0mg"},{"bike_id":"c2f46fcf-2d98-4a53-915b-9b0e7a792171","system_id":"levelo_inurba_marseille","lat":43.26569,"lon":5.39022,"is_reserved":false,"is_disabled":false,"rental_uris":{"android":"levelo://app?vid=c2f46fcf-2d98-4a53-915b-9b0e7a792171","ios":"levelo://app?vid=c2f46fcf-2d98-4a53-915b-9b0e7a792171"},"vehicle_type_id":"4","last_reported":1746997720,"current_range_meters":27200,"station_id":"ce4bhe12rcd13ifvqf30","pricing_plan_id":"cebpf4jnsgd1na2vs0mg"},{"bike_id":"254cc13b-da4f-4dfa-a9e5-6f196c9df249","system_id":"levelo_inurba_marseille","lat":43.28713,"lon":5.39982,"is_reserved":false,"is_disabled":false,"rental_uris":{"android":"levelo://app?vid=254cc13b-da4f-4dfa-a9e5-6f196c9df249","ios":"levelo://app?vid=254cc13b-da4f-4dfa-a9e5-6f196c9df249"},"vehicle_type_id":"4","last_reported":1746997720,"current_range_meters":27200,"station_id":"ce4bho92rcd13ifvqh3g","pricing_plan_id":"cebpf4jnsgd1na2vs0mg"},{"bike_id":"0853a619-f701-469f-ab78-06d9b10b2d6a","system_id":"levelo_inurba_marseille","lat":43.293038,"lon":5.374651,"is_reserved":false,"is_disabled":false,"rental_uris":{"android":"levelo://app?vid=0853a619-f701-469f-ab78-06d9b10b2d6a","ios":"levelo://app?vid=0853a619-f701-469f-ab78-06d9b10b2d6a"},"vehicle_type_id":"4","last_reported":1746997720,"current_range_meters":27600,"station_id":"ce4bgi12rcd13ifvqb70","pricing_plan_id":"cebpf4jnsgd1na2vs0mg"},{"bike_id":"d02e6451-e516-4f8c-9a29-efbb81ab4a82","system_id":"levelo_inurba_marseille","lat":43.30436,"lon":5.38894,"is_reserved":false,"is_disabled":false,"rental_uris":{"android":"levelo://app?vid=d02e6451-e516-4f8c-9a29-efbb81ab4a82","ios":"levelo://app?vid=d02e6451-e516-4f8c-9a29-efbb81ab4a82"},"vehicle_type_id":"4","last_reported":1746997720,"current_range_meters":27600,"station_id":"ce4bgk12rcd13ifvqbi0","pricing_plan_id":"cebpf4jnsgd1na2vs0mg"},{"bike_id":"ab507214-24b8-4d16-a543-2faf1c61f07a","system_id":"levelo_inurba_marseille","lat":43.30884,"lon":5.39631,"is_reserved":false,"is_disabled":false,"rental_uris":{"android":"levelo://app?vid=ab507214-24b8-4d16-a543-2faf1c61f07a","ios":"levelo://app?vid=ab507214-24b8-4d16-a543-2faf1c61f07a"},"vehicle_type_id":"4","last_reported":1746997720,"current_range_meters":27600,"station_id":"ce4bh012rcd13ifvqcv0","pricing_plan_id":"cebpf4jnsgd1na2vs0mg"},{"bike_id":"eb5e6919-a79e-41ba-a306-c506a719a5ca","system_id":"levelo_inurba_marseille","lat":43.29892,"lon":5.43671,"is_reserved":false,"is_disabled":false,"rental_uris":{"android":"levelo://app?vid=eb5e6919-a79e-41ba-a306-c506a719a5ca","ios":"levelo://app?vid=eb5e6919-a79e-41ba-a306-c506a719a5ca"},"vehicle_type_id":"4","last_reported":1746997720,"current_range_meters":27600,"station_id":"ce4bhpp2rcd13ifvqhfg","pricing_plan_id":"cebpf4jnsgd1na2vs0mg"},{"bike_id":"1806c447-b7d4-41de-ab1b-359589127fc7","system_id":"levelo_inurba_marseille","lat":43.32338,"lon":5.40617,"is_reserved":false,"is_disabled":false,"rental_uris":{"android":"levelo://app?vid=1806c447-b7d4-41de-ab1b-359589127fc7","ios":"levelo://app?vid=1806c447-b7d4-41de-ab1b-359589127fc7"},"vehicle_type_id":"4","last_reported":1746997720,"current_range_meters":27600,"station_id":"ce4bhq92rcd13ifvqhjg","pricing_plan_id":"cebpf4jnsgd1na2vs0mg"},{"bike_id":"3ca74435-6175-4a3b-8ea7-18f50137d73a","system_id":"levelo_inurba_marseille","lat":43.299853,"lon":5.371748,"is_reserved":false,"is_disabled":false,"rental_uris":{"android":"levelo://app?vid=3ca74435-6175-4a3b-8ea7-18f50137d73a","ios":"levelo://app?vid=3ca74435-6175-4a3b-8ea7-18f50137d73a"},"vehicle_type_id":"4","last_reported":1746997720,"current_range_meters":28000,"station_id":"ce4bgr92rcd13ifvqc7g","pricing_plan_id":"cebpf4jnsgd1na2vs0mg"},{"bike_id":"fb170b37-9bcb-40f4-a8f0-69b9462bb14c","system_id":"levelo_inurba_marseille","lat":43.31358,"lon":5.38497,"is_reserved":false,"is_disabled":false,"rental_uris":{"android":"levelo://app?vid=fb170b37-9bcb-40f4-a8f0-69b9462bb14c","ios":"levelo://app?vid=fb170b37-9bcb-40f4-a8f0-69b9462bb14c"},"vehicle_type_id":"4","last_reported":1746997720,"current_range_meters":28000,"station_id":"ce4bgt92rcd13ifvqcf0","pricing_plan_id":"cebpf4jnsgd1na2vs0mg"},{"bike_id":"0e3c21c6-ac11-441e-baec-fca1355d4c96","system_id":"levelo_inurba_marseille","lat":43.30252,"lon":5.40091,"is_reserved":false,"is_disabled":false,"rental_uris":{"android":"levelo://app?vid=0e3c21c6-ac11-441e-baec-fca1355d4c96","ios":"levelo://app?vid=0e3c21c6-ac11-441e-baec-fca1355d4c96"},"vehicle_type_id":"4","last_reported":1746997720,"current_range_meters":28000,"station_id":"ce4bgvh2rcd13ifvqcs0","pricing_plan_id":"cebpf4jnsgd1na2vs0mg"},{"bike_id":"2c2c42db-b911-491f-8432-39de642c84c5","system_id":"levelo_inurba_marseille","lat":43.28577,"lon":5.39504,"is_reserved":false,"is_disabled":false,"rental_uris":{"android":"levelo://app?vid=2c2c42db-b911-491f-8432-39de642c84c5","ios":"levelo://app?vid=2c2c42db-b911-491f-8432-39de642c84c5"},"vehicle_type_id":"4","last_reported":1746997720,"current_range_meters":28000,"station_id":"ce4bh292rcd13ifvqdg0","pricing_plan_id":"cebpf4jnsgd1na2vs0mg"},{"bike_id":"e5d04bb5-6f9b-4008-a169-d5fa09ed4168","system_id":"levelo_inurba_marseille","lat":43.29089,"lon":5.38159,"is_reserved":false,"is_disabled":false,"rental_uris":{"android":"levelo://app?vid=e5d04bb5-6f9b-4008-a169-d5fa09ed4168","ios":"levelo://app?vid=e5d04bb5-6f9b-4008-a169-d5fa09ed4168"},"vehicle_type_id":"4","last_reported":1746997720,"current_range_meters":28000,"station_id":"ce4bh512rcd13ifvqe2g","pricing_plan_id":"cebpf4jnsgd1na2vs0mg"},{"bike_id":"1297402a-0699-4324-a067-80a0da342625","system_id":"levelo_inurba_marseille","lat":43.2575,"lon":5.41094,"is_reserved":false,"is_disabled":false,"rental_uris":{"android":"levelo://app?vid=1297402a-0699-4324-a067-80a0da342625","ios":"levelo://app?vid=1297402a-0699-4324-a067-80a0da342625"},"vehicle_type_id":"4","last_reported":1746997720,"current_range_meters":28000,"station_id":"ce4bhkp2rcd13ifvqgd0","pricing_plan_id":"cebpf4jnsgd1na2vs0mg"},{"bike_id":"460de707-94bc-4939-a26c-73b40618a709","system_id":"levelo_inurba_marseille","lat":43.262287,"lon":5.404543,"is_reserved":false,"is_disabled":false,"rental_uris":{"android":"levelo://app?vid=460de707-94bc-4939-a26c-73b40618a709","ios":"levelo://app?vid=460de707-94bc-4939-a26c-73b40618a709"},"vehicle_type_id":"4","last_reported":1746997720,"current_range_meters":28000,"station_id":"ce4bhmh2rcd13ifvqgmg","pricing_plan_id":"cebpf4jnsgd1na2vs0mg"},{"bike_id":"dbda3e44-4ce5-48ca-a82c-b63a66756731","system_id":"levelo_inurba_marseille","lat":43.21749,"lon":5.34603,"is_reserved":false,"is_disabled":false,"rental_uris":{"android":"levelo://app?vid=dbda3e44-4ce5-48ca-a82c-b63a66756731","ios":"levelo://app?vid=dbda3e44-4ce5-48ca-a82c-b63a66756731"},"vehicle_type_id":"4","last_reported":1746997720,"current_range_meters":28000,"station_id":"st_cvj6r9ubvosntc0bgbag","pricing_plan_id":"cebpf4jnsgd1na2vs0mg"},{"bike_id":"e0caebd7-be2a-48cd-b4ce-db1354aee27e","system_id":"levelo_inurba_marseille","lat":43.299745,"lon":5.371795,"is_reserved":false,"is_disabled":false,"rental_uris":{"android":"levelo://app?vid=e0caebd7-be2a-48cd-b4ce-db1354aee27e","ios":"levelo://app?vid=e0caebd7-be2a-48cd-b4ce-db1354aee27e"},"vehicle_type_id":"4","last_reported":1746997720,"current_range_meters":28400,"station_id":"ce4bgr92rcd13ifvqc7g","pricing_plan_id":"cebpf4jnsgd1na2vs0mg"},{"bike_id":"ea92c411-d560-4476-833d-81d8858f3a16","system_id":"levelo_inurba_marseille","lat":43.298676,"lon":5.397253,"is_reserved":false,"is_disabled":false,"rental_uris":{"android":"levelo://app?vid=ea92c411-d560-4476-833d-81d8858f3a16","ios":"levelo://app?vid=ea92c411-d560-4476-833d-81d8858f3a16"},"vehicle_type_id":"4","last_reported":1746997720,"current_range_meters":28400,"station_id":"ce4bh0h2rcd13ifvqd50","pricing_plan_id":"cebpf4jnsgd1na2vs0mg"},{"bike_id":"e3096bce-969d-4ff6-a41d-8467b4071cba","system_id":"levelo_inurba_marseille","lat":43.27836,"lon":5.39212,"is_reserved":false,"is_disabled":false,"rental_uris":{"android":"levelo://app?vid=e3096bce-969d-4ff6-a41d-8467b4071cba","ios":"levelo://app?vid=e3096bce-969d-4ff6-a41d-8467b4071cba"},"vehicle_type_id":"4","last_reported":1746997720,"current_range_meters":28400,"station_id":"ce4bhjp2rcd13ifvqga0","pricing_plan_id":"cebpf4jnsgd1na2vs0mg"},{"bike_id":"e4a235de-037a-47b2-b9db-c484d338a3fb","system_id":"levelo_inurba_marseille","lat":43.24075,"lon":5.3776,"is_reserved":false,"is_disabled":false,"rental_uris":{"android":"levelo://app?vid=e4a235de-037a-47b2-b9db-c484d338a3fb","ios":"levelo://app?vid=e4a235de-037a-47b2-b9db-c484d338a3fb"},"vehicle_type_id":"4","last_reported":1746997720,"current_range_meters":28400,"station_id":"ce4bhnp2rcd13ifvqgvg","pricing_plan_id":"cebpf4jnsgd1na2vs0mg"},{"bike_id":"9a6c67d6-6dd0-42ec-ba7a-5d03082fdbea","system_id":"levelo_inurba_marseille","lat":43.28705,"lon":5.39986,"is_reserved":false,"is_disabled":false,"rental_uris":{"android":"levelo://app?vid=9a6c67d6-6dd0-42ec-ba7a-5d03082fdbea","ios":"levelo://app?vid=9a6c67d6-6dd0-42ec-ba7a-5d03082fdbea"},"vehicle_type_id":"4","last_reported":1746997720,"current_range_meters":28400,"station_id":"ce4bho92rcd13ifvqh3g","pricing_plan_id":"cebpf4jnsgd1na2vs0mg"},{"bike_id":"c8111f4c-b59b-4e93-8b37-2677246c261e","system_id":"levelo_inurba_marseille","lat":43.2971,"lon":5.377,"is_reserved":false,"is_disabled":false,"rental_uris":{"android":"levelo://app?vid=c8111f4c-b59b-4e93-8b37-2677246c261e","ios":"levelo://app?vid=c8111f4c-b59b-4e93-8b37-2677246c261e"},"vehicle_type_id":"4","last_reported":1746997720,"current_range_meters":28800,"station_id":"ce4bgkh2rcd13ifvqbl0","pricing_plan_id":"cebpf4jnsgd1na2vs0mg"},{"bike_id":"8eb50512-73b2-46d6-9f67-56aaa2c034c5","system_id":"levelo_inurba_marseille","lat":43.30935,"lon":5.40141,"is_reserved":false,"is_disabled":false,"rental_uris":{"android":"levelo://app?vid=8eb50512-73b2-46d6-9f67-56aaa2c034c5","ios":"levelo://app?vid=8eb50512-73b2-46d6-9f67-56aaa2c034c5"},"vehicle_type_id":"4","last_reported":1746997720,"current_range_meters":28800,"station_id":"ce4bgvp2rcd13ifvqct0","pricing_plan_id":"cebpf4jnsgd1na2vs0mg"},{"bike_id":"cb304cb7-1699-4d3a-88b8-b071b0e1f882","system_id":"levelo_inurba_marseille","lat":43.29566,"lon":5.39969,"is_reserved":false,"is_disabled":false,"rental_uris":{"android":"levelo://app?vid=cb304cb7-1699-4d3a-88b8-b071b0e1f882","ios":"levelo://app?vid=cb304cb7-1699-4d3a-88b8-b071b0e1f882"},"vehicle_type_id":"4","last_reported":1746997720,"current_range_meters":28800,"station_id":"ce4bh312rcd13ifvqdj0","pricing_plan_id":"cebpf4jnsgd1na2vs0mg"},{"bike_id":"2dae25c6-1f11-45d6-ac07-61f562fb497a","system_id":"levelo_inurba_marseille","lat":43.260321,"lon":5.375513,"is_reserved":false,"is_disabled":false,"rental_uris":{"android":"levelo://app?vid=2dae25c6-1f11-45d6-ac07-61f562fb497a","ios":"levelo://app?vid=2dae25c6-1f11-45d6-ac07-61f562fb497a"},"vehicle_type_id":"4","last_reported":1746997720,"current_range_meters":28800,"station_id":"ce4bhgh2rcd13ifvqfa0","pricing_plan_id":"cebpf4jnsgd1na2vs0mg"},{"bike_id":"3d20e837-b1f5-4377-bcf1-94f2d57a4b40","system_id":"levelo_inurba_marseille","lat":43.26199,"lon":5.37449,"is_reserved":false,"is_disabled":false,"rental_uris":{"android":"levelo://app?vid=3d20e837-b1f5-4377-bcf1-94f2d57a4b40","ios":"levelo://app?vid=3d20e837-b1f5-4377-bcf1-94f2d57a4b40"},"vehicle_type_id":"4","last_reported":1746997720,"current_range_meters":28800,"station_id":"ce4bhgp2rcd13ifvqfc0","pricing_plan_id":"cebpf4jnsgd1na2vs0mg"},{"bike_id":"f202ef3b-390d-4222-9c53-b7b067de17c2","system_id":"levelo_inurba_marseille","lat":43.284385,"lon":5.391932,"is_reserved":false,"is_disabled":false,"rental_uris":{"android":"levelo://app?vid=f202ef3b-390d-4222-9c53-b7b067de17c2","ios":"levelo://app?vid=f202ef3b-390d-4222-9c53-b7b067de17c2"},"vehicle_type_id":"4","last_reported":1746997720,"current_range_meters":28800,"station_id":"ce4bhoh2rcd13ifvqh5g","pricing_plan_id":"cebpf4jnsgd1na2vs0mg"},{"bike_id":"4c553312-7a56-4420-94be-4db995548186","system_id":"levelo_inurba_marseille","lat":43.29343,"lon":5.43435,"is_reserved":false,"is_disabled":false,"rental_uris":{"android":"levelo://app?vid=4c553312-7a56-4420-94be-4db995548186","ios":"levelo://app?vid=4c553312-7a56-4420-94be-4db995548186"},"vehicle_type_id":"4","last_reported":1746997720,"current_range_meters":29600,"station_id":"","pricing_plan_id":"cebpf4jnsgd1na2vs0mg"},{"bike_id":"8d280afa-9953-4524-8857-a23231819228","system_id":"levelo_inurba_marseille","lat":43.28855,"lon":5.39309,"is_reserved":false,"is_disabled":false,"rental_uris":{"android":"levelo://app?vid=8d280afa-9953-4524-8857-a23231819228","ios":"levelo://app?vid=8d280afa-9953-4524-8857-a23231819228"},"vehicle_type_id":"4","last_reported":1746997720,"current_range_meters":29600,"station_id":"ce4bh2p2rcd13ifvqdi0","pricing_plan_id":"cebpf4jnsgd1na2vs0mg"},{"bike_id":"70ce2657-bd55-46b4-8bfe-4d670279c109","system_id":"levelo_inurba_marseille","lat":43.33612,"lon":5.41032,"is_reserved":false,"is_disabled":false,"rental_uris":{"android":"levelo://app?vid=70ce2657-bd55-46b4-8bfe-4d670279c109","ios":"levelo://app?vid=70ce2657-bd55-46b4-8bfe-4d670279c109"},"vehicle_type_id":"4","last_reported":1746997720,"current_range_meters":29600,"station_id":"ce4bhqh2rcd13ifvqhmg","pricing_plan_id":"cebpf4jnsgd1na2vs0mg"},{"bike_id":"8ca7f4be-37fb-47ec-8f0d-00dcb483855b","system_id":"levelo_inurba_marseille","lat":43.28284,"lon":5.42383,"is_reserved":false,"is_disabled":false,"rental_uris":{"android":"levelo://app?vid=8ca7f4be-37fb-47ec-8f0d-00dcb483855b","ios":"levelo://app?vid=8ca7f4be-37fb-47ec-8f0d-00dcb483855b"},"vehicle_type_id":"4","last_reported":1746997720,"current_range_meters":30000,"station_id":"","pricing_plan_id":"cebpf4jnsgd1na2vs0mg"},{"bike_id":"af98b76d-e648-4902-b9de-1b08eb15696e","system_id":"levelo_inurba_marseille","lat":43.27674,"lon":5.38883,"is_reserved":false,"is_disabled":false,"rental_uris":{"android":"levelo://app?vid=af98b76d-e648-4902-b9de-1b08eb15696e","ios":"levelo://app?vid=af98b76d-e648-4902-b9de-1b08eb15696e"},"vehicle_type_id":"4","last_reported":1746997720,"current_range_meters":30000,"station_id":"ce4bhi12rcd13ifvqfo0","pricing_plan_id":"cebpf4jnsgd1na2vs0mg"},{"bike_id":"c1804f9f-9f2d-4342-98f5-bc656b529f81","system_id":"levelo_inurba_marseille","lat":43.27072,"lon":5.42281,"is_reserved":false,"is_disabled":false,"rental_uris":{"android":"levelo://app?vid=c1804f9f-9f2d-4342-98f5-bc656b529f81","ios":"levelo://app?vid=c1804f9f-9f2d-4342-98f5-bc656b529f81"},"vehicle_type_id":"4","last_reported":1746997720,"current_range_meters":30000,"station_id":"ce4bhk92rcd13ifvqgb0","pricing_plan_id":"cebpf4jnsgd1na2vs0mg"},{"bike_id":"1aeff0df-0e55-45ad-ba82-77e85ed583ca","system_id":"levelo_inurba_marseille","lat":43.32473,"lon":5.36554,"is_reserved":false,"is_disabled":false,"rental_uris":{"android":"levelo://app?vid=1aeff0df-0e55-45ad-ba82-77e85ed583ca","ios":"levelo://app?vid=1aeff0df-0e55-45ad-ba82-77e85ed583ca"},"vehicle_type_id":"4","last_reported":1746997720,"current_range_meters":30000,"station_id":"ce4bhs12rcd13ifvqhvg","pricing_plan_id":"cebpf4jnsgd1na2vs0mg"},{"bike_id":"5d1c7392-c228-4111-863e-5d6738df4261","system_id":"levelo_inurba_marseille","lat":43.27894,"lon":5.37997,"is_reserved":false,"is_disabled":false,"rental_uris":{"android":"levelo://app?vid=5d1c7392-c228-4111-863e-5d6738df4261","ios":"levelo://app?vid=5d1c7392-c228-4111-863e-5d6738df4261"},"vehicle_type_id":"4","last_reported":1746997720,"current_range_meters":30400,"station_id":"ce4bhf92rcd13ifvqf50","pricing_plan_id":"cebpf4jnsgd1na2vs0mg"},{"bike_id":"39ef88b7-4503-4f42-926d-fbb958a9dc24","system_id":"levelo_inurba_marseille","lat":43.27171,"lon":5.40994,"is_reserved":false,"is_disabled":false,"rental_uris":{"android":"levelo://app?vid=39ef88b7-4503-4f42-926d-fbb958a9dc24","ios":"levelo://app?vid=39ef88b7-4503-4f42-926d-fbb958a9dc24"},"vehicle_type_id":"4","last_reported":1746997720,"current_range_meters":30400,"station_id":"ce4bhl12rcd13ifvqgf0","pricing_plan_id":"cebpf4jnsgd1na2vs0mg"},{"bike_id":"e28853be-a8af-4d81-9bc0-d5634df77fba","system_id":"levelo_inurba_marseille","lat":43.28422,"lon":5.39188,"is_reserved":false,"is_disabled":false,"rental_uris":{"android":"levelo://app?vid=e28853be-a8af-4d81-9bc0-d5634df77fba","ios":"levelo://app?vid=e28853be-a8af-4d81-9bc0-d5634df77fba"},"vehicle_type_id":"4","last_reported":1746997720,"current_range_meters":30400,"station_id":"ce4bhoh2rcd13ifvqh5g","pricing_plan_id":"cebpf4jnsgd1na2vs0mg"},{"bike_id":"df21aa91-29ce-4b1e-83f2-572a1fa3f9dd","system_id":"levelo_inurba_marseille","lat":43.34142,"lon":5.40901,"is_reserved":false,"is_disabled":false,"rental_uris":{"android":"levelo://app?vid=df21aa91-29ce-4b1e-83f2-572a1fa3f9dd","ios":"levelo://app?vid=df21aa91-29ce-4b1e-83f2-572a1fa3f9dd"},"vehicle_type_id":"4","last_reported":1746997720,"current_range_meters":30400,"station_id":"ce4bhqh2rcd13ifvqhlg","pricing_plan_id":"cebpf4jnsgd1na2vs0mg"},{"bike_id":"cdc62916-98c5-4459-a4cd-4b71ee75b9fc","system_id":"levelo_inurba_marseille","lat":43.26,"lon":5.41752,"is_reserved":false,"is_disabled":false,"rental_uris":{"android":"levelo://app?vid=cdc62916-98c5-4459-a4cd-4b71ee75b9fc","ios":"levelo://app?vid=cdc62916-98c5-4459-a4cd-4b71ee75b9fc"},"vehicle_type_id":"4","last_reported":1746997720,"current_range_meters":30800,"station_id":"","pricing_plan_id":"cebpf4jnsgd1na2vs0mg"},{"bike_id":"92036dee-3f89-4252-906c-8cfbbaa6630b","system_id":"levelo_inurba_marseille","lat":43.30885,"lon":5.39652,"is_reserved":false,"is_disabled":false,"rental_uris":{"android":"levelo://app?vid=92036dee-3f89-4252-906c-8cfbbaa6630b","ios":"levelo://app?vid=92036dee-3f89-4252-906c-8cfbbaa6630b"},"vehicle_type_id":"4","last_reported":1746997720,"current_range_meters":30800,"station_id":"ce4bh012rcd13ifvqcv0","pricing_plan_id":"cebpf4jnsgd1na2vs0mg"},{"bike_id":"62c5f680-c0e2-492f-9f41-2fc5fd34108b","system_id":"levelo_inurba_marseille","lat":43.31526,"lon":5.38027,"is_reserved":false,"is_disabled":false,"rental_uris":{"android":"levelo://app?vid=62c5f680-c0e2-492f-9f41-2fc5fd34108b","ios":"levelo://app?vid=62c5f680-c0e2-492f-9f41-2fc5fd34108b"},"vehicle_type_id":"4","last_reported":1746997720,"current_range_meters":30800,"station_id":"ce4bhsp2rcd13ifvqi50","pricing_plan_id":"cebpf4jnsgd1na2vs0mg"},{"bike_id":"2690d7b3-4cbf-4754-9dec-f9bfe5c72cd4","system_id":"levelo_inurba_marseille","lat":43.29034,"lon":5.39957,"is_reserved":false,"is_disabled":false,"rental_uris":{"android":"levelo://app?vid=2690d7b3-4cbf-4754-9dec-f9bfe5c72cd4","ios":"levelo://app?vid=2690d7b3-4cbf-4754-9dec-f9bfe5c72cd4"},"vehicle_type_id":"4","last_reported":1746997720,"current_range_meters":31200,"station_id":"ce4bh392rcd13ifvqdm0","pricing_plan_id":"cebpf4jnsgd1na2vs0mg"},{"bike_id":"96c0d33d-cf8a-4c08-b260-27cce0bc63ae","system_id":"levelo_inurba_marseille","lat":43.29021,"lon":5.38637,"is_reserved":false,"is_disabled":false,"rental_uris":{"android":"levelo://app?vid=96c0d33d-cf8a-4c08-b260-27cce0bc63ae","ios":"levelo://app?vid=96c0d33d-cf8a-4c08-b260-27cce0bc63ae"},"vehicle_type_id":"4","last_reported":1746997720,"current_range_meters":31200,"station_id":"ce4bh4p2rcd13ifvqe0g","pricing_plan_id":"cebpf4jnsgd1na2vs0mg"},{"bike_id":"9e20ccc5-7981-4e19-8aec-da448e4da896","system_id":"levelo_inurba_marseille","lat":43.32551,"lon":5.41419,"is_reserved":false,"is_disabled":false,"rental_uris":{"android":"levelo://app?vid=9e20ccc5-7981-4e19-8aec-da448e4da896","ios":"levelo://app?vid=9e20ccc5-7981-4e19-8aec-da448e4da896"},"vehicle_type_id":"4","last_reported":1746997720,"current_range_meters":31200,"station_id":"ce4bhq12rcd13ifvqhhg","pricing_plan_id":"cebpf4jnsgd1na2vs0mg"},{"bike_id":"a85bd4b9-4621-43d4-83f7-4ad07d6befec","system_id":"levelo_inurba_marseille","lat":43.32325,"lon":5.40619,"is_reserved":false,"is_disabled":false,"rental_uris":{"android":"levelo://app?vid=a85bd4b9-4621-43d4-83f7-4ad07d6befec","ios":"levelo://app?vid=a85bd4b9-4621-43d4-83f7-4ad07d6befec"},"vehicle_type_id":"4","last_reported":1746997720,"current_range_meters":31200,"station_id":"ce4bhq92rcd13ifvqhjg","pricing_plan_id":"cebpf4jnsgd1na2vs0mg"},{"bike_id":"5c046693-3fbd-4755-81fd-1c6b34ebf07b","system_id":"levelo_inurba_marseille","lat":43.337605,"lon":5.374426,"is_reserved":false,"is_disabled":false,"rental_uris":{"android":"levelo://app?vid=5c046693-3fbd-4755-81fd-1c6b34ebf07b","ios":"levelo://app?vid=5c046693-3fbd-4755-81fd-1c6b34ebf07b"},"vehicle_type_id":"4","last_reported":1746997720,"current_range_meters":32000,"station_id":"","pricing_plan_id":"cebpf4jnsgd1na2vs0mg"},{"bike_id":"4b6f1f2a-d6ac-42ed-a7e8-a613812d46dc","system_id":"levelo_inurba_marseille","lat":43.30808,"lon":5.3818,"is_reserved":false,"is_disabled":false,"rental_uris":{"android":"levelo://app?vid=4b6f1f2a-d6ac-42ed-a7e8-a613812d46dc","ios":"levelo://app?vid=4b6f1f2a-d6ac-42ed-a7e8-a613812d46dc"},"vehicle_type_id":"4","last_reported":1746997720,"current_range_meters":32000,"station_id":"ce4bgt12rcd13ifvqce0","pricing_plan_id":"cebpf4jnsgd1na2vs0mg"},{"bike_id":"b45d0263-ed17-4f84-a74e-d15c84857ce8","system_id":"levelo_inurba_marseille","lat":43.28551,"lon":5.39487,"is_reserved":false,"is_disabled":false,"rental_uris":{"android":"levelo://app?vid=b45d0263-ed17-4f84-a74e-d15c84857ce8","ios":"levelo://app?vid=b45d0263-ed17-4f84-a74e-d15c84857ce8"},"vehicle_type_id":"4","last_reported":1746997720,"current_range_meters":32000,"station_id":"ce4bh292rcd13ifvqdg0","pricing_plan_id":"cebpf4jnsgd1na2vs0mg"},{"bike_id":"a3a5c07c-d0c7-4b0f-a9cc-f11cb384924a","system_id":"levelo_inurba_marseille","lat":43.28102,"lon":5.37838,"is_reserved":false,"is_disabled":false,"rental_uris":{"android":"levelo://app?vid=a3a5c07c-d0c7-4b0f-a9cc-f11cb384924a","ios":"levelo://app?vid=a3a5c07c-d0c7-4b0f-a9cc-f11cb384924a"},"vehicle_type_id":"4","last_reported":1746997720,"current_range_meters":32000,"station_id":"ce4bha12rcd13ifvqee0","pricing_plan_id":"cebpf4jnsgd1na2vs0mg"},{"bike_id":"e613626b-0ba7-4a6e-84b7-46810540ba9b","system_id":"levelo_inurba_marseille","lat":43.24663,"lon":5.38164,"is_reserved":false,"is_disabled":false,"rental_uris":{"android":"levelo://app?vid=e613626b-0ba7-4a6e-84b7-46810540ba9b","ios":"levelo://app?vid=e613626b-0ba7-4a6e-84b7-46810540ba9b"},"vehicle_type_id":"4","last_reported":1746997720,"current_range_meters":32000,"station_id":"ce4bhih2rcd13ifvqfr0","pricing_plan_id":"cebpf4jnsgd1na2vs0mg"},{"bike_id":"f64a83ec-2629-4a50-830a-0eec5af6a0b0","system_id":"levelo_inurba_marseille","lat":43.25722,"lon":5.41153,"is_reserved":false,"is_disabled":false,"rental_uris":{"android":"levelo://app?vid=f64a83ec-2629-4a50-830a-0eec5af6a0b0","ios":"levelo://app?vid=f64a83ec-2629-4a50-830a-0eec5af6a0b0"},"vehicle_type_id":"4","last_reported":1746997720,"current_range_meters":32000,"station_id":"ce4bhkp2rcd13ifvqgd0","pricing_plan_id":"cebpf4jnsgd1na2vs0mg"},{"bike_id":"51c0357f-b343-4e95-90b3-ee760f6db5df","system_id":"levelo_inurba_marseille","lat":43.28035,"lon":5.39975,"is_reserved":false,"is_disabled":false,"rental_uris":{"android":"levelo://app?vid=51c0357f-b343-4e95-90b3-ee760f6db5df","ios":"levelo://app?vid=51c0357f-b343-4e95-90b3-ee760f6db5df"},"vehicle_type_id":"4","last_reported":1746997720,"current_range_meters":32400,"station_id":"ce4bho92rcd13ifvqh4g","pricing_plan_id":"cebpf4jnsgd1na2vs0mg"},{"bike_id":"0b0e2a9f-0f2a-467a-b19f-25f828bc7c13","system_id":"levelo_inurba_marseille","lat":43.32284,"lon":5.38279,"is_reserved":false,"is_disabled":false,"rental_uris":{"android":"levelo://app?vid=0b0e2a9f-0f2a-467a-b19f-25f828bc7c13","ios":"levelo://app?vid=0b0e2a9f-0f2a-467a-b19f-25f828bc7c13"},"vehicle_type_id":"4","last_reported":1746997720,"current_range_meters":32400,"station_id":"ce4bhr12rcd13ifvqhqg","pricing_plan_id":"cebpf4jnsgd1na2vs0mg"},{"bike_id":"aa72e1c1-9f70-4ef8-b036-f7202dbeb588","system_id":"levelo_inurba_marseille","lat":43.304267,"lon":5.39742,"is_reserved":false,"is_disabled":false,"rental_uris":{"android":"levelo://app?vid=aa72e1c1-9f70-4ef8-b036-f7202dbeb588","ios":"levelo://app?vid=aa72e1c1-9f70-4ef8-b036-f7202dbeb588"},"vehicle_type_id":"4","last_reported":1746997720,"current_range_meters":32800,"station_id":"ce4bh092rcd13ifvqd20","pricing_plan_id":"cebpf4jnsgd1na2vs0mg"},{"bike_id":"b8bf2a08-843e-45f8-a5ba-247ce347a37f","system_id":"levelo_inurba_marseille","lat":43.26054,"lon":5.394,"is_reserved":false,"is_disabled":false,"rental_uris":{"android":"levelo://app?vid=b8bf2a08-843e-45f8-a5ba-247ce347a37f","ios":"levelo://app?vid=b8bf2a08-843e-45f8-a5ba-247ce347a37f"},"vehicle_type_id":"4","last_reported":1746997720,"current_range_meters":32800,"station_id":"ce4bhh92rcd13ifvqfj0","pricing_plan_id":"cebpf4jnsgd1na2vs0mg"},{"bike_id":"5a35fa93-ef3e-412a-b088-8438f7d6cfb3","system_id":"levelo_inurba_marseille","lat":43.31752,"lon":5.39016,"is_reserved":false,"is_disabled":false,"rental_uris":{"android":"levelo://app?vid=5a35fa93-ef3e-412a-b088-8438f7d6cfb3","ios":"levelo://app?vid=5a35fa93-ef3e-412a-b088-8438f7d6cfb3"},"vehicle_type_id":"4","last_reported":1746997720,"current_range_meters":32800,"station_id":"ce4bhqp2rcd13ifvqhng","pricing_plan_id":"cebpf4jnsgd1na2vs0mg"},{"bike_id":"c18d4c1c-e4a6-49b2-8cdd-e9f4c7274824","system_id":"levelo_inurba_marseille","lat":43.30255,"lon":5.40066,"is_reserved":false,"is_disabled":false,"rental_uris":{"android":"levelo://app?vid=c18d4c1c-e4a6-49b2-8cdd-e9f4c7274824","ios":"levelo://app?vid=c18d4c1c-e4a6-49b2-8cdd-e9f4c7274824"},"vehicle_type_id":"4","last_reported":1746997720,"current_range_meters":33200,"station_id":"ce4bgvh2rcd13ifvqcs0","pricing_plan_id":"cebpf4jnsgd1na2vs0mg"},{"bike_id":"0f7324d5-be48-4484-95dd-ad0a0c58767c","system_id":"levelo_inurba_marseille","lat":43.25174,"lon":5.40279,"is_reserved":false,"is_disabled":false,"rental_uris":{"android":"levelo://app?vid=0f7324d5-be48-4484-95dd-ad0a0c58767c","ios":"levelo://app?vid=0f7324d5-be48-4484-95dd-ad0a0c58767c"},"vehicle_type_id":"4","last_reported":1746997720,"current_range_meters":33200,"station_id":"ce4bhlh2rcd13ifvqgig","pricing_plan_id":"cebpf4jnsgd1na2vs0mg"},{"bike_id":"f6544814-554c-4fa0-8e22-d77b5536ea1b","system_id":"levelo_inurba_marseille","lat":43.29711,"lon":5.37698,"is_reserved":false,"is_disabled":false,"rental_uris":{"android":"levelo://app?vid=f6544814-554c-4fa0-8e22-d77b5536ea1b","ios":"levelo://app?vid=f6544814-554c-4fa0-8e22-d77b5536ea1b"},"vehicle_type_id":"4","last_reported":1746997720,"current_range_meters":33600,"station_id":"ce4bgkh2rcd13ifvqbl0","pricing_plan_id":"cebpf4jnsgd1na2vs0mg"},{"bike_id":"61b43f4f-d4c2-4e8e-8c12-53eb1648f29b","system_id":"levelo_inurba_marseille","lat":43.29254,"lon":5.4091,"is_reserved":false,"is_disabled":false,"rental_uris":{"android":"levelo://app?vid=61b43f4f-d4c2-4e8e-8c12-53eb1648f29b","ios":"levelo://app?vid=61b43f4f-d4c2-4e8e-8c12-53eb1648f29b"},"vehicle_type_id":"4","last_reported":1746997720,"current_range_meters":33600,"station_id":"ce4bh192rcd13ifvqdc0","pricing_plan_id":"cebpf4jnsgd1na2vs0mg"},{"bike_id":"fe99ae06-6c0d-4aca-a34d-21418b93b6b6","system_id":"levelo_inurba_marseille","lat":43.27587,"lon":5.38421,"is_reserved":false,"is_disabled":false,"rental_uris":{"android":"levelo://app?vid=fe99ae06-6c0d-4aca-a34d-21418b93b6b6","ios":"levelo://app?vid=fe99ae06-6c0d-4aca-a34d-21418b93b6b6"},"vehicle_type_id":"4","last_reported":1746997720,"current_range_meters":33600,"station_id":"ce4bhh92rcd13ifvqfi0","pricing_plan_id":"cebpf4jnsgd1na2vs0mg"},{"bike_id":"a3571ddc-fff9-4b05-a012-042374fc13a9","system_id":"levelo_inurba_marseille","lat":43.24081,"lon":5.37736,"is_reserved":false,"is_disabled":false,"rental_uris":{"android":"levelo://app?vid=a3571ddc-fff9-4b05-a012-042374fc13a9","ios":"levelo://app?vid=a3571ddc-fff9-4b05-a012-042374fc13a9"},"vehicle_type_id":"4","last_reported":1746997720,"current_range_meters":33600,"station_id":"ce4bhnp2rcd13ifvqgvg","pricing_plan_id":"cebpf4jnsgd1na2vs0mg"},{"bike_id":"06587e68-878a-442a-819f-e8f268c0d376","system_id":"levelo_inurba_marseille","lat":43.28445,"lon":5.39177,"is_reserved":false,"is_disabled":false,"rental_uris":{"android":"levelo://app?vid=06587e68-878a-442a-819f-e8f268c0d376","ios":"levelo://app?vid=06587e68-878a-442a-819f-e8f268c0d376"},"vehicle_type_id":"4","last_reported":1746997720,"current_range_meters":33600,"station_id":"ce4bhoh2rcd13ifvqh5g","pricing_plan_id":"cebpf4jnsgd1na2vs0mg"},{"bike_id":"beafa0a9-b465-49eb-ad9f-c21a0b0f1663","system_id":"levelo_inurba_marseille","lat":43.30373,"lon":5.41862,"is_reserved":false,"is_disabled":false,"rental_uris":{"android":"levelo://app?vid=beafa0a9-b465-49eb-ad9f-c21a0b0f1663","ios":"levelo://app?vid=beafa0a9-b465-49eb-ad9f-c21a0b0f1663"},"vehicle_type_id":"4","last_reported":1746997720,"current_range_meters":33600,"station_id":"ce4bhop2rcd13ifvqh7g","pricing_plan_id":"cebpf4jnsgd1na2vs0mg"},{"bike_id":"10b9a039-dd7e-4a20-9e80-3ea6aa75ce6b","system_id":"levelo_inurba_marseille","lat":43.31718,"lon":5.42405,"is_reserved":false,"is_disabled":false,"rental_uris":{"android":"levelo://app?vid=10b9a039-dd7e-4a20-9e80-3ea6aa75ce6b","ios":"levelo://app?vid=10b9a039-dd7e-4a20-9e80-3ea6aa75ce6b"},"vehicle_type_id":"4","last_reported":1746997720,"current_range_meters":33600,"station_id":"ce4bhp92rcd13ifvqhbg","pricing_plan_id":"cebpf4jnsgd1na2vs0mg"},{"bike_id":"4a32e977-630a-43db-9377-2d1ff34c479f","system_id":"levelo_inurba_marseille","lat":43.30892,"lon":5.37204,"is_reserved":false,"is_disabled":false,"rental_uris":{"android":"levelo://app?vid=4a32e977-630a-43db-9377-2d1ff34c479f","ios":"levelo://app?vid=4a32e977-630a-43db-9377-2d1ff34c479f"},"vehicle_type_id":"4","last_reported":1746997720,"current_range_meters":34000,"station_id":"ce4bguh2rcd13ifvqckg","pricing_plan_id":"cebpf4jnsgd1na2vs0mg"},{"bike_id":"9ba00d66-a594-408f-ba65-431fb0aaa143","system_id":"levelo_inurba_marseille","lat":43.30124,"lon":5.39871,"is_reserved":false,"is_disabled":false,"rental_uris":{"android":"levelo://app?vid=9ba00d66-a594-408f-ba65-431fb0aaa143","ios":"levelo://app?vid=9ba00d66-a594-408f-ba65-431fb0aaa143"},"vehicle_type_id":"4","last_reported":1746997720,"current_range_meters":34000,"station_id":"ce4bh0h2rcd13ifvqd40","pricing_plan_id":"cebpf4jnsgd1na2vs0mg"},{"bike_id":"391f8d64-fbab-4a81-8bb4-8f11116e8670","system_id":"levelo_inurba_marseille","lat":43.271767,"lon":5.409867,"is_reserved":false,"is_disabled":false,"rental_uris":{"android":"levelo://app?vid=391f8d64-fbab-4a81-8bb4-8f11116e8670","ios":"levelo://app?vid=391f8d64-fbab-4a81-8bb4-8f11116e8670"},"vehicle_type_id":"4","last_reported":1746997720,"current_range_meters":34000,"station_id":"ce4bhl12rcd13ifvqgf0","pricing_plan_id":"cebpf4jnsgd1na2vs0mg"},{"bike_id":"91c16720-63af-498f-a799-6c9da45bdc71","system_id":"levelo_inurba_marseille","lat":43.24544,"lon":5.39525,"is_reserved":false,"is_disabled":false,"rental_uris":{"android":"levelo://app?vid=91c16720-63af-498f-a799-6c9da45bdc71","ios":"levelo://app?vid=91c16720-63af-498f-a799-6c9da45bdc71"},"vehicle_type_id":"4","last_reported":1746997720,"current_range_meters":34000,"station_id":"ce4bhlp2rcd13ifvqgjg","pricing_plan_id":"cebpf4jnsgd1na2vs0mg"},{"bike_id":"760e6e61-479b-4d7f-bdb6-66eaf909b131","system_id":"levelo_inurba_marseille","lat":43.23137,"lon":5.43734,"is_reserved":false,"is_disabled":false,"rental_uris":{"android":"levelo://app?vid=760e6e61-479b-4d7f-bdb6-66eaf909b131","ios":"levelo://app?vid=760e6e61-479b-4d7f-bdb6-66eaf909b131"},"vehicle_type_id":"4","last_reported":1746997720,"current_range_meters":34000,"station_id":"ce4bhmp2rcd13ifvqgog","pricing_plan_id":"cebpf4jnsgd1na2vs0mg"},{"bike_id":"2182db16-b350-4283-8ae0-209071785631","system_id":"levelo_inurba_marseille","lat":43.30919,"lon":5.36733,"is_reserved":false,"is_disabled":false,"rental_uris":{"android":"levelo://app?vid=2182db16-b350-4283-8ae0-209071785631","ios":"levelo://app?vid=2182db16-b350-4283-8ae0-209071785631"},"vehicle_type_id":"4","last_reported":1746997720,"current_range_meters":34800,"station_id":"","pricing_plan_id":"cebpf4jnsgd1na2vs0mg"},{"bike_id":"561dec04-c84c-4699-85cb-54a9453d50dd","system_id":"levelo_inurba_marseille","lat":43.30787,"lon":5.37643,"is_reserved":false,"is_disabled":false,"rental_uris":{"android":"levelo://app?vid=561dec04-c84c-4699-85cb-54a9453d50dd","ios":"levelo://app?vid=561dec04-c84c-4699-85cb-54a9453d50dd"},"vehicle_type_id":"4","last_reported":1746997720,"current_range_meters":34800,"station_id":"ce4bgv92rcd13ifvqcq0","pricing_plan_id":"cebpf4jnsgd1na2vs0mg"},{"bike_id":"aae03c24-9a46-4f50-9933-c09151f96a99","system_id":"levelo_inurba_marseille","lat":43.298688,"lon":5.397388,"is_reserved":false,"is_disabled":false,"rental_uris":{"android":"levelo://app?vid=aae03c24-9a46-4f50-9933-c09151f96a99","ios":"levelo://app?vid=aae03c24-9a46-4f50-9933-c09151f96a99"},"vehicle_type_id":"4","last_reported":1746997720,"current_range_meters":34800,"station_id":"ce4bh0h2rcd13ifvqd50","pricing_plan_id":"cebpf4jnsgd1na2vs0mg"},{"bike_id":"2edbf11c-8aa8-452e-98e6-a16501ce07c3","system_id":"levelo_inurba_marseille","lat":43.24998,"lon":5.38926,"is_reserved":false,"is_disabled":false,"rental_uris":{"android":"levelo://app?vid=2edbf11c-8aa8-452e-98e6-a16501ce07c3","ios":"levelo://app?vid=2edbf11c-8aa8-452e-98e6-a16501ce07c3"},"vehicle_type_id":"4","last_reported":1746997720,"current_range_meters":34800,"station_id":"ce4bhgp2rcd13ifvqfd0","pricing_plan_id":"cebpf4jnsgd1na2vs0mg"},{"bike_id":"55655352-2edf-4c61-a6ae-98f2cc101e04","system_id":"levelo_inurba_marseille","lat":43.26513,"lon":5.39543,"is_reserved":false,"is_disabled":false,"rental_uris":{"android":"levelo://app?vid=55655352-2edf-4c61-a6ae-98f2cc101e04","ios":"levelo://app?vid=55655352-2edf-4c61-a6ae-98f2cc101e04"},"vehicle_type_id":"4","last_reported":1746997720,"current_range_meters":34800,"station_id":"ce4bhi12rcd13ifvqfq0","pricing_plan_id":"cebpf4jnsgd1na2vs0mg"},{"bike_id":"1510557f-0c2f-4e01-9814-9652d7428595","system_id":"levelo_inurba_marseille","lat":43.2466,"lon":5.38158,"is_reserved":false,"is_disabled":false,"rental_uris":{"android":"levelo://app?vid=1510557f-0c2f-4e01-9814-9652d7428595","ios":"levelo://app?vid=1510557f-0c2f-4e01-9814-9652d7428595"},"vehicle_type_id":"4","last_reported":1746997720,"current_range_meters":34800,"station_id":"ce4bhih2rcd13ifvqfr0","pricing_plan_id":"cebpf4jnsgd1na2vs0mg"},{"bike_id":"efe7b5cd-2e6a-44b0-bcae-1ce3de81bef0","system_id":"levelo_inurba_marseille","lat":43.27828,"lon":5.39207,"is_reserved":false,"is_disabled":false,"rental_uris":{"android":"levelo://app?vid=efe7b5cd-2e6a-44b0-bcae-1ce3de81bef0","ios":"levelo://app?vid=efe7b5cd-2e6a-44b0-bcae-1ce3de81bef0"},"vehicle_type_id":"4","last_reported":1746997720,"current_range_meters":34800,"station_id":"ce4bhjp2rcd13ifvqga0","pricing_plan_id":"cebpf4jnsgd1na2vs0mg"},{"bike_id":"11171f27-f5e6-4c43-b45d-c3c7c335c7e3","system_id":"levelo_inurba_marseille","lat":43.28432,"lon":5.3919,"is_reserved":false,"is_disabled":false,"rental_uris":{"android":"levelo://app?vid=11171f27-f5e6-4c43-b45d-c3c7c335c7e3","ios":"levelo://app?vid=11171f27-f5e6-4c43-b45d-c3c7c335c7e3"},"vehicle_type_id":"4","last_reported":1746997720,"current_range_meters":34800,"station_id":"ce4bhoh2rcd13ifvqh5g","pricing_plan_id":"cebpf4jnsgd1na2vs0mg"},{"bike_id":"a52974aa-e3ee-4017-bef0-bcbd7ff9546e","system_id":"levelo_inurba_marseille","lat":43.27887,"lon":5.41162,"is_reserved":false,"is_disabled":false,"rental_uris":{"android":"levelo://app?vid=a52974aa-e3ee-4017-bef0-bcbd7ff9546e","ios":"levelo://app?vid=a52974aa-e3ee-4017-bef0-bcbd7ff9546e"},"vehicle_type_id":"4","last_reported":1746997720,"current_range_meters":35200,"station_id":"","pricing_plan_id":"cebpf4jnsgd1na2vs0mg"},