{"last_updated":1762161254,"ttl":60,"version":"2.2","data":{"bikes":[{"bike_id":"ec8462b1-bc1b-4f58-9686-4386b0ace6e3","system_id":"levelo_inurba_marseille","lat":43.26924,"lon":5.38923,"is_reserved":false,"is_disabled":false,"rental_uris":{"android":"levelo://app?vid=ec8462b1-bc1b-4f58-9686-4386b0ace6e3","ios":"levelo://app?vid=ec8462b1-bc1b-4f58-9686-4386b0ace6e3"},"vehicle_type_id":"4","last_reported":1762161255,"current_range_meters":2800,"station_id":"ce4bhhh2rcd13ifvqfl0","pricing_plan_id":"cebpf4jnsgd1na2vs0mg"},{"bike_id":"f3aa2b01-0a4c-4939-9943-856a2be759f0","system_id":"levelo_inurba_marseille","lat":43.21729,"lon":5.34621,"is_reserved":false,"is_disabled":false,"rental_uris":{"android":"levelo://app?vid=f3aa2b01-0a4c-4939-9943-856a2be759f0","ios":"levelo://app?vid=f3aa2b01-0a4c-4939-9943-856a2be759f0"},"vehicle_type_id":"4","last_reported":1762161255,"current_range_meters":2800,"station_id":"st_cvj6r9ubvosntc0bgbag","pricing_plan_id":"cebpf4jnsgd1na2vs0mg"},{"bike_id":"5f3ea05b-87ba-4659-aa67-250e8993e48a","system_id":"levelo_inurba_marseille","lat":43.29004,"lon":5.35606,"is_reserved":false,"is_disabled":false,"rental_uris":{"android":"levelo://app?vid=5f3ea05b-87ba-4659-aa67-250e8993e48a","ios":"levelo://app?vid=5f3ea05b-87ba-4659-aa67-250e8993e48a"},"vehicle_type_id":"4","last_reported":1762161255,"current_range_meters":3200,"station_id":"ce4bhb92rcd13ifvqen0","pricing_plan_id":"cebpf4jnsgd1na2vs0mg"},{"bike_id":"7d8e9792-4bcb-4d9e-9229-202b68b9cf26","system_id":"levelo_inurba_marseille","lat":43.26227,"lon":5.40457,"is_reserved":false,"is_disabled":false,"rental_uris":{"android":"levelo://app?vid=7d8e9792-4bcb-4d9e-9229-202b68b9cf26","ios":"levelo://app?vid=7d8e9792-4bcb-4d9e-9229-202b68b9cf26"},"vehicle_type_id":"4","last_reported":1762161255,"current_range_meters":3200,"station_id":"ce4bhmh2rcd13ifvqgmg","pricing_plan_id":"cebpf4jnsgd1na2vs0mg"},{"bike_id":"b4e492f6-3c2d-4bca-ab1f-5bb5d6d104f8","system_id":"levelo_inurba_marseille","lat":43.30534,"lon":5.36537,"is_reserved":false,"is_disabled":false,"rental_uris":{"android":"levelo://app?vid=b4e492f6-3c2d-4bca-ab1f-5bb5d6d104f8","ios":"levelo://app?vid=b4e492f6-3c2d-4bca-ab1f-5bb5d6d104f8"},"vehicle_type_id":"4","last_reported":1762161255,"current_range_meters":3200,"station_id":"ce4bgs12rcd13ifvqcag","pricing_plan_id":"cebpf4jnsgd1na2vs0mg"},{"bike_id":"93d148a1-9bc7-4f9c-9085-2041a56ed1f4","system_id":"levelo_inurba_marseille","lat":43.25579,"lon":5.38227,"is_reserved":false,"is_disabled":false,"rental_uris":{"android":"levelo://app?vid=93d148a1-9bc7-4f9c-9085-2041a56ed1f4","ios":"levelo://app?vid=93d148a1-9bc7-4f9c-9085-2041a56ed1f4"},"vehicle_type_id":"4","last_reported":1762161255,"current_range_meters":3200,"station_id":"ce4bhih2rcd13ifvqfs0","pricing_plan_id":"cebpf4jnsgd1na2vs0mg"},{"bike_id":"e8803ae3-c51e-41f2-a9fa-aa82e7dcebc6","system_id":"levelo_inurba_marseille","lat":43.2509,"lon":5.39518,"is_reserved":false,"is_disabled":false,"rental_uris":{"android":"levelo://app?vid=e8803ae3-c51e-41f2-a9fa-aa82e7dcebc6","ios":"levelo://app?vid=e8803ae3-c51e-41f2-a9fa-aa82e7dcebc6"},"vehicle_type_id":"4","last_reported":1762161255,"current_range_meters":3600,"station_id":"ce4bhm12rcd13ifvqgkg","pricing_plan_id":"cebpf4jnsgd1na2vs0mg"},{"bike_id":"67723cac-745a-4f68-b8cb-59d36b1b9d14","system_id":"levelo_inurba_marseille","lat":43.290054,"lon":5.356053,"is_reserved":false,"is_disabled":false,"rental_uris":{"android":"levelo://app?vid=67723cac-745a-4f68-b8cb-59d36b1b9d14","ios":"levelo://app?vid=67723cac-745a-4f68-b8cb-59d36b1b9d14"},"vehicle_type_id":"4","last_reported":1762161255,"current_range_meters":3600,"station_id":"ce4bhb92rcd13ifvqen0","pricing_plan_id":"cebpf4jnsgd1na2vs0mg"},{"bike_id":"ed890a36-02ef-4914-b497-b0b60f616f2a","system_id":"levelo_inurba_marseille","lat":43.28166,"lon":5.42627,"is_reserved":false,"is_disabled":false,"rental_uris":{"android":"levelo://app?vid=ed890a36-02ef-4914-b497-b0b60f616f2a","ios":"levelo://app?vid=ed890a36-02ef-4914-b497-b0b60f616f2a"},"vehicle_type_id":"4","last_reported":1762161255,"current_range_meters":3600,"station_id":"ce4bhnh2rcd13ifvqgug","pricing_plan_id":"cebpf4jnsgd1na2vs0mg"},{"bike_id":"b1e81361-2b17-4ef1-8a58-6def5753471b","system_id":"levelo_inurba_marseille","lat":43.33753,"lon":5.37484,"is_reserved":false,"is_disabled":false,"rental_uris":{"android":"levelo://app?vid=b1e81361-2b17-4ef1-8a58-6def5753471b","ios":"levelo://app?vid=b1e81361-2b17-4ef1-8a58-6def5753471b"},"vehicle_type_id":"4","last_reported":1762161255,"current_range_meters":3600,"station_id":"","pricing_plan_id":"cebpf4jnsgd1na2vs0mg"},{"bike_id":"50f28589-73f1-4473-9fc6-7623d32adbc9","system_id":"levelo_inurba_marseille","lat":43.264954,"lon":5.373465,"is_reserved":false,"is_disabled":false,"rental_uris":{"android":"levelo://app?vid=50f28589-73f1-4473-9fc6-7623d32adbc9","ios":"levelo://app?vid=50f28589-73f1-4473-9fc6-7623d32adbc9"},"vehicle_type_id":"4","last_reported":1762161255,"current_range_meters":3600,"station_id":"ce4bghh2rcd13ifvqb60","pricing_plan_id":"cebpf4jnsgd1na2vs0mg"},{"bike_id":"98ae70a7-845f-4fca-806c-2c13fb3772f4","system_id":"levelo_inurba_marseille","lat":43.29658,"lon":5.37851,"is_reserved":false,"is_disabled":false,"rental_uris":{"android":"levelo://app?vid=98ae70a7-845f-4fca-806c-2c13fb3772f4","ios":"levelo://app?vid=98ae70a7-845f-4fca-806c-2c13fb3772f4"},"vehicle_type_id":"4","last_reported":1762161255,"current_range_meters":3600,"station_id":"","pricing_plan_id":"cebpf4jnsgd1na2vs0mg"},{"bike_id":"4336ae16-8474-4661-935b-70327a546fd8","system_id":"levelo_inurba_marseille","lat":43.29794,"lon":5.38097,"is_reserved":false,"is_disabled":false,"rental_uris":{"android":"levelo://app?vid=4336ae16-8474-4661-935b-70327a546fd8","ios":"levelo://app?vid=4336ae16-8474-4661-935b-70327a546fd8"},"vehicle_type_id":"4","last_reported":1762161255,"current_range_meters":4000,"station_id":"ce4bgip2rcd13ifvqbb0","pricing_plan_id":"cebpf4jnsgd1na2vs0mg"},{"bike_id":"3710b977-887c-4ce3-9bdf-4ce42b3a2cb2","system_id":"levelo_inurba_marseille","lat":43.29035,"lon":5.37573,"is_reserved":false,"is_disabled":false,"rental_uris":{"android":"levelo://app?vid=3710b977-887c-4ce3-9bdf-4ce42b3a2cb2","ios":"levelo://app?vid=3710b977-887c-4ce3-9bdf-4ce42b3a2cb2"},"vehicle_type_id":"4","last_reported":1762161255,"current_range_meters":4000,"station_id":"ce4bh692rcd13ifvqe90","pricing_plan_id":"cebpf4jnsgd1na2vs0mg"},{"bike_id":"3d2ac210-d1e5-43ba-b4cc-8cd99b96e0c8","system_id":"levelo_inurba_marseille","lat":43.30628,"lon":5.37407,"is_reserved":false,"is_disabled":false,"rental_uris":{"android":"levelo://app?vid=3d2ac210-d1e5-43ba-b4cc-8cd99b96e0c8","ios":"levelo://app?vid=3d2ac210-d1e5-43ba-b4cc-8cd99b96e0c8"},"vehicle_type_id":"4","last_reported":1762161255,"current_range_meters":4000,"station_id":"","pricing_plan_id":"cebpf4jnsgd1na2vs0mg"},{"bike_id":"6fd63c06-3841-4e9d-b890-966620143034","system_id":"levelo_inurba_marseille","lat":43.29004,"lon":5.35609,"is_reserved":false,"is_disabled":false,"rental_uris":{"android":"levelo://app?vid=6fd63c06-3841-4e9d-b890-966620143034","ios":"levelo://app?vid=6fd63c06-3841-4e9d-b890-966620143034"},"vehicle_type_id":"4","last_reported":1762161255,"current_range_meters":4000,"station_id":"ce4bhb92rcd13ifvqen0","pricing_plan_id":"cebpf4jnsgd1na2vs0mg"},{"bike_id":"c9a24394-ce65-432f-a910-ab49b960f8d2","system_id":"levelo_inurba_marseille","lat":43.248108,"lon":5.374609,"is_reserved":false,"is_disabled":false,"rental_uris":{"android":"levelo://app?vid=c9a24394-ce65-432f-a910-ab49b960f8d2","ios":"levelo://app?vid=c9a24394-ce65-432f-a910-ab49b960f8d2"},"vehicle_type_id":"4","last_reported":1762161255,"current_range_meters":4000,"station_id":"ce4bhgh2rcd13ifvqfb0","pricing_plan_id":"cebpf4jnsgd1na2vs0mg"},{"bike_id":"e02b652a-535a-4453-adf7-8c98a8fa4a99","system_id":"levelo_inurba_marseille","lat":43.24547,"lon":5.39522,"is_reserved":false,"is_disabled":false,"rental_uris":{"android":"levelo://app?vid=e02b652a-535a-4453-adf7-8c98a8fa4a99","ios":"levelo://app?vid=e02b652a-535a-4453-adf7-8c98a8fa4a99"},"vehicle_type_id":"4","last_reported":1762161255,"current_range_meters":4000,"station_id":"ce4bhlp2rcd13ifvqgjg","pricing_plan_id":"cebpf4jnsgd1na2vs0mg"},{"bike_id":"1da56141-654f-442c-b20c-6c2bd52c2965","system_id":"levelo_inurba_marseille","lat":43.31277,"lon":5.3819,"is_reserved":false,"is_disabled":true,"rental_uris":{"android":"levelo://app?vid=1da56141-654f-442c-b20c-6c2bd52c2965","ios":"levelo://app?vid=1da56141-654f-442c-b20c-6c2bd52c2965"},"vehicle_type_id":"4","last_reported":1762161255,"current_range_meters":4400,"station_id":"","pricing_plan_id":"cebpf4jnsgd1na2vs0mg"},{"bike_id":"dc70789f-3aaf-46d3-8c7f-243ef84916ab","system_id":"levelo_inurba_marseille","lat":43.253297,"lon":5.421732,"is_reserved":false,"is_disabled":false,"rental_uris":{"android":"levelo://app?vid=dc70789f-3aaf-46d3-8c7f-243ef84916ab","ios":"levelo://app?vid=dc70789f-3aaf-46d3-8c7f-243ef84916ab"},"vehicle_type_id":"4","last_reported":1762161255,"current_range_meters":4400,"station_id":"st_d2m65c5bi1j21697t3ng","pricing_plan_id":"cebpf4jnsgd1na2vs0mg"},{"bike_id":"298b7acb-527a-41ca-8e53-45e63614a1d2","system_id":"levelo_inurba_marseille","lat":43.29722,"lon":5.37287,"is_reserved":false,"is_disabled":false,"rental_uris":{"android":"levelo://app?vid=298b7acb-527a-41ca-8e53-45e63614a1d2","ios":"levelo://app?vid=298b7acb-527a-41ca-8e53-45e63614a1d2"},"vehicle_type_id":"4","last_reported":1762161255,"current_range_meters":4400,"station_id":"ce4bgk12rcd13ifvqbj0","pricing_plan_id":"cebpf4jnsgd1na2vs0mg"},{"bike_id":"c6262a18-1667-4ca2-8ca7-87716588d516","system_id":"levelo_inurba_marseille","lat":43.284791,"lon":5.384061,"is_reserved":false,"is_disabled":false,"rental_uris":{"android":"levelo://app?vid=c6262a18-1667-4ca2-8ca7-87716588d516","ios":"levelo://app?vid=c6262a18-1667-4ca2-8ca7-87716588d516"},"vehicle_type_id":"4","last_reported":1762161255,"current_range_meters":4800,"station_id":"ce4bh512rcd13ifvqe3g","pricing_plan_id":"cebpf4jnsgd1na2vs0mg"},{"bike_id":"60c7e9df-6bcd-4513-82ea-171bc1fa25e5","system_id":"levelo_inurba_marseille","lat":43.296824,"lon":5.380278,"is_reserved":false,"is_disabled":false,"rental_uris":{"android":"levelo://app?vid=60c7e9df-6bcd-4513-82ea-171bc1fa25e5","ios":"levelo://app?vid=60c7e9df-6bcd-4513-82ea-171bc1fa25e5"},"vehicle_type_id":"4","last_reported":1762161255,"current_range_meters":5600,"station_id":"","pricing_plan_id":"cebpf4jnsgd1na2vs0mg"},{"bike_id":"603f84c7-55e1-4d19-8f37-178ddadc668f","system_id":"levelo_inurba_marseille","lat":43.21197,"lon":5.35066,"is_reserved":false,"is_disabled":false,"rental_uris":{"android":"levelo://app?vid=603f84c7-55e1-4d19-8f37-178ddadc668f","ios":"levelo://app?vid=603f84c7-55e1-4d19-8f37-178ddadc668f"},"vehicle_type_id":"4","last_reported":1762161255,"current_range_meters":5600,"station_id":"st_cvj6sg6p6f1abm77japg","pricing_plan_id":"cebpf4jnsgd1na2vs0mg"},{"bike_id":"059b442e-d040-495a-991c-662b79177c55","system_id":"levelo_inurba_marseille","lat":43.29336,"lon":5.45381,"is_reserved":false,"is_disabled":false,"rental_uris":{"android":"levelo://app?vid=059b442e-d040-495a-991c-662b79177c55","ios":"levelo://app?vid=059b442e-d040-495a-991c-662b79177c55"},"vehicle_type_id":"4","last_reported":1762161255,"current_range_meters":6000,"station_id":"","pricing_plan_id":"cebpf4jnsgd1na2vs0mg"},{"bike_id":"f556ad88-b0ef-4d15-8048-f36fbe8e026c","system_id":"levelo_inurba_marseille","lat":43.28533,"lon":5.441,"is_reserved":false,"is_disabled":false,"rental_uris":{"android":"levelo://app?vid=f556ad88-b0ef-4d15-8048-f36fbe8e026c","ios":"levelo://app?vid=f556ad88-b0ef-4d15-8048-f36fbe8e026c"},"vehicle_type_id":"4","last_reported":1762161255,"current_range_meters":6000,"station_id":"st_d3j3df2ikq2c7380ej80","pricing_plan_id":"cebpf4jnsgd1na2vs0mg"},{"bike_id":"e06beaca-4d5d-48b1-bb52-78726d5c2ba8","system_id":"levelo_inurba_marseille","lat":43.266835,"lon":5.382757,"is_reserved":false,"is_disabled":false,"rental_uris":{"android":"levelo://app?vid=e06beaca-4d5d-48b1-bb52-78726d5c2ba8","ios":"levelo://app?vid=e06beaca-4d5d-48b1-bb52-78726d5c2ba8"},"vehicle_type_id":"4","last_reported":1762161255,"current_range_meters":6000,"station_id":"ce4bhg92rcd13ifvqf90","pricing_plan_id":"cebpf4jnsgd1na2vs0mg"},{"bike_id":"ef4bb5e7-9fea-4aea-9d78-3b7ddf5eaba0","system_id":"levelo_inurba_marseille","lat":43.251137,"lon":5.403303,"is_reserved":false,"is_disabled":true,"rental_uris":{"android":"levelo://app?vid=ef4bb5e7-9fea-4aea-9d78-3b7ddf5eaba0","ios":"levelo://app?vid=ef4bb5e7-9fea-4aea-9d78-3b7ddf5eaba0"},"vehicle_type_id":"4","last_reported":1762161255,"current_range_meters":6000,"station_id":"ce4bhlh2rcd13ifvqgig","pricing_plan_id":"cebpf4jnsgd1na2vs0mg"},{"bike_id":"8a759722-19f7-4a56-9646-2c26a5e7e25d","system_id":"levelo_inurba_marseille","lat":43.279821,"lon":5.387392,"is_reserved":false,"is_disabled":true,"rental_uris":{"android":"levelo://app?vid=8a759722-19f7-4a56-9646-2c26a5e7e25d","ios":"levelo://app?vid=8a759722-19f7-4a56-9646-2c26a5e7e25d"},"vehicle_type_id":"4","last_reported":1762161255,"current_range_meters":6400,"station_id":"ce4bhg12rcd13ifvqf80","pricing_plan_id":"cebpf4jnsgd1na2vs0mg"},{"bike_id":"dea67bbb-8d56-4994-9ad4-a92e185fa6f3","system_id":"levelo_inurba_marseille","lat":43.24082,"lon":5.37749,"is_reserved":false,"is_disabled":false,"rental_uris":{"android":"levelo://app?vid=dea67bbb-8d56-4994-9ad4-a92e185fa6f3","ios":"levelo://app?vid=dea67bbb-8d56-4994-9ad4-a92e185fa6f3"},"vehicle_type_id":"4","last_reported":1762161255,"current_range_meters":6400,"station_id":"","pricing_plan_id":"cebpf4jnsgd1na2vs0mg"},{"bike_id":"098d7ae5-5b2b-4d49-ad2f-d14f29937957","system_id":"levelo_inurba_marseille","lat":43.28993,"lon":5.37815,"is_reserved":false,"is_disabled":false,"rental_uris":{"android":"levelo://app?vid=098d7ae5-5b2b-4d49-ad2f-d14f29937957","ios":"levelo://app?vid=098d7ae5-5b2b-4d49-ad2f-d14f29937957"},"vehicle_type_id":"4","last_reported":1762161255,"current_range_meters":6400,"station_id":"ce4bh9p2rcd13ifvqed0","pricing_plan_id":"cebpf4jnsgd1na2vs0mg"},{"bike_id":"da96f7e0-2b29-4246-913c-3972a28909fc","system_id":"levelo_inurba_marseille","lat":43.24954,"lon":5.4053,"is_reserved":false,"is_disabled":false,"rental_uris":{"android":"levelo://app?vid=da96f7e0-2b29-4246-913c-3972a28909fc","ios":"levelo://app?vid=da96f7e0-2b29-4246-913c-3972a28909fc"},"vehicle_type_id":"4","last_reported":1762161255,"current_range_meters":6800,"station_id":"st_d2ngiaodas8pm72gd1h0","pricing_plan_id":"cebpf4jnsgd1na2vs0mg"},{"bike_id":"3164a80f-c4ac-4b1c-98be-b0aa80d157ef","system_id":"levelo_inurba_marseille","lat":43.299789,"lon":5.384792,"is_reserved":false,"is_disabled":false,"rental_uris":{"android":"levelo://app?vid=3164a80f-c4ac-4b1c-98be-b0aa80d157ef","ios":"levelo://app?vid=3164a80f-c4ac-4b1c-98be-b0aa80d157ef"},"vehicle_type_id":"4","last_reported":1762161255,"current_range_meters":6800,"station_id":"ce4bgj92rcd13ifvqbd0","pricing_plan_id":"cebpf4jnsgd1na2vs0mg"},{"bike_id":"1d29646a-da1f-4f66-b008-0838ffb2fa84","system_id":"levelo_inurba_marseille","lat":43.30008,"lon":5.37226,"is_reserved":false,"is_disabled":false,"rental_uris":{"android":"levelo://app?vid=1d29646a-da1f-4f66-b008-0838ffb2fa84","ios":"levelo://app?vid=1d29646a-da1f-4f66-b008-0838ffb2fa84"},"vehicle_type_id":"4","last_reported":1762161255,"current_range_meters":6800,"station_id":"","pricing_plan_id":"cebpf4jnsgd1na2vs0mg"},{"bike_id":"79a318af-d5b3-42a5-a645-2dfaa2b541cf","system_id":"levelo_inurba_marseille","lat":43.27207,"lon":5.3919,"is_reserved":false,"is_disabled":false,"rental_uris":{"android":"levelo://app?vid=79a318af-d5b3-42a5-a645-2dfaa2b541cf","ios":"levelo://app?vid=79a318af-d5b3-42a5-a645-2dfaa2b541cf"},"vehicle_type_id":"4","last_reported":1762161255,"current_range_meters":7200,"station_id":"ce4bhhp2rcd13ifvqfm0","pricing_plan_id":"cebpf4jnsgd1na2vs0mg"},{"bike_id":"ccbb9b89-ebba-4c6c-b9fe-acafe29ddb47","system_id":"levelo_inurba_marseille","lat":43.33507,"lon":5.42752,"is_reserved":false,"is_disabled":false,"rental_uris":{"android":"levelo://app?vid=ccbb9b89-ebba-4c6c-b9fe-acafe29ddb47","ios":"levelo://app?vid=ccbb9b89-ebba-4c6c-b9fe-acafe29ddb47"},"vehicle_type_id":"4","last_reported":1762161255,"current_range_meters":7200,"station_id":"","pricing_plan_id":"cebpf4jnsgd1na2vs0mg"},{"bike_id":"28547c8c-576f-4a41-96ea-6e9c6c5ce61a","system_id":"levelo_inurba_marseille","lat":43.26584,"lon":5.39013,"is_reserved":false,"is_disabled":false,"rental_uris":{"android":"levelo://app?vid=28547c8c-576f-4a41-96ea-6e9c6c5ce61a","ios":"levelo://app?vid=28547c8c-576f-4a41-96ea-6e9c6c5ce61a"},"vehicle_type_id":"4","last_reported":1762161255,"current_range_meters":7200,"station_id":"ce4bhe12rcd13ifvqf30","pricing_plan_id":"cebpf4jnsgd1na2vs0mg"},{"bike_id":"66925e46-3d28-4952-8314-68099c46f540","system_id":"levelo_inurba_marseille","lat":43.295691,"lon":5.375284,"is_reserved":false,"is_disabled":false,"rental_uris":{"android":"levelo://app?vid=66925e46-3d28-4952-8314-68099c46f540","ios":"levelo://app?vid=66925e46-3d28-4952-8314-68099c46f540"},"vehicle_type_id":"4","last_reported":1762161255,"current_range_meters":7200,"station_id":"ce4bgh92rcd13ifvqb50","pricing_plan_id":"cebpf4jnsgd1na2vs0mg"},{"bike_id":"f23e5fe6-4a07-489a-a06b-127e3080f520","system_id":"levelo_inurba_marseille","lat":43.29006,"lon":5.38126,"is_reserved":false,"is_disabled":false,"rental_uris":{"android":"levelo://app?vid=f23e5fe6-4a07-489a-a06b-127e3080f520","ios":"levelo://app?vid=f23e5fe6-4a07-489a-a06b-127e3080f520"},"vehicle_type_id":"4","last_reported":1762161255,"current_range_meters":7200,"station_id":"ce4bh4p2rcd13ifvqe1g","pricing_plan_id":"cebpf4jnsgd1na2vs0mg"},{"bike_id":"169ca636-fb32-4fc5-b852-874228274473","system_id":"levelo_inurba_marseille","lat":43.34142,"lon":5.40902,"is_reserved":false,"is_disabled":false,"rental_uris":{"android":"levelo://app?vid=169ca636-fb32-4fc5-b852-874228274473","ios":"levelo://app?vid=169ca636-fb32-4fc5-b852-874228274473"},"vehicle_type_id":"4","last_reported":1762161255,"current_range_meters":8000,"station_id":"ce4bhqh2rcd13ifvqhlg","pricing_plan_id":"cebpf4jnsgd1na2vs0mg"},{"bike_id":"b75568d9-5244-44eb-9702-14ab2f3e4202","system_id":"levelo_inurba_marseille","lat":43.32285,"lon":5.38268,"is_reserved":false,"is_disabled":false,"rental_uris":{"android":"levelo://app?vid=b75568d9-5244-44eb-9702-14ab2f3e4202","ios":"levelo://app?vid=b75568d9-5244-44eb-9702-14ab2f3e4202"},"vehicle_type_id":"4","last_reported":1762161255,"current_range_meters":8000,"station_id":"ce4bhr12rcd13ifvqhqg","pricing_plan_id":"cebpf4jnsgd1na2vs0mg"},{"bike_id":"9d0b31e1-c7c7-4219-9b24-ff512070f034","system_id":"levelo_inurba_marseille","lat":43.30145,"lon":5.3806,"is_reserved":false,"is_disabled":false,"rental_uris":{"android":"levelo://app?vid=9d0b31e1-c7c7-4219-9b24-ff512070f034","ios":"levelo://app?vid=9d0b31e1-c7c7-4219-9b24-ff512070f034"},"vehicle_type_id":"4","last_reported":1762161255,"current_range_meters":8000,"station_id":"ce4bgjp2rcd13ifvqbh0","pricing_plan_id":"cebpf4jnsgd1na2vs0mg"},{"bike_id":"b880fdd7-0a6d-4eb8-9455-9560d9c55069","system_id":"levelo_inurba_marseille","lat":43.27496,"lon":5.42448,"is_reserved":false,"is_disabled":false,"rental_uris":{"android":"levelo://app?vid=b880fdd7-0a6d-4eb8-9455-9560d9c55069","ios":"levelo://app?vid=b880fdd7-0a6d-4eb8-9455-9560d9c55069"},"vehicle_type_id":"4","last_reported":1762161255,"current_range_meters":8400,"station_id":"ce4bhn92rcd13ifvqgrg","pricing_plan_id":"cebpf4jnsgd1na2vs0mg"},{"bike_id":"de0ca7a8-116a-46c8-8c50-6b445a473423","system_id":"levelo_inurba_marseille","lat":43.28875,"lon":5.42541,"is_reserved":false,"is_disabled":false,"rental_uris":{"android":"levelo://app?vid=de0ca7a8-116a-46c8-8c50-6b445a473423","ios":"levelo://app?vid=de0ca7a8-116a-46c8-8c50-6b445a473423"},"vehicle_type_id":"4","last_reported":1762161255,"current_range_meters":8400,"station_id":"st_d3b462108ojc7389ooeg","pricing_plan_id":"cebpf4jnsgd1na2vs0mg"},{"bike_id":"a0bbabc7-6009-4c92-9143-09b6b92969fe","system_id":"levelo_inurba_marseille","lat":43.3256,"lon":5.41429,"is_reserved":false,"is_disabled":false,"rental_uris":{"android":"levelo://app?vid=a0bbabc7-6009-4c92-9143-09b6b92969fe","ios":"levelo://app?vid=a0bbabc7-6009-4c92-9143-09b6b92969fe"},"vehicle_type_id":"4","last_reported":1762161255,"current_range_meters":8400,"station_id":"ce4bhq12rcd13ifvqhhg","pricing_plan_id":"cebpf4jnsgd1na2vs0mg"},{"bike_id":"6c390290-25db-484a-a017-69f36b30d21d","system_id":"levelo_inurba_marseille","lat":43.30535,"lon":5.36697,"is_reserved":false,"is_disabled":false,"rental_uris":{"android":"levelo://app?vid=6c390290-25db-484a-a017-69f36b30d21d","ios":"levelo://app?vid=6c390290-25db-484a-a017-69f36b30d21d"},"vehicle_type_id":"4","last_reported":1762161255,"current_range_meters":8400,"station_id":"ce4bgrp2rcd13ifvqc9g","pricing_plan_id":"cebpf4jnsgd1na2vs0mg"},{"bike_id":"84f1bfac-8d21-499b-b8e1-fdc8049e10ac","system_id":"levelo_inurba_marseille","lat":43.31287,"lon":5.37746,"is_reserved":false,"is_disabled":false,"rental_uris":{"android":"levelo://app?vid=84f1bfac-8d21-499b-b8e1-fdc8049e10ac","ios":"levelo://app?vid=84f1bfac-8d21-499b-b8e1-fdc8049e10ac"},"vehicle_type_id":"4","last_reported":1762161255,"current_range_meters":8400,"station_id":"","pricing_plan_id":"cebpf4jnsgd1na2vs0mg"},{"bike_id":"c4c5d540-caac-4903-aba8-275aa7fb9054","system_id":"levelo_inurba_marseille","lat":43.26574,"lon":5.39857,"is_reserved":false,"is_disabled":false,"rental_uris":{"android":"levelo://app?vid=c4c5d540-caac-4903-aba8-275aa7fb9054","ios":"levelo://app?vid=c4c5d540-caac-4903-aba8-275aa7fb9054"},"vehicle_type_id":"4","last_reported":1762161255,"current_range_meters":8400,"station_id":"","pricing_plan_id":"cebpf4jnsgd1na2vs0mg"},{"bike_id":"ea193cbb-ba5a-473d-a4dc-13f8e8c00e28","system_id":"levelo_inurba_marseille","lat":43.30889,"lon":5.39628,"is_reserved":false,"is_disabled":false,"rental_uris":{"android":"levelo://app?vid=ea193cbb-ba5a-473d-a4dc-13f8e8c00e28","ios":"levelo://app?vid=ea193cbb-ba5a-473d-a4dc-13f8e8c00e28"},"vehicle_type_id":"4","last_reported":1762161255,"current_range_meters":8400,"station_id":"ce4bh012rcd13ifvqcv0","pricing_plan_id":"cebpf4jnsgd1na2vs0mg"},{"bike_id":"806cc777-0c10-4f2f-b1d1-f523aaa01a63","system_id":"levelo_inurba_marseille","lat":43.23141,"lon":5.43726,"is_reserved":false,"is_disabled":false,"rental_uris":{"android":"levelo://app?vid=806cc777-0c10-4f2f-b1d1-f523aaa01a63","ios":"levelo://app?vid=806cc777-0c10-4f2f-b1d1-f523aaa01a63"},"vehicle_type_id":"4","last_reported":1762161255,"current_range_meters":8400,"station_id":"ce4bhmp2rcd13ifvqgog","pricing_plan_id":"cebpf4jnsgd1na2vs0mg"},{"bike_id":"ea8b436d-64bd-4ace-80da-4be491184ad7","system_id":"levelo_inurba_marseille","lat":43.33609,"lon":5.4103,"is_reserved":false,"is_disabled":false,"rental_uris":{"android":"levelo://app?vid=ea8b436d-64bd-4ace-80da-4be491184ad7","ios":"levelo://app?vid=ea8b436d-64bd-4ace-80da-4be491184ad7"},"vehicle_type_id":"4","last_reported":1762161255,"current_range_meters":8400,"station_id":"ce4bhqh2rcd13ifvqhmg","pricing_plan_id":"cebpf4jnsgd1na2vs0mg"},{"bike_id":"77679107-31f6-4769-888c-bfa8b6d2bccd","system_id":"levelo_inurba_marseille","lat":43.2884,"lon":5.42533,"is_reserved":false,"is_disabled":false,"rental_uris":{"android":"levelo://app?vid=77679107-31f6-4769-888c-bfa8b6d2bccd","ios":"levelo://app?vid=77679107-31f6-4769-888c-bfa8b6d2bccd"},"vehicle_type_id":"4","last_reported":1762161255,"current_range_meters":8800,"station_id":"st_d3b462108ojc7389ooeg","pricing_plan_id":"cebpf4jnsgd1na2vs0mg"},{"bike_id":"94e98b1d-2965-4f95-a377-9bef785b4e54","system_id":"levelo_inurba_marseille","lat":43.247974,"lon":5.37453,"is_reserved":false,"is_disabled":false,"rental_uris":{"android":"levelo://app?vid=94e98b1d-2965-4f95-a377-9bef785b4e54","ios":"levelo://app?vid=94e98b1d-2965-4f95-a377-9bef785b4e54"},"vehicle_type_id":"4","last_reported":1762161255,"current_range_meters":8800,"station_id":"ce4bhgh2rcd13ifvqfb0","pricing_plan_id":"cebpf4jnsgd1na2vs0mg"},{"bike_id":"721c632e-cb52-4d62-b0f4-f78059e85aec","system_id":"levelo_inurba_marseille","lat":43.24087,"lon":5.37745,"is_reserved":false,"is_disabled":false,"rental_uris":{"android":"levelo://app?vid=721c632e-cb52-4d62-b0f4-f78059e85aec","ios":"levelo://app?vid=721c632e-cb52-4d62-b0f4-f78059e85aec"},"vehicle_type_id":"4","last_reported":1762161255,"current_range_meters":8800,"station_id":"","pricing_plan_id":"cebpf4jnsgd1na2vs0mg"},{"bike_id":"b3126aee-672e-4e02-83ee-d5b8b4652bfd","system_id":"levelo_inurba_marseille","lat":43.29208,"lon":5.360367,"is_reserved":false,"is_disabled":false,"rental_uris":{"android":"levelo://app?vid=b3126aee-672e-4e02-83ee-d5b8b4652bfd","ios":"levelo://app?vid=b3126aee-672e-4e02-83ee-d5b8b4652bfd"},"vehicle_type_id":"4","last_reported":1762161255,"current_range_meters":8800,"station_id":"ce4bhbh2rcd13ifvqeqg","pricing_plan_id":"cebpf4jnsgd1na2vs0mg"},{"bike_id":"365750a8-ae80-496e-b99c-39fd38f5c490","system_id":"levelo_inurba_marseille","lat":43.28939,"lon":5.36642,"is_reserved":false,"is_disabled":false,"rental_uris":{"android":"levelo://app?vid=365750a8-ae80-496e-b99c-39fd38f5c490","ios":"levelo://app?vid=365750a8-ae80-496e-b99c-39fd38f5c490"},"vehicle_type_id":"4","last_reported":1762161255,"current_range_meters":9200,"station_id":"ce4bhap2rcd13ifvqek0","pricing_plan_id":"cebpf4jnsgd1na2vs0mg"},{"bike_id":"26451360-c1c8-464f-a7bf-bc2a31850d65","system_id":"levelo_inurba_marseille","lat":43.22534,"lon":5.34836,"is_reserved":false,"is_disabled":false,"rental_uris":{"android":"levelo://app?vid=26451360-c1c8-464f-a7bf-bc2a31850d65","ios":"levelo://app?vid=26451360-c1c8-464f-a7bf-bc2a31850d65"},"vehicle_type_id":"4","last_reported":1762161255,"current_range_meters":9200,"station_id":"","pricing_plan_id":"cebpf4jnsgd1na2vs0mg"},{"bike_id":"ebf85bdb-1a2b-49af-a88d-03e90d4c31b8","system_id":"levelo_inurba_marseille","lat":43.23955,"lon":5.36629,"is_reserved":false,"is_disabled":true,"rental_uris":{"android":"levelo://app?vid=ebf85bdb-1a2b-49af-a88d-03e90d4c31b8","ios":"levelo://app?vid=ebf85bdb-1a2b-49af-a88d-03e90d4c31b8"},"vehicle_type_id":"4","last_reported":1762161255,"current_range_meters":9200,"station_id":"ce4bhi12rcd13ifvqfp0","pricing_plan_id":"cebpf4jnsgd1na2vs0mg"},{"bike_id":"47fa1399-9770-42c8-b267-2ce2ddff9b4f","system_id":"levelo_inurba_marseille","lat":43.296,"lon":5.37727,"is_reserved":false,"is_disabled":false,"rental_uris":{"android":"levelo://app?vid=47fa1399-9770-42c8-b267-2ce2ddff9b4f","ios":"levelo://app?vid=47fa1399-9770-42c8-b267-2ce2ddff9b4f"},"vehicle_type_id":"4","last_reported":1762161255,"current_range_meters":9200,"station_id":"ce4bgi92rcd13ifvqb90","pricing_plan_id":"cebpf4jnsgd1na2vs0mg"},{"bike_id":"af79d3f1-ea9f-4c0b-9a2d-782b39386671","system_id":"levelo_inurba_marseille","lat":43.21754,"lon":5.34617,"is_reserved":false,"is_disabled":true,"rental_uris":{"android":"levelo://app?vid=af79d3f1-ea9f-4c0b-9a2d-782b39386671","ios":"levelo://app?vid=af79d3f1-ea9f-4c0b-9a2d-782b39386671"},"vehicle_type_id":"4","last_reported":1762161255,"current_range_meters":9200,"station_id":"st_cvj6r9ubvosntc0bgbag","pricing_plan_id":"cebpf4jnsgd1na2vs0mg"},{"bike_id":"9ba85076-7676-452a-8b12-b1d0582d1709","system_id":"levelo_inurba_marseille","lat":43.30145,"lon":5.37409,"is_reserved":false,"is_disabled":false,"rental_uris":{"android":"levelo://app?vid=9ba85076-7676-452a-8b12-b1d0582d1709","ios":"levelo://app?vid=9ba85076-7676-452a-8b12-b1d0582d1709"},"vehicle_type_id":"4","last_reported":1762161255,"current_range_meters":9200,"station_id":"ce4bgs92rcd13ifvqcc0","pricing_plan_id":"cebpf4jnsgd1na2vs0mg"},{"bike_id":"ba541a52-7e4e-4241-9791-ae6f1fb03dcd","system_id":"levelo_inurba_marseille","lat":43.32034,"lon":5.41572,"is_reserved":false,"is_disabled":false,"rental_uris":{"android":"levelo://app?vid=ba541a52-7e4e-4241-9791-ae6f1fb03dcd","ios":"levelo://app?vid=ba541a52-7e4e-4241-9791-ae6f1fb03dcd"},"vehicle_type_id":"4","last_reported":1762161255,"current_range_meters":9200,"station_id":"ce4bhq92rcd13ifvqhkg","pricing_plan_id":"cebpf4jnsgd1na2vs0mg"},{"bike_id":"066ede02-47a2-4c83-bcb1-7eb633a370fb","system_id":"levelo_inurba_marseille","lat":43.31295,"lon":5.37768,"is_reserved":false,"is_disabled":false,"rental_uris":{"android":"levelo://app?vid=066ede02-47a2-4c83-bcb1-7eb633a370fb","ios":"levelo://app?vid=066ede02-47a2-4c83-bcb1-7eb633a370fb"},"vehicle_type_id":"4","last_reported":1762161255,"current_range_meters":9600,"station_id":"","pricing_plan_id":"cebpf4jnsgd1na2vs0mg"},{"bike_id":"28e5e78d-97c9-4124-ae4c-2fe3bcfd4986","system_id":"levelo_inurba_marseille","lat":43.24091,"lon":5.37733,"is_reserved":false,"is_disabled":false,"rental_uris":{"android":"levelo://app?vid=28e5e78d-97c9-4124-ae4c-2fe3bcfd4986","ios":"levelo://app?vid=28e5e78d-97c9-4124-ae4c-2fe3bcfd4986"},"vehicle_type_id":"4","last_reported":1762161255,"current_range_meters":9600,"station_id":"","pricing_plan_id":"cebpf4jnsgd1na2vs0mg"},{"bike_id":"7419db87-3322-4dfb-9891-f33725aac996","system_id":"levelo_inurba_marseille","lat":43.27072,"lon":5.42263,"is_reserved":false,"is_disabled":false,"rental_uris":{"android":"levelo://app?vid=7419db87-3322-4dfb-9891-f33725aac996","ios":"levelo://app?vid=7419db87-3322-4dfb-9891-f33725aac996"},"vehicle_type_id":"4","last_reported":1762161255,"current_range_meters":9600,"station_id":"ce4bhk92rcd13ifvqgb0","pricing_plan_id":"cebpf4jnsgd1na2vs0mg"},{"bike_id":"0400dc4d-6325-4260-b614-0fbfafbe79b1","system_id":"levelo_inurba_marseille","lat":43.255752,"lon":5.382355,"is_reserved":false,"is_disabled":false,"rental_uris":{"android":"levelo://app?vid=0400dc4d-6325-4260-b614-0fbfafbe79b1","ios":"levelo://app?vid=0400dc4d-6325-4260-b614-0fbfafbe79b1"},"vehicle_type_id":"4","last_reported":1762161255,"current_range_meters":9600,"station_id":"ce4bhih2rcd13ifvqfs0","pricing_plan_id":"cebpf4jnsgd1na2vs0mg"},{"bike_id":"bebae95e-1e51-4e89-9f8b-f413cb5a56ac","system_id":"levelo_inurba_marseille","lat":43.273643,"lon":5.362703,"is_reserved":false,"is_disabled":false,"rental_uris":{"android":"levelo://app?vid=bebae95e-1e51-4e89-9f8b-f413cb5a56ac","ios":"levelo://app?vid=bebae95e-1e51-4e89-9f8b-f413cb5a56ac"},"vehicle_type_id":"4","last_reported":1762161255,"current_range_meters":9600,"station_id":"ce4bhbh2rcd13ifvqeo0","pricing_plan_id":"cebpf4jnsgd1na2vs0mg"},{"bike_id":"423802bb-722e-4533-9018-c0f75cce34a6","system_id":"levelo_inurba_marseille","lat":43.306622,"lon":5.381692,"is_reserved":false,"is_disabled":false,"rental_uris":{"android":"levelo://app?vid=423802bb-722e-4533-9018-c0f75cce34a6","ios":"levelo://app?vid=423802bb-722e-4533-9018-c0f75cce34a6"},"vehicle_type_id":"4","last_reported":1762161255,"current_range_meters":10000,"station_id":"","pricing_plan_id":"cebpf4jnsgd1na2vs0mg"},{"bike_id":"4fe88f25-9c82-4678-b7b4-42819f510084","system_id":"levelo_inurba_marseille","lat":43.298466,"lon":5.362706,"is_reserved":false,"is_disabled":false,"rental_uris":{"android":"levelo://app?vid=4fe88f25-9c82-4678-b7b4-42819f510084","ios":"levelo://app?vid=4fe88f25-9c82-4678-b7b4-42819f510084"},"vehicle_type_id":"4","last_reported":1762161255,"current_range_meters":10000,"station_id":"ce4bgpp2rcd13ifvqc3g","pricing_plan_id":"cebpf4jnsgd1na2vs0mg"},{"bike_id":"9a8800fa-24be-4848-a250-19e32415acb4","system_id":"levelo_inurba_marseille","lat":43.21194,"lon":5.35071,"is_reserved":false,"is_disabled":false,"rental_uris":{"android":"levelo://app?vid=9a8800fa-24be-4848-a250-19e32415acb4","ios":"levelo://app?vid=9a8800fa-24be-4848-a250-19e32415acb4"},"vehicle_type_id":"4","last_reported":1762161255,"current_range_meters":10000,"station_id":"st_cvj6sg6p6f1abm77japg","pricing_plan_id":"cebpf4jnsgd1na2vs0mg"},{"bike_id":"d254734a-4b27-4d73-aa91-63ac63092b67","system_id":"levelo_inurba_marseille","lat":43.29036,"lon":5.37568,"is_reserved":false,"is_disabled":false,"rental_uris":{"android":"levelo://app?vid=d254734a-4b27-4d73-aa91-63ac63092b67","ios":"levelo://app?vid=d254734a-4b27-4d73-aa91-63ac63092b67"},"vehicle_type_id":"4","last_reported":1762161255,"current_range_meters":10000,"station_id":"ce4bh692rcd13ifvqe90","pricing_plan_id":"cebpf4jnsgd1na2vs0mg"},{"bike_id":"72b7d3ac-ab16-40a2-907e-1dcd4cfcddb9","system_id":"levelo_inurba_marseille","lat":43.278079,"lon":5.407193,"is_reserved":false,"is_disabled":false,"rental_uris":{"android":"levelo://app?vid=72b7d3ac-ab16-40a2-907e-1dcd4cfcddb9","ios":"levelo://app?vid=72b7d3ac-ab16-40a2-907e-1dcd4cfcddb9"},"vehicle_type_id":"4","last_reported":1762161255,"current_range_meters":10000,"station_id":"ce4bhnh2rcd13ifvqgtg","pricing_plan_id":"cebpf4jnsgd1na2vs0mg"},{"bike_id":"ec1a2785-e623-4205-ae6b-d306b1402770","system_id":"levelo_inurba_marseille","lat":43.29741,"lon":5.42778,"is_reserved":false,"is_disabled":false,"rental_uris":{"android":"levelo://app?vid=ec1a2785-e623-4205-ae6b-d306b1402770","ios":"levelo://app?vid=ec1a2785-e623-4205-ae6b-d306b1402770"},"vehicle_type_id":"4","last_reported":1762161255,"current_range_meters":10000,"station_id":"st_d3md5207bmas73dh9klg","pricing_plan_id":"cebpf4jnsgd1na2vs0mg"},{"bike_id":"2ff20ab9-b52b-4e51-beea-738711729e0e","system_id":"levelo_inurba_marseille","lat":43.211922,"lon":5.350685,"is_reserved":false,"is_disabled":false,"rental_uris":{"android":"levelo://app?vid=2ff20ab9-b52b-4e51-beea-738711729e0e","ios":"levelo://app?vid=2ff20ab9-b52b-4e51-beea-738711729e0e"},"vehicle_type_id":"4","last_reported":1762161255,"current_range_meters":10000,"station_id":"st_cvj6sg6p6f1abm77japg","pricing_plan_id":"cebpf4jnsgd1na2vs0mg"},{"bike_id":"6267ef2f-f2b0-45c4-bad4-dc3b4c136c76","system_id":"levelo_inurba_marseille","lat":43.33025,"lon":5.39037,"is_reserved":false,"is_disabled":false,"rental_uris":{"android":"levelo://app?vid=6267ef2f-f2b0-45c4-bad4-dc3b4c136c76","ios":"levelo://app?vid=6267ef2f-f2b0-45c4-bad4-dc3b4c136c76"},"vehicle_type_id":"4","last_reported":1762161255,"current_range_meters":10000,"station_id":"ce4bhr92rcd13ifvqhrg","pricing_plan_id":"cebpf4jnsgd1na2vs0mg"},{"bike_id":"4e440271-e188-46d2-b5ca-300fe9c5cf04","system_id":"levelo_inurba_marseille","lat":43.298525,"lon":5.36275,"is_reserved":false,"is_disabled":false,"rental_uris":{"android":"levelo://app?vid=4e440271-e188-46d2-b5ca-300fe9c5cf04","ios":"levelo://app?vid=4e440271-e188-46d2-b5ca-300fe9c5cf04"},"vehicle_type_id":"4","last_reported":1762161255,"current_range_meters":10000,"station_id":"ce4bgpp2rcd13ifvqc3g","pricing_plan_id":"cebpf4jnsgd1na2vs0mg"},{"bike_id":"21e71948-c9be-4ef1-bacb-2f869e213ba4","system_id":"levelo_inurba_marseille","lat":43.26057,"lon":5.394,"is_reserved":false,"is_disabled":false,"rental_uris":{"android":"levelo://app?vid=21e71948-c9be-4ef1-bacb-2f869e213ba4","ios":"levelo://app?vid=21e71948-c9be-4ef1-bacb-2f869e213ba4"},"vehicle_type_id":"4","last_reported":1762161255,"current_range_meters":10800,"station_id":"ce4bhh92rcd13ifvqfj0","pricing_plan_id":"cebpf4jnsgd1na2vs0mg"},{"bike_id":"5bfc0a53-3678-442b-8bcd-954b3b39edbb","system_id":"levelo_inurba_marseille","lat":43.24073,"lon":5.377662,"is_reserved":false,"is_disabled":false,"rental_uris":{"android":"levelo://app?vid=5bfc0a53-3678-442b-8bcd-954b3b39edbb","ios":"levelo://app?vid=5bfc0a53-3678-442b-8bcd-954b3b39edbb"},"vehicle_type_id":"4","last_reported":1762161255,"current_range_meters":10800,"station_id":"ce4bhnp2rcd13ifvqgvg","pricing_plan_id":"cebpf4jnsgd1na2vs0mg"},{"bike_id":"3f947c23-ae34-4c1f-9a5e-d145a37c54c9","system_id":"levelo_inurba_marseille","lat":43.253346,"lon":5.421681,"is_reserved":false,"is_disabled":false,"rental_uris":{"android":"levelo://app?vid=3f947c23-ae34-4c1f-9a5e-d145a37c54c9","ios":"levelo://app?vid=3f947c23-ae34-4c1f-9a5e-d145a37c54c9"},"vehicle_type_id":"4","last_reported":1762161255,"current_range_meters":10800,"station_id":"st_d2m65c5bi1j21697t3ng","pricing_plan_id":"cebpf4jnsgd1na2vs0mg"},{"bike_id":"fe2272ea-7316-4280-b90c-d8c4db7bc73e","system_id":"levelo_inurba_marseille","lat":43.27959,"lon":5.393,"is_reserved":false,"is_disabled":false,"rental_uris":{"android":"levelo://app?vid=fe2272ea-7316-4280-b90c-d8c4db7bc73e","ios":"levelo://app?vid=fe2272ea-7316-4280-b90c-d8c4db7bc73e"},"vehicle_type_id":"4","last_reported":1762161255,"current_range_meters":10800,"station_id":"","pricing_plan_id":"cebpf4jnsgd1na2vs0mg"},{"bike_id":"b4233161-9917-437b-90dc-491e5a5d5214","system_id":"levelo_inurba_marseille","lat":43.26564,"lon":5.37282,"is_reserved":false,"is_disabled":false,"rental_uris":{"android":"levelo://app?vid=b4233161-9917-437b-90dc-491e5a5d5214","ios":"levelo://app?vid=b4233161-9917-437b-90dc-491e5a5d5214"},"vehicle_type_id":"4","last_reported":1762161255,"current_range_meters":10800,"station_id":"ce4bhg12rcd13ifvqf70","pricing_plan_id":"cebpf4jnsgd1na2vs0mg"},{"bike_id":"ddf0cc27-c6a2-4cb1-914f-948ee3731571","system_id":"levelo_inurba_marseille","lat":43.3054,"lon":5.36714,"is_reserved":false,"is_disabled":false,"rental_uris":{"android":"levelo://app?vid=ddf0cc27-c6a2-4cb1-914f-948ee3731571","ios":"levelo://app?vid=ddf0cc27-c6a2-4cb1-914f-948ee3731571"},"vehicle_type_id":"4","last_reported":1762161255,"current_range_meters":10800,"station_id":"ce4bgrp2rcd13ifvqc9g","pricing_plan_id":"cebpf4jnsgd1na2vs0mg"},{"bike_id":"d9493c75-f63c-4e3c-9735-e1df060fedd8","system_id":"levelo_inurba_marseille","lat":43.28004,"lon":5.38706,"is_reserved":false,"is_disabled":false,"rental_uris":{"android":"levelo://app?vid=d9493c75-f63c-4e3c-9735-e1df060fedd8","ios":"levelo://app?vid=d9493c75-f63c-4e3c-9735-e1df060fedd8"},"vehicle_type_id":"4","last_reported":1762161255,"current_range_meters":11200,"station_id":"ce4bhg12rcd13ifvqf80","pricing_plan_id":"cebpf4jnsgd1na2vs0mg"},{"bike_id":"81a97519-5904-41c0-a8c7-eca9030d2094","system_id":"levelo_inurba_marseille","lat":43.25569,"lon":5.38237,"is_reserved":false,"is_disabled":false,"rental_uris":{"android":"levelo://app?vid=81a97519-5904-41c0-a8c7-eca9030d2094","ios":"levelo://app?vid=81a97519-5904-41c0-a8c7-eca9030d2094"},"vehicle_type_id":"4","last_reported":1762161255,"current_range_meters":11200,"station_id":"ce4bhih2rcd13ifvqfs0","pricing_plan_id":"cebpf4jnsgd1na2vs0mg"},{"bike_id":"f557c786-2345-4ac4-a840-c1dcc726774f","system_id":"levelo_inurba_marseille","lat":43.31074,"lon":5.38352,"is_reserved":false,"is_disabled":true,"rental_uris":{"android":"levelo://app?vid=f557c786-2345-4ac4-a840-c1dcc726774f","ios":"levelo://app?vid=f557c786-2345-4ac4-a840-c1dcc726774f"},"vehicle_type_id":"4","last_reported":1762161255,"current_range_meters":11200,"station_id":"ce4bgv92rcd13ifvqcr0","pricing_plan_id":"cebpf4jnsgd1na2vs0mg"},{"bike_id":"85a35f22-a194-4927-a76c-4d4622f0c942","system_id":"levelo_inurba_marseille","lat":43.26676,"lon":5.38252,"is_reserved":false,"is_disabled":false,"rental_uris":{"android":"levelo://app?vid=85a35f22-a194-4927-a76c-4d4622f0c942","ios":"levelo://app?vid=85a35f22-a194-4927-a76c-4d4622f0c942"},"vehicle_type_id":"4","last_reported":1762161255,"current_range_meters":11200,"station_id":"ce4bhg92rcd13ifvqf90","pricing_plan_id":"cebpf4jnsgd1na2vs0mg"},{"bike_id":"69567e7d-95f6-4822-8ba4-62a5775a31e4","system_id":"levelo_inurba_marseille","lat":43.29004,"lon":5.39993,"is_reserved":false,"is_disabled":false,"rental_uris":{"android":"levelo://app?vid=69567e7d-95f6-4822-8ba4-62a5775a31e4","ios":"levelo://app?vid=69567e7d-95f6-4822-8ba4-62a5775a31e4"},"vehicle_type_id":"4","last_reported":1762161255,"current_range_meters":11200,"station_id":"ce4bh392rcd13ifvqdm0","pricing_plan_id":"cebpf4jnsgd1na2vs0mg"},{"bike_id":"b39a68b5-474c-4de1-bf01-0004908de877","system_id":"levelo_inurba_marseille","lat":43.29968,"lon":5.384914,"is_reserved":false,"is_disabled":false,"rental_uris":{"android":"levelo://app?vid=b39a68b5-474c-4de1-bf01-0004908de877","ios":"levelo://app?vid=b39a68b5-474c-4de1-bf01-0004908de877"},"vehicle_type_id":"4","last_reported":1762161255,"current_range_meters":11200,"station_id":"ce4bgj92rcd13ifvqbd0","pricing_plan_id":"cebpf4jnsgd1na2vs0mg"},{"bike_id":"35d638e5-e289-4767-93f6-59d2ea427782","system_id":"levelo_inurba_marseille","lat":43.33606,"lon":5.41028,"is_reserved":false,"is_disabled":false,"rental_uris":{"android":"levelo://app?vid=35d638e5-e289-4767-93f6-59d2ea427782","ios":"levelo://app?vid=35d638e5-e289-4767-93f6-59d2ea427782"},"vehicle_type_id":"4","last_reported":1762161255,"current_range_meters":11200,"station_id":"ce4bhqh2rcd13ifvqhmg","pricing_plan_id":"cebpf4jnsgd1na2vs0mg"},{"bike_id":"357784e0-29d7-4db1-8724-5a66c8076e46","system_id":"levelo_inurba_marseille","lat":43.25589,"lon":5.38223,"is_reserved":false,"is_disabled":false,"rental_uris":{"android":"levelo://app?vid=357784e0-29d7-4db1-8724-5a66c8076e46","ios":"levelo://app?vid=357784e0-29d7-4db1-8724-5a66c8076e46"},"vehicle_type_id":"4","last_reported":1762161255,"current_range_meters":11600,"station_id":"ce4bhih2rcd13ifvqfs0","pricing_plan_id":"cebpf4jnsgd1na2vs0mg"},{"bike_id":"5a3b55bf-3980-4469-95ec-f32deb7bdad3","system_id":"levelo_inurba_marseille","lat":43.3144,"lon":5.39275,"is_reserved":false,"is_disabled":false,"rental_uris":{"android":"levelo://app?vid=5a3b55bf-3980-4469-95ec-f32deb7bdad3","ios":"levelo://app?vid=5a3b55bf-3980-4469-95ec-f32deb7bdad3"},"vehicle_type_id":"4","last_reported":1762161255,"current_range_meters":11600,"station_id":"","pricing_plan_id":"cebpf4jnsgd1na2vs0mg"},{"bike_id":"0a54d18f-fe43-4be5-a009-461a89594788","system_id":"levelo_inurba_marseille","lat":43.28274,"lon":5.35067,"is_reserved":false,"is_disabled":true,"rental_uris":{"android":"levelo://app?vid=0a54d18f-fe43-4be5-a009-461a89594788","ios":"levelo://app?vid=0a54d18f-fe43-4be5-a009-461a89594788"},"vehicle_type_id":"4","last_reported":1762161255,"current_range_meters":12000,"station_id":"ce4bhbp2rcd13ifvqerg","pricing_plan_id":"cebpf4jnsgd1na2vs0mg"},{"bike_id":"ffe7d14f-4825-424e-aa09-6f076e06a44f","system_id":"levelo_inurba_marseille","lat":43.27323,"lon":5.39101,"is_reserved":false,"is_disabled":false,"rental_uris":{"android":"levelo://app?vid=ffe7d14f-4825-424e-aa09-6f076e06a44f","ios":"levelo://app?vid=ffe7d14f-4825-424e-aa09-6f076e06a44f"},"vehicle_type_id":"4","last_reported":1762161255,"current_range_meters":12000,"station_id":"ce4bhgp2rcd13ifvqfe0","pricing_plan_id":"cebpf4jnsgd1na2vs0mg"},{"bike_id":"bbfaa054-3bde-4aa6-8d40-ce2fd793f9c3","system_id":"levelo_inurba_marseille","lat":43.24177,"lon":5.36398,"is_reserved":false,"is_disabled":true,"rental_uris":{"android":"levelo://app?vid=bbfaa054-3bde-4aa6-8d40-ce2fd793f9c3","ios":"levelo://app?vid=bbfaa054-3bde-4aa6-8d40-ce2fd793f9c3"},"vehicle_type_id":"4","last_reported":1762161255,"current_range_meters":12000,"station_id":"cpo36qri1sfpv3e86is0","pricing_plan_id":"cebpf4jnsgd1na2vs0mg"},{"bike_id":"a86e4117-515a-45fd-a9ae-9bf165d5c212","system_id":"levelo_inurba_marseille","lat":43.31262,"lon":5.37847,"is_reserved":false,"is_disabled":false,"rental_uris":{"android":"levelo://app?vid=a86e4117-515a-45fd-a9ae-9bf165d5c212","ios":"levelo://app?vid=a86e4117-515a-45fd-a9ae-9bf165d5c212"},"vehicle_type_id":"4","last_reported":1762161255,"current_range_meters":12000,"station_id":"","pricing_plan_id":"cebpf4jnsgd1na2vs0mg"},{"bike_id":"cb6c36c2-4646-44ee-b9d1-9f2d0dee0a1f","system_id":"levelo_inurba_marseille","lat":43.240695,"lon":5.377607,"is_reserved":false,"is_disabled":false,"rental_uris":{"android":"levelo://app?vid=cb6c36c2-4646-44ee-b9d1-9f2d0dee0a1f","ios":"levelo://app?vid=cb6c36c2-4646-44ee-b9d1-9f2d0dee0a1f"},"vehicle_type_id":"4","last_reported":1762161255,"current_range_meters":12000,"station_id":"ce4bhnp2rcd13ifvqgvg","pricing_plan_id":"cebpf4jnsgd1na2vs0mg"},{"bike_id":"6eb523a4-350d-4959-ac5e-1335d8f70954","system_id":"levelo_inurba_marseille","lat":43.315717,"lon":5.406423,"is_reserved":false,"is_disabled":false,"rental_uris":{"android":"levelo://app?vid=6eb523a4-350d-4959-ac5e-1335d8f70954","ios":"levelo://app?vid=6eb523a4-350d-4959-ac5e-1335d8f70954"},"vehicle_type_id":"4","last_reported":1762161255,"current_range_meters":12000,"station_id":"","pricing_plan_id":"cebpf4jnsgd1na2vs0mg"},{"bike_id":"12a2a576-9538-4fb8-a8a4-cb8830f36a28","system_id":"levelo_inurba_marseille","lat":43.295908,"lon":5.367373,"is_reserved":false,"is_disabled":false,"rental_uris":{"android":"levelo://app?vid=12a2a576-9538-4fb8-a8a4-cb8830f36a28","ios":"levelo://app?vid=12a2a576-9538-4fb8-a8a4-cb8830f36a28"},"vehicle_type_id":"4","last_reported":1762161255,"current_range_meters":12000,"station_id":"ce4bgph2rcd13ifvqc2g","pricing_plan_id":"cebpf4jnsgd1na2vs0mg"},{"bike_id":"82f4377e-5f31-4383-a4f9-312db5aaee33","system_id":"levelo_inurba_marseille","lat":43.30464,"lon":5.37914,"is_reserved":false,"is_disabled":false,"rental_uris":{"android":"levelo://app?vid=82f4377e-5f31-4383-a4f9-312db5aaee33","ios":"levelo://app?vid=82f4377e-5f31-4383-a4f9-312db5aaee33"},"vehicle_type_id":"4","last_reported":1762161255,"current_range_meters":12000,"station_id":"ce4bgup2rcd13ifvqcn0","pricing_plan_id":"cebpf4jnsgd1na2vs0mg"},{"bike_id":"d14e592c-fa52-4194-b611-2b24c24a94f6","system_id":"levelo_inurba_marseille","lat":43.26928,"lon":5.38902,"is_reserved":false,"is_disabled":false,"rental_uris":{"android":"levelo://app?vid=d14e592c-fa52-4194-b611-2b24c24a94f6","ios":"levelo://app?vid=d14e592c-fa52-4194-b611-2b24c24a94f6"},"vehicle_type_id":"4","last_reported":1762161255,"current_range_meters":12000,"station_id":"ce4bhhh2rcd13ifvqfl0","pricing_plan_id":"cebpf4jnsgd1na2vs0mg"},{"bike_id":"2780d527-e59a-4560-a031-f4af2150cffc","system_id":"levelo_inurba_marseille","lat":43.29587,"lon":5.36727,"is_reserved":false,"is_disabled":false,"rental_uris":{"android":"levelo://app?vid=2780d527-e59a-4560-a031-f4af2150cffc","ios":"levelo://app?vid=2780d527-e59a-4560-a031-f4af2150cffc"},"vehicle_type_id":"4","last_reported":1762161255,"current_range_meters":12000,"station_id":"ce4bgph2rcd13ifvqc2g","pricing_plan_id":"cebpf4jnsgd1na2vs0mg"},{"bike_id":"5593c75f-c45e-45ed-9fae-e2676a986a0e","system_id":"levelo_inurba_marseille","lat":43.25928,"lon":5.40902,"is_reserved":false,"is_disabled":false,"rental_uris":{"android":"levelo://app?vid=5593c75f-c45e-45ed-9fae-e2676a986a0e","ios":"levelo://app?vid=5593c75f-c45e-45ed-9fae-e2676a986a0e"},"vehicle_type_id":"4","last_reported":1762161255,"current_range_meters":12400,"station_id":"ce4bhm92rcd13ifvqglg","pricing_plan_id":"cebpf4jnsgd1na2vs0mg"},{"bike_id":"05752604-98b5-4eca-b6d4-7951f7da6439","system_id":"levelo_inurba_marseille","lat":43.30924,"lon":5.36846,"is_reserved":false,"is_disabled":false,"rental_uris":{"android":"levelo://app?vid=05752604-98b5-4eca-b6d4-7951f7da6439","ios":"levelo://app?vid=05752604-98b5-4eca-b6d4-7951f7da6439"},"vehicle_type_id":"4","last_reported":1762161255,"current_range_meters":12400,"station_id":"ce4bgn92rcd13ifvqbvg","pricing_plan_id":"cebpf4jnsgd1na2vs0mg"},{"bike_id":"d7420e2c-f073-4c34-8c4f-ea109e498c21","system_id":"levelo_inurba_marseille","lat":43.25933,"lon":5.40895,"is_reserved":false,"is_disabled":false,"rental_uris":{"android":"levelo://app?vid=d7420e2c-f073-4c34-8c4f-ea109e498c21","ios":"levelo://app?vid=d7420e2c-f073-4c34-8c4f-ea109e498c21"},"vehicle_type_id":"4","last_reported":1762161255,"current_range_meters":12400,"station_id":"ce4bhm92rcd13ifvqglg","pricing_plan_id":"cebpf4jnsgd1na2vs0mg"},{"bike_id":"0b29fc28-1f0d-4d6c-b71f-627728651ef4","system_id":"levelo_inurba_marseille","lat":43.301347,"lon":5.387769,"is_reserved":false,"is_disabled":false,"rental_uris":{"android":"levelo://app?vid=0b29fc28-1f0d-4d6c-b71f-627728651ef4","ios":"levelo://app?vid=0b29fc28-1f0d-4d6c-b71f-627728651ef4"},"vehicle_type_id":"4","last_reported":1762161255,"current_range_meters":12400,"station_id":"ce4bghh2rcd13ifvqb60","pricing_plan_id":"cebpf4jnsgd1na2vs0mg"},{"bike_id":"0163419c-1679-45e1-9032-cce11e007e49","system_id":"levelo_inurba_marseille","lat":43.23138,"lon":5.43702,"is_reserved":false,"is_disabled":false,"rental_uris":{"android":"levelo://app?vid=0163419c-1679-45e1-9032-cce11e007e49","ios":"levelo://app?vid=0163419c-1679-45e1-9032-cce11e007e49"},"vehicle_type_id":"4","last_reported":1762161255,"current_range_meters":12400,"station_id":"ce4bhmp2rcd13ifvqgog","pricing_plan_id":"cebpf4jnsgd1na2vs0mg"},{"bike_id":"e419722c-f733-4d7c-8bee-89e1642e91ec","system_id":"levelo_inurba_marseille","lat":43.31367,"lon":5.37614,"is_reserved":false,"is_disabled":false,"rental_uris":{"android":"levelo://app?vid=e419722c-f733-4d7c-8bee-89e1642e91ec","ios":"levelo://app?vid=e419722c-f733-4d7c-8bee-89e1642e91ec"},"vehicle_type_id":"4","last_reported":1762161255,"current_range_meters":12400,"station_id":"","pricing_plan_id":"cebpf4jnsgd1na2vs0mg"},{"bike_id":"b2514755-0f11-4833-b225-7d1f8289efa4","system_id":"levelo_inurba_marseille","lat":43.22926,"lon":5.35382,"is_reserved":false,"is_disabled":false,"rental_uris":{"android":"levelo://app?vid=b2514755-0f11-4833-b225-7d1f8289efa4","ios":"levelo://app?vid=b2514755-0f11-4833-b225-7d1f8289efa4"},"vehicle_type_id":"4","last_reported":1762161255,"current_range_meters":12400,"station_id":"cpo3532slgdg3j2ikp40","pricing_plan_id":"cebpf4jnsgd1na2vs0mg"},{"bike_id":"aa56963e-5f6a-4043-b1c7-23e4d9f05d8c","system_id":"levelo_inurba_marseille","lat":43.313499,"lon":5.379119,"is_reserved":false,"is_disabled":false,"rental_uris":{"android":"levelo://app?vid=aa56963e-5f6a-4043-b1c7-23e4d9f05d8c","ios":"levelo://app?vid=aa56963e-5f6a-4043-b1c7-23e4d9f05d8c"},"vehicle_type_id":"4","last_reported":1762161255,"current_range_meters":12400,"station_id":"","pricing_plan_id":"cebpf4jnsgd1na2vs0mg"},{"bike_id":"4f2bc3ad-b415-488b-8f61-82ffa20bd94f","system_id":"levelo_inurba_marseille","lat":43.291853,"lon":5.358182,"is_reserved":false,"is_disabled":false,"rental_uris":{"android":"levelo://app?vid=4f2bc3ad-b415-488b-8f61-82ffa20bd94f","ios":"levelo://app?vid=4f2bc3ad-b415-488b-8f61-82ffa20bd94f"},"vehicle_type_id":"4","last_reported":1762161255,"current_range_meters":12400,"station_id":"ce4bhb12rcd13ifvqel0","pricing_plan_id":"cebpf4jnsgd1na2vs0mg"},{"bike_id":"74a4a2d8-92cf-4964-acc9-73f94e919d09","system_id":"levelo_inurba_marseille","lat":43.30421,"lon":5.41283,"is_reserved":false,"is_disabled":false,"rental_uris":{"android":"levelo://app?vid=74a4a2d8-92cf-4964-acc9-73f94e919d09","ios":"levelo://app?vid=74a4a2d8-92cf-4964-acc9-73f94e919d09"},"vehicle_type_id":"4","last_reported":1762161255,"current_range_meters":12800,"station_id":"ce4bhop2rcd13ifvqh8g","pricing_plan_id":"cebpf4jnsgd1na2vs0mg"},{"bike_id":"65959e76-2dec-43d3-b15c-b4e7433182fd","system_id":"levelo_inurba_marseille","lat":43.293631,"lon":5.371955,"is_reserved":false,"is_disabled":false,"rental_uris":{"android":"levelo://app?vid=65959e76-2dec-43d3-b15c-b4e7433182fd","ios":"levelo://app?vid=65959e76-2dec-43d3-b15c-b4e7433182fd"},"vehicle_type_id":"4","last_reported":1762161255,"current_range_meters":12800,"station_id":"","pricing_plan_id":"cebpf4jnsgd1na2vs0mg"},{"bike_id":"b028a7b7-523b-439d-8e11-3c320950d782","system_id":"levelo_inurba_marseille","lat":43.30219,"lon":5.37667,"is_reserved":false,"is_disabled":false,"rental_uris":{"android":"levelo://app?vid=b028a7b7-523b-439d-8e11-3c320950d782","ios":"levelo://app?vid=b028a7b7-523b-439d-8e11-3c320950d782"},"vehicle_type_id":"4","last_reported":1762161255,"current_range_meters":12800,"station_id":"","pricing_plan_id":"cebpf4jnsgd1na2vs0mg"},{"bike_id":"9ee0ca18-2f71-4e87-8c60-48d7271e0e0a","system_id":"levelo_inurba_marseille","lat":43.29031,"lon":5.37567,"is_reserved":false,"is_disabled":false,"rental_uris":{"android":"levelo://app?vid=9ee0ca18-2f71-4e87-8c60-48d7271e0e0a","ios":"levelo://app?vid=9ee0ca18-2f71-4e87-8c60-48d7271e0e0a"},"vehicle_type_id":"4","last_reported":1762161255,"current_range_meters":12800,"station_id":"ce4bh692rcd13ifvqe90","pricing_plan_id":"cebpf4jnsgd1na2vs0mg"},{"bike_id":"e160d979-51b7-4c28-9faf-1440243d1612","system_id":"levelo_inurba_marseille","lat":43.265763,"lon":5.39013,"is_reserved":false,"is_disabled":false,"rental_uris":{"android":"levelo://app?vid=e160d979-51b7-4c28-9faf-1440243d1612","ios":"levelo://app?vid=e160d979-51b7-4c28-9faf-1440243d1612"},"vehicle_type_id":"4","last_reported":1762161255,"current_range_meters":12800,"station_id":"ce4bhe12rcd13ifvqf30","pricing_plan_id":"cebpf4jnsgd1na2vs0mg"},{"bike_id":"bd892b37-b9e3-4c40-a276-e0fc8291fdbb","system_id":"levelo_inurba_marseille","lat":43.27677,"lon":5.38876,"is_reserved":false,"is_disabled":false,"rental_uris":{"android":"levelo://app?vid=bd892b37-b9e3-4c40-a276-e0fc8291fdbb","ios":"levelo://app?vid=bd892b37-b9e3-4c40-a276-e0fc8291fdbb"},"vehicle_type_id":"4","last_reported":1762161255,"current_range_meters":12800,"station_id":"ce4bhi12rcd13ifvqfo0","pricing_plan_id":"cebpf4jnsgd1na2vs0mg"},{"bike_id":"8ec32919-9adc-4a63-8582-9123feddc5fc","system_id":"levelo_inurba_marseille","lat":43.27496,"lon":5.42454,"is_reserved":false,"is_disabled":false,"rental_uris":{"android":"levelo://app?vid=8ec32919-9adc-4a63-8582-9123feddc5fc","ios":"levelo://app?vid=8ec32919-9adc-4a63-8582-9123feddc5fc"},"vehicle_type_id":"4","last_reported":1762161255,"current_range_meters":13600,"station_id":"ce4bhn92rcd13ifvqgrg","pricing_plan_id":"cebpf4jnsgd1na2vs0mg"},{"bike_id":"ef3051ac-87a4-400e-a432-5bfc2a83a3e3","system_id":"levelo_inurba_marseille","lat":43.32486,"lon":5.36577,"is_reserved":false,"is_disabled":false,"rental_uris":{"android":"levelo://app?vid=ef3051ac-87a4-400e-a432-5bfc2a83a3e3","ios":"levelo://app?vid=ef3051ac-87a4-400e-a432-5bfc2a83a3e3"},"vehicle_type_id":"4","last_reported":1762161255,"current_range_meters":13600,"station_id":"ce4bhs12rcd13ifvqhvg","pricing_plan_id":"cebpf4jnsgd1na2vs0mg"},{"bike_id":"8a55456c-f67d-4191-b598-f80968fbbe70","system_id":"levelo_inurba_marseille","lat":43.30879,"lon":5.3964,"is_reserved":false,"is_disabled":false,"rental_uris":{"android":"levelo://app?vid=8a55456c-f67d-4191-b598-f80968fbbe70","ios":"levelo://app?vid=8a55456c-f67d-4191-b598-f80968fbbe70"},"vehicle_type_id":"4","last_reported":1762161255,"current_range_meters":13600,"station_id":"ce4bh012rcd13ifvqcv0","pricing_plan_id":"cebpf4jnsgd1na2vs0mg"},{"bike_id":"db6e6260-2d85-4166-9263-dac4db5de003","system_id":"levelo_inurba_marseille","lat":43.29892,"lon":5.37481,"is_reserved":false,"is_disabled":false,"rental_uris":{"android":"levelo://app?vid=db6e6260-2d85-4166-9263-dac4db5de003","ios":"levelo://app?vid=db6e6260-2d85-4166-9263-dac4db5de003"},"vehicle_type_id":"4","last_reported":1762161255,"current_range_meters":14000,"station_id":"ce4bgjh2rcd13ifvqbg0","pricing_plan_id":"cebpf4jnsgd1na2vs0mg"},{"bike_id":"d94fe113-ed87-4d14-803b-e09546003d5b","system_id":"levelo_inurba_marseille","lat":43.33602,"lon":5.410315,"is_reserved":false,"is_disabled":false,"rental_uris":{"android":"levelo://app?vid=d94fe113-ed87-4d14-803b-e09546003d5b","ios":"levelo://app?vid=d94fe113-ed87-4d14-803b-e09546003d5b"},"vehicle_type_id":"4","last_reported":1762161255,"current_range_meters":14000,"station_id":"","pricing_plan_id":"cebpf4jnsgd1na2vs0mg"},{"bike_id":"7f4ea1c9-e771-489a-82b2-fae7d0c0a729","system_id":"levelo_inurba_marseille","lat":43.29786,"lon":5.39352,"is_reserved":false,"is_disabled":true,"rental_uris":{"android":"levelo://app?vid=7f4ea1c9-e771-489a-82b2-fae7d0c0a729","ios":"levelo://app?vid=7f4ea1c9-e771-489a-82b2-fae7d0c0a729"},"vehicle_type_id":"4","last_reported":1762161255,"current_range_meters":14000,"station_id":"chh1huq6cuj3fo74tm60","pricing_plan_id":"cebpf4jnsgd1na2vs0mg"},{"bike_id":"fa26f30c-f4d8-4ef3-973f-f6b6f33bca8a","system_id":"levelo_inurba_marseille","lat":43.32999,"lon":5.403832,"is_reserved":false,"is_disabled":false,"rental_uris":{"android":"levelo://app?vid=fa26f30c-f4d8-4ef3-973f-f6b6f33bca8a","ios":"levelo://app?vid=fa26f30c-f4d8-4ef3-973f-f6b6f33bca8a"},"vehicle_type_id":"4","last_reported":1762161255,"current_range_meters":14000,"station_id":"","pricing_plan_id":"cebpf4jnsgd1na2vs0mg"},{"bike_id":"8f7d7dd3-6094-4701-8c39-c8f400746822","system_id":"levelo_inurba_marseille","lat":43.25928,"lon":5.4091,"is_reserved":false,"is_disabled":false,"rental_uris":{"android":"levelo://app?vid=8f7d7dd3-6094-4701-8c39-c8f400746822","ios":"levelo://app?vid=8f7d7dd3-6094-4701-8c39-c8f400746822"},"vehicle_type_id":"4","last_reported":1762161255,"current_range_meters":14400,"station_id":"ce4bhm92rcd13ifvqglg","pricing_plan_id":"cebpf4jnsgd1na2vs0mg"},{"bike_id":"32d4a401-7eac-4706-9e22-d4c2a7e55b17","system_id":"levelo_inurba_marseille","lat":43.24639,"lon":5.43149,"is_reserved":false,"is_disabled":false,"rental_uris":{"android":"levelo://app?vid=32d4a401-7eac-4706-9e22-d4c2a7e55b17","ios":"levelo://app?vid=32d4a401-7eac-4706-9e22-d4c2a7e55b17"},"vehicle_type_id":"4","last_reported":1762161255,"current_range_meters":14400,"station_id":"st_d2m6c4gdas8pm72e190g","pricing_plan_id":"cebpf4jnsgd1na2vs0mg"},{"bike_id":"2457a6da-e737-4e7a-9c85-e9723cf378b9","system_id":"levelo_inurba_marseille","lat":43.2722,"lon":5.41007,"is_reserved":false,"is_disabled":false,"rental_uris":{"android":"levelo://app?vid=2457a6da-e737-4e7a-9c85-e9723cf378b9","ios":"levelo://app?vid=2457a6da-e737-4e7a-9c85-e9723cf378b9"},"vehicle_type_id":"4","last_reported":1762161255,"current_range_meters":14400,"station_id":"ce4bhl12rcd13ifvqgf0","pricing_plan_id":"cebpf4jnsgd1na2vs0mg"},{"bike_id":"1470e0ed-b0f3-45e6-a78c-43b8886e57da","system_id":"levelo_inurba_marseille","lat":43.262,"lon":5.37932,"is_reserved":false,"is_disabled":false,"rental_uris":{"android":"levelo://app?vid=1470e0ed-b0f3-45e6-a78c-43b8886e57da","ios":"levelo://app?vid=1470e0ed-b0f3-45e6-a78c-43b8886e57da"},"vehicle_type_id":"4","last_reported":1762161255,"current_range_meters":14400,"station_id":"ce4bhjp2rcd13ifvqg90","pricing_plan_id":"cebpf4jnsgd1na2vs0mg"},{"bike_id":"4f94ef0f-e25b-4a96-9d2e-8beb08342a88","system_id":"levelo_inurba_marseille","lat":43.295809,"lon":5.399789,"is_reserved":false,"is_disabled":false,"rental_uris":{"android":"levelo://app?vid=4f94ef0f-e25b-4a96-9d2e-8beb08342a88","ios":"levelo://app?vid=4f94ef0f-e25b-4a96-9d2e-8beb08342a88"},"vehicle_type_id":"4","last_reported":1762161255,"current_range_meters":14400,"station_id":"ce4bh312rcd13ifvqdj0","pricing_plan_id":"cebpf4jnsgd1na2vs0mg"},{"bike_id":"1b1e71cc-c221-4e91-89c8-2d987f944d9c","system_id":"levelo_inurba_marseille","lat":43.24175,"lon":5.364,"is_reserved":false,"is_disabled":true,"rental_uris":{"android":"levelo://app?vid=1b1e71cc-c221-4e91-89c8-2d987f944d9c","ios":"levelo://app?vid=1b1e71cc-c221-4e91-89c8-2d987f944d9c"},"vehicle_type_id":"4","last_reported":1762161255,"current_range_meters":14400,"station_id":"cpo36qri1sfpv3e86is0","pricing_plan_id":"cebpf4jnsgd1na2vs0mg"},{"bike_id":"d3f5c5a9-882e-4fe6-ab5a-a6f51805b15e","system_id":"levelo_inurba_marseille","lat":43.3043,"lon":5.38891,"is_reserved":false,"is_disabled":false,"rental_uris":{"android":"levelo://app?vid=d3f5c5a9-882e-4fe6-ab5a-a6f51805b15e","ios":"levelo://app?vid=d3f5c5a9-882e-4fe6-ab5a-a6f51805b15e"},"vehicle_type_id":"4","last_reported":1762161255,"current_range_meters":14400,"station_id":"ce4bgk12rcd13ifvqbi0","pricing_plan_id":"cebpf4jnsgd1na2vs0mg"},{"bike_id":"25b8b9c6-92a5-43d3-8767-0700e7c7de1c","system_id":"levelo_inurba_marseille","lat":43.3375,"lon":5.37467,"is_reserved":false,"is_disabled":false,"rental_uris":{"android":"levelo://app?vid=25b8b9c6-92a5-43d3-8767-0700e7c7de1c","ios":"levelo://app?vid=25b8b9c6-92a5-43d3-8767-0700e7c7de1c"},"vehicle_type_id":"4","last_reported":1762161255,"current_range_meters":14800,"station_id":"","pricing_plan_id":"cebpf4jnsgd1na2vs0mg"},{"bike_id":"0d2f4678-206b-466b-b246-81e90c39c925","system_id":"levelo_inurba_marseille","lat":43.28513,"lon":5.44098,"is_reserved":false,"is_disabled":true,"rental_uris":{"android":"levelo://app?vid=0d2f4678-206b-466b-b246-81e90c39c925","ios":"levelo://app?vid=0d2f4678-206b-466b-b246-81e90c39c925"},"vehicle_type_id":"4","last_reported":1762161255,"current_range_meters":14800,"station_id":"st_d3j3df2ikq2c7380ej80","pricing_plan_id":"cebpf4jnsgd1na2vs0mg"},{"bike_id":"55babefd-af01-4d75-ac52-5e39fcab529a","system_id":"levelo_inurba_marseille","lat":43.2465,"lon":5.3889,"is_reserved":false,"is_disabled":false,"rental_uris":{"android":"levelo://app?vid=55babefd-af01-4d75-ac52-5e39fcab529a","ios":"levelo://app?vid=55babefd-af01-4d75-ac52-5e39fcab529a"},"vehicle_type_id":"4","last_reported":1762161255,"current_range_meters":14800,"station_id":"ce4bhg12rcd13ifvqf60","pricing_plan_id":"cebpf4jnsgd1na2vs0mg"},{"bike_id":"88a37c3f-2822-4e65-9019-f92712cd5915","system_id":"levelo_inurba_marseille","lat":43.211967,"lon":5.350824,"is_reserved":false,"is_disabled":true,"rental_uris":{"android":"levelo://app?vid=88a37c3f-2822-4e65-9019-f92712cd5915","ios":"levelo://app?vid=88a37c3f-2822-4e65-9019-f92712cd5915"},"vehicle_type_id":"4","last_reported":1762161255,"current_range_meters":14800,"station_id":"st_cvj6sg6p6f1abm77japg","pricing_plan_id":"cebpf4jnsgd1na2vs0mg"},{"bike_id":"06193922-fdf4-438d-bc7c-945799a56899","system_id":"levelo_inurba_marseille","lat":43.23156,"lon":5.43714,"is_reserved":false,"is_disabled":false,"rental_uris":{"android":"levelo://app?vid=06193922-fdf4-438d-bc7c-945799a56899","ios":"levelo://app?vid=06193922-fdf4-438d-bc7c-945799a56899"},"vehicle_type_id":"4","last_reported":1762161255,"current_range_meters":14800,"station_id":"ce4bhmp2rcd13ifvqgog","pricing_plan_id":"cebpf4jnsgd1na2vs0mg"},{"bike_id":"2f70dd19-728d-424d-ba26-5fe3ad50c685","system_id":"levelo_inurba_marseille","lat":43.25935,"lon":5.40911,"is_reserved":false,"is_disabled":false,"rental_uris":{"android":"levelo://app?vid=2f70dd19-728d-424d-ba26-5fe3ad50c685","ios":"levelo://app?vid=2f70dd19-728d-424d-ba26-5fe3ad50c685"},"vehicle_type_id":"4","last_reported":1762161255,"current_range_meters":14800,"station_id":"ce4bhm92rcd13ifvqglg","pricing_plan_id":"cebpf4jnsgd1na2vs0mg"},{"bike_id":"5a96cc8c-7aea-4f8c-941f-8c7122bd9517","system_id":"levelo_inurba_marseille","lat":43.284778,"lon":5.483896,"is_reserved":false,"is_disabled":false,"rental_uris":{"android":"levelo://app?vid=5a96cc8c-7aea-4f8c-941f-8c7122bd9517","ios":"levelo://app?vid=5a96cc8c-7aea-4f8c-941f-8c7122bd9517"},"vehicle_type_id":"4","last_reported":1762161255,"current_range_meters":15200,"station_id":"","pricing_plan_id":"cebpf4jnsgd1na2vs0mg"},{"bike_id":"4c4b8bcf-4ef8-4551-8b0c-0892f8af6559","system_id":"levelo_inurba_marseille","lat":43.22567,"lon":5.41618,"is_reserved":false,"is_disabled":false,"rental_uris":{"android":"levelo://app?vid=4c4b8bcf-4ef8-4551-8b0c-0892f8af6559","ios":"levelo://app?vid=4c4b8bcf-4ef8-4551-8b0c-0892f8af6559"},"vehicle_type_id":"4","last_reported":1762161255,"current_range_meters":15200,"station_id":"st_d2o4gvlbi1j2169b742g","pricing_plan_id":"cebpf4jnsgd1na2vs0mg"},{"bike_id":"5e356263-7cc7-4ea3-86bc-af75593aa3f6","system_id":"levelo_inurba_marseille","lat":43.26558,"lon":5.37281,"is_reserved":false,"is_disabled":false,"rental_uris":{"android":"levelo://app?vid=5e356263-7cc7-4ea3-86bc-af75593aa3f6","ios":"levelo://app?vid=5e356263-7cc7-4ea3-86bc-af75593aa3f6"},"vehicle_type_id":"4","last_reported":1762161255,"current_range_meters":15200,"station_id":"ce4bhg12rcd13ifvqf70","pricing_plan_id":"cebpf4jnsgd1na2vs0mg"},{"bike_id":"aad6a064-c048-4ba9-a156-1745b89548aa","system_id":"levelo_inurba_marseille","lat":43.28316,"lon":5.41093,"is_reserved":false,"is_disabled":false,"rental_uris":{"android":"levelo://app?vid=aad6a064-c048-4ba9-a156-1745b89548aa","ios":"levelo://app?vid=aad6a064-c048-4ba9-a156-1745b89548aa"},"vehicle_type_id":"4","last_reported":1762161255,"current_range_meters":15200,"station_id":"","pricing_plan_id":"cebpf4jnsgd1na2vs0mg"},{"bike_id":"94fe637d-8c0a-4043-97bc-5ae6d09c4f72","system_id":"levelo_inurba_marseille","lat":43.3056,"lon":5.36533,"is_reserved":false,"is_disabled":false,"rental_uris":{"android":"levelo://app?vid=94fe637d-8c0a-4043-97bc-5ae6d09c4f72","ios":"levelo://app?vid=94fe637d-8c0a-4043-97bc-5ae6d09c4f72"},"vehicle_type_id":"4","last_reported":1762161255,"current_range_meters":15200,"station_id":"ce4bgs12rcd13ifvqcag","pricing_plan_id":"cebpf4jnsgd1na2vs0mg"},{"bike_id":"ac2f2e0c-7f3a-4615-95a9-755ddbeafcff","system_id":"levelo_inurba_marseille","lat":43.2738,"lon":5.36256,"is_reserved":false,"is_disabled":true,"rental_uris":{"android":"levelo://app?vid=ac2f2e0c-7f3a-4615-95a9-755ddbeafcff","ios":"levelo://app?vid=ac2f2e0c-7f3a-4615-95a9-755ddbeafcff"},"vehicle_type_id":"4","last_reported":1762161255,"current_range_meters":15200,"station_id":"ce4bhbh2rcd13ifvqeo0","pricing_plan_id":"cebpf4jnsgd1na2vs0mg"},{"bike_id":"8cd698bd-6888-46ab-9c53-8aa2cfb0b689","system_id":"levelo_inurba_marseille","lat":43.24069,"lon":5.37763,"is_reserved":false,"is_disabled":false,"rental_uris":{"android":"levelo://app?vid=8cd698bd-6888-46ab-9c53-8aa2cfb0b689","ios":"levelo://app?vid=8cd698bd-6888-46ab-9c53-8aa2cfb0b689"},"vehicle_type_id":"4","last_reported":1762161255,"current_range_meters":15200,"station_id":"ce4bhnp2rcd13ifvqgvg","pricing_plan_id":"cebpf4jnsgd1na2vs0mg"},{"bike_id":"e76b87a5-9393-4b07-847a-8fd9996dc2c1","system_id":"levelo_inurba_marseille","lat":43.27491,"lon":5.42459,"is_reserved":false,"is_disabled":false,"rental_uris":{"android":"levelo://app?vid=e76b87a5-9393-4b07-847a-8fd9996dc2c1","ios":"levelo://app?vid=e76b87a5-9393-4b07-847a-8fd9996dc2c1"},"vehicle_type_id":"4","last_reported":1762161255,"current_range_meters":15200,"station_id":"ce4bhn92rcd13ifvqgrg","pricing_plan_id":"cebpf4jnsgd1na2vs0mg"},{"bike_id":"f64d03a0-c2a7-48f7-8f54-d388d015c7b9","system_id":"levelo_inurba_marseille","lat":43.23145,"lon":5.437,"is_reserved":false,"is_disabled":false,"rental_uris":{"android":"levelo://app?vid=f64d03a0-c2a7-48f7-8f54-d388d015c7b9","ios":"levelo://app?vid=f64d03a0-c2a7-48f7-8f54-d388d015c7b9"},"vehicle_type_id":"4","last_reported":1762161255,"current_range_meters":15200,"station_id":"ce4bhmp2rcd13ifvqgog","pricing_plan_id":"cebpf4jnsgd1na2vs0mg"},{"bike_id":"a8ec203b-d616-4825-acb4-ec9a8037e9f2","system_id":"levelo_inurba_marseille","lat":43.28143,"lon":5.38317,"is_reserved":false,"is_disabled":false,"rental_uris":{"android":"levelo://app?vid=a8ec203b-d616-4825-acb4-ec9a8037e9f2","ios":"levelo://app?vid=a8ec203b-d616-4825-acb4-ec9a8037e9f2"},"vehicle_type_id":"4","last_reported":1762161255,"current_range_meters":15200,"station_id":"","pricing_plan_id":"cebpf4jnsgd1na2vs0mg"},{"bike_id":"2524d83a-d9ed-46a4-9bea-a4da30c7707b","system_id":"levelo_inurba_marseille","lat":43.28733,"lon":5.37941,"is_reserved":false,"is_disabled":false,"rental_uris":{"android":"levelo://app?vid=2524d83a-d9ed-46a4-9bea-a4da30c7707b","ios":"levelo://app?vid=2524d83a-d9ed-46a4-9bea-a4da30c7707b"},"vehicle_type_id":"4","last_reported":1762161255,"current_range_meters":16000,"station_id":"ce4bh9p2rcd13ifvqec0","pricing_plan_id":"cebpf4jnsgd1na2vs0mg"},{"bike_id":"4316ebb6-af9e-414e-ba87-072103d4da75","system_id":"levelo_inurba_marseille","lat":43.33535,"lon":5.39747,"is_reserved":false,"is_disabled":false,"rental_uris":{"android":"levelo://app?vid=4316ebb6-af9e-414e-ba87-072103d4da75","ios":"levelo://app?vid=4316ebb6-af9e-414e-ba87-072103d4da75"},"vehicle_type_id":"4","last_reported":1762161255,"current_range_meters":16000,"station_id":"","pricing_plan_id":"cebpf4jnsgd1na2vs0mg"},{"bike_id":"314dcefd-13a2-43d4-a786-fbcaee9c7a33","system_id":"levelo_inurba_marseille","lat":43.2593,"lon":5.40906,"is_reserved":false,"is_disabled":false,"rental_uris":{"android":"levelo://app?vid=314dcefd-13a2-43d4-a786-fbcaee9c7a33","ios":"levelo://app?vid=314dcefd-13a2-43d4-a786-fbcaee9c7a33"},"vehicle_type_id":"4","last_reported":1762161255,"current_range_meters":16000,"station_id":"ce4bhm92rcd13ifvqglg","pricing_plan_id":"cebpf4jnsgd1na2vs0mg"},{"bike_id":"5a842c3b-8da1-423c-bea2-64c609d6dd88","system_id":"levelo_inurba_marseille","lat":43.297336,"lon":5.373253,"is_reserved":false,"is_disabled":false,"rental_uris":{"android":"levelo://app?vid=5a842c3b-8da1-423c-bea2-64c609d6dd88","ios":"levelo://app?vid=5a842c3b-8da1-423c-bea2-64c609d6dd88"},"vehicle_type_id":"4","last_reported":1762161255,"current_range_meters":16000,"station_id":"ce4bgop2rcd13ifvqc1g","pricing_plan_id":"cebpf4jnsgd1na2vs0mg"},{"bike_id":"3991adc4-6978-477c-922b-81e2e11c1f95","system_id":"levelo_inurba_marseille","lat":43.32494,"lon":5.36687,"is_reserved":false,"is_disabled":false,"rental_uris":{"android":"levelo://app?vid=3991adc4-6978-477c-922b-81e2e11c1f95","ios":"levelo://app?vid=3991adc4-6978-477c-922b-81e2e11c1f95"},"vehicle_type_id":"4","last_reported":1762161255,"current_range_meters":16000,"station_id":"ce4bhs12rcd13ifvqhvg","pricing_plan_id":"cebpf4jnsgd1na2vs0mg"},{"bike_id":"d1b7e294-8ae6-48ef-89d0-e05e23f9f8e0","system_id":"levelo_inurba_marseille","lat":43.29539,"lon":5.3612,"is_reserved":false,"is_disabled":true,"rental_uris":{"android":"levelo://app?vid=d1b7e294-8ae6-48ef-89d0-e05e23f9f8e0","ios":"levelo://app?vid=d1b7e294-8ae6-48ef-89d0-e05e23f9f8e0"},"vehicle_type_id":"4","last_reported":1762161255,"current_range_meters":16000,"station_id":"","pricing_plan_id":"cebpf4jnsgd1na2vs0mg"},{"bike_id":"0ca46a2b-8aad-404c-b828-3c75693a6e60","system_id":"levelo_inurba_marseille","lat":43.32491,"lon":5.36556,"is_reserved":false,"is_disabled":false,"rental_uris":{"android":"levelo://app?vid=0ca46a2b-8aad-404c-b828-3c75693a6e60","ios":"levelo://app?vid=0ca46a2b-8aad-404c-b828-3c75693a6e60"},"vehicle_type_id":"4","last_reported":1762161255,"current_range_meters":16000,"station_id":"ce4bhs12rcd13ifvqhvg","pricing_plan_id":"cebpf4jnsgd1na2vs0mg"},{"bike_id":"03518348-a473-43a5-aebe-4dbf2f87920e","system_id":"levelo_inurba_marseille","lat":43.28451,"lon":5.37901,"is_reserved":false,"is_disabled":false,"rental_uris":{"android":"levelo://app?vid=03518348-a473-43a5-aebe-4dbf2f87920e","ios":"levelo://app?vid=03518348-a473-43a5-aebe-4dbf2f87920e"},"vehicle_type_id":"4","last_reported":1762161255,"current_range_meters":16000,"station_id":"","pricing_plan_id":"cebpf4jnsgd1na2vs0mg"},{"bike_id":"c37decea-906a-43ca-8450-8ed6fad0917a","system_id":"levelo_inurba_marseille","lat":43.217474,"lon":5.346076,"is_reserved":false,"is_disabled":false,"rental_uris":{"android":"levelo://app?vid=c37decea-906a-43ca-8450-8ed6fad0917a","ios":"levelo://app?vid=c37decea-906a-43ca-8450-8ed6fad0917a"},"vehicle_type_id":"4","last_reported":1762161255,"current_range_meters":16400,"station_id":"","pricing_plan_id":"cebpf4jnsgd1na2vs0mg"},{"bike_id":"ed454fc0-6f00-4b98-bc76-a83b2a690243","system_id":"levelo_inurba_marseille","lat":43.24079,"lon":5.37752,"is_reserved":false,"is_disabled":false,"rental_uris":{"android":"levelo://app?vid=ed454fc0-6f00-4b98-bc76-a83b2a690243","ios":"levelo://app?vid=ed454fc0-6f00-4b98-bc76-a83b2a690243"},"vehicle_type_id":"4","last_reported":1762161255,"current_range_meters":16400,"station_id":"ce4bhnp2rcd13ifvqgvg","pricing_plan_id":"cebpf4jnsgd1na2vs0mg"},{"bike_id":"5eee67bb-3614-4f3b-ab22-554d031d3012","system_id":"levelo_inurba_marseille","lat":43.257246,"lon":5.411203,"is_reserved":false,"is_disabled":false,"rental_uris":{"android":"levelo://app?vid=5eee67bb-3614-4f3b-ab22-554d031d3012","ios":"levelo://app?vid=5eee67bb-3614-4f3b-ab22-554d031d3012"},"vehicle_type_id":"4","last_reported":1762161255,"current_range_meters":16400,"station_id":"ce4bhkp2rcd13ifvqgd0","pricing_plan_id":"cebpf4jnsgd1na2vs0mg"},{"bike_id":"145adec1-02ad-4d16-a5dd-42bf80721343","system_id":"levelo_inurba_marseille","lat":43.30092,"lon":5.38409,"is_reserved":false,"is_disabled":false,"rental_uris":{"android":"levelo://app?vid=145adec1-02ad-4d16-a5dd-42bf80721343","ios":"levelo://app?vid=145adec1-02ad-4d16-a5dd-42bf80721343"},"vehicle_type_id":"4","last_reported":1762161255,"current_range_meters":16400,"station_id":"","pricing_plan_id":"cebpf4jnsgd1na2vs0mg"},{"bike_id":"7697f83b-11c1-4978-89f1-e9d9aca50ac7","system_id":"levelo_inurba_marseille","lat":43.246763,"lon":5.381874,"is_reserved":false,"is_disabled":true,"rental_uris":{"android":"levelo://app?vid=7697f83b-11c1-4978-89f1-e9d9aca50ac7","ios":"levelo://app?vid=7697f83b-11c1-4978-89f1-e9d9aca50ac7"},"vehicle_type_id":"4","last_reported":1762161255,"current_range_meters":16400,"station_id":"ce4bhih2rcd13ifvqfr0","pricing_plan_id":"cebpf4jnsgd1na2vs0mg"},{"bike_id":"0b0c3ccd-c9f7-42c0-aa5e-7e6469ec820c","system_id":"levelo_inurba_marseille","lat":43.2551,"lon":5.37652,"is_reserved":false,"is_disabled":false,"rental_uris":{"android":"levelo://app?vid=0b0c3ccd-c9f7-42c0-aa5e-7e6469ec820c","ios":"levelo://app?vid=0b0c3ccd-c9f7-42c0-aa5e-7e6469ec820c"},"vehicle_type_id":"4","last_reported":1762161255,"current_range_meters":16400,"station_id":"ce4bhh12rcd13ifvqff0","pricing_plan_id":"cebpf4jnsgd1na2vs0mg"},{"bike_id":"dfafc353-61c4-40ae-835b-c3799534af4a","system_id":"levelo_inurba_marseille","lat":43.29583,"lon":5.37512,"is_reserved":false,"is_disabled":false,"rental_uris":{"android":"levelo://app?vid=dfafc353-61c4-40ae-835b-c3799534af4a","ios":"levelo://app?vid=dfafc353-61c4-40ae-835b-c3799534af4a"},"vehicle_type_id":"4","last_reported":1762161255,"current_range_meters":16400,"station_id":"ce4bgh92rcd13ifvqb50","pricing_plan_id":"cebpf4jnsgd1na2vs0mg"},{"bike_id":"7aef1029-9880-4ac1-bc62-5df1ae769dad","system_id":"levelo_inurba_marseille","lat":43.30983,"lon":5.37043,"is_reserved":false,"is_disabled":false,"rental_uris":{"android":"levelo://app?vid=7aef1029-9880-4ac1-bc62-5df1ae769dad","ios":"levelo://app?vid=7aef1029-9880-4ac1-bc62-5df1ae769dad"},"vehicle_type_id":"4","last_reported":1762161255,"current_range_meters":16400,"station_id":"","pricing_plan_id":"cebpf4jnsgd1na2vs0mg"},{"bike_id":"782a02c9-f51b-4b61-89b2-ec2ecf7d0e40","system_id":"levelo_inurba_marseille","lat":43.24956,"lon":5.40491,"is_reserved":false,"is_disabled":false,"rental_uris":{"android":"levelo://app?vid=782a02c9-f51b-4b61-89b2-ec2ecf7d0e40","ios":"levelo://app?vid=782a02c9-f51b-4b61-89b2-ec2ecf7d0e40"},"vehicle_type_id":"4","last_reported":1762161255,"current_range_meters":16800,"station_id":"st_d2ngiaodas8pm72gd1h0","pricing_plan_id":"cebpf4jnsgd1na2vs0mg"},{"bike_id":"5eb9db26-abf8-4b3a-a40c-77af04cc957e","system_id":"levelo_inurba_marseille","lat":43.24164,"lon":5.36404,"is_reserved":false,"is_disabled":false,"rental_uris":{"android":"levelo://app?vid=5eb9db26-abf8-4b3a-a40c-77af04cc957e","ios":"levelo://app?vid=5eb9db26-abf8-4b3a-a40c-77af04cc957e"},"vehicle_type_id":"4","last_reported":1762161255,"current_range_meters":16800,"station_id":"cpo36qri1sfpv3e86is0","pricing_plan_id":"cebpf4jnsgd1na2vs0mg"},{"bike_id":"e8adea7e-0a90-49fd-b3a2-32134cae9db0","system_id":"levelo_inurba_marseille","lat":43.21182,"lon":5.3507,"is_reserved":false,"is_disabled":false,"rental_uris":{"android":"levelo://app?vid=e8adea7e-0a90-49fd-b3a2-32134cae9db0","ios":"levelo://app?vid=e8adea7e-0a90-49fd-b3a2-32134cae9db0"},"vehicle_type_id":"4","last_reported":1762161255,"current_range_meters":16800,"station_id":"","pricing_plan_id":"cebpf4jnsgd1na2vs0mg"},{"bike_id":"25570b4b-751a-4f05-b3b1-595837533824","system_id":"levelo_inurba_marseille","lat":43.28155,"lon":5.42646,"is_reserved":false,"is_disabled":false,"rental_uris":{"android":"levelo://app?vid=25570b4b-751a-4f05-b3b1-595837533824","ios":"levelo://app?vid=25570b4b-751a-4f05-b3b1-595837533824"},"vehicle_type_id":"4","last_reported":1762161255,"current_range_meters":16800,"station_id":"ce4bhnh2rcd13ifvqgug","pricing_plan_id":"cebpf4jnsgd1na2vs0mg"},{"bike_id":"bb335a03-7df2-4888-8b52-a5b22bc811a1","system_id":"levelo_inurba_marseille","lat":43.32537,"lon":5.41428,"is_reserved":false,"is_disabled":false,"rental_uris":{"android":"levelo://app?vid=bb335a03-7df2-4888-8b52-a5b22bc811a1","ios":"levelo://app?vid=bb335a03-7df2-4888-8b52-a5b22bc811a1"},"vehicle_type_id":"4","last_reported":1762161255,"current_range_meters":16800,"station_id":"ce4bhq12rcd13ifvqhhg","pricing_plan_id":"cebpf4jnsgd1na2vs0mg"},{"bike_id":"4f3727ff-63d2-40fd-8ebf-7af1e991f12d","system_id":"levelo_inurba_marseille","lat":43.27308,"lon":5.39082,"is_reserved":false,"is_disabled":false,"rental_uris":{"android":"levelo://app?vid=4f3727ff-63d2-40fd-8ebf-7af1e991f12d","ios":"levelo://app?vid=4f3727ff-63d2-40fd-8ebf-7af1e991f12d"},"vehicle_type_id":"4","last_reported":1762161255,"current_range_meters":16800,"station_id":"ce4bhgp2rcd13ifvqfe0","pricing_plan_id":"cebpf4jnsgd1na2vs0mg"},{"bike_id":"37843105-62c4-4d82-bee6-44395fbbf429","system_id":"levelo_inurba_marseille","lat":43.24566,"lon":5.4165,"is_reserved":false,"is_disabled":false,"rental_uris":{"android":"levelo://app?vid=37843105-62c4-4d82-bee6-44395fbbf429","ios":"levelo://app?vid=37843105-62c4-4d82-bee6-44395fbbf429"},"vehicle_type_id":"4","last_reported":1762161255,"current_range_meters":16800,"station_id":"","pricing_plan_id":"cebpf4jnsgd1na2vs0mg"},{"bike_id":"51bf3cb7-470c-477e-9e73-8c565aae20cb","system_id":"levelo_inurba_marseille","lat":43.29742,"lon":5.42692,"is_reserved":false,"is_disabled":false,"rental_uris":{"android":"levelo://app?vid=51bf3cb7-470c-477e-9e73-8c565aae20cb","ios":"levelo://app?vid=51bf3cb7-470c-477e-9e73-8c565aae20cb"},"vehicle_type_id":"4","last_reported":1762161255,"current_range_meters":17200,"station_id":"","pricing_plan_id":"cebpf4jnsgd1na2vs0mg"},{"bike_id":"258d165a-449f-4925-b56e-beae8f481fb2","system_id":"levelo_inurba_marseille","lat":43.284004,"lon":5.349923,"is_reserved":false,"is_disabled":true,"rental_uris":{"android":"levelo://app?vid=258d165a-449f-4925-b56e-beae8f481fb2","ios":"levelo://app?vid=258d165a-449f-4925-b56e-beae8f481fb2"},"vehicle_type_id":"4","last_reported":1762161255,"current_range_meters":17200,"station_id":"","pricing_plan_id":"cebpf4jnsgd1na2vs0mg"},{"bike_id":"0bb36186-0345-4be2-9ebf-da356cc8482d","system_id":"levelo_inurba_marseille","lat":43.28939,"lon":5.36638,"is_reserved":false,"is_disabled":false,"rental_uris":{"android":"levelo://app?vid=0bb36186-0345-4be2-9ebf-da356cc8482d","ios":"levelo://app?vid=0bb36186-0345-4be2-9ebf-da356cc8482d"},"vehicle_type_id":"4","last_reported":1762161255,"current_range_meters":17200,"station_id":"ce4bhap2rcd13ifvqek0","pricing_plan_id":"cebpf4jnsgd1na2vs0mg"},{"bike_id":"aad9a1c8-dbd7-498a-915d-2cf661bad0f0","system_id":"levelo_inurba_marseille","lat":43.29037,"lon":5.39982,"is_reserved":false,"is_disabled":false,"rental_uris":{"android":"levelo://app?vid=aad9a1c8-dbd7-498a-915d-2cf661bad0f0","ios":"levelo://app?vid=aad9a1c8-dbd7-498a-915d-2cf661bad0f0"},"vehicle_type_id":"4","last_reported":1762161255,"current_range_meters":17200,"station_id":"ce4bh392rcd13ifvqdm0","pricing_plan_id":"cebpf4jnsgd1na2vs0mg"},{"bike_id":"7266ed46-2381-404a-9c13-a92f05fa953b","system_id":"levelo_inurba_marseille","lat":43.337636,"lon":5.374294,"is_reserved":false,"is_disabled":false,"rental_uris":{"android":"levelo://app?vid=7266ed46-2381-404a-9c13-a92f05fa953b","ios":"levelo://app?vid=7266ed46-2381-404a-9c13-a92f05fa953b"},"vehicle_type_id":"4","last_reported":1762161255,"current_range_meters":17200,"station_id":"","pricing_plan_id":"cebpf4jnsgd1na2vs0mg"},{"bike_id":"f234ad47-0901-40bf-a06a-e46adc6b907e","system_id":"levelo_inurba_marseille","lat":43.23198,"lon":5.3556,"is_reserved":false,"is_disabled":false,"rental_uris":{"android":"levelo://app?vid=f234ad47-0901-40bf-a06a-e46adc6b907e","ios":"levelo://app?vid=f234ad47-0901-40bf-a06a-e46adc6b907e"},"vehicle_type_id":"4","last_reported":1762161255,"current_range_meters":17200,"station_id":"ce4bhu92rcd13ifvqi70","pricing_plan_id":"cebpf4jnsgd1na2vs0mg"},{"bike_id":"e894c9e8-7f1e-4e5b-850e-008cc5de5e6e","system_id":"levelo_inurba_marseille","lat":43.23157,"lon":5.43702,"is_reserved":false,"is_disabled":false,"rental_uris":{"android":"levelo://app?vid=e894c9e8-7f1e-4e5b-850e-008cc5de5e6e","ios":"levelo://app?vid=e894c9e8-7f1e-4e5b-850e-008cc5de5e6e"},"vehicle_type_id":"4","last_reported":1762161255,"current_range_meters":17200,"station_id":"ce4bhmp2rcd13ifvqgog","pricing_plan_id":"cebpf4jnsgd1na2vs0mg"},{"bike_id":"7ee96323-da9c-4c60-bbe4-d1054018acab","system_id":"levelo_inurba_marseille","lat":43.30549,"lon":5.36707,"is_reserved":false,"is_disabled":false,"rental_uris":{"android":"levelo://app?vid=7ee96323-da9c-4c60-bbe4-d1054018acab","ios":"levelo://app?vid=7ee96323-da9c-4c60-bbe4-d1054018acab"},"vehicle_type_id":"4","last_reported":1762161255,"current_range_meters":17200,"station_id":"ce4bgrp2rcd13ifvqc9g","pricing_plan_id":"cebpf4jnsgd1na2vs0mg"},{"bike_id":"594dbb71-1dd5-4bbb-93ca-f919e2f0c097","system_id":"levelo_inurba_marseille","lat":43.231542,"lon":5.43711,"is_reserved":false,"is_disabled":false,"rental_uris":{"android":"levelo://app?vid=594dbb71-1dd5-4bbb-93ca-f919e2f0c097","ios":"levelo://app?vid=594dbb71-1dd5-4bbb-93ca-f919e2f0c097"},"vehicle_type_id":"4","last_reported":1762161255,"current_range_meters":17600,"station_id":"ce4bhmp2rcd13ifvqgog","pricing_plan_id":"cebpf4jnsgd1na2vs0mg"},{"bike_id":"37be67f3-a4f7-4f90-8fef-488fdc4a9989","system_id":"levelo_inurba_marseille","lat":43.27061,"lon":5.40254,"is_reserved":false,"is_disabled":false,"rental_uris":{"android":"levelo://app?vid=37be67f3-a4f7-4f90-8fef-488fdc4a9989","ios":"levelo://app?vid=37be67f3-a4f7-4f90-8fef-488fdc4a9989"},"vehicle_type_id":"4","last_reported":1762161255,"current_range_meters":17600,"station_id":"ce4bhk92rcd13ifvqgc0","pricing_plan_id":"cebpf4jnsgd1na2vs0mg"},{"bike_id":"7b3ada81-0ff3-49e9-8471-eb10e4c9b7f2","system_id":"levelo_inurba_marseille","lat":43.290189,"lon":5.381331,"is_reserved":false,"is_disabled":false,"rental_uris":{"android":"levelo://app?vid=7b3ada81-0ff3-49e9-8471-eb10e4c9b7f2","ios":"levelo://app?vid=7b3ada81-0ff3-49e9-8471-eb10e4c9b7f2"},"vehicle_type_id":"4","last_reported":1762161255,"current_range_meters":17600,"station_id":"ce4bh4p2rcd13ifvqe1g","pricing_plan_id":"cebpf4jnsgd1na2vs0mg"},{"bike_id":"62f2ea7d-790a-4890-9ec5-53bd6a229b39","system_id":"levelo_inurba_marseille","lat":43.30139,"lon":5.39853,"is_reserved":false,"is_disabled":false,"rental_uris":{"android":"levelo://app?vid=62f2ea7d-790a-4890-9ec5-53bd6a229b39","ios":"levelo://app?vid=62f2ea7d-790a-4890-9ec5-53bd6a229b39"},"vehicle_type_id":"4","last_reported":1762161255,"current_range_meters":17600,"station_id":"ce4bh0h2rcd13ifvqd40","pricing_plan_id":"cebpf4jnsgd1na2vs0mg"},{"bike_id":"e7082184-bbd2-4e79-aba1-51e0892249ea","system_id":"levelo_inurba_marseille","lat":43.27076,"lon":5.42274,"is_reserved":false,"is_disabled":false,"rental_uris":{"android":"levelo://app?vid=e7082184-bbd2-4e79-aba1-51e0892249ea","ios":"levelo://app?vid=e7082184-bbd2-4e79-aba1-51e0892249ea"},"vehicle_type_id":"4","last_reported":1762161255,"current_range_meters":17600,"station_id":"ce4bhk92rcd13ifvqgb0","pricing_plan_id":"cebpf4jnsgd1na2vs0mg"},{"bike_id":"484598d9-3fc7-4dd6-8292-f3adcea97683","system_id":"levelo_inurba_marseille","lat":43.32364,"lon":5.36758,"is_reserved":false,"is_disabled":false,"rental_uris":{"android":"levelo://app?vid=484598d9-3fc7-4dd6-8292-f3adcea97683","ios":"levelo://app?vid=484598d9-3fc7-4dd6-8292-f3adcea97683"},"vehicle_type_id":"4","last_reported":1762161255,"current_range_meters":17600,"station_id":"ce4bhsh2rcd13ifvqi2g","pricing_plan_id":"cebpf4jnsgd1na2vs0mg"},{"bike_id":"9c182b54-339d-4510-b32d-4fa9957bf129","system_id":"levelo_inurba_marseille","lat":43.240687,"lon":5.377644,"is_reserved":false,"is_disabled":false,"rental_uris":{"android":"levelo://app?vid=9c182b54-339d-4510-b32d-4fa9957bf129","ios":"levelo://app?vid=9c182b54-339d-4510-b32d-4fa9957bf129"},"vehicle_type_id":"4","last_reported":1762161255,"current_range_meters":17600,"station_id":"ce4bhnp2rcd13ifvqgvg","pricing_plan_id":"cebpf4jnsgd1na2vs0mg"},{"bike_id":"28d9a824-04c2-49bb-ba69-545403181689","system_id":"levelo_inurba_marseille","lat":43.29614,"lon":5.3716,"is_reserved":false,"is_disabled":false,"rental_uris":{"android":"levelo://app?vid=28d9a824-04c2-49bb-ba69-545403181689","ios":"levelo://app?vid=28d9a824-04c2-49bb-ba69-545403181689"},"vehicle_type_id":"4","last_reported":1762161255,"current_range_meters":17600,"station_id":"ce4bgnh2rcd13ifvqc0g","pricing_plan_id":"cebpf4jnsgd1na2vs0mg"},{"bike_id":"206325df-21db-45dd-b7b5-57f5c84aff67","system_id":"levelo_inurba_marseille","lat":43.3255,"lon":5.4146,"is_reserved":false,"is_disabled":false,"rental_uris":{"android":"levelo://app?vid=206325df-21db-45dd-b7b5-57f5c84aff67","ios":"levelo://app?vid=206325df-21db-45dd-b7b5-57f5c84aff67"},"vehicle_type_id":"4","last_reported":1762161255,"current_range_meters":17600,"station_id":"ce4bhq12rcd13ifvqhhg","pricing_plan_id":"cebpf4jnsgd1na2vs0mg"},{"bike_id":"468b6752-80fe-4a6d-96e7-30202261b4d4","system_id":"levelo_inurba_marseille","lat":43.27994,"lon":5.41666,"is_reserved":false,"is_disabled":false,"rental_uris":{"android":"levelo://app?vid=468b6752-80fe-4a6d-96e7-30202261b4d4","ios":"levelo://app?vid=468b6752-80fe-4a6d-96e7-30202261b4d4"},"vehicle_type_id":"4","last_reported":1762161255,"current_range_meters":18000,"station_id":"ce4bho12rcd13ifvqh1g","pricing_plan_id":"cebpf4jnsgd1na2vs0mg"},{"bike_id":"deced319-b4d4-49f8-b7e3-c2fe947e9551","system_id":"levelo_inurba_marseille","lat":43.31224,"lon":5.36892,"is_reserved":false,"is_disabled":false,"rental_uris":{"android":"levelo://app?vid=deced319-b4d4-49f8-b7e3-c2fe947e9551","ios":"levelo://app?vid=deced319-b4d4-49f8-b7e3-c2fe947e9551"},"vehicle_type_id":"4","last_reported":1762161255,"current_range_meters":18000,"station_id":"ce4bgl92rcd13ifvqbq0","pricing_plan_id":"cebpf4jnsgd1na2vs0mg"},{"bike_id":"20e70bf0-b6e6-4e7a-add8-8e0c8d57fdb0","system_id":"levelo_inurba_marseille","lat":43.24745,"lon":5.40682,"is_reserved":false,"is_disabled":false,"rental_uris":{"android":"levelo://app?vid=20e70bf0-b6e6-4e7a-add8-8e0c8d57fdb0","ios":"levelo://app?vid=20e70bf0-b6e6-4e7a-add8-8e0c8d57fdb0"},"vehicle_type_id":"4","last_reported":1762161255,"current_range_meters":18000,"station_id":"","pricing_plan_id":"cebpf4jnsgd1na2vs0mg"},{"bike_id":"b8c2ea68-f958-4910-a2c5-6e3f2491f619","system_id":"levelo_inurba_marseille","lat":43.29905,"lon":5.38155,"is_reserved":false,"is_disabled":false,"rental_uris":{"android":"levelo://app?vid=b8c2ea68-f958-4910-a2c5-6e3f2491f619","ios":"levelo://app?vid=b8c2ea68-f958-4910-a2c5-6e3f2491f619"},"vehicle_type_id":"4","last_reported":1762161255,"current_range_meters":18000,"station_id":"ce4bgj12rcd13ifvqbc0","pricing_plan_id":"cebpf4jnsgd1na2vs0mg"},{"bike_id":"9aa8e647-5d35-4da4-a0d7-9280e13a02c7","system_id":"levelo_inurba_marseille","lat":43.28147,"lon":5.42652,"is_reserved":false,"is_disabled":false,"rental_uris":{"android":"levelo://app?vid=9aa8e647-5d35-4da4-a0d7-9280e13a02c7","ios":"levelo://app?vid=9aa8e647-5d35-4da4-a0d7-9280e13a02c7"},"vehicle_type_id":"4","last_reported":1762161255,"current_range_meters":18000,"station_id":"ce4bhnh2rcd13ifvqgug","pricing_plan_id":"cebpf4jnsgd1na2vs0mg"},{"bike_id":"e63cb36e-d726-47ba-9669-f6bfde566583","system_id":"levelo_inurba_marseille","lat":43.27992,"lon":5.40025,"is_reserved":false,"is_disabled":false,"rental_uris":{"android":"levelo://app?vid=e63cb36e-d726-47ba-9669-f6bfde566583","ios":"levelo://app?vid=e63cb36e-d726-47ba-9669-f6bfde566583"},"vehicle_type_id":"4","last_reported":1762161255,"current_range_meters":18000,"station_id":"ce4bho92rcd13ifvqh4g","pricing_plan_id":"cebpf4jnsgd1na2vs0mg"},{"bike_id":"21dc7a1f-86e9-41d9-831f-a41099086a6a","system_id":"levelo_inurba_marseille","lat":43.232386,"lon":5.436016,"is_reserved":false,"is_disabled":false,"rental_uris":{"android":"levelo://app?vid=21dc7a1f-86e9-41d9-831f-a41099086a6a","ios":"levelo://app?vid=21dc7a1f-86e9-41d9-831f-a41099086a6a"},"vehicle_type_id":"4","last_reported":1762161255,"current_range_meters":18000,"station_id":"","pricing_plan_id":"cebpf4jnsgd1na2vs0mg"},{"bike_id":"45178dd9-b960-4161-871b-52bd5ff2bc66","system_id":"levelo_inurba_marseille","lat":43.255189,"lon":5.376586,"is_reserved":false,"is_disabled":false,"rental_uris":{"android":"levelo://app?vid=45178dd9-b960-4161-871b-52bd5ff2bc66","ios":"levelo://app?vid=45178dd9-b960-4161-871b-52bd5ff2bc66"},"vehicle_type_id":"4","last_reported":1762161255,"current_range_meters":18000,"station_id":"ce4bhh12rcd13ifvqff0","pricing_plan_id":"cebpf4jnsgd1na2vs0mg"},{"bike_id":"f10c1fd0-819c-4bcb-a779-837cb537741a","system_id":"levelo_inurba_marseille","lat":43.29452,"lon":5.37408,"is_reserved":false,"is_disabled":false,"rental_uris":{"android":"levelo://app?vid=f10c1fd0-819c-4bcb-a779-837cb537741a","ios":"levelo://app?vid=f10c1fd0-819c-4bcb-a779-837cb537741a"},"vehicle_type_id":"4","last_reported":1762161255,"current_range_meters":18000,"station_id":"","pricing_plan_id":"cebpf4jnsgd1na2vs0mg"},{"bike_id":"9c6ca871-f5b0-414f-a25e-0027df3ab686","system_id":"levelo_inurba_marseille","lat":43.24657,"lon":5.43116,"is_reserved":false,"is_disabled":false,"rental_uris":{"android":"levelo://app?vid=9c6ca871-f5b0-414f-a25e-0027df3ab686","ios":"levelo://app?vid=9c6ca871-f5b0-414f-a25e-0027df3ab686"},"vehicle_type_id":"4","last_reported":1762161255,"current_range_meters":18000,"station_id":"st_d2m6c4gdas8pm72e190g","pricing_plan_id":"cebpf4jnsgd1na2vs0mg"},{"bike_id":"148f9c44-752a-403d-af38-8ba0f0a9445a","system_id":"levelo_inurba_marseille","lat":43.31236,"lon":5.36877,"is_reserved":false,"is_disabled":false,"rental_uris":{"android":"levelo://app?vid=148f9c44-752a-403d-af38-8ba0f0a9445a","ios":"levelo://app?vid=148f9c44-752a-403d-af38-8ba0f0a9445a"},"vehicle_type_id":"4","last_reported":1762161255,"current_range_meters":18000,"station_id":"ce4bgl92rcd13ifvqbq0","pricing_plan_id":"cebpf4jnsgd1na2vs0mg"},{"bike_id":"7047db8e-fbeb-4a57-8651-83ac429dbc8e","system_id":"levelo_inurba_marseille","lat":43.25932,"lon":5.40911,"is_reserved":false,"is_disabled":false,"rental_uris":{"android":"levelo://app?vid=7047db8e-fbeb-4a57-8651-83ac429dbc8e","ios":"levelo://app?vid=7047db8e-fbeb-4a57-8651-83ac429dbc8e"},"vehicle_type_id":"4","last_reported":1762161255,"current_range_meters":18000,"station_id":"ce4bhm92rcd13ifvqglg","pricing_plan_id":"cebpf4jnsgd1na2vs0mg"},{"bike_id":"27ccecc2-04fe-4328-a03e-09458d1cfc0d","system_id":"levelo_inurba_marseille","lat":43.265757,"lon":5.390192,"is_reserved":false,"is_disabled":false,"rental_uris":{"android":"levelo://app?vid=27ccecc2-04fe-4328-a03e-09458d1cfc0d","ios":"levelo://app?vid=27ccecc2-04fe-4328-a03e-09458d1cfc0d"},"vehicle_type_id":"4","last_reported":1762161255,"current_range_meters":18800,"station_id":"ce4bhe12rcd13ifvqf30","pricing_plan_id":"cebpf4jnsgd1na2vs0mg"},{"bike_id":"c2355dc4-632d-4ba0-8bc2-f0457cf83d4c","system_id":"levelo_inurba_marseille","lat":43.292278,"lon":5.360552,"is_reserved":false,"is_disabled":false,"rental_uris":{"android":"levelo://app?vid=c2355dc4-632d-4ba0-8bc2-f0457cf83d4c","ios":"levelo://app?vid=c2355dc4-632d-4ba0-8bc2-f0457cf83d4c"},"vehicle_type_id":"4","last_reported":1762161255,"current_range_meters":18800,"station_id":"","pricing_plan_id":"cebpf4jnsgd1na2vs0mg"},{"bike_id":"2027ca7f-2d34-4bbf-9ad0-ab60b2ac1397","system_id":"levelo_inurba_marseille","lat":43.23156,"lon":5.43694,"is_reserved":false,"is_disabled":false,"rental_uris":{"android":"levelo://app?vid=2027ca7f-2d34-4bbf-9ad0-ab60b2ac1397","ios":"levelo://app?vid=2027ca7f-2d34-4bbf-9ad0-ab60b2ac1397"},"vehicle_type_id":"4","last_reported":1762161255,"current_range_meters":18800,"station_id":"ce4bhmp2rcd13ifvqgog","pricing_plan_id":"cebpf4jnsgd1na2vs0mg"},{"bike_id":"3e077524-ccee-4cee-bdb9-59100f2ede51","system_id":"levelo_inurba_marseille","lat":43.28148,"lon":5.42635,"is_reserved":false,"is_disabled":false,"rental_uris":{"android":"levelo://app?vid=3e077524-ccee-4cee-bdb9-59100f2ede51","ios":"levelo://app?vid=3e077524-ccee-4cee-bdb9-59100f2ede51"},"vehicle_type_id":"4","last_reported":1762161255,"current_range_meters":18800,"station_id":"ce4bhnh2rcd13ifvqgug","pricing_plan_id":"cebpf4jnsgd1na2vs0mg"},{"bike_id":"092211a6-e51d-44ce-8137-4ecf725cb1a5","system_id":"levelo_inurba_marseille","lat":43.28154,"lon":5.4264,"is_reserved":false,"is_disabled":false,"rental_uris":{"android":"levelo://app?vid=092211a6-e51d-44ce-8137-4ecf725cb1a5","ios":"levelo://app?vid=092211a6-e51d-44ce-8137-4ecf725cb1a5"},"vehicle_type_id":"4","last_reported":1762161255,"current_range_meters":18800,"station_id":"ce4bhnh2rcd13ifvqgug","pricing_plan_id":"cebpf4jnsgd1na2vs0mg"},{"bike_id":"0b15c0a8-c7d6-48a6-aeda-283614cfe5a5","system_id":"levelo_inurba_marseille","lat":43.23151,"lon":5.43718,"is_reserved":false,"is_disabled":false,"rental_uris":{"android":"levelo://app?vid=0b15c0a8-c7d6-48a6-aeda-283614cfe5a5","ios":"levelo://app?vid=0b15c0a8-c7d6-48a6-aeda-283614cfe5a5"},"vehicle_type_id":"4","last_reported":1762161255,"current_range_meters":18800,"station_id":"ce4bhmp2rcd13ifvqgog","pricing_plan_id":"cebpf4jnsgd1na2vs0mg"},{"bike_id":"0e4756ef-8d65-4a4b-b4d1-662246103808","system_id":"levelo_inurba_marseille","lat":43.28433,"lon":5.34984,"is_reserved":false,"is_disabled":true,"rental_uris":{"android":"levelo://app?vid=0e4756ef-8d65-4a4b-b4d1-662246103808","ios":"levelo://app?vid=0e4756ef-8d65-4a4b-b4d1-662246103808"},"vehicle_type_id":"4","last_reported":1762161255,"current_range_meters":18800,"station_id":"ce4bhbh2rcd13ifvqepg","pricing_plan_id":"cebpf4jnsgd1na2vs0mg"},{"bike_id":"aa57417c-8bed-4ac9-901e-05a2c4cc9773","system_id":"levelo_inurba_marseille","lat":43.2464,"lon":5.43142,"is_reserved":false,"is_disabled":false,"rental_uris":{"android":"levelo://app?vid=aa57417c-8bed-4ac9-901e-05a2c4cc9773","ios":"levelo://app?vid=aa57417c-8bed-4ac9-901e-05a2c4cc9773"},"vehicle_type_id":"4","last_reported":1762161255,"current_range_meters":19200,"station_id":"st_d2m6c4gdas8pm72e190g","pricing_plan_id":"cebpf4jnsgd1na2vs0mg"},{"bike_id":"0878d4c6-6b1f-4d95-9084-8db9202ec85d","system_id":"levelo_inurba_marseille","lat":43.30133,"lon":5.37407,"is_reserved":false,"is_disabled":false,"rental_uris":{"android":"levelo://app?vid=0878d4c6-6b1f-4d95-9084-8db9202ec85d","ios":"levelo://app?vid=0878d4c6-6b1f-4d95-9084-8db9202ec85d"},"vehicle_type_id":"4","last_reported":1762161255,"current_range_meters":19200,"station_id":"ce4bgs92rcd13ifvqcc0","pricing_plan_id":"cebpf4jnsgd1na2vs0mg"},{"bike_id":"9d0cc32d-6d7a-418a-b997-4f922b3d17f7","system_id":"levelo_inurba_marseille","lat":43.29788,"lon":5.43802,"is_reserved":false,"is_disabled":false,"rental_uris":{"android":"levelo://app?vid=9d0cc32d-6d7a-418a-b997-4f922b3d17f7","ios":"levelo://app?vid=9d0cc32d-6d7a-418a-b997-4f922b3d17f7"},"vehicle_type_id":"4","last_reported":1762161255,"current_range_meters":19200,"station_id":"","pricing_plan_id":"cebpf4jnsgd1na2vs0mg"},{"bike_id":"14b85bc8-e0c7-4f84-9243-26bd3bb154c0","system_id":"levelo_inurba_marseille","lat":43.31189,"lon":5.39369,"is_reserved":false,"is_disabled":false,"rental_uris":{"android":"levelo://app?vid=14b85bc8-e0c7-4f84-9243-26bd3bb154c0","ios":"levelo://app?vid=14b85bc8-e0c7-4f84-9243-26bd3bb154c0"},"vehicle_type_id":"4","last_reported":1762161255,"current_range_meters":19200,"station_id":"","pricing_plan_id":"cebpf4jnsgd1na2vs0mg"},{"bike_id":"f8a00c60-56bb-47f7-ad0c-170f2e65ebf8","system_id":"levelo_inurba_marseille","lat":43.239609,"lon":5.366335,"is_reserved":false,"is_disabled":false,"rental_uris":{"android":"levelo://app?vid=f8a00c60-56bb-47f7-ad0c-170f2e65ebf8","ios":"levelo://app?vid=f8a00c60-56bb-47f7-ad0c-170f2e65ebf8"},"vehicle_type_id":"4","last_reported":1762161255,"current_range_meters":19200,"station_id":"ce4bhi12rcd13ifvqfp0","pricing_plan_id":"cebpf4jnsgd1na2vs0mg"},{"bike_id":"b792aa60-3e96-4534-bbc2-bcb4007102ba","system_id":"levelo_inurba_marseille","lat":43.23237,"lon":5.35897,"is_reserved":false,"is_disabled":false,"rental_uris":{"android":"levelo://app?vid=b792aa60-3e96-4534-bbc2-bcb4007102ba","ios":"levelo://app?vid=b792aa60-3e96-4534-bbc2-bcb4007102ba"},"vehicle_type_id":"4","last_reported":1762161255,"current_range_meters":19200,"station_id":"","pricing_plan_id":"cebpf4jnsgd1na2vs0mg"},{"bike_id":"c70443cc-5424-4af6-af97-f551049abf98","system_id":"levelo_inurba_marseille","lat":43.2443,"lon":5.37032,"is_reserved":false,"is_disabled":false,"rental_uris":{"android":"levelo://app?vid=c70443cc-5424-4af6-af97-f551049abf98","ios":"levelo://app?vid=c70443cc-5424-4af6-af97-f551049abf98"},"vehicle_type_id":"4","last_reported":1762161255,"current_range_meters":19200,"station_id":"ce4bhhh2rcd13ifvqfk0","pricing_plan_id":"cebpf4jnsgd1na2vs0mg"},{"bike_id":"e3b21cd4-4b51-47a5-a49c-78c85c27336d","system_id":"levelo_inurba_marseille","lat":43.25942,"lon":5.40894,"is_reserved":false,"is_disabled":false,"rental_uris":{"android":"levelo://app?vid=e3b21cd4-4b51-47a5-a49c-78c85c27336d","ios":"levelo://app?vid=e3b21cd4-4b51-47a5-a49c-78c85c27336d"},"vehicle_type_id":"4","last_reported":1762161255,"current_range_meters":19200,"station_id":"ce4bhm92rcd13ifvqglg","pricing_plan_id":"cebpf4jnsgd1na2vs0mg"},{"bike_id":"417f2e6e-1eac-4051-94d3-b7cb95ea1a72","system_id":"levelo_inurba_marseille","lat":43.32003,"lon":5.37628,"is_reserved":false,"is_disabled":false,"rental_uris":{"android":"levelo://app?vid=417f2e6e-1eac-4051-94d3-b7cb95ea1a72","ios":"levelo://app?vid=417f2e6e-1eac-4051-94d3-b7cb95ea1a72"},"vehicle_type_id":"4","last_reported":1762161255,"current_range_meters":19200,"station_id":"","pricing_plan_id":"cebpf4jnsgd1na2vs0mg"},{"bike_id":"081dfc20-5d7e-46e3-ad7b-ad81f6f0472e","system_id":"levelo_inurba_marseille","lat":43.233414,"lon":5.357905,"is_reserved":false,"is_disabled":false,"rental_uris":{"android":"levelo://app?vid=081dfc20-5d7e-46e3-ad7b-ad81f6f0472e","ios":"levelo://app?vid=081dfc20-5d7e-46e3-ad7b-ad81f6f0472e"},"vehicle_type_id":"4","last_reported":1762161255,"current_range_meters":19200,"station_id":"ce4bhu92rcd13ifvqi70","pricing_plan_id":"cebpf4jnsgd1na2vs0mg"},{"bike_id":"744c9faa-d6dc-43e3-a36e-112e67c000d1","system_id":"levelo_inurba_marseille","lat":43.25721,"lon":5.41111,"is_reserved":false,"is_disabled":false,"rental_uris":{"android":"levelo://app?vid=744c9faa-d6dc-43e3-a36e-112e67c000d1","ios":"levelo://app?vid=744c9faa-d6dc-43e3-a36e-112e67c000d1"},"vehicle_type_id":"4","last_reported":1762161255,"current_range_meters":19200,"station_id":"ce4bhkp2rcd13ifvqgd0","pricing_plan_id":"cebpf4jnsgd1na2vs0mg"},{"bike_id":"c2c41c56-053c-4889-88df-57fa33106c1d","system_id":"levelo_inurba_marseille","lat":43.30798,"lon":5.40563,"is_reserved":false,"is_disabled":false,"rental_uris":{"android":"levelo://app?vid=c2c41c56-053c-4889-88df-57fa33106c1d","ios":"levelo://app?vid=c2c41c56-053c-4889-88df-57fa33106c1d"},"vehicle_type_id":"4","last_reported":1762161255,"current_range_meters":19200,"station_id":"","pricing_plan_id":"cebpf4jnsgd1na2vs0mg"},{"bike_id":"8ccdfd4d-00dc-4449-a73f-372c06c41a1f","system_id":"levelo_inurba_marseille","lat":43.23139,"lon":5.43716,"is_reserved":false,"is_disabled":false,"rental_uris":{"android":"levelo://app?vid=8ccdfd4d-00dc-4449-a73f-372c06c41a1f","ios":"levelo://app?vid=8ccdfd4d-00dc-4449-a73f-372c06c41a1f"},"vehicle_type_id":"4","last_reported":1762161255,"current_range_meters":19200,"station_id":"ce4bhmp2rcd13ifvqgog","pricing_plan_id":"cebpf4jnsgd1na2vs0mg"},{"bike_id":"978ae0d5-a713-47b7-9ffa-d1a725f0a46f","system_id":"levelo_inurba_marseille","lat":43.30319,"lon":5.36882,"is_reserved":false,"is_disabled":false,"rental_uris":{"android":"levelo://app?vid=978ae0d5-a713-47b7-9ffa-d1a725f0a46f","ios":"levelo://app?vid=978ae0d5-a713-47b7-9ffa-d1a725f0a46f"},"vehicle_type_id":"4","last_reported":1762161255,"current_range_meters":19600,"station_id":"ce4bgqh2rcd13ifvqc5g","pricing_plan_id":"cebpf4jnsgd1na2vs0mg"},{"bike_id":"b773bce2-368d-4ff9-99a2-fe4a03716bc0","system_id":"levelo_inurba_marseille","lat":43.32149,"lon":5.36752,"is_reserved":false,"is_disabled":false,"rental_uris":{"android":"levelo://app?vid=b773bce2-368d-4ff9-99a2-fe4a03716bc0","ios":"levelo://app?vid=b773bce2-368d-4ff9-99a2-fe4a03716bc0"},"vehicle_type_id":"4","last_reported":1762161255,"current_range_meters":19600,"station_id":"","pricing_plan_id":"cebpf4jnsgd1na2vs0mg"},{"bike_id":"e61819c5-a8d4-4dc1-b7d4-b160073c646f","system_id":"levelo_inurba_marseille","lat":43.29563,"lon":5.42292,"is_reserved":false,"is_disabled":false,"rental_uris":{"android":"levelo://app?vid=e61819c5-a8d4-4dc1-b7d4-b160073c646f","ios":"levelo://app?vid=e61819c5-a8d4-4dc1-b7d4-b160073c646f"},