{"last_updated":1722784101,"ttl":30,"version":"2.2","data":{"bikes":[{"bike_id":"ff79cbd8-6579-4dae-b10d-e3832d0872e3","system_id":"levelo_inurba_marseille","lat":43.314811,"lon":5.373103,"is_reserved":false,"is_disabled":false,"rental_uris":{"android":"levelo://app?vid=ff79cbd8-6579-4dae-b10d-e3832d0872e3","ios":"levelo://app?vid=ff79cbd8-6579-4dae-b10d-e3832d0872e3"},"vehicle_type_id":"4","last_reported":1722784101,"current_range_meters":15200,"station_id":"ce4bgt12rcd13ifvqcd0","pricing_plan_id":"cebpf4jnsgd1na2vs0mg"},{"bike_id":"0906b1df-5c1a-48d7-a0c5-1a39d9fa7af0","system_id":"levelo_inurba_marseille","lat":43.314811,"lon":5.373104,"is_reserved":false,"is_disabled":false,"rental_uris":{"android":"levelo://app?vid=0906b1df-5c1a-48d7-a0c5-1a39d9fa7af0","ios":"levelo://app?vid=0906b1df-5c1a-48d7-a0c5-1a39d9fa7af0"},"vehicle_type_id":"4","last_reported":1722784101,"current_range_meters":0,"station_id":"ce4bgt12rcd13ifvqcd0","pricing_plan_id":"cebpf4jnsgd1na2vs0mg"},{"bike_id":"48d513d1-196f-486e-a8e8-90cacdf9d214","system_id":"levelo_inurba_marseille","lat":43.309034,"lon":5.371783,"is_reserved":false,"is_disabled":false,"rental_uris":{"android":"levelo://app?vid=48d513d1-196f-486e-a8e8-90cacdf9d214","ios":"levelo://app?vid=48d513d1-196f-486e-a8e8-90cacdf9d214"},"vehicle_type_id":"4","last_reported":1722784101,"current_range_meters":14000,"station_id":"ce4bguh2rcd13ifvqckg","pricing_plan_id":"cebpf4jnsgd1na2vs0mg"},{"bike_id":"beb29842-ed55-4b2d-8381-0e77c72ff93f","system_id":"levelo_inurba_marseille","lat":43.30937,"lon":5.374823,"is_reserved":false,"is_disabled":false,"rental_uris":{"android":"levelo://app?vid=beb29842-ed55-4b2d-8381-0e77c72ff93f","ios":"levelo://app?vid=beb29842-ed55-4b2d-8381-0e77c72ff93f"},"vehicle_type_id":"4","last_reported":1722784101,"current_range_meters":13200,"station_id":"","pricing_plan_id":"cebpf4jnsgd1na2vs0mg"},{"bike_id":"0b7f51b9-1d9e-478e-a45a-ebf4a9f3fd1d","system_id":"levelo_inurba_marseille","lat":43.305714,"lon":5.365633,"is_reserved":false,"is_disabled":false,"rental_uris":{"android":"levelo://app?vid=0b7f51b9-1d9e-478e-a45a-ebf4a9f3fd1d","ios":"levelo://app?vid=0b7f51b9-1d9e-478e-a45a-ebf4a9f3fd1d"},"vehicle_type_id":"4","last_reported":1722784101,"current_range_meters":3200,"station_id":"ce4bgs12rcd13ifvqcag","pricing_plan_id":"cebpf4jnsgd1na2vs0mg"},{"bike_id":"94cb21c3-9aaf-4514-b534-d29732c130bb","system_id":"levelo_inurba_marseille","lat":43.30537,"lon":5.367345,"is_reserved":false,"is_disabled":false,"rental_uris":{"android":"levelo://app?vid=94cb21c3-9aaf-4514-b534-d29732c130bb","ios":"levelo://app?vid=94cb21c3-9aaf-4514-b534-d29732c130bb"},"vehicle_type_id":"4","last_reported":1722784101,"current_range_meters":2000,"station_id":"ce4bgrp2rcd13ifvqc9g","pricing_plan_id":"cebpf4jnsgd1na2vs0mg"},{"bike_id":"9067c98b-160d-41bd-acb9-f43f2d7c163e","system_id":"levelo_inurba_marseille","lat":43.305706,"lon":5.365654,"is_reserved":false,"is_disabled":false,"rental_uris":{"android":"levelo://app?vid=9067c98b-160d-41bd-acb9-f43f2d7c163e","ios":"levelo://app?vid=9067c98b-160d-41bd-acb9-f43f2d7c163e"},"vehicle_type_id":"4","last_reported":1722784101,"current_range_meters":12000,"station_id":"ce4bgs12rcd13ifvqcag","pricing_plan_id":"cebpf4jnsgd1na2vs0mg"},{"bike_id":"a3585c11-54ba-48de-b20c-12b75266dd3a","system_id":"levelo_inurba_marseille","lat":43.305706,"lon":5.365654,"is_reserved":false,"is_disabled":false,"rental_uris":{"android":"levelo://app?vid=a3585c11-54ba-48de-b20c-12b75266dd3a","ios":"levelo://app?vid=a3585c11-54ba-48de-b20c-12b75266dd3a"},"vehicle_type_id":"4","last_reported":1722784101,"current_range_meters":8000,"station_id":"ce4bgs12rcd13ifvqcag","pricing_plan_id":"cebpf4jnsgd1na2vs0mg"},{"bike_id":"cdd33631-131d-40cb-992a-853914b439ae","system_id":"levelo_inurba_marseille","lat":43.304937,"lon":5.37079,"is_reserved":false,"is_disabled":false,"rental_uris":{"android":"levelo://app?vid=cdd33631-131d-40cb-992a-853914b439ae","ios":"levelo://app?vid=cdd33631-131d-40cb-992a-853914b439ae"},"vehicle_type_id":"4","last_reported":1722784101,"current_range_meters":18000,"station_id":"","pricing_plan_id":"cebpf4jnsgd1na2vs0mg"},{"bike_id":"9b68680c-30bb-400f-bc4c-9f92f68ed157","system_id":"levelo_inurba_marseille","lat":43.317075,"lon":5.377367,"is_reserved":false,"is_disabled":false,"rental_uris":{"android":"levelo://app?vid=9b68680c-30bb-400f-bc4c-9f92f68ed157","ios":"levelo://app?vid=9b68680c-30bb-400f-bc4c-9f92f68ed157"},"vehicle_type_id":"4","last_reported":1722784101,"current_range_meters":29600,"station_id":"ce4bgth2rcd13ifvqch0","pricing_plan_id":"cebpf4jnsgd1na2vs0mg"},{"bike_id":"746cd1d4-ddbc-43ad-bccc-6b9669e9fdd6","system_id":"levelo_inurba_marseille","lat":43.318834,"lon":5.37711,"is_reserved":false,"is_disabled":false,"rental_uris":{"android":"levelo://app?vid=746cd1d4-ddbc-43ad-bccc-6b9669e9fdd6","ios":"levelo://app?vid=746cd1d4-ddbc-43ad-bccc-6b9669e9fdd6"},"vehicle_type_id":"4","last_reported":1722784101,"current_range_meters":7600,"station_id":"","pricing_plan_id":"cebpf4jnsgd1na2vs0mg"},{"bike_id":"3a6cdb39-47e2-4d56-94f5-9cae6b3e7e5e","system_id":"levelo_inurba_marseille","lat":43.31162,"lon":5.38007,"is_reserved":false,"is_disabled":false,"rental_uris":{"android":"levelo://app?vid=3a6cdb39-47e2-4d56-94f5-9cae6b3e7e5e","ios":"levelo://app?vid=3a6cdb39-47e2-4d56-94f5-9cae6b3e7e5e"},"vehicle_type_id":"4","last_reported":1722784101,"current_range_meters":4800,"station_id":"","pricing_plan_id":"cebpf4jnsgd1na2vs0mg"},{"bike_id":"534b2c0e-d109-445c-826a-a52ae669fbea","system_id":"levelo_inurba_marseille","lat":43.314173,"lon":5.380273,"is_reserved":false,"is_disabled":false,"rental_uris":{"android":"levelo://app?vid=534b2c0e-d109-445c-826a-a52ae669fbea","ios":"levelo://app?vid=534b2c0e-d109-445c-826a-a52ae669fbea"},"vehicle_type_id":"4","last_reported":1722784101,"current_range_meters":28400,"station_id":"","pricing_plan_id":"cebpf4jnsgd1na2vs0mg"},{"bike_id":"937d205e-2e3f-42c5-b744-cd8fb6683f87","system_id":"levelo_inurba_marseille","lat":43.316537,"lon":5.379894,"is_reserved":false,"is_disabled":false,"rental_uris":{"android":"levelo://app?vid=937d205e-2e3f-42c5-b744-cd8fb6683f87","ios":"levelo://app?vid=937d205e-2e3f-42c5-b744-cd8fb6683f87"},"vehicle_type_id":"4","last_reported":1722784101,"current_range_meters":27200,"station_id":"","pricing_plan_id":"cebpf4jnsgd1na2vs0mg"},{"bike_id":"7ddee55b-e140-46be-b3df-94db58723279","system_id":"levelo_inurba_marseille","lat":43.318578,"lon":5.378786,"is_reserved":false,"is_disabled":false,"rental_uris":{"android":"levelo://app?vid=7ddee55b-e140-46be-b3df-94db58723279","ios":"levelo://app?vid=7ddee55b-e140-46be-b3df-94db58723279"},"vehicle_type_id":"4","last_reported":1722784101,"current_range_meters":30000,"station_id":"","pricing_plan_id":"cebpf4jnsgd1na2vs0mg"},{"bike_id":"7d26f442-7c92-4f3d-8240-0ca62ad96ee4","system_id":"levelo_inurba_marseille","lat":43.323414,"lon":5.364859,"is_reserved":false,"is_disabled":false,"rental_uris":{"android":"levelo://app?vid=7d26f442-7c92-4f3d-8240-0ca62ad96ee4","ios":"levelo://app?vid=7d26f442-7c92-4f3d-8240-0ca62ad96ee4"},"vehicle_type_id":"4","last_reported":1722784101,"current_range_meters":22000,"station_id":"","pricing_plan_id":"cebpf4jnsgd1na2vs0mg"},{"bike_id":"b586de42-8eee-46b9-a71b-e6f2f14b5216","system_id":"levelo_inurba_marseille","lat":43.303046,"lon":5.368981,"is_reserved":false,"is_disabled":false,"rental_uris":{"android":"levelo://app?vid=b586de42-8eee-46b9-a71b-e6f2f14b5216","ios":"levelo://app?vid=b586de42-8eee-46b9-a71b-e6f2f14b5216"},"vehicle_type_id":"4","last_reported":1722784101,"current_range_meters":12000,"station_id":"ce4bgqh2rcd13ifvqc5g","pricing_plan_id":"cebpf4jnsgd1na2vs0mg"},{"bike_id":"b54873d0-5e8c-4d15-81f7-c4e6e212bd6c","system_id":"levelo_inurba_marseille","lat":43.304606,"lon":5.379026,"is_reserved":false,"is_disabled":false,"rental_uris":{"android":"levelo://app?vid=b54873d0-5e8c-4d15-81f7-c4e6e212bd6c","ios":"levelo://app?vid=b54873d0-5e8c-4d15-81f7-c4e6e212bd6c"},"vehicle_type_id":"4","last_reported":1722784101,"current_range_meters":14800,"station_id":"ce4bgup2rcd13ifvqcn0","pricing_plan_id":"cebpf4jnsgd1na2vs0mg"},{"bike_id":"7287c817-e81b-4d20-abdd-d12577ec1d56","system_id":"levelo_inurba_marseille","lat":43.304606,"lon":5.379026,"is_reserved":false,"is_disabled":false,"rental_uris":{"android":"levelo://app?vid=7287c817-e81b-4d20-abdd-d12577ec1d56","ios":"levelo://app?vid=7287c817-e81b-4d20-abdd-d12577ec1d56"},"vehicle_type_id":"4","last_reported":1722784101,"current_range_meters":22400,"station_id":"ce4bgup2rcd13ifvqcn0","pricing_plan_id":"cebpf4jnsgd1na2vs0mg"},{"bike_id":"acea373c-012a-49ac-8063-595537d5579d","system_id":"levelo_inurba_marseille","lat":43.324771,"lon":5.36557,"is_reserved":false,"is_disabled":false,"rental_uris":{"android":"levelo://app?vid=acea373c-012a-49ac-8063-595537d5579d","ios":"levelo://app?vid=acea373c-012a-49ac-8063-595537d5579d"},"vehicle_type_id":"4","last_reported":1722784101,"current_range_meters":1200,"station_id":"ce4bhs12rcd13ifvqhvg","pricing_plan_id":"cebpf4jnsgd1na2vs0mg"},{"bike_id":"aa6c3caa-a399-40fe-9908-325748fc4085","system_id":"levelo_inurba_marseille","lat":43.324771,"lon":5.36557,"is_reserved":false,"is_disabled":false,"rental_uris":{"android":"levelo://app?vid=aa6c3caa-a399-40fe-9908-325748fc4085","ios":"levelo://app?vid=aa6c3caa-a399-40fe-9908-325748fc4085"},"vehicle_type_id":"4","last_reported":1722784101,"current_range_meters":31200,"station_id":"ce4bhs12rcd13ifvqhvg","pricing_plan_id":"cebpf4jnsgd1na2vs0mg"},{"bike_id":"b72dc0aa-93fe-43bc-be00-318d213110aa","system_id":"levelo_inurba_marseille","lat":43.324771,"lon":5.36557,"is_reserved":false,"is_disabled":false,"rental_uris":{"android":"levelo://app?vid=b72dc0aa-93fe-43bc-be00-318d213110aa","ios":"levelo://app?vid=b72dc0aa-93fe-43bc-be00-318d213110aa"},"vehicle_type_id":"4","last_reported":1722784101,"current_range_meters":31200,"station_id":"ce4bhs12rcd13ifvqhvg","pricing_plan_id":"cebpf4jnsgd1na2vs0mg"},{"bike_id":"c5eafbde-38cc-415e-bdbe-642750cf2fc4","system_id":"levelo_inurba_marseille","lat":43.324771,"lon":5.36557,"is_reserved":false,"is_disabled":false,"rental_uris":{"android":"levelo://app?vid=c5eafbde-38cc-415e-bdbe-642750cf2fc4","ios":"levelo://app?vid=c5eafbde-38cc-415e-bdbe-642750cf2fc4"},"vehicle_type_id":"4","last_reported":1722784101,"current_range_meters":31200,"station_id":"ce4bhs12rcd13ifvqhvg","pricing_plan_id":"cebpf4jnsgd1na2vs0mg"},{"bike_id":"41980ad8-51a2-43e4-bb99-3124a61598b8","system_id":"levelo_inurba_marseille","lat":43.324771,"lon":5.36557,"is_reserved":false,"is_disabled":false,"rental_uris":{"android":"levelo://app?vid=41980ad8-51a2-43e4-bb99-3124a61598b8","ios":"levelo://app?vid=41980ad8-51a2-43e4-bb99-3124a61598b8"},"vehicle_type_id":"4","last_reported":1722784101,"current_range_meters":19200,"station_id":"ce4bhs12rcd13ifvqhvg","pricing_plan_id":"cebpf4jnsgd1na2vs0mg"},{"bike_id":"81d43ff6-d235-405d-a7ce-101884cd71bb","system_id":"levelo_inurba_marseille","lat":43.324771,"lon":5.36557,"is_reserved":false,"is_disabled":false,"rental_uris":{"android":"levelo://app?vid=81d43ff6-d235-405d-a7ce-101884cd71bb","ios":"levelo://app?vid=81d43ff6-d235-405d-a7ce-101884cd71bb"},"vehicle_type_id":"4","last_reported":1722784101,"current_range_meters":6000,"station_id":"ce4bhs12rcd13ifvqhvg","pricing_plan_id":"cebpf4jnsgd1na2vs0mg"},{"bike_id":"39c3d13d-fef7-48cf-9300-21353a1419e2","system_id":"levelo_inurba_marseille","lat":43.324874,"lon":5.365706,"is_reserved":false,"is_disabled":false,"rental_uris":{"android":"levelo://app?vid=39c3d13d-fef7-48cf-9300-21353a1419e2","ios":"levelo://app?vid=39c3d13d-fef7-48cf-9300-21353a1419e2"},"vehicle_type_id":"4","last_reported":1722784101,"current_range_meters":25200,"station_id":"ce4bhs12rcd13ifvqhvg","pricing_plan_id":"cebpf4jnsgd1na2vs0mg"},{"bike_id":"cfbb5f88-214f-4b9d-a4eb-4496dbd9322a","system_id":"levelo_inurba_marseille","lat":43.324771,"lon":5.36557,"is_reserved":false,"is_disabled":false,"rental_uris":{"android":"levelo://app?vid=cfbb5f88-214f-4b9d-a4eb-4496dbd9322a","ios":"levelo://app?vid=cfbb5f88-214f-4b9d-a4eb-4496dbd9322a"},"vehicle_type_id":"4","last_reported":1722784101,"current_range_meters":32000,"station_id":"ce4bhs12rcd13ifvqhvg","pricing_plan_id":"cebpf4jnsgd1na2vs0mg"},{"bike_id":"5c8e5d8f-bdd5-40cd-bd8e-b86adb71824b","system_id":"levelo_inurba_marseille","lat":43.32488,"lon":5.36561,"is_reserved":false,"is_disabled":false,"rental_uris":{"android":"levelo://app?vid=5c8e5d8f-bdd5-40cd-bd8e-b86adb71824b","ios":"levelo://app?vid=5c8e5d8f-bdd5-40cd-bd8e-b86adb71824b"},"vehicle_type_id":"4","last_reported":1722784101,"current_range_meters":0,"station_id":"ce4bhs12rcd13ifvqhvg","pricing_plan_id":"cebpf4jnsgd1na2vs0mg"},{"bike_id":"c2b9e131-7d22-4399-8e73-ba3b58b1a7e0","system_id":"levelo_inurba_marseille","lat":43.310804,"lon":5.38359,"is_reserved":false,"is_disabled":false,"rental_uris":{"android":"levelo://app?vid=c2b9e131-7d22-4399-8e73-ba3b58b1a7e0","ios":"levelo://app?vid=c2b9e131-7d22-4399-8e73-ba3b58b1a7e0"},"vehicle_type_id":"4","last_reported":1722784101,"current_range_meters":4800,"station_id":"ce4bgv92rcd13ifvqcr0","pricing_plan_id":"cebpf4jnsgd1na2vs0mg"},{"bike_id":"ba3dc773-87a4-4ab1-84b7-50edc44e44cd","system_id":"levelo_inurba_marseille","lat":43.319935,"lon":5.381699,"is_reserved":false,"is_disabled":false,"rental_uris":{"android":"levelo://app?vid=ba3dc773-87a4-4ab1-84b7-50edc44e44cd","ios":"levelo://app?vid=ba3dc773-87a4-4ab1-84b7-50edc44e44cd"},"vehicle_type_id":"4","last_reported":1722784101,"current_range_meters":28000,"station_id":"ce4bhr12rcd13ifvqhpg","pricing_plan_id":"cebpf4jnsgd1na2vs0mg"},{"bike_id":"7f0a15af-402c-455b-98c9-658f55999543","system_id":"levelo_inurba_marseille","lat":43.313571,"lon":5.384829,"is_reserved":false,"is_disabled":false,"rental_uris":{"android":"levelo://app?vid=7f0a15af-402c-455b-98c9-658f55999543","ios":"levelo://app?vid=7f0a15af-402c-455b-98c9-658f55999543"},"vehicle_type_id":"4","last_reported":1722784101,"current_range_meters":400,"station_id":"ce4bgt92rcd13ifvqcf0","pricing_plan_id":"cebpf4jnsgd1na2vs0mg"},{"bike_id":"1856022e-c436-4dde-948b-e363b1c7b030","system_id":"levelo_inurba_marseille","lat":43.313571,"lon":5.384829,"is_reserved":false,"is_disabled":false,"rental_uris":{"android":"levelo://app?vid=1856022e-c436-4dde-948b-e363b1c7b030","ios":"levelo://app?vid=1856022e-c436-4dde-948b-e363b1c7b030"},"vehicle_type_id":"4","last_reported":1722784101,"current_range_meters":0,"station_id":"ce4bgt92rcd13ifvqcf0","pricing_plan_id":"cebpf4jnsgd1na2vs0mg"},{"bike_id":"98ca2672-37f6-4949-b79b-05a05bff5049","system_id":"levelo_inurba_marseille","lat":43.313571,"lon":5.384829,"is_reserved":false,"is_disabled":false,"rental_uris":{"android":"levelo://app?vid=98ca2672-37f6-4949-b79b-05a05bff5049","ios":"levelo://app?vid=98ca2672-37f6-4949-b79b-05a05bff5049"},"vehicle_type_id":"4","last_reported":1722784101,"current_range_meters":31600,"station_id":"ce4bgt92rcd13ifvqcf0","pricing_plan_id":"cebpf4jnsgd1na2vs0mg"},{"bike_id":"fc9b3107-32f5-40da-a2be-4ca5c93cb096","system_id":"levelo_inurba_marseille","lat":43.29988,"lon":5.37185,"is_reserved":false,"is_disabled":false,"rental_uris":{"android":"levelo://app?vid=fc9b3107-32f5-40da-a2be-4ca5c93cb096","ios":"levelo://app?vid=fc9b3107-32f5-40da-a2be-4ca5c93cb096"},"vehicle_type_id":"4","last_reported":1722784101,"current_range_meters":31200,"station_id":"ce4bgr92rcd13ifvqc7g","pricing_plan_id":"cebpf4jnsgd1na2vs0mg"},{"bike_id":"d4103aa0-82c8-4b68-b856-e67ad51e2b0c","system_id":"levelo_inurba_marseille","lat":43.299222,"lon":5.365554,"is_reserved":false,"is_disabled":false,"rental_uris":{"android":"levelo://app?vid=d4103aa0-82c8-4b68-b856-e67ad51e2b0c","ios":"levelo://app?vid=d4103aa0-82c8-4b68-b856-e67ad51e2b0c"},"vehicle_type_id":"4","last_reported":1722784101,"current_range_meters":4800,"station_id":"ce4bgm92rcd13ifvqbr0","pricing_plan_id":"cebpf4jnsgd1na2vs0mg"},{"bike_id":"4c306cd9-ac09-4afa-b2ea-321bc317bfed","system_id":"levelo_inurba_marseille","lat":43.319935,"lon":5.381699,"is_reserved":false,"is_disabled":false,"rental_uris":{"android":"levelo://app?vid=4c306cd9-ac09-4afa-b2ea-321bc317bfed","ios":"levelo://app?vid=4c306cd9-ac09-4afa-b2ea-321bc317bfed"},"vehicle_type_id":"4","last_reported":1722784101,"current_range_meters":21200,"station_id":"ce4bhr12rcd13ifvqhpg","pricing_plan_id":"cebpf4jnsgd1na2vs0mg"},{"bike_id":"10d318dd-ac80-4888-a3fe-a77d864a2ba2","system_id":"levelo_inurba_marseille","lat":43.314998,"lon":5.386175,"is_reserved":false,"is_disabled":false,"rental_uris":{"android":"levelo://app?vid=10d318dd-ac80-4888-a3fe-a77d864a2ba2","ios":"levelo://app?vid=10d318dd-ac80-4888-a3fe-a77d864a2ba2"},"vehicle_type_id":"4","last_reported":1722784101,"current_range_meters":17200,"station_id":"","pricing_plan_id":"cebpf4jnsgd1na2vs0mg"},{"bike_id":"3e7d6f89-70ca-4e6d-8754-59e6290bf1dc","system_id":"levelo_inurba_marseille","lat":43.298433,"lon":5.362774,"is_reserved":false,"is_disabled":false,"rental_uris":{"android":"levelo://app?vid=3e7d6f89-70ca-4e6d-8754-59e6290bf1dc","ios":"levelo://app?vid=3e7d6f89-70ca-4e6d-8754-59e6290bf1dc"},"vehicle_type_id":"4","last_reported":1722784101,"current_range_meters":0,"station_id":"ce4bgpp2rcd13ifvqc3g","pricing_plan_id":"cebpf4jnsgd1na2vs0mg"},{"bike_id":"a165011f-87f3-426c-b8ff-a98fabb14c62","system_id":"levelo_inurba_marseille","lat":43.298433,"lon":5.362774,"is_reserved":false,"is_disabled":false,"rental_uris":{"android":"levelo://app?vid=a165011f-87f3-426c-b8ff-a98fabb14c62","ios":"levelo://app?vid=a165011f-87f3-426c-b8ff-a98fabb14c62"},"vehicle_type_id":"4","last_reported":1722784101,"current_range_meters":6800,"station_id":"ce4bgpp2rcd13ifvqc3g","pricing_plan_id":"cebpf4jnsgd1na2vs0mg"},{"bike_id":"7f04b9b6-3ea4-41f1-a6c8-c5d780535a28","system_id":"levelo_inurba_marseille","lat":43.29832,"lon":5.36373,"is_reserved":false,"is_disabled":false,"rental_uris":{"android":"levelo://app?vid=7f04b9b6-3ea4-41f1-a6c8-c5d780535a28","ios":"levelo://app?vid=7f04b9b6-3ea4-41f1-a6c8-c5d780535a28"},"vehicle_type_id":"4","last_reported":1722784101,"current_range_meters":800,"station_id":"","pricing_plan_id":"cebpf4jnsgd1na2vs0mg"},{"bike_id":"95605836-77bc-457b-82bb-309baa1d5098","system_id":"levelo_inurba_marseille","lat":43.311722,"lon":5.387247,"is_reserved":false,"is_disabled":false,"rental_uris":{"android":"levelo://app?vid=95605836-77bc-457b-82bb-309baa1d5098","ios":"levelo://app?vid=95605836-77bc-457b-82bb-309baa1d5098"},"vehicle_type_id":"4","last_reported":1722784101,"current_range_meters":31200,"station_id":"ce4bgv12rcd13ifvqcp0","pricing_plan_id":"cebpf4jnsgd1na2vs0mg"},{"bike_id":"47dca764-6a22-43f8-b723-1481383925ab","system_id":"levelo_inurba_marseille","lat":43.2968,"lon":5.37291,"is_reserved":false,"is_disabled":false,"rental_uris":{"android":"levelo://app?vid=47dca764-6a22-43f8-b723-1481383925ab","ios":"levelo://app?vid=47dca764-6a22-43f8-b723-1481383925ab"},"vehicle_type_id":"4","last_reported":1722784101,"current_range_meters":22800,"station_id":"ce4bgk12rcd13ifvqbj0","pricing_plan_id":"cebpf4jnsgd1na2vs0mg"},{"bike_id":"36152607-a55a-4f3f-ab84-b1ea01771e41","system_id":"levelo_inurba_marseille","lat":43.311722,"lon":5.387247,"is_reserved":false,"is_disabled":false,"rental_uris":{"android":"levelo://app?vid=36152607-a55a-4f3f-ab84-b1ea01771e41","ios":"levelo://app?vid=36152607-a55a-4f3f-ab84-b1ea01771e41"},"vehicle_type_id":"4","last_reported":1722784101,"current_range_meters":24000,"station_id":"ce4bgv12rcd13ifvqcp0","pricing_plan_id":"cebpf4jnsgd1na2vs0mg"},{"bike_id":"9911f61a-ab42-4aee-b1e6-fa3fb1a35e5c","system_id":"levelo_inurba_marseille","lat":43.311722,"lon":5.387247,"is_reserved":false,"is_disabled":false,"rental_uris":{"android":"levelo://app?vid=9911f61a-ab42-4aee-b1e6-fa3fb1a35e5c","ios":"levelo://app?vid=9911f61a-ab42-4aee-b1e6-fa3fb1a35e5c"},"vehicle_type_id":"4","last_reported":1722784101,"current_range_meters":11200,"station_id":"ce4bgv12rcd13ifvqcp0","pricing_plan_id":"cebpf4jnsgd1na2vs0mg"},{"bike_id":"16fe82b6-6136-4fe9-a46b-6da00ead3937","system_id":"levelo_inurba_marseille","lat":43.311722,"lon":5.387247,"is_reserved":false,"is_disabled":false,"rental_uris":{"android":"levelo://app?vid=16fe82b6-6136-4fe9-a46b-6da00ead3937","ios":"levelo://app?vid=16fe82b6-6136-4fe9-a46b-6da00ead3937"},"vehicle_type_id":"4","last_reported":1722784101,"current_range_meters":27200,"station_id":"ce4bgv12rcd13ifvqcp0","pricing_plan_id":"cebpf4jnsgd1na2vs0mg"},{"bike_id":"1a294f0f-ed1b-4466-9201-6229823600e5","system_id":"levelo_inurba_marseille","lat":43.32287,"lon":5.38269,"is_reserved":false,"is_disabled":false,"rental_uris":{"android":"levelo://app?vid=1a294f0f-ed1b-4466-9201-6229823600e5","ios":"levelo://app?vid=1a294f0f-ed1b-4466-9201-6229823600e5"},"vehicle_type_id":"4","last_reported":1722784101,"current_range_meters":30400,"station_id":"ce4bhr12rcd13ifvqhqg","pricing_plan_id":"cebpf4jnsgd1na2vs0mg"},{"bike_id":"cac5c10b-b5c8-4cd1-9b89-57594189f83e","system_id":"levelo_inurba_marseille","lat":43.322872,"lon":5.382756,"is_reserved":false,"is_disabled":false,"rental_uris":{"android":"levelo://app?vid=cac5c10b-b5c8-4cd1-9b89-57594189f83e","ios":"levelo://app?vid=cac5c10b-b5c8-4cd1-9b89-57594189f83e"},"vehicle_type_id":"4","last_reported":1722784101,"current_range_meters":31200,"station_id":"ce4bhr12rcd13ifvqhqg","pricing_plan_id":"cebpf4jnsgd1na2vs0mg"},{"bike_id":"efa213cf-4320-40ef-925f-9f34b8a9070d","system_id":"levelo_inurba_marseille","lat":43.322872,"lon":5.382756,"is_reserved":false,"is_disabled":false,"rental_uris":{"android":"levelo://app?vid=efa213cf-4320-40ef-925f-9f34b8a9070d","ios":"levelo://app?vid=efa213cf-4320-40ef-925f-9f34b8a9070d"},"vehicle_type_id":"4","last_reported":1722784101,"current_range_meters":1600,"station_id":"ce4bhr12rcd13ifvqhqg","pricing_plan_id":"cebpf4jnsgd1na2vs0mg"},{"bike_id":"6144130c-ab83-4bea-9558-5b06221a0df0","system_id":"levelo_inurba_marseille","lat":43.297774,"lon":5.370875,"is_reserved":false,"is_disabled":false,"rental_uris":{"android":"levelo://app?vid=6144130c-ab83-4bea-9558-5b06221a0df0","ios":"levelo://app?vid=6144130c-ab83-4bea-9558-5b06221a0df0"},"vehicle_type_id":"4","last_reported":1722784101,"current_range_meters":0,"station_id":"ce4bgop2rcd13ifvqc1g","pricing_plan_id":"cebpf4jnsgd1na2vs0mg"},{"bike_id":"48c55228-f66c-427f-bba4-1b823c2feca7","system_id":"levelo_inurba_marseille","lat":43.322872,"lon":5.382756,"is_reserved":false,"is_disabled":false,"rental_uris":{"android":"levelo://app?vid=48c55228-f66c-427f-bba4-1b823c2feca7","ios":"levelo://app?vid=48c55228-f66c-427f-bba4-1b823c2feca7"},"vehicle_type_id":"4","last_reported":1722784101,"current_range_meters":12000,"station_id":"ce4bhr12rcd13ifvqhqg","pricing_plan_id":"cebpf4jnsgd1na2vs0mg"},{"bike_id":"bbb5167f-7ad8-45ff-967e-d2013f1560e4","system_id":"levelo_inurba_marseille","lat":43.322883,"lon":5.382753,"is_reserved":false,"is_disabled":false,"rental_uris":{"android":"levelo://app?vid=bbb5167f-7ad8-45ff-967e-d2013f1560e4","ios":"levelo://app?vid=bbb5167f-7ad8-45ff-967e-d2013f1560e4"},"vehicle_type_id":"4","last_reported":1722784101,"current_range_meters":30800,"station_id":"ce4bhr12rcd13ifvqhqg","pricing_plan_id":"cebpf4jnsgd1na2vs0mg"},{"bike_id":"ca8a5bd0-77f7-42db-9849-8a963cccbc84","system_id":"levelo_inurba_marseille","lat":43.322872,"lon":5.382756,"is_reserved":false,"is_disabled":false,"rental_uris":{"android":"levelo://app?vid=ca8a5bd0-77f7-42db-9849-8a963cccbc84","ios":"levelo://app?vid=ca8a5bd0-77f7-42db-9849-8a963cccbc84"},"vehicle_type_id":"4","last_reported":1722784101,"current_range_meters":31600,"station_id":"ce4bhr12rcd13ifvqhqg","pricing_plan_id":"cebpf4jnsgd1na2vs0mg"},{"bike_id":"0001360a-7bc0-4a94-8c2e-c74f7a373328","system_id":"levelo_inurba_marseille","lat":43.322872,"lon":5.382756,"is_reserved":false,"is_disabled":false,"rental_uris":{"android":"levelo://app?vid=0001360a-7bc0-4a94-8c2e-c74f7a373328","ios":"levelo://app?vid=0001360a-7bc0-4a94-8c2e-c74f7a373328"},"vehicle_type_id":"4","last_reported":1722784101,"current_range_meters":13600,"station_id":"ce4bhr12rcd13ifvqhqg","pricing_plan_id":"cebpf4jnsgd1na2vs0mg"},{"bike_id":"c19f3126-217d-4c33-acdc-88d6f6cd9f69","system_id":"levelo_inurba_marseille","lat":43.322872,"lon":5.382756,"is_reserved":false,"is_disabled":false,"rental_uris":{"android":"levelo://app?vid=c19f3126-217d-4c33-acdc-88d6f6cd9f69","ios":"levelo://app?vid=c19f3126-217d-4c33-acdc-88d6f6cd9f69"},"vehicle_type_id":"4","last_reported":1722784101,"current_range_meters":31600,"station_id":"ce4bhr12rcd13ifvqhqg","pricing_plan_id":"cebpf4jnsgd1na2vs0mg"},{"bike_id":"765ea4cc-27f7-4528-9166-85aae9811bad","system_id":"levelo_inurba_marseille","lat":43.299028,"lon":5.381509,"is_reserved":false,"is_disabled":false,"rental_uris":{"android":"levelo://app?vid=765ea4cc-27f7-4528-9166-85aae9811bad","ios":"levelo://app?vid=765ea4cc-27f7-4528-9166-85aae9811bad"},"vehicle_type_id":"4","last_reported":1722784101,"current_range_meters":1600,"station_id":"ce4bgj12rcd13ifvqbc0","pricing_plan_id":"cebpf4jnsgd1na2vs0mg"},{"bike_id":"e40e96c2-022d-4eaa-b426-89f9292f99ac","system_id":"levelo_inurba_marseille","lat":43.309589,"lon":5.390258,"is_reserved":false,"is_disabled":false,"rental_uris":{"android":"levelo://app?vid=e40e96c2-022d-4eaa-b426-89f9292f99ac","ios":"levelo://app?vid=e40e96c2-022d-4eaa-b426-89f9292f99ac"},"vehicle_type_id":"4","last_reported":1722784101,"current_range_meters":16800,"station_id":"ce4bgup2rcd13ifvqco0","pricing_plan_id":"cebpf4jnsgd1na2vs0mg"},{"bike_id":"6721eb65-03e1-4d54-99e2-caa007ac94fe","system_id":"levelo_inurba_marseille","lat":43.317557,"lon":5.390173,"is_reserved":false,"is_disabled":false,"rental_uris":{"android":"levelo://app?vid=6721eb65-03e1-4d54-99e2-caa007ac94fe","ios":"levelo://app?vid=6721eb65-03e1-4d54-99e2-caa007ac94fe"},"vehicle_type_id":"4","last_reported":1722784101,"current_range_meters":16400,"station_id":"ce4bhqp2rcd13ifvqhng","pricing_plan_id":"cebpf4jnsgd1na2vs0mg"},{"bike_id":"50824df2-0f2b-476e-8bc5-dca65132150d","system_id":"levelo_inurba_marseille","lat":43.29581,"lon":5.37516,"is_reserved":false,"is_disabled":false,"rental_uris":{"android":"levelo://app?vid=50824df2-0f2b-476e-8bc5-dca65132150d","ios":"levelo://app?vid=50824df2-0f2b-476e-8bc5-dca65132150d"},"vehicle_type_id":"4","last_reported":1722784101,"current_range_meters":11600,"station_id":"ce4bgh92rcd13ifvqb50","pricing_plan_id":"cebpf4jnsgd1na2vs0mg"},{"bike_id":"4c80d29b-df6e-4c28-a0af-89519fecfae0","system_id":"levelo_inurba_marseille","lat":43.295748,"lon":5.37522,"is_reserved":false,"is_disabled":false,"rental_uris":{"android":"levelo://app?vid=4c80d29b-df6e-4c28-a0af-89519fecfae0","ios":"levelo://app?vid=4c80d29b-df6e-4c28-a0af-89519fecfae0"},"vehicle_type_id":"4","last_reported":1722784101,"current_range_meters":0,"station_id":"ce4bgh92rcd13ifvqb50","pricing_plan_id":"cebpf4jnsgd1na2vs0mg"},{"bike_id":"7f2c6965-a2e9-4c83-aed2-011b173519a1","system_id":"levelo_inurba_marseille","lat":43.31515,"lon":5.39203,"is_reserved":false,"is_disabled":false,"rental_uris":{"android":"levelo://app?vid=7f2c6965-a2e9-4c83-aed2-011b173519a1","ios":"levelo://app?vid=7f2c6965-a2e9-4c83-aed2-011b173519a1"},"vehicle_type_id":"4","last_reported":1722784101,"current_range_meters":30000,"station_id":"","pricing_plan_id":"cebpf4jnsgd1na2vs0mg"},{"bike_id":"79b8372d-7cff-46f3-bd61-0dce44bdaf0a","system_id":"levelo_inurba_marseille","lat":43.299717,"lon":5.384845,"is_reserved":false,"is_disabled":false,"rental_uris":{"android":"levelo://app?vid=79b8372d-7cff-46f3-bd61-0dce44bdaf0a","ios":"levelo://app?vid=79b8372d-7cff-46f3-bd61-0dce44bdaf0a"},"vehicle_type_id":"4","last_reported":1722784101,"current_range_meters":400,"station_id":"ce4bgj92rcd13ifvqbd0","pricing_plan_id":"cebpf4jnsgd1na2vs0mg"},{"bike_id":"00d46d32-054c-42cb-b4a3-27b0da08a934","system_id":"levelo_inurba_marseille","lat":43.324777,"lon":5.386115,"is_reserved":false,"is_disabled":false,"rental_uris":{"android":"levelo://app?vid=00d46d32-054c-42cb-b4a3-27b0da08a934","ios":"levelo://app?vid=00d46d32-054c-42cb-b4a3-27b0da08a934"},"vehicle_type_id":"4","last_reported":1722784101,"current_range_meters":2400,"station_id":"","pricing_plan_id":"cebpf4jnsgd1na2vs0mg"},{"bike_id":"b4b73852-b41d-439a-a06b-d8d8ccf504b9","system_id":"levelo_inurba_marseille","lat":43.31515,"lon":5.39209,"is_reserved":false,"is_disabled":false,"rental_uris":{"android":"levelo://app?vid=b4b73852-b41d-439a-a06b-d8d8ccf504b9","ios":"levelo://app?vid=b4b73852-b41d-439a-a06b-d8d8ccf504b9"},"vehicle_type_id":"4","last_reported":1722784101,"current_range_meters":24400,"station_id":"","pricing_plan_id":"cebpf4jnsgd1na2vs0mg"},{"bike_id":"18e0784a-edc3-42f5-ad15-5af4166ff224","system_id":"levelo_inurba_marseille","lat":43.299724,"lon":5.384848,"is_reserved":false,"is_disabled":false,"rental_uris":{"android":"levelo://app?vid=18e0784a-edc3-42f5-ad15-5af4166ff224","ios":"levelo://app?vid=18e0784a-edc3-42f5-ad15-5af4166ff224"},"vehicle_type_id":"4","last_reported":1722784101,"current_range_meters":2000,"station_id":"ce4bgj92rcd13ifvqbd0","pricing_plan_id":"cebpf4jnsgd1na2vs0mg"},{"bike_id":"185b9201-865e-4122-8229-e122f888de56","system_id":"levelo_inurba_marseille","lat":43.295279,"lon":5.375048,"is_reserved":false,"is_disabled":false,"rental_uris":{"android":"levelo://app?vid=185b9201-865e-4122-8229-e122f888de56","ios":"levelo://app?vid=185b9201-865e-4122-8229-e122f888de56"},"vehicle_type_id":"4","last_reported":1722784101,"current_range_meters":1600,"station_id":"ce4bgkp2rcd13ifvqbmg","pricing_plan_id":"cebpf4jnsgd1na2vs0mg"},{"bike_id":"86d01767-6e69-4de8-a4a7-2bd6ee0a4706","system_id":"levelo_inurba_marseille","lat":43.299724,"lon":5.384848,"is_reserved":false,"is_disabled":false,"rental_uris":{"android":"levelo://app?vid=86d01767-6e69-4de8-a4a7-2bd6ee0a4706","ios":"levelo://app?vid=86d01767-6e69-4de8-a4a7-2bd6ee0a4706"},"vehicle_type_id":"4","last_reported":1722784101,"current_range_meters":14400,"station_id":"ce4bgj92rcd13ifvqbd0","pricing_plan_id":"cebpf4jnsgd1na2vs0mg"},{"bike_id":"68d2cd00-b0e5-4d8f-a5dc-1ca0a005bdbb","system_id":"levelo_inurba_marseille","lat":43.32367,"lon":5.388836,"is_reserved":false,"is_disabled":false,"rental_uris":{"android":"levelo://app?vid=68d2cd00-b0e5-4d8f-a5dc-1ca0a005bdbb","ios":"levelo://app?vid=68d2cd00-b0e5-4d8f-a5dc-1ca0a005bdbb"},"vehicle_type_id":"4","last_reported":1722784101,"current_range_meters":23200,"station_id":"ce4bhqp2rcd13ifvqhog","pricing_plan_id":"cebpf4jnsgd1na2vs0mg"},{"bike_id":"1e5378b4-1307-406e-8628-635cf74e010e","system_id":"levelo_inurba_marseille","lat":43.32367,"lon":5.388836,"is_reserved":false,"is_disabled":false,"rental_uris":{"android":"levelo://app?vid=1e5378b4-1307-406e-8628-635cf74e010e","ios":"levelo://app?vid=1e5378b4-1307-406e-8628-635cf74e010e"},"vehicle_type_id":"4","last_reported":1722784101,"current_range_meters":15600,"station_id":"ce4bhqp2rcd13ifvqhog","pricing_plan_id":"cebpf4jnsgd1na2vs0mg"},{"bike_id":"7db8a5ac-9b81-44de-abd2-db99afac1cd2","system_id":"levelo_inurba_marseille","lat":43.32367,"lon":5.388836,"is_reserved":false,"is_disabled":false,"rental_uris":{"android":"levelo://app?vid=7db8a5ac-9b81-44de-abd2-db99afac1cd2","ios":"levelo://app?vid=7db8a5ac-9b81-44de-abd2-db99afac1cd2"},"vehicle_type_id":"4","last_reported":1722784101,"current_range_meters":6800,"station_id":"ce4bhqp2rcd13ifvqhog","pricing_plan_id":"cebpf4jnsgd1na2vs0mg"},{"bike_id":"9daa53ac-30b4-470b-9448-53d632d8d2e7","system_id":"levelo_inurba_marseille","lat":43.32367,"lon":5.388836,"is_reserved":false,"is_disabled":false,"rental_uris":{"android":"levelo://app?vid=9daa53ac-30b4-470b-9448-53d632d8d2e7","ios":"levelo://app?vid=9daa53ac-30b4-470b-9448-53d632d8d2e7"},"vehicle_type_id":"4","last_reported":1722784101,"current_range_meters":4000,"station_id":"ce4bhqp2rcd13ifvqhog","pricing_plan_id":"cebpf4jnsgd1na2vs0mg"},{"bike_id":"58f58b5c-0fe5-4a23-8f98-3dd76c7062aa","system_id":"levelo_inurba_marseille","lat":43.32367,"lon":5.388836,"is_reserved":false,"is_disabled":false,"rental_uris":{"android":"levelo://app?vid=58f58b5c-0fe5-4a23-8f98-3dd76c7062aa","ios":"levelo://app?vid=58f58b5c-0fe5-4a23-8f98-3dd76c7062aa"},"vehicle_type_id":"4","last_reported":1722784101,"current_range_meters":5200,"station_id":"ce4bhqp2rcd13ifvqhog","pricing_plan_id":"cebpf4jnsgd1na2vs0mg"},{"bike_id":"b2a1509f-4dcd-4a85-9d72-3bfc24ab48a9","system_id":"levelo_inurba_marseille","lat":43.29602,"lon":5.381084,"is_reserved":false,"is_disabled":false,"rental_uris":{"android":"levelo://app?vid=b2a1509f-4dcd-4a85-9d72-3bfc24ab48a9","ios":"levelo://app?vid=b2a1509f-4dcd-4a85-9d72-3bfc24ab48a9"},"vehicle_type_id":"4","last_reported":1722784101,"current_range_meters":0,"station_id":"ce4bgl12rcd13ifvqbo0","pricing_plan_id":"cebpf4jnsgd1na2vs0mg"},{"bike_id":"46af800e-d756-4f05-b4ac-3aa4399715f6","system_id":"levelo_inurba_marseille","lat":43.29602,"lon":5.381084,"is_reserved":false,"is_disabled":false,"rental_uris":{"android":"levelo://app?vid=46af800e-d756-4f05-b4ac-3aa4399715f6","ios":"levelo://app?vid=46af800e-d756-4f05-b4ac-3aa4399715f6"},"vehicle_type_id":"4","last_reported":1722784101,"current_range_meters":0,"station_id":"ce4bgl12rcd13ifvqbo0","pricing_plan_id":"cebpf4jnsgd1na2vs0mg"},{"bike_id":"e554a829-160c-48ee-99be-4a6892d60e69","system_id":"levelo_inurba_marseille","lat":43.292749,"lon":5.368398,"is_reserved":false,"is_disabled":false,"rental_uris":{"android":"levelo://app?vid=e554a829-160c-48ee-99be-4a6892d60e69","ios":"levelo://app?vid=e554a829-160c-48ee-99be-4a6892d60e69"},"vehicle_type_id":"4","last_reported":1722784101,"current_range_meters":30400,"station_id":"ce4bhbp2rcd13ifvqesg","pricing_plan_id":"cebpf4jnsgd1na2vs0mg"},{"bike_id":"a5702aff-2cfd-4a0f-81f5-4b0679979bea","system_id":"levelo_inurba_marseille","lat":43.29307,"lon":5.37172,"is_reserved":false,"is_disabled":false,"rental_uris":{"android":"levelo://app?vid=a5702aff-2cfd-4a0f-81f5-4b0679979bea","ios":"levelo://app?vid=a5702aff-2cfd-4a0f-81f5-4b0679979bea"},"vehicle_type_id":"4","last_reported":1722784101,"current_range_meters":0,"station_id":"ce4bgh92rcd13ifvqb40","pricing_plan_id":"cebpf4jnsgd1na2vs0mg"},{"bike_id":"9cc736b9-db31-4d20-94e7-e40cdaaba352","system_id":"levelo_inurba_marseille","lat":43.29277,"lon":5.36843,"is_reserved":false,"is_disabled":false,"rental_uris":{"android":"levelo://app?vid=9cc736b9-db31-4d20-94e7-e40cdaaba352","ios":"levelo://app?vid=9cc736b9-db31-4d20-94e7-e40cdaaba352"},"vehicle_type_id":"4","last_reported":1722784101,"current_range_meters":13200,"station_id":"ce4bhbp2rcd13ifvqesg","pricing_plan_id":"cebpf4jnsgd1na2vs0mg"},{"bike_id":"1f557585-024a-442e-8d1b-79a4d52df8f5","system_id":"levelo_inurba_marseille","lat":43.293259,"lon":5.371586,"is_reserved":false,"is_disabled":false,"rental_uris":{"android":"levelo://app?vid=1f557585-024a-442e-8d1b-79a4d52df8f5","ios":"levelo://app?vid=1f557585-024a-442e-8d1b-79a4d52df8f5"},"vehicle_type_id":"4","last_reported":1722784101,"current_range_meters":0,"station_id":"ce4bgh92rcd13ifvqb40","pricing_plan_id":"cebpf4jnsgd1na2vs0mg"},{"bike_id":"fa5a4d62-e3b6-4571-9373-91dedf13127a","system_id":"levelo_inurba_marseille","lat":43.30591,"lon":5.3935,"is_reserved":false,"is_disabled":false,"rental_uris":{"android":"levelo://app?vid=fa5a4d62-e3b6-4571-9373-91dedf13127a","ios":"levelo://app?vid=fa5a4d62-e3b6-4571-9373-91dedf13127a"},"vehicle_type_id":"4","last_reported":1722784101,"current_range_meters":0,"station_id":"ce4bgup2rcd13ifvqco0","pricing_plan_id":"cebpf4jnsgd1na2vs0mg"},{"bike_id":"f46a88c1-aa20-4b3d-83a5-fce2e6e6f2d2","system_id":"levelo_inurba_marseille","lat":43.293863,"lon":5.378513,"is_reserved":false,"is_disabled":false,"rental_uris":{"android":"levelo://app?vid=f46a88c1-aa20-4b3d-83a5-fce2e6e6f2d2","ios":"levelo://app?vid=f46a88c1-aa20-4b3d-83a5-fce2e6e6f2d2"},"vehicle_type_id":"4","last_reported":1722784101,"current_range_meters":0,"station_id":"ce4bgjh2rcd13ifvqbf0","pricing_plan_id":"cebpf4jnsgd1na2vs0mg"},{"bike_id":"c85a3b2a-aae2-480b-b9e5-cd23fe8dd47b","system_id":"levelo_inurba_marseille","lat":43.2936,"lon":5.37835,"is_reserved":false,"is_disabled":false,"rental_uris":{"android":"levelo://app?vid=c85a3b2a-aae2-480b-b9e5-cd23fe8dd47b","ios":"levelo://app?vid=c85a3b2a-aae2-480b-b9e5-cd23fe8dd47b"},"vehicle_type_id":"4","last_reported":1722784101,"current_range_meters":28000,"station_id":"ce4bgjh2rcd13ifvqbf0","pricing_plan_id":"cebpf4jnsgd1na2vs0mg"},{"bike_id":"c14853f6-62cb-480d-b261-fff69b01fcf9","system_id":"levelo_inurba_marseille","lat":43.30303,"lon":5.39207,"is_reserved":false,"is_disabled":false,"rental_uris":{"android":"levelo://app?vid=c14853f6-62cb-480d-b261-fff69b01fcf9","ios":"levelo://app?vid=c14853f6-62cb-480d-b261-fff69b01fcf9"},"vehicle_type_id":"4","last_reported":1722784101,"current_range_meters":0,"station_id":"ce4bgkh2rcd13ifvqbk0","pricing_plan_id":"cebpf4jnsgd1na2vs0mg"},{"bike_id":"999ae94b-75ff-4a21-8afe-059a024471ce","system_id":"levelo_inurba_marseille","lat":43.302992,"lon":5.392136,"is_reserved":false,"is_disabled":false,"rental_uris":{"android":"levelo://app?vid=999ae94b-75ff-4a21-8afe-059a024471ce","ios":"levelo://app?vid=999ae94b-75ff-4a21-8afe-059a024471ce"},"vehicle_type_id":"4","last_reported":1722784101,"current_range_meters":15600,"station_id":"ce4bgkh2rcd13ifvqbk0","pricing_plan_id":"cebpf4jnsgd1na2vs0mg"},{"bike_id":"1b257f9a-2c05-4772-8f05-baef129aa9b4","system_id":"levelo_inurba_marseille","lat":43.2936,"lon":5.37835,"is_reserved":false,"is_disabled":false,"rental_uris":{"android":"levelo://app?vid=1b257f9a-2c05-4772-8f05-baef129aa9b4","ios":"levelo://app?vid=1b257f9a-2c05-4772-8f05-baef129aa9b4"},"vehicle_type_id":"4","last_reported":1722784101,"current_range_meters":16400,"station_id":"ce4bgjh2rcd13ifvqbf0","pricing_plan_id":"cebpf4jnsgd1na2vs0mg"},{"bike_id":"fb2949f7-78f2-4630-9acf-81044afbdb04","system_id":"levelo_inurba_marseille","lat":43.292311,"lon":5.360731,"is_reserved":false,"is_disabled":false,"rental_uris":{"android":"levelo://app?vid=fb2949f7-78f2-4630-9acf-81044afbdb04","ios":"levelo://app?vid=fb2949f7-78f2-4630-9acf-81044afbdb04"},"vehicle_type_id":"4","last_reported":1722784101,"current_range_meters":1600,"station_id":"ce4bhbh2rcd13ifvqeqg","pricing_plan_id":"cebpf4jnsgd1na2vs0mg"},{"bike_id":"0215ddd3-7c22-43b1-a9a8-92079f9ce05b","system_id":"levelo_inurba_marseille","lat":43.30085,"lon":5.390856,"is_reserved":false,"is_disabled":false,"rental_uris":{"android":"levelo://app?vid=0215ddd3-7c22-43b1-a9a8-92079f9ce05b","ios":"levelo://app?vid=0215ddd3-7c22-43b1-a9a8-92079f9ce05b"},"vehicle_type_id":"4","last_reported":1722784101,"current_range_meters":6400,"station_id":"ce4bh192rcd13ifvqdb0","pricing_plan_id":"cebpf4jnsgd1na2vs0mg"},{"bike_id":"d8b889b6-7b21-4859-8c9e-acd473494079","system_id":"levelo_inurba_marseille","lat":43.291671,"lon":5.371575,"is_reserved":false,"is_disabled":false,"rental_uris":{"android":"levelo://app?vid=d8b889b6-7b21-4859-8c9e-acd473494079","ios":"levelo://app?vid=d8b889b6-7b21-4859-8c9e-acd473494079"},"vehicle_type_id":"4","last_reported":1722784101,"current_range_meters":400,"station_id":"ce4bha92rcd13ifvqeh0","pricing_plan_id":"cebpf4jnsgd1na2vs0mg"},{"bike_id":"f936464a-ce8b-4a00-a5f9-f8192dc31651","system_id":"levelo_inurba_marseille","lat":43.292005,"lon":5.357875,"is_reserved":false,"is_disabled":false,"rental_uris":{"android":"levelo://app?vid=f936464a-ce8b-4a00-a5f9-f8192dc31651","ios":"levelo://app?vid=f936464a-ce8b-4a00-a5f9-f8192dc31651"},"vehicle_type_id":"4","last_reported":1722784101,"current_range_meters":400,"station_id":"ce4bhb12rcd13ifvqel0","pricing_plan_id":"cebpf4jnsgd1na2vs0mg"},{"bike_id":"ea143515-3163-4170-8cf2-c1566ef613d5","system_id":"levelo_inurba_marseille","lat":43.291994,"lon":5.357886,"is_reserved":false,"is_disabled":false,"rental_uris":{"android":"levelo://app?vid=ea143515-3163-4170-8cf2-c1566ef613d5","ios":"levelo://app?vid=ea143515-3163-4170-8cf2-c1566ef613d5"},"vehicle_type_id":"4","last_reported":1722784101,"current_range_meters":0,"station_id":"ce4bhb12rcd13ifvqel0","pricing_plan_id":"cebpf4jnsgd1na2vs0mg"},{"bike_id":"a44f8049-ca4c-45aa-b6bf-3c674feb5a8d","system_id":"levelo_inurba_marseille","lat":43.313291,"lon":5.396838,"is_reserved":false,"is_disabled":false,"rental_uris":{"android":"levelo://app?vid=a44f8049-ca4c-45aa-b6bf-3c674feb5a8d","ios":"levelo://app?vid=a44f8049-ca4c-45aa-b6bf-3c674feb5a8d"},"vehicle_type_id":"4","last_reported":1722784101,"current_range_meters":0,"station_id":"ce4bgvp2rcd13ifvqcu0","pricing_plan_id":"cebpf4jnsgd1na2vs0mg"},{"bike_id":"c0644bcb-9d8f-405d-9f1b-eceeb0b3a196","system_id":"levelo_inurba_marseille","lat":43.29532,"lon":5.38546,"is_reserved":false,"is_disabled":false,"rental_uris":{"android":"levelo://app?vid=c0644bcb-9d8f-405d-9f1b-eceeb0b3a196","ios":"levelo://app?vid=c0644bcb-9d8f-405d-9f1b-eceeb0b3a196"},"vehicle_type_id":"4","last_reported":1722784101,"current_range_meters":15600,"station_id":"ce4bgih2rcd13ifvqba0","pricing_plan_id":"cebpf4jnsgd1na2vs0mg"},{"bike_id":"43e2b5e5-cc91-4d4c-b64c-1fea65f5e1cb","system_id":"levelo_inurba_marseille","lat":43.2953,"lon":5.38546,"is_reserved":false,"is_disabled":false,"rental_uris":{"android":"levelo://app?vid=43e2b5e5-cc91-4d4c-b64c-1fea65f5e1cb","ios":"levelo://app?vid=43e2b5e5-cc91-4d4c-b64c-1fea65f5e1cb"},"vehicle_type_id":"4","last_reported":1722784101,"current_range_meters":8000,"station_id":"ce4bgih2rcd13ifvqba0","pricing_plan_id":"cebpf4jnsgd1na2vs0mg"},{"bike_id":"70184a2b-2b32-46a3-bc52-3aeae7577e5d","system_id":"levelo_inurba_marseille","lat":43.29532,"lon":5.38552,"is_reserved":false,"is_disabled":false,"rental_uris":{"android":"levelo://app?vid=70184a2b-2b32-46a3-bc52-3aeae7577e5d","ios":"levelo://app?vid=70184a2b-2b32-46a3-bc52-3aeae7577e5d"},"vehicle_type_id":"4","last_reported":1722784101,"current_range_meters":4000,"station_id":"ce4bgih2rcd13ifvqba0","pricing_plan_id":"cebpf4jnsgd1na2vs0mg"},{"bike_id":"358ba93b-beba-4c81-8dc4-f31007a12d08","system_id":"levelo_inurba_marseille","lat":43.29529,"lon":5.385581,"is_reserved":false,"is_disabled":false,"rental_uris":{"android":"levelo://app?vid=358ba93b-beba-4c81-8dc4-f31007a12d08","ios":"levelo://app?vid=358ba93b-beba-4c81-8dc4-f31007a12d08"},"vehicle_type_id":"4","last_reported":1722784101,"current_range_meters":7600,"station_id":"ce4bgih2rcd13ifvqba0","pricing_plan_id":"cebpf4jnsgd1na2vs0mg"},{"bike_id":"11726305-b932-474b-83e5-f45024fa2c94","system_id":"levelo_inurba_marseille","lat":43.29529,"lon":5.385581,"is_reserved":false,"is_disabled":false,"rental_uris":{"android":"levelo://app?vid=11726305-b932-474b-83e5-f45024fa2c94","ios":"levelo://app?vid=11726305-b932-474b-83e5-f45024fa2c94"},"vehicle_type_id":"4","last_reported":1722784101,"current_range_meters":5200,"station_id":"ce4bgih2rcd13ifvqba0","pricing_plan_id":"cebpf4jnsgd1na2vs0mg"},{"bike_id":"ba4fd858-cfa4-4861-9e13-25790762c3c6","system_id":"levelo_inurba_marseille","lat":43.290779,"lon":5.371482,"is_reserved":false,"is_disabled":false,"rental_uris":{"android":"levelo://app?vid=ba4fd858-cfa4-4861-9e13-25790762c3c6","ios":"levelo://app?vid=ba4fd858-cfa4-4861-9e13-25790762c3c6"},"vehicle_type_id":"4","last_reported":1722784101,"current_range_meters":6000,"station_id":"ce4bh5p2rcd13ifvqe4g","pricing_plan_id":"cebpf4jnsgd1na2vs0mg"},{"bike_id":"697c84b3-8e75-4fdf-93cd-188270a6907e","system_id":"levelo_inurba_marseille","lat":43.290779,"lon":5.371482,"is_reserved":false,"is_disabled":false,"rental_uris":{"android":"levelo://app?vid=697c84b3-8e75-4fdf-93cd-188270a6907e","ios":"levelo://app?vid=697c84b3-8e75-4fdf-93cd-188270a6907e"},"vehicle_type_id":"4","last_reported":1722784101,"current_range_meters":0,"station_id":"ce4bh5p2rcd13ifvqe4g","pricing_plan_id":"cebpf4jnsgd1na2vs0mg"},{"bike_id":"78a1c1e1-0eca-4949-a1fe-ff956b56d5a5","system_id":"levelo_inurba_marseille","lat":43.290624,"lon":5.359245,"is_reserved":false,"is_disabled":false,"rental_uris":{"android":"levelo://app?vid=78a1c1e1-0eca-4949-a1fe-ff956b56d5a5","ios":"levelo://app?vid=78a1c1e1-0eca-4949-a1fe-ff956b56d5a5"},"vehicle_type_id":"4","last_reported":1722784101,"current_range_meters":19600,"station_id":"ce4bha92rcd13ifvqeg0","pricing_plan_id":"cebpf4jnsgd1na2vs0mg"},{"bike_id":"bde1c9ed-5375-4221-a4e6-d40df4abde9b","system_id":"levelo_inurba_marseille","lat":43.290103,"lon":5.356114,"is_reserved":false,"is_disabled":false,"rental_uris":{"android":"levelo://app?vid=bde1c9ed-5375-4221-a4e6-d40df4abde9b","ios":"levelo://app?vid=bde1c9ed-5375-4221-a4e6-d40df4abde9b"},"vehicle_type_id":"4","last_reported":1722784101,"current_range_meters":13200,"station_id":"ce4bhb92rcd13ifvqen0","pricing_plan_id":"cebpf4jnsgd1na2vs0mg"},{"bike_id":"bc64fc66-f8cf-4342-8599-b11666c42e24","system_id":"levelo_inurba_marseille","lat":43.302008,"lon":5.394694,"is_reserved":false,"is_disabled":false,"rental_uris":{"android":"levelo://app?vid=bc64fc66-f8cf-4342-8599-b11666c42e24","ios":"levelo://app?vid=bc64fc66-f8cf-4342-8599-b11666c42e24"},"vehicle_type_id":"4","last_reported":1722784101,"current_range_meters":0,"station_id":"ce4bh0p2rcd13ifvqd70","pricing_plan_id":"cebpf4jnsgd1na2vs0mg"},{"bike_id":"360c2b12-0660-42d4-854b-0b22ab8ef904","system_id":"levelo_inurba_marseille","lat":43.289468,"lon":5.363719,"is_reserved":false,"is_disabled":false,"rental_uris":{"android":"levelo://app?vid=360c2b12-0660-42d4-854b-0b22ab8ef904","ios":"levelo://app?vid=360c2b12-0660-42d4-854b-0b22ab8ef904"},"vehicle_type_id":"4","last_reported":1722784101,"current_range_meters":400,"station_id":"ce4bhc92rcd13ifvqetg","pricing_plan_id":"cebpf4jnsgd1na2vs0mg"},{"bike_id":"95408480-8f44-48d7-b0e0-3f1497f98e16","system_id":"levelo_inurba_marseille","lat":43.289468,"lon":5.363719,"is_reserved":false,"is_disabled":false,"rental_uris":{"android":"levelo://app?vid=95408480-8f44-48d7-b0e0-3f1497f98e16","ios":"levelo://app?vid=95408480-8f44-48d7-b0e0-3f1497f98e16"},"vehicle_type_id":"4","last_reported":1722784101,"current_range_meters":1200,"station_id":"ce4bhc92rcd13ifvqetg","pricing_plan_id":"cebpf4jnsgd1na2vs0mg"},{"bike_id":"a33d051f-4897-4c92-9606-2cfc821aa138","system_id":"levelo_inurba_marseille","lat":43.289184,"lon":5.366408,"is_reserved":false,"is_disabled":false,"rental_uris":{"android":"levelo://app?vid=a33d051f-4897-4c92-9606-2cfc821aa138","ios":"levelo://app?vid=a33d051f-4897-4c92-9606-2cfc821aa138"},"vehicle_type_id":"4","last_reported":1722784101,"current_range_meters":4400,"station_id":"ce4bhap2rcd13ifvqek0","pricing_plan_id":"cebpf4jnsgd1na2vs0mg"},{"bike_id":"d09bd602-fce1-4c24-a0c2-daf5a615e22c","system_id":"levelo_inurba_marseille","lat":43.289184,"lon":5.366408,"is_reserved":false,"is_disabled":false,"rental_uris":{"android":"levelo://app?vid=d09bd602-fce1-4c24-a0c2-daf5a615e22c","ios":"levelo://app?vid=d09bd602-fce1-4c24-a0c2-daf5a615e22c"},"vehicle_type_id":"4","last_reported":1722784101,"current_range_meters":2800,"station_id":"ce4bhap2rcd13ifvqek0","pricing_plan_id":"cebpf4jnsgd1na2vs0mg"},{"bike_id":"ff6c85e9-ddbb-42e9-8960-b60e7ae72605","system_id":"levelo_inurba_marseille","lat":43.290104,"lon":5.356111,"is_reserved":false,"is_disabled":false,"rental_uris":{"android":"levelo://app?vid=ff6c85e9-ddbb-42e9-8960-b60e7ae72605","ios":"levelo://app?vid=ff6c85e9-ddbb-42e9-8960-b60e7ae72605"},"vehicle_type_id":"4","last_reported":1722784101,"current_range_meters":0,"station_id":"ce4bhb92rcd13ifvqen0","pricing_plan_id":"cebpf4jnsgd1na2vs0mg"},{"bike_id":"9ae1fffc-4e0a-47f5-a3a3-27f534812813","system_id":"levelo_inurba_marseille","lat":43.290104,"lon":5.356111,"is_reserved":false,"is_disabled":false,"rental_uris":{"android":"levelo://app?vid=9ae1fffc-4e0a-47f5-a3a3-27f534812813","ios":"levelo://app?vid=9ae1fffc-4e0a-47f5-a3a3-27f534812813"},"vehicle_type_id":"4","last_reported":1722784101,"current_range_meters":0,"station_id":"ce4bhb92rcd13ifvqen0","pricing_plan_id":"cebpf4jnsgd1na2vs0mg"},{"bike_id":"ddca922b-8090-4474-ac0f-e4353b4406ef","system_id":"levelo_inurba_marseille","lat":43.290104,"lon":5.356111,"is_reserved":false,"is_disabled":false,"rental_uris":{"android":"levelo://app?vid=ddca922b-8090-4474-ac0f-e4353b4406ef","ios":"levelo://app?vid=ddca922b-8090-4474-ac0f-e4353b4406ef"},"vehicle_type_id":"4","last_reported":1722784101,"current_range_meters":19600,"station_id":"ce4bhb92rcd13ifvqen0","pricing_plan_id":"cebpf4jnsgd1na2vs0mg"},{"bike_id":"84d41c81-5fb6-4ac5-bc05-212661361854","system_id":"levelo_inurba_marseille","lat":43.290103,"lon":5.356114,"is_reserved":false,"is_disabled":false,"rental_uris":{"android":"levelo://app?vid=84d41c81-5fb6-4ac5-bc05-212661361854","ios":"levelo://app?vid=84d41c81-5fb6-4ac5-bc05-212661361854"},"vehicle_type_id":"4","last_reported":1722784101,"current_range_meters":26400,"station_id":"ce4bhb92rcd13ifvqen0","pricing_plan_id":"cebpf4jnsgd1na2vs0mg"},{"bike_id":"9863f969-d82d-4817-a481-877043bfdc45","system_id":"levelo_inurba_marseille","lat":43.29005,"lon":5.35606,"is_reserved":false,"is_disabled":false,"rental_uris":{"android":"levelo://app?vid=9863f969-d82d-4817-a481-877043bfdc45","ios":"levelo://app?vid=9863f969-d82d-4817-a481-877043bfdc45"},"vehicle_type_id":"4","last_reported":1722784101,"current_range_meters":0,"station_id":"ce4bhb92rcd13ifvqen0","pricing_plan_id":"cebpf4jnsgd1na2vs0mg"},{"bike_id":"22a0484c-2f15-4146-b16c-89bd17d4935a","system_id":"levelo_inurba_marseille","lat":43.29014,"lon":5.35521,"is_reserved":false,"is_disabled":false,"rental_uris":{"android":"levelo://app?vid=22a0484c-2f15-4146-b16c-89bd17d4935a","ios":"levelo://app?vid=22a0484c-2f15-4146-b16c-89bd17d4935a"},"vehicle_type_id":"4","last_reported":1722784101,"current_range_meters":16800,"station_id":"","pricing_plan_id":"cebpf4jnsgd1na2vs0mg"},{"bike_id":"c7928468-4c12-4007-b46a-311a68a969a9","system_id":"levelo_inurba_marseille","lat":43.297807,"lon":5.393533,"is_reserved":false,"is_disabled":false,"rental_uris":{"android":"levelo://app?vid=c7928468-4c12-4007-b46a-311a68a969a9","ios":"levelo://app?vid=c7928468-4c12-4007-b46a-311a68a969a9"},"vehicle_type_id":"4","last_reported":1722784101,"current_range_meters":2000,"station_id":"chh1huq6cuj3fo74tm60","pricing_plan_id":"cebpf4jnsgd1na2vs0mg"},{"bike_id":"82825563-65f2-4faf-9820-f9c697e1c7c8","system_id":"levelo_inurba_marseille","lat":43.297807,"lon":5.393533,"is_reserved":false,"is_disabled":false,"rental_uris":{"android":"levelo://app?vid=82825563-65f2-4faf-9820-f9c697e1c7c8","ios":"levelo://app?vid=82825563-65f2-4faf-9820-f9c697e1c7c8"},"vehicle_type_id":"4","last_reported":1722784101,"current_range_meters":4000,"station_id":"chh1huq6cuj3fo74tm60","pricing_plan_id":"cebpf4jnsgd1na2vs0mg"},{"bike_id":"a4cdca4e-ec57-451c-a5ec-9d58f7a9b298","system_id":"levelo_inurba_marseille","lat":43.289741,"lon":5.378306,"is_reserved":false,"is_disabled":false,"rental_uris":{"android":"levelo://app?vid=a4cdca4e-ec57-451c-a5ec-9d58f7a9b298","ios":"levelo://app?vid=a4cdca4e-ec57-451c-a5ec-9d58f7a9b298"},"vehicle_type_id":"4","last_reported":1722784101,"current_range_meters":20800,"station_id":"ce4bh9p2rcd13ifvqed0","pricing_plan_id":"cebpf4jnsgd1na2vs0mg"},{"bike_id":"5354c2c3-78b1-4b29-acf1-85848b84b1dd","system_id":"levelo_inurba_marseille","lat":43.330248,"lon":5.390316,"is_reserved":false,"is_disabled":false,"rental_uris":{"android":"levelo://app?vid=5354c2c3-78b1-4b29-acf1-85848b84b1dd","ios":"levelo://app?vid=5354c2c3-78b1-4b29-acf1-85848b84b1dd"},"vehicle_type_id":"4","last_reported":1722784101,"current_range_meters":12800,"station_id":"ce4bhr92rcd13ifvqhrg","pricing_plan_id":"cebpf4jnsgd1na2vs0mg"},{"bike_id":"a9ef8987-6e77-44f1-9419-2a4fb00a24eb","system_id":"levelo_inurba_marseille","lat":43.295169,"lon":5.390426,"is_reserved":false,"is_disabled":false,"rental_uris":{"android":"levelo://app?vid=a9ef8987-6e77-44f1-9419-2a4fb00a24eb","ios":"levelo://app?vid=a9ef8987-6e77-44f1-9419-2a4fb00a24eb"},"vehicle_type_id":"4","last_reported":1722784101,"current_range_meters":0,"station_id":"ce4bh3p2rcd13ifvqdp0","pricing_plan_id":"cebpf4jnsgd1na2vs0mg"},{"bike_id":"ce577744-4304-4dbe-b046-91c2d7cedc13","system_id":"levelo_inurba_marseille","lat":43.330442,"lon":5.389148,"is_reserved":false,"is_disabled":false,"rental_uris":{"android":"levelo://app?vid=ce577744-4304-4dbe-b046-91c2d7cedc13","ios":"levelo://app?vid=ce577744-4304-4dbe-b046-91c2d7cedc13"},"vehicle_type_id":"4","last_reported":1722784101,"current_range_meters":10800,"station_id":"ce4bhr92rcd13ifvqhrg","pricing_plan_id":"cebpf4jnsgd1na2vs0mg"},{"bike_id":"8701a7a3-90aa-405d-a88f-714add82bc0c","system_id":"levelo_inurba_marseille","lat":43.33027,"lon":5.39039,"is_reserved":false,"is_disabled":false,"rental_uris":{"android":"levelo://app?vid=8701a7a3-90aa-405d-a88f-714add82bc0c","ios":"levelo://app?vid=8701a7a3-90aa-405d-a88f-714add82bc0c"},"vehicle_type_id":"4","last_reported":1722784101,"current_range_meters":4800,"station_id":"ce4bhr92rcd13ifvqhrg","pricing_plan_id":"cebpf4jnsgd1na2vs0mg"},{"bike_id":"34f23af0-28c8-4e6a-b29f-f6b1ce76c98b","system_id":"levelo_inurba_marseille","lat":43.330442,"lon":5.389148,"is_reserved":false,"is_disabled":false,"rental_uris":{"android":"levelo://app?vid=34f23af0-28c8-4e6a-b29f-f6b1ce76c98b","ios":"levelo://app?vid=34f23af0-28c8-4e6a-b29f-f6b1ce76c98b"},"vehicle_type_id":"4","last_reported":1722784101,"current_range_meters":19600,"station_id":"ce4bhr92rcd13ifvqhrg","pricing_plan_id":"cebpf4jnsgd1na2vs0mg"},{"bike_id":"47b56111-9174-4eb6-9e94-0aa7b6a21312","system_id":"levelo_inurba_marseille","lat":43.330442,"lon":5.389148,"is_reserved":false,"is_disabled":false,"rental_uris":{"android":"levelo://app?vid=47b56111-9174-4eb6-9e94-0aa7b6a21312","ios":"levelo://app?vid=47b56111-9174-4eb6-9e94-0aa7b6a21312"},"vehicle_type_id":"4","last_reported":1722784101,"current_range_meters":31200,"station_id":"ce4bhr92rcd13ifvqhrg","pricing_plan_id":"cebpf4jnsgd1na2vs0mg"},{"bike_id":"42e6ec2f-67b9-4901-bfa0-f4213229333a","system_id":"levelo_inurba_marseille","lat":43.330442,"lon":5.389148,"is_reserved":false,"is_disabled":false,"rental_uris":{"android":"levelo://app?vid=42e6ec2f-67b9-4901-bfa0-f4213229333a","ios":"levelo://app?vid=42e6ec2f-67b9-4901-bfa0-f4213229333a"},"vehicle_type_id":"4","last_reported":1722784101,"current_range_meters":28400,"station_id":"ce4bhr92rcd13ifvqhrg","pricing_plan_id":"cebpf4jnsgd1na2vs0mg"},{"bike_id":"3919e9af-d7b9-4a2d-8765-5d9da2ada75c","system_id":"levelo_inurba_marseille","lat":43.2901,"lon":5.381269,"is_reserved":false,"is_disabled":false,"rental_uris":{"android":"levelo://app?vid=3919e9af-d7b9-4a2d-8765-5d9da2ada75c","ios":"levelo://app?vid=3919e9af-d7b9-4a2d-8765-5d9da2ada75c"},"vehicle_type_id":"4","last_reported":1722784101,"current_range_meters":2000,"station_id":"ce4bh4p2rcd13ifvqe1g","pricing_plan_id":"cebpf4jnsgd1na2vs0mg"},{"bike_id":"4cc6fece-7fe0-481f-a40a-942852f3197c","system_id":"levelo_inurba_marseille","lat":43.29023,"lon":5.38136,"is_reserved":false,"is_disabled":false,"rental_uris":{"android":"levelo://app?vid=4cc6fece-7fe0-481f-a40a-942852f3197c","ios":"levelo://app?vid=4cc6fece-7fe0-481f-a40a-942852f3197c"},"vehicle_type_id":"4","last_reported":1722784101,"current_range_meters":0,"station_id":"ce4bh4p2rcd13ifvqe1g","pricing_plan_id":"cebpf4jnsgd1na2vs0mg"},{"bike_id":"f4cdf6f8-59cc-4926-bbd3-bf830cd7e7b6","system_id":"levelo_inurba_marseille","lat":43.290094,"lon":5.381264,"is_reserved":false,"is_disabled":false,"rental_uris":{"android":"levelo://app?vid=f4cdf6f8-59cc-4926-bbd3-bf830cd7e7b6","ios":"levelo://app?vid=f4cdf6f8-59cc-4926-bbd3-bf830cd7e7b6"},"vehicle_type_id":"4","last_reported":1722784101,"current_range_meters":28000,"station_id":"ce4bh4p2rcd13ifvqe1g","pricing_plan_id":"cebpf4jnsgd1na2vs0mg"},{"bike_id":"f6a2c49c-a991-458c-a42b-ab201115c0f0","system_id":"levelo_inurba_marseille","lat":43.28856,"lon":5.358371,"is_reserved":false,"is_disabled":false,"rental_uris":{"android":"levelo://app?vid=f6a2c49c-a991-458c-a42b-ab201115c0f0","ios":"levelo://app?vid=f6a2c49c-a991-458c-a42b-ab201115c0f0"},"vehicle_type_id":"4","last_reported":1722784101,"current_range_meters":15600,"station_id":"ce4bhb12rcd13ifvqem0","pricing_plan_id":"cebpf4jnsgd1na2vs0mg"},{"bike_id":"989185db-c0b7-4348-ac4c-373ebb395930","system_id":"levelo_inurba_marseille","lat":43.28856,"lon":5.358371,"is_reserved":false,"is_disabled":false,"rental_uris":{"android":"levelo://app?vid=989185db-c0b7-4348-ac4c-373ebb395930","ios":"levelo://app?vid=989185db-c0b7-4348-ac4c-373ebb395930"},"vehicle_type_id":"4","last_reported":1722784101,"current_range_meters":15200,"station_id":"ce4bhb12rcd13ifvqem0","pricing_plan_id":"cebpf4jnsgd1na2vs0mg"},{"bike_id":"23c5b3b4-fc18-4d35-836b-32ad40b6f9fe","system_id":"levelo_inurba_marseille","lat":43.3309,"lon":5.3907,"is_reserved":false,"is_disabled":false,"rental_uris":{"android":"levelo://app?vid=23c5b3b4-fc18-4d35-836b-32ad40b6f9fe","ios":"levelo://app?vid=23c5b3b4-fc18-4d35-836b-32ad40b6f9fe"},"vehicle_type_id":"4","last_reported":1722784101,"current_range_meters":14400,"station_id":"","pricing_plan_id":"cebpf4jnsgd1na2vs0mg"},{"bike_id":"0bec3ca4-cf84-4cbc-ae26-e11099a5b7e5","system_id":"levelo_inurba_marseille","lat":43.28856,"lon":5.358371,"is_reserved":false,"is_disabled":false,"rental_uris":{"android":"levelo://app?vid=0bec3ca4-cf84-4cbc-ae26-e11099a5b7e5","ios":"levelo://app?vid=0bec3ca4-cf84-4cbc-ae26-e11099a5b7e5"},"vehicle_type_id":"4","last_reported":1722784101,"current_range_meters":2400,"station_id":"ce4bhb12rcd13ifvqem0","pricing_plan_id":"cebpf4jnsgd1na2vs0mg"},{"bike_id":"2807ea1d-239f-47ac-b4f9-ed11fcd8eb81","system_id":"levelo_inurba_marseille","lat":43.30927,"lon":5.40135,"is_reserved":false,"is_disabled":false,"rental_uris":{"android":"levelo://app?vid=2807ea1d-239f-47ac-b4f9-ed11fcd8eb81","ios":"levelo://app?vid=2807ea1d-239f-47ac-b4f9-ed11fcd8eb81"},"vehicle_type_id":"4","last_reported":1722784101,"current_range_meters":31200,"station_id":"ce4bgvp2rcd13ifvqct0","pricing_plan_id":"cebpf4jnsgd1na2vs0mg"},{"bike_id":"700807fe-568c-48e3-b05b-bcf0bf508992","system_id":"levelo_inurba_marseille","lat":43.312609,"lon":5.401662,"is_reserved":false,"is_disabled":false,"rental_uris":{"android":"levelo://app?vid=700807fe-568c-48e3-b05b-bcf0bf508992","ios":"levelo://app?vid=700807fe-568c-48e3-b05b-bcf0bf508992"},"vehicle_type_id":"4","last_reported":1722784101,"current_range_meters":3200,"station_id":"ce4bh092rcd13ifvqd30","pricing_plan_id":"cebpf4jnsgd1na2vs0mg"},{"bike_id":"26f31f06-cca7-478d-8b48-87364cadb9a4","system_id":"levelo_inurba_marseille","lat":43.30928,"lon":5.40137,"is_reserved":false,"is_disabled":false,"rental_uris":{"android":"levelo://app?vid=26f31f06-cca7-478d-8b48-87364cadb9a4","ios":"levelo://app?vid=26f31f06-cca7-478d-8b48-87364cadb9a4"},"vehicle_type_id":"4","last_reported":1722784101,"current_range_meters":21200,"station_id":"ce4bgvp2rcd13ifvqct0","pricing_plan_id":"cebpf4jnsgd1na2vs0mg"},{"bike_id":"6f044633-3688-4e83-af67-cf3db97c1cc7","system_id":"levelo_inurba_marseille","lat":43.337444,"lon":5.374475,"is_reserved":false,"is_disabled":false,"rental_uris":{"android":"levelo://app?vid=6f044633-3688-4e83-af67-cf3db97c1cc7","ios":"levelo://app?vid=6f044633-3688-4e83-af67-cf3db97c1cc7"},"vehicle_type_id":"3","last_reported":1722784101,"current_range_meters":24800,"station_id":"","pricing_plan_id":"cebpf4jnsgd1na2vs0mg"},{"bike_id":"3b14091f-b841-4889-891b-e75e3cbc8eb4","system_id":"levelo_inurba_marseille","lat":43.309371,"lon":5.401449,"is_reserved":false,"is_disabled":false,"rental_uris":{"android":"levelo://app?vid=3b14091f-b841-4889-891b-e75e3cbc8eb4","ios":"levelo://app?vid=3b14091f-b841-4889-891b-e75e3cbc8eb4"},"vehicle_type_id":"4","last_reported":1722784101,"current_range_meters":31200,"station_id":"ce4bgvp2rcd13ifvqct0","pricing_plan_id":"cebpf4jnsgd1na2vs0mg"},{"bike_id":"f30037d3-be71-4395-9f96-a5ef39e10609","system_id":"levelo_inurba_marseille","lat":43.30654,"lon":5.40073,"is_reserved":false,"is_disabled":false,"rental_uris":{"android":"levelo://app?vid=f30037d3-be71-4395-9f96-a5ef39e10609","ios":"levelo://app?vid=f30037d3-be71-4395-9f96-a5ef39e10609"},"vehicle_type_id":"4","last_reported":1722784101,"current_range_meters":7600,"station_id":"ce4bh112rcd13ifvqda0","pricing_plan_id":"cebpf4jnsgd1na2vs0mg"},{"bike_id":"711bbdb7-4aae-43f7-98bc-a00f02c02487","system_id":"levelo_inurba_marseille","lat":43.33752,"lon":5.37467,"is_reserved":false,"is_disabled":false,"rental_uris":{"android":"levelo://app?vid=711bbdb7-4aae-43f7-98bc-a00f02c02487","ios":"levelo://app?vid=711bbdb7-4aae-43f7-98bc-a00f02c02487"},"vehicle_type_id":"4","last_reported":1722784101,"current_range_meters":20000,"station_id":"","pricing_plan_id":"cebpf4jnsgd1na2vs0mg"},{"bike_id":"1c01f382-24ca-44ff-bb4f-eef4c9ffdcf4","system_id":"levelo_inurba_marseille","lat":43.30649,"lon":5.4008,"is_reserved":false,"is_disabled":false,"rental_uris":{"android":"levelo://app?vid=1c01f382-24ca-44ff-bb4f-eef4c9ffdcf4","ios":"levelo://app?vid=1c01f382-24ca-44ff-bb4f-eef4c9ffdcf4"},"vehicle_type_id":"4","last_reported":1722784101,"current_range_meters":31200,"station_id":"ce4bh112rcd13ifvqda0","pricing_plan_id":"cebpf4jnsgd1na2vs0mg"},{"bike_id":"e6bcd772-71bd-486d-b3ee-6ed4847ed98d","system_id":"levelo_inurba_marseille","lat":43.301117,"lon":5.398795,"is_reserved":false,"is_disabled":false,"rental_uris":{"android":"levelo://app?vid=e6bcd772-71bd-486d-b3ee-6ed4847ed98d","ios":"levelo://app?vid=e6bcd772-71bd-486d-b3ee-6ed4847ed98d"},"vehicle_type_id":"4","last_reported":1722784101,"current_range_meters":7200,"station_id":"ce4bh0h2rcd13ifvqd40","pricing_plan_id":"cebpf4jnsgd1na2vs0mg"},{"bike_id":"fe41bbf1-53a8-4903-8a48-eaa539bb1e76","system_id":"levelo_inurba_marseille","lat":43.3377,"lon":5.3745,"is_reserved":false,"is_disabled":false,"rental_uris":{"android":"levelo://app?vid=fe41bbf1-53a8-4903-8a48-eaa539bb1e76","ios":"levelo://app?vid=fe41bbf1-53a8-4903-8a48-eaa539bb1e76"},"vehicle_type_id":"4","last_reported":1722784101,"current_range_meters":0,"station_id":"","pricing_plan_id":"cebpf4jnsgd1na2vs0mg"},{"bike_id":"fea942b6-5a1d-4002-86fe-3679b74a009b","system_id":"levelo_inurba_marseille","lat":43.306412,"lon":5.401035,"is_reserved":false,"is_disabled":false,"rental_uris":{"android":"levelo://app?vid=fea942b6-5a1d-4002-86fe-3679b74a009b","ios":"levelo://app?vid=fea942b6-5a1d-4002-86fe-3679b74a009b"},"vehicle_type_id":"4","last_reported":1722784101,"current_range_meters":6800,"station_id":"ce4bh112rcd13ifvqda0","pricing_plan_id":"cebpf4jnsgd1na2vs0mg"},{"bike_id":"0c4620c3-aa6e-4d22-99aa-394224394d77","system_id":"levelo_inurba_marseille","lat":43.301117,"lon":5.398795,"is_reserved":false,"is_disabled":false,"rental_uris":{"android":"levelo://app?vid=0c4620c3-aa6e-4d22-99aa-394224394d77","ios":"levelo://app?vid=0c4620c3-aa6e-4d22-99aa-394224394d77"},"vehicle_type_id":"4","last_reported":1722784101,"current_range_meters":20400,"station_id":"ce4bh0h2rcd13ifvqd40","pricing_plan_id":"cebpf4jnsgd1na2vs0mg"},{"bike_id":"9d2fce25-092b-4bd2-88ad-5b627e76cd5f","system_id":"levelo_inurba_marseille","lat":43.301117,"lon":5.398795,"is_reserved":false,"is_disabled":false,"rental_uris":{"android":"levelo://app?vid=9d2fce25-092b-4bd2-88ad-5b627e76cd5f","ios":"levelo://app?vid=9d2fce25-092b-4bd2-88ad-5b627e76cd5f"},"vehicle_type_id":"4","last_reported":1722784101,"current_range_meters":2800,"station_id":"ce4bh0h2rcd13ifvqd40","pricing_plan_id":"cebpf4jnsgd1na2vs0mg"},{"bike_id":"371dd30e-0d88-4546-8d31-aa19c6730a39","system_id":"levelo_inurba_marseille","lat":43.28727,"lon":5.36078,"is_reserved":false,"is_disabled":false,"rental_uris":{"android":"levelo://app?vid=371dd30e-0d88-4546-8d31-aa19c6730a39","ios":"levelo://app?vid=371dd30e-0d88-4546-8d31-aa19c6730a39"},"vehicle_type_id":"4","last_reported":1722784101,"current_range_meters":1200,"station_id":"cki0cbj6b192h4jlfktg","pricing_plan_id":"cebpf4jnsgd1na2vs0mg"},{"bike_id":"7e2a9137-7cd8-4be8-84f7-9a9e8757e68b","system_id":"levelo_inurba_marseille","lat":43.286961,"lon":5.373785,"is_reserved":false,"is_disabled":false,"rental_uris":{"android":"levelo://app?vid=7e2a9137-7cd8-4be8-84f7-9a9e8757e68b","ios":"levelo://app?vid=7e2a9137-7cd8-4be8-84f7-9a9e8757e68b"},"vehicle_type_id":"4","last_reported":1722784101,"current_range_meters":20400,"station_id":"ce4bh3p2rcd13ifvqdq0","pricing_plan_id":"cebpf4jnsgd1na2vs0mg"},{"bike_id":"2f9efa2b-78e4-4483-bc52-3253ccdef578","system_id":"levelo_inurba_marseille","lat":43.31495,"lon":5.40265,"is_reserved":false,"is_disabled":false,"rental_uris":{"android":"levelo://app?vid=2f9efa2b-78e4-4483-bc52-3253ccdef578","ios":"levelo://app?vid=2f9efa2b-78e4-4483-bc52-3253ccdef578"},"vehicle_type_id":"4","last_reported":1722784101,"current_range_meters":20400,"station_id":"","pricing_plan_id":"cebpf4jnsgd1na2vs0mg"},{"bike_id":"41a06208-539f-4a1d-8df8-c76a78e6878d","system_id":"levelo_inurba_marseille","lat":43.286961,"lon":5.373785,"is_reserved":false,"is_disabled":false,"rental_uris":{"android":"levelo://app?vid=41a06208-539f-4a1d-8df8-c76a78e6878d","ios":"levelo://app?vid=41a06208-539f-4a1d-8df8-c76a78e6878d"},"vehicle_type_id":"4","last_reported":1722784101,"current_range_meters":22000,"station_id":"ce4bh3p2rcd13ifvqdq0","pricing_plan_id":"cebpf4jnsgd1na2vs0mg"},{"bike_id":"2eff1f70-4a7b-4bbb-8d8d-372123ffa652","system_id":"levelo_inurba_marseille","lat":43.286961,"lon":5.373785,"is_reserved":false,"is_disabled":false,"rental_uris":{"android":"levelo://app?vid=2eff1f70-4a7b-4bbb-8d8d-372123ffa652","ios":"levelo://app?vid=2eff1f70-4a7b-4bbb-8d8d-372123ffa652"},"vehicle_type_id":"4","last_reported":1722784101,"current_range_meters":22000,"station_id":"ce4bh3p2rcd13ifvqdq0","pricing_plan_id":"cebpf4jnsgd1na2vs0mg"},{"bike_id":"0179765d-9318-4c77-8b6d-adfd51983e77","system_id":"levelo_inurba_marseille","lat":43.286961,"lon":5.373785,"is_reserved":false,"is_disabled":false,"rental_uris":{"android":"levelo://app?vid=0179765d-9318-4c77-8b6d-adfd51983e77","ios":"levelo://app?vid=0179765d-9318-4c77-8b6d-adfd51983e77"},"vehicle_type_id":"4","last_reported":1722784101,"current_range_meters":29600,"station_id":"ce4bh3p2rcd13ifvqdq0","pricing_plan_id":"cebpf4jnsgd1na2vs0mg"},{"bike_id":"f49e5008-ed68-40fc-bdff-d012fee12f69","system_id":"levelo_inurba_marseille","lat":43.286961,"lon":5.373785,"is_reserved":false,"is_disabled":false,"rental_uris":{"android":"levelo://app?vid=f49e5008-ed68-40fc-bdff-d012fee12f69","ios":"levelo://app?vid=f49e5008-ed68-40fc-bdff-d012fee12f69"},"vehicle_type_id":"4","last_reported":1722784101,"current_range_meters":24800,"station_id":"ce4bh3p2rcd13ifvqdq0","pricing_plan_id":"cebpf4jnsgd1na2vs0mg"},{"bike_id":"1a91a567-c0ab-4516-b639-88192e360457","system_id":"levelo_inurba_marseille","lat":43.28935,"lon":5.38392,"is_reserved":false,"is_disabled":false,"rental_uris":{"android":"levelo://app?vid=1a91a567-c0ab-4516-b639-88192e360457","ios":"levelo://app?vid=1a91a567-c0ab-4516-b639-88192e360457"},"vehicle_type_id":"4","last_reported":1722784101,"current_range_meters":31200,"station_id":"ce4bh612rcd13ifvqe6g","pricing_plan_id":"cebpf4jnsgd1na2vs0mg"},{"bike_id":"3fc4c85f-0620-4aff-8c8f-760ce57c71f9","system_id":"levelo_inurba_marseille","lat":43.289307,"lon":5.38406,"is_reserved":false,"is_disabled":false,"rental_uris":{"android":"levelo://app?vid=3fc4c85f-0620-4aff-8c8f-760ce57c71f9","ios":"levelo://app?vid=3fc4c85f-0620-4aff-8c8f-760ce57c71f9"},"vehicle_type_id":"4","last_reported":1722784101,"current_range_meters":28000,"station_id":"ce4bh612rcd13ifvqe6g","pricing_plan_id":"cebpf4jnsgd1na2vs0mg"},{"bike_id":"938ee950-f085-488f-92aa-8c036258ff4e","system_id":"levelo_inurba_marseille","lat":43.302759,"lon":5.400793,"is_reserved":false,"is_disabled":false,"rental_uris":{"android":"levelo://app?vid=938ee950-f085-488f-92aa-8c036258ff4e","ios":"levelo://app?vid=938ee950-f085-488f-92aa-8c036258ff4e"},"vehicle_type_id":"4","last_reported":1722784101,"current_range_meters":0,"station_id":"ce4bgvh2rcd13ifvqcs0","pricing_plan_id":"cebpf4jnsgd1na2vs0mg"},{"bike_id":"44b1f857-4efe-4ef9-9b80-1f707cf156ce","system_id":"levelo_inurba_marseille","lat":43.286039,"lon":5.370679,"is_reserved":false,"is_disabled":false,"rental_uris":{"android":"levelo://app?vid=44b1f857-4efe-4ef9-9b80-1f707cf156ce","ios":"levelo://app?vid=44b1f857-4efe-4ef9-9b80-1f707cf156ce"},"vehicle_type_id":"4","last_reported":1722784101,"current_range_meters":23200,"station_id":"ce4bht12rcd13ifvqi60","pricing_plan_id":"cebpf4jnsgd1na2vs0mg"},{"bike_id":"c046c276-205f-44a8-ae87-c323a649f73e","system_id":"levelo_inurba_marseille","lat":43.28726,"lon":5.37938,"is_reserved":false,"is_disabled":false,"rental_uris":{"android":"levelo://app?vid=c046c276-205f-44a8-ae87-c323a649f73e","ios":"levelo://app?vid=c046c276-205f-44a8-ae87-c323a649f73e"},"vehicle_type_id":"4","last_reported":1722784101,"current_range_meters":400,"station_id":"ce4bh9p2rcd13ifvqec0","pricing_plan_id":"cebpf4jnsgd1na2vs0mg"},{"bike_id":"0f70488d-a497-4184-974e-a4d43f1b10ae","system_id":"levelo_inurba_marseille","lat":43.287184,"lon":5.37937,"is_reserved":false,"is_disabled":false,"rental_uris":{"android":"levelo://app?vid=0f70488d-a497-4184-974e-a4d43f1b10ae","ios":"levelo://app?vid=0f70488d-a497-4184-974e-a4d43f1b10ae"},"vehicle_type_id":"4","last_reported":1722784101,"current_range_meters":21600,"station_id":"ce4bh9p2rcd13ifvqec0","pricing_plan_id":"cebpf4jnsgd1na2vs0mg"},{"bike_id":"206426ed-06bc-431c-bbbe-8f8ad8a53061","system_id":"levelo_inurba_marseille","lat":43.28717,"lon":5.37937,"is_reserved":false,"is_disabled":false,"rental_uris":{"android":"levelo://app?vid=206426ed-06bc-431c-bbbe-8f8ad8a53061","ios":"levelo://app?vid=206426ed-06bc-431c-bbbe-8f8ad8a53061"},"vehicle_type_id":"4","last_reported":1722784101,"current_range_meters":0,"station_id":"ce4bh9p2rcd13ifvqec0","pricing_plan_id":"cebpf4jnsgd1na2vs0mg"},{"bike_id":"419b2771-4a2a-42d4-bc54-16a96705f735","system_id":"levelo_inurba_marseille","lat":43.316821,"lon":5.404737,"is_reserved":false,"is_disabled":false,"rental_uris":{"android":"levelo://app?vid=419b2771-4a2a-42d4-bc54-16a96705f735","ios":"levelo://app?vid=419b2771-4a2a-42d4-bc54-16a96705f735"},"vehicle_type_id":"4","last_reported":1722784101,"current_range_meters":9200,"station_id":"ce4bh012rcd13ifvqd00","pricing_plan_id":"cebpf4jnsgd1na2vs0mg"},{"bike_id":"642159ec-5529-4f67-849b-259f6c7cd362","system_id":"levelo_inurba_marseille","lat":43.284534,"lon":5.358662,"is_reserved":false,"is_disabled":false,"rental_uris":{"android":"levelo://app?vid=642159ec-5529-4f67-849b-259f6c7cd362","ios":"levelo://app?vid=642159ec-5529-4f67-849b-259f6c7cd362"},"vehicle_type_id":"4","last_reported":1722784101,"current_range_meters":14400,"station_id":"ce4bhah2rcd13ifvqei0","pricing_plan_id":"cebpf4jnsgd1na2vs0mg"},{"bike_id":"dd9e3ba0-5e85-4fed-af44-cf26bb401a72","system_id":"levelo_inurba_marseille","lat":43.28619,"lon":5.35106,"is_reserved":false,"is_disabled":false,"rental_uris":{"android":"levelo://app?vid=dd9e3ba0-5e85-4fed-af44-cf26bb401a72","ios":"levelo://app?vid=dd9e3ba0-5e85-4fed-af44-cf26bb401a72"},"vehicle_type_id":"4","last_reported":1722784101,"current_range_meters":15600,"station_id":"ce4bhch2rcd13ifvqeug","pricing_plan_id":"cebpf4jnsgd1na2vs0mg"},{"bike_id":"e53aef13-1c83-469c-9c6d-36c3d723a34f","system_id":"levelo_inurba_marseille","lat":43.28617,"lon":5.35111,"is_reserved":false,"is_disabled":false,"rental_uris":{"android":"levelo://app?vid=e53aef13-1c83-469c-9c6d-36c3d723a34f","ios":"levelo://app?vid=e53aef13-1c83-469c-9c6d-36c3d723a34f"},"vehicle_type_id":"4","last_reported":1722784101,"current_range_meters":0,"station_id":"ce4bhch2rcd13ifvqeug","pricing_plan_id":"cebpf4jnsgd1na2vs0mg"},{"bike_id":"2ebe492e-19ee-4bca-9a5b-e04c0cc5cbc7","system_id":"levelo_inurba_marseille","lat":43.28617,"lon":5.35109,"is_reserved":false,"is_disabled":false,"rental_uris":{"android":"levelo://app?vid=2ebe492e-19ee-4bca-9a5b-e04c0cc5cbc7","ios":"levelo://app?vid=2ebe492e-19ee-4bca-9a5b-e04c0cc5cbc7"},"vehicle_type_id":"4","last_reported":1722784101,"current_range_meters":0,"station_id":"ce4bhch2rcd13ifvqeug","pricing_plan_id":"cebpf4jnsgd1na2vs0mg"},{"bike_id":"48bf1e98-0ef4-478b-8457-530b1f851393","system_id":"levelo_inurba_marseille","lat":43.33208,"lon":5.39656,"is_reserved":false,"is_disabled":false,"rental_uris":{"android":"levelo://app?vid=48bf1e98-0ef4-478b-8457-530b1f851393","ios":"levelo://app?vid=48bf1e98-0ef4-478b-8457-530b1f851393"},"vehicle_type_id":"4","last_reported":1722784101,"current_range_meters":19200,"station_id":"","pricing_plan_id":"cebpf4jnsgd1na2vs0mg"},{"bike_id":"68209419-76c5-40be-8753-8f7bf57a9ebe","system_id":"levelo_inurba_marseille","lat":43.301396,"lon":5.387812,"is_reserved":false,"is_disabled":false,"rental_uris":{"android":"levelo://app?vid=68209419-76c5-40be-8753-8f7bf57a9ebe","ios":"levelo://app?vid=68209419-76c5-40be-8753-8f7bf57a9ebe"},"vehicle_type_id":"4","last_reported":1722784101,"current_range_meters":20800,"station_id":"ce4bghh2rcd13ifvqb60","pricing_plan_id":"cebpf4jnsgd1na2vs0mg"},{"bike_id":"94e76952-5b96-4e32-ab71-d764c5f70b5d","system_id":"levelo_inurba_marseille","lat":43.284219,"lon":5.3497,"is_reserved":false,"is_disabled":false,"rental_uris":{"android":"levelo://app?vid=94e76952-5b96-4e32-ab71-d764c5f70b5d","ios":"levelo://app?vid=94e76952-5b96-4e32-ab71-d764c5f70b5d"},"vehicle_type_id":"4","last_reported":1722784101,"current_range_meters":17200,"station_id":"ce4bhbh2rcd13ifvqepg","pricing_plan_id":"cebpf4jnsgd1na2vs0mg"},{"bike_id":"2df44c9e-ce46-4320-b55c-285d05864a18","system_id":"levelo_inurba_marseille","lat":43.285848,"lon":5.350787,"is_reserved":false,"is_disabled":false,"rental_uris":{"android":"levelo://app?vid=2df44c9e-ce46-4320-b55c-285d05864a18","ios":"levelo://app?vid=2df44c9e-ce46-4320-b55c-285d05864a18"},"vehicle_type_id":"4","last_reported":1722784101,"current_range_meters":14400,"station_id":"ce4bhch2rcd13ifvqeug","pricing_plan_id":"cebpf4jnsgd1na2vs0mg"},{"bike_id":"b26f19f3-d16a-4e88-a738-e31ec831931c","system_id":"levelo_inurba_marseille","lat":43.28615,"lon":5.35102,"is_reserved":false,"is_disabled":false,"rental_uris":{"android":"levelo://app?vid=b26f19f3-d16a-4e88-a738-e31ec831931c","ios":"levelo://app?vid=b26f19f3-d16a-4e88-a738-e31ec831931c"},"vehicle_type_id":"4","last_reported":1722784101,"current_range_meters":24400,"station_id":"ce4bhch2rcd13ifvqeug","pricing_plan_id":"cebpf4jnsgd1na2vs0mg"},{"bike_id":"7ea84f5e-5f98-45a5-b4a4-2419792ebff3","system_id":"levelo_inurba_marseille","lat":43.285848,"lon":5.350787,"is_reserved":false,"is_disabled":false,"rental_uris":{"android":"levelo://app?vid=7ea84f5e-5f98-45a5-b4a4-2419792ebff3","ios":"levelo://app?vid=7ea84f5e-5f98-45a5-b4a4-2419792ebff3"},"vehicle_type_id":"4","last_reported":1722784101,"current_range_meters":3600,"station_id":"ce4bhch2rcd13ifvqeug","pricing_plan_id":"cebpf4jnsgd1na2vs0mg"},{"bike_id":"1ee13df4-9c87-407f-9b1e-8865bad310fd","system_id":"levelo_inurba_marseille","lat":43.285848,"lon":5.350787,"is_reserved":false,"is_disabled":false,"rental_uris":{"android":"levelo://app?vid=1ee13df4-9c87-407f-9b1e-8865bad310fd","ios":"levelo://app?vid=1ee13df4-9c87-407f-9b1e-8865bad310fd"},"vehicle_type_id":"4","last_reported":1722784101,"current_range_meters":6800,"station_id":"ce4bhch2rcd13ifvqeug","pricing_plan_id":"cebpf4jnsgd1na2vs0mg"},{"bike_id":"9c4b8524-cec1-490b-9aeb-d3876ad9face","system_id":"levelo_inurba_marseille","lat":43.285993,"lon":5.35112,"is_reserved":false,"is_disabled":false,"rental_uris":{"android":"levelo://app?vid=9c4b8524-cec1-490b-9aeb-d3876ad9face","ios":"levelo://app?vid=9c4b8524-cec1-490b-9aeb-d3876ad9face"},"vehicle_type_id":"4","last_reported":1722784101,"current_range_meters":2400,"station_id":"ce4bhch2rcd13ifvqeug","pricing_plan_id":"cebpf4jnsgd1na2vs0mg"},{"bike_id":"47ec3cd9-493d-4794-8a72-3d02b659bd5e","system_id":"levelo_inurba_marseille","lat":43.283998,"lon":5.375062,"is_reserved":false,"is_disabled":false,"rental_uris":{"android":"levelo://app?vid=47ec3cd9-493d-4794-8a72-3d02b659bd5e","ios":"levelo://app?vid=47ec3cd9-493d-4794-8a72-3d02b659bd5e"},"vehicle_type_id":"4","last_reported":1722784101,"current_range_meters":2000,"station_id":"ce4bh412rcd13ifvqds0","pricing_plan_id":"cebpf4jnsgd1na2vs0mg"},{"bike_id":"1ca1e79d-c51c-4e4d-b74e-c413040300a7","system_id":"levelo_inurba_marseille","lat":43.283998,"lon":5.375062,"is_reserved":false,"is_disabled":false,"rental_uris":{"android":"levelo://app?vid=1ca1e79d-c51c-4e4d-b74e-c413040300a7","ios":"levelo://app?vid=1ca1e79d-c51c-4e4d-b74e-c413040300a7"},"vehicle_type_id":"4","last_reported":1722784101,"current_range_meters":3200,"station_id":"ce4bh412rcd13ifvqds0","pricing_plan_id":"cebpf4jnsgd1na2vs0mg"},{"bike_id":"ecb5c475-1cde-40cb-a267-78193c406f5e","system_id":"levelo_inurba_marseille","lat":43.295713,"lon":5.399639,"is_reserved":false,"is_disabled":false,"rental_uris":{"android":"levelo://app?vid=ecb5c475-1cde-40cb-a267-78193c406f5e","ios":"levelo://app?vid=ecb5c475-1cde-40cb-a267-78193c406f5e"},"vehicle_type_id":"4","last_reported":1722784101,"current_range_meters":12800,"station_id":"ce4bh312rcd13ifvqdj0","pricing_plan_id":"cebpf4jnsgd1na2vs0mg"},{"bike_id":"26db6c0a-20a1-40e5-9953-6f453091739b","system_id":"levelo_inurba_marseille","lat":43.295713,"lon":5.399639,"is_reserved":false,"is_disabled":false,"rental_uris":{"android":"levelo://app?vid=26db6c0a-20a1-40e5-9953-6f453091739b","ios":"levelo://app?vid=26db6c0a-20a1-40e5-9953-6f453091739b"},"vehicle_type_id":"4","last_reported":1722784101,"current_range_meters":0,"station_id":"ce4bh312rcd13ifvqdj0","pricing_plan_id":"cebpf4jnsgd1na2vs0mg"},{"bike_id":"f7cabf8c-367d-42dd-a7b3-743a560e7315","system_id":"levelo_inurba_marseille","lat":43.28665,"lon":5.38676,"is_reserved":false,"is_disabled":false,"rental_uris":{"android":"levelo://app?vid=f7cabf8c-367d-42dd-a7b3-743a560e7315","ios":"levelo://app?vid=f7cabf8c-367d-42dd-a7b3-743a560e7315"},"vehicle_type_id":"4","last_reported":1722784101,"current_range_meters":12800,"station_id":"","pricing_plan_id":"cebpf4jnsgd1na2vs0mg"},{"bike_id":"61975d57-5af6-42ab-a23f-943d869d836b","system_id":"levelo_inurba_marseille","lat":43.319179,"lon":5.407725,"is_reserved":false,"is_disabled":false,"rental_uris":{"android":"levelo://app?vid=61975d57-5af6-42ab-a23f-943d869d836b","ios":"levelo://app?vid=61975d57-5af6-42ab-a23f-943d869d836b"},"vehicle_type_id":"4","last_reported":1722784101,"current_range_meters":6400,"station_id":"ce4bhq12rcd13ifvqhig","pricing_plan_id":"cebpf4jnsgd1na2vs0mg"},{"bike_id":"87534628-aae9-4a1a-9f08-9c59a0fee064","system_id":"levelo_inurba_marseille","lat":43.33717,"lon":5.391857,"is_reserved":false,"is_disabled":false,"rental_uris":{"android":"levelo://app?vid=87534628-aae9-4a1a-9f08-9c59a0fee064","ios":"levelo://app?vid=87534628-aae9-4a1a-9f08-9c59a0fee064"},"vehicle_type_id":"4","last_reported":1722784101,"current_range_meters":29200,"station_id":"ce4bhr92rcd13ifvqhsg","pricing_plan_id":"cebpf4jnsgd1na2vs0mg"},{"bike_id":"2d38b7c3-b3ba-41d8-833e-4a63852a23db","system_id":"levelo_inurba_marseille","lat":43.33717,"lon":5.391857,"is_reserved":false,"is_disabled":false,"rental_uris":{"android":"levelo://app?vid=2d38b7c3-b3ba-41d8-833e-4a63852a23db","ios":"levelo://app?vid=2d38b7c3-b3ba-41d8-833e-4a63852a23db"},"vehicle_type_id":"4","last_reported":1722784101,"current_range_meters":4800,"station_id":"ce4bhr92rcd13ifvqhsg","pricing_plan_id":"cebpf4jnsgd1na2vs0mg"},{"bike_id":"0dac3fd3-4e95-4d1f-8ffd-451abdbcda84","system_id":"levelo_inurba_marseille","lat":43.33717,"lon":5.391857,"is_reserved":false,"is_disabled":false,"rental_uris":{"android":"levelo://app?vid=0dac3fd3-4e95-4d1f-8ffd-451abdbcda84","ios":"levelo://app?vid=0dac3fd3-4e95-4d1f-8ffd-451abdbcda84"},"vehicle_type_id":"4","last_reported":1722784101,"current_range_meters":5200,"station_id":"ce4bhr92rcd13ifvqhsg","pricing_plan_id":"cebpf4jnsgd1na2vs0mg"},{"bike_id":"854023fb-a96e-4f74-9cc6-1bc542a21e49","system_id":"levelo_inurba_marseille","lat":43.33717,"lon":5.391857,"is_reserved":false,"is_disabled":false,"rental_uris":{"android":"levelo://app?vid=854023fb-a96e-4f74-9cc6-1bc542a21e49","ios":"levelo://app?vid=854023fb-a96e-4f74-9cc6-1bc542a21e49"},"vehicle_type_id":"4","last_reported":1722784101,"current_range_meters":3600,"station_id":"ce4bhr92rcd13ifvqhsg","pricing_plan_id":"cebpf4jnsgd1na2vs0mg"},{"bike_id":"fcc95342-2a16-41f7-932f-3a14f9a57fb7","system_id":"levelo_inurba_marseille","lat":43.33717,"lon":5.391857,"is_reserved":false,"is_disabled":false,"rental_uris":{"android":"levelo://app?vid=fcc95342-2a16-41f7-932f-3a14f9a57fb7","ios":"levelo://app?vid=fcc95342-2a16-41f7-932f-3a14f9a57fb7"},"vehicle_type_id":"4","last_reported":1722784101,"current_range_meters":31200,"station_id":"ce4bhr92rcd13ifvqhsg","pricing_plan_id":"cebpf4jnsgd1na2vs0mg"},{"bike_id":"65c0077d-fe02-4c25-9203-36f83fba9ddf","system_id":"levelo_inurba_marseille","lat":43.33717,"lon":5.391857,"is_reserved":false,"is_disabled":false,"rental_uris":{"android":"levelo://app?vid=65c0077d-fe02-4c25-9203-36f83fba9ddf","ios":"levelo://app?vid=65c0077d-fe02-4c25-9203-36f83fba9ddf"},"vehicle_type_id":"4","last_reported":1722784101,"current_range_meters":22800,"station_id":"ce4bhr92rcd13ifvqhsg","pricing_plan_id":"cebpf4jnsgd1na2vs0mg"},{"bike_id":"a317344f-ddb0-47f2-abd7-ae40e2b3855e","system_id":"levelo_inurba_marseille","lat":43.337168,"lon":5.391825,"is_reserved":false,"is_disabled":false,"rental_uris":{"android":"levelo://app?vid=a317344f-ddb0-47f2-abd7-ae40e2b3855e","ios":"levelo://app?vid=a317344f-ddb0-47f2-abd7-ae40e2b3855e"},"vehicle_type_id":"4","last_reported":1722784101,"current_range_meters":28400,"station_id":"ce4bhr92rcd13ifvqhsg","pricing_plan_id":"cebpf4jnsgd1na2vs0mg"},{"bike_id":"32c25458-5fa7-4f79-b3e6-8d89134cb384","system_id":"levelo_inurba_marseille","lat":43.33717,"lon":5.391857,"is_reserved":false,"is_disabled":false,"rental_uris":{"android":"levelo://app?vid=32c25458-5fa7-4f79-b3e6-8d89134cb384","ios":"levelo://app?vid=32c25458-5fa7-4f79-b3e6-8d89134cb384"},"vehicle_type_id":"4","last_reported":1722784101,"current_range_meters":0,"station_id":"ce4bhr92rcd13ifvqhsg","pricing_plan_id":"cebpf4jnsgd1na2vs0mg"},{"bike_id":"0a57afcd-ab74-4fc8-82eb-d5b4c1d9f175","system_id":"levelo_inurba_marseille","lat":43.261782,"lon":5.374515,"is_reserved":false,"is_disabled":false,"rental_uris":{"android":"levelo://app?vid=0a57afcd-ab74-4fc8-82eb-d5b4c1d9f175","ios":"levelo://app?vid=0a57afcd-ab74-4fc8-82eb-d5b4c1d9f175"},"vehicle_type_id":"4","last_reported":1722784101,"current_range_meters":0,"station_id":"ce4bhgp2rcd13ifvqfc0","pricing_plan_id":"cebpf4jnsgd1na2vs0mg"},{"bike_id":"2d0e72a8-1d50-4da9-bceb-dd25b3848088","system_id":"levelo_inurba_marseille","lat":43.33717,"lon":5.391857,"is_reserved":false,"is_disabled":false,"rental_uris":{"android":"levelo://app?vid=2d0e72a8-1d50-4da9-bceb-dd25b3848088","ios":"levelo://app?vid=2d0e72a8-1d50-4da9-bceb-dd25b3848088"},"vehicle_type_id":"4","last_reported":1722784101,"current_range_meters":4800,"station_id":"ce4bhr92rcd13ifvqhsg","pricing_plan_id":"cebpf4jnsgd1na2vs0mg"},{"bike_id":"55086447-d8b1-4178-9170-053266dd3cc6","system_id":"levelo_inurba_marseille","lat":43.33717,"lon":5.391857,"is_reserved":false,"is_disabled":false,"rental_uris":{"android":"levelo://app?vid=55086447-d8b1-4178-9170-053266dd3cc6","ios":"levelo://app?vid=55086447-d8b1-4178-9170-053266dd3cc6"},"vehicle_type_id":"4","last_reported":1722784101,"current_range_meters":30000,"station_id":"ce4bhr92rcd13ifvqhsg","pricing_plan_id":"cebpf4jnsgd1na2vs0mg"},{"bike_id":"12f46083-add6-4a12-ae1c-bc11339a8f7c","system_id":"levelo_inurba_marseille","lat":43.337168,"lon":5.391825,"is_reserved":false,"is_disabled":false,"rental_uris":{"android":"levelo://app?vid=12f46083-add6-4a12-ae1c-bc11339a8f7c","ios":"levelo://app?vid=12f46083-add6-4a12-ae1c-bc11339a8f7c"},"vehicle_type_id":"4","last_reported":1722784101,"current_range_meters":30400,"station_id":"ce4bhr92rcd13ifvqhsg","pricing_plan_id":"cebpf4jnsgd1na2vs0mg"},{"bike_id":"e2292a41-2a7e-4571-a7c0-084900ebbee3","system_id":"levelo_inurba_marseille","lat":43.284793,"lon":5.384119,"is_reserved":false,"is_disabled":false,"rental_uris":{"android":"levelo://app?vid=e2292a41-2a7e-4571-a7c0-084900ebbee3","ios":"levelo://app?vid=e2292a41-2a7e-4571-a7c0-084900ebbee3"},"vehicle_type_id":"4","last_reported":1722784101,"current_range_meters":10000,"station_id":"ce4bh512rcd13ifvqe3g","pricing_plan_id":"cebpf4jnsgd1na2vs0mg"},{"bike_id":"d82d9031-590c-47ab-878e-985c827b1aeb","system_id":"levelo_inurba_marseille","lat":43.28465,"lon":5.38419,"is_reserved":false,"is_disabled":false,"rental_uris":{"android":"levelo://app?vid=d82d9031-590c-47ab-878e-985c827b1aeb","ios":"levelo://app?vid=d82d9031-590c-47ab-878e-985c827b1aeb"},"vehicle_type_id":"4","last_reported":1722784101,"current_range_meters":24400,"station_id":"ce4bh512rcd13ifvqe3g","pricing_plan_id":"cebpf4jnsgd1na2vs0mg"},{"bike_id":"f8138500-a6e3-4dbb-8818-18ff8e2e8d9c","system_id":"levelo_inurba_marseille","lat":43.28464,"lon":5.38427,"is_reserved":false,"is_disabled":false,"rental_uris":{"android":"levelo://app?vid=f8138500-a6e3-4dbb-8818-18ff8e2e8d9c","ios":"levelo://app?vid=f8138500-a6e3-4dbb-8818-18ff8e2e8d9c"},"vehicle_type_id":"4","last_reported":1722784101,"current_range_meters":28000,"station_id":"ce4bh512rcd13ifvqe3g","pricing_plan_id":"cebpf4jnsgd1na2vs0mg"},{"bike_id":"b1dc5405-9ff6-4416-9f8c-d52ebf868e8d","system_id":"levelo_inurba_marseille","lat":43.284793,"lon":5.384119,"is_reserved":false,"is_disabled":false,"rental_uris":{"android":"levelo://app?vid=b1dc5405-9ff6-4416-9f8c-d52ebf868e8d","ios":"levelo://app?vid=b1dc5405-9ff6-4416-9f8c-d52ebf868e8d"},"vehicle_type_id":"4","last_reported":1722784101,"current_range_meters":7600,"station_id":"ce4bh512rcd13ifvqe3g","pricing_plan_id":"cebpf4jnsgd1na2vs0mg"},{"bike_id":"bca4c883-6ff0-44df-9a58-5b6d533ac349","system_id":"levelo_inurba_marseille","lat":43.283494,"lon":5.380945,"is_reserved":false,"is_disabled":false,"rental_uris":{"android":"levelo://app?vid=bca4c883-6ff0-44df-9a58-5b6d533ac349","ios":"levelo://app?vid=bca4c883-6ff0-44df-9a58-5b6d533ac349"},"vehicle_type_id":"4","last_reported":1722784101,"current_range_meters":31200,"station_id":"ce4bh412rcd13ifvqdr0","pricing_plan_id":"cebpf4jnsgd1na2vs0mg"},{"bike_id":"1f8efd15-6120-4224-9699-c12259fa964d","system_id":"levelo_inurba_marseille","lat":43.284776,"lon":5.385603,"is_reserved":false,"is_disabled":false,"rental_uris":{"android":"levelo://app?vid=1f8efd15-6120-4224-9699-c12259fa964d","ios":"levelo://app?vid=1f8efd15-6120-4224-9699-c12259fa964d"},"vehicle_type_id":"4","last_reported":1722784101,"current_range_meters":1200,"station_id":"ce4bh8p2rcd13ifvqeb0","pricing_plan_id":"cebpf4jnsgd1na2vs0mg"},{"bike_id":"f8d446e0-64d7-426f-92ae-dc08b46f838a","system_id":"levelo_inurba_marseille","lat":43.28424,"lon":5.34999,"is_reserved":false,"is_disabled":false,"rental_uris":{"android":"levelo://app?vid=f8d446e0-64d7-426f-92ae-dc08b46f838a","ios":"levelo://app?vid=f8d446e0-64d7-426f-92ae-dc08b46f838a"},"vehicle_type_id":"4","last_reported":1722784101,"current_range_meters":3600,"station_id":"ce4bhbh2rcd13ifvqepg","pricing_plan_id":"cebpf4jnsgd1na2vs0mg"},{"bike_id":"48c5085e-83d9-4402-a8ee-f0ab715b00e6","system_id":"levelo_inurba_marseille","lat":43.28429,"lon":5.34977,"is_reserved":false,"is_disabled":false,"rental_uris":{"android":"levelo://app?vid=48c5085e-83d9-4402-a8ee-f0ab715b00e6","ios":"levelo://app?vid=48c5085e-83d9-4402-a8ee-f0ab715b00e6"},"vehicle_type_id":"4","last_reported":1722784101,"current_range_meters":0,"station_id":"ce4bhbh2rcd13ifvqepg","pricing_plan_id":"cebpf4jnsgd1na2vs0mg"},{"bike_id":"aab41fcc-8ebe-4459-a1b5-c98aa3d1fc1f","system_id":"levelo_inurba_marseille","lat":43.284255,"lon":5.349866,"is_reserved":false,"is_disabled":false,"rental_uris":{"android":"levelo://app?vid=aab41fcc-8ebe-4459-a1b5-c98aa3d1fc1f","ios":"levelo://app?vid=aab41fcc-8ebe-4459-a1b5-c98aa3d1fc1f"},"vehicle_type_id":"4","last_reported":1722784101,"current_range_meters":14800,"station_id":"ce4bhbh2rcd13ifvqepg","pricing_plan_id":"cebpf4jnsgd1na2vs0mg"},{"bike_id":"7e2097ca-c2ac-4d41-8b05-264d6f141484","system_id":"levelo_inurba_marseille","lat":43.28423,"lon":5.34991,"is_reserved":false,"is_disabled":false,"rental_uris":{"android":"levelo://app?vid=7e2097ca-c2ac-4d41-8b05-264d6f141484","ios":"levelo://app?vid=7e2097ca-c2ac-4d41-8b05-264d6f141484"},"vehicle_type_id":"4","last_reported":1722784101,"current_range_meters":25600,"station_id":"ce4bhbh2rcd13ifvqepg","pricing_plan_id":"cebpf4jnsgd1na2vs0mg"},{"bike_id":"2d2a8a3d-b85a-41ec-9151-d0152174946b","system_id":"levelo_inurba_marseille","lat":43.284219,"lon":5.3497,"is_reserved":false,"is_disabled":false,"rental_uris":{"android":"levelo://app?vid=2d2a8a3d-b85a-41ec-9151-d0152174946b","ios":"levelo://app?vid=2d2a8a3d-b85a-41ec-9151-d0152174946b"},"vehicle_type_id":"4","last_reported":1722784101,"current_range_meters":31200,"station_id":"ce4bhbh2rcd13ifvqepg","pricing_plan_id":"cebpf4jnsgd1na2vs0mg"},{"bike_id":"720526fc-263d-4d3e-9894-504868d4857c","system_id":"levelo_inurba_marseille","lat":43.282674,"lon":5.356018,"is_reserved":false,"is_disabled":false,"rental_uris":{"android":"levelo://app?vid=720526fc-263d-4d3e-9894-504868d4857c","ios":"levelo://app?vid=720526fc-263d-4d3e-9894-504868d4857c"},"vehicle_type_id":"4","last_reported":1722784101,"current_range_meters":7200,"station_id":"","pricing_plan_id":"cebpf4jnsgd1na2vs0mg"},{"bike_id":"76051a8f-f845-43db-b0cf-5207b3e98556","system_id":"levelo_inurba_marseille","lat":43.2842,"lon":5.34981,"is_reserved":false,"is_disabled":false,"rental_uris":{"android":"levelo://app?vid=76051a8f-f845-43db-b0cf-5207b3e98556","ios":"levelo://app?vid=76051a8f-f845-43db-b0cf-5207b3e98556"},"vehicle_type_id":"4","last_reported":1722784101,"current_range_meters":0,"station_id":"ce4bhbh2rcd13ifvqepg","pricing_plan_id":"cebpf4jnsgd1na2vs0mg"},{"bike_id":"070552dd-0938-47bd-aa36-139b13151bd9","system_id":"levelo_inurba_marseille","lat":43.28415,"lon":5.349917,"is_reserved":false,"is_disabled":false,"rental_uris":{"android":"levelo://app?vid=070552dd-0938-47bd-aa36-139b13151bd9","ios":"levelo://app?vid=070552dd-0938-47bd-aa36-139b13151bd9"},"vehicle_type_id":"4","last_reported":1722784101,"current_range_meters":0,"station_id":"ce4bhbh2rcd13ifvqepg","pricing_plan_id":"cebpf4jnsgd1na2vs0mg"},{"bike_id":"3abc67bb-2a44-4cef-b0db-038ff03b961e","system_id":"levelo_inurba_marseille","lat":43.28419,"lon":5.34979,"is_reserved":false,"is_disabled":false,"rental_uris":{"android":"levelo://app?vid=3abc67bb-2a44-4cef-b0db-038ff03b961e","ios":"levelo://app?vid=3abc67bb-2a44-4cef-b0db-038ff03b961e"},"vehicle_type_id":"4","last_reported":1722784101,"current_range_meters":0,"station_id":"ce4bhbh2rcd13ifvqepg","pricing_plan_id":"cebpf4jnsgd1na2vs0mg"},{"bike_id":"3a083583-38dd-4c75-b0c8-9c0322d4055f","system_id":"levelo_inurba_marseille","lat":43.28416,"lon":5.34987,"is_reserved":false,"is_disabled":false,"rental_uris":{"android":"levelo://app?vid=3a083583-38dd-4c75-b0c8-9c0322d4055f","ios":"levelo://app?vid=3a083583-38dd-4c75-b0c8-9c0322d4055f"},"vehicle_type_id":"4","last_reported":1722784101,"current_range_meters":30400,"station_id":"ce4bhbh2rcd13ifvqepg","pricing_plan_id":"cebpf4jnsgd1na2vs0mg"},{"bike_id":"35646b6f-ec1a-4600-b2e4-a2ddae04aba8","system_id":"levelo_inurba_marseille","lat":43.284143,"lon":5.349917,"is_reserved":false,"is_disabled":false,"rental_uris":{"android":"levelo://app?vid=35646b6f-ec1a-4600-b2e4-a2ddae04aba8","ios":"levelo://app?vid=35646b6f-ec1a-4600-b2e4-a2ddae04aba8"},"vehicle_type_id":"4","last_reported":1722784101,"current_range_meters":0,"station_id":"ce4bhbh2rcd13ifvqepg","pricing_plan_id":"cebpf4jnsgd1na2vs0mg"},{"bike_id":"9473a038-9a76-441d-8244-df43a4e71d00","system_id":"levelo_inurba_marseille","lat":43.28413,"lon":5.34988,"is_reserved":false,"is_disabled":false,"rental_uris":{"android":"levelo://app?vid=9473a038-9a76-441d-8244-df43a4e71d00","ios":"levelo://app?vid=9473a038-9a76-441d-8244-df43a4e71d00"},"vehicle_type_id":"4","last_reported":1722784101,"current_range_meters":26000,"station_id":"ce4bhbh2rcd13ifvqepg","pricing_plan_id":"cebpf4jnsgd1na2vs0mg"},{"bike_id":"28eaaeb9-8e6b-43b3-91a9-2389d6e9c15d","system_id":"levelo_inurba_marseille","lat":43.28411,"lon":5.34984,"is_reserved":false,"is_disabled":false,"rental_uris":{"android":"levelo://app?vid=28eaaeb9-8e6b-43b3-91a9-2389d6e9c15d","ios":"levelo://app?vid=28eaaeb9-8e6b-43b3-91a9-2389d6e9c15d"},"vehicle_type_id":"4","last_reported":1722784101,"current_range_meters":21200,"station_id":"ce4bhbh2rcd13ifvqepg","pricing_plan_id":"cebpf4jnsgd1na2vs0mg"},{"bike_id":"26f2217e-67d1-4dfb-8836-11220d4f85c4","system_id":"levelo_inurba_marseille","lat":43.33502,"lon":5.39788,"is_reserved":false,"is_disabled":false,"rental_uris":{"android":"levelo://app?vid=26f2217e-67d1-4dfb-8836-11220d4f85c4","ios":"levelo://app?vid=26f2217e-67d1-4dfb-8836-11220d4f85c4"},"vehicle_type_id":"4","last_reported":1722784101,"current_range_meters":12800,"station_id":"","pricing_plan_id":"cebpf4jnsgd1na2vs0mg"},{"bike_id":"c802ec6b-d032-4c35-b9fc-33b6b29fea86","system_id":"levelo_inurba_marseille","lat":43.342628,"lon":5.382374,"is_reserved":false,"is_disabled":false,"rental_uris":{"android":"levelo://app?vid=c802ec6b-d032-4c35-b9fc-33b6b29fea86","ios":"levelo://app?vid=c802ec6b-d032-4c35-b9fc-33b6b29fea86"},"vehicle_type_id":"4","last_reported":1722784101,"current_range_meters":3600,"station_id":"","pricing_plan_id":"cebpf4jnsgd1na2vs0mg"},{"bike_id":"76736b83-dce7-4470-a424-d954c6d15b10","system_id":"levelo_inurba_marseille","lat":43.282744,"lon":5.350533,"is_reserved":false,"is_disabled":false,"rental_uris":{"android":"levelo://app?vid=76736b83-dce7-4470-a424-d954c6d15b10","ios":"levelo://app?vid=76736b83-dce7-4470-a424-d954c6d15b10"},"vehicle_type_id":"4","last_reported":1722784101,"current_range_meters":0,"station_id":"ce4bhbp2rcd13ifvqerg","pricing_plan_id":"cebpf4jnsgd1na2vs0mg"},{"bike_id":"3f1e6fcb-1b93-4c24-837c-3252105f4c50","system_id":"levelo_inurba_marseille","lat":43.28275,"lon":5.35073,"is_reserved":false,"is_disabled":false,"rental_uris":{"android":"levelo://app?vid=3f1e6fcb-1b93-4c24-837c-3252105f4c50","ios":"levelo://app?vid=3f1e6fcb-1b93-4c24-837c-3252105f4c50"},"vehicle_type_id":"4","last_reported":1722784101,"current_range_meters":0,"station_id":"ce4bhbp2rcd13ifvqerg","pricing_plan_id":"cebpf4jnsgd1na2vs0mg"},{"bike_id":"09116574-6cf1-4a06-9ad1-c5146beaea24","system_id":"levelo_inurba_marseille","lat":43.282754,"lon":5.350519,"is_reserved":false,"is_disabled":false,"rental_uris":{"android":"levelo://app?vid=09116574-6cf1-4a06-9ad1-c5146beaea24","ios":"levelo://app?vid=09116574-6cf1-4a06-9ad1-c5146beaea24"},"vehicle_type_id":"4","last_reported":1722784101,"current_range_meters":14000,"station_id":"ce4bhbp2rcd13ifvqerg","pricing_plan_id":"cebpf4jnsgd1na2vs0mg"},{"bike_id":"4677001c-3636-4653-bfe3-22b3e88f8899","system_id":"levelo_inurba_marseille","lat":43.28271,"lon":5.35073,"is_reserved":false,"is_disabled":false,"rental_uris":{"android":"levelo://app?vid=4677001c-3636-4653-bfe3-22b3e88f8899","ios":"levelo://app?vid=4677001c-3636-4653-bfe3-22b3e88f8899"},"vehicle_type_id":"4","last_reported":1722784101,"current_range_meters":0,"station_id":"ce4bhbp2rcd13ifvqerg","pricing_plan_id":"cebpf4jnsgd1na2vs0mg"},{"bike_id":"56c38a0b-c6fb-49ac-b974-a47303bd33ce","system_id":"levelo_inurba_marseille","lat":43.28272,"lon":5.35069,"is_reserved":false,"is_disabled":false,"rental_uris":{"android":"levelo://app?vid=56c38a0b-c6fb-49ac-b974-a47303bd33ce","ios":"levelo://app?vid=56c38a0b-c6fb-49ac-b974-a47303bd33ce"},"vehicle_type_id":"4","last_reported":1722784101,"current_range_meters":0,"station_id":"ce4bhbp2rcd13ifvqerg","pricing_plan_id":"cebpf4jnsgd1na2vs0mg"},{"bike_id":"be72aba1-3cc9-4187-ab9f-5d10515e6e7b","system_id":"levelo_inurba_marseille","lat":43.282754,"lon":5.350519,"is_reserved":false,"is_disabled":false,"rental_uris":{"android":"levelo://app?vid=be72aba1-3cc9-4187-ab9f-5d10515e6e7b","ios":"levelo://app?vid=be72aba1-3cc9-4187-ab9f-5d10515e6e7b"},"vehicle_type_id":"4","last_reported":1722784101,"current_range_meters":19200,"station_id":"ce4bhbp2rcd13ifvqerg","pricing_plan_id":"cebpf4jnsgd1na2vs0mg"},{"bike_id":"d29de8c3-b820-44f6-a274-e70505de1b17","system_id":"levelo_inurba_marseille","lat":43.28271,"lon":5.35062,"is_reserved":false,"is_disabled":false,"rental_uris":{"android":"levelo://app?vid=d29de8c3-b820-44f6-a274-e70505de1b17","ios":"levelo://app?vid=d29de8c3-b820-44f6-a274-e70505de1b17"},"vehicle_type_id":"4","last_reported":1722784101,"current_range_meters":24800,"station_id":"ce4bhbp2rcd13ifvqerg","pricing_plan_id":"cebpf4jnsgd1na2vs0mg"},{"bike_id":"4e82d6f0-84aa-4635-b143-b1f8f57012c5","system_id":"levelo_inurba_marseille","lat":43.28267,"lon":5.35075,"is_reserved":false,"is_disabled":false,"rental_uris":{"android":"levelo://app?vid=4e82d6f0-84aa-4635-b143-b1f8f57012c5","ios":"levelo://app?vid=4e82d6f0-84aa-4635-b143-b1f8f57012c5"},"vehicle_type_id":"4","last_reported":1722784101,"current_range_meters":0,"station_id":"ce4bhbp2rcd13ifvqerg","pricing_plan_id":"cebpf4jnsgd1na2vs0mg"},{"bike_id":"dac0fc13-5f3e-42c0-adc2-2e1d17c46566","system_id":"levelo_inurba_marseille","lat":43.28269,"lon":5.35063,"is_reserved":false,"is_disabled":false,"rental_uris":{"android":"levelo://app?vid=dac0fc13-5f3e-42c0-adc2-2e1d17c46566","ios":"levelo://app?vid=dac0fc13-5f3e-42c0-adc2-2e1d17c46566"},"vehicle_type_id":"4","last_reported":1722784101,"current_range_meters":0,"station_id":"ce4bhbp2rcd13ifvqerg","pricing_plan_id":"cebpf4jnsgd1na2vs0mg"},{"bike_id":"2e0256a3-352f-4086-8ca5-996cdf9114bd","system_id":"levelo_inurba_marseille","lat":43.28268,"lon":5.35061,"is_reserved":false,"is_disabled":false,"rental_uris":{"android":"levelo://app?vid=2e0256a3-352f-4086-8ca5-996cdf9114bd","ios":"levelo://app?vid=2e0256a3-352f-4086-8ca5-996cdf9114bd"},"vehicle_type_id":"4","last_reported":1722784101,"current_range_meters":0,"station_id":"ce4bhbp2rcd13ifvqerg","pricing_plan_id":"cebpf4jnsgd1na2vs0mg"},{"bike_id":"cab40f07-4bda-48f1-bc5d-6da0308936de","system_id":"levelo_inurba_marseille","lat":43.28268,"lon":5.3506,"is_reserved":false,"is_disabled":false,"rental_uris":{"android":"levelo://app?vid=cab40f07-4bda-48f1-bc5d-6da0308936de","ios":"levelo://app?vid=cab40f07-4bda-48f1-bc5d-6da0308936de"},"vehicle_type_id":"4","last_reported":1722784101,"current_range_meters":8800,"station_id":"","pricing_plan_id":"cebpf4jnsgd1na2vs0mg"},{"bike_id":"155207bc-e3cf-4fa7-8fb7-2b2d03b0ba64","system_id":"levelo_inurba_marseille","lat":43.282744,"lon":5.350533,"is_reserved":false,"is_disabled":false,"rental_uris":{"android":"levelo://app?vid=155207bc-e3cf-4fa7-8fb7-2b2d03b0ba64","ios":"levelo://app?vid=155207bc-e3cf-4fa7-8fb7-2b2d03b0ba64"},"vehicle_type_id":"4","last_reported":1722784101,"current_range_meters":4000,"station_id":"ce4bhbp2rcd13ifvqerg","pricing_plan_id":"cebpf4jnsgd1na2vs0mg"},{"bike_id":"5536bc95-47d1-4c35-b72f-83dd11f2fee2","system_id":"levelo_inurba_marseille","lat":43.280382,"lon":5.369291,"is_reserved":false,"is_disabled":false,"rental_uris":{"android":"levelo://app?vid=5536bc95-47d1-4c35-b72f-83dd11f2fee2","ios":"levelo://app?vid=5536bc95-47d1-4c35-b72f-83dd11f2fee2"},"vehicle_type_id":"4","last_reported":1722784101,"current_range_meters":2800,"station_id":"ce4bha12rcd13ifvqef0","pricing_plan_id":"cebpf4jnsgd1na2vs0mg"},{"bike_id":"f77d6443-a9fc-4c64-b770-c65c082d2e67","system_id":"levelo_inurba_marseille","lat":43.280382,"lon":5.369291,"is_reserved":false,"is_disabled":false,"rental_uris":{"android":"levelo://app?vid=f77d6443-a9fc-4c64-b770-c65c082d2e67","ios":"levelo://app?vid=f77d6443-a9fc-4c64-b770-c65c082d2e67"},"vehicle_type_id":"4","last_reported":1722784101,"current_range_meters":8800,"station_id":"ce4bha12rcd13ifvqef0","pricing_plan_id":"cebpf4jnsgd1na2vs0mg"},{"bike_id":"60b2800c-eb8e-4ad2-a072-84cdeadb2221","system_id":"levelo_inurba_marseille","lat":43.280382,"lon":5.369291,"is_reserved":false,"is_disabled":false,"rental_uris":{"android":"levelo://app?vid=60b2800c-eb8e-4ad2-a072-84cdeadb2221","ios":"levelo://app?vid=60b2800c-eb8e-4ad2-a072-84cdeadb2221"},