{"last_updated":1766078122,"ttl":60,"version":"2.2","data":{"bikes":[{"bike_id":"8e2670c9-6ce6-4e28-b437-099d9115f245","system_id":"levelo_inurba_marseille","lat":43.26228,"lon":5.40452,"is_reserved":false,"is_disabled":false,"rental_uris":{"android":"levelo://app?vid=8e2670c9-6ce6-4e28-b437-099d9115f245","ios":"levelo://app?vid=8e2670c9-6ce6-4e28-b437-099d9115f245"},"vehicle_type_id":"4","last_reported":1766078122,"current_range_meters":2800,"station_id":"ce4bhmh2rcd13ifvqgmg","pricing_plan_id":"cebpf4jnsgd1na2vs0mg"},{"bike_id":"cc8bcae3-4f0b-4e58-b353-44217fcaf4fd","system_id":"levelo_inurba_marseille","lat":43.26587,"lon":5.38997,"is_reserved":false,"is_disabled":false,"rental_uris":{"android":"levelo://app?vid=cc8bcae3-4f0b-4e58-b353-44217fcaf4fd","ios":"levelo://app?vid=cc8bcae3-4f0b-4e58-b353-44217fcaf4fd"},"vehicle_type_id":"4","last_reported":1766078122,"current_range_meters":2800,"station_id":"ce4bhe12rcd13ifvqf30","pricing_plan_id":"cebpf4jnsgd1na2vs0mg"},{"bike_id":"ff7548a7-d25d-49e3-97a1-de5d5b3dbf4d","system_id":"levelo_inurba_marseille","lat":43.27209,"lon":5.3918,"is_reserved":false,"is_disabled":false,"rental_uris":{"android":"levelo://app?vid=ff7548a7-d25d-49e3-97a1-de5d5b3dbf4d","ios":"levelo://app?vid=ff7548a7-d25d-49e3-97a1-de5d5b3dbf4d"},"vehicle_type_id":"4","last_reported":1766078122,"current_range_meters":2800,"station_id":"ce4bhhp2rcd13ifvqfm0","pricing_plan_id":"cebpf4jnsgd1na2vs0mg"},{"bike_id":"b837e29c-a49d-4037-8ffb-c58ec3701d59","system_id":"levelo_inurba_marseille","lat":43.311494,"lon":5.454108,"is_reserved":false,"is_disabled":false,"rental_uris":{"android":"levelo://app?vid=b837e29c-a49d-4037-8ffb-c58ec3701d59","ios":"levelo://app?vid=b837e29c-a49d-4037-8ffb-c58ec3701d59"},"vehicle_type_id":"4","last_reported":1766078122,"current_range_meters":2800,"station_id":"","pricing_plan_id":"cebpf4jnsgd1na2vs0mg"},{"bike_id":"e5422dc2-cfd0-4985-8ce7-ff41ff194cf7","system_id":"levelo_inurba_marseille","lat":43.31335,"lon":5.39695,"is_reserved":false,"is_disabled":false,"rental_uris":{"android":"levelo://app?vid=e5422dc2-cfd0-4985-8ce7-ff41ff194cf7","ios":"levelo://app?vid=e5422dc2-cfd0-4985-8ce7-ff41ff194cf7"},"vehicle_type_id":"4","last_reported":1766078122,"current_range_meters":2800,"station_id":"ce4bgvp2rcd13ifvqcu0","pricing_plan_id":"cebpf4jnsgd1na2vs0mg"},{"bike_id":"e01f9499-63a7-4823-ab49-8cd2d7beb09d","system_id":"levelo_inurba_marseille","lat":43.25106,"lon":5.40322,"is_reserved":false,"is_disabled":false,"rental_uris":{"android":"levelo://app?vid=e01f9499-63a7-4823-ab49-8cd2d7beb09d","ios":"levelo://app?vid=e01f9499-63a7-4823-ab49-8cd2d7beb09d"},"vehicle_type_id":"4","last_reported":1766078122,"current_range_meters":2800,"station_id":"ce4bhlh2rcd13ifvqgig","pricing_plan_id":"cebpf4jnsgd1na2vs0mg"},{"bike_id":"339d251b-5332-4901-aae2-eda8f9aa1d79","system_id":"levelo_inurba_marseille","lat":43.2707,"lon":5.42293,"is_reserved":false,"is_disabled":true,"rental_uris":{"android":"levelo://app?vid=339d251b-5332-4901-aae2-eda8f9aa1d79","ios":"levelo://app?vid=339d251b-5332-4901-aae2-eda8f9aa1d79"},"vehicle_type_id":"4","last_reported":1766078122,"current_range_meters":3200,"station_id":"ce4bhk92rcd13ifvqgb0","pricing_plan_id":"cebpf4jnsgd1na2vs0mg"},{"bike_id":"bd448f3f-de5e-49bd-b8a0-14472dcc752a","system_id":"levelo_inurba_marseille","lat":43.30291,"lon":5.37689,"is_reserved":false,"is_disabled":false,"rental_uris":{"android":"levelo://app?vid=bd448f3f-de5e-49bd-b8a0-14472dcc752a","ios":"levelo://app?vid=bd448f3f-de5e-49bd-b8a0-14472dcc752a"},"vehicle_type_id":"4","last_reported":1766078122,"current_range_meters":3200,"station_id":"ce4bguh2rcd13ifvqcj0","pricing_plan_id":"cebpf4jnsgd1na2vs0mg"},{"bike_id":"e93a380f-9914-4fef-bb46-ae14628a2d0d","system_id":"levelo_inurba_marseille","lat":43.31765,"lon":5.40551,"is_reserved":false,"is_disabled":false,"rental_uris":{"android":"levelo://app?vid=e93a380f-9914-4fef-bb46-ae14628a2d0d","ios":"levelo://app?vid=e93a380f-9914-4fef-bb46-ae14628a2d0d"},"vehicle_type_id":"4","last_reported":1766078122,"current_range_meters":3600,"station_id":"","pricing_plan_id":"cebpf4jnsgd1na2vs0mg"},{"bike_id":"075753f2-03fc-482d-992a-1a659c9f27f8","system_id":"levelo_inurba_marseille","lat":43.28218,"lon":5.34909,"is_reserved":false,"is_disabled":false,"rental_uris":{"android":"levelo://app?vid=075753f2-03fc-482d-992a-1a659c9f27f8","ios":"levelo://app?vid=075753f2-03fc-482d-992a-1a659c9f27f8"},"vehicle_type_id":"4","last_reported":1766078122,"current_range_meters":3600,"station_id":"","pricing_plan_id":"cebpf4jnsgd1na2vs0mg"},{"bike_id":"7a230ab7-a115-48d2-8cd3-07c6cac0effc","system_id":"levelo_inurba_marseille","lat":43.28613,"lon":5.35101,"is_reserved":false,"is_disabled":false,"rental_uris":{"android":"levelo://app?vid=7a230ab7-a115-48d2-8cd3-07c6cac0effc","ios":"levelo://app?vid=7a230ab7-a115-48d2-8cd3-07c6cac0effc"},"vehicle_type_id":"4","last_reported":1766078122,"current_range_meters":3600,"station_id":"ce4bhch2rcd13ifvqeug","pricing_plan_id":"cebpf4jnsgd1na2vs0mg"},{"bike_id":"841d168f-3890-4dd8-a60a-0852ae3fc4a1","system_id":"levelo_inurba_marseille","lat":43.30275,"lon":5.37254,"is_reserved":false,"is_disabled":false,"rental_uris":{"android":"levelo://app?vid=841d168f-3890-4dd8-a60a-0852ae3fc4a1","ios":"levelo://app?vid=841d168f-3890-4dd8-a60a-0852ae3fc4a1"},"vehicle_type_id":"4","last_reported":1766078122,"current_range_meters":3600,"station_id":"","pricing_plan_id":"cebpf4jnsgd1na2vs0mg"},{"bike_id":"930acca1-9bf2-4c82-b5e9-e69943f9d0bc","system_id":"levelo_inurba_marseille","lat":43.25112,"lon":5.4032,"is_reserved":false,"is_disabled":false,"rental_uris":{"android":"levelo://app?vid=930acca1-9bf2-4c82-b5e9-e69943f9d0bc","ios":"levelo://app?vid=930acca1-9bf2-4c82-b5e9-e69943f9d0bc"},"vehicle_type_id":"4","last_reported":1766078122,"current_range_meters":3600,"station_id":"ce4bhlh2rcd13ifvqgig","pricing_plan_id":"cebpf4jnsgd1na2vs0mg"},{"bike_id":"d5c6fa74-6555-4e9a-b747-1273f1992163","system_id":"levelo_inurba_marseille","lat":43.3018,"lon":5.36313,"is_reserved":false,"is_disabled":false,"rental_uris":{"android":"levelo://app?vid=d5c6fa74-6555-4e9a-b747-1273f1992163","ios":"levelo://app?vid=d5c6fa74-6555-4e9a-b747-1273f1992163"},"vehicle_type_id":"4","last_reported":1766078122,"current_range_meters":3600,"station_id":"","pricing_plan_id":"cebpf4jnsgd1na2vs0mg"},{"bike_id":"4f60ed54-c535-4654-8e19-dc2b49b3a8cf","system_id":"levelo_inurba_marseille","lat":43.29021,"lon":5.38132,"is_reserved":false,"is_disabled":false,"rental_uris":{"android":"levelo://app?vid=4f60ed54-c535-4654-8e19-dc2b49b3a8cf","ios":"levelo://app?vid=4f60ed54-c535-4654-8e19-dc2b49b3a8cf"},"vehicle_type_id":"4","last_reported":1766078122,"current_range_meters":4000,"station_id":"ce4bh4p2rcd13ifvqe1g","pricing_plan_id":"cebpf4jnsgd1na2vs0mg"},{"bike_id":"f5e134f7-8b1b-4513-8f19-91c3b45c2d03","system_id":"levelo_inurba_marseille","lat":43.249488,"lon":5.404869,"is_reserved":false,"is_disabled":false,"rental_uris":{"android":"levelo://app?vid=f5e134f7-8b1b-4513-8f19-91c3b45c2d03","ios":"levelo://app?vid=f5e134f7-8b1b-4513-8f19-91c3b45c2d03"},"vehicle_type_id":"4","last_reported":1766078122,"current_range_meters":4000,"station_id":"st_d2ngiaodas8pm72gd1h0","pricing_plan_id":"cebpf4jnsgd1na2vs0mg"},{"bike_id":"46f953ce-a930-4ec9-b6c1-e54d3ddf5b41","system_id":"levelo_inurba_marseille","lat":43.26485,"lon":5.39548,"is_reserved":false,"is_disabled":false,"rental_uris":{"android":"levelo://app?vid=46f953ce-a930-4ec9-b6c1-e54d3ddf5b41","ios":"levelo://app?vid=46f953ce-a930-4ec9-b6c1-e54d3ddf5b41"},"vehicle_type_id":"4","last_reported":1766078122,"current_range_meters":4000,"station_id":"ce4bhi12rcd13ifvqfq0","pricing_plan_id":"cebpf4jnsgd1na2vs0mg"},{"bike_id":"39155204-1342-4c68-978b-cd5c51e7cf47","system_id":"levelo_inurba_marseille","lat":43.24464,"lon":5.4253,"is_reserved":false,"is_disabled":false,"rental_uris":{"android":"levelo://app?vid=39155204-1342-4c68-978b-cd5c51e7cf47","ios":"levelo://app?vid=39155204-1342-4c68-978b-cd5c51e7cf47"},"vehicle_type_id":"4","last_reported":1766078122,"current_range_meters":4000,"station_id":"st_d4a3vfp97mjs738cd8kg","pricing_plan_id":"cebpf4jnsgd1na2vs0mg"},{"bike_id":"492da65e-4321-4fdf-9e41-d241e843c708","system_id":"levelo_inurba_marseille","lat":43.29601,"lon":5.38101,"is_reserved":false,"is_disabled":false,"rental_uris":{"android":"levelo://app?vid=492da65e-4321-4fdf-9e41-d241e843c708","ios":"levelo://app?vid=492da65e-4321-4fdf-9e41-d241e843c708"},"vehicle_type_id":"4","last_reported":1766078122,"current_range_meters":4000,"station_id":"ce4bgl12rcd13ifvqbo0","pricing_plan_id":"cebpf4jnsgd1na2vs0mg"},{"bike_id":"846ba82f-b80b-4118-ba94-f1f7e836af7f","system_id":"levelo_inurba_marseille","lat":43.33757,"lon":5.374367,"is_reserved":false,"is_disabled":false,"rental_uris":{"android":"levelo://app?vid=846ba82f-b80b-4118-ba94-f1f7e836af7f","ios":"levelo://app?vid=846ba82f-b80b-4118-ba94-f1f7e836af7f"},"vehicle_type_id":"4","last_reported":1766078122,"current_range_meters":4400,"station_id":"","pricing_plan_id":"cebpf4jnsgd1na2vs0mg"},{"bike_id":"04aadaa9-8f9b-4247-ad57-f8dabd0adce7","system_id":"levelo_inurba_marseille","lat":43.29753,"lon":5.38128,"is_reserved":false,"is_disabled":false,"rental_uris":{"android":"levelo://app?vid=04aadaa9-8f9b-4247-ad57-f8dabd0adce7","ios":"levelo://app?vid=04aadaa9-8f9b-4247-ad57-f8dabd0adce7"},"vehicle_type_id":"4","last_reported":1766078122,"current_range_meters":4400,"station_id":"","pricing_plan_id":"cebpf4jnsgd1na2vs0mg"},{"bike_id":"495cef5a-88fa-46e0-995f-faa9f9da9e27","system_id":"levelo_inurba_marseille","lat":43.28459,"lon":5.35883,"is_reserved":false,"is_disabled":false,"rental_uris":{"android":"levelo://app?vid=495cef5a-88fa-46e0-995f-faa9f9da9e27","ios":"levelo://app?vid=495cef5a-88fa-46e0-995f-faa9f9da9e27"},"vehicle_type_id":"4","last_reported":1766078122,"current_range_meters":4400,"station_id":"ce4bhah2rcd13ifvqei0","pricing_plan_id":"cebpf4jnsgd1na2vs0mg"},{"bike_id":"2aacb9f9-3e64-479b-ade3-07890d31b197","system_id":"levelo_inurba_marseille","lat":43.28263,"lon":5.35071,"is_reserved":false,"is_disabled":false,"rental_uris":{"android":"levelo://app?vid=2aacb9f9-3e64-479b-ade3-07890d31b197","ios":"levelo://app?vid=2aacb9f9-3e64-479b-ade3-07890d31b197"},"vehicle_type_id":"4","last_reported":1766078122,"current_range_meters":4800,"station_id":"ce4bhbp2rcd13ifvqerg","pricing_plan_id":"cebpf4jnsgd1na2vs0mg"},{"bike_id":"8e302cd9-ff59-4db6-8b1d-4618f2a7d323","system_id":"levelo_inurba_marseille","lat":43.30132,"lon":5.38789,"is_reserved":false,"is_disabled":false,"rental_uris":{"android":"levelo://app?vid=8e302cd9-ff59-4db6-8b1d-4618f2a7d323","ios":"levelo://app?vid=8e302cd9-ff59-4db6-8b1d-4618f2a7d323"},"vehicle_type_id":"4","last_reported":1766078122,"current_range_meters":4800,"station_id":"ce4bghh2rcd13ifvqb60","pricing_plan_id":"cebpf4jnsgd1na2vs0mg"},{"bike_id":"32b9731e-61fc-463f-a3bd-bedd14cbe273","system_id":"levelo_inurba_marseille","lat":43.27061,"lon":5.40263,"is_reserved":false,"is_disabled":false,"rental_uris":{"android":"levelo://app?vid=32b9731e-61fc-463f-a3bd-bedd14cbe273","ios":"levelo://app?vid=32b9731e-61fc-463f-a3bd-bedd14cbe273"},"vehicle_type_id":"4","last_reported":1766078122,"current_range_meters":4800,"station_id":"ce4bhk92rcd13ifvqgc0","pricing_plan_id":"cebpf4jnsgd1na2vs0mg"},{"bike_id":"6214551b-cff6-4307-a783-229e95907d74","system_id":"levelo_inurba_marseille","lat":43.290969,"lon":5.381119,"is_reserved":false,"is_disabled":false,"rental_uris":{"android":"levelo://app?vid=6214551b-cff6-4307-a783-229e95907d74","ios":"levelo://app?vid=6214551b-cff6-4307-a783-229e95907d74"},"vehicle_type_id":"4","last_reported":1766078122,"current_range_meters":4800,"station_id":"ce4bh512rcd13ifvqe2g","pricing_plan_id":"cebpf4jnsgd1na2vs0mg"},{"bike_id":"f494a7f6-b7e3-450e-957b-4d749842060e","system_id":"levelo_inurba_marseille","lat":43.30431,"lon":5.38884,"is_reserved":false,"is_disabled":false,"rental_uris":{"android":"levelo://app?vid=f494a7f6-b7e3-450e-957b-4d749842060e","ios":"levelo://app?vid=f494a7f6-b7e3-450e-957b-4d749842060e"},"vehicle_type_id":"4","last_reported":1766078122,"current_range_meters":4800,"station_id":"ce4bgk12rcd13ifvqbi0","pricing_plan_id":"cebpf4jnsgd1na2vs0mg"},{"bike_id":"0ff08a23-8262-4513-8738-839bfe32d134","system_id":"levelo_inurba_marseille","lat":43.270651,"lon":5.402885,"is_reserved":false,"is_disabled":false,"rental_uris":{"android":"levelo://app?vid=0ff08a23-8262-4513-8738-839bfe32d134","ios":"levelo://app?vid=0ff08a23-8262-4513-8738-839bfe32d134"},"vehicle_type_id":"4","last_reported":1766078122,"current_range_meters":4800,"station_id":"ce4bhk92rcd13ifvqgc0","pricing_plan_id":"cebpf4jnsgd1na2vs0mg"},{"bike_id":"99d8ea02-e747-4c23-aa82-fb9ccdafa88a","system_id":"levelo_inurba_marseille","lat":43.25087,"lon":5.39521,"is_reserved":false,"is_disabled":false,"rental_uris":{"android":"levelo://app?vid=99d8ea02-e747-4c23-aa82-fb9ccdafa88a","ios":"levelo://app?vid=99d8ea02-e747-4c23-aa82-fb9ccdafa88a"},"vehicle_type_id":"4","last_reported":1766078122,"current_range_meters":5600,"station_id":"ce4bhm12rcd13ifvqgkg","pricing_plan_id":"cebpf4jnsgd1na2vs0mg"},{"bike_id":"f5b83fc4-f6e6-4fdf-908b-ba258cd66026","system_id":"levelo_inurba_marseille","lat":43.2495,"lon":5.40483,"is_reserved":false,"is_disabled":false,"rental_uris":{"android":"levelo://app?vid=f5b83fc4-f6e6-4fdf-908b-ba258cd66026","ios":"levelo://app?vid=f5b83fc4-f6e6-4fdf-908b-ba258cd66026"},"vehicle_type_id":"4","last_reported":1766078122,"current_range_meters":5600,"station_id":"st_d2ngiaodas8pm72gd1h0","pricing_plan_id":"cebpf4jnsgd1na2vs0mg"},{"bike_id":"2dd54215-2181-4cfc-b1cb-0a99ed9f26e8","system_id":"levelo_inurba_marseille","lat":43.268825,"lon":5.393592,"is_reserved":false,"is_disabled":false,"rental_uris":{"android":"levelo://app?vid=2dd54215-2181-4cfc-b1cb-0a99ed9f26e8","ios":"levelo://app?vid=2dd54215-2181-4cfc-b1cb-0a99ed9f26e8"},"vehicle_type_id":"4","last_reported":1766078122,"current_range_meters":5600,"station_id":"ce4bhh12rcd13ifvqfg0","pricing_plan_id":"cebpf4jnsgd1na2vs0mg"},{"bike_id":"5f323874-1d1c-475d-b335-5b7c5dba6659","system_id":"levelo_inurba_marseille","lat":43.31691,"lon":5.40475,"is_reserved":false,"is_disabled":false,"rental_uris":{"android":"levelo://app?vid=5f323874-1d1c-475d-b335-5b7c5dba6659","ios":"levelo://app?vid=5f323874-1d1c-475d-b335-5b7c5dba6659"},"vehicle_type_id":"4","last_reported":1766078122,"current_range_meters":5600,"station_id":"ce4bh012rcd13ifvqd00","pricing_plan_id":"cebpf4jnsgd1na2vs0mg"},{"bike_id":"421429dd-cc7d-47ec-9c23-d069c5b26c89","system_id":"levelo_inurba_marseille","lat":43.29698,"lon":5.37109,"is_reserved":false,"is_disabled":false,"rental_uris":{"android":"levelo://app?vid=421429dd-cc7d-47ec-9c23-d069c5b26c89","ios":"levelo://app?vid=421429dd-cc7d-47ec-9c23-d069c5b26c89"},"vehicle_type_id":"4","last_reported":1766078122,"current_range_meters":5600,"station_id":"","pricing_plan_id":"cebpf4jnsgd1na2vs0mg"},{"bike_id":"3adc873c-e3c5-4486-925b-fca972606d3c","system_id":"levelo_inurba_marseille","lat":43.28933,"lon":5.36641,"is_reserved":false,"is_disabled":false,"rental_uris":{"android":"levelo://app?vid=3adc873c-e3c5-4486-925b-fca972606d3c","ios":"levelo://app?vid=3adc873c-e3c5-4486-925b-fca972606d3c"},"vehicle_type_id":"4","last_reported":1766078122,"current_range_meters":6000,"station_id":"ce4bhap2rcd13ifvqek0","pricing_plan_id":"cebpf4jnsgd1na2vs0mg"},{"bike_id":"88031236-6a40-4d32-a503-adc00e8f1b31","system_id":"levelo_inurba_marseille","lat":43.33767,"lon":5.374479,"is_reserved":false,"is_disabled":false,"rental_uris":{"android":"levelo://app?vid=88031236-6a40-4d32-a503-adc00e8f1b31","ios":"levelo://app?vid=88031236-6a40-4d32-a503-adc00e8f1b31"},"vehicle_type_id":"4","last_reported":1766078122,"current_range_meters":6000,"station_id":"","pricing_plan_id":"cebpf4jnsgd1na2vs0mg"},{"bike_id":"cc178787-4e27-477e-85ac-bb874f1df1de","system_id":"levelo_inurba_marseille","lat":43.2733,"lon":5.41054,"is_reserved":false,"is_disabled":false,"rental_uris":{"android":"levelo://app?vid=cc178787-4e27-477e-85ac-bb874f1df1de","ios":"levelo://app?vid=cc178787-4e27-477e-85ac-bb874f1df1de"},"vehicle_type_id":"4","last_reported":1766078122,"current_range_meters":6000,"station_id":"","pricing_plan_id":"cebpf4jnsgd1na2vs0mg"},{"bike_id":"3aa9d567-def4-4607-a9a8-80f536af5468","system_id":"levelo_inurba_marseille","lat":43.27913,"lon":5.39582,"is_reserved":false,"is_disabled":false,"rental_uris":{"android":"levelo://app?vid=3aa9d567-def4-4607-a9a8-80f536af5468","ios":"levelo://app?vid=3aa9d567-def4-4607-a9a8-80f536af5468"},"vehicle_type_id":"4","last_reported":1766078122,"current_range_meters":6400,"station_id":"ce4bhf92rcd13ifvqf40","pricing_plan_id":"cebpf4jnsgd1na2vs0mg"},{"bike_id":"93d341fb-2a47-4c4a-b018-c622d2d74e69","system_id":"levelo_inurba_marseille","lat":43.31066,"lon":5.38351,"is_reserved":false,"is_disabled":false,"rental_uris":{"android":"levelo://app?vid=93d341fb-2a47-4c4a-b018-c622d2d74e69","ios":"levelo://app?vid=93d341fb-2a47-4c4a-b018-c622d2d74e69"},"vehicle_type_id":"4","last_reported":1766078122,"current_range_meters":6400,"station_id":"ce4bgv92rcd13ifvqcr0","pricing_plan_id":"cebpf4jnsgd1na2vs0mg"},{"bike_id":"061e9c29-61f4-46d1-a44a-963e596932dc","system_id":"levelo_inurba_marseille","lat":43.295155,"lon":5.390623,"is_reserved":false,"is_disabled":false,"rental_uris":{"android":"levelo://app?vid=061e9c29-61f4-46d1-a44a-963e596932dc","ios":"levelo://app?vid=061e9c29-61f4-46d1-a44a-963e596932dc"},"vehicle_type_id":"4","last_reported":1766078122,"current_range_meters":6400,"station_id":"ce4bh3p2rcd13ifvqdp0","pricing_plan_id":"cebpf4jnsgd1na2vs0mg"},{"bike_id":"7b731db6-4d1d-4436-a5a7-145a686e0639","system_id":"levelo_inurba_marseille","lat":43.31071,"lon":5.38356,"is_reserved":false,"is_disabled":false,"rental_uris":{"android":"levelo://app?vid=7b731db6-4d1d-4436-a5a7-145a686e0639","ios":"levelo://app?vid=7b731db6-4d1d-4436-a5a7-145a686e0639"},"vehicle_type_id":"4","last_reported":1766078122,"current_range_meters":6400,"station_id":"ce4bgv92rcd13ifvqcr0","pricing_plan_id":"cebpf4jnsgd1na2vs0mg"},{"bike_id":"4d4a609f-fc61-4268-af29-20a1a3688ae7","system_id":"levelo_inurba_marseille","lat":43.26224,"lon":5.40455,"is_reserved":false,"is_disabled":false,"rental_uris":{"android":"levelo://app?vid=4d4a609f-fc61-4268-af29-20a1a3688ae7","ios":"levelo://app?vid=4d4a609f-fc61-4268-af29-20a1a3688ae7"},"vehicle_type_id":"4","last_reported":1766078122,"current_range_meters":6400,"station_id":"ce4bhmh2rcd13ifvqgmg","pricing_plan_id":"cebpf4jnsgd1na2vs0mg"},{"bike_id":"54ffb72a-e477-4067-af21-c09d46a1d071","system_id":"levelo_inurba_marseille","lat":43.30424,"lon":5.38893,"is_reserved":false,"is_disabled":false,"rental_uris":{"android":"levelo://app?vid=54ffb72a-e477-4067-af21-c09d46a1d071","ios":"levelo://app?vid=54ffb72a-e477-4067-af21-c09d46a1d071"},"vehicle_type_id":"4","last_reported":1766078122,"current_range_meters":6400,"station_id":"ce4bgk12rcd13ifvqbi0","pricing_plan_id":"cebpf4jnsgd1na2vs0mg"},{"bike_id":"55e5170b-fdeb-4338-9223-62f56cdc2fab","system_id":"levelo_inurba_marseille","lat":43.24999,"lon":5.38927,"is_reserved":false,"is_disabled":false,"rental_uris":{"android":"levelo://app?vid=55e5170b-fdeb-4338-9223-62f56cdc2fab","ios":"levelo://app?vid=55e5170b-fdeb-4338-9223-62f56cdc2fab"},"vehicle_type_id":"4","last_reported":1766078122,"current_range_meters":6400,"station_id":"ce4bhgp2rcd13ifvqfd0","pricing_plan_id":"cebpf4jnsgd1na2vs0mg"},{"bike_id":"b9e289e9-e1d8-4db9-8eeb-d4ae6610e1bb","system_id":"levelo_inurba_marseille","lat":43.28864,"lon":5.42513,"is_reserved":false,"is_disabled":false,"rental_uris":{"android":"levelo://app?vid=b9e289e9-e1d8-4db9-8eeb-d4ae6610e1bb","ios":"levelo://app?vid=b9e289e9-e1d8-4db9-8eeb-d4ae6610e1bb"},"vehicle_type_id":"4","last_reported":1766078122,"current_range_meters":6800,"station_id":"st_d3b462108ojc7389ooeg","pricing_plan_id":"cebpf4jnsgd1na2vs0mg"},{"bike_id":"bd74875e-d2f9-48ae-a3cf-be14db513638","system_id":"levelo_inurba_marseille","lat":43.29261,"lon":5.38444,"is_reserved":false,"is_disabled":false,"rental_uris":{"android":"levelo://app?vid=bd74875e-d2f9-48ae-a3cf-be14db513638","ios":"levelo://app?vid=bd74875e-d2f9-48ae-a3cf-be14db513638"},"vehicle_type_id":"4","last_reported":1766078122,"current_range_meters":6800,"station_id":"ce4bh692rcd13ifvqea0","pricing_plan_id":"cebpf4jnsgd1na2vs0mg"},{"bike_id":"f1f74614-33ac-441f-af80-d784b5e55bd2","system_id":"levelo_inurba_marseille","lat":43.32956,"lon":5.3979,"is_reserved":false,"is_disabled":false,"rental_uris":{"android":"levelo://app?vid=f1f74614-33ac-441f-af80-d784b5e55bd2","ios":"levelo://app?vid=f1f74614-33ac-441f-af80-d784b5e55bd2"},"vehicle_type_id":"4","last_reported":1766078122,"current_range_meters":6800,"station_id":"","pricing_plan_id":"cebpf4jnsgd1na2vs0mg"},{"bike_id":"a1ac0ba7-1483-464e-9caa-755fc64f46a4","system_id":"levelo_inurba_marseille","lat":43.24064,"lon":5.37824,"is_reserved":false,"is_disabled":false,"rental_uris":{"android":"levelo://app?vid=a1ac0ba7-1483-464e-9caa-755fc64f46a4","ios":"levelo://app?vid=a1ac0ba7-1483-464e-9caa-755fc64f46a4"},"vehicle_type_id":"4","last_reported":1766078122,"current_range_meters":6800,"station_id":"","pricing_plan_id":"cebpf4jnsgd1na2vs0mg"},{"bike_id":"2e9b2c62-fae8-4d2e-90ca-5f796bac6f1b","system_id":"levelo_inurba_marseille","lat":43.31274,"lon":5.40168,"is_reserved":false,"is_disabled":false,"rental_uris":{"android":"levelo://app?vid=2e9b2c62-fae8-4d2e-90ca-5f796bac6f1b","ios":"levelo://app?vid=2e9b2c62-fae8-4d2e-90ca-5f796bac6f1b"},"vehicle_type_id":"4","last_reported":1766078122,"current_range_meters":6800,"station_id":"ce4bh092rcd13ifvqd30","pricing_plan_id":"cebpf4jnsgd1na2vs0mg"},{"bike_id":"35c124c5-1b5c-4613-bd65-6771d0011859","system_id":"levelo_inurba_marseille","lat":43.27332,"lon":5.39076,"is_reserved":false,"is_disabled":false,"rental_uris":{"android":"levelo://app?vid=35c124c5-1b5c-4613-bd65-6771d0011859","ios":"levelo://app?vid=35c124c5-1b5c-4613-bd65-6771d0011859"},"vehicle_type_id":"4","last_reported":1766078122,"current_range_meters":6800,"station_id":"ce4bhgp2rcd13ifvqfe0","pricing_plan_id":"cebpf4jnsgd1na2vs0mg"},{"bike_id":"e7339c47-66c5-42a7-89da-ea15da141669","system_id":"levelo_inurba_marseille","lat":43.29258,"lon":5.40911,"is_reserved":false,"is_disabled":false,"rental_uris":{"android":"levelo://app?vid=e7339c47-66c5-42a7-89da-ea15da141669","ios":"levelo://app?vid=e7339c47-66c5-42a7-89da-ea15da141669"},"vehicle_type_id":"4","last_reported":1766078122,"current_range_meters":6800,"station_id":"ce4bh192rcd13ifvqdc0","pricing_plan_id":"cebpf4jnsgd1na2vs0mg"},{"bike_id":"07102bbf-8e43-4cc8-abfb-b7bffaf00185","system_id":"levelo_inurba_marseille","lat":43.293816,"lon":5.362675,"is_reserved":false,"is_disabled":false,"rental_uris":{"android":"levelo://app?vid=07102bbf-8e43-4cc8-abfb-b7bffaf00185","ios":"levelo://app?vid=07102bbf-8e43-4cc8-abfb-b7bffaf00185"},"vehicle_type_id":"4","last_reported":1766078122,"current_range_meters":7200,"station_id":"","pricing_plan_id":"cebpf4jnsgd1na2vs0mg"},{"bike_id":"a2e1a2db-c148-4733-8d7b-25c0725376e5","system_id":"levelo_inurba_marseille","lat":43.24475,"lon":5.42542,"is_reserved":false,"is_disabled":false,"rental_uris":{"android":"levelo://app?vid=a2e1a2db-c148-4733-8d7b-25c0725376e5","ios":"levelo://app?vid=a2e1a2db-c148-4733-8d7b-25c0725376e5"},"vehicle_type_id":"4","last_reported":1766078122,"current_range_meters":7200,"station_id":"st_d4a3vfp97mjs738cd8kg","pricing_plan_id":"cebpf4jnsgd1na2vs0mg"},{"bike_id":"c7e5daf3-a6b0-4ffc-8e95-134c47362fa1","system_id":"levelo_inurba_marseille","lat":43.30105,"lon":5.36871,"is_reserved":false,"is_disabled":false,"rental_uris":{"android":"levelo://app?vid=c7e5daf3-a6b0-4ffc-8e95-134c47362fa1","ios":"levelo://app?vid=c7e5daf3-a6b0-4ffc-8e95-134c47362fa1"},"vehicle_type_id":"4","last_reported":1766078122,"current_range_meters":7200,"station_id":"","pricing_plan_id":"cebpf4jnsgd1na2vs0mg"},{"bike_id":"50e6eefe-8aea-4054-ab8f-87d6e301ff34","system_id":"levelo_inurba_marseille","lat":43.243017,"lon":5.438235,"is_reserved":false,"is_disabled":false,"rental_uris":{"android":"levelo://app?vid=50e6eefe-8aea-4054-ab8f-87d6e301ff34","ios":"levelo://app?vid=50e6eefe-8aea-4054-ab8f-87d6e301ff34"},"vehicle_type_id":"4","last_reported":1766078122,"current_range_meters":7200,"station_id":"","pricing_plan_id":"cebpf4jnsgd1na2vs0mg"},{"bike_id":"730c4c51-e096-4a22-8f67-075ae78e9756","system_id":"levelo_inurba_marseille","lat":43.2845,"lon":5.35897,"is_reserved":false,"is_disabled":false,"rental_uris":{"android":"levelo://app?vid=730c4c51-e096-4a22-8f67-075ae78e9756","ios":"levelo://app?vid=730c4c51-e096-4a22-8f67-075ae78e9756"},"vehicle_type_id":"4","last_reported":1766078122,"current_range_meters":7200,"station_id":"ce4bhah2rcd13ifvqei0","pricing_plan_id":"cebpf4jnsgd1na2vs0mg"},{"bike_id":"f1ed6c17-2af9-4a30-bec5-0d1cd2d0b806","system_id":"levelo_inurba_marseille","lat":43.2815,"lon":5.42645,"is_reserved":false,"is_disabled":false,"rental_uris":{"android":"levelo://app?vid=f1ed6c17-2af9-4a30-bec5-0d1cd2d0b806","ios":"levelo://app?vid=f1ed6c17-2af9-4a30-bec5-0d1cd2d0b806"},"vehicle_type_id":"4","last_reported":1766078122,"current_range_meters":7200,"station_id":"ce4bhnh2rcd13ifvqgug","pricing_plan_id":"cebpf4jnsgd1na2vs0mg"},{"bike_id":"ad628d57-452c-45f3-8595-c7184b2b27b7","system_id":"levelo_inurba_marseille","lat":43.284777,"lon":5.394978,"is_reserved":false,"is_disabled":false,"rental_uris":{"android":"levelo://app?vid=ad628d57-452c-45f3-8595-c7184b2b27b7","ios":"levelo://app?vid=ad628d57-452c-45f3-8595-c7184b2b27b7"},"vehicle_type_id":"4","last_reported":1766078122,"current_range_meters":7200,"station_id":"","pricing_plan_id":"cebpf4jnsgd1na2vs0mg"},{"bike_id":"7b4475e9-d6ed-4667-a81e-266304e6a83a","system_id":"levelo_inurba_marseille","lat":43.29633,"lon":5.37717,"is_reserved":false,"is_disabled":false,"rental_uris":{"android":"levelo://app?vid=7b4475e9-d6ed-4667-a81e-266304e6a83a","ios":"levelo://app?vid=7b4475e9-d6ed-4667-a81e-266304e6a83a"},"vehicle_type_id":"4","last_reported":1766078122,"current_range_meters":7200,"station_id":"ce4bgi92rcd13ifvqb90","pricing_plan_id":"cebpf4jnsgd1na2vs0mg"},{"bike_id":"5d350928-85b5-4d28-9ae6-3f9b839bdec7","system_id":"levelo_inurba_marseille","lat":43.28459,"lon":5.35887,"is_reserved":false,"is_disabled":false,"rental_uris":{"android":"levelo://app?vid=5d350928-85b5-4d28-9ae6-3f9b839bdec7","ios":"levelo://app?vid=5d350928-85b5-4d28-9ae6-3f9b839bdec7"},"vehicle_type_id":"4","last_reported":1766078122,"current_range_meters":7200,"station_id":"ce4bhah2rcd13ifvqei0","pricing_plan_id":"cebpf4jnsgd1na2vs0mg"},{"bike_id":"08846695-4080-42ce-9b21-ab23109e6261","system_id":"levelo_inurba_marseille","lat":43.29628,"lon":5.406,"is_reserved":false,"is_disabled":false,"rental_uris":{"android":"levelo://app?vid=08846695-4080-42ce-9b21-ab23109e6261","ios":"levelo://app?vid=08846695-4080-42ce-9b21-ab23109e6261"},"vehicle_type_id":"4","last_reported":1766078122,"current_range_meters":8000,"station_id":"ce4bh0h2rcd13ifvqd60","pricing_plan_id":"cebpf4jnsgd1na2vs0mg"},{"bike_id":"a9adc8bf-52f1-4c31-a2de-42743dd086bf","system_id":"levelo_inurba_marseille","lat":43.33723,"lon":5.3748,"is_reserved":false,"is_disabled":false,"rental_uris":{"android":"levelo://app?vid=a9adc8bf-52f1-4c31-a2de-42743dd086bf","ios":"levelo://app?vid=a9adc8bf-52f1-4c31-a2de-42743dd086bf"},"vehicle_type_id":"4","last_reported":1766078122,"current_range_meters":8000,"station_id":"","pricing_plan_id":"cebpf4jnsgd1na2vs0mg"},{"bike_id":"8b84d44a-fd05-4999-a624-0cc9ba45d573","system_id":"levelo_inurba_marseille","lat":43.28078,"lon":5.39648,"is_reserved":false,"is_disabled":false,"rental_uris":{"android":"levelo://app?vid=8b84d44a-fd05-4999-a624-0cc9ba45d573","ios":"levelo://app?vid=8b84d44a-fd05-4999-a624-0cc9ba45d573"},"vehicle_type_id":"4","last_reported":1766078122,"current_range_meters":8000,"station_id":"ce4bho12rcd13ifvqh2g","pricing_plan_id":"cebpf4jnsgd1na2vs0mg"},{"bike_id":"0f73db62-89b2-4ee2-b997-7774bae84f2a","system_id":"levelo_inurba_marseille","lat":43.2926,"lon":5.37637,"is_reserved":false,"is_disabled":false,"rental_uris":{"android":"levelo://app?vid=0f73db62-89b2-4ee2-b997-7774bae84f2a","ios":"levelo://app?vid=0f73db62-89b2-4ee2-b997-7774bae84f2a"},"vehicle_type_id":"4","last_reported":1766078122,"current_range_meters":8000,"station_id":"ce4bgi12rcd13ifvqb80","pricing_plan_id":"cebpf4jnsgd1na2vs0mg"},{"bike_id":"9cb52630-f8b4-4ff3-9ddb-fd021bf763e2","system_id":"levelo_inurba_marseille","lat":43.29882,"lon":5.37118,"is_reserved":false,"is_disabled":false,"rental_uris":{"android":"levelo://app?vid=9cb52630-f8b4-4ff3-9ddb-fd021bf763e2","ios":"levelo://app?vid=9cb52630-f8b4-4ff3-9ddb-fd021bf763e2"},"vehicle_type_id":"4","last_reported":1766078122,"current_range_meters":8000,"station_id":"","pricing_plan_id":"cebpf4jnsgd1na2vs0mg"},{"bike_id":"9b3c1bf8-f5be-4435-b71e-f7b49c8d2f2d","system_id":"levelo_inurba_marseille","lat":43.25824,"lon":5.3942,"is_reserved":false,"is_disabled":false,"rental_uris":{"android":"levelo://app?vid=9b3c1bf8-f5be-4435-b71e-f7b49c8d2f2d","ios":"levelo://app?vid=9b3c1bf8-f5be-4435-b71e-f7b49c8d2f2d"},"vehicle_type_id":"4","last_reported":1766078122,"current_range_meters":8400,"station_id":"ce4bhip2rcd13ifvqft0","pricing_plan_id":"cebpf4jnsgd1na2vs0mg"},{"bike_id":"3fb8b576-8a4d-4d5d-b32c-f1d94f84d144","system_id":"levelo_inurba_marseille","lat":43.27959,"lon":5.38721,"is_reserved":false,"is_disabled":false,"rental_uris":{"android":"levelo://app?vid=3fb8b576-8a4d-4d5d-b32c-f1d94f84d144","ios":"levelo://app?vid=3fb8b576-8a4d-4d5d-b32c-f1d94f84d144"},"vehicle_type_id":"4","last_reported":1766078122,"current_range_meters":8400,"station_id":"ce4bhg12rcd13ifvqf80","pricing_plan_id":"cebpf4jnsgd1na2vs0mg"},{"bike_id":"00fd2dcb-6faf-4c7a-8c99-525909084655","system_id":"levelo_inurba_marseille","lat":43.28172,"lon":5.4264,"is_reserved":false,"is_disabled":true,"rental_uris":{"android":"levelo://app?vid=00fd2dcb-6faf-4c7a-8c99-525909084655","ios":"levelo://app?vid=00fd2dcb-6faf-4c7a-8c99-525909084655"},"vehicle_type_id":"4","last_reported":1766078122,"current_range_meters":8400,"station_id":"ce4bhnh2rcd13ifvqgug","pricing_plan_id":"cebpf4jnsgd1na2vs0mg"},{"bike_id":"3418b159-b86a-4a29-9eee-180d4aefe5dd","system_id":"levelo_inurba_marseille","lat":43.30326,"lon":5.40436,"is_reserved":false,"is_disabled":false,"rental_uris":{"android":"levelo://app?vid=3418b159-b86a-4a29-9eee-180d4aefe5dd","ios":"levelo://app?vid=3418b159-b86a-4a29-9eee-180d4aefe5dd"},"vehicle_type_id":"4","last_reported":1766078122,"current_range_meters":8400,"station_id":"ce4bh012rcd13ifvqd10","pricing_plan_id":"cebpf4jnsgd1na2vs0mg"},{"bike_id":"e1917803-7420-4cf7-9d71-6ebc5e65cf5d","system_id":"levelo_inurba_marseille","lat":43.26516,"lon":5.395375,"is_reserved":false,"is_disabled":false,"rental_uris":{"android":"levelo://app?vid=e1917803-7420-4cf7-9d71-6ebc5e65cf5d","ios":"levelo://app?vid=e1917803-7420-4cf7-9d71-6ebc5e65cf5d"},"vehicle_type_id":"4","last_reported":1766078122,"current_range_meters":8400,"station_id":"ce4bhih2rcd13ifvqfr0","pricing_plan_id":"cebpf4jnsgd1na2vs0mg"},{"bike_id":"17753031-54fb-4bd4-8874-d9a69f93bdc8","system_id":"levelo_inurba_marseille","lat":43.29255,"lon":5.38441,"is_reserved":false,"is_disabled":false,"rental_uris":{"android":"levelo://app?vid=17753031-54fb-4bd4-8874-d9a69f93bdc8","ios":"levelo://app?vid=17753031-54fb-4bd4-8874-d9a69f93bdc8"},"vehicle_type_id":"4","last_reported":1766078122,"current_range_meters":8400,"station_id":"ce4bh692rcd13ifvqea0","pricing_plan_id":"cebpf4jnsgd1na2vs0mg"},{"bike_id":"8848470f-475e-43e5-a1b9-434dedcfd335","system_id":"levelo_inurba_marseille","lat":43.25823,"lon":5.39431,"is_reserved":false,"is_disabled":false,"rental_uris":{"android":"levelo://app?vid=8848470f-475e-43e5-a1b9-434dedcfd335","ios":"levelo://app?vid=8848470f-475e-43e5-a1b9-434dedcfd335"},"vehicle_type_id":"4","last_reported":1766078122,"current_range_meters":8400,"station_id":"ce4bhip2rcd13ifvqft0","pricing_plan_id":"cebpf4jnsgd1na2vs0mg"},{"bike_id":"25fc7267-7d45-4147-9193-14d133583efe","system_id":"levelo_inurba_marseille","lat":43.25715,"lon":5.41091,"is_reserved":false,"is_disabled":false,"rental_uris":{"android":"levelo://app?vid=25fc7267-7d45-4147-9193-14d133583efe","ios":"levelo://app?vid=25fc7267-7d45-4147-9193-14d133583efe"},"vehicle_type_id":"4","last_reported":1766078122,"current_range_meters":8400,"station_id":"ce4bhkp2rcd13ifvqgd0","pricing_plan_id":"cebpf4jnsgd1na2vs0mg"},{"bike_id":"7305193b-d2f0-4cb9-8f6c-950818aeafce","system_id":"levelo_inurba_marseille","lat":43.28408,"lon":5.37515,"is_reserved":false,"is_disabled":false,"rental_uris":{"android":"levelo://app?vid=7305193b-d2f0-4cb9-8f6c-950818aeafce","ios":"levelo://app?vid=7305193b-d2f0-4cb9-8f6c-950818aeafce"},"vehicle_type_id":"4","last_reported":1766078122,"current_range_meters":8400,"station_id":"ce4bh412rcd13ifvqds0","pricing_plan_id":"cebpf4jnsgd1na2vs0mg"},{"bike_id":"c5c3df88-2fe3-4755-a2ea-4cd36eaea4d0","system_id":"levelo_inurba_marseille","lat":43.28478,"lon":5.38414,"is_reserved":false,"is_disabled":true,"rental_uris":{"android":"levelo://app?vid=c5c3df88-2fe3-4755-a2ea-4cd36eaea4d0","ios":"levelo://app?vid=c5c3df88-2fe3-4755-a2ea-4cd36eaea4d0"},"vehicle_type_id":"4","last_reported":1766078122,"current_range_meters":8800,"station_id":"ce4bh512rcd13ifvqe3g","pricing_plan_id":"cebpf4jnsgd1na2vs0mg"},{"bike_id":"30ef4240-99f6-4f75-a9b6-2c15622a7da4","system_id":"levelo_inurba_marseille","lat":43.299126,"lon":5.381487,"is_reserved":false,"is_disabled":false,"rental_uris":{"android":"levelo://app?vid=30ef4240-99f6-4f75-a9b6-2c15622a7da4","ios":"levelo://app?vid=30ef4240-99f6-4f75-a9b6-2c15622a7da4"},"vehicle_type_id":"4","last_reported":1766078122,"current_range_meters":8800,"station_id":"ce4bgj12rcd13ifvqbc0","pricing_plan_id":"cebpf4jnsgd1na2vs0mg"},{"bike_id":"9cd0b5cd-982d-46c9-b94d-972458c0583a","system_id":"levelo_inurba_marseille","lat":43.306258,"lon":5.373708,"is_reserved":false,"is_disabled":false,"rental_uris":{"android":"levelo://app?vid=9cd0b5cd-982d-46c9-b94d-972458c0583a","ios":"levelo://app?vid=9cd0b5cd-982d-46c9-b94d-972458c0583a"},"vehicle_type_id":"4","last_reported":1766078122,"current_range_meters":8800,"station_id":"","pricing_plan_id":"cebpf4jnsgd1na2vs0mg"},{"bike_id":"ebcd0d10-df3c-4e1d-91fb-3b7f9f34f179","system_id":"levelo_inurba_marseille","lat":43.298785,"lon":5.397263,"is_reserved":false,"is_disabled":false,"rental_uris":{"android":"levelo://app?vid=ebcd0d10-df3c-4e1d-91fb-3b7f9f34f179","ios":"levelo://app?vid=ebcd0d10-df3c-4e1d-91fb-3b7f9f34f179"},"vehicle_type_id":"4","last_reported":1766078122,"current_range_meters":8800,"station_id":"ce4bh0h2rcd13ifvqd50","pricing_plan_id":"cebpf4jnsgd1na2vs0mg"},{"bike_id":"b9dc569b-2ddb-4250-9aea-cef9ec0fb291","system_id":"levelo_inurba_marseille","lat":43.29842,"lon":5.3628,"is_reserved":false,"is_disabled":false,"rental_uris":{"android":"levelo://app?vid=b9dc569b-2ddb-4250-9aea-cef9ec0fb291","ios":"levelo://app?vid=b9dc569b-2ddb-4250-9aea-cef9ec0fb291"},"vehicle_type_id":"4","last_reported":1766078122,"current_range_meters":8800,"station_id":"ce4bgpp2rcd13ifvqc3g","pricing_plan_id":"cebpf4jnsgd1na2vs0mg"},{"bike_id":"a474f569-93b6-408e-90c8-4c5a2064fccb","system_id":"levelo_inurba_marseille","lat":43.250022,"lon":5.389162,"is_reserved":false,"is_disabled":false,"rental_uris":{"android":"levelo://app?vid=a474f569-93b6-408e-90c8-4c5a2064fccb","ios":"levelo://app?vid=a474f569-93b6-408e-90c8-4c5a2064fccb"},"vehicle_type_id":"4","last_reported":1766078122,"current_range_meters":8800,"station_id":"ce4bhgp2rcd13ifvqfd0","pricing_plan_id":"cebpf4jnsgd1na2vs0mg"},{"bike_id":"c895eb04-f8bf-4c0d-b3c0-229d2a7b7016","system_id":"levelo_inurba_marseille","lat":43.297107,"lon":5.365999,"is_reserved":false,"is_disabled":false,"rental_uris":{"android":"levelo://app?vid=c895eb04-f8bf-4c0d-b3c0-229d2a7b7016","ios":"levelo://app?vid=c895eb04-f8bf-4c0d-b3c0-229d2a7b7016"},"vehicle_type_id":"4","last_reported":1766078122,"current_range_meters":8800,"station_id":"ce4bh412rcd13ifvqds0","pricing_plan_id":"cebpf4jnsgd1na2vs0mg"},{"bike_id":"e2386715-fd7c-4bb9-a325-6be971b31233","system_id":"levelo_inurba_marseille","lat":43.292572,"lon":5.384402,"is_reserved":false,"is_disabled":false,"rental_uris":{"android":"levelo://app?vid=e2386715-fd7c-4bb9-a325-6be971b31233","ios":"levelo://app?vid=e2386715-fd7c-4bb9-a325-6be971b31233"},"vehicle_type_id":"4","last_reported":1766078122,"current_range_meters":8800,"station_id":"ce4bh692rcd13ifvqea0","pricing_plan_id":"cebpf4jnsgd1na2vs0mg"},{"bike_id":"b1fc5f37-76d1-4d64-9854-b25d77125020","system_id":"levelo_inurba_marseille","lat":43.27828,"lon":5.39204,"is_reserved":false,"is_disabled":false,"rental_uris":{"android":"levelo://app?vid=b1fc5f37-76d1-4d64-9854-b25d77125020","ios":"levelo://app?vid=b1fc5f37-76d1-4d64-9854-b25d77125020"},"vehicle_type_id":"4","last_reported":1766078122,"current_range_meters":8800,"station_id":"ce4bhjp2rcd13ifvqga0","pricing_plan_id":"cebpf4jnsgd1na2vs0mg"},{"bike_id":"02986bd7-d8c3-4896-bb0f-094da7f40d15","system_id":"levelo_inurba_marseille","lat":43.300499,"lon":5.398849,"is_reserved":false,"is_disabled":false,"rental_uris":{"android":"levelo://app?vid=02986bd7-d8c3-4896-bb0f-094da7f40d15","ios":"levelo://app?vid=02986bd7-d8c3-4896-bb0f-094da7f40d15"},"vehicle_type_id":"4","last_reported":1766078122,"current_range_meters":8800,"station_id":"ce4bh0h2rcd13ifvqd40","pricing_plan_id":"cebpf4jnsgd1na2vs0mg"},{"bike_id":"19b014c3-53fe-447e-88ad-699c69f1bec4","system_id":"levelo_inurba_marseille","lat":43.2996,"lon":5.41313,"is_reserved":false,"is_disabled":false,"rental_uris":{"android":"levelo://app?vid=19b014c3-53fe-447e-88ad-699c69f1bec4","ios":"levelo://app?vid=19b014c3-53fe-447e-88ad-699c69f1bec4"},"vehicle_type_id":"4","last_reported":1766078122,"current_range_meters":8800,"station_id":"ce4bhp12rcd13ifvqh9g","pricing_plan_id":"cebpf4jnsgd1na2vs0mg"},{"bike_id":"38d5bbe5-85ce-4ef0-a09a-30d465a65053","system_id":"levelo_inurba_marseille","lat":43.29607,"lon":5.37632,"is_reserved":false,"is_disabled":false,"rental_uris":{"android":"levelo://app?vid=38d5bbe5-85ce-4ef0-a09a-30d465a65053","ios":"levelo://app?vid=38d5bbe5-85ce-4ef0-a09a-30d465a65053"},"vehicle_type_id":"4","last_reported":1766078122,"current_range_meters":9200,"station_id":"","pricing_plan_id":"cebpf4jnsgd1na2vs0mg"},{"bike_id":"3cde007c-a409-4597-91e7-ca2461274ad1","system_id":"levelo_inurba_marseille","lat":43.26576,"lon":5.40191,"is_reserved":false,"is_disabled":false,"rental_uris":{"android":"levelo://app?vid=3cde007c-a409-4597-91e7-ca2461274ad1","ios":"levelo://app?vid=3cde007c-a409-4597-91e7-ca2461274ad1"},"vehicle_type_id":"4","last_reported":1766078122,"current_range_meters":9200,"station_id":"","pricing_plan_id":"cebpf4jnsgd1na2vs0mg"},{"bike_id":"bf56d5e2-8c69-40fb-acab-a77c796e1fa5","system_id":"levelo_inurba_marseille","lat":43.30131,"lon":5.39871,"is_reserved":false,"is_disabled":false,"rental_uris":{"android":"levelo://app?vid=bf56d5e2-8c69-40fb-acab-a77c796e1fa5","ios":"levelo://app?vid=bf56d5e2-8c69-40fb-acab-a77c796e1fa5"},"vehicle_type_id":"4","last_reported":1766078122,"current_range_meters":9200,"station_id":"ce4bh0h2rcd13ifvqd40","pricing_plan_id":"cebpf4jnsgd1na2vs0mg"},{"bike_id":"30fb9e12-06c0-41af-a321-9abdd8737eab","system_id":"levelo_inurba_marseille","lat":43.31276,"lon":5.40166,"is_reserved":false,"is_disabled":false,"rental_uris":{"android":"levelo://app?vid=30fb9e12-06c0-41af-a321-9abdd8737eab","ios":"levelo://app?vid=30fb9e12-06c0-41af-a321-9abdd8737eab"},"vehicle_type_id":"4","last_reported":1766078122,"current_range_meters":9200,"station_id":"ce4bh092rcd13ifvqd30","pricing_plan_id":"cebpf4jnsgd1na2vs0mg"},{"bike_id":"e0f27559-a04e-4ca8-bba2-3013f5f17c45","system_id":"levelo_inurba_marseille","lat":43.293,"lon":5.37459,"is_reserved":false,"is_disabled":false,"rental_uris":{"android":"levelo://app?vid=e0f27559-a04e-4ca8-bba2-3013f5f17c45","ios":"levelo://app?vid=e0f27559-a04e-4ca8-bba2-3013f5f17c45"},"vehicle_type_id":"4","last_reported":1766078122,"current_range_meters":9200,"station_id":"ce4bgi12rcd13ifvqb70","pricing_plan_id":"cebpf4jnsgd1na2vs0mg"},{"bike_id":"0f033089-1424-4fb4-b3dd-976abb0af258","system_id":"levelo_inurba_marseille","lat":43.24072,"lon":5.37716,"is_reserved":false,"is_disabled":false,"rental_uris":{"android":"levelo://app?vid=0f033089-1424-4fb4-b3dd-976abb0af258","ios":"levelo://app?vid=0f033089-1424-4fb4-b3dd-976abb0af258"},"vehicle_type_id":"4","last_reported":1766078122,"current_range_meters":9200,"station_id":"ce4bhnp2rcd13ifvqgvg","pricing_plan_id":"cebpf4jnsgd1na2vs0mg"},{"bike_id":"0d9de95e-2aad-471d-ab44-3581678879d5","system_id":"levelo_inurba_marseille","lat":43.31993,"lon":5.38164,"is_reserved":false,"is_disabled":false,"rental_uris":{"android":"levelo://app?vid=0d9de95e-2aad-471d-ab44-3581678879d5","ios":"levelo://app?vid=0d9de95e-2aad-471d-ab44-3581678879d5"},"vehicle_type_id":"4","last_reported":1766078122,"current_range_meters":9200,"station_id":"ce4bhr12rcd13ifvqhpg","pricing_plan_id":"cebpf4jnsgd1na2vs0mg"},{"bike_id":"cb16e739-535e-4b7a-a883-22a1f86f84e9","system_id":"levelo_inurba_marseille","lat":43.26061,"lon":5.39393,"is_reserved":false,"is_disabled":false,"rental_uris":{"android":"levelo://app?vid=cb16e739-535e-4b7a-a883-22a1f86f84e9","ios":"levelo://app?vid=cb16e739-535e-4b7a-a883-22a1f86f84e9"},"vehicle_type_id":"4","last_reported":1766078122,"current_range_meters":9200,"station_id":"ce4bhh92rcd13ifvqfj0","pricing_plan_id":"cebpf4jnsgd1na2vs0mg"},{"bike_id":"a6365b95-0c1f-4c94-a012-c0e22f4b2a20","system_id":"levelo_inurba_marseille","lat":43.31705,"lon":5.43707,"is_reserved":false,"is_disabled":false,"rental_uris":{"android":"levelo://app?vid=a6365b95-0c1f-4c94-a012-c0e22f4b2a20","ios":"levelo://app?vid=a6365b95-0c1f-4c94-a012-c0e22f4b2a20"},"vehicle_type_id":"4","last_reported":1766078122,"current_range_meters":9200,"station_id":"ce4bhp92rcd13ifvqhcg","pricing_plan_id":"cebpf4jnsgd1na2vs0mg"},{"bike_id":"30ae3899-651e-4548-99d2-ab0a7d8ea338","system_id":"levelo_inurba_marseille","lat":43.28415,"lon":5.37504,"is_reserved":false,"is_disabled":false,"rental_uris":{"android":"levelo://app?vid=30ae3899-651e-4548-99d2-ab0a7d8ea338","ios":"levelo://app?vid=30ae3899-651e-4548-99d2-ab0a7d8ea338"},"vehicle_type_id":"4","last_reported":1766078122,"current_range_meters":9600,"station_id":"ce4bh412rcd13ifvqds0","pricing_plan_id":"cebpf4jnsgd1na2vs0mg"},{"bike_id":"9d245c79-81d8-4e7a-b46b-43c3a1641c8c","system_id":"levelo_inurba_marseille","lat":43.30214,"lon":5.39477,"is_reserved":false,"is_disabled":false,"rental_uris":{"android":"levelo://app?vid=9d245c79-81d8-4e7a-b46b-43c3a1641c8c","ios":"levelo://app?vid=9d245c79-81d8-4e7a-b46b-43c3a1641c8c"},"vehicle_type_id":"4","last_reported":1766078122,"current_range_meters":9600,"station_id":"ce4bh0p2rcd13ifvqd70","pricing_plan_id":"cebpf4jnsgd1na2vs0mg"},{"bike_id":"aeca772a-ab9f-4aad-b995-da605967f168","system_id":"levelo_inurba_marseille","lat":43.29963,"lon":5.38493,"is_reserved":false,"is_disabled":false,"rental_uris":{"android":"levelo://app?vid=aeca772a-ab9f-4aad-b995-da605967f168","ios":"levelo://app?vid=aeca772a-ab9f-4aad-b995-da605967f168"},"vehicle_type_id":"4","last_reported":1766078122,"current_range_meters":9600,"station_id":"ce4bgj92rcd13ifvqbd0","pricing_plan_id":"cebpf4jnsgd1na2vs0mg"},{"bike_id":"d8adc16e-9a4d-4792-9f9f-55c4da80f0c1","system_id":"levelo_inurba_marseille","lat":43.27997,"lon":5.41665,"is_reserved":false,"is_disabled":false,"rental_uris":{"android":"levelo://app?vid=d8adc16e-9a4d-4792-9f9f-55c4da80f0c1","ios":"levelo://app?vid=d8adc16e-9a4d-4792-9f9f-55c4da80f0c1"},"vehicle_type_id":"4","last_reported":1766078122,"current_range_meters":9600,"station_id":"ce4bho12rcd13ifvqh1g","pricing_plan_id":"cebpf4jnsgd1na2vs0mg"},{"bike_id":"22596eb7-04e0-400a-8545-ffe5eb40bea6","system_id":"levelo_inurba_marseille","lat":43.29916,"lon":5.37478,"is_reserved":false,"is_disabled":false,"rental_uris":{"android":"levelo://app?vid=22596eb7-04e0-400a-8545-ffe5eb40bea6","ios":"levelo://app?vid=22596eb7-04e0-400a-8545-ffe5eb40bea6"},"vehicle_type_id":"4","last_reported":1766078122,"current_range_meters":9600,"station_id":"ce4bgjh2rcd13ifvqbg0","pricing_plan_id":"cebpf4jnsgd1na2vs0mg"},{"bike_id":"35816ac5-fc3a-423f-9638-56aab4ed3819","system_id":"levelo_inurba_marseille","lat":43.29191,"lon":5.35808,"is_reserved":false,"is_disabled":false,"rental_uris":{"android":"levelo://app?vid=35816ac5-fc3a-423f-9638-56aab4ed3819","ios":"levelo://app?vid=35816ac5-fc3a-423f-9638-56aab4ed3819"},"vehicle_type_id":"4","last_reported":1766078122,"current_range_meters":9600,"station_id":"ce4bhb12rcd13ifvqel0","pricing_plan_id":"cebpf4jnsgd1na2vs0mg"},{"bike_id":"dcf004b6-b624-4c46-9a27-24145aebee03","system_id":"levelo_inurba_marseille","lat":43.26936,"lon":5.40266,"is_reserved":false,"is_disabled":false,"rental_uris":{"android":"levelo://app?vid=dcf004b6-b624-4c46-9a27-24145aebee03","ios":"levelo://app?vid=dcf004b6-b624-4c46-9a27-24145aebee03"},"vehicle_type_id":"4","last_reported":1766078122,"current_range_meters":9600,"station_id":"cjm6bp8fraef2m0cb0m0","pricing_plan_id":"cebpf4jnsgd1na2vs0mg"},{"bike_id":"cf5b41e1-3f13-4caa-bfa9-de17df71e478","system_id":"levelo_inurba_marseille","lat":43.31329,"lon":5.39691,"is_reserved":false,"is_disabled":false,"rental_uris":{"android":"levelo://app?vid=cf5b41e1-3f13-4caa-bfa9-de17df71e478","ios":"levelo://app?vid=cf5b41e1-3f13-4caa-bfa9-de17df71e478"},"vehicle_type_id":"4","last_reported":1766078122,"current_range_meters":9600,"station_id":"ce4bgvp2rcd13ifvqcu0","pricing_plan_id":"cebpf4jnsgd1na2vs0mg"},{"bike_id":"a96d0ae1-f54b-4012-b5bb-241cb4d5d707","system_id":"levelo_inurba_marseille","lat":43.31166,"lon":5.38725,"is_reserved":false,"is_disabled":false,"rental_uris":{"android":"levelo://app?vid=a96d0ae1-f54b-4012-b5bb-241cb4d5d707","ios":"levelo://app?vid=a96d0ae1-f54b-4012-b5bb-241cb4d5d707"},"vehicle_type_id":"4","last_reported":1766078122,"current_range_meters":9600,"station_id":"ce4bgv12rcd13ifvqcp0","pricing_plan_id":"cebpf4jnsgd1na2vs0mg"},{"bike_id":"427d376c-466b-4c43-8bbe-16485d7d5a2c","system_id":"levelo_inurba_marseille","lat":43.30256,"lon":5.40039,"is_reserved":false,"is_disabled":false,"rental_uris":{"android":"levelo://app?vid=427d376c-466b-4c43-8bbe-16485d7d5a2c","ios":"levelo://app?vid=427d376c-466b-4c43-8bbe-16485d7d5a2c"},"vehicle_type_id":"4","last_reported":1766078122,"current_range_meters":9600,"station_id":"ce4bgvh2rcd13ifvqcs0","pricing_plan_id":"cebpf4jnsgd1na2vs0mg"},{"bike_id":"9c10a177-9935-4a1a-982e-4841575bfa35","system_id":"levelo_inurba_marseille","lat":43.28618,"lon":5.35101,"is_reserved":false,"is_disabled":false,"rental_uris":{"android":"levelo://app?vid=9c10a177-9935-4a1a-982e-4841575bfa35","ios":"levelo://app?vid=9c10a177-9935-4a1a-982e-4841575bfa35"},"vehicle_type_id":"4","last_reported":1766078122,"current_range_meters":9600,"station_id":"ce4bhch2rcd13ifvqeug","pricing_plan_id":"cebpf4jnsgd1na2vs0mg"},{"bike_id":"09575982-d1ce-48f3-97ed-c290bec651a2","system_id":"levelo_inurba_marseille","lat":43.28534,"lon":5.44098,"is_reserved":false,"is_disabled":false,"rental_uris":{"android":"levelo://app?vid=09575982-d1ce-48f3-97ed-c290bec651a2","ios":"levelo://app?vid=09575982-d1ce-48f3-97ed-c290bec651a2"},"vehicle_type_id":"4","last_reported":1766078122,"current_range_meters":9600,"station_id":"st_d3j3df2ikq2c7380ej80","pricing_plan_id":"cebpf4jnsgd1na2vs0mg"},{"bike_id":"02c94ebb-7747-4961-ba1d-35843a4f88ee","system_id":"levelo_inurba_marseille","lat":43.26681,"lon":5.38268,"is_reserved":false,"is_disabled":false,"rental_uris":{"android":"levelo://app?vid=02c94ebb-7747-4961-ba1d-35843a4f88ee","ios":"levelo://app?vid=02c94ebb-7747-4961-ba1d-35843a4f88ee"},"vehicle_type_id":"4","last_reported":1766078122,"current_range_meters":10000,"station_id":"ce4bhg92rcd13ifvqf90","pricing_plan_id":"cebpf4jnsgd1na2vs0mg"},{"bike_id":"3ff94115-0007-4108-afda-4576fdcf1892","system_id":"levelo_inurba_marseille","lat":43.30323,"lon":5.40441,"is_reserved":false,"is_disabled":false,"rental_uris":{"android":"levelo://app?vid=3ff94115-0007-4108-afda-4576fdcf1892","ios":"levelo://app?vid=3ff94115-0007-4108-afda-4576fdcf1892"},"vehicle_type_id":"4","last_reported":1766078122,"current_range_meters":10000,"station_id":"ce4bh012rcd13ifvqd10","pricing_plan_id":"cebpf4jnsgd1na2vs0mg"},{"bike_id":"3b33b563-8d3c-4993-bbae-eef0cb2d0caa","system_id":"levelo_inurba_marseille","lat":43.27051,"lon":5.40264,"is_reserved":false,"is_disabled":false,"rental_uris":{"android":"levelo://app?vid=3b33b563-8d3c-4993-bbae-eef0cb2d0caa","ios":"levelo://app?vid=3b33b563-8d3c-4993-bbae-eef0cb2d0caa"},"vehicle_type_id":"4","last_reported":1766078122,"current_range_meters":10000,"station_id":"ce4bhk92rcd13ifvqgc0","pricing_plan_id":"cebpf4jnsgd1na2vs0mg"},{"bike_id":"345527b9-e5b3-41dc-86fa-0725a99c666a","system_id":"levelo_inurba_marseille","lat":43.33723,"lon":5.36727,"is_reserved":false,"is_disabled":false,"rental_uris":{"android":"levelo://app?vid=345527b9-e5b3-41dc-86fa-0725a99c666a","ios":"levelo://app?vid=345527b9-e5b3-41dc-86fa-0725a99c666a"},"vehicle_type_id":"4","last_reported":1766078122,"current_range_meters":10000,"station_id":"","pricing_plan_id":"cebpf4jnsgd1na2vs0mg"},{"bike_id":"453f1184-f82d-4436-816a-2c45caf5ef82","system_id":"levelo_inurba_marseille","lat":43.30091,"lon":5.39074,"is_reserved":false,"is_disabled":false,"rental_uris":{"android":"levelo://app?vid=453f1184-f82d-4436-816a-2c45caf5ef82","ios":"levelo://app?vid=453f1184-f82d-4436-816a-2c45caf5ef82"},"vehicle_type_id":"4","last_reported":1766078122,"current_range_meters":10000,"station_id":"ce4bh192rcd13ifvqdb0","pricing_plan_id":"cebpf4jnsgd1na2vs0mg"},{"bike_id":"a24ee5b6-572d-4941-9ef3-a9d89c28bd82","system_id":"levelo_inurba_marseille","lat":43.30537,"lon":5.36713,"is_reserved":false,"is_disabled":false,"rental_uris":{"android":"levelo://app?vid=a24ee5b6-572d-4941-9ef3-a9d89c28bd82","ios":"levelo://app?vid=a24ee5b6-572d-4941-9ef3-a9d89c28bd82"},"vehicle_type_id":"4","last_reported":1766078122,"current_range_meters":10000,"station_id":"ce4bgrp2rcd13ifvqc9g","pricing_plan_id":"cebpf4jnsgd1na2vs0mg"},{"bike_id":"08465472-f37b-4c85-82a0-ad3a002fc573","system_id":"levelo_inurba_marseille","lat":43.290991,"lon":5.381286,"is_reserved":false,"is_disabled":false,"rental_uris":{"android":"levelo://app?vid=08465472-f37b-4c85-82a0-ad3a002fc573","ios":"levelo://app?vid=08465472-f37b-4c85-82a0-ad3a002fc573"},"vehicle_type_id":"4","last_reported":1766078122,"current_range_meters":10000,"station_id":"ce4bh512rcd13ifvqe2g","pricing_plan_id":"cebpf4jnsgd1na2vs0mg"},{"bike_id":"c8ae05dc-be68-4290-a207-222d34083f3e","system_id":"levelo_inurba_marseille","lat":43.28306,"lon":5.38919,"is_reserved":false,"is_disabled":false,"rental_uris":{"android":"levelo://app?vid=c8ae05dc-be68-4290-a207-222d34083f3e","ios":"levelo://app?vid=c8ae05dc-be68-4290-a207-222d34083f3e"},"vehicle_type_id":"4","last_reported":1766078122,"current_range_meters":10000,"station_id":"","pricing_plan_id":"cebpf4jnsgd1na2vs0mg"},{"bike_id":"b784c72b-9d4d-4015-92f4-f174975ced5c","system_id":"levelo_inurba_marseille","lat":43.316894,"lon":5.404697,"is_reserved":false,"is_disabled":false,"rental_uris":{"android":"levelo://app?vid=b784c72b-9d4d-4015-92f4-f174975ced5c","ios":"levelo://app?vid=b784c72b-9d4d-4015-92f4-f174975ced5c"},"vehicle_type_id":"4","last_reported":1766078122,"current_range_meters":10000,"station_id":"ce4bh012rcd13ifvqd00","pricing_plan_id":"cebpf4jnsgd1na2vs0mg"},{"bike_id":"81508f0a-e327-4705-ae72-228165570b37","system_id":"levelo_inurba_marseille","lat":43.25095,"lon":5.38978,"is_reserved":false,"is_disabled":false,"rental_uris":{"android":"levelo://app?vid=81508f0a-e327-4705-ae72-228165570b37","ios":"levelo://app?vid=81508f0a-e327-4705-ae72-228165570b37"},"vehicle_type_id":"4","last_reported":1766078122,"current_range_meters":10000,"station_id":"","pricing_plan_id":"cebpf4jnsgd1na2vs0mg"},{"bike_id":"d0099655-4f29-42b3-a80c-c5b20ff9fe95","system_id":"levelo_inurba_marseille","lat":43.29874,"lon":5.38903,"is_reserved":false,"is_disabled":false,"rental_uris":{"android":"levelo://app?vid=d0099655-4f29-42b3-a80c-c5b20ff9fe95","ios":"levelo://app?vid=d0099655-4f29-42b3-a80c-c5b20ff9fe95"},"vehicle_type_id":"4","last_reported":1766078122,"current_range_meters":10000,"station_id":"ce4bh392rcd13ifvqdl0","pricing_plan_id":"cebpf4jnsgd1na2vs0mg"},{"bike_id":"6f1cee56-754d-409d-ab65-d1a79059eaa6","system_id":"levelo_inurba_marseille","lat":43.296019,"lon":5.399638,"is_reserved":false,"is_disabled":false,"rental_uris":{"android":"levelo://app?vid=6f1cee56-754d-409d-ab65-d1a79059eaa6","ios":"levelo://app?vid=6f1cee56-754d-409d-ab65-d1a79059eaa6"},"vehicle_type_id":"4","last_reported":1766078122,"current_range_meters":10000,"station_id":"ce4bh312rcd13ifvqdj0","pricing_plan_id":"cebpf4jnsgd1na2vs0mg"},{"bike_id":"f87a7598-e6b9-4feb-a6e3-d98d4acd6941","system_id":"levelo_inurba_marseille","lat":43.24174,"lon":5.36407,"is_reserved":false,"is_disabled":false,"rental_uris":{"android":"levelo://app?vid=f87a7598-e6b9-4feb-a6e3-d98d4acd6941","ios":"levelo://app?vid=f87a7598-e6b9-4feb-a6e3-d98d4acd6941"},"vehicle_type_id":"4","last_reported":1766078122,"current_range_meters":10000,"station_id":"cpo36qri1sfpv3e86is0","pricing_plan_id":"cebpf4jnsgd1na2vs0mg"},{"bike_id":"f5f68e71-0364-4da8-93c5-7bd0dacad9e0","system_id":"levelo_inurba_marseille","lat":43.28702,"lon":5.39985,"is_reserved":false,"is_disabled":false,"rental_uris":{"android":"levelo://app?vid=f5f68e71-0364-4da8-93c5-7bd0dacad9e0","ios":"levelo://app?vid=f5f68e71-0364-4da8-93c5-7bd0dacad9e0"},"vehicle_type_id":"4","last_reported":1766078122,"current_range_meters":10000,"station_id":"ce4bho92rcd13ifvqh3g","pricing_plan_id":"cebpf4jnsgd1na2vs0mg"},{"bike_id":"7c400a4b-59aa-41b4-bd2b-1fd1ed67096f","system_id":"levelo_inurba_marseille","lat":43.30693,"lon":5.39974,"is_reserved":false,"is_disabled":false,"rental_uris":{"android":"levelo://app?vid=7c400a4b-59aa-41b4-bd2b-1fd1ed67096f","ios":"levelo://app?vid=7c400a4b-59aa-41b4-bd2b-1fd1ed67096f"},"vehicle_type_id":"4","last_reported":1766078122,"current_range_meters":10000,"station_id":"","pricing_plan_id":"cebpf4jnsgd1na2vs0mg"},{"bike_id":"1c783e39-3092-489d-97e8-0a4c367392b3","system_id":"levelo_inurba_marseille","lat":43.30607,"lon":5.3721,"is_reserved":false,"is_disabled":false,"rental_uris":{"android":"levelo://app?vid=1c783e39-3092-489d-97e8-0a4c367392b3","ios":"levelo://app?vid=1c783e39-3092-489d-97e8-0a4c367392b3"},"vehicle_type_id":"4","last_reported":1766078122,"current_range_meters":10800,"station_id":"ce4bgqh2rcd13ifvqc4g","pricing_plan_id":"cebpf4jnsgd1na2vs0mg"},{"bike_id":"38cf53a6-ff03-4245-b99b-a3c30164292b","system_id":"levelo_inurba_marseille","lat":43.29598,"lon":5.380981,"is_reserved":false,"is_disabled":true,"rental_uris":{"android":"levelo://app?vid=38cf53a6-ff03-4245-b99b-a3c30164292b","ios":"levelo://app?vid=38cf53a6-ff03-4245-b99b-a3c30164292b"},"vehicle_type_id":"4","last_reported":1766078122,"current_range_meters":10800,"station_id":"ce4bgl12rcd13ifvqbo0","pricing_plan_id":"cebpf4jnsgd1na2vs0mg"},{"bike_id":"cd4b798f-ef73-462b-a871-c0e46f70c7b6","system_id":"levelo_inurba_marseille","lat":43.297142,"lon":5.37702,"is_reserved":false,"is_disabled":false,"rental_uris":{"android":"levelo://app?vid=cd4b798f-ef73-462b-a871-c0e46f70c7b6","ios":"levelo://app?vid=cd4b798f-ef73-462b-a871-c0e46f70c7b6"},"vehicle_type_id":"4","last_reported":1766078122,"current_range_meters":10800,"station_id":"ce4bgkh2rcd13ifvqbl0","pricing_plan_id":"cebpf4jnsgd1na2vs0mg"},{"bike_id":"50bb104f-bdbe-4eab-bd19-f33b1d1b4be5","system_id":"levelo_inurba_marseille","lat":43.25334,"lon":5.42163,"is_reserved":false,"is_disabled":false,"rental_uris":{"android":"levelo://app?vid=50bb104f-bdbe-4eab-bd19-f33b1d1b4be5","ios":"levelo://app?vid=50bb104f-bdbe-4eab-bd19-f33b1d1b4be5"},"vehicle_type_id":"4","last_reported":1766078122,"current_range_meters":10800,"station_id":"st_d2m65c5bi1j21697t3ng","pricing_plan_id":"cebpf4jnsgd1na2vs0mg"},{"bike_id":"6a1e1967-fdaf-4e65-ae26-1571d7f0290c","system_id":"levelo_inurba_marseille","lat":43.337605,"lon":5.374353,"is_reserved":false,"is_disabled":false,"rental_uris":{"android":"levelo://app?vid=6a1e1967-fdaf-4e65-ae26-1571d7f0290c","ios":"levelo://app?vid=6a1e1967-fdaf-4e65-ae26-1571d7f0290c"},"vehicle_type_id":"4","last_reported":1766078122,"current_range_meters":10800,"station_id":"","pricing_plan_id":"cebpf4jnsgd1na2vs0mg"},{"bike_id":"154d73f5-c6c2-40a6-ba2a-56d8db7618b3","system_id":"levelo_inurba_marseille","lat":43.26363,"lon":5.41068,"is_reserved":false,"is_disabled":false,"rental_uris":{"android":"levelo://app?vid=154d73f5-c6c2-40a6-ba2a-56d8db7618b3","ios":"levelo://app?vid=154d73f5-c6c2-40a6-ba2a-56d8db7618b3"},"vehicle_type_id":"4","last_reported":1766078122,"current_range_meters":10800,"station_id":"st_d4e5ca6na9uc73bfl5fg","pricing_plan_id":"cebpf4jnsgd1na2vs0mg"},{"bike_id":"455ac72d-a85f-4fab-8dce-812ec9a6e58b","system_id":"levelo_inurba_marseille","lat":43.29596,"lon":5.38099,"is_reserved":false,"is_disabled":false,"rental_uris":{"android":"levelo://app?vid=455ac72d-a85f-4fab-8dce-812ec9a6e58b","ios":"levelo://app?vid=455ac72d-a85f-4fab-8dce-812ec9a6e58b"},"vehicle_type_id":"4","last_reported":1766078122,"current_range_meters":10800,"station_id":"ce4bgl12rcd13ifvqbo0","pricing_plan_id":"cebpf4jnsgd1na2vs0mg"},{"bike_id":"1b3c2c60-6ff2-4726-98a5-0e15725bfce9","system_id":"levelo_inurba_marseille","lat":43.29577,"lon":5.36744,"is_reserved":false,"is_disabled":false,"rental_uris":{"android":"levelo://app?vid=1b3c2c60-6ff2-4726-98a5-0e15725bfce9","ios":"levelo://app?vid=1b3c2c60-6ff2-4726-98a5-0e15725bfce9"},"vehicle_type_id":"4","last_reported":1766078122,"current_range_meters":10800,"station_id":"ce4bgph2rcd13ifvqc2g","pricing_plan_id":"cebpf4jnsgd1na2vs0mg"},{"bike_id":"51f43a5f-2a5a-4c8a-847c-1c5481be0271","system_id":"levelo_inurba_marseille","lat":43.3058,"lon":5.3672,"is_reserved":false,"is_disabled":true,"rental_uris":{"android":"levelo://app?vid=51f43a5f-2a5a-4c8a-847c-1c5481be0271","ios":"levelo://app?vid=51f43a5f-2a5a-4c8a-847c-1c5481be0271"},"vehicle_type_id":"4","last_reported":1766078122,"current_range_meters":10800,"station_id":"ce4bgrp2rcd13ifvqc9g","pricing_plan_id":"cebpf4jnsgd1na2vs0mg"},{"bike_id":"bd47acfe-2f1c-4624-b949-7c14c9226394","system_id":"levelo_inurba_marseille","lat":43.304166,"lon":5.412817,"is_reserved":false,"is_disabled":false,"rental_uris":{"android":"levelo://app?vid=bd47acfe-2f1c-4624-b949-7c14c9226394","ios":"levelo://app?vid=bd47acfe-2f1c-4624-b949-7c14c9226394"},"vehicle_type_id":"4","last_reported":1766078122,"current_range_meters":10800,"station_id":"ce4bhop2rcd13ifvqh8g","pricing_plan_id":"cebpf4jnsgd1na2vs0mg"},{"bike_id":"b8878530-c670-4eb7-a4ce-26ab36bdbd49","system_id":"levelo_inurba_marseille","lat":43.31273,"lon":5.40177,"is_reserved":false,"is_disabled":false,"rental_uris":{"android":"levelo://app?vid=b8878530-c670-4eb7-a4ce-26ab36bdbd49","ios":"levelo://app?vid=b8878530-c670-4eb7-a4ce-26ab36bdbd49"},"vehicle_type_id":"4","last_reported":1766078122,"current_range_meters":10800,"station_id":"ce4bh092rcd13ifvqd30","pricing_plan_id":"cebpf4jnsgd1na2vs0mg"},{"bike_id":"cf0e2dfe-8751-4251-bbd3-3ad00be9f3ad","system_id":"levelo_inurba_marseille","lat":43.28478,"lon":5.48391,"is_reserved":false,"is_disabled":false,"rental_uris":{"android":"levelo://app?vid=cf0e2dfe-8751-4251-bbd3-3ad00be9f3ad","ios":"levelo://app?vid=cf0e2dfe-8751-4251-bbd3-3ad00be9f3ad"},"vehicle_type_id":"4","last_reported":1766078122,"current_range_meters":10800,"station_id":"","pricing_plan_id":"cebpf4jnsgd1na2vs0mg"},{"bike_id":"7f302d8d-b36d-4ef0-af18-63860bd2422c","system_id":"levelo_inurba_marseille","lat":43.30144,"lon":5.37421,"is_reserved":false,"is_disabled":false,"rental_uris":{"android":"levelo://app?vid=7f302d8d-b36d-4ef0-af18-63860bd2422c","ios":"levelo://app?vid=7f302d8d-b36d-4ef0-af18-63860bd2422c"},"vehicle_type_id":"4","last_reported":1766078122,"current_range_meters":10800,"station_id":"ce4bgs92rcd13ifvqcc0","pricing_plan_id":"cebpf4jnsgd1na2vs0mg"},{"bike_id":"39ca6217-71c2-4cee-834d-d178880be878","system_id":"levelo_inurba_marseille","lat":43.3088,"lon":5.37199,"is_reserved":false,"is_disabled":true,"rental_uris":{"android":"levelo://app?vid=39ca6217-71c2-4cee-834d-d178880be878","ios":"levelo://app?vid=39ca6217-71c2-4cee-834d-d178880be878"},"vehicle_type_id":"4","last_reported":1766078122,"current_range_meters":10800,"station_id":"ce4bguh2rcd13ifvqckg","pricing_plan_id":"cebpf4jnsgd1na2vs0mg"},{"bike_id":"268b92fd-643b-440f-b357-2f870a242ef2","system_id":"levelo_inurba_marseille","lat":43.29812,"lon":5.38079,"is_reserved":false,"is_disabled":false,"rental_uris":{"android":"levelo://app?vid=268b92fd-643b-440f-b357-2f870a242ef2","ios":"levelo://app?vid=268b92fd-643b-440f-b357-2f870a242ef2"},"vehicle_type_id":"4","last_reported":1766078122,"current_range_meters":10800,"station_id":"ce4bgip2rcd13ifvqbb0","pricing_plan_id":"cebpf4jnsgd1na2vs0mg"},{"bike_id":"277934b8-64db-4eaf-bb4b-7aa9f88c5fe8","system_id":"levelo_inurba_marseille","lat":43.28147,"lon":5.42639,"is_reserved":false,"is_disabled":false,"rental_uris":{"android":"levelo://app?vid=277934b8-64db-4eaf-bb4b-7aa9f88c5fe8","ios":"levelo://app?vid=277934b8-64db-4eaf-bb4b-7aa9f88c5fe8"},"vehicle_type_id":"4","last_reported":1766078122,"current_range_meters":10800,"station_id":"ce4bhnh2rcd13ifvqgug","pricing_plan_id":"cebpf4jnsgd1na2vs0mg"},{"bike_id":"0e5605a0-8a9b-4110-930b-7d8a6198266d","system_id":"levelo_inurba_marseille","lat":43.3235,"lon":5.38501,"is_reserved":false,"is_disabled":false,"rental_uris":{"android":"levelo://app?vid=0e5605a0-8a9b-4110-930b-7d8a6198266d","ios":"levelo://app?vid=0e5605a0-8a9b-4110-930b-7d8a6198266d"},"vehicle_type_id":"4","last_reported":1766078122,"current_range_meters":10800,"station_id":"st_d45171o9ee8s73djdqug","pricing_plan_id":"cebpf4jnsgd1na2vs0mg"},{"bike_id":"4a614ce4-d61c-499d-8955-0569e02f377b","system_id":"levelo_inurba_marseille","lat":43.27518,"lon":5.37272,"is_reserved":false,"is_disabled":false,"rental_uris":{"android":"levelo://app?vid=4a614ce4-d61c-499d-8955-0569e02f377b","ios":"levelo://app?vid=4a614ce4-d61c-499d-8955-0569e02f377b"},"vehicle_type_id":"4","last_reported":1766078122,"current_range_meters":11200,"station_id":"","pricing_plan_id":"cebpf4jnsgd1na2vs0mg"},{"bike_id":"ee6f7e5c-24b4-4046-a3ec-072080785116","system_id":"levelo_inurba_marseille","lat":43.21736,"lon":5.34567,"is_reserved":false,"is_disabled":true,"rental_uris":{"android":"levelo://app?vid=ee6f7e5c-24b4-4046-a3ec-072080785116","ios":"levelo://app?vid=ee6f7e5c-24b4-4046-a3ec-072080785116"},"vehicle_type_id":"4","last_reported":1766078122,"current_range_meters":11200,"station_id":"st_cvj6r9ubvosntc0bgbag","pricing_plan_id":"cebpf4jnsgd1na2vs0mg"},{"bike_id":"79f4c582-0e2c-476c-93e9-a2ea847b3fad","system_id":"levelo_inurba_marseille","lat":43.312688,"lon":5.401675,"is_reserved":false,"is_disabled":false,"rental_uris":{"android":"levelo://app?vid=79f4c582-0e2c-476c-93e9-a2ea847b3fad","ios":"levelo://app?vid=79f4c582-0e2c-476c-93e9-a2ea847b3fad"},"vehicle_type_id":"4","last_reported":1766078122,"current_range_meters":11200,"station_id":"ce4bh092rcd13ifvqd30","pricing_plan_id":"cebpf4jnsgd1na2vs0mg"},{"bike_id":"f991fc44-ec9b-482e-aa04-dd0802daaf38","system_id":"levelo_inurba_marseille","lat":43.304326,"lon":5.389056,"is_reserved":false,"is_disabled":false,"rental_uris":{"android":"levelo://app?vid=f991fc44-ec9b-482e-aa04-dd0802daaf38","ios":"levelo://app?vid=f991fc44-ec9b-482e-aa04-dd0802daaf38"},"vehicle_type_id":"4","last_reported":1766078122,"current_range_meters":11200,"station_id":"ce4bgk12rcd13ifvqbi0","pricing_plan_id":"cebpf4jnsgd1na2vs0mg"},{"bike_id":"24d452ed-8f81-4756-b6f2-3c675f3e0807","system_id":"levelo_inurba_marseille","lat":43.27407,"lon":5.39446,"is_reserved":false,"is_disabled":false,"rental_uris":{"android":"levelo://app?vid=24d452ed-8f81-4756-b6f2-3c675f3e0807","ios":"levelo://app?vid=24d452ed-8f81-4756-b6f2-3c675f3e0807"},"vehicle_type_id":"4","last_reported":1766078122,"current_range_meters":11200,"station_id":"ce4bhdp2rcd13ifvqf20","pricing_plan_id":"cebpf4jnsgd1na2vs0mg"},{"bike_id":"8775fcca-d0fe-491b-8c50-f9b172c82836","system_id":"levelo_inurba_marseille","lat":43.28843,"lon":5.3932,"is_reserved":false,"is_disabled":false,"rental_uris":{"android":"levelo://app?vid=8775fcca-d0fe-491b-8c50-f9b172c82836","ios":"levelo://app?vid=8775fcca-d0fe-491b-8c50-f9b172c82836"},"vehicle_type_id":"4","last_reported":1766078122,"current_range_meters":11200,"station_id":"ce4bh2p2rcd13ifvqdi0","pricing_plan_id":"cebpf4jnsgd1na2vs0mg"},{"bike_id":"f0552324-7f16-45f2-af53-7d50398c0e4b","system_id":"levelo_inurba_marseille","lat":43.29168,"lon":5.3933,"is_reserved":false,"is_disabled":true,"rental_uris":{"android":"levelo://app?vid=f0552324-7f16-45f2-af53-7d50398c0e4b","ios":"levelo://app?vid=f0552324-7f16-45f2-af53-7d50398c0e4b"},"vehicle_type_id":"4","last_reported":1766078122,"current_range_meters":11200,"station_id":"ce4bh192rcd13ifvqdd0","pricing_plan_id":"cebpf4jnsgd1na2vs0mg"},{"bike_id":"313a044d-6bba-48e4-acaf-41d1a51462dc","system_id":"levelo_inurba_marseille","lat":43.29002,"lon":5.39032,"is_reserved":false,"is_disabled":false,"rental_uris":{"android":"levelo://app?vid=313a044d-6bba-48e4-acaf-41d1a51462dc","ios":"levelo://app?vid=313a044d-6bba-48e4-acaf-41d1a51462dc"},"vehicle_type_id":"4","last_reported":1766078122,"current_range_meters":11200,"station_id":"","pricing_plan_id":"cebpf4jnsgd1na2vs0mg"},{"bike_id":"faea9e6a-ce05-4019-af60-3cbc72276dae","system_id":"levelo_inurba_marseille","lat":43.30587,"lon":5.42996,"is_reserved":false,"is_disabled":false,"rental_uris":{"android":"levelo://app?vid=faea9e6a-ce05-4019-af60-3cbc72276dae","ios":"levelo://app?vid=faea9e6a-ce05-4019-af60-3cbc72276dae"},"vehicle_type_id":"4","last_reported":1766078122,"current_range_meters":11200,"station_id":"","pricing_plan_id":"cebpf4jnsgd1na2vs0mg"},{"bike_id":"9a4090b1-3af1-4620-96cb-2dd026585aca","system_id":"levelo_inurba_marseille","lat":43.3239,"lon":5.366,"is_reserved":false,"is_disabled":false,"rental_uris":{"android":"levelo://app?vid=9a4090b1-3af1-4620-96cb-2dd026585aca","ios":"levelo://app?vid=9a4090b1-3af1-4620-96cb-2dd026585aca"},"vehicle_type_id":"4","last_reported":1766078122,"current_range_meters":11200,"station_id":"","pricing_plan_id":"cebpf4jnsgd1na2vs0mg"},{"bike_id":"2704a896-1b81-4eb2-9ff3-afb57e76d700","system_id":"levelo_inurba_marseille","lat":43.29849,"lon":5.36274,"is_reserved":false,"is_disabled":false,"rental_uris":{"android":"levelo://app?vid=2704a896-1b81-4eb2-9ff3-afb57e76d700","ios":"levelo://app?vid=2704a896-1b81-4eb2-9ff3-afb57e76d700"},"vehicle_type_id":"4","last_reported":1766078122,"current_range_meters":11600,"station_id":"ce4bgpp2rcd13ifvqc3g","pricing_plan_id":"cebpf4jnsgd1na2vs0mg"},{"bike_id":"7290a38c-bf2a-4d21-968f-f444d6790718","system_id":"levelo_inurba_marseille","lat":43.30426,"lon":5.38894,"is_reserved":false,"is_disabled":false,"rental_uris":{"android":"levelo://app?vid=7290a38c-bf2a-4d21-968f-f444d6790718","ios":"levelo://app?vid=7290a38c-bf2a-4d21-968f-f444d6790718"},"vehicle_type_id":"4","last_reported":1766078122,"current_range_meters":11600,"station_id":"ce4bgk12rcd13ifvqbi0","pricing_plan_id":"cebpf4jnsgd1na2vs0mg"},{"bike_id":"436e467e-3ef8-4484-b12e-82fd46509f97","system_id":"levelo_inurba_marseille","lat":43.23296,"lon":5.44416,"is_reserved":false,"is_disabled":false,"rental_uris":{"android":"levelo://app?vid=436e467e-3ef8-4484-b12e-82fd46509f97","ios":"levelo://app?vid=436e467e-3ef8-4484-b12e-82fd46509f97"},"vehicle_type_id":"4","last_reported":1766078122,"current_range_meters":11600,"station_id":"","pricing_plan_id":"cebpf4jnsgd1na2vs0mg"},{"bike_id":"9d054196-cd6f-4325-bb1d-fbfbbc9318d2","system_id":"levelo_inurba_marseille","lat":43.30122,"lon":5.43126,"is_reserved":false,"is_disabled":false,"rental_uris":{"android":"levelo://app?vid=9d054196-cd6f-4325-bb1d-fbfbbc9318d2","ios":"levelo://app?vid=9d054196-cd6f-4325-bb1d-fbfbbc9318d2"},"vehicle_type_id":"4","last_reported":1766078122,"current_range_meters":11600,"station_id":"st_d3js3co5814s73ftftug","pricing_plan_id":"cebpf4jnsgd1na2vs0mg"},{"bike_id":"92623e5b-52ee-402d-a529-e6dda8f91418","system_id":"levelo_inurba_marseille","lat":43.30749,"lon":5.36802,"is_reserved":false,"is_disabled":false,"rental_uris":{"android":"levelo://app?vid=92623e5b-52ee-402d-a529-e6dda8f91418","ios":"levelo://app?vid=92623e5b-52ee-402d-a529-e6dda8f91418"},"vehicle_type_id":"4","last_reported":1766078122,"current_range_meters":11600,"station_id":"","pricing_plan_id":"cebpf4jnsgd1na2vs0mg"},{"bike_id":"2e7e8b29-e1ea-487d-acac-af78f4c249f4","system_id":"levelo_inurba_marseille","lat":43.31323,"lon":5.39685,"is_reserved":false,"is_disabled":false,"rental_uris":{"android":"levelo://app?vid=2e7e8b29-e1ea-487d-acac-af78f4c249f4","ios":"levelo://app?vid=2e7e8b29-e1ea-487d-acac-af78f4c249f4"},"vehicle_type_id":"4","last_reported":1766078122,"current_range_meters":11600,"station_id":"ce4bgvp2rcd13ifvqcu0","pricing_plan_id":"cebpf4jnsgd1na2vs0mg"},{"bike_id":"10efb172-e698-4378-966e-dd2f1019431e","system_id":"levelo_inurba_marseille","lat":43.26499,"lon":5.39543,"is_reserved":false,"is_disabled":false,"rental_uris":{"android":"levelo://app?vid=10efb172-e698-4378-966e-dd2f1019431e","ios":"levelo://app?vid=10efb172-e698-4378-966e-dd2f1019431e"},"vehicle_type_id":"4","last_reported":1766078122,"current_range_meters":11600,"station_id":"ce4bhi12rcd13ifvqfq0","pricing_plan_id":"cebpf4jnsgd1na2vs0mg"},{"bike_id":"1e486ac8-21f4-4193-ab5e-a24846f172a4","system_id":"levelo_inurba_marseille","lat":43.2811,"lon":5.37849,"is_reserved":false,"is_disabled":false,"rental_uris":{"android":"levelo://app?vid=1e486ac8-21f4-4193-ab5e-a24846f172a4","ios":"levelo://app?vid=1e486ac8-21f4-4193-ab5e-a24846f172a4"},"vehicle_type_id":"4","last_reported":1766078122,"current_range_meters":11600,"station_id":"ce4bha12rcd13ifvqee0","pricing_plan_id":"cebpf4jnsgd1na2vs0mg"},{"bike_id":"a6bb7fde-2db0-447e-8cac-38a0c3844ce6","system_id":"levelo_inurba_marseille","lat":43.27758,"lon":5.38821,"is_reserved":false,"is_disabled":false,"rental_uris":{"android":"levelo://app?vid=a6bb7fde-2db0-447e-8cac-38a0c3844ce6","ios":"levelo://app?vid=a6bb7fde-2db0-447e-8cac-38a0c3844ce6"},"vehicle_type_id":"4","last_reported":1766078122,"current_range_meters":12000,"station_id":"","pricing_plan_id":"cebpf4jnsgd1na2vs0mg"},{"bike_id":"85f12ccf-5b46-4628-894a-c4095346a940","system_id":"levelo_inurba_marseille","lat":43.27951,"lon":5.4104,"is_reserved":false,"is_disabled":true,"rental_uris":{"android":"levelo://app?vid=85f12ccf-5b46-4628-894a-c4095346a940","ios":"levelo://app?vid=85f12ccf-5b46-4628-894a-c4095346a940"},"vehicle_type_id":"4","last_reported":1766078122,"current_range_meters":12000,"station_id":"ce4bhnp2rcd13ifvqh0g","pricing_plan_id":"cebpf4jnsgd1na2vs0mg"},{"bike_id":"52b61354-da80-471d-a0ef-682891b3f0eb","system_id":"levelo_inurba_marseille","lat":43.24389,"lon":5.37082,"is_reserved":false,"is_disabled":true,"rental_uris":{"android":"levelo://app?vid=52b61354-da80-471d-a0ef-682891b3f0eb","ios":"levelo://app?vid=52b61354-da80-471d-a0ef-682891b3f0eb"},"vehicle_type_id":"4","last_reported":1766078122,"current_range_meters":12000,"station_id":"ce4bhhh2rcd13ifvqfk0","pricing_plan_id":"cebpf4jnsgd1na2vs0mg"},{"bike_id":"0af75a64-f678-4c57-a5d3-3e99a7ddd47a","system_id":"levelo_inurba_marseille","lat":43.29179,"lon":5.35802,"is_reserved":false,"is_disabled":false,"rental_uris":{"android":"levelo://app?vid=0af75a64-f678-4c57-a5d3-3e99a7ddd47a","ios":"levelo://app?vid=0af75a64-f678-4c57-a5d3-3e99a7ddd47a"},"vehicle_type_id":"4","last_reported":1766078122,"current_range_meters":12000,"station_id":"ce4bhb12rcd13ifvqel0","pricing_plan_id":"cebpf4jnsgd1na2vs0mg"},{"bike_id":"3dd236a3-4d5d-444b-83ef-4bcd20a0149c","system_id":"levelo_inurba_marseille","lat":43.28695,"lon":5.3738,"is_reserved":false,"is_disabled":false,"rental_uris":{"android":"levelo://app?vid=3dd236a3-4d5d-444b-83ef-4bcd20a0149c","ios":"levelo://app?vid=3dd236a3-4d5d-444b-83ef-4bcd20a0149c"},"vehicle_type_id":"4","last_reported":1766078122,"current_range_meters":12000,"station_id":"ce4bh3p2rcd13ifvqdq0","pricing_plan_id":"cebpf4jnsgd1na2vs0mg"},{"bike_id":"228ed5e4-a793-4f90-a46f-1e70b2793524","system_id":"levelo_inurba_marseille","lat":43.28625,"lon":5.39869,"is_reserved":false,"is_disabled":true,"rental_uris":{"android":"levelo://app?vid=228ed5e4-a793-4f90-a46f-1e70b2793524","ios":"levelo://app?vid=228ed5e4-a793-4f90-a46f-1e70b2793524"},"vehicle_type_id":"4","last_reported":1766078122,"current_range_meters":12000,"station_id":"st_d4a7ka997mjs738ck50g","pricing_plan_id":"cebpf4jnsgd1na2vs0mg"},{"bike_id":"c5365846-c619-4f12-8c92-97c9f9725a15","system_id":"levelo_inurba_marseille","lat":43.29512,"lon":5.37945,"is_reserved":false,"is_disabled":false,"rental_uris":{"android":"levelo://app?vid=c5365846-c619-4f12-8c92-97c9f9725a15","ios":"levelo://app?vid=c5365846-c619-4f12-8c92-97c9f9725a15"},"vehicle_type_id":"4","last_reported":1766078122,"current_range_meters":12000,"station_id":"","pricing_plan_id":"cebpf4jnsgd1na2vs0mg"},{"bike_id":"17468510-8a32-4513-9ff5-6a57b512fd83","system_id":"levelo_inurba_marseille","lat":43.296303,"lon":5.406033,"is_reserved":false,"is_disabled":false,"rental_uris":{"android":"levelo://app?vid=17468510-8a32-4513-9ff5-6a57b512fd83","ios":"levelo://app?vid=17468510-8a32-4513-9ff5-6a57b512fd83"},"vehicle_type_id":"4","last_reported":1766078122,"current_range_meters":12000,"station_id":"ce4bh0h2rcd13ifvqd60","pricing_plan_id":"cebpf4jnsgd1na2vs0mg"},{"bike_id":"374a0371-4968-4fe9-88a9-ac5ffa94b236","system_id":"levelo_inurba_marseille","lat":43.31463,"lon":5.45383,"is_reserved":false,"is_disabled":false,"rental_uris":{"android":"levelo://app?vid=374a0371-4968-4fe9-88a9-ac5ffa94b236","ios":"levelo://app?vid=374a0371-4968-4fe9-88a9-ac5ffa94b236"},"vehicle_type_id":"4","last_reported":1766078122,"current_range_meters":12000,"station_id":"","pricing_plan_id":"cebpf4jnsgd1na2vs0mg"},{"bike_id":"31717f22-a7cb-436f-82e9-879df8dcb655","system_id":"levelo_inurba_marseille","lat":43.29684,"lon":5.37304,"is_reserved":false,"is_disabled":false,"rental_uris":{"android":"levelo://app?vid=31717f22-a7cb-436f-82e9-879df8dcb655","ios":"levelo://app?vid=31717f22-a7cb-436f-82e9-879df8dcb655"},"vehicle_type_id":"4","last_reported":1766078122,"current_range_meters":12400,"station_id":"ce4bgk12rcd13ifvqbj0","pricing_plan_id":"cebpf4jnsgd1na2vs0mg"},{"bike_id":"5493cdc5-7629-4540-a62c-ac6638c0d679","system_id":"levelo_inurba_marseille","lat":43.295842,"lon":5.375169,"is_reserved":false,"is_disabled":false,"rental_uris":{"android":"levelo://app?vid=5493cdc5-7629-4540-a62c-ac6638c0d679","ios":"levelo://app?vid=5493cdc5-7629-4540-a62c-ac6638c0d679"},"vehicle_type_id":"4","last_reported":1766078122,"current_range_meters":12400,"station_id":"ce4bgh92rcd13ifvqb50","pricing_plan_id":"cebpf4jnsgd1na2vs0mg"},{"bike_id":"b6521d11-99b8-43ca-a853-a51747d5db82","system_id":"levelo_inurba_marseille","lat":43.301253,"lon":5.431195,"is_reserved":false,"is_disabled":false,"rental_uris":{"android":"levelo://app?vid=b6521d11-99b8-43ca-a853-a51747d5db82","ios":"levelo://app?vid=b6521d11-99b8-43ca-a853-a51747d5db82"},"vehicle_type_id":"4","last_reported":1766078122,"current_range_meters":12400,"station_id":"st_d3js3co5814s73ftftug","pricing_plan_id":"cebpf4jnsgd1na2vs0mg"},{"bike_id":"a12aec62-cb0e-4bf9-9011-6b7a9ceb2f31","system_id":"levelo_inurba_marseille","lat":43.25004,"lon":5.38961,"is_reserved":false,"is_disabled":false,"rental_uris":{"android":"levelo://app?vid=a12aec62-cb0e-4bf9-9011-6b7a9ceb2f31","ios":"levelo://app?vid=a12aec62-cb0e-4bf9-9011-6b7a9ceb2f31"},"vehicle_type_id":"4","last_reported":1766078122,"current_range_meters":12400,"station_id":"ce4bhgp2rcd13ifvqfd0","pricing_plan_id":"cebpf4jnsgd1na2vs0mg"},{"bike_id":"d50867a0-a974-4546-a28c-eba4c2e0b399","system_id":"levelo_inurba_marseille","lat":43.23205,"lon":5.35535,"is_reserved":false,"is_disabled":false,"rental_uris":{"android":"levelo://app?vid=d50867a0-a974-4546-a28c-eba4c2e0b399","ios":"levelo://app?vid=d50867a0-a974-4546-a28c-eba4c2e0b399"},"vehicle_type_id":"4","last_reported":1766078122,"current_range_meters":12400,"station_id":"ce4bhu92rcd13ifvqi70","pricing_plan_id":"cebpf4jnsgd1na2vs0mg"},{"bike_id":"1f8bf9e3-c9bd-4c05-9201-34f9580d25af","system_id":"levelo_inurba_marseille","lat":43.21197,"lon":5.35072,"is_reserved":false,"is_disabled":false,"rental_uris":{"android":"levelo://app?vid=1f8bf9e3-c9bd-4c05-9201-34f9580d25af","ios":"levelo://app?vid=1f8bf9e3-c9bd-4c05-9201-34f9580d25af"},"vehicle_type_id":"4","last_reported":1766078122,"current_range_meters":12400,"station_id":"st_cvj6sg6p6f1abm77japg","pricing_plan_id":"cebpf4jnsgd1na2vs0mg"},{"bike_id":"0d76f9ec-36de-4311-a1ef-897de10e0d0d","system_id":"levelo_inurba_marseille","lat":43.29814,"lon":5.44055,"is_reserved":false,"is_disabled":false,"rental_uris":{"android":"levelo://app?vid=0d76f9ec-36de-4311-a1ef-897de10e0d0d","ios":"levelo://app?vid=0d76f9ec-36de-4311-a1ef-897de10e0d0d"},"vehicle_type_id":"4","last_reported":1766078122,"current_range_meters":12400,"station_id":"st_d3jp68qikq2c7381ktn0","pricing_plan_id":"cebpf4jnsgd1na2vs0mg"},{"bike_id":"c90c2f07-1a89-4439-9814-c8ad89de95b8","system_id":"levelo_inurba_marseille","lat":43.28439,"lon":5.392,"is_reserved":false,"is_disabled":false,"rental_uris":{"android":"levelo://app?vid=c90c2f07-1a89-4439-9814-c8ad89de95b8","ios":"levelo://app?vid=c90c2f07-1a89-4439-9814-c8ad89de95b8"},"vehicle_type_id":"4","last_reported":1766078122,"current_range_meters":12400,"station_id":"ce4bhoh2rcd13ifvqh5g","pricing_plan_id":"cebpf4jnsgd1na2vs0mg"},{"bike_id":"e79f34f4-a454-46bc-b7bd-c453550482db","system_id":"levelo_inurba_marseille","lat":43.30545,"lon":5.36698,"is_reserved":false,"is_disabled":false,"rental_uris":{"android":"levelo://app?vid=e79f34f4-a454-46bc-b7bd-c453550482db","ios":"levelo://app?vid=e79f34f4-a454-46bc-b7bd-c453550482db"},"vehicle_type_id":"4","last_reported":1766078122,"current_range_meters":12400,"station_id":"ce4bgrp2rcd13ifvqc9g","pricing_plan_id":"cebpf4jnsgd1na2vs0mg"},{"bike_id":"95077ad6-d89a-4839-8e74-6a7fc980ebf1","system_id":"levelo_inurba_marseille","lat":43.29619,"lon":5.37719,"is_reserved":false,"is_disabled":false,"rental_uris":{"android":"levelo://app?vid=95077ad6-d89a-4839-8e74-6a7fc980ebf1","ios":"levelo://app?vid=95077ad6-d89a-4839-8e74-6a7fc980ebf1"},"vehicle_type_id":"4","last_reported":1766078122,"current_range_meters":12400,"station_id":"ce4bgi92rcd13ifvqb90","pricing_plan_id":"cebpf4jnsgd1na2vs0mg"},{"bike_id":"98df3c79-a09d-4fcd-8e72-1d835e48117a","system_id":"levelo_inurba_marseille","lat":43.31406,"lon":5.40316,"is_reserved":false,"is_disabled":false,"rental_uris":{"android":"levelo://app?vid=98df3c79-a09d-4fcd-8e72-1d835e48117a","ios":"levelo://app?vid=98df3c79-a09d-4fcd-8e72-1d835e48117a"},"vehicle_type_id":"4","last_reported":1766078122,"current_range_meters":12400,"station_id":"","pricing_plan_id":"cebpf4jnsgd1na2vs0mg"},{"bike_id":"30981822-366f-4e05-8bb8-b42e9460c20c","system_id":"levelo_inurba_marseille","lat":43.26931,"lon":5.38923,"is_reserved":false,"is_disabled":false,"rental_uris":{"android":"levelo://app?vid=30981822-366f-4e05-8bb8-b42e9460c20c","ios":"levelo://app?vid=30981822-366f-4e05-8bb8-b42e9460c20c"},"vehicle_type_id":"4","last_reported":1766078122,"current_range_meters":12800,"station_id":"ce4bhhh2rcd13ifvqfl0","pricing_plan_id":"cebpf4jnsgd1na2vs0mg"},{"bike_id":"60d0b52a-b22d-4641-8638-32b504db9022","system_id":"levelo_inurba_marseille","lat":43.29968,"lon":5.38496,"is_reserved":false,"is_disabled":false,"rental_uris":{"android":"levelo://app?vid=60d0b52a-b22d-4641-8638-32b504db9022","ios":"levelo://app?vid=60d0b52a-b22d-4641-8638-32b504db9022"},"vehicle_type_id":"4","last_reported":1766078122,"current_range_meters":12800,"station_id":"ce4bgj92rcd13ifvqbd0","pricing_plan_id":"cebpf4jnsgd1na2vs0mg"},{"bike_id":"fade1f76-6248-43fe-aeb9-7f93aeff737b","system_id":"levelo_inurba_marseille","lat":43.27913,"lon":5.39568,"is_reserved":false,"is_disabled":true,"rental_uris":{"android":"levelo://app?vid=fade1f76-6248-43fe-aeb9-7f93aeff737b","ios":"levelo://app?vid=fade1f76-6248-43fe-aeb9-7f93aeff737b"},"vehicle_type_id":"4","last_reported":1766078122,"current_range_meters":12800,"station_id":"ce4bhf92rcd13ifvqf40","pricing_plan_id":"cebpf4jnsgd1na2vs0mg"},{"bike_id":"a5796e24-e2b8-4ead-adc8-50f93c5077cd","system_id":"levelo_inurba_marseille","lat":43.28419,"lon":5.37518,"is_reserved":false,"is_disabled":false,"rental_uris":{"android":"levelo://app?vid=a5796e24-e2b8-4ead-adc8-50f93c5077cd","ios":"levelo://app?vid=a5796e24-e2b8-4ead-adc8-50f93c5077cd"},"vehicle_type_id":"4","last_reported":1766078122,"current_range_meters":12800,"station_id":"ce4bh412rcd13ifvqds0","pricing_plan_id":"cebpf4jnsgd1na2vs0mg"},{"bike_id":"b3f90214-b2ca-431a-b00a-2f652c3d9005","system_id":"levelo_inurba_marseille","lat":43.29062,"lon":5.3717,"is_reserved":false,"is_disabled":false,"rental_uris":{"android":"levelo://app?vid=b3f90214-b2ca-431a-b00a-2f652c3d9005","ios":"levelo://app?vid=b3f90214-b2ca-431a-b00a-2f652c3d9005"},"vehicle_type_id":"4","last_reported":1766078122,"current_range_meters":12800,"station_id":"ce4bh5p2rcd13ifvqe4g","pricing_plan_id":"cebpf4jnsgd1na2vs0mg"},{"bike_id":"9f6c9975-15d6-48de-a383-d85662191ef8","system_id":"levelo_inurba_marseille","lat":43.21204,"lon":5.35084,"is_reserved":false,"is_disabled":false,"rental_uris":{"android":"levelo://app?vid=9f6c9975-15d6-48de-a383-d85662191ef8","ios":"levelo://app?vid=9f6c9975-15d6-48de-a383-d85662191ef8"},"vehicle_type_id":"4","last_reported":1766078122,"current_range_meters":13600,"station_id":"st_cvj6sg6p6f1abm77japg","pricing_plan_id":"cebpf4jnsgd1na2vs0mg"},{"bike_id":"d235767a-3e44-44c9-893e-7ebda15e5a64","system_id":"levelo_inurba_marseille","lat":43.25432,"lon":5.38519,"is_reserved":false,"is_disabled":false,"rental_uris":{"android":"levelo://app?vid=d235767a-3e44-44c9-893e-7ebda15e5a64","ios":"levelo://app?vid=d235767a-3e44-44c9-893e-7ebda15e5a64"},"vehicle_type_id":"4","last_reported":1766078122,"current_range_meters":13600,"station_id":"","pricing_plan_id":"cebpf4jnsgd1na2vs0mg"},{"bike_id":"a98f6573-0322-45fc-bac4-b1042f1daf3a","system_id":"levelo_inurba_marseille","lat":43.30184,"lon":5.36631,"is_reserved":false,"is_disabled":false,"rental_uris":{"android":"levelo://app?vid=a98f6573-0322-45fc-bac4-b1042f1daf3a","ios":"levelo://app?vid=a98f6573-0322-45fc-bac4-b1042f1daf3a"},"vehicle_type_id":"4","last_reported":1766078122,"current_range_meters":13600,"station_id":"ce4bgrh2rcd13ifvqc8g","pricing_plan_id":"cebpf4jnsgd1na2vs0mg"},{"bike_id":"7857a1eb-397d-4777-9d91-21188e6ebaea","system_id":"levelo_inurba_marseille","lat":43.29297,"lon":5.37457,"is_reserved":false,"is_disabled":false,"rental_uris":{"android":"levelo://app?vid=7857a1eb-397d-4777-9d91-21188e6ebaea","ios":"levelo://app?vid=7857a1eb-397d-4777-9d91-21188e6ebaea"},"vehicle_type_id":"4","last_reported":1766078122,"current_range_meters":13600,"station_id":"ce4bgi12rcd13ifvqb70","pricing_plan_id":"cebpf4jnsgd1na2vs0mg"},{"bike_id":"d6e42f0b-51e6-4d0e-bc48-56dd5255acc9","system_id":"levelo_inurba_marseille","lat":43.26367,"lon":5.41084,"is_reserved":false,"is_disabled":false,"rental_uris":{"android":"levelo://app?vid=d6e42f0b-51e6-4d0e-bc48-56dd5255acc9","ios":"levelo://app?vid=d6e42f0b-51e6-4d0e-bc48-56dd5255acc9"},"vehicle_type_id":"4","last_reported":1766078122,"current_range_meters":13600,"station_id":"st_d4e5ca6na9uc73bfl5fg","pricing_plan_id":"cebpf4jnsgd1na2vs0mg"},{"bike_id":"54b699d7-65f2-4a7a-9f83-f79492606b86","system_id":"levelo_inurba_marseille","lat":43.30553,"lon":5.3656,"is_reserved":false,"is_disabled":false,"rental_uris":{"android":"levelo://app?vid=54b699d7-65f2-4a7a-9f83-f79492606b86","ios":"levelo://app?vid=54b699d7-65f2-4a7a-9f83-f79492606b86"},"vehicle_type_id":"4","last_reported":1766078122,"current_range_meters":13600,"station_id":"ce4bgs12rcd13ifvqcag","pricing_plan_id":"cebpf4jnsgd1na2vs0mg"},{"bike_id":"fa8312a5-bef1-4821-a3c0-bafe1bd8b1dc","system_id":"levelo_inurba_marseille","lat":43.28665,"lon":5.36347,"is_reserved":false,"is_disabled":false,"rental_uris":{"android":"levelo://app?vid=fa8312a5-bef1-4821-a3c0-bafe1bd8b1dc","ios":"levelo://app?vid=fa8312a5-bef1-4821-a3c0-bafe1bd8b1dc"},"vehicle_type_id":"4","last_reported":1766078122,"current_range_meters":13600,"station_id":"ce4bhah2rcd13ifvqej0","pricing_plan_id":"cebpf4jnsgd1na2vs0mg"},{"bike_id":"21faa4df-3e9c-465a-828a-5460bd333292","system_id":"levelo_inurba_marseille","lat":43.29575,"lon":5.37514,"is_reserved":false,"is_disabled":false,"rental_uris":{"android":"levelo://app?vid=21faa4df-3e9c-465a-828a-5460bd333292","ios":"levelo://app?vid=21faa4df-3e9c-465a-828a-5460bd333292"},"vehicle_type_id":"4","last_reported":1766078122,"current_range_meters":13600,"station_id":"ce4bgh92rcd13ifvqb50","pricing_plan_id":"cebpf4jnsgd1na2vs0mg"},{"bike_id":"24df08af-7a2c-4580-b263-bcb3f62d73e3","system_id":"levelo_inurba_marseille","lat":43.24466,"lon":5.42533,"is_reserved":false,"is_disabled":false,"rental_uris":{"android":"levelo://app?vid=24df08af-7a2c-4580-b263-bcb3f62d73e3","ios":"levelo://app?vid=24df08af-7a2c-4580-b263-bcb3f62d73e3"},"vehicle_type_id":"4","last_reported":1766078122,"current_range_meters":13600,"station_id":"st_d4a3vfp97mjs738cd8kg","pricing_plan_id":"cebpf4jnsgd1na2vs0mg"},{"bike_id":"5de0439d-d116-4c9b-af70-2dddd4a475e3","system_id":"levelo_inurba_marseille","lat":43.26498,"lon":5.39558,"is_reserved":false,"is_disabled":false,"rental_uris":{"android":"levelo://app?vid=5de0439d-d116-4c9b-af70-2dddd4a475e3","ios":"levelo://app?vid=5de0439d-d116-4c9b-af70-2dddd4a475e3"},"vehicle_type_id":"4","last_reported":1766078122,"current_range_meters":13600,"station_id":"ce4bhi12rcd13ifvqfq0","pricing_plan_id":"cebpf4jnsgd1na2vs0mg"},{"bike_id":"4218c3f6-4764-47cf-93fc-c76838aefb78","system_id":"levelo_inurba_marseille","lat":43.241599,"lon":5.364075,"is_reserved":false,"is_disabled":false,"rental_uris":{"android":"levelo://app?vid=4218c3f6-4764-47cf-93fc-c76838aefb78","ios":"levelo://app?vid=4218c3f6-4764-47cf-93fc-c76838aefb78"},"vehicle_type_id":"4","last_reported":1766078122,"current_range_meters":14000,"station_id":"cpo36qri1sfpv3e86is0","pricing_plan_id":"cebpf4jnsgd1na2vs0mg"},{"bike_id":"22ddceb0-01db-4062-8a59-3d864411b1e4","system_id":"levelo_inurba_marseille","lat":43.29266,"lon":5.4091,"is_reserved":false,"is_disabled":false,"rental_uris":{"android":"levelo://app?vid=22ddceb0-01db-4062-8a59-3d864411b1e4","ios":"levelo://app?vid=22ddceb0-01db-4062-8a59-3d864411b1e4"},"vehicle_type_id":"4","last_reported":1766078122,"current_range_meters":14000,"station_id":"ce4bh192rcd13ifvqdc0","pricing_plan_id":"cebpf4jnsgd1na2vs0mg"},{"bike_id":"81b4879d-5423-4aad-a0bc-1edbef8c668c","system_id":"levelo_inurba_marseille","lat":43.24167,"lon":5.36385,"is_reserved":false,"is_disabled":false,"rental_uris":{"android":"levelo://app?vid=81b4879d-5423-4aad-a0bc-1edbef8c668c","ios":"levelo://app?vid=81b4879d-5423-4aad-a0bc-1edbef8c668c"},"vehicle_type_id":"4","last_reported":1766078122,"current_range_meters":14000,"station_id":"cpo36qri1sfpv3e86is0","pricing_plan_id":"cebpf4jnsgd1na2vs0mg"},{"bike_id":"d0dd282f-2c05-49dd-834d-6d93cee6c88a","system_id":"levelo_inurba_marseille","lat":43.30203,"lon":5.36624,"is_reserved":false,"is_disabled":true,"rental_uris":{"android":"levelo://app?vid=d0dd282f-2c05-49dd-834d-6d93cee6c88a","ios":"levelo://app?vid=d0dd282f-2c05-49dd-834d-6d93cee6c88a"},"vehicle_type_id":"4","last_reported":1766078122,"current_range_meters":14000,"station_id":"ce4bgrh2rcd13ifvqc8g","pricing_plan_id":"cebpf4jnsgd1na2vs0mg"},{"bike_id":"31a8a530-d875-470f-bb82-c3f6f0a5a4e2","system_id":"levelo_inurba_marseille","lat":43.29491,"lon":5.43294,"is_reserved":false,"is_disabled":false,"rental_uris":{"android":"levelo://app?vid=31a8a530-d875-470f-bb82-c3f6f0a5a4e2","ios":"levelo://app?vid=31a8a530-d875-470f-bb82-c3f6f0a5a4e2"},"vehicle_type_id":"4","last_reported":1766078122,"current_range_meters":14000,"station_id":"st_d3j5ugp08ojc73fj9d10","pricing_plan_id":"cebpf4jnsgd1na2vs0mg"},{"bike_id":"5247c107-c5e5-474f-8cc9-64a51152159b","system_id":"levelo_inurba_marseille","lat":43.301187,"lon":5.431235,"is_reserved":false,"is_disabled":false,"rental_uris":{"android":"levelo://app?vid=5247c107-c5e5-474f-8cc9-64a51152159b","ios":"levelo://app?vid=5247c107-c5e5-474f-8cc9-64a51152159b"},"vehicle_type_id":"4","last_reported":1766078122,"current_range_meters":14000,"station_id":"st_d3js3co5814s73ftftug","pricing_plan_id":"cebpf4jnsgd1na2vs0mg"},{"bike_id":"f3a4c2fd-c27a-4ca6-bbe5-3949d2a88808","system_id":"levelo_inurba_marseille","lat":43.28572,"lon":5.42984,"is_reserved":false,"is_disabled":false,"rental_uris":{"android":"levelo://app?vid=f3a4c2fd-c27a-4ca6-bbe5-3949d2a88808","ios":"levelo://app?vid=f3a4c2fd-c27a-4ca6-bbe5-3949d2a88808"},"vehicle_type_id":"4","last_reported":1766078122,"current_range_meters":14000,"station_id":"","pricing_plan_id":"cebpf4jnsgd1na2vs0mg"},{"bike_id":"2c75ad9d-3cc0-42db-9aed-ad7814b77759","system_id":"levelo_inurba_marseille","lat":43.29874,"lon":5.39736,"is_reserved":false,"is_disabled":false,"rental_uris":{"android":"levelo://app?vid=2c75ad9d-3cc0-42db-9aed-ad7814b77759","ios":"levelo://app?vid=2c75ad9d-3cc0-42db-9aed-ad7814b77759"},"vehicle_type_id":"4","last_reported":1766078122,"current_range_meters":14000,"station_id":"ce4bh0h2rcd13ifvqd50","pricing_plan_id":"cebpf4jnsgd1na2vs0mg"},{"bike_id":"ddedb140-ab44-49b4-88fc-f6e9cbc01202","system_id":"levelo_inurba_marseille","lat":43.27823,"lon":5.39194,"is_reserved":false,"is_disabled":false,"rental_uris":{"android":"levelo://app?vid=ddedb140-ab44-49b4-88fc-f6e9cbc01202","ios":"levelo://app?vid=ddedb140-ab44-49b4-88fc-f6e9cbc01202"},"vehicle_type_id":"4","last_reported":1766078122,"current_range_meters":14000,"station_id":"ce4bhjp2rcd13ifvqga0","pricing_plan_id":"cebpf4jnsgd1na2vs0mg"},{"bike_id":"44c8ee26-e673-4d40-9084-3982e64056ec","system_id":"levelo_inurba_marseille","lat":43.28363,"lon":5.38622,"is_reserved":false,"is_disabled":false,"rental_uris":{"android":"levelo://app?vid=44c8ee26-e673-4d40-9084-3982e64056ec","ios":"levelo://app?vid=44c8ee26-e673-4d40-9084-3982e64056ec"},"vehicle_type_id":"4","last_reported":1766078122,"current_range_meters":14000,"station_id":"ce4bh492rcd13ifvqdvg","pricing_plan_id":"cebpf4jnsgd1na2vs0mg"},{"bike_id":"1f056b37-e3f2-4d39-81cb-848d585f8a47","system_id":"levelo_inurba_marseille","lat":43.241696,"lon":5.364067,"is_reserved":false,"is_disabled":false,"rental_uris":{"android":"levelo://app?vid=1f056b37-e3f2-4d39-81cb-848d585f8a47","ios":"levelo://app?vid=1f056b37-e3f2-4d39-81cb-848d585f8a47"},"vehicle_type_id":"4","last_reported":1766078122,"current_range_meters":14000,"station_id":"cpo36qri1sfpv3e86is0","pricing_plan_id":"cebpf4jnsgd1na2vs0mg"},{"bike_id":"73c84bae-15df-4073-92de-1bf756dd2847","system_id":"levelo_inurba_marseille","lat":43.31166,"lon":5.38706,"is_reserved":false,"is_disabled":false,"rental_uris":{"android":"levelo://app?vid=73c84bae-15df-4073-92de-1bf756dd2847","ios":"levelo://app?vid=73c84bae-15df-4073-92de-1bf756dd2847"},"vehicle_type_id":"4","last_reported":1766078122,"current_range_meters":14400,"station_id":"ce4bgv12rcd13ifvqcp0","pricing_plan_id":"cebpf4jnsgd1na2vs0mg"},{"bike_id":"e7dfab09-bfd4-4367-ac6a-0fd9a0169d94","system_id":"levelo_inurba_marseille","lat":43.30137,"lon":5.37415,"is_reserved":false,"is_disabled":false,"rental_uris":{"android":"levelo://app?vid=e7dfab09-bfd4-4367-ac6a-0fd9a0169d94","ios":"levelo://app?vid=e7dfab09-bfd4-4367-ac6a-0fd9a0169d94"},"vehicle_type_id":"4","last_reported":1766078122,"current_range_meters":14400,"station_id":"ce4bgs92rcd13ifvqcc0","pricing_plan_id":"cebpf4jnsgd1na2vs0mg"},{"bike_id":"991edd74-bb53-4aa8-acd2-061ad0617e1f","system_id":"levelo_inurba_marseille","lat":43.28464,"lon":5.35878,"is_reserved":false,"is_disabled":false,"rental_uris":{"android":"levelo://app?vid=991edd74-bb53-4aa8-acd2-061ad0617e1f","ios":"levelo://app?vid=991edd74-bb53-4aa8-acd2-061ad0617e1f"},"vehicle_type_id":"4","last_reported":1766078122,"current_range_meters":14400,"station_id":"ce4bhah2rcd13ifvqei0","pricing_plan_id":"cebpf4jnsgd1na2vs0mg"},{"bike_id":"17a49efb-d179-4b85-b20c-4afe87c0613f","system_id":"levelo_inurba_marseille","lat":43.310563,"lon":5.371819,"is_reserved":false,"is_disabled":true,"rental_uris":{"android":"levelo://app?vid=17a49efb-d179-4b85-b20c-4afe87c0613f","ios":"levelo://app?vid=17a49efb-d179-4b85-b20c-4afe87c0613f"},"vehicle_type_id":"4","last_reported":1766078122,"current_range_meters":14400,"station_id":"st_d4kl2rp97mjs73e7tdfg","pricing_plan_id":"cebpf4jnsgd1na2vs0mg"},{"bike_id":"1fe61e53-783b-4be3-86da-1e2214f6789d","system_id":"levelo_inurba_marseille","lat":43.29778,"lon":5.38051,"is_reserved":false,"is_disabled":false,"rental_uris":{"android":"levelo://app?vid=1fe61e53-783b-4be3-86da-1e2214f6789d","ios":"levelo://app?vid=1fe61e53-783b-4be3-86da-1e2214f6789d"},"vehicle_type_id":"4","last_reported":1766078122,"current_range_meters":14400,"station_id":"","pricing_plan_id":"cebpf4jnsgd1na2vs0mg"},{"bike_id":"907c6bab-d04b-4a2f-a93b-74499e90fd68","system_id":"levelo_inurba_marseille","lat":43.31169,"lon":5.36905,"is_reserved":false,"is_disabled":false,"rental_uris":{"android":"levelo://app?vid=907c6bab-d04b-4a2f-a93b-74499e90fd68","ios":"levelo://app?vid=907c6bab-d04b-4a2f-a93b-74499e90fd68"},"vehicle_type_id":"4","last_reported":1766078122,"current_range_meters":14800,"station_id":"ce4bgl92rcd13ifvqbq0","pricing_plan_id":"cebpf4jnsgd1na2vs0mg"},{"bike_id":"254d37b4-a453-4bef-8698-ef2e940aac87","system_id":"levelo_inurba_marseille","lat":43.28444,"lon":5.39215,"is_reserved":false,"is_disabled":false,"rental_uris":{"android":"levelo://app?vid=254d37b4-a453-4bef-8698-ef2e940aac87","ios":"levelo://app?vid=254d37b4-a453-4bef-8698-ef2e940aac87"},"vehicle_type_id":"4","last_reported":1766078122,"current_range_meters":14800,"station_id":"ce4bhoh2rcd13ifvqh5g","pricing_plan_id":"cebpf4jnsgd1na2vs0mg"},{"bike_id":"b494c767-effb-47c2-9a4d-0fc429c1d80d","system_id":"levelo_inurba_marseille","lat":43.29582,"lon":5.37498,"is_reserved":false,"is_disabled":true,"rental_uris":{"android":"levelo://app?vid=b494c767-effb-47c2-9a4d-0fc429c1d80d","ios":"levelo://app?vid=b494c767-effb-47c2-9a4d-0fc429c1d80d"},"vehicle_type_id":"4","last_reported":1766078122,"current_range_meters":14800,"station_id":"","pricing_plan_id":"cebpf4jnsgd1na2vs0mg"},{"bike_id":"428005c2-cad1-45c0-b21b-4f19a3c6722b","system_id":"levelo_inurba_marseille","lat":43.26788,"lon":5.3941,"is_reserved":false,"is_disabled":false,"rental_uris":{"android":"levelo://app?vid=428005c2-cad1-45c0-b21b-4f19a3c6722b","ios":"levelo://app?vid=428005c2-cad1-45c0-b21b-4f19a3c6722b"},"vehicle_type_id":"4","last_reported":1766078122,"current_range_meters":14800,"station_id":"ce4bhh12rcd13ifvqfg0","pricing_plan_id":"cebpf4jnsgd1na2vs0mg"},{"bike_id":"b047d172-4619-465f-bfa8-bcfcddc11d45","system_id":"levelo_inurba_marseille","lat":43.26942,"lon":5.40244,"is_reserved":false,"is_disabled":false,"rental_uris":{"android":"levelo://app?vid=b047d172-4619-465f-bfa8-bcfcddc11d45","ios":"levelo://app?vid=b047d172-4619-465f-bfa8-bcfcddc11d45"},"vehicle_type_id":"4","last_reported":1766078122,"current_range_meters":14800,"station_id":"cjm6bp8fraef2m0cb0m0","pricing_plan_id":"cebpf4jnsgd1na2vs0mg"},{"bike_id":"cfd15235-50b2-46fb-ae2d-9c051300d0ae","system_id":"levelo_inurba_marseille","lat":43.30122,"lon":5.38781,"is_reserved":false,"is_disabled":false,"rental_uris":{"android":"levelo://app?vid=cfd15235-50b2-46fb-ae2d-9c051300d0ae","ios":"levelo://app?vid=cfd15235-50b2-46fb-ae2d-9c051300d0ae"},"vehicle_type_id":"4","last_reported":1766078122,"current_range_meters":14800,"station_id":"ce4bghh2rcd13ifvqb60","pricing_plan_id":"cebpf4jnsgd1na2vs0mg"},{"bike_id":"cf5eb2c1-c87d-4ae3-9256-41d8d82f1276","system_id":"levelo_inurba_marseille","lat":43.2924,"lon":5.3605,"is_reserved":false,"is_disabled":false,"rental_uris":{"android":"levelo://app?vid=cf5eb2c1-c87d-4ae3-9256-41d8d82f1276","ios":"levelo://app?vid=cf5eb2c1-c87d-4ae3-9256-41d8d82f1276"},"vehicle_type_id":"4","last_reported":1766078122,"current_range_meters":14800,"station_id":"ce4bhbh2rcd13ifvqeqg","pricing_plan_id":"cebpf4jnsgd1na2vs0mg"},{"bike_id":"413557ff-13d9-40fb-81ee-6ad5e7d92bea","system_id":"levelo_inurba_marseille","lat":43.211882,"lon":5.350722,"is_reserved":false,"is_disabled":false,"rental_uris":{"android":"levelo://app?vid=413557ff-13d9-40fb-81ee-6ad5e7d92bea","ios":"levelo://app?vid=413557ff-13d9-40fb-81ee-6ad5e7d92bea"},"vehicle_type_id":"4","last_reported":1766078122,"current_range_meters":14800,"station_id":"st_cvj6sg6p6f1abm77japg","pricing_plan_id":"cebpf4jnsgd1na2vs0mg"},{"bike_id":"dd786294-b166-4a73-b42d-22e3724edb43","system_id":"levelo_inurba_marseille","lat":43.26568,"lon":5.39013,"is_reserved":false,"is_disabled":false,"rental_uris":{"android":"levelo://app?vid=dd786294-b166-4a73-b42d-22e3724edb43","ios":"levelo://app?vid=dd786294-b166-4a73-b42d-22e3724edb43"},"vehicle_type_id":"4","last_reported":1766078122,"current_range_meters":14800,"station_id":"ce4bhe12rcd13ifvqf30","pricing_plan_id":"cebpf4jnsgd1na2vs0mg"},{"bike_id":"55fb2780-cfab-42dc-9a84-bf15fefe4c44","system_id":"levelo_inurba_marseille","lat":43.310779,"lon":5.38348,"is_reserved":false,"is_disabled":false,"rental_uris":{"android":"levelo://app?vid=55fb2780-cfab-42dc-9a84-bf15fefe4c44","ios":"levelo://app?vid=55fb2780-cfab-42dc-9a84-bf15fefe4c44"},"vehicle_type_id":"4","last_reported":1766078122,"current_range_meters":14800,"station_id":"ce4bgv92rcd13ifvqcr0","pricing_plan_id":"cebpf4jnsgd1na2vs0mg"},{"bike_id":"9b3ad9e9-6c8e-47dd-9f00-d7499ff2fa77","system_id":"levelo_inurba_marseille","lat":43.21189,"lon":5.35074,"is_reserved":false,"is_disabled":false,"rental_uris":{"android":"levelo://app?vid=9b3ad9e9-6c8e-47dd-9f00-d7499ff2fa77","ios":"levelo://app?vid=9b3ad9e9-6c8e-47dd-9f00-d7499ff2fa77"},"vehicle_type_id":"4","last_reported":1766078122,"current_range_meters":14800,"station_id":"st_cvj6sg6p6f1abm77japg","pricing_plan_id":"cebpf4jnsgd1na2vs0mg"},{"bike_id":"346b8d57-1b64-4aac-b200-9053293cc5ef","system_id":"levelo_inurba_marseille","lat":43.30132,"lon":5.39863,"is_reserved":false,"is_disabled":false,"rental_uris":{"android":"levelo://app?vid=346b8d57-1b64-4aac-b200-9053293cc5ef","ios":"levelo://app?vid=346b8d57-1b64-4aac-b200-9053293cc5ef"},"vehicle_type_id":"4","last_reported":1766078122,"current_range_meters":14800,"station_id":"ce4bh0h2rcd13ifvqd40","pricing_plan_id":"cebpf4jnsgd1na2vs0mg"},{"bike_id":"b9da4ad4-c964-4a5e-80bf-e36b1a893b10","system_id":"levelo_inurba_marseille","lat":43.30247,"lon":5.40049,"is_reserved":false,"is_disabled":false,"rental_uris":{"android":"levelo://app?vid=b9da4ad4-c964-4a5e-80bf-e36b1a893b10","ios":"levelo://app?vid=b9da4ad4-c964-4a5e-80bf-e36b1a893b10"},"vehicle_type_id":"4","last_reported":1766078122,"current_range_meters":15200,"station_id":"ce4bgvh2rcd13ifvqcs0","pricing_plan_id":"cebpf4jnsgd1na2vs0mg"},{"bike_id":"037388b2-0530-4445-b3c1-aee2f3b479e0","system_id":"levelo_inurba_marseille","lat":43.28706,"lon":5.37389,"is_reserved":false,"is_disabled":false,"rental_uris":{"android":"levelo://app?vid=037388b2-0530-4445-b3c1-aee2f3b479e0","ios":"levelo://app?vid=037388b2-0530-4445-b3c1-aee2f3b479e0"},"vehicle_type_id":"4","last_reported":1766078122,"current_range_meters":15200,"station_id":"ce4bh3p2rcd13ifvqdq0","pricing_plan_id":"cebpf4jnsgd1na2vs0mg"},