{"last_updated":1745946558,"ttl":60,"version":"2.2","data":{"bikes":[{"bike_id":"0d42d741-2505-42aa-b79a-41df572094e2","system_id":"levelo_inurba_marseille","lat":43.276329,"lon":5.39317,"is_reserved":false,"is_disabled":true,"rental_uris":{"android":"levelo://app?vid=0d42d741-2505-42aa-b79a-41df572094e2","ios":"levelo://app?vid=0d42d741-2505-42aa-b79a-41df572094e2"},"vehicle_type_id":"4","last_reported":1745946559,"current_range_meters":0,"station_id":"","pricing_plan_id":"cebpf4jnsgd1na2vs0mg"},{"bike_id":"b156cb3a-a131-4c8b-b3b5-13ae6db8151f","system_id":"levelo_inurba_marseille","lat":43.26865,"lon":5.38162,"is_reserved":false,"is_disabled":true,"rental_uris":{"android":"levelo://app?vid=b156cb3a-a131-4c8b-b3b5-13ae6db8151f","ios":"levelo://app?vid=b156cb3a-a131-4c8b-b3b5-13ae6db8151f"},"vehicle_type_id":"4","last_reported":1745946559,"current_range_meters":0,"station_id":"","pricing_plan_id":"cebpf4jnsgd1na2vs0mg"},{"bike_id":"2b6b7bcc-8628-473a-9134-84c7ea90ae25","system_id":"levelo_inurba_marseille","lat":43.275428,"lon":5.389948,"is_reserved":false,"is_disabled":true,"rental_uris":{"android":"levelo://app?vid=2b6b7bcc-8628-473a-9134-84c7ea90ae25","ios":"levelo://app?vid=2b6b7bcc-8628-473a-9134-84c7ea90ae25"},"vehicle_type_id":"4","last_reported":1745946559,"current_range_meters":0,"station_id":"","pricing_plan_id":"cebpf4jnsgd1na2vs0mg"},{"bike_id":"8f515858-71d6-4b47-b989-20758303e199","system_id":"levelo_inurba_marseille","lat":43.26795,"lon":5.42693,"is_reserved":false,"is_disabled":true,"rental_uris":{"android":"levelo://app?vid=8f515858-71d6-4b47-b989-20758303e199","ios":"levelo://app?vid=8f515858-71d6-4b47-b989-20758303e199"},"vehicle_type_id":"4","last_reported":1745946559,"current_range_meters":0,"station_id":"","pricing_plan_id":"cebpf4jnsgd1na2vs0mg"},{"bike_id":"90fb685e-8c64-4b35-9fa7-ae79ddbb8169","system_id":"levelo_inurba_marseille","lat":43.28985,"lon":5.38672,"is_reserved":false,"is_disabled":true,"rental_uris":{"android":"levelo://app?vid=90fb685e-8c64-4b35-9fa7-ae79ddbb8169","ios":"levelo://app?vid=90fb685e-8c64-4b35-9fa7-ae79ddbb8169"},"vehicle_type_id":"4","last_reported":1745946559,"current_range_meters":0,"station_id":"","pricing_plan_id":"cebpf4jnsgd1na2vs0mg"},{"bike_id":"74677f28-3596-4c5b-98de-ba4120a70f9d","system_id":"levelo_inurba_marseille","lat":43.256223,"lon":5.411894,"is_reserved":false,"is_disabled":true,"rental_uris":{"android":"levelo://app?vid=74677f28-3596-4c5b-98de-ba4120a70f9d","ios":"levelo://app?vid=74677f28-3596-4c5b-98de-ba4120a70f9d"},"vehicle_type_id":"4","last_reported":1745946559,"current_range_meters":0,"station_id":"","pricing_plan_id":"cebpf4jnsgd1na2vs0mg"},{"bike_id":"9e2ed24c-a8e8-4759-b396-7d820551a1cd","system_id":"levelo_inurba_marseille","lat":43.26712,"lon":5.4022,"is_reserved":false,"is_disabled":true,"rental_uris":{"android":"levelo://app?vid=9e2ed24c-a8e8-4759-b396-7d820551a1cd","ios":"levelo://app?vid=9e2ed24c-a8e8-4759-b396-7d820551a1cd"},"vehicle_type_id":"4","last_reported":1745946559,"current_range_meters":0,"station_id":"","pricing_plan_id":"cebpf4jnsgd1na2vs0mg"},{"bike_id":"705db5aa-feb0-4862-923d-cfb22bced0d3","system_id":"levelo_inurba_marseille","lat":43.21453,"lon":5.34825,"is_reserved":false,"is_disabled":true,"rental_uris":{"android":"levelo://app?vid=705db5aa-feb0-4862-923d-cfb22bced0d3","ios":"levelo://app?vid=705db5aa-feb0-4862-923d-cfb22bced0d3"},"vehicle_type_id":"4","last_reported":1745946559,"current_range_meters":0,"station_id":"","pricing_plan_id":"cebpf4jnsgd1na2vs0mg"},{"bike_id":"8a411d62-5acf-4152-9e82-8a74e1c16019","system_id":"levelo_inurba_marseille","lat":43.29909,"lon":5.38138,"is_reserved":false,"is_disabled":true,"rental_uris":{"android":"levelo://app?vid=8a411d62-5acf-4152-9e82-8a74e1c16019","ios":"levelo://app?vid=8a411d62-5acf-4152-9e82-8a74e1c16019"},"vehicle_type_id":"4","last_reported":1745946559,"current_range_meters":0,"station_id":"ce4bgj12rcd13ifvqbc0","pricing_plan_id":"cebpf4jnsgd1na2vs0mg"},{"bike_id":"4b6f529c-4a79-4ef1-80e0-429f6e97bfad","system_id":"levelo_inurba_marseille","lat":43.2795,"lon":5.3534,"is_reserved":false,"is_disabled":true,"rental_uris":{"android":"levelo://app?vid=4b6f529c-4a79-4ef1-80e0-429f6e97bfad","ios":"levelo://app?vid=4b6f529c-4a79-4ef1-80e0-429f6e97bfad"},"vehicle_type_id":"4","last_reported":1745946559,"current_range_meters":0,"station_id":"ce4bgj92rcd13ifvqbe0","pricing_plan_id":"cebpf4jnsgd1na2vs0mg"},{"bike_id":"1650559e-9a22-4400-ad66-4538bed3f14f","system_id":"levelo_inurba_marseille","lat":43.29604,"lon":5.38102,"is_reserved":false,"is_disabled":true,"rental_uris":{"android":"levelo://app?vid=1650559e-9a22-4400-ad66-4538bed3f14f","ios":"levelo://app?vid=1650559e-9a22-4400-ad66-4538bed3f14f"},"vehicle_type_id":"4","last_reported":1745946559,"current_range_meters":0,"station_id":"ce4bgl12rcd13ifvqbo0","pricing_plan_id":"cebpf4jnsgd1na2vs0mg"},{"bike_id":"531e9a82-3316-4efe-8ac2-723cf06af81f","system_id":"levelo_inurba_marseille","lat":43.314935,"lon":5.373025,"is_reserved":false,"is_disabled":true,"rental_uris":{"android":"levelo://app?vid=531e9a82-3316-4efe-8ac2-723cf06af81f","ios":"levelo://app?vid=531e9a82-3316-4efe-8ac2-723cf06af81f"},"vehicle_type_id":"4","last_reported":1745946559,"current_range_meters":0,"station_id":"ce4bgt12rcd13ifvqcd0","pricing_plan_id":"cebpf4jnsgd1na2vs0mg"},{"bike_id":"1eda0dd6-8e4b-4317-98e0-1a1565da3644","system_id":"levelo_inurba_marseille","lat":43.30883,"lon":5.39652,"is_reserved":false,"is_disabled":true,"rental_uris":{"android":"levelo://app?vid=1eda0dd6-8e4b-4317-98e0-1a1565da3644","ios":"levelo://app?vid=1eda0dd6-8e4b-4317-98e0-1a1565da3644"},"vehicle_type_id":"4","last_reported":1745946559,"current_range_meters":0,"station_id":"ce4bh012rcd13ifvqcv0","pricing_plan_id":"cebpf4jnsgd1na2vs0mg"},{"bike_id":"67f0824d-ae95-45b2-8275-29273ee7e0b8","system_id":"levelo_inurba_marseille","lat":43.31707,"lon":5.40456,"is_reserved":false,"is_disabled":true,"rental_uris":{"android":"levelo://app?vid=67f0824d-ae95-45b2-8275-29273ee7e0b8","ios":"levelo://app?vid=67f0824d-ae95-45b2-8275-29273ee7e0b8"},"vehicle_type_id":"4","last_reported":1745946559,"current_range_meters":0,"station_id":"ce4bh012rcd13ifvqd00","pricing_plan_id":"cebpf4jnsgd1na2vs0mg"},{"bike_id":"4bd78607-ca76-4c79-b00a-58f8503f3b00","system_id":"levelo_inurba_marseille","lat":43.29413,"lon":5.38624,"is_reserved":false,"is_disabled":true,"rental_uris":{"android":"levelo://app?vid=4bd78607-ca76-4c79-b00a-58f8503f3b00","ios":"levelo://app?vid=4bd78607-ca76-4c79-b00a-58f8503f3b00"},"vehicle_type_id":"4","last_reported":1745946559,"current_range_meters":0,"station_id":"ce4bh2h2rcd13ifvqdh0","pricing_plan_id":"cebpf4jnsgd1na2vs0mg"},{"bike_id":"98ac3ad0-bc9d-438c-9532-80e9f18ff6b9","system_id":"levelo_inurba_marseille","lat":43.29062,"lon":5.37165,"is_reserved":false,"is_disabled":true,"rental_uris":{"android":"levelo://app?vid=98ac3ad0-bc9d-438c-9532-80e9f18ff6b9","ios":"levelo://app?vid=98ac3ad0-bc9d-438c-9532-80e9f18ff6b9"},"vehicle_type_id":"4","last_reported":1745946559,"current_range_meters":0,"station_id":"ce4bh5p2rcd13ifvqe4g","pricing_plan_id":"cebpf4jnsgd1na2vs0mg"},{"bike_id":"2fdb36de-3702-4391-aede-7713a708ebb8","system_id":"levelo_inurba_marseille","lat":43.280384,"lon":5.369465,"is_reserved":false,"is_disabled":true,"rental_uris":{"android":"levelo://app?vid=2fdb36de-3702-4391-aede-7713a708ebb8","ios":"levelo://app?vid=2fdb36de-3702-4391-aede-7713a708ebb8"},"vehicle_type_id":"4","last_reported":1745946559,"current_range_meters":0,"station_id":"ce4bha12rcd13ifvqef0","pricing_plan_id":"cebpf4jnsgd1na2vs0mg"},{"bike_id":"56050050-85bf-46e5-89c6-f1e0b0724def","system_id":"levelo_inurba_marseille","lat":43.28926,"lon":5.3663,"is_reserved":false,"is_disabled":true,"rental_uris":{"android":"levelo://app?vid=56050050-85bf-46e5-89c6-f1e0b0724def","ios":"levelo://app?vid=56050050-85bf-46e5-89c6-f1e0b0724def"},"vehicle_type_id":"4","last_reported":1745946559,"current_range_meters":0,"station_id":"ce4bhap2rcd13ifvqek0","pricing_plan_id":"cebpf4jnsgd1na2vs0mg"},{"bike_id":"7f9277e8-0e6f-416b-a116-571e43807128","system_id":"levelo_inurba_marseille","lat":43.29218,"lon":5.36063,"is_reserved":false,"is_disabled":true,"rental_uris":{"android":"levelo://app?vid=7f9277e8-0e6f-416b-a116-571e43807128","ios":"levelo://app?vid=7f9277e8-0e6f-416b-a116-571e43807128"},"vehicle_type_id":"4","last_reported":1745946559,"current_range_meters":0,"station_id":"ce4bhbh2rcd13ifvqeqg","pricing_plan_id":"cebpf4jnsgd1na2vs0mg"},{"bike_id":"ba7bdcf8-c2ac-483d-8255-49b90a4660e5","system_id":"levelo_inurba_marseille","lat":43.28272,"lon":5.35056,"is_reserved":false,"is_disabled":true,"rental_uris":{"android":"levelo://app?vid=ba7bdcf8-c2ac-483d-8255-49b90a4660e5","ios":"levelo://app?vid=ba7bdcf8-c2ac-483d-8255-49b90a4660e5"},"vehicle_type_id":"4","last_reported":1745946559,"current_range_meters":0,"station_id":"ce4bhbp2rcd13ifvqerg","pricing_plan_id":"cebpf4jnsgd1na2vs0mg"},{"bike_id":"b5bddee3-e9c7-4f90-9ebb-0b7d67018005","system_id":"levelo_inurba_marseille","lat":43.286116,"lon":5.351145,"is_reserved":false,"is_disabled":false,"rental_uris":{"android":"levelo://app?vid=b5bddee3-e9c7-4f90-9ebb-0b7d67018005","ios":"levelo://app?vid=b5bddee3-e9c7-4f90-9ebb-0b7d67018005"},"vehicle_type_id":"4","last_reported":1745946559,"current_range_meters":0,"station_id":"ce4bhch2rcd13ifvqeug","pricing_plan_id":"cebpf4jnsgd1na2vs0mg"},{"bike_id":"a7d18e16-49bf-4595-8de6-b23f1fc76922","system_id":"levelo_inurba_marseille","lat":43.27549,"lon":5.38439,"is_reserved":false,"is_disabled":true,"rental_uris":{"android":"levelo://app?vid=a7d18e16-49bf-4595-8de6-b23f1fc76922","ios":"levelo://app?vid=a7d18e16-49bf-4595-8de6-b23f1fc76922"},"vehicle_type_id":"4","last_reported":1745946559,"current_range_meters":0,"station_id":"ce4bhh92rcd13ifvqfi0","pricing_plan_id":"cebpf4jnsgd1na2vs0mg"},{"bike_id":"b248b367-cc2e-443f-8c57-cdeecf399865","system_id":"levelo_inurba_marseille","lat":43.27207,"lon":5.39179,"is_reserved":false,"is_disabled":true,"rental_uris":{"android":"levelo://app?vid=b248b367-cc2e-443f-8c57-cdeecf399865","ios":"levelo://app?vid=b248b367-cc2e-443f-8c57-cdeecf399865"},"vehicle_type_id":"4","last_reported":1745946559,"current_range_meters":0,"station_id":"ce4bhhp2rcd13ifvqfm0","pricing_plan_id":"cebpf4jnsgd1na2vs0mg"},{"bike_id":"a90c3573-ff34-44e9-82d2-639bfefff35b","system_id":"levelo_inurba_marseille","lat":43.25822,"lon":5.39437,"is_reserved":false,"is_disabled":true,"rental_uris":{"android":"levelo://app?vid=a90c3573-ff34-44e9-82d2-639bfefff35b","ios":"levelo://app?vid=a90c3573-ff34-44e9-82d2-639bfefff35b"},"vehicle_type_id":"4","last_reported":1745946559,"current_range_meters":0,"station_id":"ce4bhip2rcd13ifvqft0","pricing_plan_id":"cebpf4jnsgd1na2vs0mg"},{"bike_id":"4fcd1251-cac3-470d-8512-0c43c0e1aa00","system_id":"levelo_inurba_marseille","lat":43.27053,"lon":5.40276,"is_reserved":false,"is_disabled":true,"rental_uris":{"android":"levelo://app?vid=4fcd1251-cac3-470d-8512-0c43c0e1aa00","ios":"levelo://app?vid=4fcd1251-cac3-470d-8512-0c43c0e1aa00"},"vehicle_type_id":"4","last_reported":1745946559,"current_range_meters":0,"station_id":"ce4bhk92rcd13ifvqgc0","pricing_plan_id":"cebpf4jnsgd1na2vs0mg"},{"bike_id":"c716d2d8-c1b5-4248-ba60-90f3026c326b","system_id":"levelo_inurba_marseille","lat":43.27957,"lon":5.41071,"is_reserved":false,"is_disabled":true,"rental_uris":{"android":"levelo://app?vid=c716d2d8-c1b5-4248-ba60-90f3026c326b","ios":"levelo://app?vid=c716d2d8-c1b5-4248-ba60-90f3026c326b"},"vehicle_type_id":"4","last_reported":1745946559,"current_range_meters":0,"station_id":"ce4bhnp2rcd13ifvqh0g","pricing_plan_id":"cebpf4jnsgd1na2vs0mg"},{"bike_id":"ddcbad70-7d75-4955-9d75-c843e5a64610","system_id":"levelo_inurba_marseille","lat":43.28086,"lon":5.39651,"is_reserved":false,"is_disabled":true,"rental_uris":{"android":"levelo://app?vid=ddcbad70-7d75-4955-9d75-c843e5a64610","ios":"levelo://app?vid=ddcbad70-7d75-4955-9d75-c843e5a64610"},"vehicle_type_id":"4","last_reported":1745946559,"current_range_meters":0,"station_id":"ce4bho12rcd13ifvqh2g","pricing_plan_id":"cebpf4jnsgd1na2vs0mg"},{"bike_id":"53db7c6c-03eb-493c-a071-4e8d78d78a5c","system_id":"levelo_inurba_marseille","lat":43.324794,"lon":5.365742,"is_reserved":false,"is_disabled":true,"rental_uris":{"android":"levelo://app?vid=53db7c6c-03eb-493c-a071-4e8d78d78a5c","ios":"levelo://app?vid=53db7c6c-03eb-493c-a071-4e8d78d78a5c"},"vehicle_type_id":"4","last_reported":1745946559,"current_range_meters":0,"station_id":"ce4bhs12rcd13ifvqhvg","pricing_plan_id":"cebpf4jnsgd1na2vs0mg"},{"bike_id":"00e2698f-241a-4e86-a314-56be1b5a8fc1","system_id":"levelo_inurba_marseille","lat":43.26821,"lon":5.40248,"is_reserved":false,"is_disabled":true,"rental_uris":{"android":"levelo://app?vid=00e2698f-241a-4e86-a314-56be1b5a8fc1","ios":"levelo://app?vid=00e2698f-241a-4e86-a314-56be1b5a8fc1"},"vehicle_type_id":"4","last_reported":1745946559,"current_range_meters":0,"station_id":"ce501612rcd8frsf0b60","pricing_plan_id":"cebpf4jnsgd1na2vs0mg"},{"bike_id":"ef3b471e-3011-49ee-b1cd-bae0bfbe563a","system_id":"levelo_inurba_marseille","lat":43.294116,"lon":5.386392,"is_reserved":false,"is_disabled":true,"rental_uris":{"android":"levelo://app?vid=ef3b471e-3011-49ee-b1cd-bae0bfbe563a","ios":"levelo://app?vid=ef3b471e-3011-49ee-b1cd-bae0bfbe563a"},"vehicle_type_id":"4","last_reported":1745946559,"current_range_meters":400,"station_id":"ce4bh2h2rcd13ifvqdh0","pricing_plan_id":"cebpf4jnsgd1na2vs0mg"},{"bike_id":"fd6bbf43-6c8e-425a-853e-082aad014aff","system_id":"levelo_inurba_marseille","lat":43.28841,"lon":5.35874,"is_reserved":false,"is_disabled":true,"rental_uris":{"android":"levelo://app?vid=fd6bbf43-6c8e-425a-853e-082aad014aff","ios":"levelo://app?vid=fd6bbf43-6c8e-425a-853e-082aad014aff"},"vehicle_type_id":"4","last_reported":1745946559,"current_range_meters":400,"station_id":"ce4bhb12rcd13ifvqem0","pricing_plan_id":"cebpf4jnsgd1na2vs0mg"},{"bike_id":"42caafba-7b4e-4873-960d-1aff6c333ee5","system_id":"levelo_inurba_marseille","lat":43.27808,"lon":5.40723,"is_reserved":false,"is_disabled":true,"rental_uris":{"android":"levelo://app?vid=42caafba-7b4e-4873-960d-1aff6c333ee5","ios":"levelo://app?vid=42caafba-7b4e-4873-960d-1aff6c333ee5"},"vehicle_type_id":"4","last_reported":1745946559,"current_range_meters":400,"station_id":"ce4bhnh2rcd13ifvqgtg","pricing_plan_id":"cebpf4jnsgd1na2vs0mg"},{"bike_id":"0c9399e7-8af3-4669-848f-ec52f56fba71","system_id":"levelo_inurba_marseille","lat":43.27449,"lon":5.40746,"is_reserved":false,"is_disabled":true,"rental_uris":{"android":"levelo://app?vid=0c9399e7-8af3-4669-848f-ec52f56fba71","ios":"levelo://app?vid=0c9399e7-8af3-4669-848f-ec52f56fba71"},"vehicle_type_id":"4","last_reported":1745946559,"current_range_meters":800,"station_id":"","pricing_plan_id":"cebpf4jnsgd1na2vs0mg"},{"bike_id":"14e86f62-d775-4abd-a590-469097e99a6f","system_id":"levelo_inurba_marseille","lat":43.31137,"lon":5.388,"is_reserved":false,"is_disabled":true,"rental_uris":{"android":"levelo://app?vid=14e86f62-d775-4abd-a590-469097e99a6f","ios":"levelo://app?vid=14e86f62-d775-4abd-a590-469097e99a6f"},"vehicle_type_id":"4","last_reported":1745946559,"current_range_meters":800,"station_id":"","pricing_plan_id":"cebpf4jnsgd1na2vs0mg"},{"bike_id":"8fa195af-d1e3-4a16-9576-618a14381c4e","system_id":"levelo_inurba_marseille","lat":43.30879,"lon":5.39663,"is_reserved":false,"is_disabled":true,"rental_uris":{"android":"levelo://app?vid=8fa195af-d1e3-4a16-9576-618a14381c4e","ios":"levelo://app?vid=8fa195af-d1e3-4a16-9576-618a14381c4e"},"vehicle_type_id":"4","last_reported":1745946559,"current_range_meters":800,"station_id":"ce4bh012rcd13ifvqcv0","pricing_plan_id":"cebpf4jnsgd1na2vs0mg"},{"bike_id":"19b81dd1-ecb4-45d4-aeeb-a286e517c981","system_id":"levelo_inurba_marseille","lat":43.292234,"lon":5.401097,"is_reserved":false,"is_disabled":true,"rental_uris":{"android":"levelo://app?vid=19b81dd1-ecb4-45d4-aeeb-a286e517c981","ios":"levelo://app?vid=19b81dd1-ecb4-45d4-aeeb-a286e517c981"},"vehicle_type_id":"4","last_reported":1745946559,"current_range_meters":800,"station_id":"ce4bh112rcd13ifvqda0","pricing_plan_id":"cebpf4jnsgd1na2vs0mg"},{"bike_id":"7a73f7bf-aa37-44bb-8f90-18339e0c881b","system_id":"levelo_inurba_marseille","lat":43.29026,"lon":5.38644,"is_reserved":false,"is_disabled":true,"rental_uris":{"android":"levelo://app?vid=7a73f7bf-aa37-44bb-8f90-18339e0c881b","ios":"levelo://app?vid=7a73f7bf-aa37-44bb-8f90-18339e0c881b"},"vehicle_type_id":"4","last_reported":1745946559,"current_range_meters":800,"station_id":"ce4bh4p2rcd13ifvqe0g","pricing_plan_id":"cebpf4jnsgd1na2vs0mg"},{"bike_id":"2a5bba26-21d4-42e4-953a-2b8747af1f8b","system_id":"levelo_inurba_marseille","lat":43.2926,"lon":5.38426,"is_reserved":false,"is_disabled":true,"rental_uris":{"android":"levelo://app?vid=2a5bba26-21d4-42e4-953a-2b8747af1f8b","ios":"levelo://app?vid=2a5bba26-21d4-42e4-953a-2b8747af1f8b"},"vehicle_type_id":"4","last_reported":1745946559,"current_range_meters":800,"station_id":"ce4bh692rcd13ifvqea0","pricing_plan_id":"cebpf4jnsgd1na2vs0mg"},{"bike_id":"82fbe653-444e-48ba-9d91-372feebcc897","system_id":"levelo_inurba_marseille","lat":43.25489,"lon":5.37655,"is_reserved":false,"is_disabled":true,"rental_uris":{"android":"levelo://app?vid=82fbe653-444e-48ba-9d91-372feebcc897","ios":"levelo://app?vid=82fbe653-444e-48ba-9d91-372feebcc897"},"vehicle_type_id":"4","last_reported":1745946559,"current_range_meters":800,"station_id":"ce4bhh12rcd13ifvqff0","pricing_plan_id":"cebpf4jnsgd1na2vs0mg"},{"bike_id":"806228e6-6ff1-4c57-81ab-7b19acb1dbf8","system_id":"levelo_inurba_marseille","lat":43.27811,"lon":5.40712,"is_reserved":false,"is_disabled":true,"rental_uris":{"android":"levelo://app?vid=806228e6-6ff1-4c57-81ab-7b19acb1dbf8","ios":"levelo://app?vid=806228e6-6ff1-4c57-81ab-7b19acb1dbf8"},"vehicle_type_id":"4","last_reported":1745946559,"current_range_meters":800,"station_id":"ce4bhnh2rcd13ifvqgtg","pricing_plan_id":"cebpf4jnsgd1na2vs0mg"},{"bike_id":"2f06a072-bc6b-4067-a65a-93c068d77fd4","system_id":"levelo_inurba_marseille","lat":43.21193,"lon":5.35095,"is_reserved":false,"is_disabled":true,"rental_uris":{"android":"levelo://app?vid=2f06a072-bc6b-4067-a65a-93c068d77fd4","ios":"levelo://app?vid=2f06a072-bc6b-4067-a65a-93c068d77fd4"},"vehicle_type_id":"4","last_reported":1745946559,"current_range_meters":800,"station_id":"st_cvj6sg6p6f1abm77japg","pricing_plan_id":"cebpf4jnsgd1na2vs0mg"},{"bike_id":"831869fd-d180-491c-8c72-8c4eca666e4b","system_id":"levelo_inurba_marseille","lat":43.3127,"lon":5.40166,"is_reserved":false,"is_disabled":true,"rental_uris":{"android":"levelo://app?vid=831869fd-d180-491c-8c72-8c4eca666e4b","ios":"levelo://app?vid=831869fd-d180-491c-8c72-8c4eca666e4b"},"vehicle_type_id":"4","last_reported":1745946559,"current_range_meters":1200,"station_id":"ce4bh092rcd13ifvqd30","pricing_plan_id":"cebpf4jnsgd1na2vs0mg"},{"bike_id":"400fb62e-6486-4075-8795-89ef4a1cf24e","system_id":"levelo_inurba_marseille","lat":43.29245,"lon":5.40906,"is_reserved":false,"is_disabled":true,"rental_uris":{"android":"levelo://app?vid=400fb62e-6486-4075-8795-89ef4a1cf24e","ios":"levelo://app?vid=400fb62e-6486-4075-8795-89ef4a1cf24e"},"vehicle_type_id":"4","last_reported":1745946559,"current_range_meters":1200,"station_id":"ce4bh192rcd13ifvqdc0","pricing_plan_id":"cebpf4jnsgd1na2vs0mg"},{"bike_id":"bedfedcf-127a-4d6f-925e-25081086a9cb","system_id":"levelo_inurba_marseille","lat":43.29022,"lon":5.37561,"is_reserved":false,"is_disabled":true,"rental_uris":{"android":"levelo://app?vid=bedfedcf-127a-4d6f-925e-25081086a9cb","ios":"levelo://app?vid=bedfedcf-127a-4d6f-925e-25081086a9cb"},"vehicle_type_id":"4","last_reported":1745946559,"current_range_meters":1200,"station_id":"ce4bh692rcd13ifvqe90","pricing_plan_id":"cebpf4jnsgd1na2vs0mg"},{"bike_id":"0be0bf6a-165b-4dc6-9567-9a96377af014","system_id":"levelo_inurba_marseille","lat":43.28618,"lon":5.35108,"is_reserved":false,"is_disabled":true,"rental_uris":{"android":"levelo://app?vid=0be0bf6a-165b-4dc6-9567-9a96377af014","ios":"levelo://app?vid=0be0bf6a-165b-4dc6-9567-9a96377af014"},"vehicle_type_id":"4","last_reported":1745946559,"current_range_meters":1200,"station_id":"ce4bhch2rcd13ifvqeug","pricing_plan_id":"cebpf4jnsgd1na2vs0mg"},{"bike_id":"2fd57f31-16c6-4d95-a730-459b08b97bac","system_id":"levelo_inurba_marseille","lat":43.27909,"lon":5.39591,"is_reserved":false,"is_disabled":true,"rental_uris":{"android":"levelo://app?vid=2fd57f31-16c6-4d95-a730-459b08b97bac","ios":"levelo://app?vid=2fd57f31-16c6-4d95-a730-459b08b97bac"},"vehicle_type_id":"4","last_reported":1745946559,"current_range_meters":1200,"station_id":"ce4bhf92rcd13ifvqf40","pricing_plan_id":"cebpf4jnsgd1na2vs0mg"},{"bike_id":"86243e18-1a5f-4ba1-bedf-297014ee63a4","system_id":"levelo_inurba_marseille","lat":43.26214,"lon":5.37441,"is_reserved":false,"is_disabled":true,"rental_uris":{"android":"levelo://app?vid=86243e18-1a5f-4ba1-bedf-297014ee63a4","ios":"levelo://app?vid=86243e18-1a5f-4ba1-bedf-297014ee63a4"},"vehicle_type_id":"4","last_reported":1745946559,"current_range_meters":1200,"station_id":"ce4bhgp2rcd13ifvqfc0","pricing_plan_id":"cebpf4jnsgd1na2vs0mg"},{"bike_id":"f43d9cec-0bae-4fda-aa73-12c58b7d3465","system_id":"levelo_inurba_marseille","lat":43.28142,"lon":5.42655,"is_reserved":false,"is_disabled":true,"rental_uris":{"android":"levelo://app?vid=f43d9cec-0bae-4fda-aa73-12c58b7d3465","ios":"levelo://app?vid=f43d9cec-0bae-4fda-aa73-12c58b7d3465"},"vehicle_type_id":"4","last_reported":1745946559,"current_range_meters":1200,"station_id":"ce4bhnh2rcd13ifvqgug","pricing_plan_id":"cebpf4jnsgd1na2vs0mg"},{"bike_id":"d5fdc8c6-623f-4d72-9408-1a3985b3b2cb","system_id":"levelo_inurba_marseille","lat":43.28698,"lon":5.39985,"is_reserved":false,"is_disabled":true,"rental_uris":{"android":"levelo://app?vid=d5fdc8c6-623f-4d72-9408-1a3985b3b2cb","ios":"levelo://app?vid=d5fdc8c6-623f-4d72-9408-1a3985b3b2cb"},"vehicle_type_id":"4","last_reported":1745946559,"current_range_meters":1200,"station_id":"ce4bho92rcd13ifvqh3g","pricing_plan_id":"cebpf4jnsgd1na2vs0mg"},{"bike_id":"9ac69337-fc00-4cac-a57d-2a03060bd50f","system_id":"levelo_inurba_marseille","lat":43.321123,"lon":5.367784,"is_reserved":false,"is_disabled":true,"rental_uris":{"android":"levelo://app?vid=9ac69337-fc00-4cac-a57d-2a03060bd50f","ios":"levelo://app?vid=9ac69337-fc00-4cac-a57d-2a03060bd50f"},"vehicle_type_id":"4","last_reported":1745946559,"current_range_meters":1200,"station_id":"ce4bhrh2rcd13ifvqhug","pricing_plan_id":"cebpf4jnsgd1na2vs0mg"},{"bike_id":"4c224eb0-e351-4863-97ef-54cb40723166","system_id":"levelo_inurba_marseille","lat":43.299683,"lon":5.384932,"is_reserved":false,"is_disabled":true,"rental_uris":{"android":"levelo://app?vid=4c224eb0-e351-4863-97ef-54cb40723166","ios":"levelo://app?vid=4c224eb0-e351-4863-97ef-54cb40723166"},"vehicle_type_id":"4","last_reported":1745946559,"current_range_meters":1600,"station_id":"ce4bgj92rcd13ifvqbd0","pricing_plan_id":"cebpf4jnsgd1na2vs0mg"},{"bike_id":"0ae13ed5-e2ba-4301-a86d-eddc595212bb","system_id":"levelo_inurba_marseille","lat":43.29187,"lon":5.39314,"is_reserved":false,"is_disabled":true,"rental_uris":{"android":"levelo://app?vid=0ae13ed5-e2ba-4301-a86d-eddc595212bb","ios":"levelo://app?vid=0ae13ed5-e2ba-4301-a86d-eddc595212bb"},"vehicle_type_id":"4","last_reported":1745946559,"current_range_meters":1600,"station_id":"ce4bh192rcd13ifvqdd0","pricing_plan_id":"cebpf4jnsgd1na2vs0mg"},{"bike_id":"37246382-6238-4efd-8181-023cac2b83a7","system_id":"levelo_inurba_marseille","lat":43.28933,"lon":5.39632,"is_reserved":false,"is_disabled":true,"rental_uris":{"android":"levelo://app?vid=37246382-6238-4efd-8181-023cac2b83a7","ios":"levelo://app?vid=37246382-6238-4efd-8181-023cac2b83a7"},"vehicle_type_id":"4","last_reported":1745946559,"current_range_meters":1600,"station_id":"ce4bh3h2rcd13ifvqdn0","pricing_plan_id":"cebpf4jnsgd1na2vs0mg"},{"bike_id":"15308a48-abed-4fa2-9135-19f806d78613","system_id":"levelo_inurba_marseille","lat":43.25407,"lon":5.41432,"is_reserved":false,"is_disabled":true,"rental_uris":{"android":"levelo://app?vid=15308a48-abed-4fa2-9135-19f806d78613","ios":"levelo://app?vid=15308a48-abed-4fa2-9135-19f806d78613"},"vehicle_type_id":"4","last_reported":1745946559,"current_range_meters":2000,"station_id":"","pricing_plan_id":"cebpf4jnsgd1na2vs0mg"},{"bike_id":"5661d853-c2ab-49d1-b2b0-dec6922e5b5d","system_id":"levelo_inurba_marseille","lat":43.23086,"lon":5.35536,"is_reserved":false,"is_disabled":true,"rental_uris":{"android":"levelo://app?vid=5661d853-c2ab-49d1-b2b0-dec6922e5b5d","ios":"levelo://app?vid=5661d853-c2ab-49d1-b2b0-dec6922e5b5d"},"vehicle_type_id":"4","last_reported":1745946559,"current_range_meters":2000,"station_id":"","pricing_plan_id":"cebpf4jnsgd1na2vs0mg"},{"bike_id":"a31d2fc2-c41b-423c-896b-4923168bfadf","system_id":"levelo_inurba_marseille","lat":43.30237,"lon":5.39474,"is_reserved":false,"is_disabled":true,"rental_uris":{"android":"levelo://app?vid=a31d2fc2-c41b-423c-896b-4923168bfadf","ios":"levelo://app?vid=a31d2fc2-c41b-423c-896b-4923168bfadf"},"vehicle_type_id":"4","last_reported":1745946559,"current_range_meters":2000,"station_id":"ce4bh0p2rcd13ifvqd70","pricing_plan_id":"cebpf4jnsgd1na2vs0mg"},{"bike_id":"eed018bf-3ba5-4f50-bab5-26daaef27ec6","system_id":"levelo_inurba_marseille","lat":43.28951,"lon":5.36405,"is_reserved":false,"is_disabled":true,"rental_uris":{"android":"levelo://app?vid=eed018bf-3ba5-4f50-bab5-26daaef27ec6","ios":"levelo://app?vid=eed018bf-3ba5-4f50-bab5-26daaef27ec6"},"vehicle_type_id":"4","last_reported":1745946559,"current_range_meters":2000,"station_id":"ce4bhc92rcd13ifvqetg","pricing_plan_id":"cebpf4jnsgd1na2vs0mg"},{"bike_id":"43aec154-e3ab-434a-827f-dbf7d42cb203","system_id":"levelo_inurba_marseille","lat":43.272001,"lon":5.391478,"is_reserved":false,"is_disabled":true,"rental_uris":{"android":"levelo://app?vid=43aec154-e3ab-434a-827f-dbf7d42cb203","ios":"levelo://app?vid=43aec154-e3ab-434a-827f-dbf7d42cb203"},"vehicle_type_id":"4","last_reported":1745946559,"current_range_meters":2000,"station_id":"ce4bhhp2rcd13ifvqfm0","pricing_plan_id":"cebpf4jnsgd1na2vs0mg"},{"bike_id":"a4c8a335-745b-4d95-97e0-7bac3cb18549","system_id":"levelo_inurba_marseille","lat":43.28135,"lon":5.3986,"is_reserved":false,"is_disabled":false,"rental_uris":{"android":"levelo://app?vid=a4c8a335-745b-4d95-97e0-7bac3cb18549","ios":"levelo://app?vid=a4c8a335-745b-4d95-97e0-7bac3cb18549"},"vehicle_type_id":"4","last_reported":1745946559,"current_range_meters":2800,"station_id":"","pricing_plan_id":"cebpf4jnsgd1na2vs0mg"},{"bike_id":"15986514-71dd-4d97-95f6-9805916c5049","system_id":"levelo_inurba_marseille","lat":43.33798,"lon":5.37428,"is_reserved":false,"is_disabled":true,"rental_uris":{"android":"levelo://app?vid=15986514-71dd-4d97-95f6-9805916c5049","ios":"levelo://app?vid=15986514-71dd-4d97-95f6-9805916c5049"},"vehicle_type_id":"4","last_reported":1745946559,"current_range_meters":2800,"station_id":"","pricing_plan_id":"cebpf4jnsgd1na2vs0mg"},{"bike_id":"13ce9a6e-e409-41b6-a5cb-d69a66b85938","system_id":"levelo_inurba_marseille","lat":43.28938,"lon":5.36637,"is_reserved":false,"is_disabled":false,"rental_uris":{"android":"levelo://app?vid=13ce9a6e-e409-41b6-a5cb-d69a66b85938","ios":"levelo://app?vid=13ce9a6e-e409-41b6-a5cb-d69a66b85938"},"vehicle_type_id":"4","last_reported":1745946559,"current_range_meters":2800,"station_id":"ce4bhap2rcd13ifvqek0","pricing_plan_id":"cebpf4jnsgd1na2vs0mg"},{"bike_id":"ece5aa4b-9191-4651-925e-3370d07d7dbe","system_id":"levelo_inurba_marseille","lat":43.289367,"lon":5.366477,"is_reserved":false,"is_disabled":false,"rental_uris":{"android":"levelo://app?vid=ece5aa4b-9191-4651-925e-3370d07d7dbe","ios":"levelo://app?vid=ece5aa4b-9191-4651-925e-3370d07d7dbe"},"vehicle_type_id":"4","last_reported":1745946559,"current_range_meters":2800,"station_id":"ce4bhap2rcd13ifvqek0","pricing_plan_id":"cebpf4jnsgd1na2vs0mg"},{"bike_id":"2e3c97e6-39ba-4161-bdd7-7f54fc79f324","system_id":"levelo_inurba_marseille","lat":43.27915,"lon":5.39592,"is_reserved":false,"is_disabled":false,"rental_uris":{"android":"levelo://app?vid=2e3c97e6-39ba-4161-bdd7-7f54fc79f324","ios":"levelo://app?vid=2e3c97e6-39ba-4161-bdd7-7f54fc79f324"},"vehicle_type_id":"4","last_reported":1745946559,"current_range_meters":2800,"station_id":"ce4bhf92rcd13ifvqf40","pricing_plan_id":"cebpf4jnsgd1na2vs0mg"},{"bike_id":"30013f89-fc47-447f-83b8-a0a73c87c5f0","system_id":"levelo_inurba_marseille","lat":43.26544,"lon":5.37293,"is_reserved":false,"is_disabled":false,"rental_uris":{"android":"levelo://app?vid=30013f89-fc47-447f-83b8-a0a73c87c5f0","ios":"levelo://app?vid=30013f89-fc47-447f-83b8-a0a73c87c5f0"},"vehicle_type_id":"4","last_reported":1745946559,"current_range_meters":2800,"station_id":"ce4bhg12rcd13ifvqf70","pricing_plan_id":"cebpf4jnsgd1na2vs0mg"},{"bike_id":"b46b1a1b-9b40-44a7-a0c0-2de30a83df80","system_id":"levelo_inurba_marseille","lat":43.288555,"lon":5.393374,"is_reserved":false,"is_disabled":false,"rental_uris":{"android":"levelo://app?vid=b46b1a1b-9b40-44a7-a0c0-2de30a83df80","ios":"levelo://app?vid=b46b1a1b-9b40-44a7-a0c0-2de30a83df80"},"vehicle_type_id":"4","last_reported":1745946559,"current_range_meters":3200,"station_id":"ce4bh2p2rcd13ifvqdi0","pricing_plan_id":"cebpf4jnsgd1na2vs0mg"},{"bike_id":"c8e0eb99-4441-4d04-b6ba-e19932af4d66","system_id":"levelo_inurba_marseille","lat":43.26561,"lon":5.39023,"is_reserved":false,"is_disabled":false,"rental_uris":{"android":"levelo://app?vid=c8e0eb99-4441-4d04-b6ba-e19932af4d66","ios":"levelo://app?vid=c8e0eb99-4441-4d04-b6ba-e19932af4d66"},"vehicle_type_id":"4","last_reported":1745946559,"current_range_meters":3200,"station_id":"ce4bhe12rcd13ifvqf30","pricing_plan_id":"cebpf4jnsgd1na2vs0mg"},{"bike_id":"35eb71e0-83b5-419d-8c86-a8c57837128e","system_id":"levelo_inurba_marseille","lat":43.25581,"lon":5.38236,"is_reserved":false,"is_disabled":false,"rental_uris":{"android":"levelo://app?vid=35eb71e0-83b5-419d-8c86-a8c57837128e","ios":"levelo://app?vid=35eb71e0-83b5-419d-8c86-a8c57837128e"},"vehicle_type_id":"4","last_reported":1745946559,"current_range_meters":3200,"station_id":"ce4bhih2rcd13ifvqfs0","pricing_plan_id":"cebpf4jnsgd1na2vs0mg"},{"bike_id":"c08fa8cd-026a-4b1f-be69-20804704b6c6","system_id":"levelo_inurba_marseille","lat":43.29033,"lon":5.37565,"is_reserved":false,"is_disabled":false,"rental_uris":{"android":"levelo://app?vid=c08fa8cd-026a-4b1f-be69-20804704b6c6","ios":"levelo://app?vid=c08fa8cd-026a-4b1f-be69-20804704b6c6"},"vehicle_type_id":"4","last_reported":1745946559,"current_range_meters":3600,"station_id":"ce4bh692rcd13ifvqe90","pricing_plan_id":"cebpf4jnsgd1na2vs0mg"},{"bike_id":"fac3708f-4ea1-40fd-aeb0-18aa86e506b5","system_id":"levelo_inurba_marseille","lat":43.29272,"lon":5.38434,"is_reserved":false,"is_disabled":false,"rental_uris":{"android":"levelo://app?vid=fac3708f-4ea1-40fd-aeb0-18aa86e506b5","ios":"levelo://app?vid=fac3708f-4ea1-40fd-aeb0-18aa86e506b5"},"vehicle_type_id":"4","last_reported":1745946559,"current_range_meters":3600,"station_id":"ce4bh692rcd13ifvqea0","pricing_plan_id":"cebpf4jnsgd1na2vs0mg"},{"bike_id":"f9eae908-aa44-4108-9c9f-1af36e403e1c","system_id":"levelo_inurba_marseille","lat":43.30724,"lon":5.42437,"is_reserved":false,"is_disabled":false,"rental_uris":{"android":"levelo://app?vid=f9eae908-aa44-4108-9c9f-1af36e403e1c","ios":"levelo://app?vid=f9eae908-aa44-4108-9c9f-1af36e403e1c"},"vehicle_type_id":"4","last_reported":1745946559,"current_range_meters":3600,"station_id":"st_cvj6ca6bvosntc0bfgr0","pricing_plan_id":"cebpf4jnsgd1na2vs0mg"},{"bike_id":"b1040775-cdbd-4461-a120-155006f740eb","system_id":"levelo_inurba_marseille","lat":43.21192,"lon":5.3508,"is_reserved":false,"is_disabled":false,"rental_uris":{"android":"levelo://app?vid=b1040775-cdbd-4461-a120-155006f740eb","ios":"levelo://app?vid=b1040775-cdbd-4461-a120-155006f740eb"},"vehicle_type_id":"4","last_reported":1745946559,"current_range_meters":3600,"station_id":"st_cvj6sg6p6f1abm77japg","pricing_plan_id":"cebpf4jnsgd1na2vs0mg"},{"bike_id":"26deac1f-c435-40bc-9469-9ae0b266bb77","system_id":"levelo_inurba_marseille","lat":43.30195,"lon":5.38495,"is_reserved":false,"is_disabled":false,"rental_uris":{"android":"levelo://app?vid=26deac1f-c435-40bc-9469-9ae0b266bb77","ios":"levelo://app?vid=26deac1f-c435-40bc-9469-9ae0b266bb77"},"vehicle_type_id":"4","last_reported":1745946559,"current_range_meters":4000,"station_id":"","pricing_plan_id":"cebpf4jnsgd1na2vs0mg"},{"bike_id":"bad7a56b-e2ef-4885-bd78-6e05bcd530d2","system_id":"levelo_inurba_marseille","lat":43.29032,"lon":5.37568,"is_reserved":false,"is_disabled":false,"rental_uris":{"android":"levelo://app?vid=bad7a56b-e2ef-4885-bd78-6e05bcd530d2","ios":"levelo://app?vid=bad7a56b-e2ef-4885-bd78-6e05bcd530d2"},"vehicle_type_id":"4","last_reported":1745946559,"current_range_meters":4000,"station_id":"ce4bh692rcd13ifvqe90","pricing_plan_id":"cebpf4jnsgd1na2vs0mg"},{"bike_id":"22a45741-192f-4851-a544-a52ec87c2362","system_id":"levelo_inurba_marseille","lat":43.29263,"lon":5.38434,"is_reserved":false,"is_disabled":false,"rental_uris":{"android":"levelo://app?vid=22a45741-192f-4851-a544-a52ec87c2362","ios":"levelo://app?vid=22a45741-192f-4851-a544-a52ec87c2362"},"vehicle_type_id":"4","last_reported":1745946559,"current_range_meters":4000,"station_id":"ce4bh692rcd13ifvqea0","pricing_plan_id":"cebpf4jnsgd1na2vs0mg"},{"bike_id":"2a88d747-9e58-4544-95a1-5863c6ff082c","system_id":"levelo_inurba_marseille","lat":43.2841,"lon":5.3498,"is_reserved":false,"is_disabled":false,"rental_uris":{"android":"levelo://app?vid=2a88d747-9e58-4544-95a1-5863c6ff082c","ios":"levelo://app?vid=2a88d747-9e58-4544-95a1-5863c6ff082c"},"vehicle_type_id":"4","last_reported":1745946559,"current_range_meters":4000,"station_id":"ce4bhbh2rcd13ifvqepg","pricing_plan_id":"cebpf4jnsgd1na2vs0mg"},{"bike_id":"a70827a8-843f-4b68-9b37-d81ef3fc208d","system_id":"levelo_inurba_marseille","lat":43.26549,"lon":5.37287,"is_reserved":false,"is_disabled":false,"rental_uris":{"android":"levelo://app?vid=a70827a8-843f-4b68-9b37-d81ef3fc208d","ios":"levelo://app?vid=a70827a8-843f-4b68-9b37-d81ef3fc208d"},"vehicle_type_id":"4","last_reported":1745946559,"current_range_meters":4000,"station_id":"ce4bhg12rcd13ifvqf70","pricing_plan_id":"cebpf4jnsgd1na2vs0mg"},{"bike_id":"4bed7454-68f1-4ae2-8a0e-37691f7ee3a3","system_id":"levelo_inurba_marseille","lat":43.31374,"lon":5.38478,"is_reserved":false,"is_disabled":false,"rental_uris":{"android":"levelo://app?vid=4bed7454-68f1-4ae2-8a0e-37691f7ee3a3","ios":"levelo://app?vid=4bed7454-68f1-4ae2-8a0e-37691f7ee3a3"},"vehicle_type_id":"4","last_reported":1745946559,"current_range_meters":4400,"station_id":"ce4bgt92rcd13ifvqcf0","pricing_plan_id":"cebpf4jnsgd1na2vs0mg"},{"bike_id":"3ac2c21f-b8dc-4f84-8a6c-aac4f2dae82e","system_id":"levelo_inurba_marseille","lat":43.27372,"lon":5.36261,"is_reserved":false,"is_disabled":false,"rental_uris":{"android":"levelo://app?vid=3ac2c21f-b8dc-4f84-8a6c-aac4f2dae82e","ios":"levelo://app?vid=3ac2c21f-b8dc-4f84-8a6c-aac4f2dae82e"},"vehicle_type_id":"4","last_reported":1745946559,"current_range_meters":4400,"station_id":"ce4bhbh2rcd13ifvqeo0","pricing_plan_id":"cebpf4jnsgd1na2vs0mg"},{"bike_id":"b8158787-8249-4ea3-a2ae-e4f17084d2a0","system_id":"levelo_inurba_marseille","lat":43.27369,"lon":5.36261,"is_reserved":false,"is_disabled":false,"rental_uris":{"android":"levelo://app?vid=b8158787-8249-4ea3-a2ae-e4f17084d2a0","ios":"levelo://app?vid=b8158787-8249-4ea3-a2ae-e4f17084d2a0"},"vehicle_type_id":"4","last_reported":1745946559,"current_range_meters":4400,"station_id":"ce4bhbh2rcd13ifvqeo0","pricing_plan_id":"cebpf4jnsgd1na2vs0mg"},{"bike_id":"86e149f1-f460-4878-b7b6-3bfe866d72b6","system_id":"levelo_inurba_marseille","lat":43.27943,"lon":5.41049,"is_reserved":false,"is_disabled":false,"rental_uris":{"android":"levelo://app?vid=86e149f1-f460-4878-b7b6-3bfe866d72b6","ios":"levelo://app?vid=86e149f1-f460-4878-b7b6-3bfe866d72b6"},"vehicle_type_id":"4","last_reported":1745946559,"current_range_meters":4400,"station_id":"ce4bhnp2rcd13ifvqh0g","pricing_plan_id":"cebpf4jnsgd1na2vs0mg"},{"bike_id":"43bef4ab-2b89-46e3-a66a-8554a928fc6f","system_id":"levelo_inurba_marseille","lat":43.26935,"lon":5.40261,"is_reserved":false,"is_disabled":false,"rental_uris":{"android":"levelo://app?vid=43bef4ab-2b89-46e3-a66a-8554a928fc6f","ios":"levelo://app?vid=43bef4ab-2b89-46e3-a66a-8554a928fc6f"},"vehicle_type_id":"4","last_reported":1745946559,"current_range_meters":4400,"station_id":"cjm6bp8fraef2m0cb0m0","pricing_plan_id":"cebpf4jnsgd1na2vs0mg"},{"bike_id":"a927ad15-b129-4085-9072-8cc54f2c8cf2","system_id":"levelo_inurba_marseille","lat":43.32114,"lon":5.36784,"is_reserved":false,"is_disabled":false,"rental_uris":{"android":"levelo://app?vid=a927ad15-b129-4085-9072-8cc54f2c8cf2","ios":"levelo://app?vid=a927ad15-b129-4085-9072-8cc54f2c8cf2"},"vehicle_type_id":"4","last_reported":1745946559,"current_range_meters":4800,"station_id":"","pricing_plan_id":"cebpf4jnsgd1na2vs0mg"},{"bike_id":"10baf2db-d437-4273-978a-d40970cee559","system_id":"levelo_inurba_marseille","lat":43.2763,"lon":5.36155,"is_reserved":false,"is_disabled":false,"rental_uris":{"android":"levelo://app?vid=10baf2db-d437-4273-978a-d40970cee559","ios":"levelo://app?vid=10baf2db-d437-4273-978a-d40970cee559"},"vehicle_type_id":"4","last_reported":1745946559,"current_range_meters":4800,"station_id":"ce4bgj92rcd13ifvqbe0","pricing_plan_id":"cebpf4jnsgd1na2vs0mg"},{"bike_id":"786e6ea2-f248-4023-bbea-41049a7136cb","system_id":"levelo_inurba_marseille","lat":43.30913,"lon":5.36862,"is_reserved":false,"is_disabled":false,"rental_uris":{"android":"levelo://app?vid=786e6ea2-f248-4023-bbea-41049a7136cb","ios":"levelo://app?vid=786e6ea2-f248-4023-bbea-41049a7136cb"},"vehicle_type_id":"4","last_reported":1745946559,"current_range_meters":4800,"station_id":"ce4bgn92rcd13ifvqbvg","pricing_plan_id":"cebpf4jnsgd1na2vs0mg"},{"bike_id":"203f8533-5506-49bb-843e-4e7c4f6f48cb","system_id":"levelo_inurba_marseille","lat":43.302047,"lon":5.36633,"is_reserved":false,"is_disabled":false,"rental_uris":{"android":"levelo://app?vid=203f8533-5506-49bb-843e-4e7c4f6f48cb","ios":"levelo://app?vid=203f8533-5506-49bb-843e-4e7c4f6f48cb"},"vehicle_type_id":"4","last_reported":1745946559,"current_range_meters":4800,"station_id":"ce4bgrh2rcd13ifvqc8g","pricing_plan_id":"cebpf4jnsgd1na2vs0mg"},{"bike_id":"c97f3819-36aa-4489-841e-20ec7bacf2fb","system_id":"levelo_inurba_marseille","lat":43.29526,"lon":5.39394,"is_reserved":false,"is_disabled":false,"rental_uris":{"android":"levelo://app?vid=c97f3819-36aa-4489-841e-20ec7bacf2fb","ios":"levelo://app?vid=c97f3819-36aa-4489-841e-20ec7bacf2fb"},"vehicle_type_id":"4","last_reported":1745946559,"current_range_meters":4800,"station_id":"ce4bh292rcd13ifvqdf0","pricing_plan_id":"cebpf4jnsgd1na2vs0mg"},{"bike_id":"e3493594-d840-408b-8760-a9a0c0f1e95d","system_id":"levelo_inurba_marseille","lat":43.284086,"lon":5.375144,"is_reserved":false,"is_disabled":false,"rental_uris":{"android":"levelo://app?vid=e3493594-d840-408b-8760-a9a0c0f1e95d","ios":"levelo://app?vid=e3493594-d840-408b-8760-a9a0c0f1e95d"},"vehicle_type_id":"4","last_reported":1745946559,"current_range_meters":4800,"station_id":"ce4bh412rcd13ifvqds0","pricing_plan_id":"cebpf4jnsgd1na2vs0mg"},{"bike_id":"badc2e56-1078-41e7-824c-221f25e3d800","system_id":"levelo_inurba_marseille","lat":43.28611,"lon":5.35102,"is_reserved":false,"is_disabled":false,"rental_uris":{"android":"levelo://app?vid=badc2e56-1078-41e7-824c-221f25e3d800","ios":"levelo://app?vid=badc2e56-1078-41e7-824c-221f25e3d800"},"vehicle_type_id":"4","last_reported":1745946559,"current_range_meters":4800,"station_id":"ce4bhch2rcd13ifvqeug","pricing_plan_id":"cebpf4jnsgd1na2vs0mg"},{"bike_id":"8b883e1e-1354-44e8-82e3-245331ec502e","system_id":"levelo_inurba_marseille","lat":43.30807,"lon":5.4352,"is_reserved":false,"is_disabled":false,"rental_uris":{"android":"levelo://app?vid=8b883e1e-1354-44e8-82e3-245331ec502e","ios":"levelo://app?vid=8b883e1e-1354-44e8-82e3-245331ec502e"},"vehicle_type_id":"4","last_reported":1745946559,"current_range_meters":4800,"station_id":"ce4bhph2rcd13ifvqheg","pricing_plan_id":"cebpf4jnsgd1na2vs0mg"},{"bike_id":"af4f0c69-e62d-4155-b1d1-a67b45271ae1","system_id":"levelo_inurba_marseille","lat":43.24851,"lon":5.41274,"is_reserved":false,"is_disabled":false,"rental_uris":{"android":"levelo://app?vid=af4f0c69-e62d-4155-b1d1-a67b45271ae1","ios":"levelo://app?vid=af4f0c69-e62d-4155-b1d1-a67b45271ae1"},"vehicle_type_id":"4","last_reported":1745946559,"current_range_meters":5600,"station_id":"","pricing_plan_id":"cebpf4jnsgd1na2vs0mg"},{"bike_id":"2b96dca6-2e27-4094-82d8-8ee54aba95e9","system_id":"levelo_inurba_marseille","lat":43.29279,"lon":5.40131,"is_reserved":false,"is_disabled":false,"rental_uris":{"android":"levelo://app?vid=2b96dca6-2e27-4094-82d8-8ee54aba95e9","ios":"levelo://app?vid=2b96dca6-2e27-4094-82d8-8ee54aba95e9"},"vehicle_type_id":"4","last_reported":1745946559,"current_range_meters":5600,"station_id":"ce4bh312rcd13ifvqdk0","pricing_plan_id":"cebpf4jnsgd1na2vs0mg"},{"bike_id":"41ff83c9-49ab-4b7c-ae56-71cbe676cda6","system_id":"levelo_inurba_marseille","lat":43.27388,"lon":5.36259,"is_reserved":false,"is_disabled":false,"rental_uris":{"android":"levelo://app?vid=41ff83c9-49ab-4b7c-ae56-71cbe676cda6","ios":"levelo://app?vid=41ff83c9-49ab-4b7c-ae56-71cbe676cda6"},"vehicle_type_id":"4","last_reported":1745946559,"current_range_meters":5600,"station_id":"ce4bhbh2rcd13ifvqeo0","pricing_plan_id":"cebpf4jnsgd1na2vs0mg"},{"bike_id":"68465795-4149-4ed4-824b-c38e4c65a968","system_id":"levelo_inurba_marseille","lat":43.2657,"lon":5.3901,"is_reserved":false,"is_disabled":false,"rental_uris":{"android":"levelo://app?vid=68465795-4149-4ed4-824b-c38e4c65a968","ios":"levelo://app?vid=68465795-4149-4ed4-824b-c38e4c65a968"},"vehicle_type_id":"4","last_reported":1745946559,"current_range_meters":5600,"station_id":"ce4bhe12rcd13ifvqf30","pricing_plan_id":"cebpf4jnsgd1na2vs0mg"},{"bike_id":"997138a2-67fb-46a2-9039-ce732b738f9d","system_id":"levelo_inurba_marseille","lat":43.29001,"lon":5.35614,"is_reserved":false,"is_disabled":false,"rental_uris":{"android":"levelo://app?vid=997138a2-67fb-46a2-9039-ce732b738f9d","ios":"levelo://app?vid=997138a2-67fb-46a2-9039-ce732b738f9d"},"vehicle_type_id":"4","last_reported":1745946559,"current_range_meters":6000,"station_id":"ce4bhb92rcd13ifvqen0","pricing_plan_id":"cebpf4jnsgd1na2vs0mg"},{"bike_id":"f159512e-7f81-4580-9bc4-c3bc6f5f4a35","system_id":"levelo_inurba_marseille","lat":43.27379,"lon":5.36249,"is_reserved":false,"is_disabled":false,"rental_uris":{"android":"levelo://app?vid=f159512e-7f81-4580-9bc4-c3bc6f5f4a35","ios":"levelo://app?vid=f159512e-7f81-4580-9bc4-c3bc6f5f4a35"},"vehicle_type_id":"4","last_reported":1745946559,"current_range_meters":6000,"station_id":"ce4bhbh2rcd13ifvqeo0","pricing_plan_id":"cebpf4jnsgd1na2vs0mg"},{"bike_id":"a9c21d58-e847-49b5-bc14-1726481eb029","system_id":"levelo_inurba_marseille","lat":43.298212,"lon":5.371622,"is_reserved":false,"is_disabled":false,"rental_uris":{"android":"levelo://app?vid=a9c21d58-e847-49b5-bc14-1726481eb029","ios":"levelo://app?vid=a9c21d58-e847-49b5-bc14-1726481eb029"},"vehicle_type_id":"4","last_reported":1745946559,"current_range_meters":6400,"station_id":"","pricing_plan_id":"cebpf4jnsgd1na2vs0mg"},{"bike_id":"9d16cb94-6523-47c9-a0e6-d2a835ec20e7","system_id":"levelo_inurba_marseille","lat":43.29624,"lon":5.37729,"is_reserved":false,"is_disabled":false,"rental_uris":{"android":"levelo://app?vid=9d16cb94-6523-47c9-a0e6-d2a835ec20e7","ios":"levelo://app?vid=9d16cb94-6523-47c9-a0e6-d2a835ec20e7"},"vehicle_type_id":"4","last_reported":1745946559,"current_range_meters":6400,"station_id":"ce4bgi92rcd13ifvqb90","pricing_plan_id":"cebpf4jnsgd1na2vs0mg"},{"bike_id":"6538d479-920f-4fff-bbfc-7fbb6fb28970","system_id":"levelo_inurba_marseille","lat":43.30326,"lon":5.40434,"is_reserved":false,"is_disabled":false,"rental_uris":{"android":"levelo://app?vid=6538d479-920f-4fff-bbfc-7fbb6fb28970","ios":"levelo://app?vid=6538d479-920f-4fff-bbfc-7fbb6fb28970"},"vehicle_type_id":"4","last_reported":1745946559,"current_range_meters":6400,"station_id":"ce4bh012rcd13ifvqd10","pricing_plan_id":"cebpf4jnsgd1na2vs0mg"},{"bike_id":"13adcc76-7e25-4142-bec1-f0e06329de60","system_id":"levelo_inurba_marseille","lat":43.2739,"lon":5.36263,"is_reserved":false,"is_disabled":false,"rental_uris":{"android":"levelo://app?vid=13adcc76-7e25-4142-bec1-f0e06329de60","ios":"levelo://app?vid=13adcc76-7e25-4142-bec1-f0e06329de60"},"vehicle_type_id":"4","last_reported":1745946559,"current_range_meters":6400,"station_id":"ce4bhbh2rcd13ifvqeo0","pricing_plan_id":"cebpf4jnsgd1na2vs0mg"},{"bike_id":"59501601-52c4-40c2-864a-584716b9d817","system_id":"levelo_inurba_marseille","lat":43.25104,"lon":5.40317,"is_reserved":false,"is_disabled":false,"rental_uris":{"android":"levelo://app?vid=59501601-52c4-40c2-864a-584716b9d817","ios":"levelo://app?vid=59501601-52c4-40c2-864a-584716b9d817"},"vehicle_type_id":"4","last_reported":1745946559,"current_range_meters":6400,"station_id":"ce4bhlh2rcd13ifvqgig","pricing_plan_id":"cebpf4jnsgd1na2vs0mg"},{"bike_id":"1f21c82b-2d07-4a2b-80e9-88313c74849b","system_id":"levelo_inurba_marseille","lat":43.31528,"lon":5.38035,"is_reserved":false,"is_disabled":false,"rental_uris":{"android":"levelo://app?vid=1f21c82b-2d07-4a2b-80e9-88313c74849b","ios":"levelo://app?vid=1f21c82b-2d07-4a2b-80e9-88313c74849b"},"vehicle_type_id":"4","last_reported":1745946559,"current_range_meters":6400,"station_id":"ce4bhsp2rcd13ifvqi50","pricing_plan_id":"cebpf4jnsgd1na2vs0mg"},{"bike_id":"935207da-41f5-49b0-bbaf-460ac771c5ea","system_id":"levelo_inurba_marseille","lat":43.27401,"lon":5.36238,"is_reserved":false,"is_disabled":false,"rental_uris":{"android":"levelo://app?vid=935207da-41f5-49b0-bbaf-460ac771c5ea","ios":"levelo://app?vid=935207da-41f5-49b0-bbaf-460ac771c5ea"},"vehicle_type_id":"4","last_reported":1745946559,"current_range_meters":6800,"station_id":"","pricing_plan_id":"cebpf4jnsgd1na2vs0mg"},{"bike_id":"3f1639da-198b-4338-ab3e-13615b285aca","system_id":"levelo_inurba_marseille","lat":43.30144,"lon":5.37421,"is_reserved":false,"is_disabled":false,"rental_uris":{"android":"levelo://app?vid=3f1639da-198b-4338-ab3e-13615b285aca","ios":"levelo://app?vid=3f1639da-198b-4338-ab3e-13615b285aca"},"vehicle_type_id":"4","last_reported":1745946559,"current_range_meters":6800,"station_id":"ce4bgs92rcd13ifvqcc0","pricing_plan_id":"cebpf4jnsgd1na2vs0mg"},{"bike_id":"6988e16a-3c39-40c3-8e88-1ed878377ad8","system_id":"levelo_inurba_marseille","lat":43.30888,"lon":5.39656,"is_reserved":false,"is_disabled":false,"rental_uris":{"android":"levelo://app?vid=6988e16a-3c39-40c3-8e88-1ed878377ad8","ios":"levelo://app?vid=6988e16a-3c39-40c3-8e88-1ed878377ad8"},"vehicle_type_id":"4","last_reported":1745946559,"current_range_meters":6800,"station_id":"ce4bh012rcd13ifvqcv0","pricing_plan_id":"cebpf4jnsgd1na2vs0mg"},{"bike_id":"aa69de74-eba8-42b6-8fd0-a5bd78d5816a","system_id":"levelo_inurba_marseille","lat":43.28417,"lon":5.37516,"is_reserved":false,"is_disabled":false,"rental_uris":{"android":"levelo://app?vid=aa69de74-eba8-42b6-8fd0-a5bd78d5816a","ios":"levelo://app?vid=aa69de74-eba8-42b6-8fd0-a5bd78d5816a"},"vehicle_type_id":"4","last_reported":1745946559,"current_range_meters":6800,"station_id":"ce4bh412rcd13ifvqds0","pricing_plan_id":"cebpf4jnsgd1na2vs0mg"},{"bike_id":"4ebe97f2-50fe-4fb5-b292-59245336355b","system_id":"levelo_inurba_marseille","lat":43.275387,"lon":5.384454,"is_reserved":false,"is_disabled":false,"rental_uris":{"android":"levelo://app?vid=4ebe97f2-50fe-4fb5-b292-59245336355b","ios":"levelo://app?vid=4ebe97f2-50fe-4fb5-b292-59245336355b"},"vehicle_type_id":"4","last_reported":1745946559,"current_range_meters":6800,"station_id":"ce4bhh92rcd13ifvqfi0","pricing_plan_id":"cebpf4jnsgd1na2vs0mg"},{"bike_id":"d4db865f-3b41-480e-b604-4586407cc363","system_id":"levelo_inurba_marseille","lat":43.31269,"lon":5.40167,"is_reserved":false,"is_disabled":false,"rental_uris":{"android":"levelo://app?vid=d4db865f-3b41-480e-b604-4586407cc363","ios":"levelo://app?vid=d4db865f-3b41-480e-b604-4586407cc363"},"vehicle_type_id":"4","last_reported":1745946559,"current_range_meters":7200,"station_id":"ce4bh092rcd13ifvqd30","pricing_plan_id":"cebpf4jnsgd1na2vs0mg"},{"bike_id":"e6e7c73c-75e4-4f45-9866-43f611db277d","system_id":"levelo_inurba_marseille","lat":43.29411,"lon":5.38622,"is_reserved":false,"is_disabled":false,"rental_uris":{"android":"levelo://app?vid=e6e7c73c-75e4-4f45-9866-43f611db277d","ios":"levelo://app?vid=e6e7c73c-75e4-4f45-9866-43f611db277d"},"vehicle_type_id":"4","last_reported":1745946559,"current_range_meters":7200,"station_id":"ce4bh2h2rcd13ifvqdh0","pricing_plan_id":"cebpf4jnsgd1na2vs0mg"},{"bike_id":"87655332-31ae-42a0-a8fe-667c3146ac34","system_id":"levelo_inurba_marseille","lat":43.29424,"lon":5.3974,"is_reserved":false,"is_disabled":false,"rental_uris":{"android":"levelo://app?vid=87655332-31ae-42a0-a8fe-667c3146ac34","ios":"levelo://app?vid=87655332-31ae-42a0-a8fe-667c3146ac34"},"vehicle_type_id":"4","last_reported":1745946559,"current_range_meters":7200,"station_id":"ce4bh3h2rcd13ifvqdo0","pricing_plan_id":"cebpf4jnsgd1na2vs0mg"},{"bike_id":"4827d061-57e8-4a8c-b3a8-dce8761ed0dc","system_id":"levelo_inurba_marseille","lat":43.27361,"lon":5.36256,"is_reserved":false,"is_disabled":false,"rental_uris":{"android":"levelo://app?vid=4827d061-57e8-4a8c-b3a8-dce8761ed0dc","ios":"levelo://app?vid=4827d061-57e8-4a8c-b3a8-dce8761ed0dc"},"vehicle_type_id":"4","last_reported":1745946559,"current_range_meters":7200,"station_id":"ce4bhbh2rcd13ifvqeo0","pricing_plan_id":"cebpf4jnsgd1na2vs0mg"},{"bike_id":"daa9fbcb-da10-4e6c-b51c-3acd9525dd77","system_id":"levelo_inurba_marseille","lat":43.27396,"lon":5.36278,"is_reserved":false,"is_disabled":false,"rental_uris":{"android":"levelo://app?vid=daa9fbcb-da10-4e6c-b51c-3acd9525dd77","ios":"levelo://app?vid=daa9fbcb-da10-4e6c-b51c-3acd9525dd77"},"vehicle_type_id":"4","last_reported":1745946559,"current_range_meters":7200,"station_id":"ce4bhbh2rcd13ifvqeo0","pricing_plan_id":"cebpf4jnsgd1na2vs0mg"},{"bike_id":"329dc633-f4af-4c63-8fb1-99bd39adf709","system_id":"levelo_inurba_marseille","lat":43.292237,"lon":5.36079,"is_reserved":false,"is_disabled":false,"rental_uris":{"android":"levelo://app?vid=329dc633-f4af-4c63-8fb1-99bd39adf709","ios":"levelo://app?vid=329dc633-f4af-4c63-8fb1-99bd39adf709"},"vehicle_type_id":"4","last_reported":1745946559,"current_range_meters":7200,"station_id":"ce4bhbh2rcd13ifvqeqg","pricing_plan_id":"cebpf4jnsgd1na2vs0mg"},{"bike_id":"d51ff576-9ca0-4d68-9a69-8cb591b29e0e","system_id":"levelo_inurba_marseille","lat":43.26555,"lon":5.39045,"is_reserved":false,"is_disabled":false,"rental_uris":{"android":"levelo://app?vid=d51ff576-9ca0-4d68-9a69-8cb591b29e0e","ios":"levelo://app?vid=d51ff576-9ca0-4d68-9a69-8cb591b29e0e"},"vehicle_type_id":"4","last_reported":1745946559,"current_range_meters":7200,"station_id":"ce4bhe12rcd13ifvqf30","pricing_plan_id":"cebpf4jnsgd1na2vs0mg"},{"bike_id":"2156aac5-c211-4700-bc27-36a54bbeabb9","system_id":"levelo_inurba_marseille","lat":43.270679,"lon":5.422906,"is_reserved":false,"is_disabled":false,"rental_uris":{"android":"levelo://app?vid=2156aac5-c211-4700-bc27-36a54bbeabb9","ios":"levelo://app?vid=2156aac5-c211-4700-bc27-36a54bbeabb9"},"vehicle_type_id":"4","last_reported":1745946559,"current_range_meters":7200,"station_id":"ce4bhk92rcd13ifvqgb0","pricing_plan_id":"cebpf4jnsgd1na2vs0mg"},{"bike_id":"e5b4b90d-e268-4de2-98f4-f6d0513f8801","system_id":"levelo_inurba_marseille","lat":43.26563,"lon":5.42195,"is_reserved":false,"is_disabled":false,"rental_uris":{"android":"levelo://app?vid=e5b4b90d-e268-4de2-98f4-f6d0513f8801","ios":"levelo://app?vid=e5b4b90d-e268-4de2-98f4-f6d0513f8801"},"vehicle_type_id":"4","last_reported":1745946559,"current_range_meters":8000,"station_id":"","pricing_plan_id":"cebpf4jnsgd1na2vs0mg"},{"bike_id":"ff182453-2d2e-4aa0-93ed-29fad6674829","system_id":"levelo_inurba_marseille","lat":43.29525,"lon":5.38544,"is_reserved":false,"is_disabled":false,"rental_uris":{"android":"levelo://app?vid=ff182453-2d2e-4aa0-93ed-29fad6674829","ios":"levelo://app?vid=ff182453-2d2e-4aa0-93ed-29fad6674829"},"vehicle_type_id":"4","last_reported":1745946559,"current_range_meters":8000,"station_id":"ce4bgih2rcd13ifvqba0","pricing_plan_id":"cebpf4jnsgd1na2vs0mg"},{"bike_id":"d89283fd-b7df-4c2e-8142-aa2b52ea375b","system_id":"levelo_inurba_marseille","lat":43.30322,"lon":5.4043,"is_reserved":false,"is_disabled":false,"rental_uris":{"android":"levelo://app?vid=d89283fd-b7df-4c2e-8142-aa2b52ea375b","ios":"levelo://app?vid=d89283fd-b7df-4c2e-8142-aa2b52ea375b"},"vehicle_type_id":"4","last_reported":1745946559,"current_range_meters":8000,"station_id":"ce4bh012rcd13ifvqd10","pricing_plan_id":"cebpf4jnsgd1na2vs0mg"},{"bike_id":"19b44de1-772b-4019-a8bd-d38c86b0f83e","system_id":"levelo_inurba_marseille","lat":43.28414,"lon":5.37504,"is_reserved":false,"is_disabled":false,"rental_uris":{"android":"levelo://app?vid=19b44de1-772b-4019-a8bd-d38c86b0f83e","ios":"levelo://app?vid=19b44de1-772b-4019-a8bd-d38c86b0f83e"},"vehicle_type_id":"4","last_reported":1745946559,"current_range_meters":8000,"station_id":"ce4bh412rcd13ifvqds0","pricing_plan_id":"cebpf4jnsgd1na2vs0mg"},{"bike_id":"6a8e13df-cd04-4a52-b66a-21a596b18ca2","system_id":"levelo_inurba_marseille","lat":43.24381,"lon":5.37048,"is_reserved":false,"is_disabled":false,"rental_uris":{"android":"levelo://app?vid=6a8e13df-cd04-4a52-b66a-21a596b18ca2","ios":"levelo://app?vid=6a8e13df-cd04-4a52-b66a-21a596b18ca2"},"vehicle_type_id":"4","last_reported":1745946559,"current_range_meters":8000,"station_id":"ce4bhhh2rcd13ifvqfk0","pricing_plan_id":"cebpf4jnsgd1na2vs0mg"},{"bike_id":"57b30b06-f743-4cf3-95c0-b855a922a14b","system_id":"levelo_inurba_marseille","lat":43.24178,"lon":5.36417,"is_reserved":false,"is_disabled":false,"rental_uris":{"android":"levelo://app?vid=57b30b06-f743-4cf3-95c0-b855a922a14b","ios":"levelo://app?vid=57b30b06-f743-4cf3-95c0-b855a922a14b"},"vehicle_type_id":"4","last_reported":1745946559,"current_range_meters":8000,"station_id":"cpo36qri1sfpv3e86is0","pricing_plan_id":"cebpf4jnsgd1na2vs0mg"},{"bike_id":"f5aded10-0e57-483a-af65-7debf0e75a48","system_id":"levelo_inurba_marseille","lat":43.32733,"lon":5.39254,"is_reserved":false,"is_disabled":false,"rental_uris":{"android":"levelo://app?vid=f5aded10-0e57-483a-af65-7debf0e75a48","ios":"levelo://app?vid=f5aded10-0e57-483a-af65-7debf0e75a48"},"vehicle_type_id":"4","last_reported":1745946559,"current_range_meters":8400,"station_id":"","pricing_plan_id":"cebpf4jnsgd1na2vs0mg"},{"bike_id":"fafd5db1-c476-4940-b922-ce53dcdb9765","system_id":"levelo_inurba_marseille","lat":43.306,"lon":5.37234,"is_reserved":false,"is_disabled":false,"rental_uris":{"android":"levelo://app?vid=fafd5db1-c476-4940-b922-ce53dcdb9765","ios":"levelo://app?vid=fafd5db1-c476-4940-b922-ce53dcdb9765"},"vehicle_type_id":"4","last_reported":1745946559,"current_range_meters":8400,"station_id":"ce4bgqh2rcd13ifvqc4g","pricing_plan_id":"cebpf4jnsgd1na2vs0mg"},{"bike_id":"9256f9d3-d57a-4f3d-9ed5-722f074cae75","system_id":"levelo_inurba_marseille","lat":43.30133,"lon":5.3987,"is_reserved":false,"is_disabled":false,"rental_uris":{"android":"levelo://app?vid=9256f9d3-d57a-4f3d-9ed5-722f074cae75","ios":"levelo://app?vid=9256f9d3-d57a-4f3d-9ed5-722f074cae75"},"vehicle_type_id":"4","last_reported":1745946559,"current_range_meters":8400,"station_id":"ce4bh0h2rcd13ifvqd40","pricing_plan_id":"cebpf4jnsgd1na2vs0mg"},{"bike_id":"07edfd45-c3fa-4b57-b865-cf1bf9963264","system_id":"levelo_inurba_marseille","lat":43.23386,"lon":5.36416,"is_reserved":false,"is_disabled":false,"rental_uris":{"android":"levelo://app?vid=07edfd45-c3fa-4b57-b865-cf1bf9963264","ios":"levelo://app?vid=07edfd45-c3fa-4b57-b865-cf1bf9963264"},"vehicle_type_id":"4","last_reported":1745946559,"current_range_meters":8800,"station_id":"","pricing_plan_id":"cebpf4jnsgd1na2vs0mg"},{"bike_id":"e8b01cc0-0d86-48fd-85e9-d37a34e68ec9","system_id":"levelo_inurba_marseille","lat":43.30889,"lon":5.39654,"is_reserved":false,"is_disabled":false,"rental_uris":{"android":"levelo://app?vid=e8b01cc0-0d86-48fd-85e9-d37a34e68ec9","ios":"levelo://app?vid=e8b01cc0-0d86-48fd-85e9-d37a34e68ec9"},"vehicle_type_id":"4","last_reported":1745946559,"current_range_meters":8800,"station_id":"ce4bh012rcd13ifvqcv0","pricing_plan_id":"cebpf4jnsgd1na2vs0mg"},{"bike_id":"0d9d1194-6968-4ee2-b7a3-fc7f1f23ffce","system_id":"levelo_inurba_marseille","lat":43.2738,"lon":5.36261,"is_reserved":false,"is_disabled":false,"rental_uris":{"android":"levelo://app?vid=0d9d1194-6968-4ee2-b7a3-fc7f1f23ffce","ios":"levelo://app?vid=0d9d1194-6968-4ee2-b7a3-fc7f1f23ffce"},"vehicle_type_id":"4","last_reported":1745946559,"current_range_meters":8800,"station_id":"ce4bhbh2rcd13ifvqeo0","pricing_plan_id":"cebpf4jnsgd1na2vs0mg"},{"bike_id":"ecb3168e-2a14-4364-ade6-9cface4c7c26","system_id":"levelo_inurba_marseille","lat":43.27982,"lon":5.38749,"is_reserved":false,"is_disabled":false,"rental_uris":{"android":"levelo://app?vid=ecb3168e-2a14-4364-ade6-9cface4c7c26","ios":"levelo://app?vid=ecb3168e-2a14-4364-ade6-9cface4c7c26"},"vehicle_type_id":"4","last_reported":1745946559,"current_range_meters":8800,"station_id":"ce4bhg12rcd13ifvqf80","pricing_plan_id":"cebpf4jnsgd1na2vs0mg"},{"bike_id":"7cb5cf69-00e5-4e8d-9279-54814f876b11","system_id":"levelo_inurba_marseille","lat":43.28137,"lon":5.44318,"is_reserved":false,"is_disabled":false,"rental_uris":{"android":"levelo://app?vid=7cb5cf69-00e5-4e8d-9279-54814f876b11","ios":"levelo://app?vid=7cb5cf69-00e5-4e8d-9279-54814f876b11"},"vehicle_type_id":"4","last_reported":1745946559,"current_range_meters":9200,"station_id":"","pricing_plan_id":"cebpf4jnsgd1na2vs0mg"},{"bike_id":"b96f21bb-69d8-4cbf-b464-f36a8f53d6e0","system_id":"levelo_inurba_marseille","lat":43.26005,"lon":5.4171,"is_reserved":false,"is_disabled":false,"rental_uris":{"android":"levelo://app?vid=b96f21bb-69d8-4cbf-b464-f36a8f53d6e0","ios":"levelo://app?vid=b96f21bb-69d8-4cbf-b464-f36a8f53d6e0"},"vehicle_type_id":"4","last_reported":1745946559,"current_range_meters":9200,"station_id":"","pricing_plan_id":"cebpf4jnsgd1na2vs0mg"},{"bike_id":"009bbc3d-a013-4d60-a7da-cb039a7f8634","system_id":"levelo_inurba_marseille","lat":43.28567,"lon":5.39495,"is_reserved":false,"is_disabled":false,"rental_uris":{"android":"levelo://app?vid=009bbc3d-a013-4d60-a7da-cb039a7f8634","ios":"levelo://app?vid=009bbc3d-a013-4d60-a7da-cb039a7f8634"},"vehicle_type_id":"4","last_reported":1745946559,"current_range_meters":9200,"station_id":"ce4bh292rcd13ifvqdg0","pricing_plan_id":"cebpf4jnsgd1na2vs0mg"},{"bike_id":"d08ef8a8-3016-46b3-bf11-73d5142d04f5","system_id":"levelo_inurba_marseille","lat":43.28632,"lon":5.35135,"is_reserved":false,"is_disabled":false,"rental_uris":{"android":"levelo://app?vid=d08ef8a8-3016-46b3-bf11-73d5142d04f5","ios":"levelo://app?vid=d08ef8a8-3016-46b3-bf11-73d5142d04f5"},"vehicle_type_id":"4","last_reported":1745946559,"current_range_meters":9200,"station_id":"ce4bhch2rcd13ifvqeug","pricing_plan_id":"cebpf4jnsgd1na2vs0mg"},{"bike_id":"a07da27e-26dd-42c9-ad97-0748d978e0a9","system_id":"levelo_inurba_marseille","lat":43.27835,"lon":5.39212,"is_reserved":false,"is_disabled":false,"rental_uris":{"android":"levelo://app?vid=a07da27e-26dd-42c9-ad97-0748d978e0a9","ios":"levelo://app?vid=a07da27e-26dd-42c9-ad97-0748d978e0a9"},"vehicle_type_id":"4","last_reported":1745946559,"current_range_meters":9600,"station_id":"ce4bhjp2rcd13ifvqga0","pricing_plan_id":"cebpf4jnsgd1na2vs0mg"},{"bike_id":"01f1a432-ac6d-4b6c-8ac6-d1ce93369798","system_id":"levelo_inurba_marseille","lat":43.27818,"lon":5.40694,"is_reserved":false,"is_disabled":false,"rental_uris":{"android":"levelo://app?vid=01f1a432-ac6d-4b6c-8ac6-d1ce93369798","ios":"levelo://app?vid=01f1a432-ac6d-4b6c-8ac6-d1ce93369798"},"vehicle_type_id":"4","last_reported":1745946559,"current_range_meters":9600,"station_id":"ce4bhnh2rcd13ifvqgtg","pricing_plan_id":"cebpf4jnsgd1na2vs0mg"},{"bike_id":"28894e81-ede6-4351-84e3-e6b48081a345","system_id":"levelo_inurba_marseille","lat":43.33461,"lon":5.39997,"is_reserved":false,"is_disabled":false,"rental_uris":{"android":"levelo://app?vid=28894e81-ede6-4351-84e3-e6b48081a345","ios":"levelo://app?vid=28894e81-ede6-4351-84e3-e6b48081a345"},"vehicle_type_id":"4","last_reported":1745946559,"current_range_meters":10000,"station_id":"","pricing_plan_id":"cebpf4jnsgd1na2vs0mg"},{"bike_id":"1e2125e8-1ef7-4c96-ae95-711f7965b412","system_id":"levelo_inurba_marseille","lat":43.28666,"lon":5.35087,"is_reserved":false,"is_disabled":false,"rental_uris":{"android":"levelo://app?vid=1e2125e8-1ef7-4c96-ae95-711f7965b412","ios":"levelo://app?vid=1e2125e8-1ef7-4c96-ae95-711f7965b412"},"vehicle_type_id":"4","last_reported":1745946559,"current_range_meters":10000,"station_id":"","pricing_plan_id":"cebpf4jnsgd1na2vs0mg"},{"bike_id":"5d4d1d02-a137-4b5e-8554-2f9eb508059c","system_id":"levelo_inurba_marseille","lat":43.28725,"lon":5.37936,"is_reserved":false,"is_disabled":false,"rental_uris":{"android":"levelo://app?vid=5d4d1d02-a137-4b5e-8554-2f9eb508059c","ios":"levelo://app?vid=5d4d1d02-a137-4b5e-8554-2f9eb508059c"},"vehicle_type_id":"4","last_reported":1745946559,"current_range_meters":10000,"station_id":"ce4bh9p2rcd13ifvqec0","pricing_plan_id":"cebpf4jnsgd1na2vs0mg"},{"bike_id":"81f82fb4-b79f-441d-a32c-0bc304efb0b5","system_id":"levelo_inurba_marseille","lat":43.23195,"lon":5.35547,"is_reserved":false,"is_disabled":false,"rental_uris":{"android":"levelo://app?vid=81f82fb4-b79f-441d-a32c-0bc304efb0b5","ios":"levelo://app?vid=81f82fb4-b79f-441d-a32c-0bc304efb0b5"},"vehicle_type_id":"4","last_reported":1745946559,"current_range_meters":10000,"station_id":"ce4bhu92rcd13ifvqi70","pricing_plan_id":"cebpf4jnsgd1na2vs0mg"},{"bike_id":"0cd099b8-df73-4abf-be2b-b1d7712e32ae","system_id":"levelo_inurba_marseille","lat":43.30537,"lon":5.38425,"is_reserved":false,"is_disabled":false,"rental_uris":{"android":"levelo://app?vid=0cd099b8-df73-4abf-be2b-b1d7712e32ae","ios":"levelo://app?vid=0cd099b8-df73-4abf-be2b-b1d7712e32ae"},"vehicle_type_id":"4","last_reported":1745946559,"current_range_meters":10800,"station_id":"ce4bgg92rcd13ifvqb30","pricing_plan_id":"cebpf4jnsgd1na2vs0mg"},{"bike_id":"adfb538e-4cb5-45c8-ba77-6ed50b697419","system_id":"levelo_inurba_marseille","lat":43.29881,"lon":5.38899,"is_reserved":false,"is_disabled":false,"rental_uris":{"android":"levelo://app?vid=adfb538e-4cb5-45c8-ba77-6ed50b697419","ios":"levelo://app?vid=adfb538e-4cb5-45c8-ba77-6ed50b697419"},"vehicle_type_id":"4","last_reported":1745946559,"current_range_meters":10800,"station_id":"ce4bh392rcd13ifvqdl0","pricing_plan_id":"cebpf4jnsgd1na2vs0mg"},{"bike_id":"cdc93927-476b-4575-a0ff-05af3eddf73f","system_id":"levelo_inurba_marseille","lat":43.29435,"lon":5.39758,"is_reserved":false,"is_disabled":false,"rental_uris":{"android":"levelo://app?vid=cdc93927-476b-4575-a0ff-05af3eddf73f","ios":"levelo://app?vid=cdc93927-476b-4575-a0ff-05af3eddf73f"},"vehicle_type_id":"4","last_reported":1745946559,"current_range_meters":10800,"station_id":"ce4bh3h2rcd13ifvqdo0","pricing_plan_id":"cebpf4jnsgd1na2vs0mg"},{"bike_id":"1d20f6b1-0e9a-4517-977b-a4ca455de4b9","system_id":"levelo_inurba_marseille","lat":43.29263,"lon":5.38439,"is_reserved":false,"is_disabled":false,"rental_uris":{"android":"levelo://app?vid=1d20f6b1-0e9a-4517-977b-a4ca455de4b9","ios":"levelo://app?vid=1d20f6b1-0e9a-4517-977b-a4ca455de4b9"},"vehicle_type_id":"4","last_reported":1745946559,"current_range_meters":10800,"station_id":"ce4bh692rcd13ifvqea0","pricing_plan_id":"cebpf4jnsgd1na2vs0mg"},{"bike_id":"d0798068-5b55-480a-8ff8-a6a4d219dc51","system_id":"levelo_inurba_marseille","lat":43.29906,"lon":5.43649,"is_reserved":false,"is_disabled":false,"rental_uris":{"android":"levelo://app?vid=d0798068-5b55-480a-8ff8-a6a4d219dc51","ios":"levelo://app?vid=d0798068-5b55-480a-8ff8-a6a4d219dc51"},"vehicle_type_id":"4","last_reported":1745946559,"current_range_meters":10800,"station_id":"ce4bhpp2rcd13ifvqhfg","pricing_plan_id":"cebpf4jnsgd1na2vs0mg"},{"bike_id":"bcbdece9-18a4-4ced-8494-9c131639e5f6","system_id":"levelo_inurba_marseille","lat":43.2612,"lon":5.41493,"is_reserved":false,"is_disabled":false,"rental_uris":{"android":"levelo://app?vid=bcbdece9-18a4-4ced-8494-9c131639e5f6","ios":"levelo://app?vid=bcbdece9-18a4-4ced-8494-9c131639e5f6"},"vehicle_type_id":"4","last_reported":1745946559,"current_range_meters":11200,"station_id":"","pricing_plan_id":"cebpf4jnsgd1na2vs0mg"},{"bike_id":"6063b592-e3f0-44fd-a98b-c39437a34669","system_id":"levelo_inurba_marseille","lat":43.27625,"lon":5.36122,"is_reserved":false,"is_disabled":false,"rental_uris":{"android":"levelo://app?vid=6063b592-e3f0-44fd-a98b-c39437a34669","ios":"levelo://app?vid=6063b592-e3f0-44fd-a98b-c39437a34669"},"vehicle_type_id":"4","last_reported":1745946559,"current_range_meters":11200,"station_id":"ce4bgj92rcd13ifvqbe0","pricing_plan_id":"cebpf4jnsgd1na2vs0mg"},{"bike_id":"4323f0f3-bc0b-4cf0-895d-5f69ce635e2d","system_id":"levelo_inurba_marseille","lat":43.30889,"lon":5.39648,"is_reserved":false,"is_disabled":false,"rental_uris":{"android":"levelo://app?vid=4323f0f3-bc0b-4cf0-895d-5f69ce635e2d","ios":"levelo://app?vid=4323f0f3-bc0b-4cf0-895d-5f69ce635e2d"},"vehicle_type_id":"4","last_reported":1745946559,"current_range_meters":11200,"station_id":"ce4bh012rcd13ifvqcv0","pricing_plan_id":"cebpf4jnsgd1na2vs0mg"},{"bike_id":"00a0736b-2737-43fa-a64d-85afd9d5b797","system_id":"levelo_inurba_marseille","lat":43.29264,"lon":5.40913,"is_reserved":false,"is_disabled":false,"rental_uris":{"android":"levelo://app?vid=00a0736b-2737-43fa-a64d-85afd9d5b797","ios":"levelo://app?vid=00a0736b-2737-43fa-a64d-85afd9d5b797"},"vehicle_type_id":"4","last_reported":1745946559,"current_range_meters":11200,"station_id":"ce4bh192rcd13ifvqdc0","pricing_plan_id":"cebpf4jnsgd1na2vs0mg"},{"bike_id":"59812421-f46c-44c2-8413-09aa506d7ca8","system_id":"levelo_inurba_marseille","lat":43.29077,"lon":5.37187,"is_reserved":false,"is_disabled":false,"rental_uris":{"android":"levelo://app?vid=59812421-f46c-44c2-8413-09aa506d7ca8","ios":"levelo://app?vid=59812421-f46c-44c2-8413-09aa506d7ca8"},"vehicle_type_id":"4","last_reported":1745946559,"current_range_meters":11200,"station_id":"ce4bh5p2rcd13ifvqe4g","pricing_plan_id":"cebpf4jnsgd1na2vs0mg"},{"bike_id":"54db8be8-2b0e-47d2-a4c0-f712c1332836","system_id":"levelo_inurba_marseille","lat":43.307171,"lon":5.374528,"is_reserved":false,"is_disabled":false,"rental_uris":{"android":"levelo://app?vid=54db8be8-2b0e-47d2-a4c0-f712c1332836","ios":"levelo://app?vid=54db8be8-2b0e-47d2-a4c0-f712c1332836"},"vehicle_type_id":"4","last_reported":1745946559,"current_range_meters":11600,"station_id":"","pricing_plan_id":"cebpf4jnsgd1na2vs0mg"},{"bike_id":"5c7b7cf2-6ad3-4476-8e48-4b0c2e018300","system_id":"levelo_inurba_marseille","lat":43.28697,"lon":5.36403,"is_reserved":false,"is_disabled":false,"rental_uris":{"android":"levelo://app?vid=5c7b7cf2-6ad3-4476-8e48-4b0c2e018300","ios":"levelo://app?vid=5c7b7cf2-6ad3-4476-8e48-4b0c2e018300"},"vehicle_type_id":"4","last_reported":1745946559,"current_range_meters":11600,"station_id":"ce4bhah2rcd13ifvqej0","pricing_plan_id":"cebpf4jnsgd1na2vs0mg"},{"bike_id":"33f7f3aa-ffb1-443b-8bef-ae839935be0a","system_id":"levelo_inurba_marseille","lat":43.28611,"lon":5.35104,"is_reserved":false,"is_disabled":false,"rental_uris":{"android":"levelo://app?vid=33f7f3aa-ffb1-443b-8bef-ae839935be0a","ios":"levelo://app?vid=33f7f3aa-ffb1-443b-8bef-ae839935be0a"},"vehicle_type_id":"4","last_reported":1745946559,"current_range_meters":11600,"station_id":"ce4bhch2rcd13ifvqeug","pricing_plan_id":"cebpf4jnsgd1na2vs0mg"},{"bike_id":"24874d25-6733-4544-ad71-9df2fa772748","system_id":"levelo_inurba_marseille","lat":43.28611,"lon":5.35078,"is_reserved":false,"is_disabled":false,"rental_uris":{"android":"levelo://app?vid=24874d25-6733-4544-ad71-9df2fa772748","ios":"levelo://app?vid=24874d25-6733-4544-ad71-9df2fa772748"},"vehicle_type_id":"4","last_reported":1745946559,"current_range_meters":12000,"station_id":"ce4bhch2rcd13ifvqeug","pricing_plan_id":"cebpf4jnsgd1na2vs0mg"},{"bike_id":"0e4f56ad-d4db-4abd-ad59-978911a5daca","system_id":"levelo_inurba_marseille","lat":43.24806,"lon":5.37458,"is_reserved":false,"is_disabled":false,"rental_uris":{"android":"levelo://app?vid=0e4f56ad-d4db-4abd-ad59-978911a5daca","ios":"levelo://app?vid=0e4f56ad-d4db-4abd-ad59-978911a5daca"},"vehicle_type_id":"4","last_reported":1745946559,"current_range_meters":12000,"station_id":"ce4bhgh2rcd13ifvqfb0","pricing_plan_id":"cebpf4jnsgd1na2vs0mg"},{"bike_id":"489415b8-9254-45c1-b00c-e7554d56755c","system_id":"levelo_inurba_marseille","lat":43.24553,"lon":5.41215,"is_reserved":false,"is_disabled":false,"rental_uris":{"android":"levelo://app?vid=489415b8-9254-45c1-b00c-e7554d56755c","ios":"levelo://app?vid=489415b8-9254-45c1-b00c-e7554d56755c"},"vehicle_type_id":"4","last_reported":1745946559,"current_range_meters":12800,"station_id":"","pricing_plan_id":"cebpf4jnsgd1na2vs0mg"},{"bike_id":"4a130227-9721-4506-b338-c67bb494cb47","system_id":"levelo_inurba_marseille","lat":43.28404,"lon":5.37508,"is_reserved":false,"is_disabled":false,"rental_uris":{"android":"levelo://app?vid=4a130227-9721-4506-b338-c67bb494cb47","ios":"levelo://app?vid=4a130227-9721-4506-b338-c67bb494cb47"},"vehicle_type_id":"4","last_reported":1745946559,"current_range_meters":12800,"station_id":"ce4bh412rcd13ifvqds0","pricing_plan_id":"cebpf4jnsgd1na2vs0mg"},{"bike_id":"e27c9434-7cad-426a-accf-7de8131c5123","system_id":"levelo_inurba_marseille","lat":43.286243,"lon":5.35091,"is_reserved":false,"is_disabled":false,"rental_uris":{"android":"levelo://app?vid=e27c9434-7cad-426a-accf-7de8131c5123","ios":"levelo://app?vid=e27c9434-7cad-426a-accf-7de8131c5123"},"vehicle_type_id":"4","last_reported":1745946559,"current_range_meters":12800,"station_id":"ce4bhch2rcd13ifvqeug","pricing_plan_id":"cebpf4jnsgd1na2vs0mg"},{"bike_id":"2d303286-1748-405f-b5c7-c9d6c2ec111c","system_id":"levelo_inurba_marseille","lat":43.243971,"lon":5.370481,"is_reserved":false,"is_disabled":false,"rental_uris":{"android":"levelo://app?vid=2d303286-1748-405f-b5c7-c9d6c2ec111c","ios":"levelo://app?vid=2d303286-1748-405f-b5c7-c9d6c2ec111c"},"vehicle_type_id":"4","last_reported":1745946559,"current_range_meters":12800,"station_id":"ce4bhhh2rcd13ifvqfk0","pricing_plan_id":"cebpf4jnsgd1na2vs0mg"},{"bike_id":"920192e3-1852-4c38-a6a2-770caab973ac","system_id":"levelo_inurba_marseille","lat":43.23178,"lon":5.39981,"is_reserved":false,"is_disabled":false,"rental_uris":{"android":"levelo://app?vid=920192e3-1852-4c38-a6a2-770caab973ac","ios":"levelo://app?vid=920192e3-1852-4c38-a6a2-770caab973ac"},"vehicle_type_id":"4","last_reported":1745946559,"current_range_meters":12800,"station_id":"ce4bhn12rcd13ifvqgqg","pricing_plan_id":"cebpf4jnsgd1na2vs0mg"},{"bike_id":"071a671b-fb53-468b-ba8f-96ef79b57233","system_id":"levelo_inurba_marseille","lat":43.32364,"lon":5.36696,"is_reserved":false,"is_disabled":false,"rental_uris":{"android":"levelo://app?vid=071a671b-fb53-468b-ba8f-96ef79b57233","ios":"levelo://app?vid=071a671b-fb53-468b-ba8f-96ef79b57233"},"vehicle_type_id":"4","last_reported":1745946559,"current_range_meters":13600,"station_id":"","pricing_plan_id":"cebpf4jnsgd1na2vs0mg"},{"bike_id":"87bcb1f1-18a2-45d4-9c4c-feb0051fc1d7","system_id":"levelo_inurba_marseille","lat":43.2784,"lon":5.3921,"is_reserved":false,"is_disabled":false,"rental_uris":{"android":"levelo://app?vid=87bcb1f1-18a2-45d4-9c4c-feb0051fc1d7","ios":"levelo://app?vid=87bcb1f1-18a2-45d4-9c4c-feb0051fc1d7"},"vehicle_type_id":"4","last_reported":1745946559,"current_range_meters":14000,"station_id":"ce4bhjp2rcd13ifvqga0","pricing_plan_id":"cebpf4jnsgd1na2vs0mg"},{"bike_id":"fdd664fc-cc2d-40a1-a08d-fcc2558afd9e","system_id":"levelo_inurba_marseille","lat":43.28156,"lon":5.42699,"is_reserved":false,"is_disabled":false,"rental_uris":{"android":"levelo://app?vid=fdd664fc-cc2d-40a1-a08d-fcc2558afd9e","ios":"levelo://app?vid=fdd664fc-cc2d-40a1-a08d-fcc2558afd9e"},"vehicle_type_id":"4","last_reported":1745946559,"current_range_meters":14000,"station_id":"ce4bhnh2rcd13ifvqgug","pricing_plan_id":"cebpf4jnsgd1na2vs0mg"},{"bike_id":"ddf42e2f-5ba3-456f-b6b9-71a4fb220f7c","system_id":"levelo_inurba_marseille","lat":43.217519,"lon":5.34602,"is_reserved":false,"is_disabled":false,"rental_uris":{"android":"levelo://app?vid=ddf42e2f-5ba3-456f-b6b9-71a4fb220f7c","ios":"levelo://app?vid=ddf42e2f-5ba3-456f-b6b9-71a4fb220f7c"},"vehicle_type_id":"4","last_reported":1745946559,"current_range_meters":14400,"station_id":"","pricing_plan_id":"cebpf4jnsgd1na2vs0mg"},{"bike_id":"1cb3da76-f497-49e4-a8a6-5a0629444d60","system_id":"levelo_inurba_marseille","lat":43.29941,"lon":5.36704,"is_reserved":false,"is_disabled":false,"rental_uris":{"android":"levelo://app?vid=1cb3da76-f497-49e4-a8a6-5a0629444d60","ios":"levelo://app?vid=1cb3da76-f497-49e4-a8a6-5a0629444d60"},"vehicle_type_id":"4","last_reported":1745946559,"current_range_meters":14400,"station_id":"","pricing_plan_id":"cebpf4jnsgd1na2vs0mg"},{"bike_id":"fd661b75-ab7d-4136-96e7-6a1bab65f7b3","system_id":"levelo_inurba_marseille","lat":43.2762,"lon":5.36118,"is_reserved":false,"is_disabled":false,"rental_uris":{"android":"levelo://app?vid=fd661b75-ab7d-4136-96e7-6a1bab65f7b3","ios":"levelo://app?vid=fd661b75-ab7d-4136-96e7-6a1bab65f7b3"},"vehicle_type_id":"4","last_reported":1745946559,"current_range_meters":14400,"station_id":"ce4bgj92rcd13ifvqbe0","pricing_plan_id":"cebpf4jnsgd1na2vs0mg"},{"bike_id":"acb987e1-64fe-46f5-898a-e0a889967a2d","system_id":"levelo_inurba_marseille","lat":43.284136,"lon":5.349821,"is_reserved":false,"is_disabled":false,"rental_uris":{"android":"levelo://app?vid=acb987e1-64fe-46f5-898a-e0a889967a2d","ios":"levelo://app?vid=acb987e1-64fe-46f5-898a-e0a889967a2d"},"vehicle_type_id":"4","last_reported":1745946559,"current_range_meters":14400,"station_id":"ce4bhbh2rcd13ifvqepg","pricing_plan_id":"cebpf4jnsgd1na2vs0mg"},{"bike_id":"5b69ebdf-e55e-40e1-93b7-04c10b716507","system_id":"levelo_inurba_marseille","lat":43.24406,"lon":5.3705,"is_reserved":false,"is_disabled":false,"rental_uris":{"android":"levelo://app?vid=5b69ebdf-e55e-40e1-93b7-04c10b716507","ios":"levelo://app?vid=5b69ebdf-e55e-40e1-93b7-04c10b716507"},"vehicle_type_id":"4","last_reported":1745946559,"current_range_meters":14400,"station_id":"ce4bhhh2rcd13ifvqfk0","pricing_plan_id":"cebpf4jnsgd1na2vs0mg"},{"bike_id":"a7ac3f18-5a00-4a30-9051-cee017e6e7c3","system_id":"levelo_inurba_marseille","lat":43.23207,"lon":5.39972,"is_reserved":false,"is_disabled":false,"rental_uris":{"android":"levelo://app?vid=a7ac3f18-5a00-4a30-9051-cee017e6e7c3","ios":"levelo://app?vid=a7ac3f18-5a00-4a30-9051-cee017e6e7c3"},"vehicle_type_id":"4","last_reported":1745946559,"current_range_meters":14400,"station_id":"ce4bhn12rcd13ifvqgqg","pricing_plan_id":"cebpf4jnsgd1na2vs0mg"},{"bike_id":"fe0c4d1a-9874-47df-b868-a5e70081d8ce","system_id":"levelo_inurba_marseille","lat":43.229327,"lon":5.353747,"is_reserved":false,"is_disabled":false,"rental_uris":{"android":"levelo://app?vid=fe0c4d1a-9874-47df-b868-a5e70081d8ce","ios":"levelo://app?vid=fe0c4d1a-9874-47df-b868-a5e70081d8ce"},"vehicle_type_id":"4","last_reported":1745946559,"current_range_meters":14400,"station_id":"cpo3532slgdg3j2ikp40","pricing_plan_id":"cebpf4jnsgd1na2vs0mg"},{"bike_id":"05091a91-fc03-470c-9db3-f828e73a95c9","system_id":"levelo_inurba_marseille","lat":43.29233,"lon":5.40858,"is_reserved":false,"is_disabled":false,"rental_uris":{"android":"levelo://app?vid=05091a91-fc03-470c-9db3-f828e73a95c9","ios":"levelo://app?vid=05091a91-fc03-470c-9db3-f828e73a95c9"},"vehicle_type_id":"4","last_reported":1745946559,"current_range_meters":14800,"station_id":"ce4bh192rcd13ifvqdc0","pricing_plan_id":"cebpf4jnsgd1na2vs0mg"},{"bike_id":"1a3d5729-0606-4194-9467-dbaef8af4954","system_id":"levelo_inurba_marseille","lat":43.29258,"lon":5.38441,"is_reserved":false,"is_disabled":false,"rental_uris":{"android":"levelo://app?vid=1a3d5729-0606-4194-9467-dbaef8af4954","ios":"levelo://app?vid=1a3d5729-0606-4194-9467-dbaef8af4954"},"vehicle_type_id":"4","last_reported":1745946559,"current_range_meters":14800,"station_id":"ce4bh692rcd13ifvqea0","pricing_plan_id":"cebpf4jnsgd1na2vs0mg"},{"bike_id":"91419b51-a87b-438c-9e3a-9cc8bd0db318","system_id":"levelo_inurba_marseille","lat":43.32109,"lon":5.36781,"is_reserved":false,"is_disabled":false,"rental_uris":{"android":"levelo://app?vid=91419b51-a87b-438c-9e3a-9cc8bd0db318","ios":"levelo://app?vid=91419b51-a87b-438c-9e3a-9cc8bd0db318"},"vehicle_type_id":"4","last_reported":1745946559,"current_range_meters":14800,"station_id":"ce4bhrh2rcd13ifvqhug","pricing_plan_id":"cebpf4jnsgd1na2vs0mg"},{"bike_id":"e4d23925-de1c-4052-a17f-91f3ce119f22","system_id":"levelo_inurba_marseille","lat":43.2962,"lon":5.37163,"is_reserved":false,"is_disabled":false,"rental_uris":{"android":"levelo://app?vid=e4d23925-de1c-4052-a17f-91f3ce119f22","ios":"levelo://app?vid=e4d23925-de1c-4052-a17f-91f3ce119f22"},"vehicle_type_id":"4","last_reported":1745946559,"current_range_meters":15200,"station_id":"ce4bgnh2rcd13ifvqc0g","pricing_plan_id":"cebpf4jnsgd1na2vs0mg"},{"bike_id":"d22ea0d4-eba9-4564-a572-93aa03cb3a04","system_id":"levelo_inurba_marseille","lat":43.29255,"lon":5.4091,"is_reserved":false,"is_disabled":false,"rental_uris":{"android":"levelo://app?vid=d22ea0d4-eba9-4564-a572-93aa03cb3a04","ios":"levelo://app?vid=d22ea0d4-eba9-4564-a572-93aa03cb3a04"},"vehicle_type_id":"4","last_reported":1745946559,"current_range_meters":15200,"station_id":"ce4bh192rcd13ifvqdc0","pricing_plan_id":"cebpf4jnsgd1na2vs0mg"},{"bike_id":"6777c270-35fd-4a68-8e60-b45e637a6fd8","system_id":"levelo_inurba_marseille","lat":43.29255,"lon":5.40904,"is_reserved":false,"is_disabled":false,"rental_uris":{"android":"levelo://app?vid=6777c270-35fd-4a68-8e60-b45e637a6fd8","ios":"levelo://app?vid=6777c270-35fd-4a68-8e60-b45e637a6fd8"},"vehicle_type_id":"4","last_reported":1745946559,"current_range_meters":15200,"station_id":"ce4bh192rcd13ifvqdc0","pricing_plan_id":"cebpf4jnsgd1na2vs0mg"},{"bike_id":"6d1c5eaf-041b-4e46-be6f-e55c97ecb5cb","system_id":"levelo_inurba_marseille","lat":43.31987,"lon":5.38141,"is_reserved":false,"is_disabled":false,"rental_uris":{"android":"levelo://app?vid=6d1c5eaf-041b-4e46-be6f-e55c97ecb5cb","ios":"levelo://app?vid=6d1c5eaf-041b-4e46-be6f-e55c97ecb5cb"},"vehicle_type_id":"4","last_reported":1745946559,"current_range_meters":15200,"station_id":"ce4bhr12rcd13ifvqhpg","pricing_plan_id":"cebpf4jnsgd1na2vs0mg"},{"bike_id":"b0ae2015-ff9d-4b20-ab88-4d18a9f88568","system_id":"levelo_inurba_marseille","lat":43.31684,"lon":5.40468,"is_reserved":false,"is_disabled":false,"rental_uris":{"android":"levelo://app?vid=b0ae2015-ff9d-4b20-ab88-4d18a9f88568","ios":"levelo://app?vid=b0ae2015-ff9d-4b20-ab88-4d18a9f88568"},"vehicle_type_id":"4","last_reported":1745946559,"current_range_meters":16000,"station_id":"ce4bh012rcd13ifvqd00","pricing_plan_id":"cebpf4jnsgd1na2vs0mg"},{"bike_id":"4b87430f-c189-42cd-b4d4-fce6b3a47316","system_id":"levelo_inurba_marseille","lat":43.28035,"lon":5.3696,"is_reserved":false,"is_disabled":false,"rental_uris":{"android":"levelo://app?vid=4b87430f-c189-42cd-b4d4-fce6b3a47316","ios":"levelo://app?vid=4b87430f-c189-42cd-b4d4-fce6b3a47316"},"vehicle_type_id":"4","last_reported":1745946559,"current_range_meters":16000,"station_id":"ce4bha12rcd13ifvqef0","pricing_plan_id":"cebpf4jnsgd1na2vs0mg"},{"bike_id":"37a28b07-9a68-454f-9df7-7d4a55c7eb7c","system_id":"levelo_inurba_marseille","lat":43.29001,"lon":5.35602,"is_reserved":false,"is_disabled":false,"rental_uris":{"android":"levelo://app?vid=37a28b07-9a68-454f-9df7-7d4a55c7eb7c","ios":"levelo://app?vid=37a28b07-9a68-454f-9df7-7d4a55c7eb7c"},"vehicle_type_id":"4","last_reported":1745946559,"current_range_meters":16000,"station_id":"ce4bhb92rcd13ifvqen0","pricing_plan_id":"cebpf4jnsgd1na2vs0mg"},{"bike_id":"0be9f515-6ced-48f3-a44a-1acf4f216636","system_id":"levelo_inurba_marseille","lat":43.28412,"lon":5.34975,"is_reserved":false,"is_disabled":false,"rental_uris":{"android":"levelo://app?vid=0be9f515-6ced-48f3-a44a-1acf4f216636","ios":"levelo://app?vid=0be9f515-6ced-48f3-a44a-1acf4f216636"},"vehicle_type_id":"4","last_reported":1745946559,"current_range_meters":16000,"station_id":"ce4bhbh2rcd13ifvqepg","pricing_plan_id":"cebpf4jnsgd1na2vs0mg"},{"bike_id":"916d3b2c-5891-4f1a-99cf-5e7a15c2ea92","system_id":"levelo_inurba_marseille","lat":43.25576,"lon":5.38232,"is_reserved":false,"is_disabled":false,"rental_uris":{"android":"levelo://app?vid=916d3b2c-5891-4f1a-99cf-5e7a15c2ea92","ios":"levelo://app?vid=916d3b2c-5891-4f1a-99cf-5e7a15c2ea92"},"vehicle_type_id":"4","last_reported":1745946559,"current_range_meters":16000,"station_id":"ce4bhih2rcd13ifvqfs0","pricing_plan_id":"cebpf4jnsgd1na2vs0mg"},{"bike_id":"6a388e51-f500-4285-9e5f-ec6a7e4f9da6","system_id":"levelo_inurba_marseille","lat":43.31754,"lon":5.39017,"is_reserved":false,"is_disabled":false,"rental_uris":{"android":"levelo://app?vid=6a388e51-f500-4285-9e5f-ec6a7e4f9da6","ios":"levelo://app?vid=6a388e51-f500-4285-9e5f-ec6a7e4f9da6"},"vehicle_type_id":"4","last_reported":1745946559,"current_range_meters":16000,"station_id":"ce4bhqp2rcd13ifvqhng","pricing_plan_id":"cebpf4jnsgd1na2vs0mg"},{"bike_id":"8663b10c-1e24-428c-bec4-66fabeba84de","system_id":"levelo_inurba_marseille","lat":43.29273,"lon":5.36857,"is_reserved":false,"is_disabled":false,"rental_uris":{"android":"levelo://app?vid=8663b10c-1e24-428c-bec4-66fabeba84de","ios":"levelo://app?vid=8663b10c-1e24-428c-bec4-66fabeba84de"},"vehicle_type_id":"4","last_reported":1745946559,"current_range_meters":16400,"station_id":"","pricing_plan_id":"cebpf4jnsgd1na2vs0mg"},{"bike_id":"fbc45248-60fb-46f9-bb25-cd2d6e51e8ed","system_id":"levelo_inurba_marseille","lat":43.2396,"lon":5.36639,"is_reserved":false,"is_disabled":false,"rental_uris":{"android":"levelo://app?vid=fbc45248-60fb-46f9-bb25-cd2d6e51e8ed","ios":"levelo://app?vid=fbc45248-60fb-46f9-bb25-cd2d6e51e8ed"},"vehicle_type_id":"4","last_reported":1745946559,"current_range_meters":16400,"station_id":"ce4bhi12rcd13ifvqfp0","pricing_plan_id":"cebpf4jnsgd1na2vs0mg"},{"bike_id":"be6475b0-f7bb-412d-8551-f89c69298d5c","system_id":"levelo_inurba_marseille","lat":43.30602,"lon":5.37224,"is_reserved":false,"is_disabled":false,"rental_uris":{"android":"levelo://app?vid=be6475b0-f7bb-412d-8551-f89c69298d5c","ios":"levelo://app?vid=be6475b0-f7bb-412d-8551-f89c69298d5c"},"vehicle_type_id":"4","last_reported":1745946559,"current_range_meters":16800,"station_id":"ce4bgqh2rcd13ifvqc4g","pricing_plan_id":"cebpf4jnsgd1na2vs0mg"},{"bike_id":"ac5bebcc-7db3-406b-a289-37feae9c0e98","system_id":"levelo_inurba_marseille","lat":43.29245,"lon":5.40896,"is_reserved":false,"is_disabled":false,"rental_uris":{"android":"levelo://app?vid=ac5bebcc-7db3-406b-a289-37feae9c0e98","ios":"levelo://app?vid=ac5bebcc-7db3-406b-a289-37feae9c0e98"},"vehicle_type_id":"4","last_reported":1745946559,"current_range_meters":16800,"station_id":"ce4bh192rcd13ifvqdc0","pricing_plan_id":"cebpf4jnsgd1na2vs0mg"},{"bike_id":"2f2ee64f-49ef-489b-ae79-fba23835c12d","system_id":"levelo_inurba_marseille","lat":43.28665,"lon":5.35115,"is_reserved":false,"is_disabled":false,"rental_uris":{"android":"levelo://app?vid=2f2ee64f-49ef-489b-ae79-fba23835c12d","ios":"levelo://app?vid=2f2ee64f-49ef-489b-ae79-fba23835c12d"},"vehicle_type_id":"4","last_reported":1745946559,"current_range_meters":16800,"station_id":"ce4bhch2rcd13ifvqeug","pricing_plan_id":"cebpf4jnsgd1na2vs0mg"},{"bike_id":"202d6ff4-4844-419c-80d8-4a387e402a17","system_id":"levelo_inurba_marseille","lat":43.27177,"lon":5.40994,"is_reserved":false,"is_disabled":false,"rental_uris":{"android":"levelo://app?vid=202d6ff4-4844-419c-80d8-4a387e402a17","ios":"levelo://app?vid=202d6ff4-4844-419c-80d8-4a387e402a17"},"vehicle_type_id":"4","last_reported":1745946559,"current_range_meters":16800,"station_id":"ce4bhl12rcd13ifvqgf0","pricing_plan_id":"cebpf4jnsgd1na2vs0mg"},{"bike_id":"82fe0c03-2bd0-4c61-b364-66eb1d8ba839","system_id":"levelo_inurba_marseille","lat":43.31724,"lon":5.4239,"is_reserved":false,"is_disabled":false,"rental_uris":{"android":"levelo://app?vid=82fe0c03-2bd0-4c61-b364-66eb1d8ba839","ios":"levelo://app?vid=82fe0c03-2bd0-4c61-b364-66eb1d8ba839"},"vehicle_type_id":"4","last_reported":1745946559,"current_range_meters":16800,"station_id":"ce4bhp92rcd13ifvqhbg","pricing_plan_id":"cebpf4jnsgd1na2vs0mg"},{"bike_id":"6a169abf-1300-4de6-9df8-f0c244509f77","system_id":"levelo_inurba_marseille","lat":43.21761,"lon":5.34644,"is_reserved":false,"is_disabled":false,"rental_uris":{"android":"levelo://app?vid=6a169abf-1300-4de6-9df8-f0c244509f77","ios":"levelo://app?vid=6a169abf-1300-4de6-9df8-f0c244509f77"},"vehicle_type_id":"4","last_reported":1745946559,"current_range_meters":17200,"station_id":"","pricing_plan_id":"cebpf4jnsgd1na2vs0mg"},{"bike_id":"e5e92a64-e709-4b1a-a9b1-cbffe85789ca","system_id":"levelo_inurba_marseille","lat":43.25538,"lon":5.38141,"is_reserved":false,"is_disabled":false,"rental_uris":{"android":"levelo://app?vid=e5e92a64-e709-4b1a-a9b1-cbffe85789ca","ios":"levelo://app?vid=e5e92a64-e709-4b1a-a9b1-cbffe85789ca"},"vehicle_type_id":"4","last_reported":1745946559,"current_range_meters":17200,"station_id":"","pricing_plan_id":"cebpf4jnsgd1na2vs0mg"},{"bike_id":"2bdb4bc6-f6ef-4343-bb3e-d20f1b75983e","system_id":"levelo_inurba_marseille","lat":43.29784,"lon":5.371,"is_reserved":false,"is_disabled":false,"rental_uris":{"android":"levelo://app?vid=2bdb4bc6-f6ef-4343-bb3e-d20f1b75983e","ios":"levelo://app?vid=2bdb4bc6-f6ef-4343-bb3e-d20f1b75983e"},"vehicle_type_id":"4","last_reported":1745946559,"current_range_meters":17200,"station_id":"ce4bgop2rcd13ifvqc1g","pricing_plan_id":"cebpf4jnsgd1na2vs0mg"},{"bike_id":"06a5c69d-391a-4744-b568-0106a4d9d339","system_id":"levelo_inurba_marseille","lat":43.30882,"lon":5.39659,"is_reserved":false,"is_disabled":false,"rental_uris":{"android":"levelo://app?vid=06a5c69d-391a-4744-b568-0106a4d9d339","ios":"levelo://app?vid=06a5c69d-391a-4744-b568-0106a4d9d339"},"vehicle_type_id":"4","last_reported":1745946559,"current_range_meters":17200,"station_id":"ce4bh012rcd13ifvqcv0","pricing_plan_id":"cebpf4jnsgd1na2vs0mg"},{"bike_id":"2ea88097-f637-48c0-834a-65258344bb71","system_id":"levelo_inurba_marseille","lat":43.28939,"lon":5.36621,"is_reserved":false,"is_disabled":false,"rental_uris":{"android":"levelo://app?vid=2ea88097-f637-48c0-834a-65258344bb71","ios":"levelo://app?vid=2ea88097-f637-48c0-834a-65258344bb71"},"vehicle_type_id":"4","last_reported":1745946559,"current_range_meters":17200,"station_id":"ce4bhap2rcd13ifvqek0","pricing_plan_id":"cebpf4jnsgd1na2vs0mg"},{"bike_id":"4678f98c-9605-485e-9f52-d38650b7e3f9","system_id":"levelo_inurba_marseille","lat":43.32481,"lon":5.36557,"is_reserved":false,"is_disabled":false,"rental_uris":{"android":"levelo://app?vid=4678f98c-9605-485e-9f52-d38650b7e3f9","ios":"levelo://app?vid=4678f98c-9605-485e-9f52-d38650b7e3f9"},"vehicle_type_id":"4","last_reported":1745946559,"current_range_meters":17200,"station_id":"ce4bhs12rcd13ifvqhvg","pricing_plan_id":"cebpf4jnsgd1na2vs0mg"},{"bike_id":"455dfde0-ee00-4454-8173-fd4da0f209e8","system_id":"levelo_inurba_marseille","lat":43.27382,"lon":5.36277,"is_reserved":false,"is_disabled":false,"rental_uris":{"android":"levelo://app?vid=455dfde0-ee00-4454-8173-fd4da0f209e8","ios":"levelo://app?vid=455dfde0-ee00-4454-8173-fd4da0f209e8"},"vehicle_type_id":"4","last_reported":1745946559,"current_range_meters":17600,"station_id":"ce4bhbh2rcd13ifvqeo0","pricing_plan_id":"cebpf4jnsgd1na2vs0mg"},{"bike_id":"4284d4a1-3f10-41e9-9514-d4a9dff4fb69","system_id":"levelo_inurba_marseille","lat":43.27374,"lon":5.36258,"is_reserved":false,"is_disabled":false,"rental_uris":{"android":"levelo://app?vid=4284d4a1-3f10-41e9-9514-d4a9dff4fb69","ios":"levelo://app?vid=4284d4a1-3f10-41e9-9514-d4a9dff4fb69"},"vehicle_type_id":"4","last_reported":1745946559,"current_range_meters":17600,"station_id":"ce4bhbh2rcd13ifvqeo0","pricing_plan_id":"cebpf4jnsgd1na2vs0mg"},{"bike_id":"13270fb3-286c-4b24-b4da-5836bda19035","system_id":"levelo_inurba_marseille","lat":43.28424,"lon":5.35021,"is_reserved":false,"is_disabled":false,"rental_uris":{"android":"levelo://app?vid=13270fb3-286c-4b24-b4da-5836bda19035","ios":"levelo://app?vid=13270fb3-286c-4b24-b4da-5836bda19035"},"vehicle_type_id":"4","last_reported":1745946559,"current_range_meters":17600,"station_id":"ce4bhbh2rcd13ifvqepg","pricing_plan_id":"cebpf4jnsgd1na2vs0mg"},{"bike_id":"18eedbfd-63f5-4fac-a86b-6e43f4de5352","system_id":"levelo_inurba_marseille","lat":43.26676,"lon":5.38268,"is_reserved":false,"is_disabled":false,"rental_uris":{"android":"levelo://app?vid=18eedbfd-63f5-4fac-a86b-6e43f4de5352","ios":"levelo://app?vid=18eedbfd-63f5-4fac-a86b-6e43f4de5352"},"vehicle_type_id":"4","last_reported":1745946559,"current_range_meters":17600,"station_id":"ce4bhg92rcd13ifvqf90","pricing_plan_id":"cebpf4jnsgd1na2vs0mg"},{"bike_id":"2fe3241d-fef9-40b1-80ac-7556eb491242","system_id":"levelo_inurba_marseille","lat":43.27994,"lon":5.41659,"is_reserved":false,"is_disabled":false,"rental_uris":{"android":"levelo://app?vid=2fe3241d-fef9-40b1-80ac-7556eb491242","ios":"levelo://app?vid=2fe3241d-fef9-40b1-80ac-7556eb491242"},"vehicle_type_id":"4","last_reported":1745946559,"current_range_meters":17600,"station_id":"ce4bho12rcd13ifvqh1g","pricing_plan_id":"cebpf4jnsgd1na2vs0mg"},{"bike_id":"084d785b-340d-4c20-a7b3-615fa44ed53c","system_id":"levelo_inurba_marseille","lat":43.28454,"lon":5.35888,"is_reserved":false,"is_disabled":false,"rental_uris":{"android":"levelo://app?vid=084d785b-340d-4c20-a7b3-615fa44ed53c","ios":"levelo://app?vid=084d785b-340d-4c20-a7b3-615fa44ed53c"},"vehicle_type_id":"4","last_reported":1745946559,"current_range_meters":18000,"station_id":"ce4bhah2rcd13ifvqei0","pricing_plan_id":"cebpf4jnsgd1na2vs0mg"},{"bike_id":"a639ac7d-9f4f-4d16-b1c2-dcb9a04d5640","system_id":"levelo_inurba_marseille","lat":43.29002,"lon":5.3561,"is_reserved":false,"is_disabled":false,"rental_uris":{"android":"levelo://app?vid=a639ac7d-9f4f-4d16-b1c2-dcb9a04d5640","ios":"levelo://app?vid=a639ac7d-9f4f-4d16-b1c2-dcb9a04d5640"},"vehicle_type_id":"4","last_reported":1745946559,"current_range_meters":18000,"station_id":"ce4bhb92rcd13ifvqen0","pricing_plan_id":"cebpf4jnsgd1na2vs0mg"},{"bike_id":"12fa1096-5220-4dab-b4e6-9e90949e1d35","system_id":"levelo_inurba_marseille","lat":43.28415,"lon":5.34977,"is_reserved":false,"is_disabled":false,"rental_uris":{"android":"levelo://app?vid=12fa1096-5220-4dab-b4e6-9e90949e1d35","ios":"levelo://app?vid=12fa1096-5220-4dab-b4e6-9e90949e1d35"},"vehicle_type_id":"4","last_reported":1745946559,"current_range_meters":18000,"station_id":"ce4bhbh2rcd13ifvqepg","pricing_plan_id":"cebpf4jnsgd1na2vs0mg"},{"bike_id":"44b00a8d-24c0-4c7b-b220-961ce5597fd2","system_id":"levelo_inurba_marseille","lat":43.286393,"lon":5.350665,"is_reserved":false,"is_disabled":false,"rental_uris":{"android":"levelo://app?vid=44b00a8d-24c0-4c7b-b220-961ce5597fd2","ios":"levelo://app?vid=44b00a8d-24c0-4c7b-b220-961ce5597fd2"},"vehicle_type_id":"4","last_reported":1745946559,"current_range_meters":18000,"station_id":"ce4bhch2rcd13ifvqeug","pricing_plan_id":"cebpf4jnsgd1na2vs0mg"},{"bike_id":"851960c2-40f3-42b6-9667-898fac13f768","system_id":"levelo_inurba_marseille","lat":43.31081,"lon":5.42427,"is_reserved":false,"is_disabled":false,"rental_uris":{"android":"levelo://app?vid=851960c2-40f3-42b6-9667-898fac13f768","ios":"levelo://app?vid=851960c2-40f3-42b6-9667-898fac13f768"},"vehicle_type_id":"4","last_reported":1745946559,"current_range_meters":18000,"station_id":"ce4bhp92rcd13ifvqhag","pricing_plan_id":"cebpf4jnsgd1na2vs0mg"},{"bike_id":"466010c5-eb47-4379-89cc-f4d1577f1770","system_id":"levelo_inurba_marseille","lat":43.2989,"lon":5.4367,"is_reserved":false,"is_disabled":false,"rental_uris":{"android":"levelo://app?vid=466010c5-eb47-4379-89cc-f4d1577f1770","ios":"levelo://app?vid=466010c5-eb47-4379-89cc-f4d1577f1770"},"vehicle_type_id":"4","last_reported":1745946559,"current_range_meters":18000,"station_id":"ce4bhpp2rcd13ifvqhfg","pricing_plan_id":"cebpf4jnsgd1na2vs0mg"},{"bike_id":"fce2c520-92d3-4d18-810b-8d643fc15a1a","system_id":"levelo_inurba_marseille","lat":43.230643,"lon":5.354972,"is_reserved":false,"is_disabled":false,"rental_uris":{"android":"levelo://app?vid=fce2c520-92d3-4d18-810b-8d643fc15a1a","ios":"levelo://app?vid=fce2c520-92d3-4d18-810b-8d643fc15a1a"},"vehicle_type_id":"4","last_reported":1745946559,"current_range_meters":18000,"station_id":"cpo3342slgdg3j2ifvpg","pricing_plan_id":"cebpf4jnsgd1na2vs0mg"},{"bike_id":"86c2979e-8cf6-48ed-bdb1-835ff11e3adc","system_id":"levelo_inurba_marseille","lat":43.25389,"lon":5.4188,"is_reserved":false,"is_disabled":false,"rental_uris":{"android":"levelo://app?vid=86c2979e-8cf6-48ed-bdb1-835ff11e3adc","ios":"levelo://app?vid=86c2979e-8cf6-48ed-bdb1-835ff11e3adc"},"vehicle_type_id":"4","last_reported":1745946559,"current_range_meters":18800,"station_id":"","pricing_plan_id":"cebpf4jnsgd1na2vs0mg"},{"bike_id":"10fbe182-cf5c-460c-942c-a541def16346","system_id":"levelo_inurba_marseille","lat":43.31328,"lon":5.39695,"is_reserved":false,"is_disabled":false,"rental_uris":{"android":"levelo://app?vid=10fbe182-cf5c-460c-942c-a541def16346","ios":"levelo://app?vid=10fbe182-cf5c-460c-942c-a541def16346"},"vehicle_type_id":"4","last_reported":1745946559,"current_range_meters":18800,"station_id":"ce4bgvp2rcd13ifvqcu0","pricing_plan_id":"cebpf4jnsgd1na2vs0mg"},{"bike_id":"fb91ab8d-08ef-4b67-83e0-b8ebfd9fcac4","system_id":"levelo_inurba_marseille","lat":43.28941,"lon":5.36638,"is_reserved":false,"is_disabled":false,"rental_uris":{"android":"levelo://app?vid=fb91ab8d-08ef-4b67-83e0-b8ebfd9fcac4","ios":"levelo://app?vid=fb91ab8d-08ef-4b67-83e0-b8ebfd9fcac4"},"vehicle_type_id":"4","last_reported":1745946559,"current_range_meters":18800,"station_id":"ce4bhap2rcd13ifvqek0","pricing_plan_id":"cebpf4jnsgd1na2vs0mg"},{"bike_id":"404f8bb0-e61e-473d-84e3-ad9a44a44b05","system_id":"levelo_inurba_marseille","lat":43.28416,"lon":5.34973,"is_reserved":false,"is_disabled":false,"rental_uris":{"android":"levelo://app?vid=404f8bb0-e61e-473d-84e3-ad9a44a44b05","ios":"levelo://app?vid=404f8bb0-e61e-473d-84e3-ad9a44a44b05"},"vehicle_type_id":"4","last_reported":1745946559,"current_range_meters":18800,"station_id":"ce4bhbh2rcd13ifvqepg","pricing_plan_id":"cebpf4jnsgd1na2vs0mg"},{"bike_id":"0a500f8e-7199-4dfd-a27b-e37e2cc31ec2","system_id":"levelo_inurba_marseille","lat":43.2742,"lon":5.39408,"is_reserved":false,"is_disabled":false,"rental_uris":{"android":"levelo://app?vid=0a500f8e-7199-4dfd-a27b-e37e2cc31ec2","ios":"levelo://app?vid=0a500f8e-7199-4dfd-a27b-e37e2cc31ec2"},"vehicle_type_id":"4","last_reported":1745946559,"current_range_meters":18800,"station_id":"ce4bhdp2rcd13ifvqf20","pricing_plan_id":"cebpf4jnsgd1na2vs0mg"},{"bike_id":"d790bba5-0573-4c47-8999-23421e069bf8","system_id":"levelo_inurba_marseille","lat":43.23976,"lon":5.36657,"is_reserved":false,"is_disabled":false,"rental_uris":{"android":"levelo://app?vid=d790bba5-0573-4c47-8999-23421e069bf8","ios":"levelo://app?vid=d790bba5-0573-4c47-8999-23421e069bf8"},"vehicle_type_id":"4","last_reported":1745946559,"current_range_meters":18800,"station_id":"ce4bhi12rcd13ifvqfp0","pricing_plan_id":"cebpf4jnsgd1na2vs0mg"},{"bike_id":"f824be7d-8917-4c63-8119-299fc808818f","system_id":"levelo_inurba_marseille","lat":43.25584,"lon":5.38239,"is_reserved":false,"is_disabled":false,"rental_uris":{"android":"levelo://app?vid=f824be7d-8917-4c63-8119-299fc808818f","ios":"levelo://app?vid=f824be7d-8917-4c63-8119-299fc808818f"},"vehicle_type_id":"4","last_reported":1745946559,"current_range_meters":18800,"station_id":"ce4bhih2rcd13ifvqfs0","pricing_plan_id":"cebpf4jnsgd1na2vs0mg"},{"bike_id":"1be20acd-17b6-4aed-8c47-40b6a7d56fef","system_id":"levelo_inurba_marseille","lat":43.25119,"lon":5.40314,"is_reserved":false,"is_disabled":false,"rental_uris":{"android":"levelo://app?vid=1be20acd-17b6-4aed-8c47-40b6a7d56fef","ios":"levelo://app?vid=1be20acd-17b6-4aed-8c47-40b6a7d56fef"},"vehicle_type_id":"4","last_reported":1745946559,"current_range_meters":18800,"station_id":"ce4bhlh2rcd13ifvqgig","pricing_plan_id":"cebpf4jnsgd1na2vs0mg"},{"bike_id":"637f17b1-a980-4bc5-993d-9a9de04fb5bf","system_id":"levelo_inurba_marseille","lat":43.31645,"lon":5.37043,"is_reserved":false,"is_disabled":false,"rental_uris":{"android":"levelo://app?vid=637f17b1-a980-4bc5-993d-9a9de04fb5bf","ios":"levelo://app?vid=637f17b1-a980-4bc5-993d-9a9de04fb5bf"},"vehicle_type_id":"4","last_reported":1745946559,"current_range_meters":19200,"station_id":"","pricing_plan_id":"cebpf4jnsgd1na2vs0mg"},{"bike_id":"196c950d-5744-4c98-934f-7e1a2ea776e1","system_id":"levelo_inurba_marseille","lat":43.2901,"lon":5.35612,"is_reserved":false,"is_disabled":false,"rental_uris":{"android":"levelo://app?vid=196c950d-5744-4c98-934f-7e1a2ea776e1","ios":"levelo://app?vid=196c950d-5744-4c98-934f-7e1a2ea776e1"},"vehicle_type_id":"4","last_reported":1745946559,"current_range_meters":19200,"station_id":"ce4bhb92rcd13ifvqen0","pricing_plan_id":"cebpf4jnsgd1na2vs0mg"},{"bike_id":"a33a99f1-2499-4466-8a20-94e1db48d19e","system_id":"levelo_inurba_marseille","lat":43.28425,"lon":5.35,"is_reserved":false,"is_disabled":false,"rental_uris":{"android":"levelo://app?vid=a33a99f1-2499-4466-8a20-94e1db48d19e","ios":"levelo://app?vid=a33a99f1-2499-4466-8a20-94e1db48d19e"},"vehicle_type_id":"4","last_reported":1745946559,"current_range_meters":19200,"station_id":"ce4bhbh2rcd13ifvqepg","pricing_plan_id":"cebpf4jnsgd1na2vs0mg"},{"bike_id":"1b82305b-f34a-4d82-862c-57af9a73fb66","system_id":"levelo_inurba_marseille","lat":43.28616,"lon":5.35099,"is_reserved":false,"is_disabled":false,"rental_uris":{"android":"levelo://app?vid=1b82305b-f34a-4d82-862c-57af9a73fb66","ios":"levelo://app?vid=1b82305b-f34a-4d82-862c-57af9a73fb66"},"vehicle_type_id":"4","last_reported":1745946559,"current_range_meters":19200,"station_id":"ce4bhch2rcd13ifvqeug","pricing_plan_id":"cebpf4jnsgd1na2vs0mg"},{"bike_id":"b2a5d251-51cd-441e-a781-a61addf052d3","system_id":"levelo_inurba_marseille","lat":43.295345,"lon":5.385484,"is_reserved":false,"is_disabled":false,"rental_uris":{"android":"levelo://app?vid=b2a5d251-51cd-441e-a781-a61addf052d3","ios":"levelo://app?vid=b2a5d251-51cd-441e-a781-a61addf052d3"},"vehicle_type_id":"4","last_reported":1745946559,"current_range_meters":19600,"station_id":"ce4bgih2rcd13ifvqba0","pricing_plan_id":"cebpf4jnsgd1na2vs0mg"},{"bike_id":"f5f1f362-63a1-4112-bd03-60496a5d17c2","system_id":"levelo_inurba_marseille","lat":43.29005,"lon":5.35615,"is_reserved":false,"is_disabled":false,"rental_uris":{"android":"levelo://app?vid=f5f1f362-63a1-4112-bd03-60496a5d17c2","ios":"levelo://app?vid=f5f1f362-63a1-4112-bd03-60496a5d17c2"},"vehicle_type_id":"4","last_reported":1745946559,"current_range_meters":20000,"station_id":"ce4bhb92rcd13ifvqen0","pricing_plan_id":"cebpf4jnsgd1na2vs0mg"},{"bike_id":"2ef6280d-cca6-499d-88b1-0901ebadd608","system_id":"levelo_inurba_marseille","lat":43.29225,"lon":5.36081,"is_reserved":false,"is_disabled":false,"rental_uris":{"android":"levelo://app?vid=2ef6280d-cca6-499d-88b1-0901ebadd608","ios":"levelo://app?vid=2ef6280d-cca6-499d-88b1-0901ebadd608"},"vehicle_type_id":"4","last_reported":1745946559,"current_range_meters":20000,"station_id":"ce4bhbh2rcd13ifvqeqg","pricing_plan_id":"cebpf4jnsgd1na2vs0mg"},{"bike_id":"533f0cca-f50c-472c-9064-e93b3dcee545","system_id":"levelo_inurba_marseille","lat":43.27902,"lon":5.38001,"is_reserved":false,"is_disabled":false,"rental_uris":{"android":"levelo://app?vid=533f0cca-f50c-472c-9064-e93b3dcee545","ios":"levelo://app?vid=533f0cca-f50c-472c-9064-e93b3dcee545"},