{"last_updated":1742897407,"ttl":60,"version":"2.2","data":{"bikes":[{"bike_id":"a555f56a-beff-4a12-bf7c-a5bfb9b0b6f7","system_id":"levelo_inurba_marseille","lat":43.24041,"lon":5.3777,"is_reserved":false,"is_disabled":false,"rental_uris":{"android":"levelo://app?vid=a555f56a-beff-4a12-bf7c-a5bfb9b0b6f7","ios":"levelo://app?vid=a555f56a-beff-4a12-bf7c-a5bfb9b0b6f7"},"vehicle_type_id":"4","last_reported":1742897407,"current_range_meters":2800,"station_id":"ce4bhnp2rcd13ifvqgvg","pricing_plan_id":"cebpf4jnsgd1na2vs0mg"},{"bike_id":"1b7c5e4e-130d-4e75-8db2-feee0d51fa46","system_id":"levelo_inurba_marseille","lat":43.24173,"lon":5.3973,"is_reserved":false,"is_disabled":false,"rental_uris":{"android":"levelo://app?vid=1b7c5e4e-130d-4e75-8db2-feee0d51fa46","ios":"levelo://app?vid=1b7c5e4e-130d-4e75-8db2-feee0d51fa46"},"vehicle_type_id":"4","last_reported":1742897407,"current_range_meters":2800,"station_id":"ce4bhn12rcd13ifvqgpg","pricing_plan_id":"cebpf4jnsgd1na2vs0mg"},{"bike_id":"0d8fc3b1-126a-4169-b937-a00b1c40ecd4","system_id":"levelo_inurba_marseille","lat":43.27667,"lon":5.38869,"is_reserved":false,"is_disabled":false,"rental_uris":{"android":"levelo://app?vid=0d8fc3b1-126a-4169-b937-a00b1c40ecd4","ios":"levelo://app?vid=0d8fc3b1-126a-4169-b937-a00b1c40ecd4"},"vehicle_type_id":"4","last_reported":1742897407,"current_range_meters":2800,"station_id":"ce4bhi12rcd13ifvqfo0","pricing_plan_id":"cebpf4jnsgd1na2vs0mg"},{"bike_id":"c36cefb3-0db7-45d8-b171-a7dea51fd330","system_id":"levelo_inurba_marseille","lat":43.25723,"lon":5.41123,"is_reserved":false,"is_disabled":false,"rental_uris":{"android":"levelo://app?vid=c36cefb3-0db7-45d8-b171-a7dea51fd330","ios":"levelo://app?vid=c36cefb3-0db7-45d8-b171-a7dea51fd330"},"vehicle_type_id":"4","last_reported":1742897407,"current_range_meters":3200,"station_id":"ce4bhkp2rcd13ifvqgd0","pricing_plan_id":"cebpf4jnsgd1na2vs0mg"},{"bike_id":"baf27cc1-d225-400c-8908-ed9499eeb401","system_id":"levelo_inurba_marseille","lat":43.27817,"lon":5.40722,"is_reserved":false,"is_disabled":false,"rental_uris":{"android":"levelo://app?vid=baf27cc1-d225-400c-8908-ed9499eeb401","ios":"levelo://app?vid=baf27cc1-d225-400c-8908-ed9499eeb401"},"vehicle_type_id":"4","last_reported":1742897407,"current_range_meters":2000,"station_id":"ce4bhnh2rcd13ifvqgtg","pricing_plan_id":"cebpf4jnsgd1na2vs0mg"},{"bike_id":"b329756d-0764-4fd1-90ae-22bfd128f86b","system_id":"levelo_inurba_marseille","lat":43.31271,"lon":5.36854,"is_reserved":false,"is_disabled":false,"rental_uris":{"android":"levelo://app?vid=b329756d-0764-4fd1-90ae-22bfd128f86b","ios":"levelo://app?vid=b329756d-0764-4fd1-90ae-22bfd128f86b"},"vehicle_type_id":"4","last_reported":1742897407,"current_range_meters":3200,"station_id":"","pricing_plan_id":"cebpf4jnsgd1na2vs0mg"},{"bike_id":"abd212ef-7821-43c0-9759-c71e062504ef","system_id":"levelo_inurba_marseille","lat":43.2735,"lon":5.39106,"is_reserved":false,"is_disabled":false,"rental_uris":{"android":"levelo://app?vid=abd212ef-7821-43c0-9759-c71e062504ef","ios":"levelo://app?vid=abd212ef-7821-43c0-9759-c71e062504ef"},"vehicle_type_id":"4","last_reported":1742897407,"current_range_meters":3200,"station_id":"ce4bhgp2rcd13ifvqfe0","pricing_plan_id":"cebpf4jnsgd1na2vs0mg"},{"bike_id":"634c433d-3db3-4fd8-8be9-8b653dae530e","system_id":"levelo_inurba_marseille","lat":43.28036,"lon":5.39025,"is_reserved":false,"is_disabled":true,"rental_uris":{"android":"levelo://app?vid=634c433d-3db3-4fd8-8be9-8b653dae530e","ios":"levelo://app?vid=634c433d-3db3-4fd8-8be9-8b653dae530e"},"vehicle_type_id":"4","last_reported":1742897407,"current_range_meters":3200,"station_id":"","pricing_plan_id":"cebpf4jnsgd1na2vs0mg"},{"bike_id":"ee76f485-8702-4e90-9e35-964836194e17","system_id":"levelo_inurba_marseille","lat":43.23191,"lon":5.3555,"is_reserved":false,"is_disabled":false,"rental_uris":{"android":"levelo://app?vid=ee76f485-8702-4e90-9e35-964836194e17","ios":"levelo://app?vid=ee76f485-8702-4e90-9e35-964836194e17"},"vehicle_type_id":"4","last_reported":1742897407,"current_range_meters":3200,"station_id":"ce4bhu92rcd13ifvqi70","pricing_plan_id":"cebpf4jnsgd1na2vs0mg"},{"bike_id":"875ad3dd-390b-4d5d-8bf8-63f06072de28","system_id":"levelo_inurba_marseille","lat":43.27953,"lon":5.4105,"is_reserved":false,"is_disabled":false,"rental_uris":{"android":"levelo://app?vid=875ad3dd-390b-4d5d-8bf8-63f06072de28","ios":"levelo://app?vid=875ad3dd-390b-4d5d-8bf8-63f06072de28"},"vehicle_type_id":"4","last_reported":1742897407,"current_range_meters":3600,"station_id":"ce4bhnp2rcd13ifvqh0g","pricing_plan_id":"cebpf4jnsgd1na2vs0mg"},{"bike_id":"e91b7cc0-e1c3-4225-b09e-d4a4c8a7b9ce","system_id":"levelo_inurba_marseille","lat":43.32429,"lon":5.38902,"is_reserved":false,"is_disabled":false,"rental_uris":{"android":"levelo://app?vid=e91b7cc0-e1c3-4225-b09e-d4a4c8a7b9ce","ios":"levelo://app?vid=e91b7cc0-e1c3-4225-b09e-d4a4c8a7b9ce"},"vehicle_type_id":"4","last_reported":1742897407,"current_range_meters":3600,"station_id":"ce4bhqp2rcd13ifvqhog","pricing_plan_id":"cebpf4jnsgd1na2vs0mg"},{"bike_id":"bebbaaa4-9324-461e-b685-01f74c9202e0","system_id":"levelo_inurba_marseille","lat":43.23978,"lon":5.36618,"is_reserved":false,"is_disabled":false,"rental_uris":{"android":"levelo://app?vid=bebbaaa4-9324-461e-b685-01f74c9202e0","ios":"levelo://app?vid=bebbaaa4-9324-461e-b685-01f74c9202e0"},"vehicle_type_id":"4","last_reported":1742897407,"current_range_meters":3600,"station_id":"ce4bhi12rcd13ifvqfp0","pricing_plan_id":"cebpf4jnsgd1na2vs0mg"},{"bike_id":"0814c752-717d-4d82-8dc2-7eb7f3b777fb","system_id":"levelo_inurba_marseille","lat":43.23155,"lon":5.43726,"is_reserved":false,"is_disabled":false,"rental_uris":{"android":"levelo://app?vid=0814c752-717d-4d82-8dc2-7eb7f3b777fb","ios":"levelo://app?vid=0814c752-717d-4d82-8dc2-7eb7f3b777fb"},"vehicle_type_id":"4","last_reported":1742897407,"current_range_meters":3600,"station_id":"ce4bhmp2rcd13ifvqgog","pricing_plan_id":"cebpf4jnsgd1na2vs0mg"},{"bike_id":"6f215761-e3c1-4670-9c14-c1e4afb855cb","system_id":"levelo_inurba_marseille","lat":43.26695,"lon":5.38272,"is_reserved":false,"is_disabled":false,"rental_uris":{"android":"levelo://app?vid=6f215761-e3c1-4670-9c14-c1e4afb855cb","ios":"levelo://app?vid=6f215761-e3c1-4670-9c14-c1e4afb855cb"},"vehicle_type_id":"4","last_reported":1742897407,"current_range_meters":3600,"station_id":"ce4bhg92rcd13ifvqf90","pricing_plan_id":"cebpf4jnsgd1na2vs0mg"},{"bike_id":"86a65fab-1faf-4fc4-885c-2b086e92c069","system_id":"levelo_inurba_marseille","lat":43.24173,"lon":5.3639,"is_reserved":false,"is_disabled":false,"rental_uris":{"android":"levelo://app?vid=86a65fab-1faf-4fc4-885c-2b086e92c069","ios":"levelo://app?vid=86a65fab-1faf-4fc4-885c-2b086e92c069"},"vehicle_type_id":"4","last_reported":1742897407,"current_range_meters":3600,"station_id":"cpo36qri1sfpv3e86is0","pricing_plan_id":"cebpf4jnsgd1na2vs0mg"},{"bike_id":"b89d5c58-0d7b-4f4f-8e36-d3e693accc3c","system_id":"levelo_inurba_marseille","lat":43.32361,"lon":5.36766,"is_reserved":false,"is_disabled":false,"rental_uris":{"android":"levelo://app?vid=b89d5c58-0d7b-4f4f-8e36-d3e693accc3c","ios":"levelo://app?vid=b89d5c58-0d7b-4f4f-8e36-d3e693accc3c"},"vehicle_type_id":"4","last_reported":1742897407,"current_range_meters":4000,"station_id":"ce4bhsh2rcd13ifvqi2g","pricing_plan_id":"cebpf4jnsgd1na2vs0mg"},{"bike_id":"76f3d16e-d7a5-4684-96dc-ab38a67e3c56","system_id":"levelo_inurba_marseille","lat":43.27833,"lon":5.4072,"is_reserved":false,"is_disabled":false,"rental_uris":{"android":"levelo://app?vid=76f3d16e-d7a5-4684-96dc-ab38a67e3c56","ios":"levelo://app?vid=76f3d16e-d7a5-4684-96dc-ab38a67e3c56"},"vehicle_type_id":"4","last_reported":1742897407,"current_range_meters":4000,"station_id":"ce4bhnh2rcd13ifvqgtg","pricing_plan_id":"cebpf4jnsgd1na2vs0mg"},{"bike_id":"aeef45df-94a2-4430-9a10-e07be240b315","system_id":"levelo_inurba_marseille","lat":43.29279,"lon":5.36846,"is_reserved":false,"is_disabled":false,"rental_uris":{"android":"levelo://app?vid=aeef45df-94a2-4430-9a10-e07be240b315","ios":"levelo://app?vid=aeef45df-94a2-4430-9a10-e07be240b315"},"vehicle_type_id":"4","last_reported":1742897407,"current_range_meters":4000,"station_id":"ce4bhbp2rcd13ifvqesg","pricing_plan_id":"cebpf4jnsgd1na2vs0mg"},{"bike_id":"d1f993ec-8e82-4e82-a38b-e848ded0cf74","system_id":"levelo_inurba_marseille","lat":43.2508,"lon":5.39507,"is_reserved":false,"is_disabled":false,"rental_uris":{"android":"levelo://app?vid=d1f993ec-8e82-4e82-a38b-e848ded0cf74","ios":"levelo://app?vid=d1f993ec-8e82-4e82-a38b-e848ded0cf74"},"vehicle_type_id":"4","last_reported":1742897407,"current_range_meters":4000,"station_id":"ce4bhm12rcd13ifvqgkg","pricing_plan_id":"cebpf4jnsgd1na2vs0mg"},{"bike_id":"e8a8681a-90be-4ab3-80a0-95a4b8b4cbd9","system_id":"levelo_inurba_marseille","lat":43.31232,"lon":5.36876,"is_reserved":false,"is_disabled":false,"rental_uris":{"android":"levelo://app?vid=e8a8681a-90be-4ab3-80a0-95a4b8b4cbd9","ios":"levelo://app?vid=e8a8681a-90be-4ab3-80a0-95a4b8b4cbd9"},"vehicle_type_id":"4","last_reported":1742897407,"current_range_meters":4000,"station_id":"ce4bgl92rcd13ifvqbq0","pricing_plan_id":"cebpf4jnsgd1na2vs0mg"},{"bike_id":"a1467c8d-d458-48fa-ae2a-398452ffafde","system_id":"levelo_inurba_marseille","lat":43.31762,"lon":5.39011,"is_reserved":false,"is_disabled":false,"rental_uris":{"android":"levelo://app?vid=a1467c8d-d458-48fa-ae2a-398452ffafde","ios":"levelo://app?vid=a1467c8d-d458-48fa-ae2a-398452ffafde"},"vehicle_type_id":"4","last_reported":1742897407,"current_range_meters":4400,"station_id":"ce4bhqp2rcd13ifvqhng","pricing_plan_id":"cebpf4jnsgd1na2vs0mg"},{"bike_id":"f7a445a3-6bcb-4711-98e1-33cb1800bee0","system_id":"levelo_inurba_marseille","lat":43.31228,"lon":5.3686,"is_reserved":false,"is_disabled":false,"rental_uris":{"android":"levelo://app?vid=f7a445a3-6bcb-4711-98e1-33cb1800bee0","ios":"levelo://app?vid=f7a445a3-6bcb-4711-98e1-33cb1800bee0"},"vehicle_type_id":"4","last_reported":1742897407,"current_range_meters":4400,"station_id":"","pricing_plan_id":"cebpf4jnsgd1na2vs0mg"},{"bike_id":"f61c51ad-2b32-40e0-b111-324c9d81fc5b","system_id":"levelo_inurba_marseille","lat":43.287219,"lon":5.389018,"is_reserved":false,"is_disabled":false,"rental_uris":{"android":"levelo://app?vid=f61c51ad-2b32-40e0-b111-324c9d81fc5b","ios":"levelo://app?vid=f61c51ad-2b32-40e0-b111-324c9d81fc5b"},"vehicle_type_id":"4","last_reported":1742897407,"current_range_meters":4400,"station_id":"","pricing_plan_id":"cebpf4jnsgd1na2vs0mg"},{"bike_id":"5fdfd777-d0fd-4e90-95e0-838add0f5dc8","system_id":"levelo_inurba_marseille","lat":43.28213,"lon":5.38577,"is_reserved":false,"is_disabled":false,"rental_uris":{"android":"levelo://app?vid=5fdfd777-d0fd-4e90-95e0-838add0f5dc8","ios":"levelo://app?vid=5fdfd777-d0fd-4e90-95e0-838add0f5dc8"},"vehicle_type_id":"4","last_reported":1742897407,"current_range_meters":4400,"station_id":"","pricing_plan_id":"cebpf4jnsgd1na2vs0mg"},{"bike_id":"763cfa5b-c33b-448e-9f64-07102448a732","system_id":"levelo_inurba_marseille","lat":43.28151,"lon":5.42633,"is_reserved":false,"is_disabled":true,"rental_uris":{"android":"levelo://app?vid=763cfa5b-c33b-448e-9f64-07102448a732","ios":"levelo://app?vid=763cfa5b-c33b-448e-9f64-07102448a732"},"vehicle_type_id":"4","last_reported":1742897407,"current_range_meters":4400,"station_id":"ce4bhnh2rcd13ifvqgug","pricing_plan_id":"cebpf4jnsgd1na2vs0mg"},{"bike_id":"74d5caef-4f0a-4dd1-8ccd-cedd3cd8ec58","system_id":"levelo_inurba_marseille","lat":43.23123,"lon":5.43749,"is_reserved":false,"is_disabled":false,"rental_uris":{"android":"levelo://app?vid=74d5caef-4f0a-4dd1-8ccd-cedd3cd8ec58","ios":"levelo://app?vid=74d5caef-4f0a-4dd1-8ccd-cedd3cd8ec58"},"vehicle_type_id":"4","last_reported":1742897407,"current_range_meters":4800,"station_id":"ce4bhmp2rcd13ifvqgog","pricing_plan_id":"cebpf4jnsgd1na2vs0mg"},{"bike_id":"9fc87cb3-4f61-4e11-a37d-bb25cfffc8b7","system_id":"levelo_inurba_marseille","lat":43.23164,"lon":5.43712,"is_reserved":false,"is_disabled":false,"rental_uris":{"android":"levelo://app?vid=9fc87cb3-4f61-4e11-a37d-bb25cfffc8b7","ios":"levelo://app?vid=9fc87cb3-4f61-4e11-a37d-bb25cfffc8b7"},"vehicle_type_id":"4","last_reported":1742897407,"current_range_meters":4800,"station_id":"ce4bhmp2rcd13ifvqgog","pricing_plan_id":"cebpf4jnsgd1na2vs0mg"},{"bike_id":"bb7d553e-f91c-478a-a14a-5f3ea0dc4964","system_id":"levelo_inurba_marseille","lat":43.24572,"lon":5.39515,"is_reserved":false,"is_disabled":false,"rental_uris":{"android":"levelo://app?vid=bb7d553e-f91c-478a-a14a-5f3ea0dc4964","ios":"levelo://app?vid=bb7d553e-f91c-478a-a14a-5f3ea0dc4964"},"vehicle_type_id":"4","last_reported":1742897407,"current_range_meters":4800,"station_id":"ce4bhlp2rcd13ifvqgjg","pricing_plan_id":"cebpf4jnsgd1na2vs0mg"},{"bike_id":"ba77c809-1111-412f-8eae-c3c885fbd6c5","system_id":"levelo_inurba_marseille","lat":43.24162,"lon":5.36401,"is_reserved":false,"is_disabled":false,"rental_uris":{"android":"levelo://app?vid=ba77c809-1111-412f-8eae-c3c885fbd6c5","ios":"levelo://app?vid=ba77c809-1111-412f-8eae-c3c885fbd6c5"},"vehicle_type_id":"4","last_reported":1742897407,"current_range_meters":4800,"station_id":"cpo36qri1sfpv3e86is0","pricing_plan_id":"cebpf4jnsgd1na2vs0mg"},{"bike_id":"3e5bf0fa-864a-411e-8a19-905a073af9d2","system_id":"levelo_inurba_marseille","lat":43.26212,"lon":5.37918,"is_reserved":false,"is_disabled":false,"rental_uris":{"android":"levelo://app?vid=3e5bf0fa-864a-411e-8a19-905a073af9d2","ios":"levelo://app?vid=3e5bf0fa-864a-411e-8a19-905a073af9d2"},"vehicle_type_id":"4","last_reported":1742897407,"current_range_meters":4800,"station_id":"ce4bhjp2rcd13ifvqg90","pricing_plan_id":"cebpf4jnsgd1na2vs0mg"},{"bike_id":"75f9083c-c647-4b99-ba99-d4b740f1d2c1","system_id":"levelo_inurba_marseille","lat":43.29967,"lon":5.37164,"is_reserved":false,"is_disabled":false,"rental_uris":{"android":"levelo://app?vid=75f9083c-c647-4b99-ba99-d4b740f1d2c1","ios":"levelo://app?vid=75f9083c-c647-4b99-ba99-d4b740f1d2c1"},"vehicle_type_id":"4","last_reported":1742897407,"current_range_meters":5600,"station_id":"ce4bgr92rcd13ifvqc7g","pricing_plan_id":"cebpf4jnsgd1na2vs0mg"},{"bike_id":"d2c82901-ca9e-4287-975d-e4cf510ea572","system_id":"levelo_inurba_marseille","lat":43.27291,"lon":5.39067,"is_reserved":false,"is_disabled":false,"rental_uris":{"android":"levelo://app?vid=d2c82901-ca9e-4287-975d-e4cf510ea572","ios":"levelo://app?vid=d2c82901-ca9e-4287-975d-e4cf510ea572"},"vehicle_type_id":"4","last_reported":1742897407,"current_range_meters":5600,"station_id":"ce4bhgp2rcd13ifvqfe0","pricing_plan_id":"cebpf4jnsgd1na2vs0mg"},{"bike_id":"c5bb87a9-bb5d-4434-a6b4-9bcea1b9ef74","system_id":"levelo_inurba_marseille","lat":43.26779,"lon":5.39423,"is_reserved":false,"is_disabled":false,"rental_uris":{"android":"levelo://app?vid=c5bb87a9-bb5d-4434-a6b4-9bcea1b9ef74","ios":"levelo://app?vid=c5bb87a9-bb5d-4434-a6b4-9bcea1b9ef74"},"vehicle_type_id":"4","last_reported":1742897407,"current_range_meters":5600,"station_id":"ce4bhh12rcd13ifvqfg0","pricing_plan_id":"cebpf4jnsgd1na2vs0mg"},{"bike_id":"38c86b9d-9dd3-4ede-a2a3-f44b312eecca","system_id":"levelo_inurba_marseille","lat":43.31232,"lon":5.36874,"is_reserved":false,"is_disabled":false,"rental_uris":{"android":"levelo://app?vid=38c86b9d-9dd3-4ede-a2a3-f44b312eecca","ios":"levelo://app?vid=38c86b9d-9dd3-4ede-a2a3-f44b312eecca"},"vehicle_type_id":"4","last_reported":1742897407,"current_range_meters":5600,"station_id":"ce4bgl92rcd13ifvqbq0","pricing_plan_id":"cebpf4jnsgd1na2vs0mg"},{"bike_id":"8dbdc25a-a8ec-4b7e-9651-9867cba9b494","system_id":"levelo_inurba_marseille","lat":43.2961,"lon":5.37178,"is_reserved":false,"is_disabled":false,"rental_uris":{"android":"levelo://app?vid=8dbdc25a-a8ec-4b7e-9651-9867cba9b494","ios":"levelo://app?vid=8dbdc25a-a8ec-4b7e-9651-9867cba9b494"},"vehicle_type_id":"4","last_reported":1742897407,"current_range_meters":5600,"station_id":"ce4bgnh2rcd13ifvqc0g","pricing_plan_id":"cebpf4jnsgd1na2vs0mg"},{"bike_id":"3fa5413d-efeb-488c-a228-1e96c5192e26","system_id":"levelo_inurba_marseille","lat":43.29386,"lon":5.3786,"is_reserved":false,"is_disabled":true,"rental_uris":{"android":"levelo://app?vid=3fa5413d-efeb-488c-a228-1e96c5192e26","ios":"levelo://app?vid=3fa5413d-efeb-488c-a228-1e96c5192e26"},"vehicle_type_id":"4","last_reported":1742897407,"current_range_meters":6000,"station_id":"ce4bgjh2rcd13ifvqbf0","pricing_plan_id":"cebpf4jnsgd1na2vs0mg"},{"bike_id":"f02a77b8-f810-41ff-bf5b-5ab742b469a7","system_id":"levelo_inurba_marseille","lat":43.23158,"lon":5.43696,"is_reserved":false,"is_disabled":false,"rental_uris":{"android":"levelo://app?vid=f02a77b8-f810-41ff-bf5b-5ab742b469a7","ios":"levelo://app?vid=f02a77b8-f810-41ff-bf5b-5ab742b469a7"},"vehicle_type_id":"4","last_reported":1742897407,"current_range_meters":6000,"station_id":"ce4bhmp2rcd13ifvqgog","pricing_plan_id":"cebpf4jnsgd1na2vs0mg"},{"bike_id":"a0a460eb-34d7-43d6-85ef-87b30455cbf0","system_id":"levelo_inurba_marseille","lat":43.23978,"lon":5.36615,"is_reserved":false,"is_disabled":false,"rental_uris":{"android":"levelo://app?vid=a0a460eb-34d7-43d6-85ef-87b30455cbf0","ios":"levelo://app?vid=a0a460eb-34d7-43d6-85ef-87b30455cbf0"},"vehicle_type_id":"4","last_reported":1742897407,"current_range_meters":6000,"station_id":"ce4bhi12rcd13ifvqfp0","pricing_plan_id":"cebpf4jnsgd1na2vs0mg"},{"bike_id":"d1af1195-fcb5-4ce8-8cc4-09538904c496","system_id":"levelo_inurba_marseille","lat":43.28867,"lon":5.35863,"is_reserved":false,"is_disabled":false,"rental_uris":{"android":"levelo://app?vid=d1af1195-fcb5-4ce8-8cc4-09538904c496","ios":"levelo://app?vid=d1af1195-fcb5-4ce8-8cc4-09538904c496"},"vehicle_type_id":"4","last_reported":1742897407,"current_range_meters":5600,"station_id":"ce4bhb12rcd13ifvqem0","pricing_plan_id":"cebpf4jnsgd1na2vs0mg"},{"bike_id":"2dd34711-40f8-4f46-b978-b3eb02e467cd","system_id":"levelo_inurba_marseille","lat":43.27077,"lon":5.42275,"is_reserved":false,"is_disabled":false,"rental_uris":{"android":"levelo://app?vid=2dd34711-40f8-4f46-b978-b3eb02e467cd","ios":"levelo://app?vid=2dd34711-40f8-4f46-b978-b3eb02e467cd"},"vehicle_type_id":"4","last_reported":1742897407,"current_range_meters":5600,"station_id":"ce4bhk92rcd13ifvqgb0","pricing_plan_id":"cebpf4jnsgd1na2vs0mg"},{"bike_id":"0e8f3a49-5655-4969-89d3-2f6ec0c2032c","system_id":"levelo_inurba_marseille","lat":43.2407,"lon":5.37737,"is_reserved":false,"is_disabled":false,"rental_uris":{"android":"levelo://app?vid=0e8f3a49-5655-4969-89d3-2f6ec0c2032c","ios":"levelo://app?vid=0e8f3a49-5655-4969-89d3-2f6ec0c2032c"},"vehicle_type_id":"4","last_reported":1742897407,"current_range_meters":5600,"station_id":"ce4bhnp2rcd13ifvqgvg","pricing_plan_id":"cebpf4jnsgd1na2vs0mg"},{"bike_id":"7dbd3f4d-5382-42ae-a45c-e7ec88b7e142","system_id":"levelo_inurba_marseille","lat":43.29794,"lon":5.37113,"is_reserved":false,"is_disabled":false,"rental_uris":{"android":"levelo://app?vid=7dbd3f4d-5382-42ae-a45c-e7ec88b7e142","ios":"levelo://app?vid=7dbd3f4d-5382-42ae-a45c-e7ec88b7e142"},"vehicle_type_id":"4","last_reported":1742897407,"current_range_meters":4000,"station_id":"ce4bgop2rcd13ifvqc1g","pricing_plan_id":"cebpf4jnsgd1na2vs0mg"},{"bike_id":"ebf86de8-a3f7-4563-b9cd-62f5316ef4ec","system_id":"levelo_inurba_marseille","lat":43.30934,"lon":5.40144,"is_reserved":false,"is_disabled":true,"rental_uris":{"android":"levelo://app?vid=ebf86de8-a3f7-4563-b9cd-62f5316ef4ec","ios":"levelo://app?vid=ebf86de8-a3f7-4563-b9cd-62f5316ef4ec"},"vehicle_type_id":"4","last_reported":1742897407,"current_range_meters":6400,"station_id":"ce4bgvp2rcd13ifvqct0","pricing_plan_id":"cebpf4jnsgd1na2vs0mg"},{"bike_id":"ed445230-2d21-4498-afb7-fd4aa4bf3d47","system_id":"levelo_inurba_marseille","lat":43.26688,"lon":5.38257,"is_reserved":false,"is_disabled":false,"rental_uris":{"android":"levelo://app?vid=ed445230-2d21-4498-afb7-fd4aa4bf3d47","ios":"levelo://app?vid=ed445230-2d21-4498-afb7-fd4aa4bf3d47"},"vehicle_type_id":"4","last_reported":1742897407,"current_range_meters":6400,"station_id":"ce4bhg92rcd13ifvqf90","pricing_plan_id":"cebpf4jnsgd1na2vs0mg"},{"bike_id":"65d5da10-23ea-4460-b9da-4bff1f1b069b","system_id":"levelo_inurba_marseille","lat":43.281132,"lon":5.37832,"is_reserved":false,"is_disabled":false,"rental_uris":{"android":"levelo://app?vid=65d5da10-23ea-4460-b9da-4bff1f1b069b","ios":"levelo://app?vid=65d5da10-23ea-4460-b9da-4bff1f1b069b"},"vehicle_type_id":"4","last_reported":1742897407,"current_range_meters":6000,"station_id":"ce4bha12rcd13ifvqee0","pricing_plan_id":"cebpf4jnsgd1na2vs0mg"},{"bike_id":"f99cef42-1244-491f-a266-284f44d2a231","system_id":"levelo_inurba_marseille","lat":43.28428,"lon":5.34978,"is_reserved":false,"is_disabled":false,"rental_uris":{"android":"levelo://app?vid=f99cef42-1244-491f-a266-284f44d2a231","ios":"levelo://app?vid=f99cef42-1244-491f-a266-284f44d2a231"},"vehicle_type_id":"4","last_reported":1742897407,"current_range_meters":6800,"station_id":"ce4bhbh2rcd13ifvqepg","pricing_plan_id":"cebpf4jnsgd1na2vs0mg"},{"bike_id":"4865bd25-aa76-4491-acd7-eb5df7243303","system_id":"levelo_inurba_marseille","lat":43.31222,"lon":5.36838,"is_reserved":false,"is_disabled":false,"rental_uris":{"android":"levelo://app?vid=4865bd25-aa76-4491-acd7-eb5df7243303","ios":"levelo://app?vid=4865bd25-aa76-4491-acd7-eb5df7243303"},"vehicle_type_id":"4","last_reported":1742897407,"current_range_meters":6800,"station_id":"","pricing_plan_id":"cebpf4jnsgd1na2vs0mg"},{"bike_id":"19c4d38c-721f-4a6d-8de0-ad162aee3dc3","system_id":"levelo_inurba_marseille","lat":43.29878,"lon":5.38898,"is_reserved":false,"is_disabled":true,"rental_uris":{"android":"levelo://app?vid=19c4d38c-721f-4a6d-8de0-ad162aee3dc3","ios":"levelo://app?vid=19c4d38c-721f-4a6d-8de0-ad162aee3dc3"},"vehicle_type_id":"4","last_reported":1742897407,"current_range_meters":6800,"station_id":"ce4bh392rcd13ifvqdl0","pricing_plan_id":"cebpf4jnsgd1na2vs0mg"},{"bike_id":"3b631c2d-036a-4498-ab43-e0e9fdacc2a1","system_id":"levelo_inurba_marseille","lat":43.24807,"lon":5.3745,"is_reserved":false,"is_disabled":false,"rental_uris":{"android":"levelo://app?vid=3b631c2d-036a-4498-ab43-e0e9fdacc2a1","ios":"levelo://app?vid=3b631c2d-036a-4498-ab43-e0e9fdacc2a1"},"vehicle_type_id":"4","last_reported":1742897407,"current_range_meters":6800,"station_id":"ce4bhgh2rcd13ifvqfb0","pricing_plan_id":"cebpf4jnsgd1na2vs0mg"},{"bike_id":"8723922e-320e-4649-af0a-8190d390afa0","system_id":"levelo_inurba_marseille","lat":43.32099,"lon":5.36759,"is_reserved":false,"is_disabled":false,"rental_uris":{"android":"levelo://app?vid=8723922e-320e-4649-af0a-8190d390afa0","ios":"levelo://app?vid=8723922e-320e-4649-af0a-8190d390afa0"},"vehicle_type_id":"4","last_reported":1742897407,"current_range_meters":6800,"station_id":"ce4bhrh2rcd13ifvqhug","pricing_plan_id":"cebpf4jnsgd1na2vs0mg"},{"bike_id":"df632c8e-92f6-4b8a-9524-6d142d68aad1","system_id":"levelo_inurba_marseille","lat":43.25588,"lon":5.38225,"is_reserved":false,"is_disabled":false,"rental_uris":{"android":"levelo://app?vid=df632c8e-92f6-4b8a-9524-6d142d68aad1","ios":"levelo://app?vid=df632c8e-92f6-4b8a-9524-6d142d68aad1"},"vehicle_type_id":"4","last_reported":1742897407,"current_range_meters":6800,"station_id":"ce4bhih2rcd13ifvqfs0","pricing_plan_id":"cebpf4jnsgd1na2vs0mg"},{"bike_id":"76356a35-2bef-4e13-9025-27f32224e678","system_id":"levelo_inurba_marseille","lat":43.26964,"lon":5.38633,"is_reserved":false,"is_disabled":false,"rental_uris":{"android":"levelo://app?vid=76356a35-2bef-4e13-9025-27f32224e678","ios":"levelo://app?vid=76356a35-2bef-4e13-9025-27f32224e678"},"vehicle_type_id":"4","last_reported":1742897407,"current_range_meters":6800,"station_id":"ce4bhh92rcd13ifvqfh0","pricing_plan_id":"cebpf4jnsgd1na2vs0mg"},{"bike_id":"2efcf627-32f6-453a-98bd-51af5576e146","system_id":"levelo_inurba_marseille","lat":43.268035,"lon":5.402714,"is_reserved":false,"is_disabled":false,"rental_uris":{"android":"levelo://app?vid=2efcf627-32f6-453a-98bd-51af5576e146","ios":"levelo://app?vid=2efcf627-32f6-453a-98bd-51af5576e146"},"vehicle_type_id":"4","last_reported":1742897407,"current_range_meters":6400,"station_id":"ce4bhh12rcd13ifvqfg0","pricing_plan_id":"cebpf4jnsgd1na2vs0mg"},{"bike_id":"1b8779ee-15bd-411f-8230-66fb3b9d06b8","system_id":"levelo_inurba_marseille","lat":43.29901,"lon":5.43658,"is_reserved":false,"is_disabled":false,"rental_uris":{"android":"levelo://app?vid=1b8779ee-15bd-411f-8230-66fb3b9d06b8","ios":"levelo://app?vid=1b8779ee-15bd-411f-8230-66fb3b9d06b8"},"vehicle_type_id":"4","last_reported":1742897407,"current_range_meters":7200,"station_id":"ce4bhpp2rcd13ifvqhfg","pricing_plan_id":"cebpf4jnsgd1na2vs0mg"},{"bike_id":"1cdb5e5f-6bda-4e07-b645-0554ed59cc39","system_id":"levelo_inurba_marseille","lat":43.25845,"lon":5.39426,"is_reserved":false,"is_disabled":false,"rental_uris":{"android":"levelo://app?vid=1cdb5e5f-6bda-4e07-b645-0554ed59cc39","ios":"levelo://app?vid=1cdb5e5f-6bda-4e07-b645-0554ed59cc39"},"vehicle_type_id":"4","last_reported":1742897407,"current_range_meters":7200,"station_id":"ce4bhip2rcd13ifvqft0","pricing_plan_id":"cebpf4jnsgd1na2vs0mg"},{"bike_id":"f28c0c94-d4e7-41d2-bcc2-de39a5af2bd0","system_id":"levelo_inurba_marseille","lat":43.31366,"lon":5.3667,"is_reserved":false,"is_disabled":false,"rental_uris":{"android":"levelo://app?vid=f28c0c94-d4e7-41d2-bcc2-de39a5af2bd0","ios":"levelo://app?vid=f28c0c94-d4e7-41d2-bcc2-de39a5af2bd0"},"vehicle_type_id":"4","last_reported":1742897407,"current_range_meters":7200,"station_id":"ce4bgr92rcd13ifvqc6g","pricing_plan_id":"cebpf4jnsgd1na2vs0mg"},{"bike_id":"f8bc93c6-f382-4deb-a4a1-765f8fd5994c","system_id":"levelo_inurba_marseille","lat":43.30554,"lon":5.36517,"is_reserved":false,"is_disabled":false,"rental_uris":{"android":"levelo://app?vid=f8bc93c6-f382-4deb-a4a1-765f8fd5994c","ios":"levelo://app?vid=f8bc93c6-f382-4deb-a4a1-765f8fd5994c"},"vehicle_type_id":"4","last_reported":1742897407,"current_range_meters":7200,"station_id":"ce4bgs12rcd13ifvqcag","pricing_plan_id":"cebpf4jnsgd1na2vs0mg"},{"bike_id":"fb42dba8-4cce-4f51-aece-c1af2c7f29ef","system_id":"levelo_inurba_marseille","lat":43.32478,"lon":5.36579,"is_reserved":false,"is_disabled":false,"rental_uris":{"android":"levelo://app?vid=fb42dba8-4cce-4f51-aece-c1af2c7f29ef","ios":"levelo://app?vid=fb42dba8-4cce-4f51-aece-c1af2c7f29ef"},"vehicle_type_id":"4","last_reported":1742897407,"current_range_meters":7200,"station_id":"ce4bhs12rcd13ifvqhvg","pricing_plan_id":"cebpf4jnsgd1na2vs0mg"},{"bike_id":"2462aff4-312c-46a9-ae18-d864ef42c20c","system_id":"levelo_inurba_marseille","lat":43.24171,"lon":5.36407,"is_reserved":false,"is_disabled":false,"rental_uris":{"android":"levelo://app?vid=2462aff4-312c-46a9-ae18-d864ef42c20c","ios":"levelo://app?vid=2462aff4-312c-46a9-ae18-d864ef42c20c"},"vehicle_type_id":"4","last_reported":1742897407,"current_range_meters":8000,"station_id":"cpo36qri1sfpv3e86is0","pricing_plan_id":"cebpf4jnsgd1na2vs0mg"},{"bike_id":"f7e0df3d-f8dd-4aab-b001-f708f9ac4782","system_id":"levelo_inurba_marseille","lat":43.30294,"lon":5.37692,"is_reserved":false,"is_disabled":false,"rental_uris":{"android":"levelo://app?vid=f7e0df3d-f8dd-4aab-b001-f708f9ac4782","ios":"levelo://app?vid=f7e0df3d-f8dd-4aab-b001-f708f9ac4782"},"vehicle_type_id":"4","last_reported":1742897407,"current_range_meters":8000,"station_id":"ce4bguh2rcd13ifvqcj0","pricing_plan_id":"cebpf4jnsgd1na2vs0mg"},{"bike_id":"3db50893-67a3-44ca-8b6d-9cbedead82bf","system_id":"levelo_inurba_marseille","lat":43.29182,"lon":5.35797,"is_reserved":false,"is_disabled":false,"rental_uris":{"android":"levelo://app?vid=3db50893-67a3-44ca-8b6d-9cbedead82bf","ios":"levelo://app?vid=3db50893-67a3-44ca-8b6d-9cbedead82bf"},"vehicle_type_id":"4","last_reported":1742897407,"current_range_meters":8000,"station_id":"ce4bhb12rcd13ifvqel0","pricing_plan_id":"cebpf4jnsgd1na2vs0mg"},{"bike_id":"d6d4755b-6317-4814-bb26-03c367586df3","system_id":"levelo_inurba_marseille","lat":43.29853,"lon":5.36266,"is_reserved":false,"is_disabled":false,"rental_uris":{"android":"levelo://app?vid=d6d4755b-6317-4814-bb26-03c367586df3","ios":"levelo://app?vid=d6d4755b-6317-4814-bb26-03c367586df3"},"vehicle_type_id":"4","last_reported":1742897407,"current_range_meters":8000,"station_id":"ce4bgpp2rcd13ifvqc3g","pricing_plan_id":"cebpf4jnsgd1na2vs0mg"},{"bike_id":"159ed41b-559b-4dd6-b240-987af7af443e","system_id":"levelo_inurba_marseille","lat":43.28854,"lon":5.35858,"is_reserved":false,"is_disabled":false,"rental_uris":{"android":"levelo://app?vid=159ed41b-559b-4dd6-b240-987af7af443e","ios":"levelo://app?vid=159ed41b-559b-4dd6-b240-987af7af443e"},"vehicle_type_id":"4","last_reported":1742897407,"current_range_meters":8000,"station_id":"ce4bhb12rcd13ifvqem0","pricing_plan_id":"cebpf4jnsgd1na2vs0mg"},{"bike_id":"2307e763-747a-4c32-8236-db9f47a00252","system_id":"levelo_inurba_marseille","lat":43.30413,"lon":5.41289,"is_reserved":false,"is_disabled":false,"rental_uris":{"android":"levelo://app?vid=2307e763-747a-4c32-8236-db9f47a00252","ios":"levelo://app?vid=2307e763-747a-4c32-8236-db9f47a00252"},"vehicle_type_id":"4","last_reported":1742897407,"current_range_meters":8000,"station_id":"ce4bhop2rcd13ifvqh8g","pricing_plan_id":"cebpf4jnsgd1na2vs0mg"},{"bike_id":"2898d5cc-3a00-4b94-92e2-84f947fa3463","system_id":"levelo_inurba_marseille","lat":43.2669,"lon":5.38237,"is_reserved":false,"is_disabled":false,"rental_uris":{"android":"levelo://app?vid=2898d5cc-3a00-4b94-92e2-84f947fa3463","ios":"levelo://app?vid=2898d5cc-3a00-4b94-92e2-84f947fa3463"},"vehicle_type_id":"4","last_reported":1742897407,"current_range_meters":8000,"station_id":"ce4bhg92rcd13ifvqf90","pricing_plan_id":"cebpf4jnsgd1na2vs0mg"},{"bike_id":"2ff570d2-4d8e-48ed-9e8e-8a83ca9149b2","system_id":"levelo_inurba_marseille","lat":43.270794,"lon":5.422786,"is_reserved":false,"is_disabled":true,"rental_uris":{"android":"levelo://app?vid=2ff570d2-4d8e-48ed-9e8e-8a83ca9149b2","ios":"levelo://app?vid=2ff570d2-4d8e-48ed-9e8e-8a83ca9149b2"},"vehicle_type_id":"4","last_reported":1742897407,"current_range_meters":8000,"station_id":"ce4bhk92rcd13ifvqgb0","pricing_plan_id":"cebpf4jnsgd1na2vs0mg"},{"bike_id":"fbfecbb6-5794-4d9a-9176-1810e4b4a7ef","system_id":"levelo_inurba_marseille","lat":43.23065,"lon":5.35487,"is_reserved":false,"is_disabled":false,"rental_uris":{"android":"levelo://app?vid=fbfecbb6-5794-4d9a-9176-1810e4b4a7ef","ios":"levelo://app?vid=fbfecbb6-5794-4d9a-9176-1810e4b4a7ef"},"vehicle_type_id":"4","last_reported":1742897407,"current_range_meters":8000,"station_id":"","pricing_plan_id":"cebpf4jnsgd1na2vs0mg"},{"bike_id":"ab621024-0ebf-4cec-a59e-eed1960c25a2","system_id":"levelo_inurba_marseille","lat":43.337444,"lon":5.374475,"is_reserved":false,"is_disabled":false,"rental_uris":{"android":"levelo://app?vid=ab621024-0ebf-4cec-a59e-eed1960c25a2","ios":"levelo://app?vid=ab621024-0ebf-4cec-a59e-eed1960c25a2"},"vehicle_type_id":"4","last_reported":1742897407,"current_range_meters":8000,"station_id":"ce4bh0h2rcd13ifvqd50","pricing_plan_id":"cebpf4jnsgd1na2vs0mg"},{"bike_id":"5b921547-230c-4ae0-91f3-83af2f10df0e","system_id":"levelo_inurba_marseille","lat":43.31466,"lon":5.3725,"is_reserved":false,"is_disabled":false,"rental_uris":{"android":"levelo://app?vid=5b921547-230c-4ae0-91f3-83af2f10df0e","ios":"levelo://app?vid=5b921547-230c-4ae0-91f3-83af2f10df0e"},"vehicle_type_id":"4","last_reported":1742897407,"current_range_meters":8400,"station_id":"","pricing_plan_id":"cebpf4jnsgd1na2vs0mg"},{"bike_id":"3e089a20-86d8-4244-979c-5b7762bbd749","system_id":"levelo_inurba_marseille","lat":43.32372,"lon":5.38881,"is_reserved":false,"is_disabled":false,"rental_uris":{"android":"levelo://app?vid=3e089a20-86d8-4244-979c-5b7762bbd749","ios":"levelo://app?vid=3e089a20-86d8-4244-979c-5b7762bbd749"},"vehicle_type_id":"4","last_reported":1742897407,"current_range_meters":8400,"station_id":"ce4bhqp2rcd13ifvqhog","pricing_plan_id":"cebpf4jnsgd1na2vs0mg"},{"bike_id":"7d2c4b31-612a-4999-80c5-0bd40a54e182","system_id":"levelo_inurba_marseille","lat":43.28592,"lon":5.37056,"is_reserved":false,"is_disabled":false,"rental_uris":{"android":"levelo://app?vid=7d2c4b31-612a-4999-80c5-0bd40a54e182","ios":"levelo://app?vid=7d2c4b31-612a-4999-80c5-0bd40a54e182"},"vehicle_type_id":"4","last_reported":1742897407,"current_range_meters":8400,"station_id":"ce4bht12rcd13ifvqi60","pricing_plan_id":"cebpf4jnsgd1na2vs0mg"},{"bike_id":"1248dc12-96b1-4b8a-9be1-58ecb7cae847","system_id":"levelo_inurba_marseille","lat":43.299,"lon":5.39735,"is_reserved":false,"is_disabled":false,"rental_uris":{"android":"levelo://app?vid=1248dc12-96b1-4b8a-9be1-58ecb7cae847","ios":"levelo://app?vid=1248dc12-96b1-4b8a-9be1-58ecb7cae847"},"vehicle_type_id":"4","last_reported":1742897407,"current_range_meters":8400,"station_id":"ce4bh0h2rcd13ifvqd50","pricing_plan_id":"cebpf4jnsgd1na2vs0mg"},{"bike_id":"11146d89-280c-4ffa-9e2e-3ca463658b6b","system_id":"levelo_inurba_marseille","lat":43.26947,"lon":5.38632,"is_reserved":false,"is_disabled":false,"rental_uris":{"android":"levelo://app?vid=11146d89-280c-4ffa-9e2e-3ca463658b6b","ios":"levelo://app?vid=11146d89-280c-4ffa-9e2e-3ca463658b6b"},"vehicle_type_id":"4","last_reported":1742897407,"current_range_meters":8400,"station_id":"ce4bhh92rcd13ifvqfh0","pricing_plan_id":"cebpf4jnsgd1na2vs0mg"},{"bike_id":"f1681b6a-7497-4c7b-a00f-0c281574068a","system_id":"levelo_inurba_marseille","lat":43.30991,"lon":5.3755,"is_reserved":false,"is_disabled":false,"rental_uris":{"android":"levelo://app?vid=f1681b6a-7497-4c7b-a00f-0c281574068a","ios":"levelo://app?vid=f1681b6a-7497-4c7b-a00f-0c281574068a"},"vehicle_type_id":"4","last_reported":1742897407,"current_range_meters":8400,"station_id":"","pricing_plan_id":"cebpf4jnsgd1na2vs0mg"},{"bike_id":"21be2ddd-a33f-4821-9edb-0782de7ee7c9","system_id":"levelo_inurba_marseille","lat":43.23087,"lon":5.43741,"is_reserved":false,"is_disabled":false,"rental_uris":{"android":"levelo://app?vid=21be2ddd-a33f-4821-9edb-0782de7ee7c9","ios":"levelo://app?vid=21be2ddd-a33f-4821-9edb-0782de7ee7c9"},"vehicle_type_id":"4","last_reported":1742897407,"current_range_meters":8400,"station_id":"","pricing_plan_id":"cebpf4jnsgd1na2vs0mg"},{"bike_id":"74c235ef-60ec-407b-b9dc-f9cbdc147980","system_id":"levelo_inurba_marseille","lat":43.29037,"lon":5.37562,"is_reserved":false,"is_disabled":false,"rental_uris":{"android":"levelo://app?vid=74c235ef-60ec-407b-b9dc-f9cbdc147980","ios":"levelo://app?vid=74c235ef-60ec-407b-b9dc-f9cbdc147980"},"vehicle_type_id":"4","last_reported":1742897407,"current_range_meters":8000,"station_id":"ce4bh692rcd13ifvqe90","pricing_plan_id":"cebpf4jnsgd1na2vs0mg"},{"bike_id":"fe0493e6-c8d8-4f02-8b3f-763ef441a4da","system_id":"levelo_inurba_marseille","lat":43.30542,"lon":5.36532,"is_reserved":false,"is_disabled":false,"rental_uris":{"android":"levelo://app?vid=fe0493e6-c8d8-4f02-8b3f-763ef441a4da","ios":"levelo://app?vid=fe0493e6-c8d8-4f02-8b3f-763ef441a4da"},"vehicle_type_id":"4","last_reported":1742897407,"current_range_meters":8400,"station_id":"ce4bgs12rcd13ifvqcag","pricing_plan_id":"cebpf4jnsgd1na2vs0mg"},{"bike_id":"e7853343-9487-4047-bc37-370ec1d3ce6e","system_id":"levelo_inurba_marseille","lat":43.32469,"lon":5.36592,"is_reserved":false,"is_disabled":false,"rental_uris":{"android":"levelo://app?vid=e7853343-9487-4047-bc37-370ec1d3ce6e","ios":"levelo://app?vid=e7853343-9487-4047-bc37-370ec1d3ce6e"},"vehicle_type_id":"4","last_reported":1742897407,"current_range_meters":8400,"station_id":"ce4bhs12rcd13ifvqhvg","pricing_plan_id":"cebpf4jnsgd1na2vs0mg"},{"bike_id":"c9c19aa6-3fe4-401b-ab2c-9612f3df5e72","system_id":"levelo_inurba_marseille","lat":43.30934,"lon":5.38992,"is_reserved":false,"is_disabled":true,"rental_uris":{"android":"levelo://app?vid=c9c19aa6-3fe4-401b-ab2c-9612f3df5e72","ios":"levelo://app?vid=c9c19aa6-3fe4-401b-ab2c-9612f3df5e72"},"vehicle_type_id":"4","last_reported":1742897407,"current_range_meters":8400,"station_id":"ce4bgup2rcd13ifvqco0","pricing_plan_id":"cebpf4jnsgd1na2vs0mg"},{"bike_id":"0dfb0d89-73f2-49b8-91e9-15d856e46939","system_id":"levelo_inurba_marseille","lat":43.24197,"lon":5.39708,"is_reserved":false,"is_disabled":false,"rental_uris":{"android":"levelo://app?vid=0dfb0d89-73f2-49b8-91e9-15d856e46939","ios":"levelo://app?vid=0dfb0d89-73f2-49b8-91e9-15d856e46939"},"vehicle_type_id":"4","last_reported":1742897407,"current_range_meters":8400,"station_id":"ce4bhn12rcd13ifvqgpg","pricing_plan_id":"cebpf4jnsgd1na2vs0mg"},{"bike_id":"5d9ccffa-3eee-4c99-b6d9-bbe0cc029eee","system_id":"levelo_inurba_marseille","lat":43.27667,"lon":5.38874,"is_reserved":false,"is_disabled":false,"rental_uris":{"android":"levelo://app?vid=5d9ccffa-3eee-4c99-b6d9-bbe0cc029eee","ios":"levelo://app?vid=5d9ccffa-3eee-4c99-b6d9-bbe0cc029eee"},"vehicle_type_id":"4","last_reported":1742897407,"current_range_meters":8400,"station_id":"ce4bhi12rcd13ifvqfo0","pricing_plan_id":"cebpf4jnsgd1na2vs0mg"},{"bike_id":"8284de5c-d227-47cd-b1ac-1bc2e0170d0f","system_id":"levelo_inurba_marseille","lat":43.27842,"lon":5.40762,"is_reserved":false,"is_disabled":false,"rental_uris":{"android":"levelo://app?vid=8284de5c-d227-47cd-b1ac-1bc2e0170d0f","ios":"levelo://app?vid=8284de5c-d227-47cd-b1ac-1bc2e0170d0f"},"vehicle_type_id":"4","last_reported":1742897407,"current_range_meters":8800,"station_id":"ce4bhnh2rcd13ifvqgtg","pricing_plan_id":"cebpf4jnsgd1na2vs0mg"},{"bike_id":"4ca9ab24-c81c-456f-b974-33d2a4174947","system_id":"levelo_inurba_marseille","lat":43.29611,"lon":5.38094,"is_reserved":false,"is_disabled":true,"rental_uris":{"android":"levelo://app?vid=4ca9ab24-c81c-456f-b974-33d2a4174947","ios":"levelo://app?vid=4ca9ab24-c81c-456f-b974-33d2a4174947"},"vehicle_type_id":"4","last_reported":1742897407,"current_range_meters":8800,"station_id":"ce4bgl12rcd13ifvqbo0","pricing_plan_id":"cebpf4jnsgd1na2vs0mg"},{"bike_id":"a0d4632a-7a87-4031-aeeb-061ca0feaca6","system_id":"levelo_inurba_marseille","lat":43.23978,"lon":5.36616,"is_reserved":false,"is_disabled":false,"rental_uris":{"android":"levelo://app?vid=a0d4632a-7a87-4031-aeeb-061ca0feaca6","ios":"levelo://app?vid=a0d4632a-7a87-4031-aeeb-061ca0feaca6"},"vehicle_type_id":"4","last_reported":1742897407,"current_range_meters":8800,"station_id":"","pricing_plan_id":"cebpf4jnsgd1na2vs0mg"},{"bike_id":"e5ca58cd-4fb3-46c9-8884-d446cccfbc30","system_id":"levelo_inurba_marseille","lat":43.25931,"lon":5.40909,"is_reserved":false,"is_disabled":false,"rental_uris":{"android":"levelo://app?vid=e5ca58cd-4fb3-46c9-8884-d446cccfbc30","ios":"levelo://app?vid=e5ca58cd-4fb3-46c9-8884-d446cccfbc30"},"vehicle_type_id":"4","last_reported":1742897407,"current_range_meters":8800,"station_id":"ce4bhm92rcd13ifvqglg","pricing_plan_id":"cebpf4jnsgd1na2vs0mg"},{"bike_id":"7b953de0-c97f-4fb0-8b05-bc8a3322f789","system_id":"levelo_inurba_marseille","lat":43.287194,"lon":5.360749,"is_reserved":false,"is_disabled":false,"rental_uris":{"android":"levelo://app?vid=7b953de0-c97f-4fb0-8b05-bc8a3322f789","ios":"levelo://app?vid=7b953de0-c97f-4fb0-8b05-bc8a3322f789"},"vehicle_type_id":"4","last_reported":1742897407,"current_range_meters":8400,"station_id":"cki0cbj6b192h4jlfktg","pricing_plan_id":"cebpf4jnsgd1na2vs0mg"},{"bike_id":"0ead97df-461c-400f-8188-6f4148e09277","system_id":"levelo_inurba_marseille","lat":43.30162,"lon":5.37414,"is_reserved":false,"is_disabled":false,"rental_uris":{"android":"levelo://app?vid=0ead97df-461c-400f-8188-6f4148e09277","ios":"levelo://app?vid=0ead97df-461c-400f-8188-6f4148e09277"},"vehicle_type_id":"4","last_reported":1742897407,"current_range_meters":8800,"station_id":"ce4bgs92rcd13ifvqcc0","pricing_plan_id":"cebpf4jnsgd1na2vs0mg"},{"bike_id":"7955c63a-7365-402f-bd5c-0f6460ac413a","system_id":"levelo_inurba_marseille","lat":43.25088,"lon":5.39528,"is_reserved":false,"is_disabled":false,"rental_uris":{"android":"levelo://app?vid=7955c63a-7365-402f-bd5c-0f6460ac413a","ios":"levelo://app?vid=7955c63a-7365-402f-bd5c-0f6460ac413a"},"vehicle_type_id":"4","last_reported":1742897407,"current_range_meters":8800,"station_id":"ce4bhm12rcd13ifvqgkg","pricing_plan_id":"cebpf4jnsgd1na2vs0mg"},{"bike_id":"36acf441-bbb8-401a-9f0e-0d9786edf7d1","system_id":"levelo_inurba_marseille","lat":43.23187,"lon":5.39981,"is_reserved":false,"is_disabled":false,"rental_uris":{"android":"levelo://app?vid=36acf441-bbb8-401a-9f0e-0d9786edf7d1","ios":"levelo://app?vid=36acf441-bbb8-401a-9f0e-0d9786edf7d1"},"vehicle_type_id":"4","last_reported":1742897407,"current_range_meters":9200,"station_id":"ce4bhn12rcd13ifvqgqg","pricing_plan_id":"cebpf4jnsgd1na2vs0mg"},{"bike_id":"dea91d9a-f910-4cfd-83d8-531e42da2779","system_id":"levelo_inurba_marseille","lat":43.299432,"lon":5.365612,"is_reserved":false,"is_disabled":false,"rental_uris":{"android":"levelo://app?vid=dea91d9a-f910-4cfd-83d8-531e42da2779","ios":"levelo://app?vid=dea91d9a-f910-4cfd-83d8-531e42da2779"},"vehicle_type_id":"4","last_reported":1742897407,"current_range_meters":9200,"station_id":"ce4bhnp2rcd13ifvqgvg","pricing_plan_id":"cebpf4jnsgd1na2vs0mg"},{"bike_id":"07273ad5-0d14-41f9-aa20-8a351943b18a","system_id":"levelo_inurba_marseille","lat":43.28157,"lon":5.42653,"is_reserved":false,"is_disabled":false,"rental_uris":{"android":"levelo://app?vid=07273ad5-0d14-41f9-aa20-8a351943b18a","ios":"levelo://app?vid=07273ad5-0d14-41f9-aa20-8a351943b18a"},"vehicle_type_id":"4","last_reported":1742897407,"current_range_meters":9200,"station_id":"ce4bhnh2rcd13ifvqgug","pricing_plan_id":"cebpf4jnsgd1na2vs0mg"},{"bike_id":"28a4388a-1551-4780-a465-a3ba2a4869e8","system_id":"levelo_inurba_marseille","lat":43.24069,"lon":5.37757,"is_reserved":false,"is_disabled":false,"rental_uris":{"android":"levelo://app?vid=28a4388a-1551-4780-a465-a3ba2a4869e8","ios":"levelo://app?vid=28a4388a-1551-4780-a465-a3ba2a4869e8"},"vehicle_type_id":"4","last_reported":1742897407,"current_range_meters":9200,"station_id":"ce4bhnp2rcd13ifvqgvg","pricing_plan_id":"cebpf4jnsgd1na2vs0mg"},{"bike_id":"ac3f108c-027f-41a1-b23c-1d0b67dde38c","system_id":"levelo_inurba_marseille","lat":43.30898,"lon":5.36834,"is_reserved":false,"is_disabled":false,"rental_uris":{"android":"levelo://app?vid=ac3f108c-027f-41a1-b23c-1d0b67dde38c","ios":"levelo://app?vid=ac3f108c-027f-41a1-b23c-1d0b67dde38c"},"vehicle_type_id":"4","last_reported":1742897407,"current_range_meters":9200,"station_id":"ce4bgn92rcd13ifvqbvg","pricing_plan_id":"cebpf4jnsgd1na2vs0mg"},{"bike_id":"ef43d9bd-e531-4a59-b8a9-fdc80b41fa34","system_id":"levelo_inurba_marseille","lat":43.31276,"lon":5.40173,"is_reserved":false,"is_disabled":true,"rental_uris":{"android":"levelo://app?vid=ef43d9bd-e531-4a59-b8a9-fdc80b41fa34","ios":"levelo://app?vid=ef43d9bd-e531-4a59-b8a9-fdc80b41fa34"},"vehicle_type_id":"4","last_reported":1742897407,"current_range_meters":9200,"station_id":"ce4bh092rcd13ifvqd30","pricing_plan_id":"cebpf4jnsgd1na2vs0mg"},{"bike_id":"bf322879-eeaf-4d02-aef1-b39f7d6bf601","system_id":"levelo_inurba_marseille","lat":43.30498,"lon":5.37928,"is_reserved":false,"is_disabled":false,"rental_uris":{"android":"levelo://app?vid=bf322879-eeaf-4d02-aef1-b39f7d6bf601","ios":"levelo://app?vid=bf322879-eeaf-4d02-aef1-b39f7d6bf601"},"vehicle_type_id":"4","last_reported":1742897407,"current_range_meters":9200,"station_id":"ce4bgup2rcd13ifvqcn0","pricing_plan_id":"cebpf4jnsgd1na2vs0mg"},{"bike_id":"c0ada561-8d79-4dd7-b14c-e0b31caf2e30","system_id":"levelo_inurba_marseille","lat":43.26701,"lon":5.38262,"is_reserved":false,"is_disabled":false,"rental_uris":{"android":"levelo://app?vid=c0ada561-8d79-4dd7-b14c-e0b31caf2e30","ios":"levelo://app?vid=c0ada561-8d79-4dd7-b14c-e0b31caf2e30"},"vehicle_type_id":"4","last_reported":1742897407,"current_range_meters":9200,"station_id":"ce4bhg92rcd13ifvqf90","pricing_plan_id":"cebpf4jnsgd1na2vs0mg"},{"bike_id":"16d1a1e8-6833-46ef-8ac2-dd05daf383fb","system_id":"levelo_inurba_marseille","lat":43.2316,"lon":5.43704,"is_reserved":false,"is_disabled":false,"rental_uris":{"android":"levelo://app?vid=16d1a1e8-6833-46ef-8ac2-dd05daf383fb","ios":"levelo://app?vid=16d1a1e8-6833-46ef-8ac2-dd05daf383fb"},"vehicle_type_id":"4","last_reported":1742897407,"current_range_meters":9200,"station_id":"ce4bhmp2rcd13ifvqgog","pricing_plan_id":"cebpf4jnsgd1na2vs0mg"},{"bike_id":"4fe82e65-425c-453e-9e10-5bbbfdd7a6b8","system_id":"levelo_inurba_marseille","lat":43.24163,"lon":5.39658,"is_reserved":false,"is_disabled":false,"rental_uris":{"android":"levelo://app?vid=4fe82e65-425c-453e-9e10-5bbbfdd7a6b8","ios":"levelo://app?vid=4fe82e65-425c-453e-9e10-5bbbfdd7a6b8"},"vehicle_type_id":"4","last_reported":1742897407,"current_range_meters":9200,"station_id":"","pricing_plan_id":"cebpf4jnsgd1na2vs0mg"},{"bike_id":"938c0f4e-65bf-479a-ba6e-fe7a68ff9b08","system_id":"levelo_inurba_marseille","lat":43.26517,"lon":5.37318,"is_reserved":false,"is_disabled":false,"rental_uris":{"android":"levelo://app?vid=938c0f4e-65bf-479a-ba6e-fe7a68ff9b08","ios":"levelo://app?vid=938c0f4e-65bf-479a-ba6e-fe7a68ff9b08"},"vehicle_type_id":"4","last_reported":1742897407,"current_range_meters":9200,"station_id":"","pricing_plan_id":"cebpf4jnsgd1na2vs0mg"},{"bike_id":"c353c957-fbb8-408a-9097-46c8d6b68074","system_id":"levelo_inurba_marseille","lat":43.24176,"lon":5.3969,"is_reserved":false,"is_disabled":false,"rental_uris":{"android":"levelo://app?vid=c353c957-fbb8-408a-9097-46c8d6b68074","ios":"levelo://app?vid=c353c957-fbb8-408a-9097-46c8d6b68074"},"vehicle_type_id":"4","last_reported":1742897407,"current_range_meters":9200,"station_id":"ce4bhn12rcd13ifvqgpg","pricing_plan_id":"cebpf4jnsgd1na2vs0mg"},{"bike_id":"2a99ecb7-4bf0-4c00-89bb-11ff019b8a6d","system_id":"levelo_inurba_marseille","lat":43.22951,"lon":5.35379,"is_reserved":false,"is_disabled":false,"rental_uris":{"android":"levelo://app?vid=2a99ecb7-4bf0-4c00-89bb-11ff019b8a6d","ios":"levelo://app?vid=2a99ecb7-4bf0-4c00-89bb-11ff019b8a6d"},"vehicle_type_id":"4","last_reported":1742897407,"current_range_meters":9600,"station_id":"cpo3532slgdg3j2ikp40","pricing_plan_id":"cebpf4jnsgd1na2vs0mg"},{"bike_id":"e1e35c11-11be-4d6b-9a98-3de91e1bd819","system_id":"levelo_inurba_marseille","lat":43.324832,"lon":5.366024,"is_reserved":false,"is_disabled":false,"rental_uris":{"android":"levelo://app?vid=e1e35c11-11be-4d6b-9a98-3de91e1bd819","ios":"levelo://app?vid=e1e35c11-11be-4d6b-9a98-3de91e1bd819"},"vehicle_type_id":"4","last_reported":1742897407,"current_range_meters":9600,"station_id":"ce4bhs12rcd13ifvqhvg","pricing_plan_id":"cebpf4jnsgd1na2vs0mg"},{"bike_id":"6002513d-b636-48a3-bf9e-ded200f3e2c5","system_id":"levelo_inurba_marseille","lat":43.30873,"lon":5.37799,"is_reserved":false,"is_disabled":false,"rental_uris":{"android":"levelo://app?vid=6002513d-b636-48a3-bf9e-ded200f3e2c5","ios":"levelo://app?vid=6002513d-b636-48a3-bf9e-ded200f3e2c5"},"vehicle_type_id":"4","last_reported":1742897407,"current_range_meters":9600,"station_id":"","pricing_plan_id":"cebpf4jnsgd1na2vs0mg"},{"bike_id":"324ac744-0939-44b0-9d31-93160d66cb65","system_id":"levelo_inurba_marseille","lat":43.30572,"lon":5.36526,"is_reserved":false,"is_disabled":false,"rental_uris":{"android":"levelo://app?vid=324ac744-0939-44b0-9d31-93160d66cb65","ios":"levelo://app?vid=324ac744-0939-44b0-9d31-93160d66cb65"},"vehicle_type_id":"4","last_reported":1742897407,"current_range_meters":9600,"station_id":"ce4bgs12rcd13ifvqcag","pricing_plan_id":"cebpf4jnsgd1na2vs0mg"},{"bike_id":"d0ce6a4c-8c1a-4117-b620-bb8816808dbc","system_id":"levelo_inurba_marseille","lat":43.23976,"lon":5.36633,"is_reserved":false,"is_disabled":false,"rental_uris":{"android":"levelo://app?vid=d0ce6a4c-8c1a-4117-b620-bb8816808dbc","ios":"levelo://app?vid=d0ce6a4c-8c1a-4117-b620-bb8816808dbc"},"vehicle_type_id":"4","last_reported":1742897407,"current_range_meters":9600,"station_id":"ce4bhi12rcd13ifvqfp0","pricing_plan_id":"cebpf4jnsgd1na2vs0mg"},{"bike_id":"dcf25736-b23c-4ced-81ab-c3eadf3b4ff0","system_id":"levelo_inurba_marseille","lat":43.26222,"lon":5.40453,"is_reserved":false,"is_disabled":false,"rental_uris":{"android":"levelo://app?vid=dcf25736-b23c-4ced-81ab-c3eadf3b4ff0","ios":"levelo://app?vid=dcf25736-b23c-4ced-81ab-c3eadf3b4ff0"},"vehicle_type_id":"4","last_reported":1742897407,"current_range_meters":9600,"station_id":"ce4bhmh2rcd13ifvqgmg","pricing_plan_id":"cebpf4jnsgd1na2vs0mg"},{"bike_id":"9c6d3ffa-1fc9-404c-9dc5-4837e1233b7c","system_id":"levelo_inurba_marseille","lat":43.31344,"lon":5.36724,"is_reserved":false,"is_disabled":false,"rental_uris":{"android":"levelo://app?vid=9c6d3ffa-1fc9-404c-9dc5-4837e1233b7c","ios":"levelo://app?vid=9c6d3ffa-1fc9-404c-9dc5-4837e1233b7c"},"vehicle_type_id":"4","last_reported":1742897407,"current_range_meters":9600,"station_id":"","pricing_plan_id":"cebpf4jnsgd1na2vs0mg"},{"bike_id":"8871fee1-c30f-4721-bb9f-022f22051a94","system_id":"levelo_inurba_marseille","lat":43.24181,"lon":5.39744,"is_reserved":false,"is_disabled":false,"rental_uris":{"android":"levelo://app?vid=8871fee1-c30f-4721-bb9f-022f22051a94","ios":"levelo://app?vid=8871fee1-c30f-4721-bb9f-022f22051a94"},"vehicle_type_id":"4","last_reported":1742897407,"current_range_meters":10000,"station_id":"","pricing_plan_id":"cebpf4jnsgd1na2vs0mg"},{"bike_id":"aae72da8-b492-40b8-ae11-a3b700b579c4","system_id":"levelo_inurba_marseille","lat":43.28868,"lon":5.35869,"is_reserved":false,"is_disabled":false,"rental_uris":{"android":"levelo://app?vid=aae72da8-b492-40b8-ae11-a3b700b579c4","ios":"levelo://app?vid=aae72da8-b492-40b8-ae11-a3b700b579c4"},"vehicle_type_id":"4","last_reported":1742897407,"current_range_meters":10000,"station_id":"ce4bhb12rcd13ifvqem0","pricing_plan_id":"cebpf4jnsgd1na2vs0mg"},{"bike_id":"b6fd1ec3-47b2-486f-8b84-f71e2b87ecef","system_id":"levelo_inurba_marseille","lat":43.31087,"lon":5.42447,"is_reserved":false,"is_disabled":true,"rental_uris":{"android":"levelo://app?vid=b6fd1ec3-47b2-486f-8b84-f71e2b87ecef","ios":"levelo://app?vid=b6fd1ec3-47b2-486f-8b84-f71e2b87ecef"},"vehicle_type_id":"4","last_reported":1742897407,"current_range_meters":10000,"station_id":"ce4bhp92rcd13ifvqhag","pricing_plan_id":"cebpf4jnsgd1na2vs0mg"},{"bike_id":"bf9315d0-8503-43cc-be5d-2a0d8d6ed54e","system_id":"levelo_inurba_marseille","lat":43.25578,"lon":5.38226,"is_reserved":false,"is_disabled":false,"rental_uris":{"android":"levelo://app?vid=bf9315d0-8503-43cc-be5d-2a0d8d6ed54e","ios":"levelo://app?vid=bf9315d0-8503-43cc-be5d-2a0d8d6ed54e"},"vehicle_type_id":"4","last_reported":1742897407,"current_range_meters":10000,"station_id":"ce4bhih2rcd13ifvqfs0","pricing_plan_id":"cebpf4jnsgd1na2vs0mg"},{"bike_id":"dd23823f-d8a5-4298-a77c-b8f932b25830","system_id":"levelo_inurba_marseille","lat":43.27068,"lon":5.42272,"is_reserved":false,"is_disabled":false,"rental_uris":{"android":"levelo://app?vid=dd23823f-d8a5-4298-a77c-b8f932b25830","ios":"levelo://app?vid=dd23823f-d8a5-4298-a77c-b8f932b25830"},"vehicle_type_id":"4","last_reported":1742897407,"current_range_meters":10000,"station_id":"ce4bhk92rcd13ifvqgb0","pricing_plan_id":"cebpf4jnsgd1na2vs0mg"},{"bike_id":"0ab4b5e7-0b73-47f0-969d-209a112d9f93","system_id":"levelo_inurba_marseille","lat":43.29664,"lon":5.37772,"is_reserved":false,"is_disabled":false,"rental_uris":{"android":"levelo://app?vid=0ab4b5e7-0b73-47f0-969d-209a112d9f93","ios":"levelo://app?vid=0ab4b5e7-0b73-47f0-969d-209a112d9f93"},"vehicle_type_id":"4","last_reported":1742897407,"current_range_meters":10000,"station_id":"","pricing_plan_id":"cebpf4jnsgd1na2vs0mg"},{"bike_id":"6bb6f1fc-5b4f-4f3d-97c1-f093e7e9a8ef","system_id":"levelo_inurba_marseille","lat":43.23052,"lon":5.35477,"is_reserved":false,"is_disabled":false,"rental_uris":{"android":"levelo://app?vid=6bb6f1fc-5b4f-4f3d-97c1-f093e7e9a8ef","ios":"levelo://app?vid=6bb6f1fc-5b4f-4f3d-97c1-f093e7e9a8ef"},"vehicle_type_id":"4","last_reported":1742897407,"current_range_meters":10000,"station_id":"cpo3342slgdg3j2ifvpg","pricing_plan_id":"cebpf4jnsgd1na2vs0mg"},{"bike_id":"6457a7c3-e47d-4e22-a706-55621349603c","system_id":"levelo_inurba_marseille","lat":43.260681,"lon":5.393965,"is_reserved":false,"is_disabled":false,"rental_uris":{"android":"levelo://app?vid=6457a7c3-e47d-4e22-a706-55621349603c","ios":"levelo://app?vid=6457a7c3-e47d-4e22-a706-55621349603c"},"vehicle_type_id":"4","last_reported":1742897407,"current_range_meters":10000,"station_id":"","pricing_plan_id":"cebpf4jnsgd1na2vs0mg"},{"bike_id":"6adb5407-e228-44f4-a1da-80d9852b3164","system_id":"levelo_inurba_marseille","lat":43.25002,"lon":5.38907,"is_reserved":false,"is_disabled":false,"rental_uris":{"android":"levelo://app?vid=6adb5407-e228-44f4-a1da-80d9852b3164","ios":"levelo://app?vid=6adb5407-e228-44f4-a1da-80d9852b3164"},"vehicle_type_id":"4","last_reported":1742897407,"current_range_meters":10000,"station_id":"ce4bhgp2rcd13ifvqfd0","pricing_plan_id":"cebpf4jnsgd1na2vs0mg"},{"bike_id":"f8d9e271-1395-4359-b702-1bb66f9e2939","system_id":"levelo_inurba_marseille","lat":43.25594,"lon":5.38231,"is_reserved":false,"is_disabled":false,"rental_uris":{"android":"levelo://app?vid=f8d9e271-1395-4359-b702-1bb66f9e2939","ios":"levelo://app?vid=f8d9e271-1395-4359-b702-1bb66f9e2939"},"vehicle_type_id":"4","last_reported":1742897407,"current_range_meters":10800,"station_id":"ce4bhih2rcd13ifvqfs0","pricing_plan_id":"cebpf4jnsgd1na2vs0mg"},{"bike_id":"e3f76d45-4904-44a7-aac2-e04832e991bb","system_id":"levelo_inurba_marseille","lat":43.299651,"lon":5.41329,"is_reserved":false,"is_disabled":true,"rental_uris":{"android":"levelo://app?vid=e3f76d45-4904-44a7-aac2-e04832e991bb","ios":"levelo://app?vid=e3f76d45-4904-44a7-aac2-e04832e991bb"},"vehicle_type_id":"4","last_reported":1742897407,"current_range_meters":10800,"station_id":"ce4bhp12rcd13ifvqh9g","pricing_plan_id":"cebpf4jnsgd1na2vs0mg"},{"bike_id":"2f3e2a92-1301-4a27-8eaa-7b0ea525530e","system_id":"levelo_inurba_marseille","lat":43.31723,"lon":5.43703,"is_reserved":false,"is_disabled":false,"rental_uris":{"android":"levelo://app?vid=2f3e2a92-1301-4a27-8eaa-7b0ea525530e","ios":"levelo://app?vid=2f3e2a92-1301-4a27-8eaa-7b0ea525530e"},"vehicle_type_id":"4","last_reported":1742897407,"current_range_meters":10800,"station_id":"","pricing_plan_id":"cebpf4jnsgd1na2vs0mg"},{"bike_id":"93dfac62-b280-4e5d-86af-998b7610fe77","system_id":"levelo_inurba_marseille","lat":43.24166,"lon":5.3974,"is_reserved":false,"is_disabled":false,"rental_uris":{"android":"levelo://app?vid=93dfac62-b280-4e5d-86af-998b7610fe77","ios":"levelo://app?vid=93dfac62-b280-4e5d-86af-998b7610fe77"},"vehicle_type_id":"4","last_reported":1742897407,"current_range_meters":10800,"station_id":"ce4bhn12rcd13ifvqgpg","pricing_plan_id":"cebpf4jnsgd1na2vs0mg"},{"bike_id":"74406c35-ee35-437d-be26-2d7711378046","system_id":"levelo_inurba_marseille","lat":43.3235,"lon":5.36742,"is_reserved":false,"is_disabled":false,"rental_uris":{"android":"levelo://app?vid=74406c35-ee35-437d-be26-2d7711378046","ios":"levelo://app?vid=74406c35-ee35-437d-be26-2d7711378046"},"vehicle_type_id":"4","last_reported":1742897407,"current_range_meters":10800,"station_id":"ce4bhsh2rcd13ifvqi2g","pricing_plan_id":"cebpf4jnsgd1na2vs0mg"},{"bike_id":"5c12e93c-8557-4aad-88a4-7138862551c1","system_id":"levelo_inurba_marseille","lat":43.28982,"lon":5.37823,"is_reserved":false,"is_disabled":false,"rental_uris":{"android":"levelo://app?vid=5c12e93c-8557-4aad-88a4-7138862551c1","ios":"levelo://app?vid=5c12e93c-8557-4aad-88a4-7138862551c1"},"vehicle_type_id":"4","last_reported":1742897407,"current_range_meters":10800,"station_id":"ce4bh9p2rcd13ifvqed0","pricing_plan_id":"cebpf4jnsgd1na2vs0mg"},{"bike_id":"c3d6c4b7-881c-412a-87ae-f70c37d5c2fa","system_id":"levelo_inurba_marseille","lat":43.30162,"lon":5.3808,"is_reserved":false,"is_disabled":false,"rental_uris":{"android":"levelo://app?vid=c3d6c4b7-881c-412a-87ae-f70c37d5c2fa","ios":"levelo://app?vid=c3d6c4b7-881c-412a-87ae-f70c37d5c2fa"},"vehicle_type_id":"4","last_reported":1742897407,"current_range_meters":10800,"station_id":"ce4bgjp2rcd13ifvqbh0","pricing_plan_id":"cebpf4jnsgd1na2vs0mg"},{"bike_id":"cf38a855-c83b-40e7-88f8-26504e103af6","system_id":"levelo_inurba_marseille","lat":43.30141,"lon":5.37392,"is_reserved":false,"is_disabled":false,"rental_uris":{"android":"levelo://app?vid=cf38a855-c83b-40e7-88f8-26504e103af6","ios":"levelo://app?vid=cf38a855-c83b-40e7-88f8-26504e103af6"},"vehicle_type_id":"4","last_reported":1742897407,"current_range_meters":10800,"station_id":"ce4bgs92rcd13ifvqcc0","pricing_plan_id":"cebpf4jnsgd1na2vs0mg"},{"bike_id":"8f208df7-81e0-45c5-bd98-a49c85a38fa2","system_id":"levelo_inurba_marseille","lat":43.30331,"lon":5.36914,"is_reserved":false,"is_disabled":false,"rental_uris":{"android":"levelo://app?vid=8f208df7-81e0-45c5-bd98-a49c85a38fa2","ios":"levelo://app?vid=8f208df7-81e0-45c5-bd98-a49c85a38fa2"},"vehicle_type_id":"4","last_reported":1742897407,"current_range_meters":10800,"station_id":"ce4bgqh2rcd13ifvqc5g","pricing_plan_id":"cebpf4jnsgd1na2vs0mg"},{"bike_id":"f08e122d-1df8-4fab-a66c-9a961da99f32","system_id":"levelo_inurba_marseille","lat":43.30466,"lon":5.37897,"is_reserved":false,"is_disabled":false,"rental_uris":{"android":"levelo://app?vid=f08e122d-1df8-4fab-a66c-9a961da99f32","ios":"levelo://app?vid=f08e122d-1df8-4fab-a66c-9a961da99f32"},"vehicle_type_id":"4","last_reported":1742897407,"current_range_meters":10800,"station_id":"ce4bgup2rcd13ifvqcn0","pricing_plan_id":"cebpf4jnsgd1na2vs0mg"},{"bike_id":"debffc05-1080-4f01-a1ce-f3b4100b6a61","system_id":"levelo_inurba_marseille","lat":43.295049,"lon":5.375016,"is_reserved":false,"is_disabled":false,"rental_uris":{"android":"levelo://app?vid=debffc05-1080-4f01-a1ce-f3b4100b6a61","ios":"levelo://app?vid=debffc05-1080-4f01-a1ce-f3b4100b6a61"},"vehicle_type_id":"4","last_reported":1742897407,"current_range_meters":10800,"station_id":"ce4bgkp2rcd13ifvqbmg","pricing_plan_id":"cebpf4jnsgd1na2vs0mg"},{"bike_id":"bb58f931-d39b-4674-bcbc-5096c1d815e7","system_id":"levelo_inurba_marseille","lat":43.24178,"lon":5.397,"is_reserved":false,"is_disabled":false,"rental_uris":{"android":"levelo://app?vid=bb58f931-d39b-4674-bcbc-5096c1d815e7","ios":"levelo://app?vid=bb58f931-d39b-4674-bcbc-5096c1d815e7"},"vehicle_type_id":"4","last_reported":1742897407,"current_range_meters":10800,"station_id":"","pricing_plan_id":"cebpf4jnsgd1na2vs0mg"},{"bike_id":"35c80dda-1069-4dd1-a793-aa34dff6b12b","system_id":"levelo_inurba_marseille","lat":43.23967,"lon":5.36628,"is_reserved":false,"is_disabled":false,"rental_uris":{"android":"levelo://app?vid=35c80dda-1069-4dd1-a793-aa34dff6b12b","ios":"levelo://app?vid=35c80dda-1069-4dd1-a793-aa34dff6b12b"},"vehicle_type_id":"4","last_reported":1742897407,"current_range_meters":10800,"station_id":"ce4bhi12rcd13ifvqfp0","pricing_plan_id":"cebpf4jnsgd1na2vs0mg"},{"bike_id":"0a418044-5f5f-4cc3-aacf-46c320775d4b","system_id":"levelo_inurba_marseille","lat":43.30144,"lon":5.37424,"is_reserved":false,"is_disabled":false,"rental_uris":{"android":"levelo://app?vid=0a418044-5f5f-4cc3-aacf-46c320775d4b","ios":"levelo://app?vid=0a418044-5f5f-4cc3-aacf-46c320775d4b"},"vehicle_type_id":"4","last_reported":1742897407,"current_range_meters":10800,"station_id":"ce4bgs92rcd13ifvqcc0","pricing_plan_id":"cebpf4jnsgd1na2vs0mg"},{"bike_id":"0ff5c1b1-7832-4431-921a-f9e33b47c9ed","system_id":"levelo_inurba_marseille","lat":43.26961,"lon":5.38647,"is_reserved":false,"is_disabled":false,"rental_uris":{"android":"levelo://app?vid=0ff5c1b1-7832-4431-921a-f9e33b47c9ed","ios":"levelo://app?vid=0ff5c1b1-7832-4431-921a-f9e33b47c9ed"},"vehicle_type_id":"4","last_reported":1742897407,"current_range_meters":10800,"station_id":"ce4bhh92rcd13ifvqfh0","pricing_plan_id":"cebpf4jnsgd1na2vs0mg"},{"bike_id":"89e75ed9-7f20-48f7-ad37-e0033e47c633","system_id":"levelo_inurba_marseille","lat":43.24648,"lon":5.3888,"is_reserved":false,"is_disabled":false,"rental_uris":{"android":"levelo://app?vid=89e75ed9-7f20-48f7-ad37-e0033e47c633","ios":"levelo://app?vid=89e75ed9-7f20-48f7-ad37-e0033e47c633"},"vehicle_type_id":"4","last_reported":1742897407,"current_range_meters":10800,"station_id":"ce4bhg12rcd13ifvqf60","pricing_plan_id":"cebpf4jnsgd1na2vs0mg"},{"bike_id":"011be59f-3f7f-4a16-aece-1ff4bbdf6e60","system_id":"levelo_inurba_marseille","lat":43.30146,"lon":5.37416,"is_reserved":false,"is_disabled":false,"rental_uris":{"android":"levelo://app?vid=011be59f-3f7f-4a16-aece-1ff4bbdf6e60","ios":"levelo://app?vid=011be59f-3f7f-4a16-aece-1ff4bbdf6e60"},"vehicle_type_id":"4","last_reported":1742897407,"current_range_meters":11200,"station_id":"ce4bgs92rcd13ifvqcc0","pricing_plan_id":"cebpf4jnsgd1na2vs0mg"},{"bike_id":"5b4fc95f-8a84-4c72-b7f3-080284d32871","system_id":"levelo_inurba_marseille","lat":43.27968,"lon":5.38727,"is_reserved":false,"is_disabled":false,"rental_uris":{"android":"levelo://app?vid=5b4fc95f-8a84-4c72-b7f3-080284d32871","ios":"levelo://app?vid=5b4fc95f-8a84-4c72-b7f3-080284d32871"},"vehicle_type_id":"4","last_reported":1742897407,"current_range_meters":10800,"station_id":"ce4bho92rcd13ifvqh3g","pricing_plan_id":"cebpf4jnsgd1na2vs0mg"},{"bike_id":"fdcc714d-c762-4a16-91da-437181feabf2","system_id":"levelo_inurba_marseille","lat":43.2668,"lon":5.3826,"is_reserved":false,"is_disabled":false,"rental_uris":{"android":"levelo://app?vid=fdcc714d-c762-4a16-91da-437181feabf2","ios":"levelo://app?vid=fdcc714d-c762-4a16-91da-437181feabf2"},"vehicle_type_id":"4","last_reported":1742897407,"current_range_meters":11200,"station_id":"ce4bhg92rcd13ifvqf90","pricing_plan_id":"cebpf4jnsgd1na2vs0mg"},{"bike_id":"d7c9b119-99cc-4acd-80c4-6ecaf67a26b1","system_id":"levelo_inurba_marseille","lat":43.23081,"lon":5.35498,"is_reserved":false,"is_disabled":false,"rental_uris":{"android":"levelo://app?vid=d7c9b119-99cc-4acd-80c4-6ecaf67a26b1","ios":"levelo://app?vid=d7c9b119-99cc-4acd-80c4-6ecaf67a26b1"},"vehicle_type_id":"4","last_reported":1742897407,"current_range_meters":11200,"station_id":"cpo3342slgdg3j2ifvpg","pricing_plan_id":"cebpf4jnsgd1na2vs0mg"},{"bike_id":"0fbff924-c5c6-4707-8ed7-c107b5151319","system_id":"levelo_inurba_marseille","lat":43.25825,"lon":5.39433,"is_reserved":false,"is_disabled":false,"rental_uris":{"android":"levelo://app?vid=0fbff924-c5c6-4707-8ed7-c107b5151319","ios":"levelo://app?vid=0fbff924-c5c6-4707-8ed7-c107b5151319"},"vehicle_type_id":"4","last_reported":1742897407,"current_range_meters":11200,"station_id":"","pricing_plan_id":"cebpf4jnsgd1na2vs0mg"},{"bike_id":"008c8db6-be2b-43ce-8a53-8af51fd8b577","system_id":"levelo_inurba_marseille","lat":43.24153,"lon":5.39706,"is_reserved":false,"is_disabled":false,"rental_uris":{"android":"levelo://app?vid=008c8db6-be2b-43ce-8a53-8af51fd8b577","ios":"levelo://app?vid=008c8db6-be2b-43ce-8a53-8af51fd8b577"},"vehicle_type_id":"4","last_reported":1742897407,"current_range_meters":11200,"station_id":"","pricing_plan_id":"cebpf4jnsgd1na2vs0mg"},{"bike_id":"46774e41-cc26-42e2-8ed3-a8ea17d2f850","system_id":"levelo_inurba_marseille","lat":43.31367,"lon":5.36712,"is_reserved":false,"is_disabled":false,"rental_uris":{"android":"levelo://app?vid=46774e41-cc26-42e2-8ed3-a8ea17d2f850","ios":"levelo://app?vid=46774e41-cc26-42e2-8ed3-a8ea17d2f850"},"vehicle_type_id":"4","last_reported":1742897407,"current_range_meters":11200,"station_id":"","pricing_plan_id":"cebpf4jnsgd1na2vs0mg"},{"bike_id":"e8eec122-897f-4919-9ee8-6b5e49b87083","system_id":"levelo_inurba_marseille","lat":43.2592,"lon":5.40884,"is_reserved":false,"is_disabled":false,"rental_uris":{"android":"levelo://app?vid=e8eec122-897f-4919-9ee8-6b5e49b87083","ios":"levelo://app?vid=e8eec122-897f-4919-9ee8-6b5e49b87083"},"vehicle_type_id":"4","last_reported":1742897407,"current_range_meters":11200,"station_id":"ce4bhm92rcd13ifvqglg","pricing_plan_id":"cebpf4jnsgd1na2vs0mg"},{"bike_id":"5384092f-c321-4ed0-be34-1a3deeeb45f6","system_id":"levelo_inurba_marseille","lat":43.240723,"lon":5.37763,"is_reserved":false,"is_disabled":false,"rental_uris":{"android":"levelo://app?vid=5384092f-c321-4ed0-be34-1a3deeeb45f6","ios":"levelo://app?vid=5384092f-c321-4ed0-be34-1a3deeeb45f6"},"vehicle_type_id":"4","last_reported":1742897407,"current_range_meters":11600,"station_id":"ce4bhnp2rcd13ifvqgvg","pricing_plan_id":"cebpf4jnsgd1na2vs0mg"},{"bike_id":"670214b8-0c1a-44c6-9ec1-e4e7883cf534","system_id":"levelo_inurba_marseille","lat":43.3055,"lon":5.36531,"is_reserved":false,"is_disabled":false,"rental_uris":{"android":"levelo://app?vid=670214b8-0c1a-44c6-9ec1-e4e7883cf534","ios":"levelo://app?vid=670214b8-0c1a-44c6-9ec1-e4e7883cf534"},"vehicle_type_id":"4","last_reported":1742897407,"current_range_meters":11600,"station_id":"","pricing_plan_id":"cebpf4jnsgd1na2vs0mg"},{"bike_id":"ace43cfe-b437-48b9-b5c2-18646dce5340","system_id":"levelo_inurba_marseille","lat":43.283783,"lon":5.386351,"is_reserved":false,"is_disabled":false,"rental_uris":{"android":"levelo://app?vid=ace43cfe-b437-48b9-b5c2-18646dce5340","ios":"levelo://app?vid=ace43cfe-b437-48b9-b5c2-18646dce5340"},"vehicle_type_id":"4","last_reported":1742897407,"current_range_meters":11200,"station_id":"ce4bhbp2rcd13ifvqerg","pricing_plan_id":"cebpf4jnsgd1na2vs0mg"},{"bike_id":"e23380cf-f456-409f-a218-d46098b2014a","system_id":"levelo_inurba_marseille","lat":43.29639,"lon":5.37182,"is_reserved":false,"is_disabled":false,"rental_uris":{"android":"levelo://app?vid=e23380cf-f456-409f-a218-d46098b2014a","ios":"levelo://app?vid=e23380cf-f456-409f-a218-d46098b2014a"},"vehicle_type_id":"4","last_reported":1742897407,"current_range_meters":11600,"station_id":"ce4bgnh2rcd13ifvqc0g","pricing_plan_id":"cebpf4jnsgd1na2vs0mg"},{"bike_id":"f1c0b357-aaf4-49ea-ba54-47d989634115","system_id":"levelo_inurba_marseille","lat":43.32483,"lon":5.36557,"is_reserved":false,"is_disabled":false,"rental_uris":{"android":"levelo://app?vid=f1c0b357-aaf4-49ea-ba54-47d989634115","ios":"levelo://app?vid=f1c0b357-aaf4-49ea-ba54-47d989634115"},"vehicle_type_id":"4","last_reported":1742897407,"current_range_meters":11600,"station_id":"ce4bhs12rcd13ifvqhvg","pricing_plan_id":"cebpf4jnsgd1na2vs0mg"},{"bike_id":"8583bcae-e817-4db7-ab92-448c595780ea","system_id":"levelo_inurba_marseille","lat":43.330165,"lon":5.390371,"is_reserved":false,"is_disabled":false,"rental_uris":{"android":"levelo://app?vid=8583bcae-e817-4db7-ab92-448c595780ea","ios":"levelo://app?vid=8583bcae-e817-4db7-ab92-448c595780ea"},"vehicle_type_id":"4","last_reported":1742897407,"current_range_meters":12000,"station_id":"","pricing_plan_id":"cebpf4jnsgd1na2vs0mg"},{"bike_id":"296b5cd8-4505-4fc7-9997-f00b6f3ecfea","system_id":"levelo_inurba_marseille","lat":43.27318,"lon":5.39078,"is_reserved":false,"is_disabled":false,"rental_uris":{"android":"levelo://app?vid=296b5cd8-4505-4fc7-9997-f00b6f3ecfea","ios":"levelo://app?vid=296b5cd8-4505-4fc7-9997-f00b6f3ecfea"},"vehicle_type_id":"4","last_reported":1742897407,"current_range_meters":11600,"station_id":"ce4bhgp2rcd13ifvqfe0","pricing_plan_id":"cebpf4jnsgd1na2vs0mg"},{"bike_id":"f90d38a0-6039-414a-8cd5-326982dd21a0","system_id":"levelo_inurba_marseille","lat":43.2439,"lon":5.37064,"is_reserved":false,"is_disabled":false,"rental_uris":{"android":"levelo://app?vid=f90d38a0-6039-414a-8cd5-326982dd21a0","ios":"levelo://app?vid=f90d38a0-6039-414a-8cd5-326982dd21a0"},"vehicle_type_id":"4","last_reported":1742897407,"current_range_meters":12000,"station_id":"ce4bhhh2rcd13ifvqfk0","pricing_plan_id":"cebpf4jnsgd1na2vs0mg"},{"bike_id":"5aeb641c-8c67-430e-bd09-77076d22412d","system_id":"levelo_inurba_marseille","lat":43.31053,"lon":5.37538,"is_reserved":false,"is_disabled":false,"rental_uris":{"android":"levelo://app?vid=5aeb641c-8c67-430e-bd09-77076d22412d","ios":"levelo://app?vid=5aeb641c-8c67-430e-bd09-77076d22412d"},"vehicle_type_id":"4","last_reported":1742897407,"current_range_meters":12000,"station_id":"","pricing_plan_id":"cebpf4jnsgd1na2vs0mg"},{"bike_id":"ec0797cf-262d-499e-9531-657bd440e292","system_id":"levelo_inurba_marseille","lat":43.29854,"lon":5.3972,"is_reserved":false,"is_disabled":false,"rental_uris":{"android":"levelo://app?vid=ec0797cf-262d-499e-9531-657bd440e292","ios":"levelo://app?vid=ec0797cf-262d-499e-9531-657bd440e292"},"vehicle_type_id":"4","last_reported":1742897407,"current_range_meters":12000,"station_id":"ce4bh0h2rcd13ifvqd50","pricing_plan_id":"cebpf4jnsgd1na2vs0mg"},{"bike_id":"6633349b-54ae-41b8-88d5-61ec5d012302","system_id":"levelo_inurba_marseille","lat":43.32103,"lon":5.3678,"is_reserved":false,"is_disabled":false,"rental_uris":{"android":"levelo://app?vid=6633349b-54ae-41b8-88d5-61ec5d012302","ios":"levelo://app?vid=6633349b-54ae-41b8-88d5-61ec5d012302"},"vehicle_type_id":"4","last_reported":1742897407,"current_range_meters":12000,"station_id":"ce4bhrh2rcd13ifvqhug","pricing_plan_id":"cebpf4jnsgd1na2vs0mg"},{"bike_id":"844d3370-21e5-4de2-9d45-2b091e1157d6","system_id":"levelo_inurba_marseille","lat":43.23986,"lon":5.36636,"is_reserved":false,"is_disabled":false,"rental_uris":{"android":"levelo://app?vid=844d3370-21e5-4de2-9d45-2b091e1157d6","ios":"levelo://app?vid=844d3370-21e5-4de2-9d45-2b091e1157d6"},"vehicle_type_id":"4","last_reported":1742897407,"current_range_meters":12000,"station_id":"ce4bhi12rcd13ifvqfp0","pricing_plan_id":"cebpf4jnsgd1na2vs0mg"},{"bike_id":"50e3359a-15f1-4f66-bbc8-eed7afb5cb08","system_id":"levelo_inurba_marseille","lat":43.25938,"lon":5.40908,"is_reserved":false,"is_disabled":false,"rental_uris":{"android":"levelo://app?vid=50e3359a-15f1-4f66-bbc8-eed7afb5cb08","ios":"levelo://app?vid=50e3359a-15f1-4f66-bbc8-eed7afb5cb08"},"vehicle_type_id":"4","last_reported":1742897407,"current_range_meters":12000,"station_id":"ce4bhm92rcd13ifvqglg","pricing_plan_id":"cebpf4jnsgd1na2vs0mg"},{"bike_id":"14a7fa2c-fac1-4321-b2bc-58f9d1899727","system_id":"levelo_inurba_marseille","lat":43.31382,"lon":5.36721,"is_reserved":false,"is_disabled":false,"rental_uris":{"android":"levelo://app?vid=14a7fa2c-fac1-4321-b2bc-58f9d1899727","ios":"levelo://app?vid=14a7fa2c-fac1-4321-b2bc-58f9d1899727"},"vehicle_type_id":"4","last_reported":1742897407,"current_range_meters":12000,"station_id":"","pricing_plan_id":"cebpf4jnsgd1na2vs0mg"},{"bike_id":"0d716845-03fc-4662-a302-92a240d886b4","system_id":"levelo_inurba_marseille","lat":43.28625,"lon":5.37051,"is_reserved":false,"is_disabled":false,"rental_uris":{"android":"levelo://app?vid=0d716845-03fc-4662-a302-92a240d886b4","ios":"levelo://app?vid=0d716845-03fc-4662-a302-92a240d886b4"},"vehicle_type_id":"4","last_reported":1742897407,"current_range_meters":12400,"station_id":"ce4bht12rcd13ifvqi60","pricing_plan_id":"cebpf4jnsgd1na2vs0mg"},{"bike_id":"b599ec8c-9116-4cb3-980c-d0a7d1e83114","system_id":"levelo_inurba_marseille","lat":43.32498,"lon":5.36536,"is_reserved":false,"is_disabled":false,"rental_uris":{"android":"levelo://app?vid=b599ec8c-9116-4cb3-980c-d0a7d1e83114","ios":"levelo://app?vid=b599ec8c-9116-4cb3-980c-d0a7d1e83114"},"vehicle_type_id":"4","last_reported":1742897407,"current_range_meters":12400,"station_id":"ce4bhs12rcd13ifvqhvg","pricing_plan_id":"cebpf4jnsgd1na2vs0mg"},{"bike_id":"a288e6ad-ea74-4eb6-84bf-84284b71b0bc","system_id":"levelo_inurba_marseille","lat":43.28558,"lon":5.39487,"is_reserved":false,"is_disabled":false,"rental_uris":{"android":"levelo://app?vid=a288e6ad-ea74-4eb6-84bf-84284b71b0bc","ios":"levelo://app?vid=a288e6ad-ea74-4eb6-84bf-84284b71b0bc"},"vehicle_type_id":"4","last_reported":1742897407,"current_range_meters":12400,"station_id":"ce4bh292rcd13ifvqdg0","pricing_plan_id":"cebpf4jnsgd1na2vs0mg"},{"bike_id":"78f51557-d802-4a13-bf48-b1066afcb81f","system_id":"levelo_inurba_marseille","lat":43.2933,"lon":5.41153,"is_reserved":false,"is_disabled":false,"rental_uris":{"android":"levelo://app?vid=78f51557-d802-4a13-bf48-b1066afcb81f","ios":"levelo://app?vid=78f51557-d802-4a13-bf48-b1066afcb81f"},"vehicle_type_id":"4","last_reported":1742897407,"current_range_meters":12400,"station_id":"","pricing_plan_id":"cebpf4jnsgd1na2vs0mg"},{"bike_id":"1be1b1b5-c3ab-4438-88e5-44142c879c45","system_id":"levelo_inurba_marseille","lat":43.30163,"lon":5.38086,"is_reserved":false,"is_disabled":false,"rental_uris":{"android":"levelo://app?vid=1be1b1b5-c3ab-4438-88e5-44142c879c45","ios":"levelo://app?vid=1be1b1b5-c3ab-4438-88e5-44142c879c45"},"vehicle_type_id":"4","last_reported":1742897407,"current_range_meters":12400,"station_id":"ce4bgjp2rcd13ifvqbh0","pricing_plan_id":"cebpf4jnsgd1na2vs0mg"},{"bike_id":"19f5c6f1-a62f-4a9b-b898-c356fef0f71a","system_id":"levelo_inurba_marseille","lat":43.26219,"lon":5.40465,"is_reserved":false,"is_disabled":false,"rental_uris":{"android":"levelo://app?vid=19f5c6f1-a62f-4a9b-b898-c356fef0f71a","ios":"levelo://app?vid=19f5c6f1-a62f-4a9b-b898-c356fef0f71a"},"vehicle_type_id":"4","last_reported":1742897407,"current_range_meters":12400,"station_id":"ce4bhmh2rcd13ifvqgmg","pricing_plan_id":"cebpf4jnsgd1na2vs0mg"},{"bike_id":"36412f8a-38fd-4f58-a125-dba7b430273c","system_id":"levelo_inurba_marseille","lat":43.301505,"lon":5.38085,"is_reserved":false,"is_disabled":false,"rental_uris":{"android":"levelo://app?vid=36412f8a-38fd-4f58-a125-dba7b430273c","ios":"levelo://app?vid=36412f8a-38fd-4f58-a125-dba7b430273c"},"vehicle_type_id":"4","last_reported":1742897407,"current_range_meters":12800,"station_id":"ce4bgjp2rcd13ifvqbh0","pricing_plan_id":"cebpf4jnsgd1na2vs0mg"},{"bike_id":"c8f49b9a-59a1-499f-ba79-9d31371c115d","system_id":"levelo_inurba_marseille","lat":43.2968,"lon":5.37297,"is_reserved":false,"is_disabled":false,"rental_uris":{"android":"levelo://app?vid=c8f49b9a-59a1-499f-ba79-9d31371c115d","ios":"levelo://app?vid=c8f49b9a-59a1-499f-ba79-9d31371c115d"},"vehicle_type_id":"4","last_reported":1742897407,"current_range_meters":12800,"station_id":"ce4bgk12rcd13ifvqbj0","pricing_plan_id":"cebpf4jnsgd1na2vs0mg"},{"bike_id":"38351309-2dec-417c-a558-74c8bc991036","system_id":"levelo_inurba_marseille","lat":43.3085,"lon":5.40601,"is_reserved":false,"is_disabled":true,"rental_uris":{"android":"levelo://app?vid=38351309-2dec-417c-a558-74c8bc991036","ios":"levelo://app?vid=38351309-2dec-417c-a558-74c8bc991036"},"vehicle_type_id":"4","last_reported":1742897407,"current_range_meters":12800,"station_id":"","pricing_plan_id":"cebpf4jnsgd1na2vs0mg"},{"bike_id":"98d38a64-15b2-410c-b614-5635d097b9ba","system_id":"levelo_inurba_marseille","lat":43.30294,"lon":5.39197,"is_reserved":false,"is_disabled":true,"rental_uris":{"android":"levelo://app?vid=98d38a64-15b2-410c-b614-5635d097b9ba","ios":"levelo://app?vid=98d38a64-15b2-410c-b614-5635d097b9ba"},"vehicle_type_id":"4","last_reported":1742897407,"current_range_meters":12800,"station_id":"ce4bgkh2rcd13ifvqbk0","pricing_plan_id":"cebpf4jnsgd1na2vs0mg"},{"bike_id":"379b9c8a-0bf3-4edf-ac5a-21e3921d4ff9","system_id":"levelo_inurba_marseille","lat":43.279741,"lon":5.387444,"is_reserved":false,"is_disabled":false,"rental_uris":{"android":"levelo://app?vid=379b9c8a-0bf3-4edf-ac5a-21e3921d4ff9","ios":"levelo://app?vid=379b9c8a-0bf3-4edf-ac5a-21e3921d4ff9"},"vehicle_type_id":"4","last_reported":1742897407,"current_range_meters":13600,"station_id":"ce4bhg12rcd13ifvqf80","pricing_plan_id":"cebpf4jnsgd1na2vs0mg"},{"bike_id":"c7e4f9b6-ef9d-4c18-93a6-9d7c570d7304","system_id":"levelo_inurba_marseille","lat":43.25907,"lon":5.40892,"is_reserved":false,"is_disabled":false,"rental_uris":{"android":"levelo://app?vid=c7e4f9b6-ef9d-4c18-93a6-9d7c570d7304","ios":"levelo://app?vid=c7e4f9b6-ef9d-4c18-93a6-9d7c570d7304"},"vehicle_type_id":"4","last_reported":1742897407,"current_range_meters":13600,"station_id":"ce4bhm92rcd13ifvqglg","pricing_plan_id":"cebpf4jnsgd1na2vs0mg"},{"bike_id":"8199a0eb-76cb-4382-a422-cdf065991439","system_id":"levelo_inurba_marseille","lat":43.29887,"lon":5.39727,"is_reserved":false,"is_disabled":false,"rental_uris":{"android":"levelo://app?vid=8199a0eb-76cb-4382-a422-cdf065991439","ios":"levelo://app?vid=8199a0eb-76cb-4382-a422-cdf065991439"},"vehicle_type_id":"4","last_reported":1742897407,"current_range_meters":13600,"station_id":"ce4bh0h2rcd13ifvqd50","pricing_plan_id":"cebpf4jnsgd1na2vs0mg"},{"bike_id":"cf73cd3c-03fb-47a0-8093-e19dd0c7596f","system_id":"levelo_inurba_marseille","lat":43.25928,"lon":5.40893,"is_reserved":false,"is_disabled":false,"rental_uris":{"android":"levelo://app?vid=cf73cd3c-03fb-47a0-8093-e19dd0c7596f","ios":"levelo://app?vid=cf73cd3c-03fb-47a0-8093-e19dd0c7596f"},"vehicle_type_id":"4","last_reported":1742897407,"current_range_meters":13600,"station_id":"ce4bhm92rcd13ifvqglg","pricing_plan_id":"cebpf4jnsgd1na2vs0mg"},{"bike_id":"4a3cef67-7854-486a-96a1-875577c9d100","system_id":"levelo_inurba_marseille","lat":43.280906,"lon":5.396716,"is_reserved":false,"is_disabled":true,"rental_uris":{"android":"levelo://app?vid=4a3cef67-7854-486a-96a1-875577c9d100","ios":"levelo://app?vid=4a3cef67-7854-486a-96a1-875577c9d100"},"vehicle_type_id":"4","last_reported":1742897407,"current_range_meters":13600,"station_id":"ce4bho12rcd13ifvqh2g","pricing_plan_id":"cebpf4jnsgd1na2vs0mg"},{"bike_id":"65a8b4a2-0499-4bb6-a7b9-112a5c30f0ad","system_id":"levelo_inurba_marseille","lat":43.26796,"lon":5.39422,"is_reserved":false,"is_disabled":false,"rental_uris":{"android":"levelo://app?vid=65a8b4a2-0499-4bb6-a7b9-112a5c30f0ad","ios":"levelo://app?vid=65a8b4a2-0499-4bb6-a7b9-112a5c30f0ad"},"vehicle_type_id":"4","last_reported":1742897407,"current_range_meters":13600,"station_id":"ce4bhh12rcd13ifvqfg0","pricing_plan_id":"cebpf4jnsgd1na2vs0mg"},{"bike_id":"348aafb6-710f-4f70-a308-412fbd7b5b6c","system_id":"levelo_inurba_marseille","lat":43.31395,"lon":5.36696,"is_reserved":false,"is_disabled":false,"rental_uris":{"android":"levelo://app?vid=348aafb6-710f-4f70-a308-412fbd7b5b6c","ios":"levelo://app?vid=348aafb6-710f-4f70-a308-412fbd7b5b6c"},"vehicle_type_id":"4","last_reported":1742897407,"current_range_meters":13600,"station_id":"","pricing_plan_id":"cebpf4jnsgd1na2vs0mg"},{"bike_id":"1fd41051-ac53-4a0e-8381-8ff618588c67","system_id":"levelo_inurba_marseille","lat":43.24653,"lon":5.38888,"is_reserved":false,"is_disabled":false,"rental_uris":{"android":"levelo://app?vid=1fd41051-ac53-4a0e-8381-8ff618588c67","ios":"levelo://app?vid=1fd41051-ac53-4a0e-8381-8ff618588c67"},"vehicle_type_id":"4","last_reported":1742897407,"current_range_meters":13600,"station_id":"ce4bhg12rcd13ifvqf60","pricing_plan_id":"cebpf4jnsgd1na2vs0mg"},{"bike_id":"f28a28aa-72bf-4178-ad8f-4eaeef70955b","system_id":"levelo_inurba_marseille","lat":43.27503,"lon":5.42457,"is_reserved":false,"is_disabled":false,"rental_uris":{"android":"levelo://app?vid=f28a28aa-72bf-4178-ad8f-4eaeef70955b","ios":"levelo://app?vid=f28a28aa-72bf-4178-ad8f-4eaeef70955b"},"vehicle_type_id":"4","last_reported":1742897407,"current_range_meters":14000,"station_id":"ce4bhn92rcd13ifvqgrg","pricing_plan_id":"cebpf4jnsgd1na2vs0mg"},{"bike_id":"669a03dd-86fc-4194-9d1f-57d32977ea07","system_id":"levelo_inurba_marseille","lat":43.25086,"lon":5.39511,"is_reserved":false,"is_disabled":false,"rental_uris":{"android":"levelo://app?vid=669a03dd-86fc-4194-9d1f-57d32977ea07","ios":"levelo://app?vid=669a03dd-86fc-4194-9d1f-57d32977ea07"},"vehicle_type_id":"4","last_reported":1742897407,"current_range_meters":14000,"station_id":"ce4bhm12rcd13ifvqgkg","pricing_plan_id":"cebpf4jnsgd1na2vs0mg"},{"bike_id":"f9c9aa98-e1c3-4b06-abab-f4b6d21ba612","system_id":"levelo_inurba_marseille","lat":43.23136,"lon":5.43699,"is_reserved":false,"is_disabled":false,"rental_uris":{"android":"levelo://app?vid=f9c9aa98-e1c3-4b06-abab-f4b6d21ba612","ios":"levelo://app?vid=f9c9aa98-e1c3-4b06-abab-f4b6d21ba612"},"vehicle_type_id":"4","last_reported":1742897407,"current_range_meters":14000,"station_id":"ce4bhmp2rcd13ifvqgog","pricing_plan_id":"cebpf4jnsgd1na2vs0mg"},{"bike_id":"4bf82290-6c34-4724-be7a-fccc387df49e","system_id":"levelo_inurba_marseille","lat":43.31488,"lon":5.37264,"is_reserved":false,"is_disabled":false,"rental_uris":{"android":"levelo://app?vid=4bf82290-6c34-4724-be7a-fccc387df49e","ios":"levelo://app?vid=4bf82290-6c34-4724-be7a-fccc387df49e"},"vehicle_type_id":"4","last_reported":1742897407,"current_range_meters":14000,"station_id":"ce4bgt12rcd13ifvqcd0","pricing_plan_id":"cebpf4jnsgd1na2vs0mg"},{"bike_id":"f0be6a28-0704-4c16-9f46-760558bd99be","system_id":"levelo_inurba_marseille","lat":43.28266,"lon":5.35065,"is_reserved":false,"is_disabled":false,"rental_uris":{"android":"levelo://app?vid=f0be6a28-0704-4c16-9f46-760558bd99be","ios":"levelo://app?vid=f0be6a28-0704-4c16-9f46-760558bd99be"},"vehicle_type_id":"4","last_reported":1742897407,"current_range_meters":14000,"station_id":"ce4bhbp2rcd13ifvqerg","pricing_plan_id":"cebpf4jnsgd1na2vs0mg"},{"bike_id":"fccb3d1f-d221-460d-8e7e-96b944966360","system_id":"levelo_inurba_marseille","lat":43.26801,"lon":5.40233,"is_reserved":false,"is_disabled":false,"rental_uris":{"android":"levelo://app?vid=fccb3d1f-d221-460d-8e7e-96b944966360","ios":"levelo://app?vid=fccb3d1f-d221-460d-8e7e-96b944966360"},"vehicle_type_id":"4","last_reported":1742897407,"current_range_meters":14000,"station_id":"ce501612rcd8frsf0b60","pricing_plan_id":"cebpf4jnsgd1na2vs0mg"},{"bike_id":"42c5abe4-9779-4faf-80f4-0022f8de1aa0","system_id":"levelo_inurba_marseille","lat":43.3122,"lon":5.36851,"is_reserved":false,"is_disabled":false,"rental_uris":{"android":"levelo://app?vid=42c5abe4-9779-4faf-80f4-0022f8de1aa0","ios":"levelo://app?vid=42c5abe4-9779-4faf-80f4-0022f8de1aa0"},"vehicle_type_id":"4","last_reported":1742897407,"current_range_meters":14000,"station_id":"","pricing_plan_id":"cebpf4jnsgd1na2vs0mg"},{"bike_id":"a664c280-0f85-4300-8ddf-2ac4585f71ba","system_id":"levelo_inurba_marseille","lat":43.25914,"lon":5.40875,"is_reserved":false,"is_disabled":false,"rental_uris":{"android":"levelo://app?vid=a664c280-0f85-4300-8ddf-2ac4585f71ba","ios":"levelo://app?vid=a664c280-0f85-4300-8ddf-2ac4585f71ba"},"vehicle_type_id":"4","last_reported":1742897407,"current_range_meters":14400,"station_id":"ce4bhm92rcd13ifvqglg","pricing_plan_id":"cebpf4jnsgd1na2vs0mg"},{"bike_id":"719a1301-5ab4-47b5-bcca-d89a71d72932","system_id":"levelo_inurba_marseille","lat":43.30447,"lon":5.37919,"is_reserved":false,"is_disabled":false,"rental_uris":{"android":"levelo://app?vid=719a1301-5ab4-47b5-bcca-d89a71d72932","ios":"levelo://app?vid=719a1301-5ab4-47b5-bcca-d89a71d72932"},"vehicle_type_id":"4","last_reported":1742897407,"current_range_meters":14400,"station_id":"ce4bgup2rcd13ifvqcn0","pricing_plan_id":"cebpf4jnsgd1na2vs0mg"},{"bike_id":"1697d1ce-8d8b-44cc-8fbe-26493ede4c93","system_id":"levelo_inurba_marseille","lat":43.25952,"lon":5.4091,"is_reserved":false,"is_disabled":false,"rental_uris":{"android":"levelo://app?vid=1697d1ce-8d8b-44cc-8fbe-26493ede4c93","ios":"levelo://app?vid=1697d1ce-8d8b-44cc-8fbe-26493ede4c93"},"vehicle_type_id":"4","last_reported":1742897407,"current_range_meters":14400,"station_id":"ce4bhm92rcd13ifvqglg","pricing_plan_id":"cebpf4jnsgd1na2vs0mg"},{"bike_id":"682f6eaa-4c29-4c3b-a483-b3baee9bd977","system_id":"levelo_inurba_marseille","lat":43.25934,"lon":5.40889,"is_reserved":false,"is_disabled":false,"rental_uris":{"android":"levelo://app?vid=682f6eaa-4c29-4c3b-a483-b3baee9bd977","ios":"levelo://app?vid=682f6eaa-4c29-4c3b-a483-b3baee9bd977"},"vehicle_type_id":"4","last_reported":1742897407,"current_range_meters":14400,"station_id":"","pricing_plan_id":"cebpf4jnsgd1na2vs0mg"},{"bike_id":"07da3db8-374f-4f2c-ae96-cecf008a701b","system_id":"levelo_inurba_marseille","lat":43.290737,"lon":5.381032,"is_reserved":false,"is_disabled":false,"rental_uris":{"android":"levelo://app?vid=07da3db8-374f-4f2c-ae96-cecf008a701b","ios":"levelo://app?vid=07da3db8-374f-4f2c-ae96-cecf008a701b"},"vehicle_type_id":"4","last_reported":1742897407,"current_range_meters":14400,"station_id":"ce4bhoh2rcd13ifvqh5g","pricing_plan_id":"cebpf4jnsgd1na2vs0mg"},{"bike_id":"aedec838-dbfc-42bc-a713-a2da68624617","system_id":"levelo_inurba_marseille","lat":43.28283,"lon":5.35078,"is_reserved":false,"is_disabled":false,"rental_uris":{"android":"levelo://app?vid=aedec838-dbfc-42bc-a713-a2da68624617","ios":"levelo://app?vid=aedec838-dbfc-42bc-a713-a2da68624617"},"vehicle_type_id":"4","last_reported":1742897407,"current_range_meters":14000,"station_id":"ce4bhbp2rcd13ifvqerg","pricing_plan_id":"cebpf4jnsgd1na2vs0mg"},{"bike_id":"ef453275-c24e-4323-9aed-1f1d881419e2","system_id":"levelo_inurba_marseille","lat":43.26565,"lon":5.39004,"is_reserved":false,"is_disabled":false,"rental_uris":{"android":"levelo://app?vid=ef453275-c24e-4323-9aed-1f1d881419e2","ios":"levelo://app?vid=ef453275-c24e-4323-9aed-1f1d881419e2"},"vehicle_type_id":"4","last_reported":1742897407,"current_range_meters":14400,"station_id":"ce4bhe12rcd13ifvqf30","pricing_plan_id":"cebpf4jnsgd1na2vs0mg"},{"bike_id":"16425bab-e3d0-42ef-9237-8019cc2f40cd","system_id":"levelo_inurba_marseille","lat":43.2655,"lon":5.37293,"is_reserved":false,"is_disabled":false,"rental_uris":{"android":"levelo://app?vid=16425bab-e3d0-42ef-9237-8019cc2f40cd","ios":"levelo://app?vid=16425bab-e3d0-42ef-9237-8019cc2f40cd"},"vehicle_type_id":"4","last_reported":1742897407,"current_range_meters":14400,"station_id":"ce4bhg12rcd13ifvqf70","pricing_plan_id":"cebpf4jnsgd1na2vs0mg"},{"bike_id":"fc3eec86-5c89-461a-b54f-15ec4ee366fd","system_id":"levelo_inurba_marseille","lat":43.26578,"lon":5.38988,"is_reserved":false,"is_disabled":true,"rental_uris":{"android":"levelo://app?vid=fc3eec86-5c89-461a-b54f-15ec4ee366fd","ios":"levelo://app?vid=fc3eec86-5c89-461a-b54f-15ec4ee366fd"},"vehicle_type_id":"4","last_reported":1742897407,"current_range_meters":14400,"station_id":"ce4bhe12rcd13ifvqf30","pricing_plan_id":"cebpf4jnsgd1na2vs0mg"},{"bike_id":"6817dbe6-8e6e-4ad8-9510-3e5a79dbb19a","system_id":"levelo_inurba_marseille","lat":43.28913,"lon":5.36397,"is_reserved":false,"is_disabled":false,"rental_uris":{"android":"levelo://app?vid=6817dbe6-8e6e-4ad8-9510-3e5a79dbb19a","ios":"levelo://app?vid=6817dbe6-8e6e-4ad8-9510-3e5a79dbb19a"},"vehicle_type_id":"4","last_reported":1742897407,"current_range_meters":14000,"station_id":"ce4bhc92rcd13ifvqetg","pricing_plan_id":"cebpf4jnsgd1na2vs0mg"},{"bike_id":"38fb2eb0-2ce0-435c-b02e-f1847f67608e","system_id":"levelo_inurba_marseille","lat":43.27495,"lon":5.42446,"is_reserved":false,"is_disabled":false,"rental_uris":{"android":"levelo://app?vid=38fb2eb0-2ce0-435c-b02e-f1847f67608e","ios":"levelo://app?vid=38fb2eb0-2ce0-435c-b02e-f1847f67608e"},"vehicle_type_id":"4","last_reported":1742897407,"current_range_meters":14800,"station_id":"ce4bhn92rcd13ifvqgrg","pricing_plan_id":"cebpf4jnsgd1na2vs0mg"},{"bike_id":"01a3ecb8-45d3-469a-8994-81bcdf2458c3","system_id":"levelo_inurba_marseille","lat":43.257276,"lon":5.411099,"is_reserved":false,"is_disabled":false,"rental_uris":{"android":"levelo://app?vid=01a3ecb8-45d3-469a-8994-81bcdf2458c3","ios":"levelo://app?vid=01a3ecb8-45d3-469a-8994-81bcdf2458c3"},"vehicle_type_id":"4","last_reported":1742897407,"current_range_meters":14800,"station_id":"","pricing_plan_id":"cebpf4jnsgd1na2vs0mg"},{"bike_id":"ca7ff012-4cce-4f35-a2b3-f7b34a218579","system_id":"levelo_inurba_marseille","lat":43.32487,"lon":5.36558,"is_reserved":false,"is_disabled":false,"rental_uris":{"android":"levelo://app?vid=ca7ff012-4cce-4f35-a2b3-f7b34a218579","ios":"levelo://app?vid=ca7ff012-4cce-4f35-a2b3-f7b34a218579"},"vehicle_type_id":"4","last_reported":1742897407,"current_range_meters":14800,"station_id":"ce4bhs12rcd13ifvqhvg","pricing_plan_id":"cebpf4jnsgd1na2vs0mg"},{"bike_id":"abb22710-ebaa-48c0-a567-4f6284c230c6","system_id":"levelo_inurba_marseille","lat":43.29969,"lon":5.38484,"is_reserved":false,"is_disabled":false,"rental_uris":{"android":"levelo://app?vid=abb22710-ebaa-48c0-a567-4f6284c230c6","ios":"levelo://app?vid=abb22710-ebaa-48c0-a567-4f6284c230c6"},"vehicle_type_id":"4","last_reported":1742897407,"current_range_meters":14800,"station_id":"ce4bgj92rcd13ifvqbd0","pricing_plan_id":"cebpf4jnsgd1na2vs0mg"},{"bike_id":"3e903c35-724b-4c50-bd5d-8b2bb4f010aa","system_id":"levelo_inurba_marseille","lat":43.28511,"lon":5.38563,"is_reserved":false,"is_disabled":false,"rental_uris":{"android":"levelo://app?vid=3e903c35-724b-4c50-bd5d-8b2bb4f010aa","ios":"levelo://app?vid=3e903c35-724b-4c50-bd5d-8b2bb4f010aa"},"vehicle_type_id":"4","last_reported":1742897407,"current_range_meters":14800,"station_id":"ce4bh8p2rcd13ifvqeb0","pricing_plan_id":"cebpf4jnsgd1na2vs0mg"},{"bike_id":"b2e3c026-82ef-4e38-840e-448c79c05902","system_id":"levelo_inurba_marseille","lat":43.31685,"lon":5.40467,"is_reserved":false,"is_disabled":false,"rental_uris":{"android":"levelo://app?vid=b2e3c026-82ef-4e38-840e-448c79c05902","ios":"levelo://app?vid=b2e3c026-82ef-4e38-840e-448c79c05902"},"vehicle_type_id":"4","last_reported":1742897407,"current_range_meters":14800,"station_id":"ce4bh012rcd13ifvqd00","pricing_plan_id":"cebpf4jnsgd1na2vs0mg"},{"bike_id":"b949dccb-c8af-4318-9be7-4d2310eb048a","system_id":"levelo_inurba_marseille","lat":43.23159,"lon":5.43715,"is_reserved":false,"is_disabled":false,"rental_uris":{"android":"levelo://app?vid=b949dccb-c8af-4318-9be7-4d2310eb048a","ios":"levelo://app?vid=b949dccb-c8af-4318-9be7-4d2310eb048a"},"vehicle_type_id":"4","last_reported":1742897407,"current_range_meters":14800,"station_id":"ce4bhmp2rcd13ifvqgog","pricing_plan_id":"cebpf4jnsgd1na2vs0mg"},{"bike_id":"ccb7e9b2-e1da-4475-b002-ea2df1a5517f","system_id":"levelo_inurba_marseille","lat":43.33759,"lon":5.37455,"is_reserved":false,"is_disabled":false,"rental_uris":{"android":"levelo://app?vid=ccb7e9b2-e1da-4475-b002-ea2df1a5517f","ios":"levelo://app?vid=ccb7e9b2-e1da-4475-b002-ea2df1a5517f"},"vehicle_type_id":"4","last_reported":1742897407,"current_range_meters":14800,"station_id":"","pricing_plan_id":"cebpf4jnsgd1na2vs0mg"},{"bike_id":"f7d630ab-464c-4b77-a6e3-d48c110c7e85","system_id":"levelo_inurba_marseille","lat":43.30293,"lon":5.377,"is_reserved":false,"is_disabled":false,"rental_uris":{"android":"levelo://app?vid=f7d630ab-464c-4b77-a6e3-d48c110c7e85","ios":"levelo://app?vid=f7d630ab-464c-4b77-a6e3-d48c110c7e85"},"vehicle_type_id":"4","last_reported":1742897407,"current_range_meters":15200,"station_id":"ce4bguh2rcd13ifvqcj0","pricing_plan_id":"cebpf4jnsgd1na2vs0mg"},{"bike_id":"df1efd5f-be49-4301-af80-2a80146ee489","system_id":"levelo_inurba_marseille","lat":43.27503,"lon":5.42455,"is_reserved":false,"is_disabled":true,"rental_uris":{"android":"levelo://app?vid=df1efd5f-be49-4301-af80-2a80146ee489","ios":"levelo://app?vid=df1efd5f-be49-4301-af80-2a80146ee489"},"vehicle_type_id":"4","last_reported":1742897407,"current_range_meters":15200,"station_id":"ce4bhn92rcd13ifvqgrg","pricing_plan_id":"cebpf4jnsgd1na2vs0mg"},{"bike_id":"7ce11575-e97f-4612-b902-072bfedc7f4e","system_id":"levelo_inurba_marseille","lat":43.30321,"lon":5.36916,"is_reserved":false,"is_disabled":false,"rental_uris":{"android":"levelo://app?vid=7ce11575-e97f-4612-b902-072bfedc7f4e","ios":"levelo://app?vid=7ce11575-e97f-4612-b902-072bfedc7f4e"},"vehicle_type_id":"4","last_reported":1742897407,"current_range_meters":15200,"station_id":"ce4bgqh2rcd13ifvqc5g","pricing_plan_id":"cebpf4jnsgd1na2vs0mg"},{"bike_id":"c0a6ee91-e903-4e25-865c-83e501e7c028","system_id":"levelo_inurba_marseille","lat":43.27513,"lon":5.42506,"is_reserved":false,"is_disabled":false,"rental_uris":{"android":"levelo://app?vid=c0a6ee91-e903-4e25-865c-83e501e7c028","ios":"levelo://app?vid=c0a6ee91-e903-4e25-865c-83e501e7c028"},"vehicle_type_id":"4","last_reported":1742897407,"current_range_meters":15200,"station_id":"ce4bhn92rcd13ifvqgrg","pricing_plan_id":"cebpf4jnsgd1na2vs0mg"},{"bike_id":"c541ef1a-225b-4ae1-9d71-6b3636c2d42f","system_id":"levelo_inurba_marseille","lat":43.23176,"lon":5.39947,"is_reserved":false,"is_disabled":false,"rental_uris":{"android":"levelo://app?vid=c541ef1a-225b-4ae1-9d71-6b3636c2d42f","ios":"levelo://app?vid=c541ef1a-225b-4ae1-9d71-6b3636c2d42f"},"vehicle_type_id":"4","last_reported":1742897407,"current_range_meters":15200,"station_id":"ce4bhn12rcd13ifvqgqg","pricing_plan_id":"cebpf4jnsgd1na2vs0mg"},{"bike_id":"da43d894-069e-486e-a738-14255c3635ad","system_id":"levelo_inurba_marseille","lat":43.26035,"lon":5.39359,"is_reserved":false,"is_disabled":false,"rental_uris":{"android":"levelo://app?vid=da43d894-069e-486e-a738-14255c3635ad","ios":"levelo://app?vid=da43d894-069e-486e-a738-14255c3635ad"},"vehicle_type_id":"4","last_reported":1742897407,"current_range_meters":15200,"station_id":"","pricing_plan_id":"cebpf4jnsgd1na2vs0mg"},{"bike_id":"4f819467-3097-4b84-bceb-7748358d258e","system_id":"levelo_inurba_marseille","lat":43.23963,"lon":5.3664,"is_reserved":false,"is_disabled":false,"rental_uris":{"android":"levelo://app?vid=4f819467-3097-4b84-bceb-7748358d258e","ios":"levelo://app?vid=4f819467-3097-4b84-bceb-7748358d258e"},"vehicle_type_id":"4","last_reported":1742897407,"current_range_meters":15200,"station_id":"ce4bhi12rcd13ifvqfp0","pricing_plan_id":"cebpf4jnsgd1na2vs0mg"},{"bike_id":"38599857-665e-4551-9ca4-4fd4ba3c4c9f","system_id":"levelo_inurba_marseille","lat":43.23195,"lon":5.39985,"is_reserved":false,"is_disabled":false,"rental_uris":{"android":"levelo://app?vid=38599857-665e-4551-9ca4-4fd4ba3c4c9f","ios":"levelo://app?vid=38599857-665e-4551-9ca4-4fd4ba3c4c9f"},"vehicle_type_id":"4","last_reported":1742897407,"current_range_meters":15200,"station_id":"ce4bhn12rcd13ifvqgqg","pricing_plan_id":"cebpf4jnsgd1na2vs0mg"},{"bike_id":"b052d2e2-e875-4904-a7e7-4c54f441a36b","system_id":"levelo_inurba_marseille","lat":43.31249,"lon":5.36862,"is_reserved":false,"is_disabled":false,"rental_uris":{"android":"levelo://app?vid=b052d2e2-e875-4904-a7e7-4c54f441a36b","ios":"levelo://app?vid=b052d2e2-e875-4904-a7e7-4c54f441a36b"},"vehicle_type_id":"4","last_reported":1742897407,"current_range_meters":15200,"station_id":"ce4bgl92rcd13ifvqbq0","pricing_plan_id":"cebpf4jnsgd1na2vs0mg"},{"bike_id":"4c2d390b-dd02-452a-b439-73d7800da70f","system_id":"levelo_inurba_marseille","lat":43.25942,"lon":5.40897,"is_reserved":false,"is_disabled":false,"rental_uris":{"android":"levelo://app?vid=4c2d390b-dd02-452a-b439-73d7800da70f","ios":"levelo://app?vid=4c2d390b-dd02-452a-b439-73d7800da70f"},"vehicle_type_id":"4","last_reported":1742897407,"current_range_meters":15200,"station_id":"ce4bhm92rcd13ifvqglg","pricing_plan_id":"cebpf4jnsgd1na2vs0mg"},{"bike_id":"a7ba97f8-94fd-49ae-9006-ab2c383704cb","system_id":"levelo_inurba_marseille","lat":43.30165,"lon":5.37417,"is_reserved":false,"is_disabled":false,"rental_uris":{"android":"levelo://app?vid=a7ba97f8-94fd-49ae-9006-ab2c383704cb","ios":"levelo://app?vid=a7ba97f8-94fd-49ae-9006-ab2c383704cb"},"vehicle_type_id":"4","last_reported":1742897407,"current_range_meters":15200,"station_id":"","pricing_plan_id":"cebpf4jnsgd1na2vs0mg"},{"bike_id":"7aac1fa6-8563-4483-89a1-e00634e9c45b","system_id":"levelo_inurba_marseille","lat":43.30318,"lon":5.369,"is_reserved":false,"is_disabled":false,"rental_uris":{"android":"levelo://app?vid=7aac1fa6-8563-4483-89a1-e00634e9c45b","ios":"levelo://app?vid=7aac1fa6-8563-4483-89a1-e00634e9c45b"},"vehicle_type_id":"4","last_reported":1742897407,"current_range_meters":15200,"station_id":"ce4bgqh2rcd13ifvqc5g","pricing_plan_id":"cebpf4jnsgd1na2vs0mg"},{"bike_id":"23b950d7-1aaa-4faf-aa38-9d41edf1a1ad","system_id":"levelo_inurba_marseille","lat":43.30416,"lon":5.41289,"is_reserved":false,"is_disabled":false,"rental_uris":{"android":"levelo://app?vid=23b950d7-1aaa-4faf-aa38-9d41edf1a1ad","ios":"levelo://app?vid=23b950d7-1aaa-4faf-aa38-9d41edf1a1ad"},"vehicle_type_id":"4","last_reported":1742897407,"current_range_meters":15200,"station_id":"ce4bhop2rcd13ifvqh8g","pricing_plan_id":"cebpf4jnsgd1na2vs0mg"},{"bike_id":"0b540e94-dc53-4a35-bbb0-09d2a4ca4d37","system_id":"levelo_inurba_marseille","lat":43.31341,"lon":5.36702,"is_reserved":false,"is_disabled":false,"rental_uris":{"android":"levelo://app?vid=0b540e94-dc53-4a35-bbb0-09d2a4ca4d37","ios":"levelo://app?vid=0b540e94-dc53-4a35-bbb0-09d2a4ca4d37"},"vehicle_type_id":"4","last_reported":1742897407,"current_range_meters":15200,"station_id":"ce4bgr92rcd13ifvqc6g","pricing_plan_id":"cebpf4jnsgd1na2vs0mg"},{"bike_id":"5fe09069-9270-4c60-a492-0096f4879762","system_id":"levelo_inurba_marseille","lat":43.29235,"lon":5.377313,"is_reserved":false,"is_disabled":false,"rental_uris":{"android":"levelo://app?vid=5fe09069-9270-4c60-a492-0096f4879762","ios":"levelo://app?vid=5fe09069-9270-4c60-a492-0096f4879762"},"vehicle_type_id":"4","last_reported":1742897407,"current_range_meters":15200,"station_id":"ce4bh5p2rcd13ifvqe4g","pricing_plan_id":"cebpf4jnsgd1na2vs0mg"},{"bike_id":"a81cdb96-c37a-4012-98fe-c3a7d84d6dd8","system_id":"levelo_inurba_marseille","lat":43.30935,"lon":5.36828,"is_reserved":false,"is_disabled":false,"rental_uris":{"android":"levelo://app?vid=a81cdb96-c37a-4012-98fe-c3a7d84d6dd8","ios":"levelo://app?vid=a81cdb96-c37a-4012-98fe-c3a7d84d6dd8"},"vehicle_type_id":"4","last_reported":1742897407,"current_range_meters":16000,"station_id":"ce4bgn92rcd13ifvqbvg","pricing_plan_id":"cebpf4jnsgd1na2vs0mg"},{"bike_id":"653815b1-cbe6-45a2-92aa-a1b7d05a609d","system_id":"levelo_inurba_marseille","lat":43.27504,"lon":5.42459,"is_reserved":false,"is_disabled":false,"rental_uris":{"android":"levelo://app?vid=653815b1-cbe6-45a2-92aa-a1b7d05a609d","ios":"levelo://app?vid=653815b1-cbe6-45a2-92aa-a1b7d05a609d"},"vehicle_type_id":"4","last_reported":1742897407,"current_range_meters":16000,"station_id":"ce4bhn92rcd13ifvqgrg","pricing_plan_id":"cebpf4jnsgd1na2vs0mg"},{"bike_id":"b9fe54a2-4ddb-4891-a1d3-b6c208eec625","system_id":"levelo_inurba_marseille","lat":43.29598,"lon":5.36721,"is_reserved":false,"is_disabled":false,"rental_uris":{"android":"levelo://app?vid=b9fe54a2-4ddb-4891-a1d3-b6c208eec625","ios":"levelo://app?vid=b9fe54a2-4ddb-4891-a1d3-b6c208eec625"},"vehicle_type_id":"4","last_reported":1742897407,"current_range_meters":16000,"station_id":"ce4bgph2rcd13ifvqc2g","pricing_plan_id":"cebpf4jnsgd1na2vs0mg"},{"bike_id":"84a7a785-5392-42bc-8088-fb903bcc7f5c","system_id":"levelo_inurba_marseille","lat":43.23073,"lon":5.35488,"is_reserved":false,"is_disabled":false,"rental_uris":{"android":"levelo://app?vid=84a7a785-5392-42bc-8088-fb903bcc7f5c","ios":"levelo://app?vid=84a7a785-5392-42bc-8088-fb903bcc7f5c"},"vehicle_type_id":"4","last_reported":1742897407,"current_range_meters":16000,"station_id":"cpo3342slgdg3j2ifvpg","pricing_plan_id":"cebpf4jnsgd1na2vs0mg"},{"bike_id":"0d20b273-875a-432a-ba76-d960497c4a6a","system_id":"levelo_inurba_marseille","lat":43.3056,"lon":5.36535,"is_reserved":false,"is_disabled":false,"rental_uris":{"android":"levelo://app?vid=0d20b273-875a-432a-ba76-d960497c4a6a","ios":"levelo://app?vid=0d20b273-875a-432a-ba76-d960497c4a6a"},"vehicle_type_id":"4","last_reported":1742897407,"current_range_meters":16000,"station_id":"ce4bgs12rcd13ifvqcag","pricing_plan_id":"cebpf4jnsgd1na2vs0mg"},{"bike_id":"56cdda37-ce98-40ee-a8cf-1237548ad2ed","system_id":"levelo_inurba_marseille","lat":43.239656,"lon":5.36632,"is_reserved":false,"is_disabled":false,"rental_uris":{"android":"levelo://app?vid=56cdda37-ce98-40ee-a8cf-1237548ad2ed","ios":"levelo://app?vid=56cdda37-ce98-40ee-a8cf-1237548ad2ed"},"vehicle_type_id":"4","last_reported":1742897407,"current_range_meters":16000,"station_id":"","pricing_plan_id":"cebpf4jnsgd1na2vs0mg"},{"bike_id":"a2a4dbc2-a9e8-44b5-a596-aa42699b8c22","system_id":"levelo_inurba_marseille","lat":43.25089,"lon":5.39512,"is_reserved":false,"is_disabled":true,"rental_uris":{"android":"levelo://app?vid=a2a4dbc2-a9e8-44b5-a596-aa42699b8c22","ios":"levelo://app?vid=a2a4dbc2-a9e8-44b5-a596-aa42699b8c22"},"vehicle_type_id":"4","last_reported":1742897407,"current_range_meters":16000,"station_id":"","pricing_plan_id":"cebpf4jnsgd1na2vs0mg"},{"bike_id":"c0f2612b-634c-4908-a605-d903f724111e","system_id":"levelo_inurba_marseille","lat":43.23148,"lon":5.43707,"is_reserved":false,"is_disabled":false,"rental_uris":{"android":"levelo://app?vid=c0f2612b-634c-4908-a605-d903f724111e","ios":"levelo://app?vid=c0f2612b-634c-4908-a605-d903f724111e"},"vehicle_type_id":"4","last_reported":1742897407,"current_range_meters":16000,"station_id":"ce4bhmp2rcd13ifvqgog","pricing_plan_id":"cebpf4jnsgd1na2vs0mg"},