{"last_updated":1751307327,"ttl":60,"version":"2.2","data":{"bikes":[{"bike_id":"3da29fb8-fc97-44c6-b9ac-31dd456b2fd4","system_id":"levelo_inurba_marseille","lat":43.33771,"lon":5.37424,"is_reserved":false,"is_disabled":true,"rental_uris":{"android":"levelo://app?vid=3da29fb8-fc97-44c6-b9ac-31dd456b2fd4","ios":"levelo://app?vid=3da29fb8-fc97-44c6-b9ac-31dd456b2fd4"},"vehicle_type_id":"4","last_reported":1751307327,"current_range_meters":0,"station_id":"","pricing_plan_id":"cebpf4jnsgd1na2vs0mg"},{"bike_id":"01861ad8-a8d7-4be6-816e-651927c87584","system_id":"levelo_inurba_marseille","lat":43.33751,"lon":5.37456,"is_reserved":false,"is_disabled":true,"rental_uris":{"android":"levelo://app?vid=01861ad8-a8d7-4be6-816e-651927c87584","ios":"levelo://app?vid=01861ad8-a8d7-4be6-816e-651927c87584"},"vehicle_type_id":"4","last_reported":1751307327,"current_range_meters":0,"station_id":"","pricing_plan_id":"cebpf4jnsgd1na2vs0mg"},{"bike_id":"29e697ca-26a6-4412-8107-f2c74b259edc","system_id":"levelo_inurba_marseille","lat":43.24211,"lon":5.3836,"is_reserved":false,"is_disabled":true,"rental_uris":{"android":"levelo://app?vid=29e697ca-26a6-4412-8107-f2c74b259edc","ios":"levelo://app?vid=29e697ca-26a6-4412-8107-f2c74b259edc"},"vehicle_type_id":"4","last_reported":1751307327,"current_range_meters":0,"station_id":"","pricing_plan_id":"cebpf4jnsgd1na2vs0mg"},{"bike_id":"f1483ff6-ae8a-4286-a635-7d40887e3e92","system_id":"levelo_inurba_marseille","lat":43.26984,"lon":5.36606,"is_reserved":false,"is_disabled":true,"rental_uris":{"android":"levelo://app?vid=f1483ff6-ae8a-4286-a635-7d40887e3e92","ios":"levelo://app?vid=f1483ff6-ae8a-4286-a635-7d40887e3e92"},"vehicle_type_id":"4","last_reported":1751307327,"current_range_meters":0,"station_id":"","pricing_plan_id":"cebpf4jnsgd1na2vs0mg"},{"bike_id":"69f3e486-7ece-4da3-bef1-7e43be44cf97","system_id":"levelo_inurba_marseille","lat":43.25634,"lon":5.41974,"is_reserved":false,"is_disabled":true,"rental_uris":{"android":"levelo://app?vid=69f3e486-7ece-4da3-bef1-7e43be44cf97","ios":"levelo://app?vid=69f3e486-7ece-4da3-bef1-7e43be44cf97"},"vehicle_type_id":"4","last_reported":1751307327,"current_range_meters":0,"station_id":"","pricing_plan_id":"cebpf4jnsgd1na2vs0mg"},{"bike_id":"a24f34b0-39ea-4314-9c87-5ae05f74564e","system_id":"levelo_inurba_marseille","lat":43.28889,"lon":5.36068,"is_reserved":false,"is_disabled":true,"rental_uris":{"android":"levelo://app?vid=a24f34b0-39ea-4314-9c87-5ae05f74564e","ios":"levelo://app?vid=a24f34b0-39ea-4314-9c87-5ae05f74564e"},"vehicle_type_id":"4","last_reported":1751307327,"current_range_meters":0,"station_id":"","pricing_plan_id":"cebpf4jnsgd1na2vs0mg"},{"bike_id":"aa6c1647-1ec8-42c9-91a4-38cc1052cdf1","system_id":"levelo_inurba_marseille","lat":43.25558,"lon":5.37653,"is_reserved":false,"is_disabled":true,"rental_uris":{"android":"levelo://app?vid=aa6c1647-1ec8-42c9-91a4-38cc1052cdf1","ios":"levelo://app?vid=aa6c1647-1ec8-42c9-91a4-38cc1052cdf1"},"vehicle_type_id":"4","last_reported":1751307327,"current_range_meters":0,"station_id":"","pricing_plan_id":"cebpf4jnsgd1na2vs0mg"},{"bike_id":"ecf07b5c-64b8-4039-b788-d6897d3b9351","system_id":"levelo_inurba_marseille","lat":43.29982,"lon":5.38487,"is_reserved":false,"is_disabled":true,"rental_uris":{"android":"levelo://app?vid=ecf07b5c-64b8-4039-b788-d6897d3b9351","ios":"levelo://app?vid=ecf07b5c-64b8-4039-b788-d6897d3b9351"},"vehicle_type_id":"4","last_reported":1751307327,"current_range_meters":0,"station_id":"ce4bgj92rcd13ifvqbd0","pricing_plan_id":"cebpf4jnsgd1na2vs0mg"},{"bike_id":"4de692e0-b5b9-4a89-ba2b-90d282f75421","system_id":"levelo_inurba_marseille","lat":43.30953,"lon":5.39028,"is_reserved":false,"is_disabled":true,"rental_uris":{"android":"levelo://app?vid=4de692e0-b5b9-4a89-ba2b-90d282f75421","ios":"levelo://app?vid=4de692e0-b5b9-4a89-ba2b-90d282f75421"},"vehicle_type_id":"4","last_reported":1751307327,"current_range_meters":0,"station_id":"ce4bgup2rcd13ifvqco0","pricing_plan_id":"cebpf4jnsgd1na2vs0mg"},{"bike_id":"2770c143-b000-416d-b8af-c5c838a1b9a3","system_id":"levelo_inurba_marseille","lat":43.31084,"lon":5.38341,"is_reserved":false,"is_disabled":true,"rental_uris":{"android":"levelo://app?vid=2770c143-b000-416d-b8af-c5c838a1b9a3","ios":"levelo://app?vid=2770c143-b000-416d-b8af-c5c838a1b9a3"},"vehicle_type_id":"4","last_reported":1751307327,"current_range_meters":0,"station_id":"ce4bgv92rcd13ifvqcr0","pricing_plan_id":"cebpf4jnsgd1na2vs0mg"},{"bike_id":"636ad468-4310-457e-a877-42427d47a87a","system_id":"levelo_inurba_marseille","lat":43.29647,"lon":5.40579,"is_reserved":false,"is_disabled":true,"rental_uris":{"android":"levelo://app?vid=636ad468-4310-457e-a877-42427d47a87a","ios":"levelo://app?vid=636ad468-4310-457e-a877-42427d47a87a"},"vehicle_type_id":"4","last_reported":1751307327,"current_range_meters":0,"station_id":"ce4bh0h2rcd13ifvqd60","pricing_plan_id":"cebpf4jnsgd1na2vs0mg"},{"bike_id":"c445fa39-a50e-415c-a5df-6752847bfbe2","system_id":"levelo_inurba_marseille","lat":43.289966,"lon":5.356206,"is_reserved":false,"is_disabled":true,"rental_uris":{"android":"levelo://app?vid=c445fa39-a50e-415c-a5df-6752847bfbe2","ios":"levelo://app?vid=c445fa39-a50e-415c-a5df-6752847bfbe2"},"vehicle_type_id":"4","last_reported":1751307327,"current_range_meters":0,"station_id":"ce4bhb92rcd13ifvqen0","pricing_plan_id":"cebpf4jnsgd1na2vs0mg"},{"bike_id":"35384ed9-ff08-4ba0-9fce-a55c55f035e8","system_id":"levelo_inurba_marseille","lat":43.28424,"lon":5.34977,"is_reserved":false,"is_disabled":true,"rental_uris":{"android":"levelo://app?vid=35384ed9-ff08-4ba0-9fce-a55c55f035e8","ios":"levelo://app?vid=35384ed9-ff08-4ba0-9fce-a55c55f035e8"},"vehicle_type_id":"4","last_reported":1751307327,"current_range_meters":0,"station_id":"ce4bhbh2rcd13ifvqepg","pricing_plan_id":"cebpf4jnsgd1na2vs0mg"},{"bike_id":"9468407f-68b3-42b0-b3c7-cd0a02e2e746","system_id":"levelo_inurba_marseille","lat":43.26558,"lon":5.37282,"is_reserved":false,"is_disabled":true,"rental_uris":{"android":"levelo://app?vid=9468407f-68b3-42b0-b3c7-cd0a02e2e746","ios":"levelo://app?vid=9468407f-68b3-42b0-b3c7-cd0a02e2e746"},"vehicle_type_id":"4","last_reported":1751307327,"current_range_meters":0,"station_id":"ce4bhg12rcd13ifvqf70","pricing_plan_id":"cebpf4jnsgd1na2vs0mg"},{"bike_id":"2115e83c-b071-411f-a5b1-214bf1cd1b22","system_id":"levelo_inurba_marseille","lat":43.266975,"lon":5.382814,"is_reserved":false,"is_disabled":true,"rental_uris":{"android":"levelo://app?vid=2115e83c-b071-411f-a5b1-214bf1cd1b22","ios":"levelo://app?vid=2115e83c-b071-411f-a5b1-214bf1cd1b22"},"vehicle_type_id":"4","last_reported":1751307327,"current_range_meters":0,"station_id":"ce4bhg92rcd13ifvqf90","pricing_plan_id":"cebpf4jnsgd1na2vs0mg"},{"bike_id":"b8f1161f-5beb-486b-9e35-073a95f19c62","system_id":"levelo_inurba_marseille","lat":43.269552,"lon":5.402135,"is_reserved":false,"is_disabled":true,"rental_uris":{"android":"levelo://app?vid=b8f1161f-5beb-486b-9e35-073a95f19c62","ios":"levelo://app?vid=b8f1161f-5beb-486b-9e35-073a95f19c62"},"vehicle_type_id":"4","last_reported":1751307327,"current_range_meters":0,"station_id":"ce4bhhp2rcd13ifvqfm0","pricing_plan_id":"cebpf4jnsgd1na2vs0mg"},{"bike_id":"1b16c9d4-ce29-42d1-862d-357829197edc","system_id":"levelo_inurba_marseille","lat":43.26481,"lon":5.39551,"is_reserved":false,"is_disabled":true,"rental_uris":{"android":"levelo://app?vid=1b16c9d4-ce29-42d1-862d-357829197edc","ios":"levelo://app?vid=1b16c9d4-ce29-42d1-862d-357829197edc"},"vehicle_type_id":"4","last_reported":1751307327,"current_range_meters":0,"station_id":"ce4bhi12rcd13ifvqfq0","pricing_plan_id":"cebpf4jnsgd1na2vs0mg"},{"bike_id":"27395e79-ea05-48d6-bd93-e6c18eda2fd7","system_id":"levelo_inurba_marseille","lat":43.2816,"lon":5.42635,"is_reserved":false,"is_disabled":true,"rental_uris":{"android":"levelo://app?vid=27395e79-ea05-48d6-bd93-e6c18eda2fd7","ios":"levelo://app?vid=27395e79-ea05-48d6-bd93-e6c18eda2fd7"},"vehicle_type_id":"4","last_reported":1751307327,"current_range_meters":0,"station_id":"ce4bhnh2rcd13ifvqgug","pricing_plan_id":"cebpf4jnsgd1na2vs0mg"},{"bike_id":"8233db61-1d36-41a5-a985-c98b6a5f0fb4","system_id":"levelo_inurba_marseille","lat":43.21752,"lon":5.34596,"is_reserved":false,"is_disabled":true,"rental_uris":{"android":"levelo://app?vid=8233db61-1d36-41a5-a985-c98b6a5f0fb4","ios":"levelo://app?vid=8233db61-1d36-41a5-a985-c98b6a5f0fb4"},"vehicle_type_id":"4","last_reported":1751307327,"current_range_meters":0,"station_id":"st_cvj6r9ubvosntc0bgbag","pricing_plan_id":"cebpf4jnsgd1na2vs0mg"},{"bike_id":"b8358384-5010-48ab-82ed-9476d2467db2","system_id":"levelo_inurba_marseille","lat":43.21769,"lon":5.34615,"is_reserved":false,"is_disabled":true,"rental_uris":{"android":"levelo://app?vid=b8358384-5010-48ab-82ed-9476d2467db2","ios":"levelo://app?vid=b8358384-5010-48ab-82ed-9476d2467db2"},"vehicle_type_id":"4","last_reported":1751307327,"current_range_meters":0,"station_id":"st_cvj6r9ubvosntc0bgbag","pricing_plan_id":"cebpf4jnsgd1na2vs0mg"},{"bike_id":"85eb80f1-fdf8-4910-9983-416402de22ff","system_id":"levelo_inurba_marseille","lat":43.276953,"lon":5.415488,"is_reserved":false,"is_disabled":true,"rental_uris":{"android":"levelo://app?vid=85eb80f1-fdf8-4910-9983-416402de22ff","ios":"levelo://app?vid=85eb80f1-fdf8-4910-9983-416402de22ff"},"vehicle_type_id":"4","last_reported":1751307327,"current_range_meters":400,"station_id":"","pricing_plan_id":"cebpf4jnsgd1na2vs0mg"},{"bike_id":"4bb4a733-a9bd-4772-9320-a8c7885ff73b","system_id":"levelo_inurba_marseille","lat":43.27821,"lon":5.35571,"is_reserved":false,"is_disabled":true,"rental_uris":{"android":"levelo://app?vid=4bb4a733-a9bd-4772-9320-a8c7885ff73b","ios":"levelo://app?vid=4bb4a733-a9bd-4772-9320-a8c7885ff73b"},"vehicle_type_id":"4","last_reported":1751307327,"current_range_meters":400,"station_id":"","pricing_plan_id":"cebpf4jnsgd1na2vs0mg"},{"bike_id":"62ff686a-e626-41cc-9481-d42da3af0426","system_id":"levelo_inurba_marseille","lat":43.26778,"lon":5.39417,"is_reserved":false,"is_disabled":true,"rental_uris":{"android":"levelo://app?vid=62ff686a-e626-41cc-9481-d42da3af0426","ios":"levelo://app?vid=62ff686a-e626-41cc-9481-d42da3af0426"},"vehicle_type_id":"4","last_reported":1751307327,"current_range_meters":400,"station_id":"ce4bhh12rcd13ifvqfg0","pricing_plan_id":"cebpf4jnsgd1na2vs0mg"},{"bike_id":"2452f6e5-ff96-4a3b-aaef-c4e3186048c8","system_id":"levelo_inurba_marseille","lat":43.33165,"lon":5.40008,"is_reserved":false,"is_disabled":true,"rental_uris":{"android":"levelo://app?vid=2452f6e5-ff96-4a3b-aaef-c4e3186048c8","ios":"levelo://app?vid=2452f6e5-ff96-4a3b-aaef-c4e3186048c8"},"vehicle_type_id":"4","last_reported":1751307327,"current_range_meters":800,"station_id":"","pricing_plan_id":"cebpf4jnsgd1na2vs0mg"},{"bike_id":"f9ee1768-89e6-48ac-aeee-e80783717dfc","system_id":"levelo_inurba_marseille","lat":43.29869,"lon":5.38897,"is_reserved":false,"is_disabled":true,"rental_uris":{"android":"levelo://app?vid=f9ee1768-89e6-48ac-aeee-e80783717dfc","ios":"levelo://app?vid=f9ee1768-89e6-48ac-aeee-e80783717dfc"},"vehicle_type_id":"4","last_reported":1751307327,"current_range_meters":800,"station_id":"ce4bh392rcd13ifvqdl0","pricing_plan_id":"cebpf4jnsgd1na2vs0mg"},{"bike_id":"36ce4c4e-b281-427a-a592-99a4d879befd","system_id":"levelo_inurba_marseille","lat":43.28405,"lon":5.37506,"is_reserved":false,"is_disabled":true,"rental_uris":{"android":"levelo://app?vid=36ce4c4e-b281-427a-a592-99a4d879befd","ios":"levelo://app?vid=36ce4c4e-b281-427a-a592-99a4d879befd"},"vehicle_type_id":"4","last_reported":1751307327,"current_range_meters":800,"station_id":"ce4bh412rcd13ifvqds0","pricing_plan_id":"cebpf4jnsgd1na2vs0mg"},{"bike_id":"e3506cc1-e130-4ef8-a56d-353119bc4dd7","system_id":"levelo_inurba_marseille","lat":43.29109,"lon":5.38121,"is_reserved":false,"is_disabled":true,"rental_uris":{"android":"levelo://app?vid=e3506cc1-e130-4ef8-a56d-353119bc4dd7","ios":"levelo://app?vid=e3506cc1-e130-4ef8-a56d-353119bc4dd7"},"vehicle_type_id":"4","last_reported":1751307327,"current_range_meters":800,"station_id":"ce4bh512rcd13ifvqe2g","pricing_plan_id":"cebpf4jnsgd1na2vs0mg"},{"bike_id":"a37e8def-144c-4d8d-aabf-950aca51f939","system_id":"levelo_inurba_marseille","lat":43.297702,"lon":5.38121,"is_reserved":false,"is_disabled":true,"rental_uris":{"android":"levelo://app?vid=a37e8def-144c-4d8d-aabf-950aca51f939","ios":"levelo://app?vid=a37e8def-144c-4d8d-aabf-950aca51f939"},"vehicle_type_id":"4","last_reported":1751307327,"current_range_meters":1200,"station_id":"","pricing_plan_id":"cebpf4jnsgd1na2vs0mg"},{"bike_id":"9e163c86-36ef-4269-bcd8-6c9e6f4075a0","system_id":"levelo_inurba_marseille","lat":43.30296,"lon":5.37157,"is_reserved":false,"is_disabled":true,"rental_uris":{"android":"levelo://app?vid=9e163c86-36ef-4269-bcd8-6c9e6f4075a0","ios":"levelo://app?vid=9e163c86-36ef-4269-bcd8-6c9e6f4075a0"},"vehicle_type_id":"4","last_reported":1751307327,"current_range_meters":1600,"station_id":"","pricing_plan_id":"cebpf4jnsgd1na2vs0mg"},{"bike_id":"c0890ac7-b05a-475e-b613-7f264733f6e6","system_id":"levelo_inurba_marseille","lat":43.310755,"lon":5.38355,"is_reserved":false,"is_disabled":true,"rental_uris":{"android":"levelo://app?vid=c0890ac7-b05a-475e-b613-7f264733f6e6","ios":"levelo://app?vid=c0890ac7-b05a-475e-b613-7f264733f6e6"},"vehicle_type_id":"4","last_reported":1751307327,"current_range_meters":1600,"station_id":"ce4bgv92rcd13ifvqcr0","pricing_plan_id":"cebpf4jnsgd1na2vs0mg"},{"bike_id":"3c032117-1937-4b4a-b015-a38ccbf88c9b","system_id":"levelo_inurba_marseille","lat":43.26557,"lon":5.37281,"is_reserved":false,"is_disabled":true,"rental_uris":{"android":"levelo://app?vid=3c032117-1937-4b4a-b015-a38ccbf88c9b","ios":"levelo://app?vid=3c032117-1937-4b4a-b015-a38ccbf88c9b"},"vehicle_type_id":"4","last_reported":1751307327,"current_range_meters":1600,"station_id":"ce4bhg12rcd13ifvqf70","pricing_plan_id":"cebpf4jnsgd1na2vs0mg"},{"bike_id":"77e12d30-d5cd-4e0f-a247-10b3b84cc3c8","system_id":"levelo_inurba_marseille","lat":43.31867,"lon":5.42444,"is_reserved":false,"is_disabled":true,"rental_uris":{"android":"levelo://app?vid=77e12d30-d5cd-4e0f-a247-10b3b84cc3c8","ios":"levelo://app?vid=77e12d30-d5cd-4e0f-a247-10b3b84cc3c8"},"vehicle_type_id":"4","last_reported":1751307327,"current_range_meters":2000,"station_id":"","pricing_plan_id":"cebpf4jnsgd1na2vs0mg"},{"bike_id":"fb2aa4e7-c995-41d4-aba3-8a5c72ade8cd","system_id":"levelo_inurba_marseille","lat":43.30637,"lon":5.40093,"is_reserved":false,"is_disabled":true,"rental_uris":{"android":"levelo://app?vid=fb2aa4e7-c995-41d4-aba3-8a5c72ade8cd","ios":"levelo://app?vid=fb2aa4e7-c995-41d4-aba3-8a5c72ade8cd"},"vehicle_type_id":"4","last_reported":1751307327,"current_range_meters":2000,"station_id":"ce4bh112rcd13ifvqda0","pricing_plan_id":"cebpf4jnsgd1na2vs0mg"},{"bike_id":"1bc2660e-f023-4cec-b853-0d890d8643be","system_id":"levelo_inurba_marseille","lat":43.33604,"lon":5.41034,"is_reserved":false,"is_disabled":true,"rental_uris":{"android":"levelo://app?vid=1bc2660e-f023-4cec-b853-0d890d8643be","ios":"levelo://app?vid=1bc2660e-f023-4cec-b853-0d890d8643be"},"vehicle_type_id":"4","last_reported":1751307327,"current_range_meters":2000,"station_id":"ce4bhqh2rcd13ifvqhmg","pricing_plan_id":"cebpf4jnsgd1na2vs0mg"},{"bike_id":"d5b5bc74-aaeb-40c0-b979-fb1a262527de","system_id":"levelo_inurba_marseille","lat":43.33196,"lon":5.35879,"is_reserved":false,"is_disabled":false,"rental_uris":{"android":"levelo://app?vid=d5b5bc74-aaeb-40c0-b979-fb1a262527de","ios":"levelo://app?vid=d5b5bc74-aaeb-40c0-b979-fb1a262527de"},"vehicle_type_id":"4","last_reported":1751307327,"current_range_meters":2800,"station_id":"","pricing_plan_id":"cebpf4jnsgd1na2vs0mg"},{"bike_id":"a1f205d7-e613-4cf2-b8b5-40d422367baf","system_id":"levelo_inurba_marseille","lat":43.275517,"lon":5.384413,"is_reserved":false,"is_disabled":false,"rental_uris":{"android":"levelo://app?vid=a1f205d7-e613-4cf2-b8b5-40d422367baf","ios":"levelo://app?vid=a1f205d7-e613-4cf2-b8b5-40d422367baf"},"vehicle_type_id":"4","last_reported":1751307327,"current_range_meters":2800,"station_id":"ce4bhh92rcd13ifvqfi0","pricing_plan_id":"cebpf4jnsgd1na2vs0mg"},{"bike_id":"1996d7fd-a23b-4863-ab11-ae2a3c10aa0e","system_id":"levelo_inurba_marseille","lat":43.25817,"lon":5.3943,"is_reserved":false,"is_disabled":false,"rental_uris":{"android":"levelo://app?vid=1996d7fd-a23b-4863-ab11-ae2a3c10aa0e","ios":"levelo://app?vid=1996d7fd-a23b-4863-ab11-ae2a3c10aa0e"},"vehicle_type_id":"4","last_reported":1751307327,"current_range_meters":2800,"station_id":"ce4bhip2rcd13ifvqft0","pricing_plan_id":"cebpf4jnsgd1na2vs0mg"},{"bike_id":"14d9fd99-9b30-4153-ba8e-87760ef8d31a","system_id":"levelo_inurba_marseille","lat":43.270102,"lon":5.38747,"is_reserved":false,"is_disabled":false,"rental_uris":{"android":"levelo://app?vid=14d9fd99-9b30-4153-ba8e-87760ef8d31a","ios":"levelo://app?vid=14d9fd99-9b30-4153-ba8e-87760ef8d31a"},"vehicle_type_id":"4","last_reported":1751307327,"current_range_meters":3200,"station_id":"","pricing_plan_id":"cebpf4jnsgd1na2vs0mg"},{"bike_id":"323d8528-f02c-44dc-bc02-6d0ad87d8fb6","system_id":"levelo_inurba_marseille","lat":43.30533,"lon":5.36548,"is_reserved":false,"is_disabled":false,"rental_uris":{"android":"levelo://app?vid=323d8528-f02c-44dc-bc02-6d0ad87d8fb6","ios":"levelo://app?vid=323d8528-f02c-44dc-bc02-6d0ad87d8fb6"},"vehicle_type_id":"4","last_reported":1751307327,"current_range_meters":3200,"station_id":"ce4bgs12rcd13ifvqcag","pricing_plan_id":"cebpf4jnsgd1na2vs0mg"},{"bike_id":"0242f06b-8248-4ec9-bc57-2bec6ffbdec6","system_id":"levelo_inurba_marseille","lat":43.30121,"lon":5.39865,"is_reserved":false,"is_disabled":false,"rental_uris":{"android":"levelo://app?vid=0242f06b-8248-4ec9-bc57-2bec6ffbdec6","ios":"levelo://app?vid=0242f06b-8248-4ec9-bc57-2bec6ffbdec6"},"vehicle_type_id":"4","last_reported":1751307327,"current_range_meters":3200,"station_id":"ce4bh0h2rcd13ifvqd40","pricing_plan_id":"cebpf4jnsgd1na2vs0mg"},{"bike_id":"721165c1-ef6f-40cc-8d33-af3a7999864b","system_id":"levelo_inurba_marseille","lat":43.32611,"lon":5.37871,"is_reserved":false,"is_disabled":false,"rental_uris":{"android":"levelo://app?vid=721165c1-ef6f-40cc-8d33-af3a7999864b","ios":"levelo://app?vid=721165c1-ef6f-40cc-8d33-af3a7999864b"},"vehicle_type_id":"4","last_reported":1751307327,"current_range_meters":3600,"station_id":"","pricing_plan_id":"cebpf4jnsgd1na2vs0mg"},{"bike_id":"87985e62-2823-4157-8a35-599ee9a377ab","system_id":"levelo_inurba_marseille","lat":43.211875,"lon":5.350779,"is_reserved":false,"is_disabled":false,"rental_uris":{"android":"levelo://app?vid=87985e62-2823-4157-8a35-599ee9a377ab","ios":"levelo://app?vid=87985e62-2823-4157-8a35-599ee9a377ab"},"vehicle_type_id":"4","last_reported":1751307327,"current_range_meters":3600,"station_id":"st_cvj6sg6p6f1abm77japg","pricing_plan_id":"cebpf4jnsgd1na2vs0mg"},{"bike_id":"7c3e12fc-5fdd-4ddb-bd15-87d6b2f5fdc1","system_id":"levelo_inurba_marseille","lat":43.282654,"lon":5.350571,"is_reserved":false,"is_disabled":false,"rental_uris":{"android":"levelo://app?vid=7c3e12fc-5fdd-4ddb-bd15-87d6b2f5fdc1","ios":"levelo://app?vid=7c3e12fc-5fdd-4ddb-bd15-87d6b2f5fdc1"},"vehicle_type_id":"4","last_reported":1751307327,"current_range_meters":4000,"station_id":"ce4bhbp2rcd13ifvqerg","pricing_plan_id":"cebpf4jnsgd1na2vs0mg"},{"bike_id":"c78310e5-6449-4514-9eba-0a61cb107766","system_id":"levelo_inurba_marseille","lat":43.30147,"lon":5.39847,"is_reserved":false,"is_disabled":false,"rental_uris":{"android":"levelo://app?vid=c78310e5-6449-4514-9eba-0a61cb107766","ios":"levelo://app?vid=c78310e5-6449-4514-9eba-0a61cb107766"},"vehicle_type_id":"4","last_reported":1751307327,"current_range_meters":4400,"station_id":"ce4bh0h2rcd13ifvqd40","pricing_plan_id":"cebpf4jnsgd1na2vs0mg"},{"bike_id":"849fbb30-7e5e-4900-aa49-695d9ff8d913","system_id":"levelo_inurba_marseille","lat":43.273781,"lon":5.362618,"is_reserved":false,"is_disabled":false,"rental_uris":{"android":"levelo://app?vid=849fbb30-7e5e-4900-aa49-695d9ff8d913","ios":"levelo://app?vid=849fbb30-7e5e-4900-aa49-695d9ff8d913"},"vehicle_type_id":"4","last_reported":1751307327,"current_range_meters":4400,"station_id":"ce4bhbh2rcd13ifvqeo0","pricing_plan_id":"cebpf4jnsgd1na2vs0mg"},{"bike_id":"122e5329-012e-4747-bb0f-a7c276ae0c37","system_id":"levelo_inurba_marseille","lat":43.31279,"lon":5.40166,"is_reserved":false,"is_disabled":false,"rental_uris":{"android":"levelo://app?vid=122e5329-012e-4747-bb0f-a7c276ae0c37","ios":"levelo://app?vid=122e5329-012e-4747-bb0f-a7c276ae0c37"},"vehicle_type_id":"4","last_reported":1751307327,"current_range_meters":5600,"station_id":"ce4bh092rcd13ifvqd30","pricing_plan_id":"cebpf4jnsgd1na2vs0mg"},{"bike_id":"5513059b-24ec-48c9-b7c1-d7f42feba353","system_id":"levelo_inurba_marseille","lat":43.29197,"lon":5.39317,"is_reserved":false,"is_disabled":false,"rental_uris":{"android":"levelo://app?vid=5513059b-24ec-48c9-b7c1-d7f42feba353","ios":"levelo://app?vid=5513059b-24ec-48c9-b7c1-d7f42feba353"},"vehicle_type_id":"4","last_reported":1751307327,"current_range_meters":5600,"station_id":"ce4bh192rcd13ifvqdd0","pricing_plan_id":"cebpf4jnsgd1na2vs0mg"},{"bike_id":"1c6b48f0-8801-4171-8c4a-93da15e1403f","system_id":"levelo_inurba_marseille","lat":43.27496,"lon":5.42463,"is_reserved":false,"is_disabled":false,"rental_uris":{"android":"levelo://app?vid=1c6b48f0-8801-4171-8c4a-93da15e1403f","ios":"levelo://app?vid=1c6b48f0-8801-4171-8c4a-93da15e1403f"},"vehicle_type_id":"4","last_reported":1751307327,"current_range_meters":5600,"station_id":"ce4bhn92rcd13ifvqgrg","pricing_plan_id":"cebpf4jnsgd1na2vs0mg"},{"bike_id":"d04ebb7b-386e-4d00-8fd9-c4126b7c64e3","system_id":"levelo_inurba_marseille","lat":43.318887,"lon":5.407293,"is_reserved":false,"is_disabled":false,"rental_uris":{"android":"levelo://app?vid=d04ebb7b-386e-4d00-8fd9-c4126b7c64e3","ios":"levelo://app?vid=d04ebb7b-386e-4d00-8fd9-c4126b7c64e3"},"vehicle_type_id":"4","last_reported":1751307327,"current_range_meters":5600,"station_id":"ce4bhq12rcd13ifvqhig","pricing_plan_id":"cebpf4jnsgd1na2vs0mg"},{"bike_id":"f671d32f-3a81-4a94-aa8a-eeeaeaae1c12","system_id":"levelo_inurba_marseille","lat":43.28616,"lon":5.35107,"is_reserved":false,"is_disabled":false,"rental_uris":{"android":"levelo://app?vid=f671d32f-3a81-4a94-aa8a-eeeaeaae1c12","ios":"levelo://app?vid=f671d32f-3a81-4a94-aa8a-eeeaeaae1c12"},"vehicle_type_id":"4","last_reported":1751307327,"current_range_meters":6000,"station_id":"ce4bhch2rcd13ifvqeug","pricing_plan_id":"cebpf4jnsgd1na2vs0mg"},{"bike_id":"8a3f5bbc-f65b-48c4-9267-eaa6eeda86a8","system_id":"levelo_inurba_marseille","lat":43.27611,"lon":5.36108,"is_reserved":false,"is_disabled":false,"rental_uris":{"android":"levelo://app?vid=8a3f5bbc-f65b-48c4-9267-eaa6eeda86a8","ios":"levelo://app?vid=8a3f5bbc-f65b-48c4-9267-eaa6eeda86a8"},"vehicle_type_id":"4","last_reported":1751307327,"current_range_meters":6400,"station_id":"ce4bgj92rcd13ifvqbe0","pricing_plan_id":"cebpf4jnsgd1na2vs0mg"},{"bike_id":"467a20f2-12d2-4efe-a3f1-10fc1498b003","system_id":"levelo_inurba_marseille","lat":43.23193,"lon":5.35554,"is_reserved":false,"is_disabled":false,"rental_uris":{"android":"levelo://app?vid=467a20f2-12d2-4efe-a3f1-10fc1498b003","ios":"levelo://app?vid=467a20f2-12d2-4efe-a3f1-10fc1498b003"},"vehicle_type_id":"4","last_reported":1751307327,"current_range_meters":6400,"station_id":"ce4bhu92rcd13ifvqi70","pricing_plan_id":"cebpf4jnsgd1na2vs0mg"},{"bike_id":"7b28ebac-3c6a-43aa-aca9-7bd954b07205","system_id":"levelo_inurba_marseille","lat":43.296494,"lon":5.37929,"is_reserved":false,"is_disabled":false,"rental_uris":{"android":"levelo://app?vid=7b28ebac-3c6a-43aa-aca9-7bd954b07205","ios":"levelo://app?vid=7b28ebac-3c6a-43aa-aca9-7bd954b07205"},"vehicle_type_id":"4","last_reported":1751307327,"current_range_meters":6800,"station_id":"","pricing_plan_id":"cebpf4jnsgd1na2vs0mg"},{"bike_id":"cbe8cf16-ee4d-44dc-af26-2dea0d93d494","system_id":"levelo_inurba_marseille","lat":43.337444,"lon":5.374475,"is_reserved":false,"is_disabled":false,"rental_uris":{"android":"levelo://app?vid=cbe8cf16-ee4d-44dc-af26-2dea0d93d494","ios":"levelo://app?vid=cbe8cf16-ee4d-44dc-af26-2dea0d93d494"},"vehicle_type_id":"4","last_reported":1751307327,"current_range_meters":6800,"station_id":"","pricing_plan_id":"cebpf4jnsgd1na2vs0mg"},{"bike_id":"eedd300a-9125-4b48-952a-e85df0575cd5","system_id":"levelo_inurba_marseille","lat":43.28037,"lon":5.36948,"is_reserved":false,"is_disabled":false,"rental_uris":{"android":"levelo://app?vid=eedd300a-9125-4b48-952a-e85df0575cd5","ios":"levelo://app?vid=eedd300a-9125-4b48-952a-e85df0575cd5"},"vehicle_type_id":"4","last_reported":1751307327,"current_range_meters":6800,"station_id":"ce4bha12rcd13ifvqef0","pricing_plan_id":"cebpf4jnsgd1na2vs0mg"},{"bike_id":"190ed07b-c9e2-4106-89ad-d3f16031bad7","system_id":"levelo_inurba_marseille","lat":43.33716,"lon":5.39182,"is_reserved":false,"is_disabled":false,"rental_uris":{"android":"levelo://app?vid=190ed07b-c9e2-4106-89ad-d3f16031bad7","ios":"levelo://app?vid=190ed07b-c9e2-4106-89ad-d3f16031bad7"},"vehicle_type_id":"4","last_reported":1751307327,"current_range_meters":6800,"station_id":"ce4bhr92rcd13ifvqhsg","pricing_plan_id":"cebpf4jnsgd1na2vs0mg"},{"bike_id":"d308c658-b19c-49c0-8014-5506ff26f69a","system_id":"levelo_inurba_marseille","lat":43.23183,"lon":5.40453,"is_reserved":false,"is_disabled":false,"rental_uris":{"android":"levelo://app?vid=d308c658-b19c-49c0-8014-5506ff26f69a","ios":"levelo://app?vid=d308c658-b19c-49c0-8014-5506ff26f69a"},"vehicle_type_id":"4","last_reported":1751307327,"current_range_meters":7200,"station_id":"","pricing_plan_id":"cebpf4jnsgd1na2vs0mg"},{"bike_id":"9c1468f2-7940-494e-97fd-14e073211e2e","system_id":"levelo_inurba_marseille","lat":43.29168,"lon":5.37168,"is_reserved":false,"is_disabled":false,"rental_uris":{"android":"levelo://app?vid=9c1468f2-7940-494e-97fd-14e073211e2e","ios":"levelo://app?vid=9c1468f2-7940-494e-97fd-14e073211e2e"},"vehicle_type_id":"4","last_reported":1751307327,"current_range_meters":7200,"station_id":"ce4bha92rcd13ifvqeh0","pricing_plan_id":"cebpf4jnsgd1na2vs0mg"},{"bike_id":"b4887bbe-8ce4-4aa3-bacd-6d534425a486","system_id":"levelo_inurba_marseille","lat":43.27211,"lon":5.39179,"is_reserved":false,"is_disabled":false,"rental_uris":{"android":"levelo://app?vid=b4887bbe-8ce4-4aa3-bacd-6d534425a486","ios":"levelo://app?vid=b4887bbe-8ce4-4aa3-bacd-6d534425a486"},"vehicle_type_id":"4","last_reported":1751307327,"current_range_meters":7200,"station_id":"ce4bhhp2rcd13ifvqfm0","pricing_plan_id":"cebpf4jnsgd1na2vs0mg"},{"bike_id":"9fc6b39a-5532-40ac-8f58-975bced56a19","system_id":"levelo_inurba_marseille","lat":43.32609,"lon":5.40479,"is_reserved":false,"is_disabled":false,"rental_uris":{"android":"levelo://app?vid=9fc6b39a-5532-40ac-8f58-975bced56a19","ios":"levelo://app?vid=9fc6b39a-5532-40ac-8f58-975bced56a19"},"vehicle_type_id":"4","last_reported":1751307327,"current_range_meters":8000,"station_id":"","pricing_plan_id":"cebpf4jnsgd1na2vs0mg"},{"bike_id":"4ee944ea-68ef-48f7-841c-9495f09562f6","system_id":"levelo_inurba_marseille","lat":43.31789,"lon":5.44556,"is_reserved":false,"is_disabled":false,"rental_uris":{"android":"levelo://app?vid=4ee944ea-68ef-48f7-841c-9495f09562f6","ios":"levelo://app?vid=4ee944ea-68ef-48f7-841c-9495f09562f6"},"vehicle_type_id":"4","last_reported":1751307327,"current_range_meters":8400,"station_id":"","pricing_plan_id":"cebpf4jnsgd1na2vs0mg"},{"bike_id":"3035be0e-7c3d-4f7d-a1cb-7a1af59e497b","system_id":"levelo_inurba_marseille","lat":43.296643,"lon":5.359889,"is_reserved":false,"is_disabled":false,"rental_uris":{"android":"levelo://app?vid=3035be0e-7c3d-4f7d-a1cb-7a1af59e497b","ios":"levelo://app?vid=3035be0e-7c3d-4f7d-a1cb-7a1af59e497b"},"vehicle_type_id":"4","last_reported":1751307327,"current_range_meters":8400,"station_id":"","pricing_plan_id":"cebpf4jnsgd1na2vs0mg"},{"bike_id":"b1cc3566-b9f2-486f-8d17-b8c481b7a8c7","system_id":"levelo_inurba_marseille","lat":43.29525,"lon":5.38545,"is_reserved":false,"is_disabled":false,"rental_uris":{"android":"levelo://app?vid=b1cc3566-b9f2-486f-8d17-b8c481b7a8c7","ios":"levelo://app?vid=b1cc3566-b9f2-486f-8d17-b8c481b7a8c7"},"vehicle_type_id":"4","last_reported":1751307327,"current_range_meters":8400,"station_id":"ce4bgih2rcd13ifvqba0","pricing_plan_id":"cebpf4jnsgd1na2vs0mg"},{"bike_id":"ce2c2d47-368a-467f-a655-529eab5b471b","system_id":"levelo_inurba_marseille","lat":43.31329,"lon":5.39688,"is_reserved":false,"is_disabled":false,"rental_uris":{"android":"levelo://app?vid=ce2c2d47-368a-467f-a655-529eab5b471b","ios":"levelo://app?vid=ce2c2d47-368a-467f-a655-529eab5b471b"},"vehicle_type_id":"4","last_reported":1751307327,"current_range_meters":8400,"station_id":"ce4bgvp2rcd13ifvqcu0","pricing_plan_id":"cebpf4jnsgd1na2vs0mg"},{"bike_id":"674dfcfb-76a9-47da-9f4a-0876ed459881","system_id":"levelo_inurba_marseille","lat":43.28614,"lon":5.35111,"is_reserved":false,"is_disabled":false,"rental_uris":{"android":"levelo://app?vid=674dfcfb-76a9-47da-9f4a-0876ed459881","ios":"levelo://app?vid=674dfcfb-76a9-47da-9f4a-0876ed459881"},"vehicle_type_id":"4","last_reported":1751307327,"current_range_meters":8400,"station_id":"ce4bhch2rcd13ifvqeug","pricing_plan_id":"cebpf4jnsgd1na2vs0mg"},{"bike_id":"59a074fc-769e-4d5d-a6d4-002d8e573dd6","system_id":"levelo_inurba_marseille","lat":43.21184,"lon":5.35065,"is_reserved":false,"is_disabled":false,"rental_uris":{"android":"levelo://app?vid=59a074fc-769e-4d5d-a6d4-002d8e573dd6","ios":"levelo://app?vid=59a074fc-769e-4d5d-a6d4-002d8e573dd6"},"vehicle_type_id":"4","last_reported":1751307327,"current_range_meters":8400,"station_id":"st_cvj6sg6p6f1abm77japg","pricing_plan_id":"cebpf4jnsgd1na2vs0mg"},{"bike_id":"dc86cbdf-0e57-4edf-9e76-031f6829b38f","system_id":"levelo_inurba_marseille","lat":43.21627,"lon":5.34204,"is_reserved":false,"is_disabled":false,"rental_uris":{"android":"levelo://app?vid=dc86cbdf-0e57-4edf-9e76-031f6829b38f","ios":"levelo://app?vid=dc86cbdf-0e57-4edf-9e76-031f6829b38f"},"vehicle_type_id":"4","last_reported":1751307327,"current_range_meters":8800,"station_id":"","pricing_plan_id":"cebpf4jnsgd1na2vs0mg"},{"bike_id":"c595d0e1-c778-4abe-9c79-a9dd74f54e27","system_id":"levelo_inurba_marseille","lat":43.24474,"lon":5.37208,"is_reserved":false,"is_disabled":false,"rental_uris":{"android":"levelo://app?vid=c595d0e1-c778-4abe-9c79-a9dd74f54e27","ios":"levelo://app?vid=c595d0e1-c778-4abe-9c79-a9dd74f54e27"},"vehicle_type_id":"4","last_reported":1751307327,"current_range_meters":8800,"station_id":"","pricing_plan_id":"cebpf4jnsgd1na2vs0mg"},{"bike_id":"5bb28121-a22e-4daa-9202-e23cd16f88b4","system_id":"levelo_inurba_marseille","lat":43.29968,"lon":5.37175,"is_reserved":false,"is_disabled":false,"rental_uris":{"android":"levelo://app?vid=5bb28121-a22e-4daa-9202-e23cd16f88b4","ios":"levelo://app?vid=5bb28121-a22e-4daa-9202-e23cd16f88b4"},"vehicle_type_id":"4","last_reported":1751307327,"current_range_meters":8800,"station_id":"ce4bgr92rcd13ifvqc7g","pricing_plan_id":"cebpf4jnsgd1na2vs0mg"},{"bike_id":"155b469d-d8a7-42a4-8a6e-2a5432e258dc","system_id":"levelo_inurba_marseille","lat":43.306385,"lon":5.400941,"is_reserved":false,"is_disabled":false,"rental_uris":{"android":"levelo://app?vid=155b469d-d8a7-42a4-8a6e-2a5432e258dc","ios":"levelo://app?vid=155b469d-d8a7-42a4-8a6e-2a5432e258dc"},"vehicle_type_id":"4","last_reported":1751307327,"current_range_meters":8800,"station_id":"ce4bh112rcd13ifvqda0","pricing_plan_id":"cebpf4jnsgd1na2vs0mg"},{"bike_id":"a7366fe2-aaaa-45c7-a616-8c1b25c8e392","system_id":"levelo_inurba_marseille","lat":43.28408,"lon":5.34977,"is_reserved":false,"is_disabled":false,"rental_uris":{"android":"levelo://app?vid=a7366fe2-aaaa-45c7-a616-8c1b25c8e392","ios":"levelo://app?vid=a7366fe2-aaaa-45c7-a616-8c1b25c8e392"},"vehicle_type_id":"4","last_reported":1751307327,"current_range_meters":8800,"station_id":"ce4bhbh2rcd13ifvqepg","pricing_plan_id":"cebpf4jnsgd1na2vs0mg"},{"bike_id":"6459cc11-f97c-4ed0-a4e8-d85a17e1383d","system_id":"levelo_inurba_marseille","lat":43.2841,"lon":5.34987,"is_reserved":false,"is_disabled":false,"rental_uris":{"android":"levelo://app?vid=6459cc11-f97c-4ed0-a4e8-d85a17e1383d","ios":"levelo://app?vid=6459cc11-f97c-4ed0-a4e8-d85a17e1383d"},"vehicle_type_id":"4","last_reported":1751307327,"current_range_meters":8800,"station_id":"ce4bhbh2rcd13ifvqepg","pricing_plan_id":"cebpf4jnsgd1na2vs0mg"},{"bike_id":"120036e1-945c-4ddf-ba61-047361af53a6","system_id":"levelo_inurba_marseille","lat":43.21199,"lon":5.35039,"is_reserved":false,"is_disabled":false,"rental_uris":{"android":"levelo://app?vid=120036e1-945c-4ddf-ba61-047361af53a6","ios":"levelo://app?vid=120036e1-945c-4ddf-ba61-047361af53a6"},"vehicle_type_id":"4","last_reported":1751307327,"current_range_meters":8800,"station_id":"st_cvj6sg6p6f1abm77japg","pricing_plan_id":"cebpf4jnsgd1na2vs0mg"},{"bike_id":"05d3d448-235e-4ac7-88df-050f15d5a616","system_id":"levelo_inurba_marseille","lat":43.279122,"lon":5.422247,"is_reserved":false,"is_disabled":false,"rental_uris":{"android":"levelo://app?vid=05d3d448-235e-4ac7-88df-050f15d5a616","ios":"levelo://app?vid=05d3d448-235e-4ac7-88df-050f15d5a616"},"vehicle_type_id":"4","last_reported":1751307327,"current_range_meters":9200,"station_id":"","pricing_plan_id":"cebpf4jnsgd1na2vs0mg"},{"bike_id":"d698c4b7-faf9-4945-bd7e-539d3b8ef984","system_id":"levelo_inurba_marseille","lat":43.28272,"lon":5.3507,"is_reserved":false,"is_disabled":false,"rental_uris":{"android":"levelo://app?vid=d698c4b7-faf9-4945-bd7e-539d3b8ef984","ios":"levelo://app?vid=d698c4b7-faf9-4945-bd7e-539d3b8ef984"},"vehicle_type_id":"4","last_reported":1751307327,"current_range_meters":9200,"station_id":"ce4bhbp2rcd13ifvqerg","pricing_plan_id":"cebpf4jnsgd1na2vs0mg"},{"bike_id":"8c17d133-39c7-4917-9f1e-5dea3f8e59e6","system_id":"levelo_inurba_marseille","lat":43.21195,"lon":5.35057,"is_reserved":false,"is_disabled":false,"rental_uris":{"android":"levelo://app?vid=8c17d133-39c7-4917-9f1e-5dea3f8e59e6","ios":"levelo://app?vid=8c17d133-39c7-4917-9f1e-5dea3f8e59e6"},"vehicle_type_id":"4","last_reported":1751307327,"current_range_meters":9200,"station_id":"st_cvj6sg6p6f1abm77japg","pricing_plan_id":"cebpf4jnsgd1na2vs0mg"},{"bike_id":"1672525f-3f23-4d0e-a7f8-3c56f8f14b61","system_id":"levelo_inurba_marseille","lat":43.317146,"lon":5.377328,"is_reserved":false,"is_disabled":false,"rental_uris":{"android":"levelo://app?vid=1672525f-3f23-4d0e-a7f8-3c56f8f14b61","ios":"levelo://app?vid=1672525f-3f23-4d0e-a7f8-3c56f8f14b61"},"vehicle_type_id":"4","last_reported":1751307327,"current_range_meters":9600,"station_id":"ce4bgth2rcd13ifvqch0","pricing_plan_id":"cebpf4jnsgd1na2vs0mg"},{"bike_id":"4b15e42d-1476-40b1-bd36-8ff75533d966","system_id":"levelo_inurba_marseille","lat":43.24169,"lon":5.39729,"is_reserved":false,"is_disabled":false,"rental_uris":{"android":"levelo://app?vid=4b15e42d-1476-40b1-bd36-8ff75533d966","ios":"levelo://app?vid=4b15e42d-1476-40b1-bd36-8ff75533d966"},"vehicle_type_id":"4","last_reported":1751307327,"current_range_meters":9600,"station_id":"ce4bhn12rcd13ifvqgpg","pricing_plan_id":"cebpf4jnsgd1na2vs0mg"},{"bike_id":"7d2ebbac-d26c-416a-b58e-5e3abed80858","system_id":"levelo_inurba_marseille","lat":43.21203,"lon":5.35054,"is_reserved":false,"is_disabled":false,"rental_uris":{"android":"levelo://app?vid=7d2ebbac-d26c-416a-b58e-5e3abed80858","ios":"levelo://app?vid=7d2ebbac-d26c-416a-b58e-5e3abed80858"},"vehicle_type_id":"4","last_reported":1751307327,"current_range_meters":9600,"station_id":"st_cvj6sg6p6f1abm77japg","pricing_plan_id":"cebpf4jnsgd1na2vs0mg"},{"bike_id":"b05ac08d-847b-4f20-ac36-038a0d69d167","system_id":"levelo_inurba_marseille","lat":43.28134,"lon":5.35872,"is_reserved":false,"is_disabled":false,"rental_uris":{"android":"levelo://app?vid=b05ac08d-847b-4f20-ac36-038a0d69d167","ios":"levelo://app?vid=b05ac08d-847b-4f20-ac36-038a0d69d167"},"vehicle_type_id":"4","last_reported":1751307327,"current_range_meters":10000,"station_id":"","pricing_plan_id":"cebpf4jnsgd1na2vs0mg"},{"bike_id":"6b6a646f-e1ae-4138-9055-a2e578c870cb","system_id":"levelo_inurba_marseille","lat":43.21746,"lon":5.34596,"is_reserved":false,"is_disabled":false,"rental_uris":{"android":"levelo://app?vid=6b6a646f-e1ae-4138-9055-a2e578c870cb","ios":"levelo://app?vid=6b6a646f-e1ae-4138-9055-a2e578c870cb"},"vehicle_type_id":"4","last_reported":1751307327,"current_range_meters":10000,"station_id":"st_cvj6r9ubvosntc0bgbag","pricing_plan_id":"cebpf4jnsgd1na2vs0mg"},{"bike_id":"786f230b-598f-4e58-bbc2-1e0a419e9de2","system_id":"levelo_inurba_marseille","lat":43.264707,"lon":5.392028,"is_reserved":false,"is_disabled":false,"rental_uris":{"android":"levelo://app?vid=786f230b-598f-4e58-bbc2-1e0a419e9de2","ios":"levelo://app?vid=786f230b-598f-4e58-bbc2-1e0a419e9de2"},"vehicle_type_id":"4","last_reported":1751307327,"current_range_meters":10800,"station_id":"","pricing_plan_id":"cebpf4jnsgd1na2vs0mg"},{"bike_id":"7cd73daf-6410-4b72-a872-e5224e9d29ff","system_id":"levelo_inurba_marseille","lat":43.274047,"lon":5.411714,"is_reserved":false,"is_disabled":false,"rental_uris":{"android":"levelo://app?vid=7cd73daf-6410-4b72-a872-e5224e9d29ff","ios":"levelo://app?vid=7cd73daf-6410-4b72-a872-e5224e9d29ff"},"vehicle_type_id":"4","last_reported":1751307327,"current_range_meters":10800,"station_id":"","pricing_plan_id":"cebpf4jnsgd1na2vs0mg"},{"bike_id":"7dc148e5-fd7e-4677-bce3-55c94c6ee080","system_id":"levelo_inurba_marseille","lat":43.30703,"lon":5.40915,"is_reserved":false,"is_disabled":false,"rental_uris":{"android":"levelo://app?vid=7dc148e5-fd7e-4677-bce3-55c94c6ee080","ios":"levelo://app?vid=7dc148e5-fd7e-4677-bce3-55c94c6ee080"},"vehicle_type_id":"4","last_reported":1751307327,"current_range_meters":10800,"station_id":"","pricing_plan_id":"cebpf4jnsgd1na2vs0mg"},{"bike_id":"f5c16f07-bc6f-4121-91a7-5ad90eec4f34","system_id":"levelo_inurba_marseille","lat":43.31195,"lon":5.37346,"is_reserved":false,"is_disabled":false,"rental_uris":{"android":"levelo://app?vid=f5c16f07-bc6f-4121-91a7-5ad90eec4f34","ios":"levelo://app?vid=f5c16f07-bc6f-4121-91a7-5ad90eec4f34"},"vehicle_type_id":"4","last_reported":1751307327,"current_range_meters":10800,"station_id":"","pricing_plan_id":"cebpf4jnsgd1na2vs0mg"},{"bike_id":"adbb6dc7-86b3-4408-ab71-010ba8e1443e","system_id":"levelo_inurba_marseille","lat":43.28255,"lon":5.35045,"is_reserved":false,"is_disabled":false,"rental_uris":{"android":"levelo://app?vid=adbb6dc7-86b3-4408-ab71-010ba8e1443e","ios":"levelo://app?vid=adbb6dc7-86b3-4408-ab71-010ba8e1443e"},"vehicle_type_id":"4","last_reported":1751307327,"current_range_meters":10800,"station_id":"ce4bhbp2rcd13ifvqerg","pricing_plan_id":"cebpf4jnsgd1na2vs0mg"},{"bike_id":"cbfc3b9d-40e9-4ebc-a860-d744f1c74454","system_id":"levelo_inurba_marseille","lat":43.3233,"lon":5.4061,"is_reserved":false,"is_disabled":false,"rental_uris":{"android":"levelo://app?vid=cbfc3b9d-40e9-4ebc-a860-d744f1c74454","ios":"levelo://app?vid=cbfc3b9d-40e9-4ebc-a860-d744f1c74454"},"vehicle_type_id":"4","last_reported":1751307327,"current_range_meters":10800,"station_id":"ce4bhq92rcd13ifvqhjg","pricing_plan_id":"cebpf4jnsgd1na2vs0mg"},{"bike_id":"18fc651b-384b-413b-b24b-b0e3177f227a","system_id":"levelo_inurba_marseille","lat":43.2842,"lon":5.3499,"is_reserved":false,"is_disabled":false,"rental_uris":{"android":"levelo://app?vid=18fc651b-384b-413b-b24b-b0e3177f227a","ios":"levelo://app?vid=18fc651b-384b-413b-b24b-b0e3177f227a"},"vehicle_type_id":"4","last_reported":1751307327,"current_range_meters":11200,"station_id":"ce4bhbh2rcd13ifvqepg","pricing_plan_id":"cebpf4jnsgd1na2vs0mg"},{"bike_id":"8a8764a2-85b8-4e04-bb98-7805ff614be5","system_id":"levelo_inurba_marseille","lat":43.28419,"lon":5.34985,"is_reserved":false,"is_disabled":false,"rental_uris":{"android":"levelo://app?vid=8a8764a2-85b8-4e04-bb98-7805ff614be5","ios":"levelo://app?vid=8a8764a2-85b8-4e04-bb98-7805ff614be5"},"vehicle_type_id":"4","last_reported":1751307327,"current_range_meters":11200,"station_id":"ce4bhbh2rcd13ifvqepg","pricing_plan_id":"cebpf4jnsgd1na2vs0mg"},{"bike_id":"c5a431e6-aaa8-458a-a053-d1b800e3feab","system_id":"levelo_inurba_marseille","lat":43.29307,"lon":5.37456,"is_reserved":false,"is_disabled":false,"rental_uris":{"android":"levelo://app?vid=c5a431e6-aaa8-458a-a053-d1b800e3feab","ios":"levelo://app?vid=c5a431e6-aaa8-458a-a053-d1b800e3feab"},"vehicle_type_id":"4","last_reported":1751307327,"current_range_meters":11600,"station_id":"ce4bgi12rcd13ifvqb70","pricing_plan_id":"cebpf4jnsgd1na2vs0mg"},{"bike_id":"9fb9b96e-82db-47fd-9fa4-6150d2d7ae71","system_id":"levelo_inurba_marseille","lat":43.28425,"lon":5.3498,"is_reserved":false,"is_disabled":false,"rental_uris":{"android":"levelo://app?vid=9fb9b96e-82db-47fd-9fa4-6150d2d7ae71","ios":"levelo://app?vid=9fb9b96e-82db-47fd-9fa4-6150d2d7ae71"},"vehicle_type_id":"4","last_reported":1751307327,"current_range_meters":12000,"station_id":"ce4bhbh2rcd13ifvqepg","pricing_plan_id":"cebpf4jnsgd1na2vs0mg"},{"bike_id":"2272408f-5376-4c4e-a7ec-44ff9968fac9","system_id":"levelo_inurba_marseille","lat":43.284135,"lon":5.349694,"is_reserved":false,"is_disabled":false,"rental_uris":{"android":"levelo://app?vid=2272408f-5376-4c4e-a7ec-44ff9968fac9","ios":"levelo://app?vid=2272408f-5376-4c4e-a7ec-44ff9968fac9"},"vehicle_type_id":"4","last_reported":1751307327,"current_range_meters":12000,"station_id":"ce4bhbh2rcd13ifvqepg","pricing_plan_id":"cebpf4jnsgd1na2vs0mg"},{"bike_id":"8634082b-ba4e-4af0-991c-b15db66a91fa","system_id":"levelo_inurba_marseille","lat":43.28276,"lon":5.35059,"is_reserved":false,"is_disabled":false,"rental_uris":{"android":"levelo://app?vid=8634082b-ba4e-4af0-991c-b15db66a91fa","ios":"levelo://app?vid=8634082b-ba4e-4af0-991c-b15db66a91fa"},"vehicle_type_id":"4","last_reported":1751307327,"current_range_meters":12000,"station_id":"ce4bhbp2rcd13ifvqerg","pricing_plan_id":"cebpf4jnsgd1na2vs0mg"},{"bike_id":"8577cc19-379c-4170-8f40-ed622d37a419","system_id":"levelo_inurba_marseille","lat":43.29894,"lon":5.4367,"is_reserved":false,"is_disabled":false,"rental_uris":{"android":"levelo://app?vid=8577cc19-379c-4170-8f40-ed622d37a419","ios":"levelo://app?vid=8577cc19-379c-4170-8f40-ed622d37a419"},"vehicle_type_id":"4","last_reported":1751307327,"current_range_meters":12000,"station_id":"ce4bhpp2rcd13ifvqhfg","pricing_plan_id":"cebpf4jnsgd1na2vs0mg"},{"bike_id":"ceb818d5-6a0e-45de-8d40-c9c1b19d5e60","system_id":"levelo_inurba_marseille","lat":43.32364,"lon":5.3676,"is_reserved":false,"is_disabled":false,"rental_uris":{"android":"levelo://app?vid=ceb818d5-6a0e-45de-8d40-c9c1b19d5e60","ios":"levelo://app?vid=ceb818d5-6a0e-45de-8d40-c9c1b19d5e60"},"vehicle_type_id":"4","last_reported":1751307327,"current_range_meters":12000,"station_id":"ce4bhsh2rcd13ifvqi2g","pricing_plan_id":"cebpf4jnsgd1na2vs0mg"},{"bike_id":"fd00ec43-6475-4246-93dd-0f6426d75251","system_id":"levelo_inurba_marseille","lat":43.28721,"lon":5.360888,"is_reserved":false,"is_disabled":false,"rental_uris":{"android":"levelo://app?vid=fd00ec43-6475-4246-93dd-0f6426d75251","ios":"levelo://app?vid=fd00ec43-6475-4246-93dd-0f6426d75251"},"vehicle_type_id":"4","last_reported":1751307327,"current_range_meters":12000,"station_id":"cki0cbj6b192h4jlfktg","pricing_plan_id":"cebpf4jnsgd1na2vs0mg"},{"bike_id":"c13c93ac-6b62-443c-9e36-caf61b27325a","system_id":"levelo_inurba_marseille","lat":43.21192,"lon":5.3507,"is_reserved":false,"is_disabled":false,"rental_uris":{"android":"levelo://app?vid=c13c93ac-6b62-443c-9e36-caf61b27325a","ios":"levelo://app?vid=c13c93ac-6b62-443c-9e36-caf61b27325a"},"vehicle_type_id":"4","last_reported":1751307327,"current_range_meters":12400,"station_id":"st_cvj6sg6p6f1abm77japg","pricing_plan_id":"cebpf4jnsgd1na2vs0mg"},{"bike_id":"860ecc02-a6d5-4fbe-ada6-b9197deada15","system_id":"levelo_inurba_marseille","lat":43.32522,"lon":5.38857,"is_reserved":false,"is_disabled":false,"rental_uris":{"android":"levelo://app?vid=860ecc02-a6d5-4fbe-ada6-b9197deada15","ios":"levelo://app?vid=860ecc02-a6d5-4fbe-ada6-b9197deada15"},"vehicle_type_id":"4","last_reported":1751307327,"current_range_meters":12800,"station_id":"","pricing_plan_id":"cebpf4jnsgd1na2vs0mg"},{"bike_id":"469f0205-2674-4692-9623-a48ceefd5990","system_id":"levelo_inurba_marseille","lat":43.2842,"lon":5.34968,"is_reserved":false,"is_disabled":false,"rental_uris":{"android":"levelo://app?vid=469f0205-2674-4692-9623-a48ceefd5990","ios":"levelo://app?vid=469f0205-2674-4692-9623-a48ceefd5990"},"vehicle_type_id":"4","last_reported":1751307327,"current_range_meters":12800,"station_id":"ce4bhbh2rcd13ifvqepg","pricing_plan_id":"cebpf4jnsgd1na2vs0mg"},{"bike_id":"695cebbe-dec4-4ce0-b4c7-905b7f23b8ee","system_id":"levelo_inurba_marseille","lat":43.28409,"lon":5.34988,"is_reserved":false,"is_disabled":false,"rental_uris":{"android":"levelo://app?vid=695cebbe-dec4-4ce0-b4c7-905b7f23b8ee","ios":"levelo://app?vid=695cebbe-dec4-4ce0-b4c7-905b7f23b8ee"},"vehicle_type_id":"4","last_reported":1751307327,"current_range_meters":12800,"station_id":"ce4bhbh2rcd13ifvqepg","pricing_plan_id":"cebpf4jnsgd1na2vs0mg"},{"bike_id":"83f8a947-f59c-439b-846a-fb1e9bbc0c36","system_id":"levelo_inurba_marseille","lat":43.28614,"lon":5.35111,"is_reserved":false,"is_disabled":false,"rental_uris":{"android":"levelo://app?vid=83f8a947-f59c-439b-846a-fb1e9bbc0c36","ios":"levelo://app?vid=83f8a947-f59c-439b-846a-fb1e9bbc0c36"},"vehicle_type_id":"4","last_reported":1751307327,"current_range_meters":12800,"station_id":"ce4bhch2rcd13ifvqeug","pricing_plan_id":"cebpf4jnsgd1na2vs0mg"},{"bike_id":"07ddf3f2-7e29-480c-9052-31ba82bd9b41","system_id":"levelo_inurba_marseille","lat":43.262103,"lon":5.374398,"is_reserved":false,"is_disabled":false,"rental_uris":{"android":"levelo://app?vid=07ddf3f2-7e29-480c-9052-31ba82bd9b41","ios":"levelo://app?vid=07ddf3f2-7e29-480c-9052-31ba82bd9b41"},"vehicle_type_id":"4","last_reported":1751307327,"current_range_meters":12800,"station_id":"ce4bhgp2rcd13ifvqfc0","pricing_plan_id":"cebpf4jnsgd1na2vs0mg"},{"bike_id":"30916535-07e7-44fe-a97f-1a3502ca50fd","system_id":"levelo_inurba_marseille","lat":43.261706,"lon":5.379096,"is_reserved":false,"is_disabled":false,"rental_uris":{"android":"levelo://app?vid=30916535-07e7-44fe-a97f-1a3502ca50fd","ios":"levelo://app?vid=30916535-07e7-44fe-a97f-1a3502ca50fd"},"vehicle_type_id":"4","last_reported":1751307327,"current_range_meters":12800,"station_id":"ce4bhjp2rcd13ifvqg90","pricing_plan_id":"cebpf4jnsgd1na2vs0mg"},{"bike_id":"5b8a5a54-96b1-437d-978c-a0fcb753efa4","system_id":"levelo_inurba_marseille","lat":43.28616,"lon":5.35095,"is_reserved":false,"is_disabled":false,"rental_uris":{"android":"levelo://app?vid=5b8a5a54-96b1-437d-978c-a0fcb753efa4","ios":"levelo://app?vid=5b8a5a54-96b1-437d-978c-a0fcb753efa4"},"vehicle_type_id":"4","last_reported":1751307327,"current_range_meters":13600,"station_id":"ce4bhch2rcd13ifvqeug","pricing_plan_id":"cebpf4jnsgd1na2vs0mg"},{"bike_id":"96e785d3-0c2a-4bec-b011-c91b6e4e90c3","system_id":"levelo_inurba_marseille","lat":43.2622,"lon":5.37437,"is_reserved":false,"is_disabled":false,"rental_uris":{"android":"levelo://app?vid=96e785d3-0c2a-4bec-b011-c91b6e4e90c3","ios":"levelo://app?vid=96e785d3-0c2a-4bec-b011-c91b6e4e90c3"},"vehicle_type_id":"4","last_reported":1751307327,"current_range_meters":13600,"station_id":"ce4bhgp2rcd13ifvqfc0","pricing_plan_id":"cebpf4jnsgd1na2vs0mg"},{"bike_id":"58bd3f83-8d43-432e-a389-948938190aea","system_id":"levelo_inurba_marseille","lat":43.27498,"lon":5.42459,"is_reserved":false,"is_disabled":false,"rental_uris":{"android":"levelo://app?vid=58bd3f83-8d43-432e-a389-948938190aea","ios":"levelo://app?vid=58bd3f83-8d43-432e-a389-948938190aea"},"vehicle_type_id":"4","last_reported":1751307327,"current_range_meters":13600,"station_id":"ce4bhn92rcd13ifvqgrg","pricing_plan_id":"cebpf4jnsgd1na2vs0mg"},{"bike_id":"6b04a8db-f012-4ea9-88f5-d59ff3f24fd9","system_id":"levelo_inurba_marseille","lat":43.299054,"lon":5.436716,"is_reserved":false,"is_disabled":false,"rental_uris":{"android":"levelo://app?vid=6b04a8db-f012-4ea9-88f5-d59ff3f24fd9","ios":"levelo://app?vid=6b04a8db-f012-4ea9-88f5-d59ff3f24fd9"},"vehicle_type_id":"4","last_reported":1751307327,"current_range_meters":13600,"station_id":"ce4bhpp2rcd13ifvqhfg","pricing_plan_id":"cebpf4jnsgd1na2vs0mg"},{"bike_id":"4e47abe4-6598-4756-807d-26ba558e3c39","system_id":"levelo_inurba_marseille","lat":43.29891,"lon":5.43642,"is_reserved":false,"is_disabled":false,"rental_uris":{"android":"levelo://app?vid=4e47abe4-6598-4756-807d-26ba558e3c39","ios":"levelo://app?vid=4e47abe4-6598-4756-807d-26ba558e3c39"},"vehicle_type_id":"4","last_reported":1751307327,"current_range_meters":13600,"station_id":"ce4bhpp2rcd13ifvqhfg","pricing_plan_id":"cebpf4jnsgd1na2vs0mg"},{"bike_id":"d4704f76-2792-47f6-a62d-a2bffd82e6c4","system_id":"levelo_inurba_marseille","lat":43.24812,"lon":5.37447,"is_reserved":false,"is_disabled":false,"rental_uris":{"android":"levelo://app?vid=d4704f76-2792-47f6-a62d-a2bffd82e6c4","ios":"levelo://app?vid=d4704f76-2792-47f6-a62d-a2bffd82e6c4"},"vehicle_type_id":"4","last_reported":1751307327,"current_range_meters":14000,"station_id":"ce4bhgh2rcd13ifvqfb0","pricing_plan_id":"cebpf4jnsgd1na2vs0mg"},{"bike_id":"aad466d4-9058-4038-a189-895fae6f1c28","system_id":"levelo_inurba_marseille","lat":43.21192,"lon":5.35065,"is_reserved":false,"is_disabled":false,"rental_uris":{"android":"levelo://app?vid=aad466d4-9058-4038-a189-895fae6f1c28","ios":"levelo://app?vid=aad466d4-9058-4038-a189-895fae6f1c28"},"vehicle_type_id":"4","last_reported":1751307327,"current_range_meters":14000,"station_id":"st_cvj6sg6p6f1abm77japg","pricing_plan_id":"cebpf4jnsgd1na2vs0mg"},{"bike_id":"b0f87d94-b06c-4790-a50d-2c0da56d1f25","system_id":"levelo_inurba_marseille","lat":43.27378,"lon":5.3626,"is_reserved":false,"is_disabled":false,"rental_uris":{"android":"levelo://app?vid=b0f87d94-b06c-4790-a50d-2c0da56d1f25","ios":"levelo://app?vid=b0f87d94-b06c-4790-a50d-2c0da56d1f25"},"vehicle_type_id":"4","last_reported":1751307327,"current_range_meters":14400,"station_id":"ce4bhbh2rcd13ifvqeo0","pricing_plan_id":"cebpf4jnsgd1na2vs0mg"},{"bike_id":"8ceb2860-ca09-420a-8aab-fcf0c529a0d3","system_id":"levelo_inurba_marseille","lat":43.2119,"lon":5.35073,"is_reserved":false,"is_disabled":false,"rental_uris":{"android":"levelo://app?vid=8ceb2860-ca09-420a-8aab-fcf0c529a0d3","ios":"levelo://app?vid=8ceb2860-ca09-420a-8aab-fcf0c529a0d3"},"vehicle_type_id":"4","last_reported":1751307327,"current_range_meters":14400,"station_id":"st_cvj6sg6p6f1abm77japg","pricing_plan_id":"cebpf4jnsgd1na2vs0mg"},{"bike_id":"d8facb10-b967-4a32-9b5c-8cfed4bbd05b","system_id":"levelo_inurba_marseille","lat":43.32169,"lon":5.36761,"is_reserved":false,"is_disabled":false,"rental_uris":{"android":"levelo://app?vid=d8facb10-b967-4a32-9b5c-8cfed4bbd05b","ios":"levelo://app?vid=d8facb10-b967-4a32-9b5c-8cfed4bbd05b"},"vehicle_type_id":"4","last_reported":1751307327,"current_range_meters":14800,"station_id":"","pricing_plan_id":"cebpf4jnsgd1na2vs0mg"},{"bike_id":"dd3cfe01-d332-4d85-b6e2-f43cd984ddc9","system_id":"levelo_inurba_marseille","lat":43.29791,"lon":5.38195,"is_reserved":false,"is_disabled":false,"rental_uris":{"android":"levelo://app?vid=dd3cfe01-d332-4d85-b6e2-f43cd984ddc9","ios":"levelo://app?vid=dd3cfe01-d332-4d85-b6e2-f43cd984ddc9"},"vehicle_type_id":"4","last_reported":1751307327,"current_range_meters":14800,"station_id":"ce4bgup2rcd13ifvqco0","pricing_plan_id":"cebpf4jnsgd1na2vs0mg"},{"bike_id":"21d7cde0-ca2f-4ce9-b45b-609c0beaaa81","system_id":"levelo_inurba_marseille","lat":43.30651,"lon":5.40076,"is_reserved":false,"is_disabled":false,"rental_uris":{"android":"levelo://app?vid=21d7cde0-ca2f-4ce9-b45b-609c0beaaa81","ios":"levelo://app?vid=21d7cde0-ca2f-4ce9-b45b-609c0beaaa81"},"vehicle_type_id":"4","last_reported":1751307327,"current_range_meters":14800,"station_id":"ce4bh112rcd13ifvqda0","pricing_plan_id":"cebpf4jnsgd1na2vs0mg"},{"bike_id":"e00d9bee-10b7-4b4c-8c07-3ede0056ec80","system_id":"levelo_inurba_marseille","lat":43.30093,"lon":5.39072,"is_reserved":false,"is_disabled":false,"rental_uris":{"android":"levelo://app?vid=e00d9bee-10b7-4b4c-8c07-3ede0056ec80","ios":"levelo://app?vid=e00d9bee-10b7-4b4c-8c07-3ede0056ec80"},"vehicle_type_id":"4","last_reported":1751307327,"current_range_meters":14800,"station_id":"ce4bh192rcd13ifvqdb0","pricing_plan_id":"cebpf4jnsgd1na2vs0mg"},{"bike_id":"8dead71b-d890-46c0-8902-7455cdb22d9e","system_id":"levelo_inurba_marseille","lat":43.2848,"lon":5.35878,"is_reserved":false,"is_disabled":false,"rental_uris":{"android":"levelo://app?vid=8dead71b-d890-46c0-8902-7455cdb22d9e","ios":"levelo://app?vid=8dead71b-d890-46c0-8902-7455cdb22d9e"},"vehicle_type_id":"4","last_reported":1751307327,"current_range_meters":14800,"station_id":"ce4bhah2rcd13ifvqei0","pricing_plan_id":"cebpf4jnsgd1na2vs0mg"},{"bike_id":"a038fb56-4c0e-4b94-ba69-5870a8870465","system_id":"levelo_inurba_marseille","lat":43.286159,"lon":5.35103,"is_reserved":false,"is_disabled":false,"rental_uris":{"android":"levelo://app?vid=a038fb56-4c0e-4b94-ba69-5870a8870465","ios":"levelo://app?vid=a038fb56-4c0e-4b94-ba69-5870a8870465"},"vehicle_type_id":"4","last_reported":1751307327,"current_range_meters":14800,"station_id":"ce4bhch2rcd13ifvqeug","pricing_plan_id":"cebpf4jnsgd1na2vs0mg"},{"bike_id":"44ee006e-24e3-43f1-977d-f776a12bdd18","system_id":"levelo_inurba_marseille","lat":43.25504,"lon":5.37645,"is_reserved":false,"is_disabled":false,"rental_uris":{"android":"levelo://app?vid=44ee006e-24e3-43f1-977d-f776a12bdd18","ios":"levelo://app?vid=44ee006e-24e3-43f1-977d-f776a12bdd18"},"vehicle_type_id":"4","last_reported":1751307327,"current_range_meters":14800,"station_id":"ce4bhh12rcd13ifvqff0","pricing_plan_id":"cebpf4jnsgd1na2vs0mg"},{"bike_id":"5144e272-6879-4000-8ef9-ea53e55122e0","system_id":"levelo_inurba_marseille","lat":43.27562,"lon":5.38409,"is_reserved":false,"is_disabled":false,"rental_uris":{"android":"levelo://app?vid=5144e272-6879-4000-8ef9-ea53e55122e0","ios":"levelo://app?vid=5144e272-6879-4000-8ef9-ea53e55122e0"},"vehicle_type_id":"4","last_reported":1751307327,"current_range_meters":14800,"station_id":"ce4bhh92rcd13ifvqfi0","pricing_plan_id":"cebpf4jnsgd1na2vs0mg"},{"bike_id":"bdc2bbd7-bbd5-49ad-ae3f-f03eb0d4b1ba","system_id":"levelo_inurba_marseille","lat":43.27069,"lon":5.42279,"is_reserved":false,"is_disabled":false,"rental_uris":{"android":"levelo://app?vid=bdc2bbd7-bbd5-49ad-ae3f-f03eb0d4b1ba","ios":"levelo://app?vid=bdc2bbd7-bbd5-49ad-ae3f-f03eb0d4b1ba"},"vehicle_type_id":"4","last_reported":1751307327,"current_range_meters":14800,"station_id":"ce4bhk92rcd13ifvqgb0","pricing_plan_id":"cebpf4jnsgd1na2vs0mg"},{"bike_id":"4f97e136-2006-43b5-84b8-8ce28f4647e9","system_id":"levelo_inurba_marseille","lat":43.212,"lon":5.3507,"is_reserved":false,"is_disabled":false,"rental_uris":{"android":"levelo://app?vid=4f97e136-2006-43b5-84b8-8ce28f4647e9","ios":"levelo://app?vid=4f97e136-2006-43b5-84b8-8ce28f4647e9"},"vehicle_type_id":"4","last_reported":1751307327,"current_range_meters":14800,"station_id":"st_cvj6sg6p6f1abm77japg","pricing_plan_id":"cebpf4jnsgd1na2vs0mg"},{"bike_id":"807d1f76-6623-4c3c-9fc0-f2a7b461de93","system_id":"levelo_inurba_marseille","lat":43.31177,"lon":5.38721,"is_reserved":false,"is_disabled":false,"rental_uris":{"android":"levelo://app?vid=807d1f76-6623-4c3c-9fc0-f2a7b461de93","ios":"levelo://app?vid=807d1f76-6623-4c3c-9fc0-f2a7b461de93"},"vehicle_type_id":"4","last_reported":1751307327,"current_range_meters":15200,"station_id":"ce4bgv12rcd13ifvqcp0","pricing_plan_id":"cebpf4jnsgd1na2vs0mg"},{"bike_id":"6d05287e-4655-410b-81f2-ec69f81b8b61","system_id":"levelo_inurba_marseille","lat":43.27368,"lon":5.36247,"is_reserved":false,"is_disabled":false,"rental_uris":{"android":"levelo://app?vid=6d05287e-4655-410b-81f2-ec69f81b8b61","ios":"levelo://app?vid=6d05287e-4655-410b-81f2-ec69f81b8b61"},"vehicle_type_id":"4","last_reported":1751307327,"current_range_meters":15200,"station_id":"ce4bhbh2rcd13ifvqeo0","pricing_plan_id":"cebpf4jnsgd1na2vs0mg"},{"bike_id":"0019be01-9199-40c8-80e8-ef5e082a6be8","system_id":"levelo_inurba_marseille","lat":43.28274,"lon":5.35058,"is_reserved":false,"is_disabled":false,"rental_uris":{"android":"levelo://app?vid=0019be01-9199-40c8-80e8-ef5e082a6be8","ios":"levelo://app?vid=0019be01-9199-40c8-80e8-ef5e082a6be8"},"vehicle_type_id":"4","last_reported":1751307327,"current_range_meters":15200,"station_id":"ce4bhbp2rcd13ifvqerg","pricing_plan_id":"cebpf4jnsgd1na2vs0mg"},{"bike_id":"d5da5bd9-7c2a-48e5-92aa-fa21076cad13","system_id":"levelo_inurba_marseille","lat":43.21221,"lon":5.35056,"is_reserved":false,"is_disabled":false,"rental_uris":{"android":"levelo://app?vid=d5da5bd9-7c2a-48e5-92aa-fa21076cad13","ios":"levelo://app?vid=d5da5bd9-7c2a-48e5-92aa-fa21076cad13"},"vehicle_type_id":"4","last_reported":1751307327,"current_range_meters":16000,"station_id":"","pricing_plan_id":"cebpf4jnsgd1na2vs0mg"},{"bike_id":"9008fecb-1cca-4c3f-adfc-6251a121a6bb","system_id":"levelo_inurba_marseille","lat":43.29937,"lon":5.36544,"is_reserved":false,"is_disabled":false,"rental_uris":{"android":"levelo://app?vid=9008fecb-1cca-4c3f-adfc-6251a121a6bb","ios":"levelo://app?vid=9008fecb-1cca-4c3f-adfc-6251a121a6bb"},"vehicle_type_id":"4","last_reported":1751307327,"current_range_meters":16000,"station_id":"ce4bgm92rcd13ifvqbr0","pricing_plan_id":"cebpf4jnsgd1na2vs0mg"},{"bike_id":"ef56af2f-739b-4071-a865-2862ea606449","system_id":"levelo_inurba_marseille","lat":43.27389,"lon":5.36246,"is_reserved":false,"is_disabled":false,"rental_uris":{"android":"levelo://app?vid=ef56af2f-739b-4071-a865-2862ea606449","ios":"levelo://app?vid=ef56af2f-739b-4071-a865-2862ea606449"},"vehicle_type_id":"4","last_reported":1751307327,"current_range_meters":16000,"station_id":"ce4bhbh2rcd13ifvqeo0","pricing_plan_id":"cebpf4jnsgd1na2vs0mg"},{"bike_id":"b567c7b4-9640-49ca-815d-606cc263cbf6","system_id":"levelo_inurba_marseille","lat":43.28262,"lon":5.3507,"is_reserved":false,"is_disabled":false,"rental_uris":{"android":"levelo://app?vid=b567c7b4-9640-49ca-815d-606cc263cbf6","ios":"levelo://app?vid=b567c7b4-9640-49ca-815d-606cc263cbf6"},"vehicle_type_id":"4","last_reported":1751307327,"current_range_meters":16000,"station_id":"ce4bhbp2rcd13ifvqerg","pricing_plan_id":"cebpf4jnsgd1na2vs0mg"},{"bike_id":"f1dc8d5d-66db-4e52-8fae-0f6e9ce989f7","system_id":"levelo_inurba_marseille","lat":43.282637,"lon":5.350522,"is_reserved":false,"is_disabled":false,"rental_uris":{"android":"levelo://app?vid=f1dc8d5d-66db-4e52-8fae-0f6e9ce989f7","ios":"levelo://app?vid=f1dc8d5d-66db-4e52-8fae-0f6e9ce989f7"},"vehicle_type_id":"4","last_reported":1751307327,"current_range_meters":16000,"station_id":"ce4bhbp2rcd13ifvqerg","pricing_plan_id":"cebpf4jnsgd1na2vs0mg"},{"bike_id":"0e1fd179-f6dc-4047-8ba7-96fc9adce901","system_id":"levelo_inurba_marseille","lat":43.28623,"lon":5.35095,"is_reserved":false,"is_disabled":false,"rental_uris":{"android":"levelo://app?vid=0e1fd179-f6dc-4047-8ba7-96fc9adce901","ios":"levelo://app?vid=0e1fd179-f6dc-4047-8ba7-96fc9adce901"},"vehicle_type_id":"4","last_reported":1751307327,"current_range_meters":16000,"station_id":"ce4bhch2rcd13ifvqeug","pricing_plan_id":"cebpf4jnsgd1na2vs0mg"},{"bike_id":"e42341f6-2b88-484e-b8ef-ad8eb993f445","system_id":"levelo_inurba_marseille","lat":43.28109,"lon":5.3783,"is_reserved":false,"is_disabled":false,"rental_uris":{"android":"levelo://app?vid=e42341f6-2b88-484e-b8ef-ad8eb993f445","ios":"levelo://app?vid=e42341f6-2b88-484e-b8ef-ad8eb993f445"},"vehicle_type_id":"4","last_reported":1751307327,"current_range_meters":16400,"station_id":"ce4bha12rcd13ifvqee0","pricing_plan_id":"cebpf4jnsgd1na2vs0mg"},{"bike_id":"8237ec45-a1ed-4542-96b3-f54acd385f13","system_id":"levelo_inurba_marseille","lat":43.28423,"lon":5.34998,"is_reserved":false,"is_disabled":false,"rental_uris":{"android":"levelo://app?vid=8237ec45-a1ed-4542-96b3-f54acd385f13","ios":"levelo://app?vid=8237ec45-a1ed-4542-96b3-f54acd385f13"},"vehicle_type_id":"4","last_reported":1751307327,"current_range_meters":16400,"station_id":"ce4bhbh2rcd13ifvqepg","pricing_plan_id":"cebpf4jnsgd1na2vs0mg"},{"bike_id":"c28e39dc-72cd-4fd8-89b7-00c27c125c16","system_id":"levelo_inurba_marseille","lat":43.28408,"lon":5.34997,"is_reserved":false,"is_disabled":false,"rental_uris":{"android":"levelo://app?vid=c28e39dc-72cd-4fd8-89b7-00c27c125c16","ios":"levelo://app?vid=c28e39dc-72cd-4fd8-89b7-00c27c125c16"},"vehicle_type_id":"4","last_reported":1751307327,"current_range_meters":16400,"station_id":"ce4bhbh2rcd13ifvqepg","pricing_plan_id":"cebpf4jnsgd1na2vs0mg"},{"bike_id":"f3a76243-2e2d-4988-8259-be4005b0f777","system_id":"levelo_inurba_marseille","lat":43.29229,"lon":5.36063,"is_reserved":false,"is_disabled":false,"rental_uris":{"android":"levelo://app?vid=f3a76243-2e2d-4988-8259-be4005b0f777","ios":"levelo://app?vid=f3a76243-2e2d-4988-8259-be4005b0f777"},"vehicle_type_id":"4","last_reported":1751307327,"current_range_meters":16400,"station_id":"ce4bhbh2rcd13ifvqeqg","pricing_plan_id":"cebpf4jnsgd1na2vs0mg"},{"bike_id":"e3be0bae-c457-417e-b637-2edfbaf52fd0","system_id":"levelo_inurba_marseille","lat":43.28279,"lon":5.35035,"is_reserved":false,"is_disabled":false,"rental_uris":{"android":"levelo://app?vid=e3be0bae-c457-417e-b637-2edfbaf52fd0","ios":"levelo://app?vid=e3be0bae-c457-417e-b637-2edfbaf52fd0"},"vehicle_type_id":"4","last_reported":1751307327,"current_range_meters":16400,"station_id":"ce4bhbp2rcd13ifvqerg","pricing_plan_id":"cebpf4jnsgd1na2vs0mg"},{"bike_id":"51295896-5ce8-4b8c-a71e-577f5adbafc9","system_id":"levelo_inurba_marseille","lat":43.28609,"lon":5.35101,"is_reserved":false,"is_disabled":false,"rental_uris":{"android":"levelo://app?vid=51295896-5ce8-4b8c-a71e-577f5adbafc9","ios":"levelo://app?vid=51295896-5ce8-4b8c-a71e-577f5adbafc9"},"vehicle_type_id":"4","last_reported":1751307327,"current_range_meters":16400,"station_id":"ce4bhch2rcd13ifvqeug","pricing_plan_id":"cebpf4jnsgd1na2vs0mg"},{"bike_id":"737a2d59-03f1-461d-9876-2d1d9e4fbcd3","system_id":"levelo_inurba_marseille","lat":43.241598,"lon":5.364115,"is_reserved":false,"is_disabled":false,"rental_uris":{"android":"levelo://app?vid=737a2d59-03f1-461d-9876-2d1d9e4fbcd3","ios":"levelo://app?vid=737a2d59-03f1-461d-9876-2d1d9e4fbcd3"},"vehicle_type_id":"4","last_reported":1751307327,"current_range_meters":16400,"station_id":"ce4bhi12rcd13ifvqfp0","pricing_plan_id":"cebpf4jnsgd1na2vs0mg"},{"bike_id":"38b2c8ee-d547-4068-b3e6-e6635f821338","system_id":"levelo_inurba_marseille","lat":43.27941,"lon":5.41045,"is_reserved":false,"is_disabled":false,"rental_uris":{"android":"levelo://app?vid=38b2c8ee-d547-4068-b3e6-e6635f821338","ios":"levelo://app?vid=38b2c8ee-d547-4068-b3e6-e6635f821338"},"vehicle_type_id":"4","last_reported":1751307327,"current_range_meters":16400,"station_id":"ce4bhnp2rcd13ifvqh0g","pricing_plan_id":"cebpf4jnsgd1na2vs0mg"},{"bike_id":"d90daeb2-baa5-4f84-8ba2-ffc1dcd4b96b","system_id":"levelo_inurba_marseille","lat":43.241692,"lon":5.364067,"is_reserved":false,"is_disabled":false,"rental_uris":{"android":"levelo://app?vid=d90daeb2-baa5-4f84-8ba2-ffc1dcd4b96b","ios":"levelo://app?vid=d90daeb2-baa5-4f84-8ba2-ffc1dcd4b96b"},"vehicle_type_id":"4","last_reported":1751307327,"current_range_meters":16400,"station_id":"cpo36qri1sfpv3e86is0","pricing_plan_id":"cebpf4jnsgd1na2vs0mg"},{"bike_id":"048ec6e9-5fd9-4256-ae6a-a72856ab2acf","system_id":"levelo_inurba_marseille","lat":43.21187,"lon":5.35073,"is_reserved":false,"is_disabled":false,"rental_uris":{"android":"levelo://app?vid=048ec6e9-5fd9-4256-ae6a-a72856ab2acf","ios":"levelo://app?vid=048ec6e9-5fd9-4256-ae6a-a72856ab2acf"},"vehicle_type_id":"4","last_reported":1751307327,"current_range_meters":16400,"station_id":"st_cvj6sg6p6f1abm77japg","pricing_plan_id":"cebpf4jnsgd1na2vs0mg"},{"bike_id":"2f64dc33-a92d-4e2f-a1ab-0f214d71df19","system_id":"levelo_inurba_marseille","lat":43.3012,"lon":5.39865,"is_reserved":false,"is_disabled":false,"rental_uris":{"android":"levelo://app?vid=2f64dc33-a92d-4e2f-a1ab-0f214d71df19","ios":"levelo://app?vid=2f64dc33-a92d-4e2f-a1ab-0f214d71df19"},"vehicle_type_id":"4","last_reported":1751307327,"current_range_meters":16800,"station_id":"ce4bh0h2rcd13ifvqd40","pricing_plan_id":"cebpf4jnsgd1na2vs0mg"},{"bike_id":"2d6b6bca-190f-474b-a5f8-6fc0ac1a372a","system_id":"levelo_inurba_marseille","lat":43.29528,"lon":5.3903,"is_reserved":false,"is_disabled":false,"rental_uris":{"android":"levelo://app?vid=2d6b6bca-190f-474b-a5f8-6fc0ac1a372a","ios":"levelo://app?vid=2d6b6bca-190f-474b-a5f8-6fc0ac1a372a"},"vehicle_type_id":"4","last_reported":1751307327,"current_range_meters":16800,"station_id":"ce4bh3p2rcd13ifvqdp0","pricing_plan_id":"cebpf4jnsgd1na2vs0mg"},{"bike_id":"19f352c8-e175-4f9a-975e-55f43b117387","system_id":"levelo_inurba_marseille","lat":43.28857,"lon":5.35851,"is_reserved":false,"is_disabled":false,"rental_uris":{"android":"levelo://app?vid=19f352c8-e175-4f9a-975e-55f43b117387","ios":"levelo://app?vid=19f352c8-e175-4f9a-975e-55f43b117387"},"vehicle_type_id":"4","last_reported":1751307327,"current_range_meters":16800,"station_id":"ce4bhb12rcd13ifvqem0","pricing_plan_id":"cebpf4jnsgd1na2vs0mg"},{"bike_id":"3f1f22b8-0242-4c2b-9318-a80840a67234","system_id":"levelo_inurba_marseille","lat":43.282633,"lon":5.350516,"is_reserved":false,"is_disabled":false,"rental_uris":{"android":"levelo://app?vid=3f1f22b8-0242-4c2b-9318-a80840a67234","ios":"levelo://app?vid=3f1f22b8-0242-4c2b-9318-a80840a67234"},"vehicle_type_id":"4","last_reported":1751307327,"current_range_meters":16800,"station_id":"ce4bhbp2rcd13ifvqerg","pricing_plan_id":"cebpf4jnsgd1na2vs0mg"},{"bike_id":"714e81cc-0a88-4f76-a904-b1c3a28974fe","system_id":"levelo_inurba_marseille","lat":43.28624,"lon":5.3507,"is_reserved":false,"is_disabled":false,"rental_uris":{"android":"levelo://app?vid=714e81cc-0a88-4f76-a904-b1c3a28974fe","ios":"levelo://app?vid=714e81cc-0a88-4f76-a904-b1c3a28974fe"},"vehicle_type_id":"4","last_reported":1751307327,"current_range_meters":16800,"station_id":"ce4bhch2rcd13ifvqeug","pricing_plan_id":"cebpf4jnsgd1na2vs0mg"},{"bike_id":"d8f73793-e3e9-4b33-b4e9-88de07786df1","system_id":"levelo_inurba_marseille","lat":43.2863,"lon":5.35093,"is_reserved":false,"is_disabled":false,"rental_uris":{"android":"levelo://app?vid=d8f73793-e3e9-4b33-b4e9-88de07786df1","ios":"levelo://app?vid=d8f73793-e3e9-4b33-b4e9-88de07786df1"},"vehicle_type_id":"4","last_reported":1751307327,"current_range_meters":16800,"station_id":"ce4bhch2rcd13ifvqeug","pricing_plan_id":"cebpf4jnsgd1na2vs0mg"},{"bike_id":"0d839b5e-baaf-4b32-8658-bb0d20744629","system_id":"levelo_inurba_marseille","lat":43.211966,"lon":5.35069,"is_reserved":false,"is_disabled":false,"rental_uris":{"android":"levelo://app?vid=0d839b5e-baaf-4b32-8658-bb0d20744629","ios":"levelo://app?vid=0d839b5e-baaf-4b32-8658-bb0d20744629"},"vehicle_type_id":"4","last_reported":1751307327,"current_range_meters":16800,"station_id":"st_cvj6sg6p6f1abm77japg","pricing_plan_id":"cebpf4jnsgd1na2vs0mg"},{"bike_id":"e552832c-7ca2-4106-b0f9-92bbabda27d1","system_id":"levelo_inurba_marseille","lat":43.21188,"lon":5.35071,"is_reserved":false,"is_disabled":false,"rental_uris":{"android":"levelo://app?vid=e552832c-7ca2-4106-b0f9-92bbabda27d1","ios":"levelo://app?vid=e552832c-7ca2-4106-b0f9-92bbabda27d1"},"vehicle_type_id":"4","last_reported":1751307327,"current_range_meters":16800,"station_id":"st_cvj6sg6p6f1abm77japg","pricing_plan_id":"cebpf4jnsgd1na2vs0mg"},{"bike_id":"b13877a6-4825-4d82-b46b-67fa8ad66c5d","system_id":"levelo_inurba_marseille","lat":43.211908,"lon":5.350746,"is_reserved":false,"is_disabled":false,"rental_uris":{"android":"levelo://app?vid=b13877a6-4825-4d82-b46b-67fa8ad66c5d","ios":"levelo://app?vid=b13877a6-4825-4d82-b46b-67fa8ad66c5d"},"vehicle_type_id":"4","last_reported":1751307327,"current_range_meters":16800,"station_id":"st_cvj6sg6p6f1abm77japg","pricing_plan_id":"cebpf4jnsgd1na2vs0mg"},{"bike_id":"9313978b-acba-4b6a-89c4-a33feb3f0260","system_id":"levelo_inurba_marseille","lat":43.29305,"lon":5.37176,"is_reserved":false,"is_disabled":false,"rental_uris":{"android":"levelo://app?vid=9313978b-acba-4b6a-89c4-a33feb3f0260","ios":"levelo://app?vid=9313978b-acba-4b6a-89c4-a33feb3f0260"},"vehicle_type_id":"4","last_reported":1751307327,"current_range_meters":17200,"station_id":"ce4bgh92rcd13ifvqb40","pricing_plan_id":"cebpf4jnsgd1na2vs0mg"},{"bike_id":"c2b72fe0-bae6-4c7b-ad48-9e771b203dc8","system_id":"levelo_inurba_marseille","lat":43.31352,"lon":5.3847,"is_reserved":false,"is_disabled":false,"rental_uris":{"android":"levelo://app?vid=c2b72fe0-bae6-4c7b-ad48-9e771b203dc8","ios":"levelo://app?vid=c2b72fe0-bae6-4c7b-ad48-9e771b203dc8"},"vehicle_type_id":"4","last_reported":1751307327,"current_range_meters":17200,"station_id":"ce4bgt92rcd13ifvqcf0","pricing_plan_id":"cebpf4jnsgd1na2vs0mg"},{"bike_id":"7f4b062f-7229-4691-aacd-e9161e3b4bd1","system_id":"levelo_inurba_marseille","lat":43.301879,"lon":5.398982,"is_reserved":false,"is_disabled":false,"rental_uris":{"android":"levelo://app?vid=7f4b062f-7229-4691-aacd-e9161e3b4bd1","ios":"levelo://app?vid=7f4b062f-7229-4691-aacd-e9161e3b4bd1"},"vehicle_type_id":"4","last_reported":1751307327,"current_range_meters":17200,"station_id":"ce4bh0h2rcd13ifvqd40","pricing_plan_id":"cebpf4jnsgd1na2vs0mg"},{"bike_id":"95a49116-994f-4c11-a98c-cf27d5f216b5","system_id":"levelo_inurba_marseille","lat":43.28279,"lon":5.35061,"is_reserved":false,"is_disabled":false,"rental_uris":{"android":"levelo://app?vid=95a49116-994f-4c11-a98c-cf27d5f216b5","ios":"levelo://app?vid=95a49116-994f-4c11-a98c-cf27d5f216b5"},"vehicle_type_id":"4","last_reported":1751307327,"current_range_meters":17200,"station_id":"ce4bhbp2rcd13ifvqerg","pricing_plan_id":"cebpf4jnsgd1na2vs0mg"},{"bike_id":"e25ba395-2bc9-44d2-8b95-073fe9e7fe66","system_id":"levelo_inurba_marseille","lat":43.28618,"lon":5.35098,"is_reserved":false,"is_disabled":false,"rental_uris":{"android":"levelo://app?vid=e25ba395-2bc9-44d2-8b95-073fe9e7fe66","ios":"levelo://app?vid=e25ba395-2bc9-44d2-8b95-073fe9e7fe66"},"vehicle_type_id":"4","last_reported":1751307327,"current_range_meters":17200,"station_id":"ce4bhch2rcd13ifvqeug","pricing_plan_id":"cebpf4jnsgd1na2vs0mg"},{"bike_id":"68658201-ff30-4e24-b36e-e2b74c54b0a9","system_id":"levelo_inurba_marseille","lat":43.319975,"lon":5.38156,"is_reserved":false,"is_disabled":false,"rental_uris":{"android":"levelo://app?vid=68658201-ff30-4e24-b36e-e2b74c54b0a9","ios":"levelo://app?vid=68658201-ff30-4e24-b36e-e2b74c54b0a9"},"vehicle_type_id":"4","last_reported":1751307327,"current_range_meters":17200,"station_id":"ce4bhr12rcd13ifvqhpg","pricing_plan_id":"cebpf4jnsgd1na2vs0mg"},{"bike_id":"94dae28f-7d81-4605-9f87-da0c6467034f","system_id":"levelo_inurba_marseille","lat":43.24166,"lon":5.36389,"is_reserved":false,"is_disabled":false,"rental_uris":{"android":"levelo://app?vid=94dae28f-7d81-4605-9f87-da0c6467034f","ios":"levelo://app?vid=94dae28f-7d81-4605-9f87-da0c6467034f"},"vehicle_type_id":"4","last_reported":1751307327,"current_range_meters":17200,"station_id":"cpo36qri1sfpv3e86is0","pricing_plan_id":"cebpf4jnsgd1na2vs0mg"},{"bike_id":"cc00e40a-c5cc-4f6a-acb6-8fdcb4bdc87a","system_id":"levelo_inurba_marseille","lat":43.211902,"lon":5.350738,"is_reserved":false,"is_disabled":false,"rental_uris":{"android":"levelo://app?vid=cc00e40a-c5cc-4f6a-acb6-8fdcb4bdc87a","ios":"levelo://app?vid=cc00e40a-c5cc-4f6a-acb6-8fdcb4bdc87a"},"vehicle_type_id":"4","last_reported":1751307327,"current_range_meters":17200,"station_id":"st_cvj6sg6p6f1abm77japg","pricing_plan_id":"cebpf4jnsgd1na2vs0mg"},{"bike_id":"f603f3aa-5bf7-4a19-a8a1-b47909f854c7","system_id":"levelo_inurba_marseille","lat":43.211938,"lon":5.350648,"is_reserved":false,"is_disabled":false,"rental_uris":{"android":"levelo://app?vid=f603f3aa-5bf7-4a19-a8a1-b47909f854c7","ios":"levelo://app?vid=f603f3aa-5bf7-4a19-a8a1-b47909f854c7"},"vehicle_type_id":"4","last_reported":1751307327,"current_range_meters":17200,"station_id":"st_cvj6sg6p6f1abm77japg","pricing_plan_id":"cebpf4jnsgd1na2vs0mg"},{"bike_id":"a0cef316-ad95-4855-8f78-a31341a2b90e","system_id":"levelo_inurba_marseille","lat":43.33691,"lon":5.37814,"is_reserved":false,"is_disabled":false,"rental_uris":{"android":"levelo://app?vid=a0cef316-ad95-4855-8f78-a31341a2b90e","ios":"levelo://app?vid=a0cef316-ad95-4855-8f78-a31341a2b90e"},"vehicle_type_id":"4","last_reported":1751307327,"current_range_meters":17600,"station_id":"","pricing_plan_id":"cebpf4jnsgd1na2vs0mg"},{"bike_id":"65890312-b4a6-463f-9b81-132ee12a3ed0","system_id":"levelo_inurba_marseille","lat":43.27367,"lon":5.36258,"is_reserved":false,"is_disabled":false,"rental_uris":{"android":"levelo://app?vid=65890312-b4a6-463f-9b81-132ee12a3ed0","ios":"levelo://app?vid=65890312-b4a6-463f-9b81-132ee12a3ed0"},"vehicle_type_id":"4","last_reported":1751307327,"current_range_meters":17600,"station_id":"ce4bhbh2rcd13ifvqeo0","pricing_plan_id":"cebpf4jnsgd1na2vs0mg"},{"bike_id":"ecd422ac-9e70-41eb-9655-91fc424429f0","system_id":"levelo_inurba_marseille","lat":43.28405,"lon":5.34989,"is_reserved":false,"is_disabled":false,"rental_uris":{"android":"levelo://app?vid=ecd422ac-9e70-41eb-9655-91fc424429f0","ios":"levelo://app?vid=ecd422ac-9e70-41eb-9655-91fc424429f0"},"vehicle_type_id":"4","last_reported":1751307327,"current_range_meters":17600,"station_id":"ce4bhbh2rcd13ifvqepg","pricing_plan_id":"cebpf4jnsgd1na2vs0mg"},{"bike_id":"f4bfa86c-cbfe-4edf-8ae6-de726347bc3f","system_id":"levelo_inurba_marseille","lat":43.28417,"lon":5.34978,"is_reserved":false,"is_disabled":false,"rental_uris":{"android":"levelo://app?vid=f4bfa86c-cbfe-4edf-8ae6-de726347bc3f","ios":"levelo://app?vid=f4bfa86c-cbfe-4edf-8ae6-de726347bc3f"},"vehicle_type_id":"4","last_reported":1751307327,"current_range_meters":17600,"station_id":"ce4bhbh2rcd13ifvqepg","pricing_plan_id":"cebpf4jnsgd1na2vs0mg"},{"bike_id":"cbd65d27-088b-445e-aa09-31ae3ca5d1a7","system_id":"levelo_inurba_marseille","lat":43.28613,"lon":5.35108,"is_reserved":false,"is_disabled":false,"rental_uris":{"android":"levelo://app?vid=cbd65d27-088b-445e-aa09-31ae3ca5d1a7","ios":"levelo://app?vid=cbd65d27-088b-445e-aa09-31ae3ca5d1a7"},"vehicle_type_id":"4","last_reported":1751307327,"current_range_meters":17600,"station_id":"ce4bhch2rcd13ifvqeug","pricing_plan_id":"cebpf4jnsgd1na2vs0mg"},{"bike_id":"bb26ed04-28bb-448b-9079-9591e66e5f5d","system_id":"levelo_inurba_marseille","lat":43.248,"lon":5.3745,"is_reserved":false,"is_disabled":false,"rental_uris":{"android":"levelo://app?vid=bb26ed04-28bb-448b-9079-9591e66e5f5d","ios":"levelo://app?vid=bb26ed04-28bb-448b-9079-9591e66e5f5d"},"vehicle_type_id":"4","last_reported":1751307327,"current_range_meters":17600,"station_id":"ce4bhgh2rcd13ifvqfb0","pricing_plan_id":"cebpf4jnsgd1na2vs0mg"},{"bike_id":"2d082bd7-170a-45ce-a58d-5ef3a54406f6","system_id":"levelo_inurba_marseille","lat":43.24991,"lon":5.38935,"is_reserved":false,"is_disabled":false,"rental_uris":{"android":"levelo://app?vid=2d082bd7-170a-45ce-a58d-5ef3a54406f6","ios":"levelo://app?vid=2d082bd7-170a-45ce-a58d-5ef3a54406f6"},"vehicle_type_id":"4","last_reported":1751307327,"current_range_meters":17600,"station_id":"ce4bhgp2rcd13ifvqfd0","pricing_plan_id":"cebpf4jnsgd1na2vs0mg"},{"bike_id":"a2864fe7-1184-48ae-a023-a28908a07e8e","system_id":"levelo_inurba_marseille","lat":43.27498,"lon":5.42449,"is_reserved":false,"is_disabled":false,"rental_uris":{"android":"levelo://app?vid=a2864fe7-1184-48ae-a023-a28908a07e8e","ios":"levelo://app?vid=a2864fe7-1184-48ae-a023-a28908a07e8e"},"vehicle_type_id":"4","last_reported":1751307327,"current_range_meters":17600,"station_id":"ce4bhn92rcd13ifvqgrg","pricing_plan_id":"cebpf4jnsgd1na2vs0mg"},{"bike_id":"d0b2f4a7-e242-4703-926d-40f0be1abcaa","system_id":"levelo_inurba_marseille","lat":43.24713,"lon":5.38133,"is_reserved":false,"is_disabled":false,"rental_uris":{"android":"levelo://app?vid=d0b2f4a7-e242-4703-926d-40f0be1abcaa","ios":"levelo://app?vid=d0b2f4a7-e242-4703-926d-40f0be1abcaa"},"vehicle_type_id":"4","last_reported":1751307327,"current_range_meters":18000,"station_id":"","pricing_plan_id":"cebpf4jnsgd1na2vs0mg"},{"bike_id":"c0228700-5312-4a39-89af-ec53a5d729c5","system_id":"levelo_inurba_marseille","lat":43.28322,"lon":5.43235,"is_reserved":false,"is_disabled":false,"rental_uris":{"android":"levelo://app?vid=c0228700-5312-4a39-89af-ec53a5d729c5","ios":"levelo://app?vid=c0228700-5312-4a39-89af-ec53a5d729c5"},"vehicle_type_id":"4","last_reported":1751307327,"current_range_meters":18000,"station_id":"","pricing_plan_id":"cebpf4jnsgd1na2vs0mg"},{"bike_id":"4974647d-fccc-4ed5-af13-92d61d3bf7a4","system_id":"levelo_inurba_marseille","lat":43.30962,"lon":5.39035,"is_reserved":false,"is_disabled":false,"rental_uris":{"android":"levelo://app?vid=4974647d-fccc-4ed5-af13-92d61d3bf7a4","ios":"levelo://app?vid=4974647d-fccc-4ed5-af13-92d61d3bf7a4"},"vehicle_type_id":"4","last_reported":1751307327,"current_range_meters":18000,"station_id":"ce4bgup2rcd13ifvqco0","pricing_plan_id":"cebpf4jnsgd1na2vs0mg"},{"bike_id":"aca40d57-c222-4d5f-a843-8a036a3d51c5","system_id":"levelo_inurba_marseille","lat":43.29274,"lon":5.40112,"is_reserved":false,"is_disabled":false,"rental_uris":{"android":"levelo://app?vid=aca40d57-c222-4d5f-a843-8a036a3d51c5","ios":"levelo://app?vid=aca40d57-c222-4d5f-a843-8a036a3d51c5"},"vehicle_type_id":"4","last_reported":1751307327,"current_range_meters":18000,"station_id":"ce4bh312rcd13ifvqdk0","pricing_plan_id":"cebpf4jnsgd1na2vs0mg"},{"bike_id":"03dc5349-2ade-422f-a581-dc730608c507","system_id":"levelo_inurba_marseille","lat":43.28409,"lon":5.34977,"is_reserved":false,"is_disabled":false,"rental_uris":{"android":"levelo://app?vid=03dc5349-2ade-422f-a581-dc730608c507","ios":"levelo://app?vid=03dc5349-2ade-422f-a581-dc730608c507"},"vehicle_type_id":"4","last_reported":1751307327,"current_range_meters":18000,"station_id":"ce4bhbh2rcd13ifvqepg","pricing_plan_id":"cebpf4jnsgd1na2vs0mg"},{"bike_id":"0a24663d-7c62-458e-8d52-c21c6564ba2b","system_id":"levelo_inurba_marseille","lat":43.29202,"lon":5.36061,"is_reserved":false,"is_disabled":false,"rental_uris":{"android":"levelo://app?vid=0a24663d-7c62-458e-8d52-c21c6564ba2b","ios":"levelo://app?vid=0a24663d-7c62-458e-8d52-c21c6564ba2b"},"vehicle_type_id":"4","last_reported":1751307327,"current_range_meters":18000,"station_id":"ce4bhbh2rcd13ifvqeqg","pricing_plan_id":"cebpf4jnsgd1na2vs0mg"},{"bike_id":"736ebfb7-9a36-4810-be1b-55119b8b137e","system_id":"levelo_inurba_marseille","lat":43.24804,"lon":5.37452,"is_reserved":false,"is_disabled":false,"rental_uris":{"android":"levelo://app?vid=736ebfb7-9a36-4810-be1b-55119b8b137e","ios":"levelo://app?vid=736ebfb7-9a36-4810-be1b-55119b8b137e"},"vehicle_type_id":"4","last_reported":1751307327,"current_range_meters":18000,"station_id":"ce4bhgh2rcd13ifvqfb0","pricing_plan_id":"cebpf4jnsgd1na2vs0mg"},{"bike_id":"0a5a6df3-791d-4e1e-9f7c-cb1cf013a1c7","system_id":"levelo_inurba_marseille","lat":43.243376,"lon":5.406345,"is_reserved":false,"is_disabled":false,"rental_uris":{"android":"levelo://app?vid=0a5a6df3-791d-4e1e-9f7c-cb1cf013a1c7","ios":"levelo://app?vid=0a5a6df3-791d-4e1e-9f7c-cb1cf013a1c7"},"vehicle_type_id":"4","last_reported":1751307327,"current_range_meters":18000,"station_id":"ce4bhkp2rcd13ifvqgd0","pricing_plan_id":"cebpf4jnsgd1na2vs0mg"},{"bike_id":"2067a7f0-dc84-47d2-9e8f-2949859687a5","system_id":"levelo_inurba_marseille","lat":43.28421,"lon":5.34977,"is_reserved":false,"is_disabled":false,"rental_uris":{"android":"levelo://app?vid=2067a7f0-dc84-47d2-9e8f-2949859687a5","ios":"levelo://app?vid=2067a7f0-dc84-47d2-9e8f-2949859687a5"},"vehicle_type_id":"4","last_reported":1751307327,"current_range_meters":18800,"station_id":"ce4bhbh2rcd13ifvqepg","pricing_plan_id":"cebpf4jnsgd1na2vs0mg"},{"bike_id":"fccc37c6-5ffe-4b50-a66a-8a2c67be5191","system_id":"levelo_inurba_marseille","lat":43.28265,"lon":5.35072,"is_reserved":false,"is_disabled":false,"rental_uris":{"android":"levelo://app?vid=fccc37c6-5ffe-4b50-a66a-8a2c67be5191","ios":"levelo://app?vid=fccc37c6-5ffe-4b50-a66a-8a2c67be5191"},"vehicle_type_id":"4","last_reported":1751307327,"current_range_meters":18800,"station_id":"ce4bhbp2rcd13ifvqerg","pricing_plan_id":"cebpf4jnsgd1na2vs0mg"},{"bike_id":"1c0e58d7-52b0-4566-8317-cc81b3a76a1a","system_id":"levelo_inurba_marseille","lat":43.28618,"lon":5.35088,"is_reserved":false,"is_disabled":false,"rental_uris":{"android":"levelo://app?vid=1c0e58d7-52b0-4566-8317-cc81b3a76a1a","ios":"levelo://app?vid=1c0e58d7-52b0-4566-8317-cc81b3a76a1a"},"vehicle_type_id":"4","last_reported":1751307327,"current_range_meters":18800,"station_id":"ce4bhch2rcd13ifvqeug","pricing_plan_id":"cebpf4jnsgd1na2vs0mg"},{"bike_id":"b5e8786a-da33-4987-b855-1e477ac8969b","system_id":"levelo_inurba_marseille","lat":43.25495,"lon":5.37648,"is_reserved":false,"is_disabled":false,"rental_uris":{"android":"levelo://app?vid=b5e8786a-da33-4987-b855-1e477ac8969b","ios":"levelo://app?vid=b5e8786a-da33-4987-b855-1e477ac8969b"},"vehicle_type_id":"4","last_reported":1751307327,"current_range_meters":18800,"station_id":"ce4bhh12rcd13ifvqff0","pricing_plan_id":"cebpf4jnsgd1na2vs0mg"},{"bike_id":"8ad53220-e0dc-4223-912a-b0b7e0e87b8e","system_id":"levelo_inurba_marseille","lat":43.24541,"lon":5.39515,"is_reserved":false,"is_disabled":false,"rental_uris":{"android":"levelo://app?vid=8ad53220-e0dc-4223-912a-b0b7e0e87b8e","ios":"levelo://app?vid=8ad53220-e0dc-4223-912a-b0b7e0e87b8e"},"vehicle_type_id":"4","last_reported":1751307327,"current_range_meters":18800,"station_id":"ce4bhlp2rcd13ifvqgjg","pricing_plan_id":"cebpf4jnsgd1na2vs0mg"},{"bike_id":"d01f7277-1739-4337-8020-44a5cfaf5932","system_id":"levelo_inurba_marseille","lat":43.31886,"lon":5.4074,"is_reserved":false,"is_disabled":false,"rental_uris":{"android":"levelo://app?vid=d01f7277-1739-4337-8020-44a5cfaf5932","ios":"levelo://app?vid=d01f7277-1739-4337-8020-44a5cfaf5932"},"vehicle_type_id":"4","last_reported":1751307327,"current_range_meters":18800,"station_id":"ce4bhq12rcd13ifvqhig","pricing_plan_id":"cebpf4jnsgd1na2vs0mg"},{"bike_id":"1caca1fc-4911-4e37-9aeb-383803780faf","system_id":"levelo_inurba_marseille","lat":43.3211,"lon":5.36755,"is_reserved":false,"is_disabled":false,"rental_uris":{"android":"levelo://app?vid=1caca1fc-4911-4e37-9aeb-383803780faf","ios":"levelo://app?vid=1caca1fc-4911-4e37-9aeb-383803780faf"},"vehicle_type_id":"4","last_reported":1751307327,"current_range_meters":18800,"station_id":"ce4bhrh2rcd13ifvqhug","pricing_plan_id":"cebpf4jnsgd1na2vs0mg"},{"bike_id":"518354b5-8405-430c-bbfc-0e30bc76b92d","system_id":"levelo_inurba_marseille","lat":43.217715,"lon":5.34584,"is_reserved":false,"is_disabled":false,"rental_uris":{"android":"levelo://app?vid=518354b5-8405-430c-bbfc-0e30bc76b92d","ios":"levelo://app?vid=518354b5-8405-430c-bbfc-0e30bc76b92d"},"vehicle_type_id":"4","last_reported":1751307327,"current_range_meters":18800,"station_id":"st_cvj6r9ubvosntc0bgbag","pricing_plan_id":"cebpf4jnsgd1na2vs0mg"},{"bike_id":"5767b9e4-81ec-40bf-bccc-db289ba35b4e","system_id":"levelo_inurba_marseille","lat":43.27424,"lon":5.41181,"is_reserved":false,"is_disabled":false,"rental_uris":{"android":"levelo://app?vid=5767b9e4-81ec-40bf-bccc-db289ba35b4e","ios":"levelo://app?vid=5767b9e4-81ec-40bf-bccc-db289ba35b4e"},"vehicle_type_id":"4","last_reported":1751307327,"current_range_meters":19200,"station_id":"","pricing_plan_id":"cebpf4jnsgd1na2vs0mg"},{"bike_id":"5bf56ac7-293b-4307-a3bb-c92f3aceb0ba","system_id":"levelo_inurba_marseille","lat":43.29299,"lon":5.37457,"is_reserved":false,"is_disabled":false,"rental_uris":{"android":"levelo://app?vid=5bf56ac7-293b-4307-a3bb-c92f3aceb0ba","ios":"levelo://app?vid=5bf56ac7-293b-4307-a3bb-c92f3aceb0ba"},"vehicle_type_id":"4","last_reported":1751307327,"current_range_meters":19200,"station_id":"ce4bgi12rcd13ifvqb70","pricing_plan_id":"cebpf4jnsgd1na2vs0mg"},{"bike_id":"c6307ece-49d0-4a7d-93f5-d78ce1f8706a","system_id":"levelo_inurba_marseille","lat":43.31695,"lon":5.37738,"is_reserved":false,"is_disabled":false,"rental_uris":{"android":"levelo://app?vid=c6307ece-49d0-4a7d-93f5-d78ce1f8706a","ios":"levelo://app?vid=c6307ece-49d0-4a7d-93f5-d78ce1f8706a"},"vehicle_type_id":"4","last_reported":1751307327,"current_range_meters":19200,"station_id":"ce4bgth2rcd13ifvqch0","pricing_plan_id":"cebpf4jnsgd1na2vs0mg"},{"bike_id":"6f5d2221-9b3c-4480-b1a5-0e1a4cf0a187","system_id":"levelo_inurba_marseille","lat":43.28613,"lon":5.35063,"is_reserved":false,"is_disabled":false,"rental_uris":{"android":"levelo://app?vid=6f5d2221-9b3c-4480-b1a5-0e1a4cf0a187","ios":"levelo://app?vid=6f5d2221-9b3c-4480-b1a5-0e1a4cf0a187"},"vehicle_type_id":"4","last_reported":1751307327,"current_range_meters":19200,"station_id":"ce4bhch2rcd13ifvqeug","pricing_plan_id":"cebpf4jnsgd1na2vs0mg"},{"bike_id":"eb0ce0af-c7fe-4ba4-8b7a-503d9c5c9392","system_id":"levelo_inurba_marseille","lat":43.23966,"lon":5.36631,"is_reserved":false,"is_disabled":false,"rental_uris":{"android":"levelo://app?vid=eb0ce0af-c7fe-4ba4-8b7a-503d9c5c9392","ios":"levelo://app?vid=eb0ce0af-c7fe-4ba4-8b7a-503d9c5c9392"},"vehicle_type_id":"4","last_reported":1751307327,"current_range_meters":19200,"station_id":"ce4bhi12rcd13ifvqfp0","pricing_plan_id":"cebpf4jnsgd1na2vs0mg"},{"bike_id":"86fa6ce7-8cbe-47ff-b5d3-c2b4938fd05c","system_id":"levelo_inurba_marseille","lat":43.21219,"lon":5.35058,"is_reserved":false,"is_disabled":false,"rental_uris":{"android":"levelo://app?vid=86fa6ce7-8cbe-47ff-b5d3-c2b4938fd05c","ios":"levelo://app?vid=86fa6ce7-8cbe-47ff-b5d3-c2b4938fd05c"},"vehicle_type_id":"4","last_reported":1751307327,"current_range_meters":19200,"station_id":"st_cvj6sg6p6f1abm77japg","pricing_plan_id":"cebpf4jnsgd1na2vs0mg"},{"bike_id":"d2019eb4-f450-4e51-abec-b5191e2306d5","system_id":"levelo_inurba_marseille","lat":43.29919,"lon":5.43682,"is_reserved":false,"is_disabled":false,"rental_uris":{"android":"levelo://app?vid=d2019eb4-f450-4e51-abec-b5191e2306d5","ios":"levelo://app?vid=d2019eb4-f450-4e51-abec-b5191e2306d5"},"vehicle_type_id":"4","last_reported":1751307327,"current_range_meters":19600,"station_id":"","pricing_plan_id":"cebpf4jnsgd1na2vs0mg"},{"bike_id":"8bab30f8-dda5-4f52-87c2-25466d60dc6b","system_id":"levelo_inurba_marseille","lat":43.3096,"lon":5.39035,"is_reserved":false,"is_disabled":false,"rental_uris":{"android":"levelo://app?vid=8bab30f8-dda5-4f52-87c2-25466d60dc6b","ios":"levelo://app?vid=8bab30f8-dda5-4f52-87c2-25466d60dc6b"},"vehicle_type_id":"4","last_reported":1751307327,"current_range_meters":19600,"station_id":"ce4bgup2rcd13ifvqco0","pricing_plan_id":"cebpf4jnsgd1na2vs0mg"},{"bike_id":"f44cccc7-9fdf-414f-af6b-a625c6a5b115","system_id":"levelo_inurba_marseille","lat":43.30138,"lon":5.39856,"is_reserved":false,"is_disabled":false,"rental_uris":{"android":"levelo://app?vid=f44cccc7-9fdf-414f-af6b-a625c6a5b115","ios":"levelo://app?vid=f44cccc7-9fdf-414f-af6b-a625c6a5b115"},"vehicle_type_id":"4","last_reported":1751307327,"current_range_meters":19600,"station_id":"ce4bh0h2rcd13ifvqd40","pricing_plan_id":"cebpf4jnsgd1na2vs0mg"},{"bike_id":"d18eb9d7-9592-46fc-b5a0-f6dfaa4f31f1","system_id":"levelo_inurba_marseille","lat":43.28413,"lon":5.34989,"is_reserved":false,"is_disabled":false,"rental_uris":{"android":"levelo://app?vid=d18eb9d7-9592-46fc-b5a0-f6dfaa4f31f1","ios":"levelo://app?vid=d18eb9d7-9592-46fc-b5a0-f6dfaa4f31f1"},"vehicle_type_id":"4","last_reported":1751307327,"current_range_meters":19600,"station_id":"ce4bhbh2rcd13ifvqepg","pricing_plan_id":"cebpf4jnsgd1na2vs0mg"},{"bike_id":"59d80a8f-ab2d-40a0-b405-7c4a9960338f","system_id":"levelo_inurba_marseille","lat":43.28275,"lon":5.35061,"is_reserved":false,"is_disabled":false,"rental_uris":{"android":"levelo://app?vid=59d80a8f-ab2d-40a0-b405-7c4a9960338f","ios":"levelo://app?vid=59d80a8f-ab2d-40a0-b405-7c4a9960338f"},"vehicle_type_id":"4","last_reported":1751307327,"current_range_meters":19600,"station_id":"ce4bhbp2rcd13ifvqerg","pricing_plan_id":"cebpf4jnsgd1na2vs0mg"},{"bike_id":"97cc0eb9-7c0d-42b3-b8bc-0d957723f159","system_id":"levelo_inurba_marseille","lat":43.24396,"lon":5.37064,"is_reserved":false,"is_disabled":false,"rental_uris":{"android":"levelo://app?vid=97cc0eb9-7c0d-42b3-b8bc-0d957723f159","ios":"levelo://app?vid=97cc0eb9-7c0d-42b3-b8bc-0d957723f159"},"vehicle_type_id":"4","last_reported":1751307327,"current_range_meters":19600,"station_id":"ce4bhhh2rcd13ifvqfk0","pricing_plan_id":"cebpf4jnsgd1na2vs0mg"},{"bike_id":"b0887115-257f-4205-a70c-8c9dcb739baf","system_id":"levelo_inurba_marseille","lat":43.23178,"lon":5.39989,"is_reserved":false,"is_disabled":false,"rental_uris":{"android":"levelo://app?vid=b0887115-257f-4205-a70c-8c9dcb739baf","ios":"levelo://app?vid=b0887115-257f-4205-a70c-8c9dcb739baf"},"vehicle_type_id":"4","last_reported":1751307327,"current_range_meters":19600,"station_id":"ce4bhn12rcd13ifvqgqg","pricing_plan_id":"cebpf4jnsgd1na2vs0mg"},{"bike_id":"d2f72e45-6b0c-4b36-9924-deef3cd98510","system_id":"levelo_inurba_marseille","lat":43.27489,"lon":5.42444,"is_reserved":false,"is_disabled":false,"rental_uris":{"android":"levelo://app?vid=d2f72e45-6b0c-4b36-9924-deef3cd98510","ios":"levelo://app?vid=d2f72e45-6b0c-4b36-9924-deef3cd98510"},"vehicle_type_id":"4","last_reported":1751307327,"current_range_meters":19600,"station_id":"ce4bhn92rcd13ifvqgrg","pricing_plan_id":"cebpf4jnsgd1na2vs0mg"},{"bike_id":"3a33ebd2-49a2-4e39-92d7-f09d7dd08672","system_id":"levelo_inurba_marseille","lat":43.21215,"lon":5.35066,"is_reserved":false,"is_disabled":false,"rental_uris":{"android":"levelo://app?vid=3a33ebd2-49a2-4e39-92d7-f09d7dd08672","ios":"levelo://app?vid=3a33ebd2-49a2-4e39-92d7-f09d7dd08672"},"vehicle_type_id":"4","last_reported":1751307327,"current_range_meters":19600,"station_id":"st_cvj6sg6p6f1abm77japg","pricing_plan_id":"cebpf4jnsgd1na2vs0mg"},{"bike_id":"569afbd4-da57-4911-aecb-840950c33922","system_id":"levelo_inurba_marseille","lat":43.211923,"lon":5.350659,"is_reserved":false,"is_disabled":false,"rental_uris":{"android":"levelo://app?vid=569afbd4-da57-4911-aecb-840950c33922","ios":"levelo://app?vid=569afbd4-da57-4911-aecb-840950c33922"},"vehicle_type_id":"4","last_reported":1751307327,"current_range_meters":19600,"station_id":"st_cvj6sg6p6f1abm77japg","pricing_plan_id":"cebpf4jnsgd1na2vs0mg"},{"bike_id":"9fa747cf-7c7e-4401-b119-29552b418a37","system_id":"levelo_inurba_marseille","lat":43.27384,"lon":5.36251,"is_reserved":false,"is_disabled":false,"rental_uris":{"android":"levelo://app?vid=9fa747cf-7c7e-4401-b119-29552b418a37","ios":"levelo://app?vid=9fa747cf-7c7e-4401-b119-29552b418a37"},"vehicle_type_id":"4","last_reported":1751307327,"current_range_meters":20000,"station_id":"ce4bhbh2rcd13ifvqeo0","pricing_plan_id":"cebpf4jnsgd1na2vs0mg"},{"bike_id":"09f4eeca-0b73-4a4d-b7ec-9e1647808114","system_id":"levelo_inurba_marseille","lat":43.28622,"lon":5.35091,"is_reserved":false,"is_disabled":false,"rental_uris":{"android":"levelo://app?vid=09f4eeca-0b73-4a4d-b7ec-9e1647808114","ios":"levelo://app?vid=09f4eeca-0b73-4a4d-b7ec-9e1647808114"},"vehicle_type_id":"4","last_reported":1751307327,"current_range_meters":20000,"station_id":"ce4bhch2rcd13ifvqeug","pricing_plan_id":"cebpf4jnsgd1na2vs0mg"},{"bike_id":"dda8b503-29c5-44b8-a106-b42fae2c066a","system_id":"levelo_inurba_marseille","lat":43.28619,"lon":5.35103,"is_reserved":false,"is_disabled":false,"rental_uris":{"android":"levelo://app?vid=dda8b503-29c5-44b8-a106-b42fae2c066a","ios":"levelo://app?vid=dda8b503-29c5-44b8-a106-b42fae2c066a"},"vehicle_type_id":"4","last_reported":1751307327,"current_range_meters":20000,"station_id":"ce4bhch2rcd13ifvqeug","pricing_plan_id":"cebpf4jnsgd1na2vs0mg"},{"bike_id":"43c6c9e2-7257-46d1-8d72-4872205f4fac","system_id":"levelo_inurba_marseille","lat":43.27317,"lon":5.39078,"is_reserved":false,"is_disabled":false,"rental_uris":{"android":"levelo://app?vid=43c6c9e2-7257-46d1-8d72-4872205f4fac","ios":"levelo://app?vid=43c6c9e2-7257-46d1-8d72-4872205f4fac"},"vehicle_type_id":"4","last_reported":1751307327,"current_range_meters":20000,"station_id":"ce4bhgp2rcd13ifvqfe0","pricing_plan_id":"cebpf4jnsgd1na2vs0mg"},{"bike_id":"871fb840-1712-4ded-bd4e-46d7276213c8","system_id":"levelo_inurba_marseille","lat":43.24397,"lon":5.37043,"is_reserved":false,"is_disabled":false,"rental_uris":{"android":"levelo://app?vid=871fb840-1712-4ded-bd4e-46d7276213c8","ios":"levelo://app?vid=871fb840-1712-4ded-bd4e-46d7276213c8"},"vehicle_type_id":"4","last_reported":1751307327,"current_range_meters":20000,"station_id":"ce4bhhh2rcd13ifvqfk0","pricing_plan_id":"cebpf4jnsgd1na2vs0mg"},{"bike_id":"fceb16de-6a79-427a-b828-bfdb30836d2e","system_id":"levelo_inurba_marseille","lat":43.23194,"lon":5.39979,"is_reserved":false,"is_disabled":false,"rental_uris":{"android":"levelo://app?vid=fceb16de-6a79-427a-b828-bfdb30836d2e","ios":"levelo://app?vid=fceb16de-6a79-427a-b828-bfdb30836d2e"},"vehicle_type_id":"4","last_reported":1751307327,"current_range_meters":20000,"station_id":"ce4bhn12rcd13ifvqgqg","pricing_plan_id":"cebpf4jnsgd1na2vs0mg"},{"bike_id":"6ec88c39-920f-4aa9-845f-41e0a7ace3ec","system_id":"levelo_inurba_marseille","lat":43.28157,"lon":5.42637,"is_reserved":false,"is_disabled":false,"rental_uris":{"android":"levelo://app?vid=6ec88c39-920f-4aa9-845f-41e0a7ace3ec","ios":"levelo://app?vid=6ec88c39-920f-4aa9-845f-41e0a7ace3ec"},"vehicle_type_id":"4","last_reported":1751307327,"current_range_meters":20000,"station_id":"ce4bhnh2rcd13ifvqgug","pricing_plan_id":"cebpf4jnsgd1na2vs0mg"},{"bike_id":"067dc4af-ce5f-4fe4-9eaa-45414d4d8185","system_id":"levelo_inurba_marseille","lat":43.3234,"lon":5.40619,"is_reserved":false,"is_disabled":false,"rental_uris":{"android":"levelo://app?vid=067dc4af-ce5f-4fe4-9eaa-45414d4d8185","ios":"levelo://app?vid=067dc4af-ce5f-4fe4-9eaa-45414d4d8185"},"vehicle_type_id":"4","last_reported":1751307327,"current_range_meters":20000,"station_id":"ce4bhq92rcd13ifvqhjg","pricing_plan_id":"cebpf4jnsgd1na2vs0mg"},{"bike_id":"d11fe4c9-c130-42ee-bb73-8c70d6efcfc0","system_id":"levelo_inurba_marseille","lat":43.28985,"lon":5.36658,"is_reserved":false,"is_disabled":false,"rental_uris":{"android":"levelo://app?vid=d11fe4c9-c130-42ee-bb73-8c70d6efcfc0","ios":"levelo://app?vid=d11fe4c9-c130-42ee-bb73-8c70d6efcfc0"},"vehicle_type_id":"4","last_reported":1751307327,"current_range_meters":20400,"station_id":"","pricing_plan_id":"cebpf4jnsgd1na2vs0mg"},{"bike_id":"539ed013-9e80-448a-999f-a7819f54786a","system_id":"levelo_inurba_marseille","lat":43.290309,"lon":5.375668,"is_reserved":false,"is_disabled":false,"rental_uris":{"android":"levelo://app?vid=539ed013-9e80-448a-999f-a7819f54786a","ios":"levelo://app?vid=539ed013-9e80-448a-999f-a7819f54786a"},"vehicle_type_id":"4","last_reported":1751307327,"current_range_meters":20400,"station_id":"","pricing_plan_id":"cebpf4jnsgd1na2vs0mg"},{"bike_id":"89837b1f-0e3e-4326-b7ab-c497bdf6e24a","system_id":"levelo_inurba_marseille","lat":43.29535,"lon":5.38552,"is_reserved":false,"is_disabled":false,"rental_uris":{"android":"levelo://app?vid=89837b1f-0e3e-4326-b7ab-c497bdf6e24a","ios":"levelo://app?vid=89837b1f-0e3e-4326-b7ab-c497bdf6e24a"},"vehicle_type_id":"4","last_reported":1751307327,"current_range_meters":20400,"station_id":"ce4bgih2rcd13ifvqba0","pricing_plan_id":"cebpf4jnsgd1na2vs0mg"},{"bike_id":"0bacac7d-6e27-4b97-9c38-987c4c593987","system_id":"levelo_inurba_marseille","lat":43.29224,"lon":5.36066,"is_reserved":false,"is_disabled":false,"rental_uris":{"android":"levelo://app?vid=0bacac7d-6e27-4b97-9c38-987c4c593987","ios":"levelo://app?vid=0bacac7d-6e27-4b97-9c38-987c4c593987"},"vehicle_type_id":"4","last_reported":1751307327,"current_range_meters":20400,"station_id":"ce4bhbh2rcd13ifvqeqg","pricing_plan_id":"cebpf4jnsgd1na2vs0mg"},{"bike_id":"67515a81-cb2a-4d42-af42-c96388cd6b9d","system_id":"levelo_inurba_marseille","lat":43.2827,"lon":5.3507,"is_reserved":false,"is_disabled":false,"rental_uris":{"android":"levelo://app?vid=67515a81-cb2a-4d42-af42-c96388cd6b9d","ios":"levelo://app?vid=67515a81-cb2a-4d42-af42-c96388cd6b9d"},"vehicle_type_id":"4","last_reported":1751307327,"current_range_meters":20400,"station_id":"ce4bhbp2rcd13ifvqerg","pricing_plan_id":"cebpf4jnsgd1na2vs0mg"},{"bike_id":"01bd36de-fcad-491e-a758-ffd27de4fcfc","system_id":"levelo_inurba_marseille","lat":43.28282,"lon":5.35076,"is_reserved":false,"is_disabled":false,"rental_uris":{"android":"levelo://app?vid=01bd36de-fcad-491e-a758-ffd27de4fcfc","ios":"levelo://app?vid=01bd36de-fcad-491e-a758-ffd27de4fcfc"},"vehicle_type_id":"4","last_reported":1751307327,"current_range_meters":20400,"station_id":"ce4bhbp2rcd13ifvqerg","pricing_plan_id":"cebpf4jnsgd1na2vs0mg"},{"bike_id":"934beea3-881e-4441-a5ff-95e7b68ba97b","system_id":"levelo_inurba_marseille","lat":43.34492,"lon":5.3594,"is_reserved":false,"is_disabled":false,"rental_uris":{"android":"levelo://app?vid=934beea3-881e-4441-a5ff-95e7b68ba97b","ios":"levelo://app?vid=934beea3-881e-4441-a5ff-95e7b68ba97b"},"vehicle_type_id":"4","last_reported":1751307327,"current_range_meters":20800,"station_id":"","pricing_plan_id":"cebpf4jnsgd1na2vs0mg"},{"bike_id":"874e5190-254e-4176-a11d-a66952072c83","system_id":"levelo_inurba_marseille","lat":43.28429,"lon":5.34982,"is_reserved":false,"is_disabled":false,"rental_uris":{"android":"levelo://app?vid=874e5190-254e-4176-a11d-a66952072c83","ios":"levelo://app?vid=874e5190-254e-4176-a11d-a66952072c83"},"vehicle_type_id":"4","last_reported":1751307327,"current_range_meters":20800,"station_id":"ce4bhbh2rcd13ifvqepg","pricing_plan_id":"cebpf4jnsgd1na2vs0mg"},{"bike_id":"b06e61ac-becb-45f1-97b2-0b1d0b20ea91","system_id":"levelo_inurba_marseille","lat":43.28422,"lon":5.34992,"is_reserved":false,"is_disabled":false,"rental_uris":{"android":"levelo://app?vid=b06e61ac-becb-45f1-97b2-0b1d0b20ea91","ios":"levelo://app?vid=b06e61ac-becb-45f1-97b2-0b1d0b20ea91"},"vehicle_type_id":"4","last_reported":1751307327,"current_range_meters":20800,"station_id":"ce4bhbh2rcd13ifvqepg","pricing_plan_id":"cebpf4jnsgd1na2vs0mg"},{"bike_id":"11416cd2-c657-4ddc-8340-b4d66728b46c","system_id":"levelo_inurba_marseille","lat":43.2467,"lon":5.3815,"is_reserved":false,"is_disabled":false,"rental_uris":{"android":"levelo://app?vid=11416cd2-c657-4ddc-8340-b4d66728b46c","ios":"levelo://app?vid=11416cd2-c657-4ddc-8340-b4d66728b46c"},"vehicle_type_id":"4","last_reported":1751307327,"current_range_meters":20800,"station_id":"ce4bhih2rcd13ifvqfr0","pricing_plan_id":"cebpf4jnsgd1na2vs0mg"},{"bike_id":"85083fa3-9af3-4cb6-afda-4a5148d6076c","system_id":"levelo_inurba_marseille","lat":43.2583,"lon":5.39413,"is_reserved":false,"is_disabled":false,"rental_uris":{"android":"levelo://app?vid=85083fa3-9af3-4cb6-afda-4a5148d6076c","ios":"levelo://app?vid=85083fa3-9af3-4cb6-afda-4a5148d6076c"},"vehicle_type_id":"4","last_reported":1751307327,"current_range_meters":20800,"station_id":"ce4bhip2rcd13ifvqft0","pricing_plan_id":"cebpf4jnsgd1na2vs0mg"},{"bike_id":"e8eaa2f9-87e4-4ae4-85fb-0d6deb6d2615","system_id":"levelo_inurba_marseille","lat":43.284181,"lon":5.349803,"is_reserved":false,"is_disabled":false,"rental_uris":{"android":"levelo://app?vid=e8eaa2f9-87e4-4ae4-85fb-0d6deb6d2615","ios":"levelo://app?vid=e8eaa2f9-87e4-4ae4-85fb-0d6deb6d2615"},"vehicle_type_id":"4","last_reported":1751307327,"current_range_meters":21600,"station_id":"","pricing_plan_id":"cebpf4jnsgd1na2vs0mg"},{"bike_id":"8a74f5cd-9efa-4362-bea7-a32db4dcc85c","system_id":"levelo_inurba_marseille","lat":43.21229,"lon":5.3504,"is_reserved":false,"is_disabled":false,"rental_uris":{"android":"levelo://app?vid=8a74f5cd-9efa-4362-bea7-a32db4dcc85c","ios":"levelo://app?vid=8a74f5cd-9efa-4362-bea7-a32db4dcc85c"},"vehicle_type_id":"4","last_reported":1751307327,"current_range_meters":21600,"station_id":"","pricing_plan_id":"cebpf4jnsgd1na2vs0mg"},{"bike_id":"ff176b0b-a35b-421b-8c34-dd3618d6affe","system_id":"levelo_inurba_marseille","lat":43.28304,"lon":5.35073,"is_reserved":false,"is_disabled":false,"rental_uris":{"android":"levelo://app?vid=ff176b0b-a35b-421b-8c34-dd3618d6affe","ios":"levelo://app?vid=ff176b0b-a35b-421b-8c34-dd3618d6affe"},