{"last_updated":1749712260,"ttl":60,"version":"2.2","data":{"bikes":[{"bike_id":"b31f0139-170f-4194-984f-4386218a1e9d","system_id":"levelo_inurba_marseille","lat":43.33771,"lon":5.37424,"is_reserved":false,"is_disabled":true,"rental_uris":{"android":"levelo://app?vid=b31f0139-170f-4194-984f-4386218a1e9d","ios":"levelo://app?vid=b31f0139-170f-4194-984f-4386218a1e9d"},"vehicle_type_id":"4","last_reported":1749712260,"current_range_meters":0,"station_id":"","pricing_plan_id":"cebpf4jnsgd1na2vs0mg"},{"bike_id":"1acfb620-cad7-48c0-8901-d7a5b74a5b65","system_id":"levelo_inurba_marseille","lat":43.33751,"lon":5.37456,"is_reserved":false,"is_disabled":false,"rental_uris":{"android":"levelo://app?vid=1acfb620-cad7-48c0-8901-d7a5b74a5b65","ios":"levelo://app?vid=1acfb620-cad7-48c0-8901-d7a5b74a5b65"},"vehicle_type_id":"4","last_reported":1749712260,"current_range_meters":9200,"station_id":"","pricing_plan_id":"cebpf4jnsgd1na2vs0mg"},{"bike_id":"15642284-38bf-46a3-8429-b976f7e075a1","system_id":"levelo_inurba_marseille","lat":43.27924,"lon":5.38297,"is_reserved":false,"is_disabled":true,"rental_uris":{"android":"levelo://app?vid=15642284-38bf-46a3-8429-b976f7e075a1","ios":"levelo://app?vid=15642284-38bf-46a3-8429-b976f7e075a1"},"vehicle_type_id":"4","last_reported":1749712260,"current_range_meters":0,"station_id":"","pricing_plan_id":"cebpf4jnsgd1na2vs0mg"},{"bike_id":"bf89d78c-eb96-40d5-beb0-f402ef102cc1","system_id":"levelo_inurba_marseille","lat":43.337444,"lon":5.374475,"is_reserved":false,"is_disabled":true,"rental_uris":{"android":"levelo://app?vid=bf89d78c-eb96-40d5-beb0-f402ef102cc1","ios":"levelo://app?vid=bf89d78c-eb96-40d5-beb0-f402ef102cc1"},"vehicle_type_id":"4","last_reported":1749712260,"current_range_meters":0,"station_id":"","pricing_plan_id":"cebpf4jnsgd1na2vs0mg"},{"bike_id":"39d96496-529e-4438-ac0b-4445af6bf0f5","system_id":"levelo_inurba_marseille","lat":43.29573,"lon":5.36434,"is_reserved":false,"is_disabled":true,"rental_uris":{"android":"levelo://app?vid=39d96496-529e-4438-ac0b-4445af6bf0f5","ios":"levelo://app?vid=39d96496-529e-4438-ac0b-4445af6bf0f5"},"vehicle_type_id":"4","last_reported":1749712260,"current_range_meters":0,"station_id":"","pricing_plan_id":"cebpf4jnsgd1na2vs0mg"},{"bike_id":"ce3782e4-dc56-46be-9235-25b6c22def65","system_id":"levelo_inurba_marseille","lat":43.288583,"lon":5.38785,"is_reserved":false,"is_disabled":true,"rental_uris":{"android":"levelo://app?vid=ce3782e4-dc56-46be-9235-25b6c22def65","ios":"levelo://app?vid=ce3782e4-dc56-46be-9235-25b6c22def65"},"vehicle_type_id":"4","last_reported":1749712260,"current_range_meters":0,"station_id":"","pricing_plan_id":"cebpf4jnsgd1na2vs0mg"},{"bike_id":"7c6a9c32-3bbe-4d4c-8294-1969d0688a87","system_id":"levelo_inurba_marseille","lat":43.28491,"lon":5.42289,"is_reserved":false,"is_disabled":true,"rental_uris":{"android":"levelo://app?vid=7c6a9c32-3bbe-4d4c-8294-1969d0688a87","ios":"levelo://app?vid=7c6a9c32-3bbe-4d4c-8294-1969d0688a87"},"vehicle_type_id":"4","last_reported":1749712260,"current_range_meters":0,"station_id":"","pricing_plan_id":"cebpf4jnsgd1na2vs0mg"},{"bike_id":"18ab1fe6-a7e6-448a-9631-a8542cf8c56c","system_id":"levelo_inurba_marseille","lat":43.33241,"lon":5.37919,"is_reserved":false,"is_disabled":true,"rental_uris":{"android":"levelo://app?vid=18ab1fe6-a7e6-448a-9631-a8542cf8c56c","ios":"levelo://app?vid=18ab1fe6-a7e6-448a-9631-a8542cf8c56c"},"vehicle_type_id":"4","last_reported":1749712260,"current_range_meters":0,"station_id":"","pricing_plan_id":"cebpf4jnsgd1na2vs0mg"},{"bike_id":"9e55e93e-42c5-4c2c-9154-2d3c316cb5d9","system_id":"levelo_inurba_marseille","lat":43.31873,"lon":5.39374,"is_reserved":false,"is_disabled":true,"rental_uris":{"android":"levelo://app?vid=9e55e93e-42c5-4c2c-9154-2d3c316cb5d9","ios":"levelo://app?vid=9e55e93e-42c5-4c2c-9154-2d3c316cb5d9"},"vehicle_type_id":"4","last_reported":1749712260,"current_range_meters":0,"station_id":"","pricing_plan_id":"cebpf4jnsgd1na2vs0mg"},{"bike_id":"78778bea-ee8d-4617-9940-e8d532761b1d","system_id":"levelo_inurba_marseille","lat":43.32587,"lon":5.42614,"is_reserved":false,"is_disabled":true,"rental_uris":{"android":"levelo://app?vid=78778bea-ee8d-4617-9940-e8d532761b1d","ios":"levelo://app?vid=78778bea-ee8d-4617-9940-e8d532761b1d"},"vehicle_type_id":"4","last_reported":1749712260,"current_range_meters":0,"station_id":"","pricing_plan_id":"cebpf4jnsgd1na2vs0mg"},{"bike_id":"15988eb6-4ac2-4228-b4b4-8767be95739e","system_id":"levelo_inurba_marseille","lat":43.31294,"lon":5.36654,"is_reserved":false,"is_disabled":true,"rental_uris":{"android":"levelo://app?vid=15988eb6-4ac2-4228-b4b4-8767be95739e","ios":"levelo://app?vid=15988eb6-4ac2-4228-b4b4-8767be95739e"},"vehicle_type_id":"4","last_reported":1749712260,"current_range_meters":0,"station_id":"","pricing_plan_id":"cebpf4jnsgd1na2vs0mg"},{"bike_id":"492f4bbd-1190-4ef2-b66a-479ffe91b09b","system_id":"levelo_inurba_marseille","lat":43.337444,"lon":5.374475,"is_reserved":false,"is_disabled":true,"rental_uris":{"android":"levelo://app?vid=492f4bbd-1190-4ef2-b66a-479ffe91b09b","ios":"levelo://app?vid=492f4bbd-1190-4ef2-b66a-479ffe91b09b"},"vehicle_type_id":"4","last_reported":1749712260,"current_range_meters":0,"station_id":"","pricing_plan_id":"cebpf4jnsgd1na2vs0mg"},{"bike_id":"ce526313-e4c7-47eb-856f-183916936663","system_id":"levelo_inurba_marseille","lat":43.2621,"lon":5.39549,"is_reserved":false,"is_disabled":true,"rental_uris":{"android":"levelo://app?vid=ce526313-e4c7-47eb-856f-183916936663","ios":"levelo://app?vid=ce526313-e4c7-47eb-856f-183916936663"},"vehicle_type_id":"4","last_reported":1749712260,"current_range_meters":0,"station_id":"","pricing_plan_id":"cebpf4jnsgd1na2vs0mg"},{"bike_id":"649a4141-e882-4ac4-a947-ad44f2f7db35","system_id":"levelo_inurba_marseille","lat":43.28827,"lon":5.38401,"is_reserved":false,"is_disabled":true,"rental_uris":{"android":"levelo://app?vid=649a4141-e882-4ac4-a947-ad44f2f7db35","ios":"levelo://app?vid=649a4141-e882-4ac4-a947-ad44f2f7db35"},"vehicle_type_id":"4","last_reported":1749712260,"current_range_meters":0,"station_id":"","pricing_plan_id":"cebpf4jnsgd1na2vs0mg"},{"bike_id":"d53b03a5-e0bc-44a7-8766-276a445e9cab","system_id":"levelo_inurba_marseille","lat":43.29259,"lon":5.37632,"is_reserved":false,"is_disabled":true,"rental_uris":{"android":"levelo://app?vid=d53b03a5-e0bc-44a7-8766-276a445e9cab","ios":"levelo://app?vid=d53b03a5-e0bc-44a7-8766-276a445e9cab"},"vehicle_type_id":"4","last_reported":1749712260,"current_range_meters":0,"station_id":"ce4bgi12rcd13ifvqb80","pricing_plan_id":"cebpf4jnsgd1na2vs0mg"},{"bike_id":"4dcd176a-acfc-494d-9b1d-008dbf913888","system_id":"levelo_inurba_marseille","lat":43.31082,"lon":5.38354,"is_reserved":false,"is_disabled":true,"rental_uris":{"android":"levelo://app?vid=4dcd176a-acfc-494d-9b1d-008dbf913888","ios":"levelo://app?vid=4dcd176a-acfc-494d-9b1d-008dbf913888"},"vehicle_type_id":"4","last_reported":1749712260,"current_range_meters":0,"station_id":"ce4bgv92rcd13ifvqcr0","pricing_plan_id":"cebpf4jnsgd1na2vs0mg"},{"bike_id":"2ee7702c-868b-4841-b603-685490ed9d51","system_id":"levelo_inurba_marseille","lat":43.28316,"lon":5.35045,"is_reserved":false,"is_disabled":true,"rental_uris":{"android":"levelo://app?vid=2ee7702c-868b-4841-b603-685490ed9d51","ios":"levelo://app?vid=2ee7702c-868b-4841-b603-685490ed9d51"},"vehicle_type_id":"4","last_reported":1749712260,"current_range_meters":0,"station_id":"ce4bhbp2rcd13ifvqerg","pricing_plan_id":"cebpf4jnsgd1na2vs0mg"},{"bike_id":"9a311d61-662d-4dcc-9ec7-498896499577","system_id":"levelo_inurba_marseille","lat":43.25939,"lon":5.409,"is_reserved":false,"is_disabled":true,"rental_uris":{"android":"levelo://app?vid=9a311d61-662d-4dcc-9ec7-498896499577","ios":"levelo://app?vid=9a311d61-662d-4dcc-9ec7-498896499577"},"vehicle_type_id":"4","last_reported":1749712260,"current_range_meters":0,"station_id":"ce4bhm92rcd13ifvqglg","pricing_plan_id":"cebpf4jnsgd1na2vs0mg"},{"bike_id":"0957761d-fa71-4312-9901-7b1b9a8b8955","system_id":"levelo_inurba_marseille","lat":43.231465,"lon":5.437261,"is_reserved":false,"is_disabled":true,"rental_uris":{"android":"levelo://app?vid=0957761d-fa71-4312-9901-7b1b9a8b8955","ios":"levelo://app?vid=0957761d-fa71-4312-9901-7b1b9a8b8955"},"vehicle_type_id":"4","last_reported":1749712260,"current_range_meters":0,"station_id":"ce4bhmp2rcd13ifvqgog","pricing_plan_id":"cebpf4jnsgd1na2vs0mg"},{"bike_id":"3e2e3418-6db6-4bc4-b60d-90d138eaa4e9","system_id":"levelo_inurba_marseille","lat":43.28687,"lon":5.39994,"is_reserved":false,"is_disabled":true,"rental_uris":{"android":"levelo://app?vid=3e2e3418-6db6-4bc4-b60d-90d138eaa4e9","ios":"levelo://app?vid=3e2e3418-6db6-4bc4-b60d-90d138eaa4e9"},"vehicle_type_id":"4","last_reported":1749712260,"current_range_meters":0,"station_id":"ce4bho92rcd13ifvqh3g","pricing_plan_id":"cebpf4jnsgd1na2vs0mg"},{"bike_id":"6733a139-e631-4f12-887c-6cac9847c371","system_id":"levelo_inurba_marseille","lat":43.2956,"lon":5.42296,"is_reserved":false,"is_disabled":true,"rental_uris":{"android":"levelo://app?vid=6733a139-e631-4f12-887c-6cac9847c371","ios":"levelo://app?vid=6733a139-e631-4f12-887c-6cac9847c371"},"vehicle_type_id":"4","last_reported":1749712260,"current_range_meters":0,"station_id":"ce4bhph2rcd13ifvqhdg","pricing_plan_id":"cebpf4jnsgd1na2vs0mg"},{"bike_id":"ca6df3d9-d4af-470a-82cd-b5e969e09c9b","system_id":"levelo_inurba_marseille","lat":43.21739,"lon":5.34632,"is_reserved":false,"is_disabled":true,"rental_uris":{"android":"levelo://app?vid=ca6df3d9-d4af-470a-82cd-b5e969e09c9b","ios":"levelo://app?vid=ca6df3d9-d4af-470a-82cd-b5e969e09c9b"},"vehicle_type_id":"4","last_reported":1749712260,"current_range_meters":0,"station_id":"st_cvj6r9ubvosntc0bgbag","pricing_plan_id":"cebpf4jnsgd1na2vs0mg"},{"bike_id":"6908bae8-72a3-4af1-871a-a204f93e7563","system_id":"levelo_inurba_marseille","lat":43.32389,"lon":5.39338,"is_reserved":false,"is_disabled":true,"rental_uris":{"android":"levelo://app?vid=6908bae8-72a3-4af1-871a-a204f93e7563","ios":"levelo://app?vid=6908bae8-72a3-4af1-871a-a204f93e7563"},"vehicle_type_id":"4","last_reported":1749712260,"current_range_meters":400,"station_id":"","pricing_plan_id":"cebpf4jnsgd1na2vs0mg"},{"bike_id":"6ee1853a-6b38-4ce3-ae53-3a8f49ccd7b3","system_id":"levelo_inurba_marseille","lat":43.2556,"lon":5.38296,"is_reserved":false,"is_disabled":true,"rental_uris":{"android":"levelo://app?vid=6ee1853a-6b38-4ce3-ae53-3a8f49ccd7b3","ios":"levelo://app?vid=6ee1853a-6b38-4ce3-ae53-3a8f49ccd7b3"},"vehicle_type_id":"4","last_reported":1749712260,"current_range_meters":400,"station_id":"","pricing_plan_id":"cebpf4jnsgd1na2vs0mg"},{"bike_id":"8a782a11-1e06-4400-b5ee-06a8be530229","system_id":"levelo_inurba_marseille","lat":43.29535,"lon":5.3853,"is_reserved":false,"is_disabled":true,"rental_uris":{"android":"levelo://app?vid=8a782a11-1e06-4400-b5ee-06a8be530229","ios":"levelo://app?vid=8a782a11-1e06-4400-b5ee-06a8be530229"},"vehicle_type_id":"4","last_reported":1749712260,"current_range_meters":400,"station_id":"ce4bgih2rcd13ifvqba0","pricing_plan_id":"cebpf4jnsgd1na2vs0mg"},{"bike_id":"06da30aa-04e3-401a-9827-83f96ee5188c","system_id":"levelo_inurba_marseille","lat":43.290338,"lon":5.399656,"is_reserved":false,"is_disabled":true,"rental_uris":{"android":"levelo://app?vid=06da30aa-04e3-401a-9827-83f96ee5188c","ios":"levelo://app?vid=06da30aa-04e3-401a-9827-83f96ee5188c"},"vehicle_type_id":"4","last_reported":1749712260,"current_range_meters":400,"station_id":"ce4bh392rcd13ifvqdm0","pricing_plan_id":"cebpf4jnsgd1na2vs0mg"},{"bike_id":"d9d66385-9122-421d-86fa-76f5e4a7523b","system_id":"levelo_inurba_marseille","lat":43.29105,"lon":5.39401,"is_reserved":false,"is_disabled":true,"rental_uris":{"android":"levelo://app?vid=d9d66385-9122-421d-86fa-76f5e4a7523b","ios":"levelo://app?vid=d9d66385-9122-421d-86fa-76f5e4a7523b"},"vehicle_type_id":"4","last_reported":1749712260,"current_range_meters":800,"station_id":"ce4bh192rcd13ifvqdd0","pricing_plan_id":"cebpf4jnsgd1na2vs0mg"},{"bike_id":"6d89e756-4bde-4817-81bb-1bea3c2df02d","system_id":"levelo_inurba_marseille","lat":43.30561,"lon":5.36912,"is_reserved":false,"is_disabled":true,"rental_uris":{"android":"levelo://app?vid=6d89e756-4bde-4817-81bb-1bea3c2df02d","ios":"levelo://app?vid=6d89e756-4bde-4817-81bb-1bea3c2df02d"},"vehicle_type_id":"4","last_reported":1749712260,"current_range_meters":1200,"station_id":"","pricing_plan_id":"cebpf4jnsgd1na2vs0mg"},{"bike_id":"37fe0c8d-87af-4346-9990-a25dd5a4d462","system_id":"levelo_inurba_marseille","lat":43.31543,"lon":5.38934,"is_reserved":false,"is_disabled":true,"rental_uris":{"android":"levelo://app?vid=37fe0c8d-87af-4346-9990-a25dd5a4d462","ios":"levelo://app?vid=37fe0c8d-87af-4346-9990-a25dd5a4d462"},"vehicle_type_id":"4","last_reported":1749712260,"current_range_meters":1200,"station_id":"","pricing_plan_id":"cebpf4jnsgd1na2vs0mg"},{"bike_id":"bb53fc53-0a43-4824-ac52-45d997f19f41","system_id":"levelo_inurba_marseille","lat":43.29252,"lon":5.40919,"is_reserved":false,"is_disabled":true,"rental_uris":{"android":"levelo://app?vid=bb53fc53-0a43-4824-ac52-45d997f19f41","ios":"levelo://app?vid=bb53fc53-0a43-4824-ac52-45d997f19f41"},"vehicle_type_id":"4","last_reported":1749712260,"current_range_meters":1200,"station_id":"ce4bh192rcd13ifvqdc0","pricing_plan_id":"cebpf4jnsgd1na2vs0mg"},{"bike_id":"4fa52453-4573-4737-983c-cc7d56f36fda","system_id":"levelo_inurba_marseille","lat":43.29196,"lon":5.35807,"is_reserved":false,"is_disabled":true,"rental_uris":{"android":"levelo://app?vid=4fa52453-4573-4737-983c-cc7d56f36fda","ios":"levelo://app?vid=4fa52453-4573-4737-983c-cc7d56f36fda"},"vehicle_type_id":"4","last_reported":1749712260,"current_range_meters":1200,"station_id":"ce4bhb12rcd13ifvqel0","pricing_plan_id":"cebpf4jnsgd1na2vs0mg"},{"bike_id":"8e9b5859-5d23-44bc-b9a5-4e9830eaa420","system_id":"levelo_inurba_marseille","lat":43.31342,"lon":5.36719,"is_reserved":false,"is_disabled":true,"rental_uris":{"android":"levelo://app?vid=8e9b5859-5d23-44bc-b9a5-4e9830eaa420","ios":"levelo://app?vid=8e9b5859-5d23-44bc-b9a5-4e9830eaa420"},"vehicle_type_id":"4","last_reported":1749712260,"current_range_meters":1600,"station_id":"ce4bgr92rcd13ifvqc6g","pricing_plan_id":"cebpf4jnsgd1na2vs0mg"},{"bike_id":"8828645e-828b-4a4a-a39e-1fd2ca6e8db3","system_id":"levelo_inurba_marseille","lat":43.29885,"lon":5.38888,"is_reserved":false,"is_disabled":true,"rental_uris":{"android":"levelo://app?vid=8828645e-828b-4a4a-a39e-1fd2ca6e8db3","ios":"levelo://app?vid=8828645e-828b-4a4a-a39e-1fd2ca6e8db3"},"vehicle_type_id":"4","last_reported":1749712260,"current_range_meters":1600,"station_id":"ce4bh392rcd13ifvqdl0","pricing_plan_id":"cebpf4jnsgd1na2vs0mg"},{"bike_id":"df0dc7d6-d7f0-4594-99f3-c878bf00b0d8","system_id":"levelo_inurba_marseille","lat":43.290181,"lon":5.378531,"is_reserved":false,"is_disabled":true,"rental_uris":{"android":"levelo://app?vid=df0dc7d6-d7f0-4594-99f3-c878bf00b0d8","ios":"levelo://app?vid=df0dc7d6-d7f0-4594-99f3-c878bf00b0d8"},"vehicle_type_id":"4","last_reported":1749712260,"current_range_meters":1600,"station_id":"ce4bh9p2rcd13ifvqed0","pricing_plan_id":"cebpf4jnsgd1na2vs0mg"},{"bike_id":"92605ffd-c050-4e66-b473-6f3b27b016c0","system_id":"levelo_inurba_marseille","lat":43.30536,"lon":5.36551,"is_reserved":false,"is_disabled":true,"rental_uris":{"android":"levelo://app?vid=92605ffd-c050-4e66-b473-6f3b27b016c0","ios":"levelo://app?vid=92605ffd-c050-4e66-b473-6f3b27b016c0"},"vehicle_type_id":"4","last_reported":1749712260,"current_range_meters":2000,"station_id":"ce4bgs12rcd13ifvqcag","pricing_plan_id":"cebpf4jnsgd1na2vs0mg"},{"bike_id":"4fde376a-42c7-4d28-a362-f475a7f354b5","system_id":"levelo_inurba_marseille","lat":43.29621,"lon":5.40605,"is_reserved":false,"is_disabled":true,"rental_uris":{"android":"levelo://app?vid=4fde376a-42c7-4d28-a362-f475a7f354b5","ios":"levelo://app?vid=4fde376a-42c7-4d28-a362-f475a7f354b5"},"vehicle_type_id":"4","last_reported":1749712260,"current_range_meters":2000,"station_id":"ce4bh0h2rcd13ifvqd60","pricing_plan_id":"cebpf4jnsgd1na2vs0mg"},{"bike_id":"dc78022d-b58f-4f70-90ef-79398a3bf4d1","system_id":"levelo_inurba_marseille","lat":43.29039,"lon":5.38639,"is_reserved":false,"is_disabled":true,"rental_uris":{"android":"levelo://app?vid=dc78022d-b58f-4f70-90ef-79398a3bf4d1","ios":"levelo://app?vid=dc78022d-b58f-4f70-90ef-79398a3bf4d1"},"vehicle_type_id":"4","last_reported":1749712260,"current_range_meters":2000,"station_id":"ce4bh4p2rcd13ifvqe0g","pricing_plan_id":"cebpf4jnsgd1na2vs0mg"},{"bike_id":"00f197b8-e73d-4e0f-a61c-b1c6700acf08","system_id":"levelo_inurba_marseille","lat":43.29071,"lon":5.38179,"is_reserved":false,"is_disabled":true,"rental_uris":{"android":"levelo://app?vid=00f197b8-e73d-4e0f-a61c-b1c6700acf08","ios":"levelo://app?vid=00f197b8-e73d-4e0f-a61c-b1c6700acf08"},"vehicle_type_id":"4","last_reported":1749712260,"current_range_meters":2000,"station_id":"ce4bh512rcd13ifvqe2g","pricing_plan_id":"cebpf4jnsgd1na2vs0mg"},{"bike_id":"da606d14-5de0-4780-94ce-82dafee3de96","system_id":"levelo_inurba_marseille","lat":43.259312,"lon":5.409099,"is_reserved":false,"is_disabled":true,"rental_uris":{"android":"levelo://app?vid=da606d14-5de0-4780-94ce-82dafee3de96","ios":"levelo://app?vid=da606d14-5de0-4780-94ce-82dafee3de96"},"vehicle_type_id":"4","last_reported":1749712260,"current_range_meters":2000,"station_id":"ce4bhm92rcd13ifvqglg","pricing_plan_id":"cebpf4jnsgd1na2vs0mg"},{"bike_id":"19c2a105-59d0-4cc9-9654-b12dc4f1cef0","system_id":"levelo_inurba_marseille","lat":43.3095,"lon":5.39033,"is_reserved":false,"is_disabled":false,"rental_uris":{"android":"levelo://app?vid=19c2a105-59d0-4cc9-9654-b12dc4f1cef0","ios":"levelo://app?vid=19c2a105-59d0-4cc9-9654-b12dc4f1cef0"},"vehicle_type_id":"4","last_reported":1749712260,"current_range_meters":2800,"station_id":"ce4bgup2rcd13ifvqco0","pricing_plan_id":"cebpf4jnsgd1na2vs0mg"},{"bike_id":"cadd2c38-0191-4ad3-a37c-b679a38587ec","system_id":"levelo_inurba_marseille","lat":43.303234,"lon":5.404373,"is_reserved":false,"is_disabled":false,"rental_uris":{"android":"levelo://app?vid=cadd2c38-0191-4ad3-a37c-b679a38587ec","ios":"levelo://app?vid=cadd2c38-0191-4ad3-a37c-b679a38587ec"},"vehicle_type_id":"4","last_reported":1749712260,"current_range_meters":2800,"station_id":"ce4bh012rcd13ifvqd10","pricing_plan_id":"cebpf4jnsgd1na2vs0mg"},{"bike_id":"26a0b01d-5a8c-4cea-a03c-9b790a24d686","system_id":"levelo_inurba_marseille","lat":43.26679,"lon":5.38268,"is_reserved":false,"is_disabled":false,"rental_uris":{"android":"levelo://app?vid=26a0b01d-5a8c-4cea-a03c-9b790a24d686","ios":"levelo://app?vid=26a0b01d-5a8c-4cea-a03c-9b790a24d686"},"vehicle_type_id":"4","last_reported":1749712260,"current_range_meters":2800,"station_id":"ce4bhg92rcd13ifvqf90","pricing_plan_id":"cebpf4jnsgd1na2vs0mg"},{"bike_id":"a9334c0d-cdfc-464f-8eab-e98192ed3454","system_id":"levelo_inurba_marseille","lat":43.2923,"lon":5.39937,"is_reserved":false,"is_disabled":false,"rental_uris":{"android":"levelo://app?vid=a9334c0d-cdfc-464f-8eab-e98192ed3454","ios":"levelo://app?vid=a9334c0d-cdfc-464f-8eab-e98192ed3454"},"vehicle_type_id":"4","last_reported":1749712260,"current_range_meters":3200,"station_id":"","pricing_plan_id":"cebpf4jnsgd1na2vs0mg"},{"bike_id":"a9b6bf99-4070-4437-bb20-72962ae30b90","system_id":"levelo_inurba_marseille","lat":43.27469,"lon":5.36398,"is_reserved":false,"is_disabled":false,"rental_uris":{"android":"levelo://app?vid=a9b6bf99-4070-4437-bb20-72962ae30b90","ios":"levelo://app?vid=a9b6bf99-4070-4437-bb20-72962ae30b90"},"vehicle_type_id":"4","last_reported":1749712260,"current_range_meters":3200,"station_id":"","pricing_plan_id":"cebpf4jnsgd1na2vs0mg"},{"bike_id":"eae3ab20-3192-4ad3-a30b-44296ea2bb7c","system_id":"levelo_inurba_marseille","lat":43.2961,"lon":5.37725,"is_reserved":false,"is_disabled":false,"rental_uris":{"android":"levelo://app?vid=eae3ab20-3192-4ad3-a30b-44296ea2bb7c","ios":"levelo://app?vid=eae3ab20-3192-4ad3-a30b-44296ea2bb7c"},"vehicle_type_id":"4","last_reported":1749712260,"current_range_meters":3200,"station_id":"ce4bgi92rcd13ifvqb90","pricing_plan_id":"cebpf4jnsgd1na2vs0mg"},{"bike_id":"a6a4e308-6d4b-44bc-bb81-08d1b4d44219","system_id":"levelo_inurba_marseille","lat":43.29063,"lon":5.37165,"is_reserved":false,"is_disabled":false,"rental_uris":{"android":"levelo://app?vid=a6a4e308-6d4b-44bc-bb81-08d1b4d44219","ios":"levelo://app?vid=a6a4e308-6d4b-44bc-bb81-08d1b4d44219"},"vehicle_type_id":"4","last_reported":1749712260,"current_range_meters":3200,"station_id":"ce4bh5p2rcd13ifvqe4g","pricing_plan_id":"cebpf4jnsgd1na2vs0mg"},{"bike_id":"cc2ed7ef-1310-499f-ba5f-09677ae4e09f","system_id":"levelo_inurba_marseille","lat":43.24404,"lon":5.37067,"is_reserved":false,"is_disabled":false,"rental_uris":{"android":"levelo://app?vid=cc2ed7ef-1310-499f-ba5f-09677ae4e09f","ios":"levelo://app?vid=cc2ed7ef-1310-499f-ba5f-09677ae4e09f"},"vehicle_type_id":"4","last_reported":1749712260,"current_range_meters":3600,"station_id":"ce4bhhh2rcd13ifvqfk0","pricing_plan_id":"cebpf4jnsgd1na2vs0mg"},{"bike_id":"5ecd486c-eacf-4478-aef8-c10533120719","system_id":"levelo_inurba_marseille","lat":43.25575,"lon":5.38227,"is_reserved":false,"is_disabled":false,"rental_uris":{"android":"levelo://app?vid=5ecd486c-eacf-4478-aef8-c10533120719","ios":"levelo://app?vid=5ecd486c-eacf-4478-aef8-c10533120719"},"vehicle_type_id":"4","last_reported":1749712260,"current_range_meters":3600,"station_id":"ce4bhih2rcd13ifvqfs0","pricing_plan_id":"cebpf4jnsgd1na2vs0mg"},{"bike_id":"1fd77a15-0f5b-4bbf-98c2-6ffbc1f86644","system_id":"levelo_inurba_marseille","lat":43.2872,"lon":5.39968,"is_reserved":false,"is_disabled":false,"rental_uris":{"android":"levelo://app?vid=1fd77a15-0f5b-4bbf-98c2-6ffbc1f86644","ios":"levelo://app?vid=1fd77a15-0f5b-4bbf-98c2-6ffbc1f86644"},"vehicle_type_id":"4","last_reported":1749712260,"current_range_meters":3600,"station_id":"ce4bho92rcd13ifvqh3g","pricing_plan_id":"cebpf4jnsgd1na2vs0mg"},{"bike_id":"4a1218af-1c39-47f1-908a-fd28e0115a0b","system_id":"levelo_inurba_marseille","lat":43.30189,"lon":5.38099,"is_reserved":false,"is_disabled":false,"rental_uris":{"android":"levelo://app?vid=4a1218af-1c39-47f1-908a-fd28e0115a0b","ios":"levelo://app?vid=4a1218af-1c39-47f1-908a-fd28e0115a0b"},"vehicle_type_id":"4","last_reported":1749712260,"current_range_meters":4000,"station_id":"","pricing_plan_id":"cebpf4jnsgd1na2vs0mg"},{"bike_id":"253352f0-d57e-4345-b95f-ad4c4e6f7939","system_id":"levelo_inurba_marseille","lat":43.29578,"lon":5.36742,"is_reserved":false,"is_disabled":false,"rental_uris":{"android":"levelo://app?vid=253352f0-d57e-4345-b95f-ad4c4e6f7939","ios":"levelo://app?vid=253352f0-d57e-4345-b95f-ad4c4e6f7939"},"vehicle_type_id":"4","last_reported":1749712260,"current_range_meters":4000,"station_id":"ce4bgph2rcd13ifvqc2g","pricing_plan_id":"cebpf4jnsgd1na2vs0mg"},{"bike_id":"0d82fc16-9261-4b82-97ba-316918cfef49","system_id":"levelo_inurba_marseille","lat":43.24546,"lon":5.39519,"is_reserved":false,"is_disabled":false,"rental_uris":{"android":"levelo://app?vid=0d82fc16-9261-4b82-97ba-316918cfef49","ios":"levelo://app?vid=0d82fc16-9261-4b82-97ba-316918cfef49"},"vehicle_type_id":"4","last_reported":1749712260,"current_range_meters":4000,"station_id":"ce4bhlp2rcd13ifvqgjg","pricing_plan_id":"cebpf4jnsgd1na2vs0mg"},{"bike_id":"2ba5fcc1-b3aa-4739-af80-0b2fe5ef9ef2","system_id":"levelo_inurba_marseille","lat":43.29035,"lon":5.37574,"is_reserved":false,"is_disabled":false,"rental_uris":{"android":"levelo://app?vid=2ba5fcc1-b3aa-4739-af80-0b2fe5ef9ef2","ios":"levelo://app?vid=2ba5fcc1-b3aa-4739-af80-0b2fe5ef9ef2"},"vehicle_type_id":"4","last_reported":1749712260,"current_range_meters":4400,"station_id":"ce4bh692rcd13ifvqe90","pricing_plan_id":"cebpf4jnsgd1na2vs0mg"},{"bike_id":"5d315286-5f14-4633-8f3c-61b428e7a2fb","system_id":"levelo_inurba_marseille","lat":43.30464,"lon":5.37918,"is_reserved":false,"is_disabled":false,"rental_uris":{"android":"levelo://app?vid=5d315286-5f14-4633-8f3c-61b428e7a2fb","ios":"levelo://app?vid=5d315286-5f14-4633-8f3c-61b428e7a2fb"},"vehicle_type_id":"4","last_reported":1749712260,"current_range_meters":4800,"station_id":"ce4bgup2rcd13ifvqcn0","pricing_plan_id":"cebpf4jnsgd1na2vs0mg"},{"bike_id":"5077581b-cebb-46fc-ba69-4fa8272d4810","system_id":"levelo_inurba_marseille","lat":43.213625,"lon":5.355276,"is_reserved":false,"is_disabled":false,"rental_uris":{"android":"levelo://app?vid=5077581b-cebb-46fc-ba69-4fa8272d4810","ios":"levelo://app?vid=5077581b-cebb-46fc-ba69-4fa8272d4810"},"vehicle_type_id":"4","last_reported":1749712260,"current_range_meters":5600,"station_id":"","pricing_plan_id":"cebpf4jnsgd1na2vs0mg"},{"bike_id":"853e9d90-8fb4-4c17-a762-9923b9fb02f0","system_id":"levelo_inurba_marseille","lat":43.25432,"lon":5.3811,"is_reserved":false,"is_disabled":false,"rental_uris":{"android":"levelo://app?vid=853e9d90-8fb4-4c17-a762-9923b9fb02f0","ios":"levelo://app?vid=853e9d90-8fb4-4c17-a762-9923b9fb02f0"},"vehicle_type_id":"4","last_reported":1749712260,"current_range_meters":5600,"station_id":"","pricing_plan_id":"cebpf4jnsgd1na2vs0mg"},{"bike_id":"a4036ac6-d709-4305-a82d-5607ca2f1df1","system_id":"levelo_inurba_marseille","lat":43.25493,"lon":5.37646,"is_reserved":false,"is_disabled":false,"rental_uris":{"android":"levelo://app?vid=a4036ac6-d709-4305-a82d-5607ca2f1df1","ios":"levelo://app?vid=a4036ac6-d709-4305-a82d-5607ca2f1df1"},"vehicle_type_id":"4","last_reported":1749712260,"current_range_meters":5600,"station_id":"ce4bhh12rcd13ifvqff0","pricing_plan_id":"cebpf4jnsgd1na2vs0mg"},{"bike_id":"66b1cbfb-c132-4ef4-922c-0beab9b5a350","system_id":"levelo_inurba_marseille","lat":43.282806,"lon":5.361366,"is_reserved":false,"is_disabled":false,"rental_uris":{"android":"levelo://app?vid=66b1cbfb-c132-4ef4-922c-0beab9b5a350","ios":"levelo://app?vid=66b1cbfb-c132-4ef4-922c-0beab9b5a350"},"vehicle_type_id":"4","last_reported":1749712260,"current_range_meters":6000,"station_id":"","pricing_plan_id":"cebpf4jnsgd1na2vs0mg"},{"bike_id":"76de700e-0ca4-44b6-bd4f-5c55eabe9b83","system_id":"levelo_inurba_marseille","lat":43.31229,"lon":5.36866,"is_reserved":false,"is_disabled":false,"rental_uris":{"android":"levelo://app?vid=76de700e-0ca4-44b6-bd4f-5c55eabe9b83","ios":"levelo://app?vid=76de700e-0ca4-44b6-bd4f-5c55eabe9b83"},"vehicle_type_id":"4","last_reported":1749712260,"current_range_meters":6000,"station_id":"ce4bgl92rcd13ifvqbq0","pricing_plan_id":"cebpf4jnsgd1na2vs0mg"},{"bike_id":"81dd5d8d-9fe3-4ad2-af16-0eca027cb8ec","system_id":"levelo_inurba_marseille","lat":43.30536,"lon":5.36545,"is_reserved":false,"is_disabled":false,"rental_uris":{"android":"levelo://app?vid=81dd5d8d-9fe3-4ad2-af16-0eca027cb8ec","ios":"levelo://app?vid=81dd5d8d-9fe3-4ad2-af16-0eca027cb8ec"},"vehicle_type_id":"4","last_reported":1749712260,"current_range_meters":6000,"station_id":"ce4bgs12rcd13ifvqcag","pricing_plan_id":"cebpf4jnsgd1na2vs0mg"},{"bike_id":"b6e37429-cc5d-4f28-9ae6-2326efdabc21","system_id":"levelo_inurba_marseille","lat":43.26187,"lon":5.3745,"is_reserved":false,"is_disabled":false,"rental_uris":{"android":"levelo://app?vid=b6e37429-cc5d-4f28-9ae6-2326efdabc21","ios":"levelo://app?vid=b6e37429-cc5d-4f28-9ae6-2326efdabc21"},"vehicle_type_id":"4","last_reported":1749712260,"current_range_meters":6000,"station_id":"ce4bhgp2rcd13ifvqfc0","pricing_plan_id":"cebpf4jnsgd1na2vs0mg"},{"bike_id":"34b5d643-387e-48ed-95cf-6afe09f7a8e2","system_id":"levelo_inurba_marseille","lat":43.259283,"lon":5.409171,"is_reserved":false,"is_disabled":false,"rental_uris":{"android":"levelo://app?vid=34b5d643-387e-48ed-95cf-6afe09f7a8e2","ios":"levelo://app?vid=34b5d643-387e-48ed-95cf-6afe09f7a8e2"},"vehicle_type_id":"4","last_reported":1749712260,"current_range_meters":6000,"station_id":"ce4bhm92rcd13ifvqglg","pricing_plan_id":"cebpf4jnsgd1na2vs0mg"},{"bike_id":"bf81cdfd-708b-4bcd-8e21-b637c0723c98","system_id":"levelo_inurba_marseille","lat":43.27806,"lon":5.40717,"is_reserved":false,"is_disabled":false,"rental_uris":{"android":"levelo://app?vid=bf81cdfd-708b-4bcd-8e21-b637c0723c98","ios":"levelo://app?vid=bf81cdfd-708b-4bcd-8e21-b637c0723c98"},"vehicle_type_id":"4","last_reported":1749712260,"current_range_meters":6000,"station_id":"ce4bhnh2rcd13ifvqgtg","pricing_plan_id":"cebpf4jnsgd1na2vs0mg"},{"bike_id":"6f79c1e8-9fb2-4924-80d9-3d9365204090","system_id":"levelo_inurba_marseille","lat":43.2807,"lon":5.39653,"is_reserved":false,"is_disabled":false,"rental_uris":{"android":"levelo://app?vid=6f79c1e8-9fb2-4924-80d9-3d9365204090","ios":"levelo://app?vid=6f79c1e8-9fb2-4924-80d9-3d9365204090"},"vehicle_type_id":"4","last_reported":1749712260,"current_range_meters":6000,"station_id":"ce4bho12rcd13ifvqh2g","pricing_plan_id":"cebpf4jnsgd1na2vs0mg"},{"bike_id":"1e20f032-0f6a-40b2-ad29-e4d2225496fa","system_id":"levelo_inurba_marseille","lat":43.302906,"lon":5.370584,"is_reserved":false,"is_disabled":false,"rental_uris":{"android":"levelo://app?vid=1e20f032-0f6a-40b2-ad29-e4d2225496fa","ios":"levelo://app?vid=1e20f032-0f6a-40b2-ad29-e4d2225496fa"},"vehicle_type_id":"4","last_reported":1749712260,"current_range_meters":6400,"station_id":"","pricing_plan_id":"cebpf4jnsgd1na2vs0mg"},{"bike_id":"165a6ce2-f806-45b2-bf82-39d7bdd011fc","system_id":"levelo_inurba_marseille","lat":43.29379,"lon":5.38512,"is_reserved":false,"is_disabled":false,"rental_uris":{"android":"levelo://app?vid=165a6ce2-f806-45b2-bf82-39d7bdd011fc","ios":"levelo://app?vid=165a6ce2-f806-45b2-bf82-39d7bdd011fc"},"vehicle_type_id":"4","last_reported":1749712260,"current_range_meters":6400,"station_id":"","pricing_plan_id":"cebpf4jnsgd1na2vs0mg"},{"bike_id":"a6f9b91c-4f75-4039-a66b-74a6a0ac1d88","system_id":"levelo_inurba_marseille","lat":43.3169,"lon":5.4047,"is_reserved":false,"is_disabled":false,"rental_uris":{"android":"levelo://app?vid=a6f9b91c-4f75-4039-a66b-74a6a0ac1d88","ios":"levelo://app?vid=a6f9b91c-4f75-4039-a66b-74a6a0ac1d88"},"vehicle_type_id":"4","last_reported":1749712260,"current_range_meters":6400,"station_id":"ce4bh012rcd13ifvqd00","pricing_plan_id":"cebpf4jnsgd1na2vs0mg"},{"bike_id":"1cc67a97-c5a7-467c-b7b9-5769719b3335","system_id":"levelo_inurba_marseille","lat":43.28268,"lon":5.35071,"is_reserved":false,"is_disabled":false,"rental_uris":{"android":"levelo://app?vid=1cc67a97-c5a7-467c-b7b9-5769719b3335","ios":"levelo://app?vid=1cc67a97-c5a7-467c-b7b9-5769719b3335"},"vehicle_type_id":"4","last_reported":1749712260,"current_range_meters":6400,"station_id":"ce4bhbp2rcd13ifvqerg","pricing_plan_id":"cebpf4jnsgd1na2vs0mg"},{"bike_id":"bf515ced-51a2-4075-8827-4a621e9a7a5a","system_id":"levelo_inurba_marseille","lat":43.27203,"lon":5.39179,"is_reserved":false,"is_disabled":false,"rental_uris":{"android":"levelo://app?vid=bf515ced-51a2-4075-8827-4a621e9a7a5a","ios":"levelo://app?vid=bf515ced-51a2-4075-8827-4a621e9a7a5a"},"vehicle_type_id":"4","last_reported":1749712260,"current_range_meters":6400,"station_id":"ce4bhhp2rcd13ifvqfm0","pricing_plan_id":"cebpf4jnsgd1na2vs0mg"},{"bike_id":"750e84cd-0b7a-4497-9fad-7f7b3fcaa771","system_id":"levelo_inurba_marseille","lat":43.29577,"lon":5.36739,"is_reserved":false,"is_disabled":false,"rental_uris":{"android":"levelo://app?vid=750e84cd-0b7a-4497-9fad-7f7b3fcaa771","ios":"levelo://app?vid=750e84cd-0b7a-4497-9fad-7f7b3fcaa771"},"vehicle_type_id":"4","last_reported":1749712260,"current_range_meters":6800,"station_id":"ce4bgph2rcd13ifvqc2g","pricing_plan_id":"cebpf4jnsgd1na2vs0mg"},{"bike_id":"c0c97fc1-2b9d-4871-bb88-9641f48f4e2a","system_id":"levelo_inurba_marseille","lat":43.26682,"lon":5.38269,"is_reserved":false,"is_disabled":false,"rental_uris":{"android":"levelo://app?vid=c0c97fc1-2b9d-4871-bb88-9641f48f4e2a","ios":"levelo://app?vid=c0c97fc1-2b9d-4871-bb88-9641f48f4e2a"},"vehicle_type_id":"4","last_reported":1749712260,"current_range_meters":6800,"station_id":"ce4bhg92rcd13ifvqf90","pricing_plan_id":"cebpf4jnsgd1na2vs0mg"},{"bike_id":"66314ca9-30a7-4c0a-8507-6f89f4c9b4e1","system_id":"levelo_inurba_marseille","lat":43.26254,"lon":5.3709,"is_reserved":false,"is_disabled":false,"rental_uris":{"android":"levelo://app?vid=66314ca9-30a7-4c0a-8507-6f89f4c9b4e1","ios":"levelo://app?vid=66314ca9-30a7-4c0a-8507-6f89f4c9b4e1"},"vehicle_type_id":"4","last_reported":1749712260,"current_range_meters":7200,"station_id":"","pricing_plan_id":"cebpf4jnsgd1na2vs0mg"},{"bike_id":"8d49682a-bee9-4d1e-9525-0a899b263590","system_id":"levelo_inurba_marseille","lat":43.30892,"lon":5.36848,"is_reserved":false,"is_disabled":false,"rental_uris":{"android":"levelo://app?vid=8d49682a-bee9-4d1e-9525-0a899b263590","ios":"levelo://app?vid=8d49682a-bee9-4d1e-9525-0a899b263590"},"vehicle_type_id":"4","last_reported":1749712260,"current_range_meters":7200,"station_id":"ce4bgn92rcd13ifvqbvg","pricing_plan_id":"cebpf4jnsgd1na2vs0mg"},{"bike_id":"f6d24b12-c58f-44de-bbf4-5c83a10c8397","system_id":"levelo_inurba_marseille","lat":43.31681,"lon":5.40456,"is_reserved":false,"is_disabled":false,"rental_uris":{"android":"levelo://app?vid=f6d24b12-c58f-44de-bbf4-5c83a10c8397","ios":"levelo://app?vid=f6d24b12-c58f-44de-bbf4-5c83a10c8397"},"vehicle_type_id":"4","last_reported":1749712260,"current_range_meters":7200,"station_id":"ce4bh012rcd13ifvqd00","pricing_plan_id":"cebpf4jnsgd1na2vs0mg"},{"bike_id":"71228f23-4311-4e58-95ea-057c1b07b9bf","system_id":"levelo_inurba_marseille","lat":43.28728,"lon":5.39978,"is_reserved":false,"is_disabled":false,"rental_uris":{"android":"levelo://app?vid=71228f23-4311-4e58-95ea-057c1b07b9bf","ios":"levelo://app?vid=71228f23-4311-4e58-95ea-057c1b07b9bf"},"vehicle_type_id":"4","last_reported":1749712260,"current_range_meters":7200,"station_id":"ce4bho92rcd13ifvqh3g","pricing_plan_id":"cebpf4jnsgd1na2vs0mg"},{"bike_id":"569700db-d3bf-44e2-8dc7-54279c37f634","system_id":"levelo_inurba_marseille","lat":43.28886,"lon":5.39889,"is_reserved":false,"is_disabled":false,"rental_uris":{"android":"levelo://app?vid=569700db-d3bf-44e2-8dc7-54279c37f634","ios":"levelo://app?vid=569700db-d3bf-44e2-8dc7-54279c37f634"},"vehicle_type_id":"4","last_reported":1749712260,"current_range_meters":8000,"station_id":"","pricing_plan_id":"cebpf4jnsgd1na2vs0mg"},{"bike_id":"9ffd6d76-2fb2-4d9a-bbb4-137d56acf087","system_id":"levelo_inurba_marseille","lat":43.3047,"lon":5.37912,"is_reserved":false,"is_disabled":false,"rental_uris":{"android":"levelo://app?vid=9ffd6d76-2fb2-4d9a-bbb4-137d56acf087","ios":"levelo://app?vid=9ffd6d76-2fb2-4d9a-bbb4-137d56acf087"},"vehicle_type_id":"4","last_reported":1749712260,"current_range_meters":8000,"station_id":"ce4bgup2rcd13ifvqcn0","pricing_plan_id":"cebpf4jnsgd1na2vs0mg"},{"bike_id":"8bc03b7b-e01e-442c-8cf1-a0129e9a8963","system_id":"levelo_inurba_marseille","lat":43.31697,"lon":5.40455,"is_reserved":false,"is_disabled":false,"rental_uris":{"android":"levelo://app?vid=8bc03b7b-e01e-442c-8cf1-a0129e9a8963","ios":"levelo://app?vid=8bc03b7b-e01e-442c-8cf1-a0129e9a8963"},"vehicle_type_id":"4","last_reported":1749712260,"current_range_meters":8000,"station_id":"ce4bh012rcd13ifvqd00","pricing_plan_id":"cebpf4jnsgd1na2vs0mg"},{"bike_id":"b25f97e0-c2f3-4f75-abdb-207544a41ed3","system_id":"levelo_inurba_marseille","lat":43.25914,"lon":5.40889,"is_reserved":false,"is_disabled":false,"rental_uris":{"android":"levelo://app?vid=b25f97e0-c2f3-4f75-abdb-207544a41ed3","ios":"levelo://app?vid=b25f97e0-c2f3-4f75-abdb-207544a41ed3"},"vehicle_type_id":"4","last_reported":1749712260,"current_range_meters":8000,"station_id":"ce4bhm92rcd13ifvqglg","pricing_plan_id":"cebpf4jnsgd1na2vs0mg"},{"bike_id":"0ebd10ca-1136-4a04-aac8-bab7ee3d3df8","system_id":"levelo_inurba_marseille","lat":43.313677,"lon":5.366987,"is_reserved":false,"is_disabled":false,"rental_uris":{"android":"levelo://app?vid=0ebd10ca-1136-4a04-aac8-bab7ee3d3df8","ios":"levelo://app?vid=0ebd10ca-1136-4a04-aac8-bab7ee3d3df8"},"vehicle_type_id":"4","last_reported":1749712260,"current_range_meters":8400,"station_id":"ce4bgr92rcd13ifvqc6g","pricing_plan_id":"cebpf4jnsgd1na2vs0mg"},{"bike_id":"aa86c5df-9a86-4a34-b557-564bbcc58d17","system_id":"levelo_inurba_marseille","lat":43.30138,"lon":5.37421,"is_reserved":false,"is_disabled":false,"rental_uris":{"android":"levelo://app?vid=aa86c5df-9a86-4a34-b557-564bbcc58d17","ios":"levelo://app?vid=aa86c5df-9a86-4a34-b557-564bbcc58d17"},"vehicle_type_id":"4","last_reported":1749712260,"current_range_meters":8400,"station_id":"ce4bgs92rcd13ifvqcc0","pricing_plan_id":"cebpf4jnsgd1na2vs0mg"},{"bike_id":"98653ab4-4428-4121-9f9d-ad353a235b29","system_id":"levelo_inurba_marseille","lat":43.23152,"lon":5.43744,"is_reserved":false,"is_disabled":false,"rental_uris":{"android":"levelo://app?vid=98653ab4-4428-4121-9f9d-ad353a235b29","ios":"levelo://app?vid=98653ab4-4428-4121-9f9d-ad353a235b29"},"vehicle_type_id":"4","last_reported":1749712260,"current_range_meters":8400,"station_id":"ce4bhmp2rcd13ifvqgog","pricing_plan_id":"cebpf4jnsgd1na2vs0mg"},{"bike_id":"f67110e4-1c90-4e7b-9c2c-f85397a7c0f6","system_id":"levelo_inurba_marseille","lat":43.318912,"lon":5.407485,"is_reserved":false,"is_disabled":false,"rental_uris":{"android":"levelo://app?vid=f67110e4-1c90-4e7b-9c2c-f85397a7c0f6","ios":"levelo://app?vid=f67110e4-1c90-4e7b-9c2c-f85397a7c0f6"},"vehicle_type_id":"4","last_reported":1749712260,"current_range_meters":8400,"station_id":"ce4bhq12rcd13ifvqhig","pricing_plan_id":"cebpf4jnsgd1na2vs0mg"},{"bike_id":"10ac821f-2800-4ad4-b997-432c8953364d","system_id":"levelo_inurba_marseille","lat":43.31346,"lon":5.36719,"is_reserved":false,"is_disabled":false,"rental_uris":{"android":"levelo://app?vid=10ac821f-2800-4ad4-b997-432c8953364d","ios":"levelo://app?vid=10ac821f-2800-4ad4-b997-432c8953364d"},"vehicle_type_id":"4","last_reported":1749712260,"current_range_meters":8800,"station_id":"ce4bgr92rcd13ifvqc6g","pricing_plan_id":"cebpf4jnsgd1na2vs0mg"},{"bike_id":"e1267f85-47d1-4361-a607-c7e2e8ea8a82","system_id":"levelo_inurba_marseille","lat":43.30455,"lon":5.37898,"is_reserved":false,"is_disabled":false,"rental_uris":{"android":"levelo://app?vid=e1267f85-47d1-4361-a607-c7e2e8ea8a82","ios":"levelo://app?vid=e1267f85-47d1-4361-a607-c7e2e8ea8a82"},"vehicle_type_id":"4","last_reported":1749712260,"current_range_meters":8800,"station_id":"ce4bgup2rcd13ifvqcn0","pricing_plan_id":"cebpf4jnsgd1na2vs0mg"},{"bike_id":"7f5b33b9-620b-4ae3-96bd-2b54c5b535be","system_id":"levelo_inurba_marseille","lat":43.30948,"lon":5.3903,"is_reserved":false,"is_disabled":false,"rental_uris":{"android":"levelo://app?vid=7f5b33b9-620b-4ae3-96bd-2b54c5b535be","ios":"levelo://app?vid=7f5b33b9-620b-4ae3-96bd-2b54c5b535be"},"vehicle_type_id":"4","last_reported":1749712260,"current_range_meters":8800,"station_id":"ce4bgup2rcd13ifvqco0","pricing_plan_id":"cebpf4jnsgd1na2vs0mg"},{"bike_id":"c30fa5ee-2292-4e7a-a09a-ec2c2f9df8ca","system_id":"levelo_inurba_marseille","lat":43.25892,"lon":5.40887,"is_reserved":false,"is_disabled":false,"rental_uris":{"android":"levelo://app?vid=c30fa5ee-2292-4e7a-a09a-ec2c2f9df8ca","ios":"levelo://app?vid=c30fa5ee-2292-4e7a-a09a-ec2c2f9df8ca"},"vehicle_type_id":"4","last_reported":1749712260,"current_range_meters":8800,"station_id":"ce4bhm92rcd13ifvqglg","pricing_plan_id":"cebpf4jnsgd1na2vs0mg"},{"bike_id":"fdf1e88a-7c80-4805-b5e7-5e32a5da1b90","system_id":"levelo_inurba_marseille","lat":43.23149,"lon":5.43732,"is_reserved":false,"is_disabled":false,"rental_uris":{"android":"levelo://app?vid=fdf1e88a-7c80-4805-b5e7-5e32a5da1b90","ios":"levelo://app?vid=fdf1e88a-7c80-4805-b5e7-5e32a5da1b90"},"vehicle_type_id":"4","last_reported":1749712260,"current_range_meters":8800,"station_id":"ce4bhmp2rcd13ifvqgog","pricing_plan_id":"cebpf4jnsgd1na2vs0mg"},{"bike_id":"84f5a926-1dd6-4535-b647-2764ce0ca103","system_id":"levelo_inurba_marseille","lat":43.32116,"lon":5.36782,"is_reserved":false,"is_disabled":false,"rental_uris":{"android":"levelo://app?vid=84f5a926-1dd6-4535-b647-2764ce0ca103","ios":"levelo://app?vid=84f5a926-1dd6-4535-b647-2764ce0ca103"},"vehicle_type_id":"4","last_reported":1749712260,"current_range_meters":8800,"station_id":"ce4bhrh2rcd13ifvqhug","pricing_plan_id":"cebpf4jnsgd1na2vs0mg"},{"bike_id":"2fc6faea-9432-496f-93d5-74572026f44d","system_id":"levelo_inurba_marseille","lat":43.29593,"lon":5.37746,"is_reserved":false,"is_disabled":false,"rental_uris":{"android":"levelo://app?vid=2fc6faea-9432-496f-93d5-74572026f44d","ios":"levelo://app?vid=2fc6faea-9432-496f-93d5-74572026f44d"},"vehicle_type_id":"4","last_reported":1749712260,"current_range_meters":9200,"station_id":"ce4bgi92rcd13ifvqb90","pricing_plan_id":"cebpf4jnsgd1na2vs0mg"},{"bike_id":"003eb318-dbe9-4926-9d17-9bb033840975","system_id":"levelo_inurba_marseille","lat":43.30193,"lon":5.36627,"is_reserved":false,"is_disabled":false,"rental_uris":{"android":"levelo://app?vid=003eb318-dbe9-4926-9d17-9bb033840975","ios":"levelo://app?vid=003eb318-dbe9-4926-9d17-9bb033840975"},"vehicle_type_id":"4","last_reported":1749712260,"current_range_meters":9200,"station_id":"ce4bgrh2rcd13ifvqc8g","pricing_plan_id":"cebpf4jnsgd1na2vs0mg"},{"bike_id":"1272cd5b-61ec-4d2c-b945-c42d1d7c200f","system_id":"levelo_inurba_marseille","lat":43.31121,"lon":5.37762,"is_reserved":false,"is_disabled":false,"rental_uris":{"android":"levelo://app?vid=1272cd5b-61ec-4d2c-b945-c42d1d7c200f","ios":"levelo://app?vid=1272cd5b-61ec-4d2c-b945-c42d1d7c200f"},"vehicle_type_id":"4","last_reported":1749712260,"current_range_meters":9200,"station_id":"ce4bgt92rcd13ifvqcg0","pricing_plan_id":"cebpf4jnsgd1na2vs0mg"},{"bike_id":"34b7e320-796c-497a-8329-ddd01a5d4324","system_id":"levelo_inurba_marseille","lat":43.29064,"lon":5.3716,"is_reserved":false,"is_disabled":false,"rental_uris":{"android":"levelo://app?vid=34b7e320-796c-497a-8329-ddd01a5d4324","ios":"levelo://app?vid=34b7e320-796c-497a-8329-ddd01a5d4324"},"vehicle_type_id":"4","last_reported":1749712260,"current_range_meters":9200,"station_id":"ce4bh5p2rcd13ifvqe4g","pricing_plan_id":"cebpf4jnsgd1na2vs0mg"},{"bike_id":"0c35b766-46ee-4c43-8fd9-c3e0f1b1cfac","system_id":"levelo_inurba_marseille","lat":43.29278,"lon":5.3846,"is_reserved":false,"is_disabled":false,"rental_uris":{"android":"levelo://app?vid=0c35b766-46ee-4c43-8fd9-c3e0f1b1cfac","ios":"levelo://app?vid=0c35b766-46ee-4c43-8fd9-c3e0f1b1cfac"},"vehicle_type_id":"4","last_reported":1749712260,"current_range_meters":9200,"station_id":"ce4bh692rcd13ifvqea0","pricing_plan_id":"cebpf4jnsgd1na2vs0mg"},{"bike_id":"0552047e-ac1d-4037-9a2d-194dbaf032ea","system_id":"levelo_inurba_marseille","lat":43.28941,"lon":5.36406,"is_reserved":false,"is_disabled":false,"rental_uris":{"android":"levelo://app?vid=0552047e-ac1d-4037-9a2d-194dbaf032ea","ios":"levelo://app?vid=0552047e-ac1d-4037-9a2d-194dbaf032ea"},"vehicle_type_id":"4","last_reported":1749712260,"current_range_meters":9200,"station_id":"ce4bhc92rcd13ifvqetg","pricing_plan_id":"cebpf4jnsgd1na2vs0mg"},{"bike_id":"f1b089dc-6b63-41ad-b79b-815e34f428b5","system_id":"levelo_inurba_marseille","lat":43.2396,"lon":5.36634,"is_reserved":false,"is_disabled":false,"rental_uris":{"android":"levelo://app?vid=f1b089dc-6b63-41ad-b79b-815e34f428b5","ios":"levelo://app?vid=f1b089dc-6b63-41ad-b79b-815e34f428b5"},"vehicle_type_id":"4","last_reported":1749712260,"current_range_meters":9200,"station_id":"ce4bhi12rcd13ifvqfp0","pricing_plan_id":"cebpf4jnsgd1na2vs0mg"},{"bike_id":"840f8b33-0723-4225-b7ba-0fc46b3ae739","system_id":"levelo_inurba_marseille","lat":43.24055,"lon":5.37765,"is_reserved":false,"is_disabled":false,"rental_uris":{"android":"levelo://app?vid=840f8b33-0723-4225-b7ba-0fc46b3ae739","ios":"levelo://app?vid=840f8b33-0723-4225-b7ba-0fc46b3ae739"},"vehicle_type_id":"4","last_reported":1749712260,"current_range_meters":9200,"station_id":"ce4bhnp2rcd13ifvqgvg","pricing_plan_id":"cebpf4jnsgd1na2vs0mg"},{"bike_id":"8105426e-eb6c-4b79-bfaa-254c1b037d55","system_id":"levelo_inurba_marseille","lat":43.32363,"lon":5.36764,"is_reserved":false,"is_disabled":false,"rental_uris":{"android":"levelo://app?vid=8105426e-eb6c-4b79-bfaa-254c1b037d55","ios":"levelo://app?vid=8105426e-eb6c-4b79-bfaa-254c1b037d55"},"vehicle_type_id":"4","last_reported":1749712260,"current_range_meters":9200,"station_id":"ce4bhsh2rcd13ifvqi2g","pricing_plan_id":"cebpf4jnsgd1na2vs0mg"},{"bike_id":"d8e70f2a-618b-4b8e-8099-079551a848a7","system_id":"levelo_inurba_marseille","lat":43.31214,"lon":5.36842,"is_reserved":false,"is_disabled":false,"rental_uris":{"android":"levelo://app?vid=d8e70f2a-618b-4b8e-8099-079551a848a7","ios":"levelo://app?vid=d8e70f2a-618b-4b8e-8099-079551a848a7"},"vehicle_type_id":"4","last_reported":1749712260,"current_range_meters":9600,"station_id":"ce4bgl92rcd13ifvqbq0","pricing_plan_id":"cebpf4jnsgd1na2vs0mg"},{"bike_id":"308cbf69-b866-4a48-b377-e4f7d5e7c70b","system_id":"levelo_inurba_marseille","lat":43.32934,"lon":5.39049,"is_reserved":false,"is_disabled":false,"rental_uris":{"android":"levelo://app?vid=308cbf69-b866-4a48-b377-e4f7d5e7c70b","ios":"levelo://app?vid=308cbf69-b866-4a48-b377-e4f7d5e7c70b"},"vehicle_type_id":"4","last_reported":1749712260,"current_range_meters":10000,"station_id":"","pricing_plan_id":"cebpf4jnsgd1na2vs0mg"},{"bike_id":"050d1d9f-c21f-4e5c-a533-3c984bdd1e73","system_id":"levelo_inurba_marseille","lat":43.29304,"lon":5.37468,"is_reserved":false,"is_disabled":false,"rental_uris":{"android":"levelo://app?vid=050d1d9f-c21f-4e5c-a533-3c984bdd1e73","ios":"levelo://app?vid=050d1d9f-c21f-4e5c-a533-3c984bdd1e73"},"vehicle_type_id":"4","last_reported":1749712260,"current_range_meters":10000,"station_id":"ce4bgi12rcd13ifvqb70","pricing_plan_id":"cebpf4jnsgd1na2vs0mg"},{"bike_id":"ca40aa0a-1965-4be2-a6b7-1fd193ec5e53","system_id":"levelo_inurba_marseille","lat":43.30175,"lon":5.38112,"is_reserved":false,"is_disabled":false,"rental_uris":{"android":"levelo://app?vid=ca40aa0a-1965-4be2-a6b7-1fd193ec5e53","ios":"levelo://app?vid=ca40aa0a-1965-4be2-a6b7-1fd193ec5e53"},"vehicle_type_id":"4","last_reported":1749712260,"current_range_meters":10000,"station_id":"ce4bgjp2rcd13ifvqbh0","pricing_plan_id":"cebpf4jnsgd1na2vs0mg"},{"bike_id":"7ffd94ff-a479-4f90-9d0b-0b01fefa2a32","system_id":"levelo_inurba_marseille","lat":43.307621,"lon":5.376038,"is_reserved":false,"is_disabled":false,"rental_uris":{"android":"levelo://app?vid=7ffd94ff-a479-4f90-9d0b-0b01fefa2a32","ios":"levelo://app?vid=7ffd94ff-a479-4f90-9d0b-0b01fefa2a32"},"vehicle_type_id":"4","last_reported":1749712260,"current_range_meters":10000,"station_id":"ce4bgv92rcd13ifvqcq0","pricing_plan_id":"cebpf4jnsgd1na2vs0mg"},{"bike_id":"031ced43-4e05-4060-9778-014525bf1462","system_id":"levelo_inurba_marseille","lat":43.24065,"lon":5.37772,"is_reserved":false,"is_disabled":false,"rental_uris":{"android":"levelo://app?vid=031ced43-4e05-4060-9778-014525bf1462","ios":"levelo://app?vid=031ced43-4e05-4060-9778-014525bf1462"},"vehicle_type_id":"4","last_reported":1749712260,"current_range_meters":10000,"station_id":"ce4bhnp2rcd13ifvqgvg","pricing_plan_id":"cebpf4jnsgd1na2vs0mg"},{"bike_id":"06894864-ef44-45c7-b38a-9e654b60f033","system_id":"levelo_inurba_marseille","lat":43.30577,"lon":5.38931,"is_reserved":false,"is_disabled":false,"rental_uris":{"android":"levelo://app?vid=06894864-ef44-45c7-b38a-9e654b60f033","ios":"levelo://app?vid=06894864-ef44-45c7-b38a-9e654b60f033"},"vehicle_type_id":"4","last_reported":1749712260,"current_range_meters":10800,"station_id":"","pricing_plan_id":"cebpf4jnsgd1na2vs0mg"},{"bike_id":"4b5dda0a-412b-4a73-b9f4-c883411abbe6","system_id":"levelo_inurba_marseille","lat":43.29072,"lon":5.40121,"is_reserved":false,"is_disabled":false,"rental_uris":{"android":"levelo://app?vid=4b5dda0a-412b-4a73-b9f4-c883411abbe6","ios":"levelo://app?vid=4b5dda0a-412b-4a73-b9f4-c883411abbe6"},"vehicle_type_id":"4","last_reported":1749712260,"current_range_meters":10800,"station_id":"","pricing_plan_id":"cebpf4jnsgd1na2vs0mg"},{"bike_id":"e5ff82fd-cc37-4e1f-aade-050998fb0f61","system_id":"levelo_inurba_marseille","lat":43.26276,"lon":5.37107,"is_reserved":false,"is_disabled":false,"rental_uris":{"android":"levelo://app?vid=e5ff82fd-cc37-4e1f-aade-050998fb0f61","ios":"levelo://app?vid=e5ff82fd-cc37-4e1f-aade-050998fb0f61"},"vehicle_type_id":"4","last_reported":1749712260,"current_range_meters":10800,"station_id":"","pricing_plan_id":"cebpf4jnsgd1na2vs0mg"},{"bike_id":"2ded260f-9949-4eac-9b25-7adda08f19f9","system_id":"levelo_inurba_marseille","lat":43.31687,"lon":5.40469,"is_reserved":false,"is_disabled":false,"rental_uris":{"android":"levelo://app?vid=2ded260f-9949-4eac-9b25-7adda08f19f9","ios":"levelo://app?vid=2ded260f-9949-4eac-9b25-7adda08f19f9"},"vehicle_type_id":"4","last_reported":1749712260,"current_range_meters":10800,"station_id":"ce4bh012rcd13ifvqd00","pricing_plan_id":"cebpf4jnsgd1na2vs0mg"},{"bike_id":"10bc1398-0ddb-4723-95a9-bcd982c3f0e7","system_id":"levelo_inurba_marseille","lat":43.29022,"lon":5.38131,"is_reserved":false,"is_disabled":false,"rental_uris":{"android":"levelo://app?vid=10bc1398-0ddb-4723-95a9-bcd982c3f0e7","ios":"levelo://app?vid=10bc1398-0ddb-4723-95a9-bcd982c3f0e7"},"vehicle_type_id":"4","last_reported":1749712260,"current_range_meters":10800,"station_id":"ce4bh4p2rcd13ifvqe1g","pricing_plan_id":"cebpf4jnsgd1na2vs0mg"},{"bike_id":"bda7c188-7d1f-4dcf-8b52-e55ff4109c30","system_id":"levelo_inurba_marseille","lat":43.24548,"lon":5.39523,"is_reserved":false,"is_disabled":false,"rental_uris":{"android":"levelo://app?vid=bda7c188-7d1f-4dcf-8b52-e55ff4109c30","ios":"levelo://app?vid=bda7c188-7d1f-4dcf-8b52-e55ff4109c30"},"vehicle_type_id":"4","last_reported":1749712260,"current_range_meters":10800,"station_id":"ce4bhlp2rcd13ifvqgjg","pricing_plan_id":"cebpf4jnsgd1na2vs0mg"},{"bike_id":"26b1a76c-df25-468d-8098-b639ae7ea2da","system_id":"levelo_inurba_marseille","lat":43.25903,"lon":5.40904,"is_reserved":false,"is_disabled":false,"rental_uris":{"android":"levelo://app?vid=26b1a76c-df25-468d-8098-b639ae7ea2da","ios":"levelo://app?vid=26b1a76c-df25-468d-8098-b639ae7ea2da"},"vehicle_type_id":"4","last_reported":1749712260,"current_range_meters":10800,"station_id":"ce4bhm92rcd13ifvqglg","pricing_plan_id":"cebpf4jnsgd1na2vs0mg"},{"bike_id":"874d20da-c4fa-48e4-859a-33355a620118","system_id":"levelo_inurba_marseille","lat":43.27496,"lon":5.42447,"is_reserved":false,"is_disabled":false,"rental_uris":{"android":"levelo://app?vid=874d20da-c4fa-48e4-859a-33355a620118","ios":"levelo://app?vid=874d20da-c4fa-48e4-859a-33355a620118"},"vehicle_type_id":"4","last_reported":1749712260,"current_range_meters":10800,"station_id":"ce4bhn92rcd13ifvqgrg","pricing_plan_id":"cebpf4jnsgd1na2vs0mg"},{"bike_id":"640c2017-86dc-487c-a9f4-f3964a220af0","system_id":"levelo_inurba_marseille","lat":43.24017,"lon":5.37802,"is_reserved":false,"is_disabled":false,"rental_uris":{"android":"levelo://app?vid=640c2017-86dc-487c-a9f4-f3964a220af0","ios":"levelo://app?vid=640c2017-86dc-487c-a9f4-f3964a220af0"},"vehicle_type_id":"4","last_reported":1749712260,"current_range_meters":10800,"station_id":"ce4bhnp2rcd13ifvqgvg","pricing_plan_id":"cebpf4jnsgd1na2vs0mg"},{"bike_id":"a2421370-e442-436f-a98a-844d44299694","system_id":"levelo_inurba_marseille","lat":43.32364,"lon":5.36762,"is_reserved":false,"is_disabled":false,"rental_uris":{"android":"levelo://app?vid=a2421370-e442-436f-a98a-844d44299694","ios":"levelo://app?vid=a2421370-e442-436f-a98a-844d44299694"},"vehicle_type_id":"4","last_reported":1749712260,"current_range_meters":10800,"station_id":"ce4bhsh2rcd13ifvqi2g","pricing_plan_id":"cebpf4jnsgd1na2vs0mg"},{"bike_id":"bd58138a-6dba-486f-9249-0e6d4bdf3d51","system_id":"levelo_inurba_marseille","lat":43.29194,"lon":5.379616,"is_reserved":false,"is_disabled":false,"rental_uris":{"android":"levelo://app?vid=bd58138a-6dba-486f-9249-0e6d4bdf3d51","ios":"levelo://app?vid=bd58138a-6dba-486f-9249-0e6d4bdf3d51"},"vehicle_type_id":"4","last_reported":1749712260,"current_range_meters":11200,"station_id":"","pricing_plan_id":"cebpf4jnsgd1na2vs0mg"},{"bike_id":"5cf1cb12-3a88-45a2-9d97-fd58937badaa","system_id":"levelo_inurba_marseille","lat":43.30951,"lon":5.39037,"is_reserved":false,"is_disabled":false,"rental_uris":{"android":"levelo://app?vid=5cf1cb12-3a88-45a2-9d97-fd58937badaa","ios":"levelo://app?vid=5cf1cb12-3a88-45a2-9d97-fd58937badaa"},"vehicle_type_id":"4","last_reported":1749712260,"current_range_meters":11200,"station_id":"ce4bgup2rcd13ifvqco0","pricing_plan_id":"cebpf4jnsgd1na2vs0mg"},{"bike_id":"9ac9e3de-c70a-4251-be83-f50b7fb1cc9d","system_id":"levelo_inurba_marseille","lat":43.26689,"lon":5.38263,"is_reserved":false,"is_disabled":false,"rental_uris":{"android":"levelo://app?vid=9ac9e3de-c70a-4251-be83-f50b7fb1cc9d","ios":"levelo://app?vid=9ac9e3de-c70a-4251-be83-f50b7fb1cc9d"},"vehicle_type_id":"4","last_reported":1749712260,"current_range_meters":11200,"station_id":"ce4bhg92rcd13ifvqf90","pricing_plan_id":"cebpf4jnsgd1na2vs0mg"},{"bike_id":"6cf5302e-f163-44ec-8a91-5229410aa850","system_id":"levelo_inurba_marseille","lat":43.269017,"lon":5.38546,"is_reserved":false,"is_disabled":false,"rental_uris":{"android":"levelo://app?vid=6cf5302e-f163-44ec-8a91-5229410aa850","ios":"levelo://app?vid=6cf5302e-f163-44ec-8a91-5229410aa850"},"vehicle_type_id":"4","last_reported":1749712260,"current_range_meters":11200,"station_id":"ce4bhh92rcd13ifvqfh0","pricing_plan_id":"cebpf4jnsgd1na2vs0mg"},{"bike_id":"ead116cb-98de-4a38-ad16-f7f0d80ff326","system_id":"levelo_inurba_marseille","lat":43.24388,"lon":5.3705,"is_reserved":false,"is_disabled":false,"rental_uris":{"android":"levelo://app?vid=ead116cb-98de-4a38-ad16-f7f0d80ff326","ios":"levelo://app?vid=ead116cb-98de-4a38-ad16-f7f0d80ff326"},"vehicle_type_id":"4","last_reported":1749712260,"current_range_meters":11200,"station_id":"ce4bhhh2rcd13ifvqfk0","pricing_plan_id":"cebpf4jnsgd1na2vs0mg"},{"bike_id":"6dfd5595-654e-42ee-8e58-2a5c3df13ff8","system_id":"levelo_inurba_marseille","lat":43.309328,"lon":5.372636,"is_reserved":false,"is_disabled":false,"rental_uris":{"android":"levelo://app?vid=6dfd5595-654e-42ee-8e58-2a5c3df13ff8","ios":"levelo://app?vid=6dfd5595-654e-42ee-8e58-2a5c3df13ff8"},"vehicle_type_id":"4","last_reported":1749712260,"current_range_meters":11600,"station_id":"","pricing_plan_id":"cebpf4jnsgd1na2vs0mg"},{"bike_id":"7acbbed4-5aff-4084-9202-5900c5e5ad7c","system_id":"levelo_inurba_marseille","lat":43.309519,"lon":5.390396,"is_reserved":false,"is_disabled":false,"rental_uris":{"android":"levelo://app?vid=7acbbed4-5aff-4084-9202-5900c5e5ad7c","ios":"levelo://app?vid=7acbbed4-5aff-4084-9202-5900c5e5ad7c"},"vehicle_type_id":"4","last_reported":1749712260,"current_range_meters":11600,"station_id":"","pricing_plan_id":"cebpf4jnsgd1na2vs0mg"},{"bike_id":"91252cb4-db98-4cff-ba49-0337a6eacf8f","system_id":"levelo_inurba_marseille","lat":43.319863,"lon":5.38793,"is_reserved":false,"is_disabled":false,"rental_uris":{"android":"levelo://app?vid=91252cb4-db98-4cff-ba49-0337a6eacf8f","ios":"levelo://app?vid=91252cb4-db98-4cff-ba49-0337a6eacf8f"},"vehicle_type_id":"4","last_reported":1749712260,"current_range_meters":11600,"station_id":"","pricing_plan_id":"cebpf4jnsgd1na2vs0mg"},{"bike_id":"ba9501f7-0b41-406e-ab48-3175167a4687","system_id":"levelo_inurba_marseille","lat":43.29863,"lon":5.36298,"is_reserved":false,"is_disabled":false,"rental_uris":{"android":"levelo://app?vid=ba9501f7-0b41-406e-ab48-3175167a4687","ios":"levelo://app?vid=ba9501f7-0b41-406e-ab48-3175167a4687"},"vehicle_type_id":"4","last_reported":1749712260,"current_range_meters":11600,"station_id":"ce4bgpp2rcd13ifvqc3g","pricing_plan_id":"cebpf4jnsgd1na2vs0mg"},{"bike_id":"530b0893-05e2-44b3-8a4d-7e8c49a3ff55","system_id":"levelo_inurba_marseille","lat":43.28862,"lon":5.35841,"is_reserved":false,"is_disabled":false,"rental_uris":{"android":"levelo://app?vid=530b0893-05e2-44b3-8a4d-7e8c49a3ff55","ios":"levelo://app?vid=530b0893-05e2-44b3-8a4d-7e8c49a3ff55"},"vehicle_type_id":"4","last_reported":1749712260,"current_range_meters":11600,"station_id":"ce4bhb12rcd13ifvqem0","pricing_plan_id":"cebpf4jnsgd1na2vs0mg"},{"bike_id":"1ccbee63-a471-470d-8d64-93fc2b338593","system_id":"levelo_inurba_marseille","lat":43.30913,"lon":5.36857,"is_reserved":false,"is_disabled":false,"rental_uris":{"android":"levelo://app?vid=1ccbee63-a471-470d-8d64-93fc2b338593","ios":"levelo://app?vid=1ccbee63-a471-470d-8d64-93fc2b338593"},"vehicle_type_id":"4","last_reported":1749712260,"current_range_meters":12000,"station_id":"ce4bgn92rcd13ifvqbvg","pricing_plan_id":"cebpf4jnsgd1na2vs0mg"},{"bike_id":"af416ecb-180c-4ad2-b4c7-bff26886f43c","system_id":"levelo_inurba_marseille","lat":43.29255,"lon":5.40898,"is_reserved":false,"is_disabled":false,"rental_uris":{"android":"levelo://app?vid=af416ecb-180c-4ad2-b4c7-bff26886f43c","ios":"levelo://app?vid=af416ecb-180c-4ad2-b4c7-bff26886f43c"},"vehicle_type_id":"4","last_reported":1749712260,"current_range_meters":12400,"station_id":"ce4bh192rcd13ifvqdc0","pricing_plan_id":"cebpf4jnsgd1na2vs0mg"},{"bike_id":"25f41143-e93c-4233-94d6-f847018965f7","system_id":"levelo_inurba_marseille","lat":43.26679,"lon":5.38269,"is_reserved":false,"is_disabled":false,"rental_uris":{"android":"levelo://app?vid=25f41143-e93c-4233-94d6-f847018965f7","ios":"levelo://app?vid=25f41143-e93c-4233-94d6-f847018965f7"},"vehicle_type_id":"4","last_reported":1749712260,"current_range_meters":12400,"station_id":"ce4bhg92rcd13ifvqf90","pricing_plan_id":"cebpf4jnsgd1na2vs0mg"},{"bike_id":"9e854feb-48e2-471c-b791-c9bd0385ce41","system_id":"levelo_inurba_marseille","lat":43.25925,"lon":5.40911,"is_reserved":false,"is_disabled":false,"rental_uris":{"android":"levelo://app?vid=9e854feb-48e2-471c-b791-c9bd0385ce41","ios":"levelo://app?vid=9e854feb-48e2-471c-b791-c9bd0385ce41"},"vehicle_type_id":"4","last_reported":1749712260,"current_range_meters":12400,"station_id":"ce4bhm92rcd13ifvqglg","pricing_plan_id":"cebpf4jnsgd1na2vs0mg"},{"bike_id":"e0249f4b-8d8b-4dc7-a224-9ea697947c37","system_id":"levelo_inurba_marseille","lat":43.3174,"lon":5.42386,"is_reserved":false,"is_disabled":false,"rental_uris":{"android":"levelo://app?vid=e0249f4b-8d8b-4dc7-a224-9ea697947c37","ios":"levelo://app?vid=e0249f4b-8d8b-4dc7-a224-9ea697947c37"},"vehicle_type_id":"4","last_reported":1749712260,"current_range_meters":12400,"station_id":"ce4bhp92rcd13ifvqhbg","pricing_plan_id":"cebpf4jnsgd1na2vs0mg"},{"bike_id":"4baa44a0-9266-4820-8ba3-cb55ad7bc7d5","system_id":"levelo_inurba_marseille","lat":43.309,"lon":5.3684,"is_reserved":false,"is_disabled":false,"rental_uris":{"android":"levelo://app?vid=4baa44a0-9266-4820-8ba3-cb55ad7bc7d5","ios":"levelo://app?vid=4baa44a0-9266-4820-8ba3-cb55ad7bc7d5"},"vehicle_type_id":"4","last_reported":1749712260,"current_range_meters":12800,"station_id":"ce4bgn92rcd13ifvqbvg","pricing_plan_id":"cebpf4jnsgd1na2vs0mg"},{"bike_id":"73c0b1c4-1882-43b4-95b8-8b2917f215e1","system_id":"levelo_inurba_marseille","lat":43.26568,"lon":5.39006,"is_reserved":false,"is_disabled":false,"rental_uris":{"android":"levelo://app?vid=73c0b1c4-1882-43b4-95b8-8b2917f215e1","ios":"levelo://app?vid=73c0b1c4-1882-43b4-95b8-8b2917f215e1"},"vehicle_type_id":"4","last_reported":1749712260,"current_range_meters":12800,"station_id":"ce4bhe12rcd13ifvqf30","pricing_plan_id":"cebpf4jnsgd1na2vs0mg"},{"bike_id":"6d6a7ee5-eb4e-486a-a199-1c67f7b7ed5f","system_id":"levelo_inurba_marseille","lat":43.26031,"lon":5.37542,"is_reserved":false,"is_disabled":false,"rental_uris":{"android":"levelo://app?vid=6d6a7ee5-eb4e-486a-a199-1c67f7b7ed5f","ios":"levelo://app?vid=6d6a7ee5-eb4e-486a-a199-1c67f7b7ed5f"},"vehicle_type_id":"4","last_reported":1749712260,"current_range_meters":12800,"station_id":"ce4bhgh2rcd13ifvqfa0","pricing_plan_id":"cebpf4jnsgd1na2vs0mg"},{"bike_id":"743245d4-5457-49b9-9efc-d95c90d69b8e","system_id":"levelo_inurba_marseille","lat":43.314873,"lon":5.373081,"is_reserved":false,"is_disabled":false,"rental_uris":{"android":"levelo://app?vid=743245d4-5457-49b9-9efc-d95c90d69b8e","ios":"levelo://app?vid=743245d4-5457-49b9-9efc-d95c90d69b8e"},"vehicle_type_id":"4","last_reported":1749712260,"current_range_meters":12800,"station_id":"ce4bhip2rcd13ifvqft0","pricing_plan_id":"cebpf4jnsgd1na2vs0mg"},{"bike_id":"09830ce4-63ce-4073-bd68-b3ff0be606f2","system_id":"levelo_inurba_marseille","lat":43.325375,"lon":5.414538,"is_reserved":false,"is_disabled":false,"rental_uris":{"android":"levelo://app?vid=09830ce4-63ce-4073-bd68-b3ff0be606f2","ios":"levelo://app?vid=09830ce4-63ce-4073-bd68-b3ff0be606f2"},"vehicle_type_id":"4","last_reported":1749712260,"current_range_meters":12800,"station_id":"ce4bhq12rcd13ifvqhhg","pricing_plan_id":"cebpf4jnsgd1na2vs0mg"},{"bike_id":"51c9c3d1-050f-47d1-8726-c1814cd19d79","system_id":"levelo_inurba_marseille","lat":43.31272,"lon":5.38931,"is_reserved":false,"is_disabled":false,"rental_uris":{"android":"levelo://app?vid=51c9c3d1-050f-47d1-8726-c1814cd19d79","ios":"levelo://app?vid=51c9c3d1-050f-47d1-8726-c1814cd19d79"},"vehicle_type_id":"4","last_reported":1749712260,"current_range_meters":13600,"station_id":"","pricing_plan_id":"cebpf4jnsgd1na2vs0mg"},{"bike_id":"1685cc5c-235d-46a2-a8b7-49193ae3e8f4","system_id":"levelo_inurba_marseille","lat":43.31708,"lon":5.377743,"is_reserved":false,"is_disabled":false,"rental_uris":{"android":"levelo://app?vid=1685cc5c-235d-46a2-a8b7-49193ae3e8f4","ios":"levelo://app?vid=1685cc5c-235d-46a2-a8b7-49193ae3e8f4"},"vehicle_type_id":"4","last_reported":1749712260,"current_range_meters":13600,"station_id":"ce4bgth2rcd13ifvqch0","pricing_plan_id":"cebpf4jnsgd1na2vs0mg"},{"bike_id":"ef969575-959f-41ba-8eeb-5152ea93fa9c","system_id":"levelo_inurba_marseille","lat":43.30894,"lon":5.37197,"is_reserved":false,"is_disabled":false,"rental_uris":{"android":"levelo://app?vid=ef969575-959f-41ba-8eeb-5152ea93fa9c","ios":"levelo://app?vid=ef969575-959f-41ba-8eeb-5152ea93fa9c"},"vehicle_type_id":"4","last_reported":1749712260,"current_range_meters":13600,"station_id":"ce4bguh2rcd13ifvqckg","pricing_plan_id":"cebpf4jnsgd1na2vs0mg"},{"bike_id":"abfaca72-f7ad-4e68-8c54-77a7cafcce83","system_id":"levelo_inurba_marseille","lat":43.265617,"lon":5.390115,"is_reserved":false,"is_disabled":false,"rental_uris":{"android":"levelo://app?vid=abfaca72-f7ad-4e68-8c54-77a7cafcce83","ios":"levelo://app?vid=abfaca72-f7ad-4e68-8c54-77a7cafcce83"},"vehicle_type_id":"4","last_reported":1749712260,"current_range_meters":13600,"station_id":"ce4bhe12rcd13ifvqf30","pricing_plan_id":"cebpf4jnsgd1na2vs0mg"},{"bike_id":"8c5a09cb-554c-46c5-8649-100d8051ece1","system_id":"levelo_inurba_marseille","lat":43.24545,"lon":5.39522,"is_reserved":false,"is_disabled":false,"rental_uris":{"android":"levelo://app?vid=8c5a09cb-554c-46c5-8649-100d8051ece1","ios":"levelo://app?vid=8c5a09cb-554c-46c5-8649-100d8051ece1"},"vehicle_type_id":"4","last_reported":1749712260,"current_range_meters":13600,"station_id":"ce4bhlp2rcd13ifvqgjg","pricing_plan_id":"cebpf4jnsgd1na2vs0mg"},{"bike_id":"cb859bdb-d546-4414-a910-68cc7f99937e","system_id":"levelo_inurba_marseille","lat":43.23152,"lon":5.43719,"is_reserved":false,"is_disabled":false,"rental_uris":{"android":"levelo://app?vid=cb859bdb-d546-4414-a910-68cc7f99937e","ios":"levelo://app?vid=cb859bdb-d546-4414-a910-68cc7f99937e"},"vehicle_type_id":"4","last_reported":1749712260,"current_range_meters":13600,"station_id":"ce4bhmp2rcd13ifvqgog","pricing_plan_id":"cebpf4jnsgd1na2vs0mg"},{"bike_id":"15e345ff-4e20-4590-9b63-3b5a947dd406","system_id":"levelo_inurba_marseille","lat":43.30373,"lon":5.42488,"is_reserved":false,"is_disabled":false,"rental_uris":{"android":"levelo://app?vid=15e345ff-4e20-4590-9b63-3b5a947dd406","ios":"levelo://app?vid=15e345ff-4e20-4590-9b63-3b5a947dd406"},"vehicle_type_id":"4","last_reported":1749712260,"current_range_meters":13600,"station_id":"ce4bhoh2rcd13ifvqh6g","pricing_plan_id":"cebpf4jnsgd1na2vs0mg"},{"bike_id":"500320f2-e4bb-4906-a414-ca67470055ab","system_id":"levelo_inurba_marseille","lat":43.25646,"lon":5.3861,"is_reserved":false,"is_disabled":false,"rental_uris":{"android":"levelo://app?vid=500320f2-e4bb-4906-a414-ca67470055ab","ios":"levelo://app?vid=500320f2-e4bb-4906-a414-ca67470055ab"},"vehicle_type_id":"4","last_reported":1749712260,"current_range_meters":14000,"station_id":"","pricing_plan_id":"cebpf4jnsgd1na2vs0mg"},{"bike_id":"501fe5cc-ec9f-4031-8e12-9c9a87dfd25d","system_id":"levelo_inurba_marseille","lat":43.31808,"lon":5.40612,"is_reserved":false,"is_disabled":false,"rental_uris":{"android":"levelo://app?vid=501fe5cc-ec9f-4031-8e12-9c9a87dfd25d","ios":"levelo://app?vid=501fe5cc-ec9f-4031-8e12-9c9a87dfd25d"},"vehicle_type_id":"4","last_reported":1749712260,"current_range_meters":14000,"station_id":"","pricing_plan_id":"cebpf4jnsgd1na2vs0mg"},{"bike_id":"c3d323a5-0181-4130-be15-57eebc258b8b","system_id":"levelo_inurba_marseille","lat":43.30899,"lon":5.3685,"is_reserved":false,"is_disabled":false,"rental_uris":{"android":"levelo://app?vid=c3d323a5-0181-4130-be15-57eebc258b8b","ios":"levelo://app?vid=c3d323a5-0181-4130-be15-57eebc258b8b"},"vehicle_type_id":"4","last_reported":1749712260,"current_range_meters":14000,"station_id":"ce4bgn92rcd13ifvqbvg","pricing_plan_id":"cebpf4jnsgd1na2vs0mg"},{"bike_id":"dd24f524-1514-4491-83d8-b083d7303df2","system_id":"levelo_inurba_marseille","lat":43.27293,"lon":5.39071,"is_reserved":false,"is_disabled":false,"rental_uris":{"android":"levelo://app?vid=dd24f524-1514-4491-83d8-b083d7303df2","ios":"levelo://app?vid=dd24f524-1514-4491-83d8-b083d7303df2"},"vehicle_type_id":"4","last_reported":1749712260,"current_range_meters":14000,"station_id":"ce4bhgp2rcd13ifvqfe0","pricing_plan_id":"cebpf4jnsgd1na2vs0mg"},{"bike_id":"cf3e5175-6400-460f-8191-07edabb47ff3","system_id":"levelo_inurba_marseille","lat":43.30915,"lon":5.36846,"is_reserved":false,"is_disabled":false,"rental_uris":{"android":"levelo://app?vid=cf3e5175-6400-460f-8191-07edabb47ff3","ios":"levelo://app?vid=cf3e5175-6400-460f-8191-07edabb47ff3"},"vehicle_type_id":"4","last_reported":1749712260,"current_range_meters":14400,"station_id":"ce4bgn92rcd13ifvqbvg","pricing_plan_id":"cebpf4jnsgd1na2vs0mg"},{"bike_id":"ce81f804-a274-484f-a641-28706f036e77","system_id":"levelo_inurba_marseille","lat":43.31935,"lon":5.40756,"is_reserved":false,"is_disabled":false,"rental_uris":{"android":"levelo://app?vid=ce81f804-a274-484f-a641-28706f036e77","ios":"levelo://app?vid=ce81f804-a274-484f-a641-28706f036e77"},"vehicle_type_id":"4","last_reported":1749712260,"current_range_meters":14400,"station_id":"ce4bhq12rcd13ifvqhig","pricing_plan_id":"cebpf4jnsgd1na2vs0mg"},{"bike_id":"b49560cb-77a4-45c6-8293-d64552d7c846","system_id":"levelo_inurba_marseille","lat":43.246455,"lon":5.388959,"is_reserved":false,"is_disabled":false,"rental_uris":{"android":"levelo://app?vid=b49560cb-77a4-45c6-8293-d64552d7c846","ios":"levelo://app?vid=b49560cb-77a4-45c6-8293-d64552d7c846"},"vehicle_type_id":"4","last_reported":1749712260,"current_range_meters":14800,"station_id":"ce4bhg12rcd13ifvqf60","pricing_plan_id":"cebpf4jnsgd1na2vs0mg"},{"bike_id":"78ed153a-c7df-47b3-9e81-b7d223e48ace","system_id":"levelo_inurba_marseille","lat":43.25491,"lon":5.3765,"is_reserved":false,"is_disabled":false,"rental_uris":{"android":"levelo://app?vid=78ed153a-c7df-47b3-9e81-b7d223e48ace","ios":"levelo://app?vid=78ed153a-c7df-47b3-9e81-b7d223e48ace"},"vehicle_type_id":"4","last_reported":1749712260,"current_range_meters":14800,"station_id":"ce4bhh12rcd13ifvqff0","pricing_plan_id":"cebpf4jnsgd1na2vs0mg"},{"bike_id":"4b8a0ef1-cacb-48b3-860b-0554fb0b2b40","system_id":"levelo_inurba_marseille","lat":43.25819,"lon":5.39417,"is_reserved":false,"is_disabled":false,"rental_uris":{"android":"levelo://app?vid=4b8a0ef1-cacb-48b3-860b-0554fb0b2b40","ios":"levelo://app?vid=4b8a0ef1-cacb-48b3-860b-0554fb0b2b40"},"vehicle_type_id":"4","last_reported":1749712260,"current_range_meters":14800,"station_id":"ce4bhip2rcd13ifvqft0","pricing_plan_id":"cebpf4jnsgd1na2vs0mg"},{"bike_id":"c3261b61-b189-4dd9-abd1-3510ab665569","system_id":"levelo_inurba_marseille","lat":43.31752,"lon":5.42426,"is_reserved":false,"is_disabled":false,"rental_uris":{"android":"levelo://app?vid=c3261b61-b189-4dd9-abd1-3510ab665569","ios":"levelo://app?vid=c3261b61-b189-4dd9-abd1-3510ab665569"},"vehicle_type_id":"4","last_reported":1749712260,"current_range_meters":14800,"station_id":"ce4bhp92rcd13ifvqhbg","pricing_plan_id":"cebpf4jnsgd1na2vs0mg"},{"bike_id":"45cb9171-bb7e-418e-bf45-5916b7d21e5e","system_id":"levelo_inurba_marseille","lat":43.32137,"lon":5.36771,"is_reserved":false,"is_disabled":false,"rental_uris":{"android":"levelo://app?vid=45cb9171-bb7e-418e-bf45-5916b7d21e5e","ios":"levelo://app?vid=45cb9171-bb7e-418e-bf45-5916b7d21e5e"},"vehicle_type_id":"4","last_reported":1749712260,"current_range_meters":14800,"station_id":"ce4bhrh2rcd13ifvqhug","pricing_plan_id":"cebpf4jnsgd1na2vs0mg"},{"bike_id":"a63a44e1-3691-4845-8be6-9085725b266d","system_id":"levelo_inurba_marseille","lat":43.31311,"lon":5.3754,"is_reserved":false,"is_disabled":false,"rental_uris":{"android":"levelo://app?vid=a63a44e1-3691-4845-8be6-9085725b266d","ios":"levelo://app?vid=a63a44e1-3691-4845-8be6-9085725b266d"},"vehicle_type_id":"4","last_reported":1749712260,"current_range_meters":15200,"station_id":"","pricing_plan_id":"cebpf4jnsgd1na2vs0mg"},{"bike_id":"9d6f5ff2-19a1-4a14-a792-eaeb36b70fe9","system_id":"levelo_inurba_marseille","lat":43.26681,"lon":5.38275,"is_reserved":false,"is_disabled":false,"rental_uris":{"android":"levelo://app?vid=9d6f5ff2-19a1-4a14-a792-eaeb36b70fe9","ios":"levelo://app?vid=9d6f5ff2-19a1-4a14-a792-eaeb36b70fe9"},"vehicle_type_id":"4","last_reported":1749712260,"current_range_meters":15200,"station_id":"ce4bhg92rcd13ifvqf90","pricing_plan_id":"cebpf4jnsgd1na2vs0mg"},{"bike_id":"23033eeb-d84e-4cde-b42f-d85703bc8428","system_id":"levelo_inurba_marseille","lat":43.25727,"lon":5.41107,"is_reserved":false,"is_disabled":false,"rental_uris":{"android":"levelo://app?vid=23033eeb-d84e-4cde-b42f-d85703bc8428","ios":"levelo://app?vid=23033eeb-d84e-4cde-b42f-d85703bc8428"},"vehicle_type_id":"4","last_reported":1749712260,"current_range_meters":15200,"station_id":"ce4bhkp2rcd13ifvqgd0","pricing_plan_id":"cebpf4jnsgd1na2vs0mg"},{"bike_id":"ade963cb-5d83-4a08-876c-6bcfccbb6951","system_id":"levelo_inurba_marseille","lat":43.3199,"lon":5.38142,"is_reserved":false,"is_disabled":false,"rental_uris":{"android":"levelo://app?vid=ade963cb-5d83-4a08-876c-6bcfccbb6951","ios":"levelo://app?vid=ade963cb-5d83-4a08-876c-6bcfccbb6951"},"vehicle_type_id":"4","last_reported":1749712260,"current_range_meters":16000,"station_id":"","pricing_plan_id":"cebpf4jnsgd1na2vs0mg"},{"bike_id":"7d7170dd-d55e-43db-a9c2-1ed74c433fd7","system_id":"levelo_inurba_marseille","lat":43.31002,"lon":5.42002,"is_reserved":false,"is_disabled":false,"rental_uris":{"android":"levelo://app?vid=7d7170dd-d55e-43db-a9c2-1ed74c433fd7","ios":"levelo://app?vid=7d7170dd-d55e-43db-a9c2-1ed74c433fd7"},"vehicle_type_id":"4","last_reported":1749712260,"current_range_meters":16400,"station_id":"","pricing_plan_id":"cebpf4jnsgd1na2vs0mg"},{"bike_id":"e5ef7447-82af-477b-846f-d44631249354","system_id":"levelo_inurba_marseille","lat":43.3252,"lon":5.38841,"is_reserved":false,"is_disabled":false,"rental_uris":{"android":"levelo://app?vid=e5ef7447-82af-477b-846f-d44631249354","ios":"levelo://app?vid=e5ef7447-82af-477b-846f-d44631249354"},"vehicle_type_id":"4","last_reported":1749712260,"current_range_meters":16400,"station_id":"","pricing_plan_id":"cebpf4jnsgd1na2vs0mg"},{"bike_id":"f323c88a-d817-48b2-b9e8-42aab85421b1","system_id":"levelo_inurba_marseille","lat":43.29595,"lon":5.38103,"is_reserved":false,"is_disabled":false,"rental_uris":{"android":"levelo://app?vid=f323c88a-d817-48b2-b9e8-42aab85421b1","ios":"levelo://app?vid=f323c88a-d817-48b2-b9e8-42aab85421b1"},"vehicle_type_id":"4","last_reported":1749712260,"current_range_meters":16400,"station_id":"ce4bgl12rcd13ifvqbo0","pricing_plan_id":"cebpf4jnsgd1na2vs0mg"},{"bike_id":"d37d0762-b56d-406a-a6e8-706e512c1f0b","system_id":"levelo_inurba_marseille","lat":43.30895,"lon":5.37209,"is_reserved":false,"is_disabled":false,"rental_uris":{"android":"levelo://app?vid=d37d0762-b56d-406a-a6e8-706e512c1f0b","ios":"levelo://app?vid=d37d0762-b56d-406a-a6e8-706e512c1f0b"},"vehicle_type_id":"4","last_reported":1749712260,"current_range_meters":16400,"station_id":"ce4bguh2rcd13ifvqckg","pricing_plan_id":"cebpf4jnsgd1na2vs0mg"},{"bike_id":"28bd68f4-cc8c-42c7-a7b6-31e32bdcb1d3","system_id":"levelo_inurba_marseille","lat":43.259,"lon":5.40898,"is_reserved":false,"is_disabled":false,"rental_uris":{"android":"levelo://app?vid=28bd68f4-cc8c-42c7-a7b6-31e32bdcb1d3","ios":"levelo://app?vid=28bd68f4-cc8c-42c7-a7b6-31e32bdcb1d3"},"vehicle_type_id":"4","last_reported":1749712260,"current_range_meters":16400,"station_id":"ce4bhm92rcd13ifvqglg","pricing_plan_id":"cebpf4jnsgd1na2vs0mg"},{"bike_id":"0d646bc5-a39e-44c6-bdc0-4dba71cab161","system_id":"levelo_inurba_marseille","lat":43.32551,"lon":5.41455,"is_reserved":false,"is_disabled":false,"rental_uris":{"android":"levelo://app?vid=0d646bc5-a39e-44c6-bdc0-4dba71cab161","ios":"levelo://app?vid=0d646bc5-a39e-44c6-bdc0-4dba71cab161"},"vehicle_type_id":"4","last_reported":1749712260,"current_range_meters":16400,"station_id":"ce4bhq12rcd13ifvqhhg","pricing_plan_id":"cebpf4jnsgd1na2vs0mg"},{"bike_id":"dbd4e555-8024-4425-aa1b-a1bc5a77538b","system_id":"levelo_inurba_marseille","lat":43.323263,"lon":5.406433,"is_reserved":false,"is_disabled":false,"rental_uris":{"android":"levelo://app?vid=dbd4e555-8024-4425-aa1b-a1bc5a77538b","ios":"levelo://app?vid=dbd4e555-8024-4425-aa1b-a1bc5a77538b"},"vehicle_type_id":"4","last_reported":1749712260,"current_range_meters":16400,"station_id":"ce4bhq92rcd13ifvqhjg","pricing_plan_id":"cebpf4jnsgd1na2vs0mg"},{"bike_id":"7003b93c-725d-412e-9127-fbade718cbc3","system_id":"levelo_inurba_marseille","lat":43.21192,"lon":5.350724,"is_reserved":false,"is_disabled":false,"rental_uris":{"android":"levelo://app?vid=7003b93c-725d-412e-9127-fbade718cbc3","ios":"levelo://app?vid=7003b93c-725d-412e-9127-fbade718cbc3"},"vehicle_type_id":"4","last_reported":1749712260,"current_range_meters":16400,"station_id":"st_cvj6sg6p6f1abm77japg","pricing_plan_id":"cebpf4jnsgd1na2vs0mg"},{"bike_id":"1268e070-f02d-4537-93df-0bfd5c4daa05","system_id":"levelo_inurba_marseille","lat":43.3269,"lon":5.37663,"is_reserved":false,"is_disabled":false,"rental_uris":{"android":"levelo://app?vid=1268e070-f02d-4537-93df-0bfd5c4daa05","ios":"levelo://app?vid=1268e070-f02d-4537-93df-0bfd5c4daa05"},"vehicle_type_id":"4","last_reported":1749712260,"current_range_meters":16800,"station_id":"","pricing_plan_id":"cebpf4jnsgd1na2vs0mg"},{"bike_id":"1989215c-378c-442b-a262-e4741c2e9de7","system_id":"levelo_inurba_marseille","lat":43.302266,"lon":5.40373,"is_reserved":false,"is_disabled":false,"rental_uris":{"android":"levelo://app?vid=1989215c-378c-442b-a262-e4741c2e9de7","ios":"levelo://app?vid=1989215c-378c-442b-a262-e4741c2e9de7"},"vehicle_type_id":"4","last_reported":1749712260,"current_range_meters":16800,"station_id":"","pricing_plan_id":"cebpf4jnsgd1na2vs0mg"},{"bike_id":"c0bd4251-d527-48a7-9378-e4e80c1c274f","system_id":"levelo_inurba_marseille","lat":43.31801,"lon":5.37377,"is_reserved":false,"is_disabled":false,"rental_uris":{"android":"levelo://app?vid=c0bd4251-d527-48a7-9378-e4e80c1c274f","ios":"levelo://app?vid=c0bd4251-d527-48a7-9378-e4e80c1c274f"},"vehicle_type_id":"4","last_reported":1749712260,"current_range_meters":16800,"station_id":"","pricing_plan_id":"cebpf4jnsgd1na2vs0mg"},{"bike_id":"6e464720-93b0-4699-80fe-881649eb71cd","system_id":"levelo_inurba_marseille","lat":43.23244,"lon":5.3562,"is_reserved":false,"is_disabled":false,"rental_uris":{"android":"levelo://app?vid=6e464720-93b0-4699-80fe-881649eb71cd","ios":"levelo://app?vid=6e464720-93b0-4699-80fe-881649eb71cd"},"vehicle_type_id":"4","last_reported":1749712260,"current_range_meters":16800,"station_id":"","pricing_plan_id":"cebpf4jnsgd1na2vs0mg"},{"bike_id":"d24133ff-b3b7-4bc8-975b-6c012903b7dd","system_id":"levelo_inurba_marseille","lat":43.31213,"lon":5.36916,"is_reserved":false,"is_disabled":false,"rental_uris":{"android":"levelo://app?vid=d24133ff-b3b7-4bc8-975b-6c012903b7dd","ios":"levelo://app?vid=d24133ff-b3b7-4bc8-975b-6c012903b7dd"},"vehicle_type_id":"4","last_reported":1749712260,"current_range_meters":16800,"station_id":"ce4bgl92rcd13ifvqbq0","pricing_plan_id":"cebpf4jnsgd1na2vs0mg"},{"bike_id":"665998af-eeab-4eb2-8676-50bf08314509","system_id":"levelo_inurba_marseille","lat":43.31339,"lon":5.36724,"is_reserved":false,"is_disabled":false,"rental_uris":{"android":"levelo://app?vid=665998af-eeab-4eb2-8676-50bf08314509","ios":"levelo://app?vid=665998af-eeab-4eb2-8676-50bf08314509"},"vehicle_type_id":"4","last_reported":1749712260,"current_range_meters":16800,"station_id":"ce4bgr92rcd13ifvqc6g","pricing_plan_id":"cebpf4jnsgd1na2vs0mg"},{"bike_id":"ccda4441-32df-4100-935a-95b743e2c494","system_id":"levelo_inurba_marseille","lat":43.28983,"lon":5.37833,"is_reserved":false,"is_disabled":false,"rental_uris":{"android":"levelo://app?vid=ccda4441-32df-4100-935a-95b743e2c494","ios":"levelo://app?vid=ccda4441-32df-4100-935a-95b743e2c494"},"vehicle_type_id":"4","last_reported":1749712260,"current_range_meters":16800,"station_id":"ce4bh9p2rcd13ifvqed0","pricing_plan_id":"cebpf4jnsgd1na2vs0mg"},{"bike_id":"55fb2bcf-75e6-49f7-99bb-1814654cacdf","system_id":"levelo_inurba_marseille","lat":43.2464,"lon":5.38897,"is_reserved":false,"is_disabled":false,"rental_uris":{"android":"levelo://app?vid=55fb2bcf-75e6-49f7-99bb-1814654cacdf","ios":"levelo://app?vid=55fb2bcf-75e6-49f7-99bb-1814654cacdf"},"vehicle_type_id":"4","last_reported":1749712260,"current_range_meters":16800,"station_id":"ce4bhg12rcd13ifvqf60","pricing_plan_id":"cebpf4jnsgd1na2vs0mg"},{"bike_id":"b4066818-921b-4ded-a2e2-5e7e671ad7aa","system_id":"levelo_inurba_marseille","lat":43.25074,"lon":5.39513,"is_reserved":false,"is_disabled":false,"rental_uris":{"android":"levelo://app?vid=b4066818-921b-4ded-a2e2-5e7e671ad7aa","ios":"levelo://app?vid=b4066818-921b-4ded-a2e2-5e7e671ad7aa"},"vehicle_type_id":"4","last_reported":1749712260,"current_range_meters":16800,"station_id":"ce4bhm12rcd13ifvqgkg","pricing_plan_id":"cebpf4jnsgd1na2vs0mg"},{"bike_id":"d29b68da-c5e6-447f-8dcb-1ab2cc9e6f96","system_id":"levelo_inurba_marseille","lat":43.263786,"lon":5.396304,"is_reserved":false,"is_disabled":false,"rental_uris":{"android":"levelo://app?vid=d29b68da-c5e6-447f-8dcb-1ab2cc9e6f96","ios":"levelo://app?vid=d29b68da-c5e6-447f-8dcb-1ab2cc9e6f96"},"vehicle_type_id":"4","last_reported":1749712260,"current_range_meters":17200,"station_id":"","pricing_plan_id":"cebpf4jnsgd1na2vs0mg"},{"bike_id":"4f857a7d-65c4-4bd6-b0ca-1526bf088bc7","system_id":"levelo_inurba_marseille","lat":43.29913,"lon":5.37464,"is_reserved":false,"is_disabled":false,"rental_uris":{"android":"levelo://app?vid=4f857a7d-65c4-4bd6-b0ca-1526bf088bc7","ios":"levelo://app?vid=4f857a7d-65c4-4bd6-b0ca-1526bf088bc7"},"vehicle_type_id":"4","last_reported":1749712260,"current_range_meters":17200,"station_id":"ce4bgjh2rcd13ifvqbg0","pricing_plan_id":"cebpf4jnsgd1na2vs0mg"},{"bike_id":"c2366801-4bd7-4340-8b72-524e40c8e214","system_id":"levelo_inurba_marseille","lat":43.311711,"lon":5.36904,"is_reserved":false,"is_disabled":false,"rental_uris":{"android":"levelo://app?vid=c2366801-4bd7-4340-8b72-524e40c8e214","ios":"levelo://app?vid=c2366801-4bd7-4340-8b72-524e40c8e214"},"vehicle_type_id":"4","last_reported":1749712260,"current_range_meters":17200,"station_id":"ce4bgl92rcd13ifvqbq0","pricing_plan_id":"cebpf4jnsgd1na2vs0mg"},{"bike_id":"2b3487c0-6d03-4c54-801f-a27aa1820b7e","system_id":"levelo_inurba_marseille","lat":43.30885,"lon":5.372,"is_reserved":false,"is_disabled":false,"rental_uris":{"android":"levelo://app?vid=2b3487c0-6d03-4c54-801f-a27aa1820b7e","ios":"levelo://app?vid=2b3487c0-6d03-4c54-801f-a27aa1820b7e"},"vehicle_type_id":"4","last_reported":1749712260,"current_range_meters":17200,"station_id":"ce4bguh2rcd13ifvqckg","pricing_plan_id":"cebpf4jnsgd1na2vs0mg"},{"bike_id":"1b71ad55-98c3-464a-82af-765e9d7b4c01","system_id":"levelo_inurba_marseille","lat":43.2721,"lon":5.39185,"is_reserved":false,"is_disabled":false,"rental_uris":{"android":"levelo://app?vid=1b71ad55-98c3-464a-82af-765e9d7b4c01","ios":"levelo://app?vid=1b71ad55-98c3-464a-82af-765e9d7b4c01"},"vehicle_type_id":"4","last_reported":1749712260,"current_range_meters":17200,"station_id":"ce4bhhp2rcd13ifvqfm0","pricing_plan_id":"cebpf4jnsgd1na2vs0mg"},{"bike_id":"6b946a7d-9737-4a9e-9d63-fb0a608f6a7f","system_id":"levelo_inurba_marseille","lat":43.25897,"lon":5.40881,"is_reserved":false,"is_disabled":false,"rental_uris":{"android":"levelo://app?vid=6b946a7d-9737-4a9e-9d63-fb0a608f6a7f","ios":"levelo://app?vid=6b946a7d-9737-4a9e-9d63-fb0a608f6a7f"},"vehicle_type_id":"4","last_reported":1749712260,"current_range_meters":17200,"station_id":"ce4bhm92rcd13ifvqglg","pricing_plan_id":"cebpf4jnsgd1na2vs0mg"},{"bike_id":"0d03004d-7795-473e-b03f-f113bb65965d","system_id":"levelo_inurba_marseille","lat":43.25906,"lon":5.409,"is_reserved":false,"is_disabled":false,"rental_uris":{"android":"levelo://app?vid=0d03004d-7795-473e-b03f-f113bb65965d","ios":"levelo://app?vid=0d03004d-7795-473e-b03f-f113bb65965d"},"vehicle_type_id":"4","last_reported":1749712260,"current_range_meters":17200,"station_id":"ce4bhm92rcd13ifvqglg","pricing_plan_id":"cebpf4jnsgd1na2vs0mg"},{"bike_id":"35733ac5-1a87-435f-bdd3-fb5ec7a34be5","system_id":"levelo_inurba_marseille","lat":43.295511,"lon":5.422864,"is_reserved":false,"is_disabled":false,"rental_uris":{"android":"levelo://app?vid=35733ac5-1a87-435f-bdd3-fb5ec7a34be5","ios":"levelo://app?vid=35733ac5-1a87-435f-bdd3-fb5ec7a34be5"},"vehicle_type_id":"4","last_reported":1749712260,"current_range_meters":17200,"station_id":"ce4bhph2rcd13ifvqhdg","pricing_plan_id":"cebpf4jnsgd1na2vs0mg"},{"bike_id":"a67266d3-61f4-47b6-88c2-2308b71439cb","system_id":"levelo_inurba_marseille","lat":43.32344,"lon":5.40601,"is_reserved":false,"is_disabled":false,"rental_uris":{"android":"levelo://app?vid=a67266d3-61f4-47b6-88c2-2308b71439cb","ios":"levelo://app?vid=a67266d3-61f4-47b6-88c2-2308b71439cb"},"vehicle_type_id":"4","last_reported":1749712260,"current_range_meters":17200,"station_id":"ce4bhq92rcd13ifvqhjg","pricing_plan_id":"cebpf4jnsgd1na2vs0mg"},{"bike_id":"78e4331f-c67f-4812-a1cf-4af0acc5e2d6","system_id":"levelo_inurba_marseille","lat":43.32341,"lon":5.36727,"is_reserved":false,"is_disabled":false,"rental_uris":{"android":"levelo://app?vid=78e4331f-c67f-4812-a1cf-4af0acc5e2d6","ios":"levelo://app?vid=78e4331f-c67f-4812-a1cf-4af0acc5e2d6"},"vehicle_type_id":"4","last_reported":1749712260,"current_range_meters":17200,"station_id":"ce4bhsh2rcd13ifvqi2g","pricing_plan_id":"cebpf4jnsgd1na2vs0mg"},{"bike_id":"346f3f80-6b15-4406-b905-bb78596f5bac","system_id":"levelo_inurba_marseille","lat":43.32314,"lon":5.36671,"is_reserved":false,"is_disabled":false,"rental_uris":{"android":"levelo://app?vid=346f3f80-6b15-4406-b905-bb78596f5bac","ios":"levelo://app?vid=346f3f80-6b15-4406-b905-bb78596f5bac"},"vehicle_type_id":"4","last_reported":1749712260,"current_range_meters":17600,"station_id":"","pricing_plan_id":"cebpf4jnsgd1na2vs0mg"},{"bike_id":"09f63c8a-a282-4cbe-8836-96dd728b16fa","system_id":"levelo_inurba_marseille","lat":43.24176,"lon":5.3973,"is_reserved":false,"is_disabled":false,"rental_uris":{"android":"levelo://app?vid=09f63c8a-a282-4cbe-8836-96dd728b16fa","ios":"levelo://app?vid=09f63c8a-a282-4cbe-8836-96dd728b16fa"},"vehicle_type_id":"4","last_reported":1749712260,"current_range_meters":17600,"station_id":"ce4bhn12rcd13ifvqgpg","pricing_plan_id":"cebpf4jnsgd1na2vs0mg"},{"bike_id":"41902e46-3363-402b-89a9-77321257c96b","system_id":"levelo_inurba_marseille","lat":43.32167,"lon":5.36954,"is_reserved":false,"is_disabled":false,"rental_uris":{"android":"levelo://app?vid=41902e46-3363-402b-89a9-77321257c96b","ios":"levelo://app?vid=41902e46-3363-402b-89a9-77321257c96b"},"vehicle_type_id":"4","last_reported":1749712260,"current_range_meters":17600,"station_id":"ce4bhsh2rcd13ifvqi2g","pricing_plan_id":"cebpf4jnsgd1na2vs0mg"},{"bike_id":"22768771-1741-4719-a1af-7187b7705d63","system_id":"levelo_inurba_marseille","lat":43.30905,"lon":5.36846,"is_reserved":false,"is_disabled":false,"rental_uris":{"android":"levelo://app?vid=22768771-1741-4719-a1af-7187b7705d63","ios":"levelo://app?vid=22768771-1741-4719-a1af-7187b7705d63"},"vehicle_type_id":"4","last_reported":1749712260,"current_range_meters":18000,"station_id":"ce4bgn92rcd13ifvqbvg","pricing_plan_id":"cebpf4jnsgd1na2vs0mg"},{"bike_id":"22df5e22-774b-43c1-9621-2efa421ffb22","system_id":"levelo_inurba_marseille","lat":43.30535,"lon":5.36703,"is_reserved":false,"is_disabled":false,"rental_uris":{"android":"levelo://app?vid=22df5e22-774b-43c1-9621-2efa421ffb22","ios":"levelo://app?vid=22df5e22-774b-43c1-9621-2efa421ffb22"},"vehicle_type_id":"4","last_reported":1749712260,"current_range_meters":18000,"station_id":"ce4bgrp2rcd13ifvqc9g","pricing_plan_id":"cebpf4jnsgd1na2vs0mg"},{"bike_id":"9c4c1c2c-9c82-4a67-8878-75528c7dbd39","system_id":"levelo_inurba_marseille","lat":43.26024,"lon":5.37549,"is_reserved":false,"is_disabled":false,"rental_uris":{"android":"levelo://app?vid=9c4c1c2c-9c82-4a67-8878-75528c7dbd39","ios":"levelo://app?vid=9c4c1c2c-9c82-4a67-8878-75528c7dbd39"},"vehicle_type_id":"4","last_reported":1749712260,"current_range_meters":18000,"station_id":"ce4bhgh2rcd13ifvqfa0","pricing_plan_id":"cebpf4jnsgd1na2vs0mg"},{"bike_id":"11a7710f-084d-413d-abc1-c587a947a05e","system_id":"levelo_inurba_marseille","lat":43.26814,"lon":5.39094,"is_reserved":false,"is_disabled":false,"rental_uris":{"android":"levelo://app?vid=11a7710f-084d-413d-abc1-c587a947a05e","ios":"levelo://app?vid=11a7710f-084d-413d-abc1-c587a947a05e"},"vehicle_type_id":"4","last_reported":1749712260,"current_range_meters":18800,"station_id":"","pricing_plan_id":"cebpf4jnsgd1na2vs0mg"},{"bike_id":"6eac2101-bb0c-4a5f-9265-48a883b25661","system_id":"levelo_inurba_marseille","lat":43.28903,"lon":5.39897,"is_reserved":false,"is_disabled":false,"rental_uris":{"android":"levelo://app?vid=6eac2101-bb0c-4a5f-9265-48a883b25661","ios":"levelo://app?vid=6eac2101-bb0c-4a5f-9265-48a883b25661"},"vehicle_type_id":"4","last_reported":1749712260,"current_range_meters":18800,"station_id":"","pricing_plan_id":"cebpf4jnsgd1na2vs0mg"},{"bike_id":"1faccc94-5cc0-4221-a169-3e9b54e0edf0","system_id":"levelo_inurba_marseille","lat":43.29533,"lon":5.38543,"is_reserved":false,"is_disabled":false,"rental_uris":{"android":"levelo://app?vid=1faccc94-5cc0-4221-a169-3e9b54e0edf0","ios":"levelo://app?vid=1faccc94-5cc0-4221-a169-3e9b54e0edf0"},"vehicle_type_id":"4","last_reported":1749712260,"current_range_meters":18800,"station_id":"ce4bgih2rcd13ifvqba0","pricing_plan_id":"cebpf4jnsgd1na2vs0mg"},{"bike_id":"6eb8c19b-8d1a-4dd3-b8c3-47e6dc47ddf4","system_id":"levelo_inurba_marseille","lat":43.29195,"lon":5.39324,"is_reserved":false,"is_disabled":false,"rental_uris":{"android":"levelo://app?vid=6eb8c19b-8d1a-4dd3-b8c3-47e6dc47ddf4","ios":"levelo://app?vid=6eb8c19b-8d1a-4dd3-b8c3-47e6dc47ddf4"},"vehicle_type_id":"4","last_reported":1749712260,"current_range_meters":18800,"station_id":"ce4bh192rcd13ifvqdd0","pricing_plan_id":"cebpf4jnsgd1na2vs0mg"},{"bike_id":"a9f9cd8e-de9e-46fa-aa00-fe2d6e63bace","system_id":"levelo_inurba_marseille","lat":43.2621,"lon":5.37442,"is_reserved":false,"is_disabled":false,"rental_uris":{"android":"levelo://app?vid=a9f9cd8e-de9e-46fa-aa00-fe2d6e63bace","ios":"levelo://app?vid=a9f9cd8e-de9e-46fa-aa00-fe2d6e63bace"},"vehicle_type_id":"4","last_reported":1749712260,"current_range_meters":18800,"station_id":"ce4bhgp2rcd13ifvqfc0","pricing_plan_id":"cebpf4jnsgd1na2vs0mg"},{"bike_id":"f8ebee18-31ee-4b4e-9c4b-4e577b184904","system_id":"levelo_inurba_marseille","lat":43.269508,"lon":5.386303,"is_reserved":false,"is_disabled":false,"rental_uris":{"android":"levelo://app?vid=f8ebee18-31ee-4b4e-9c4b-4e577b184904","ios":"levelo://app?vid=f8ebee18-31ee-4b4e-9c4b-4e577b184904"},"vehicle_type_id":"4","last_reported":1749712260,"current_range_meters":18800,"station_id":"ce4bhh92rcd13ifvqfh0","pricing_plan_id":"cebpf4jnsgd1na2vs0mg"},{"bike_id":"9f24ed92-c4b8-451e-b9c9-9f0338965f7e","system_id":"levelo_inurba_marseille","lat":43.28156,"lon":5.42647,"is_reserved":false,"is_disabled":false,"rental_uris":{"android":"levelo://app?vid=9f24ed92-c4b8-451e-b9c9-9f0338965f7e","ios":"levelo://app?vid=9f24ed92-c4b8-451e-b9c9-9f0338965f7e"},"vehicle_type_id":"4","last_reported":1749712260,"current_range_meters":18800,"station_id":"ce4bhnh2rcd13ifvqgug","pricing_plan_id":"cebpf4jnsgd1na2vs0mg"},{"bike_id":"600da287-0374-4ee0-bea4-ba6902340b5e","system_id":"levelo_inurba_marseille","lat":43.27473,"lon":5.36007,"is_reserved":false,"is_disabled":false,"rental_uris":{"android":"levelo://app?vid=600da287-0374-4ee0-bea4-ba6902340b5e","ios":"levelo://app?vid=600da287-0374-4ee0-bea4-ba6902340b5e"},"vehicle_type_id":"4","last_reported":1749712260,"current_range_meters":19200,"station_id":"","pricing_plan_id":"cebpf4jnsgd1na2vs0mg"},{"bike_id":"2bae304d-06f7-450f-9c20-63d800e700e2","system_id":"levelo_inurba_marseille","lat":43.31663,"lon":5.38295,"is_reserved":false,"is_disabled":false,"rental_uris":{"android":"levelo://app?vid=2bae304d-06f7-450f-9c20-63d800e700e2","ios":"levelo://app?vid=2bae304d-06f7-450f-9c20-63d800e700e2"},"vehicle_type_id":"4","last_reported":1749712260,"current_range_meters":19200,"station_id":"","pricing_plan_id":"cebpf4jnsgd1na2vs0mg"},{"bike_id":"713f94e3-c67e-4836-bdd5-cfe7bb1b1281","system_id":"levelo_inurba_marseille","lat":43.22503,"lon":5.34781,"is_reserved":false,"is_disabled":false,"rental_uris":{"android":"levelo://app?vid=713f94e3-c67e-4836-bdd5-cfe7bb1b1281","ios":"levelo://app?vid=713f94e3-c67e-4836-bdd5-cfe7bb1b1281"},"vehicle_type_id":"4","last_reported":1749712260,"current_range_meters":19200,"station_id":"","pricing_plan_id":"cebpf4jnsgd1na2vs0mg"},{"bike_id":"b68bb332-4c8b-469d-9b10-26c935046bd8","system_id":"levelo_inurba_marseille","lat":43.30914,"lon":5.36845,"is_reserved":false,"is_disabled":false,"rental_uris":{"android":"levelo://app?vid=b68bb332-4c8b-469d-9b10-26c935046bd8","ios":"levelo://app?vid=b68bb332-4c8b-469d-9b10-26c935046bd8"},"vehicle_type_id":"4","last_reported":1749712260,"current_range_meters":19200,"station_id":"ce4bgn92rcd13ifvqbvg","pricing_plan_id":"cebpf4jnsgd1na2vs0mg"},{"bike_id":"72dea20e-10ac-4a59-bc30-23b3f4550495","system_id":"levelo_inurba_marseille","lat":43.31323,"lon":5.36745,"is_reserved":false,"is_disabled":false,"rental_uris":{"android":"levelo://app?vid=72dea20e-10ac-4a59-bc30-23b3f4550495","ios":"levelo://app?vid=72dea20e-10ac-4a59-bc30-23b3f4550495"},"vehicle_type_id":"4","last_reported":1749712260,"current_range_meters":19200,"station_id":"ce4bgr92rcd13ifvqc6g","pricing_plan_id":"cebpf4jnsgd1na2vs0mg"},{"bike_id":"930ef196-083c-4510-8474-38c3291ef992","system_id":"levelo_inurba_marseille","lat":43.28271,"lon":5.35063,"is_reserved":false,"is_disabled":false,"rental_uris":{"android":"levelo://app?vid=930ef196-083c-4510-8474-38c3291ef992","ios":"levelo://app?vid=930ef196-083c-4510-8474-38c3291ef992"},"vehicle_type_id":"4","last_reported":1749712260,"current_range_meters":19200,"station_id":"ce4bhbp2rcd13ifvqerg","pricing_plan_id":"cebpf4jnsgd1na2vs0mg"},{"bike_id":"3057921d-9351-4ef7-ac43-aaec417c0c7c","system_id":"levelo_inurba_marseille","lat":43.26212,"lon":5.37444,"is_reserved":false,"is_disabled":false,"rental_uris":{"android":"levelo://app?vid=3057921d-9351-4ef7-ac43-aaec417c0c7c","ios":"levelo://app?vid=3057921d-9351-4ef7-ac43-aaec417c0c7c"},"vehicle_type_id":"4","last_reported":1749712260,"current_range_meters":19200,"station_id":"ce4bhgp2rcd13ifvqfc0","pricing_plan_id":"cebpf4jnsgd1na2vs0mg"},{"bike_id":"bcd89233-1e1c-4a78-9e22-65ee0974cb7c","system_id":"levelo_inurba_marseille","lat":43.25128,"lon":5.40321,"is_reserved":false,"is_disabled":false,"rental_uris":{"android":"levelo://app?vid=bcd89233-1e1c-4a78-9e22-65ee0974cb7c","ios":"levelo://app?vid=bcd89233-1e1c-4a78-9e22-65ee0974cb7c"},"vehicle_type_id":"4","last_reported":1749712260,"current_range_meters":19200,"station_id":"ce4bhlh2rcd13ifvqgig","pricing_plan_id":"cebpf4jnsgd1na2vs0mg"},{"bike_id":"425a8eb8-00ca-49e7-99e3-f3af7973da4b","system_id":"levelo_inurba_marseille","lat":43.25929,"lon":5.40912,"is_reserved":false,"is_disabled":false,"rental_uris":{"android":"levelo://app?vid=425a8eb8-00ca-49e7-99e3-f3af7973da4b","ios":"levelo://app?vid=425a8eb8-00ca-49e7-99e3-f3af7973da4b"},"vehicle_type_id":"4","last_reported":1749712260,"current_range_meters":19200,"station_id":"ce4bhm92rcd13ifvqglg","pricing_plan_id":"cebpf4jnsgd1na2vs0mg"},{"bike_id":"595d886e-4e65-4f98-86dd-6a6353ca5f30","system_id":"levelo_inurba_marseille","lat":43.25933,"lon":5.40909,"is_reserved":false,"is_disabled":false,"rental_uris":{"android":"levelo://app?vid=595d886e-4e65-4f98-86dd-6a6353ca5f30","ios":"levelo://app?vid=595d886e-4e65-4f98-86dd-6a6353ca5f30"},"vehicle_type_id":"4","last_reported":1749712260,"current_range_meters":19200,"station_id":"ce4bhm92rcd13ifvqglg","pricing_plan_id":"cebpf4jnsgd1na2vs0mg"},{"bike_id":"48a591c7-da68-4a88-8adc-1631f60a4b36","system_id":"levelo_inurba_marseille","lat":43.29555,"lon":5.4228,"is_reserved":false,"is_disabled":false,"rental_uris":{"android":"levelo://app?vid=48a591c7-da68-4a88-8adc-1631f60a4b36","ios":"levelo://app?vid=48a591c7-da68-4a88-8adc-1631f60a4b36"},"vehicle_type_id":"4","last_reported":1749712260,"current_range_meters":19200,"station_id":"ce4bhph2rcd13ifvqhdg","pricing_plan_id":"cebpf4jnsgd1na2vs0mg"},{"bike_id":"62c0da7f-aff9-4ffa-86b8-6966d8f0e555","system_id":"levelo_inurba_marseille","lat":43.21193,"lon":5.35078,"is_reserved":false,"is_disabled":false,"rental_uris":{"android":"levelo://app?vid=62c0da7f-aff9-4ffa-86b8-6966d8f0e555","ios":"levelo://app?vid=62c0da7f-aff9-4ffa-86b8-6966d8f0e555"},"vehicle_type_id":"4","last_reported":1749712260,"current_range_meters":19200,"station_id":"st_cvj6sg6p6f1abm77japg","pricing_plan_id":"cebpf4jnsgd1na2vs0mg"},{"bike_id":"79f9970c-554e-41fb-9c0a-fdcb7477b8e0","system_id":"levelo_inurba_marseille","lat":43.30522,"lon":5.3788,"is_reserved":false,"is_disabled":false,"rental_uris":{"android":"levelo://app?vid=79f9970c-554e-41fb-9c0a-fdcb7477b8e0","ios":"levelo://app?vid=79f9970c-554e-41fb-9c0a-fdcb7477b8e0"},"vehicle_type_id":"4","last_reported":1749712260,"current_range_meters":19600,"station_id":"","pricing_plan_id":"cebpf4jnsgd1na2vs0mg"},{"bike_id":"6facbc0d-f1b5-4dc3-86d4-5c1204834925","system_id":"levelo_inurba_marseille","lat":43.28023,"lon":5.34805,"is_reserved":false,"is_disabled":false,"rental_uris":{"android":"levelo://app?vid=6facbc0d-f1b5-4dc3-86d4-5c1204834925","ios":"levelo://app?vid=6facbc0d-f1b5-4dc3-86d4-5c1204834925"},"vehicle_type_id":"4","last_reported":1749712260,"current_range_meters":19600,"station_id":"","pricing_plan_id":"cebpf4jnsgd1na2vs0mg"},{"bike_id":"a2c38fe7-0b38-4422-9786-e95af562be9c","system_id":"levelo_inurba_marseille","lat":43.31486,"lon":5.37292,"is_reserved":false,"is_disabled":false,"rental_uris":{"android":"levelo://app?vid=a2c38fe7-0b38-4422-9786-e95af562be9c","ios":"levelo://app?vid=a2c38fe7-0b38-4422-9786-e95af562be9c"},"vehicle_type_id":"4","last_reported":1749712260,"current_range_meters":19600,"station_id":"ce4bgt12rcd13ifvqcd0","pricing_plan_id":"cebpf4jnsgd1na2vs0mg"},{"bike_id":"3cd3b443-308e-46e6-9803-8166726b51eb","system_id":"levelo_inurba_marseille","lat":43.27436,"lon":5.39404,"is_reserved":false,"is_disabled":false,"rental_uris":{"android":"levelo://app?vid=3cd3b443-308e-46e6-9803-8166726b51eb","ios":"levelo://app?vid=3cd3b443-308e-46e6-9803-8166726b51eb"},"vehicle_type_id":"4","last_reported":1749712260,"current_range_meters":19600,"station_id":"ce4bhdp2rcd13ifvqf20","pricing_plan_id":"cebpf4jnsgd1na2vs0mg"},{"bike_id":"d3bee0a5-0928-4672-86fb-2efc39437bd3","system_id":"levelo_inurba_marseille","lat":43.27322,"lon":5.39107,"is_reserved":false,"is_disabled":false,"rental_uris":{"android":"levelo://app?vid=d3bee0a5-0928-4672-86fb-2efc39437bd3","ios":"levelo://app?vid=d3bee0a5-0928-4672-86fb-2efc39437bd3"},"vehicle_type_id":"4","last_reported":1749712260,"current_range_meters":19600,"station_id":"ce4bhgp2rcd13ifvqfe0","pricing_plan_id":"cebpf4jnsgd1na2vs0mg"},{"bike_id":"1dda3e3b-bfaf-4a74-9c6e-fb4fe7a5d8fd","system_id":"levelo_inurba_marseille","lat":43.25119,"lon":5.4033,"is_reserved":false,"is_disabled":false,"rental_uris":{"android":"levelo://app?vid=1dda3e3b-bfaf-4a74-9c6e-fb4fe7a5d8fd","ios":"levelo://app?vid=1dda3e3b-bfaf-4a74-9c6e-fb4fe7a5d8fd"},"vehicle_type_id":"4","last_reported":1749712260,"current_range_meters":19600,"station_id":"ce4bhlh2rcd13ifvqgig","pricing_plan_id":"cebpf4jnsgd1na2vs0mg"},{"bike_id":"837aa402-3224-4655-ac3b-d50e9077b0c1","system_id":"levelo_inurba_marseille","lat":43.30365,"lon":5.42492,"is_reserved":false,"is_disabled":false,"rental_uris":{"android":"levelo://app?vid=837aa402-3224-4655-ac3b-d50e9077b0c1","ios":"levelo://app?vid=837aa402-3224-4655-ac3b-d50e9077b0c1"},"vehicle_type_id":"4","last_reported":1749712260,"current_range_meters":19600,"station_id":"ce4bhoh2rcd13ifvqh6g","pricing_plan_id":"cebpf4jnsgd1na2vs0mg"},{"bike_id":"326cc913-bdbc-48c2-9a88-414846f09512","system_id":"levelo_inurba_marseille","lat":43.323519,"lon":5.367439,"is_reserved":false,"is_disabled":false,"rental_uris":{"android":"levelo://app?vid=326cc913-bdbc-48c2-9a88-414846f09512","ios":"levelo://app?vid=326cc913-bdbc-48c2-9a88-414846f09512"},"vehicle_type_id":"4","last_reported":1749712260,"current_range_meters":19600,"station_id":"ce4bhsh2rcd13ifvqi2g","pricing_plan_id":"cebpf4jnsgd1na2vs0mg"},{"bike_id":"d2c9cebc-a49b-4280-a040-8b6bd89be3ca","system_id":"levelo_inurba_marseille","lat":43.33787,"lon":5.37444,"is_reserved":false,"is_disabled":false,"rental_uris":{"android":"levelo://app?vid=d2c9cebc-a49b-4280-a040-8b6bd89be3ca","ios":"levelo://app?vid=d2c9cebc-a49b-4280-a040-8b6bd89be3ca"},"vehicle_type_id":"4","last_reported":1749712260,"current_range_meters":20000,"station_id":"","pricing_plan_id":"cebpf4jnsgd1na2vs0mg"},{"bike_id":"fc961080-9626-4438-8d0b-e80d70647878","system_id":"levelo_inurba_marseille","lat":43.3176,"lon":5.39022,"is_reserved":false,"is_disabled":false,"rental_uris":{"android":"levelo://app?vid=fc961080-9626-4438-8d0b-e80d70647878","ios":"levelo://app?vid=fc961080-9626-4438-8d0b-e80d70647878"},"vehicle_type_id":"4","last_reported":1749712260,"current_range_meters":20000,"station_id":"ce4bhqp2rcd13ifvqhng","pricing_plan_id":"cebpf4jnsgd1na2vs0mg"},{"bike_id":"b0e43ab0-3929-492e-8496-8f6c3198dd04","system_id":"levelo_inurba_marseille","lat":43.32458,"lon":5.36597,"is_reserved":false,"is_disabled":false,"rental_uris":{"android":"levelo://app?vid=b0e43ab0-3929-492e-8496-8f6c3198dd04","ios":"levelo://app?vid=b0e43ab0-3929-492e-8496-8f6c3198dd04"},"vehicle_type_id":"4","last_reported":1749712260,"current_range_meters":20000,"station_id":"ce4bhs12rcd13ifvqhvg","pricing_plan_id":"cebpf4jnsgd1na2vs0mg"},{"bike_id":"3d243e1c-a883-4bc3-9c15-b8da6e60785b","system_id":"levelo_inurba_marseille","lat":43.26856,"lon":5.4287,"is_reserved":false,"is_disabled":false,"rental_uris":{"android":"levelo://app?vid=3d243e1c-a883-4bc3-9c15-b8da6e60785b","ios":"levelo://app?vid=3d243e1c-a883-4bc3-9c15-b8da6e60785b"},"vehicle_type_id":"4","last_reported":1749712260,"current_range_meters":20400,"station_id":"","pricing_plan_id":"cebpf4jnsgd1na2vs0mg"},{"bike_id":"8494e022-537a-474f-a031-c12fdb17a1fa","system_id":"levelo_inurba_marseille","lat":43.31348,"lon":5.36719,"is_reserved":false,"is_disabled":false,"rental_uris":{"android":"levelo://app?vid=8494e022-537a-474f-a031-c12fdb17a1fa","ios":"levelo://app?vid=8494e022-537a-474f-a031-c12fdb17a1fa"},"vehicle_type_id":"4","last_reported":1749712260,"current_range_meters":20400,"station_id":"ce4bgr92rcd13ifvqc6g","pricing_plan_id":"cebpf4jnsgd1na2vs0mg"},