{"last_updated":1702483704,"ttl":30,"version":"2.2","data":{"bikes":[{"bike_id":"8b9e9689-7334-4b59-9104-52a4c916c540","system_id":"levelo_inurba_marseille","lat":43.314811,"lon":5.373104,"is_reserved":false,"is_disabled":false,"rental_uris":{"android":"levelo://app?vid=8b9e9689-7334-4b59-9104-52a4c916c540","ios":"levelo://app?vid=8b9e9689-7334-4b59-9104-52a4c916c540"},"vehicle_type_id":"4","last_reported":1702483704,"current_range_meters":1600,"station_id":"ce4bgt12rcd13ifvqcd0","pricing_plan_id":"free"},{"bike_id":"3f8b821f-e430-4a35-bf14-f8b6e777ea11","system_id":"levelo_inurba_marseille","lat":43.313939,"lon":5.375306,"is_reserved":false,"is_disabled":false,"rental_uris":{"android":"levelo://app?vid=3f8b821f-e430-4a35-bf14-f8b6e777ea11","ios":"levelo://app?vid=3f8b821f-e430-4a35-bf14-f8b6e777ea11"},"vehicle_type_id":"4","last_reported":1702483704,"current_range_meters":7200,"station_id":"","pricing_plan_id":"free"},{"bike_id":"ee091407-6bf7-42b2-ae00-510e27fd6c40","system_id":"levelo_inurba_marseille","lat":43.305712,"lon":5.365641,"is_reserved":false,"is_disabled":false,"rental_uris":{"android":"levelo://app?vid=ee091407-6bf7-42b2-ae00-510e27fd6c40","ios":"levelo://app?vid=ee091407-6bf7-42b2-ae00-510e27fd6c40"},"vehicle_type_id":"4","last_reported":1702483704,"current_range_meters":16000,"station_id":"ce4bgs12rcd13ifvqcag","pricing_plan_id":"free"},{"bike_id":"955e4ab2-16e5-44e8-a986-a2f50ff96c06","system_id":"levelo_inurba_marseille","lat":43.305382,"lon":5.365389,"is_reserved":false,"is_disabled":false,"rental_uris":{"android":"levelo://app?vid=955e4ab2-16e5-44e8-a986-a2f50ff96c06","ios":"levelo://app?vid=955e4ab2-16e5-44e8-a986-a2f50ff96c06"},"vehicle_type_id":"4","last_reported":1702483704,"current_range_meters":26400,"station_id":"","pricing_plan_id":"free"},{"bike_id":"cebc448e-710f-438f-9088-550a6d211523","system_id":"levelo_inurba_marseille","lat":43.311125,"lon":5.377624,"is_reserved":false,"is_disabled":false,"rental_uris":{"android":"levelo://app?vid=cebc448e-710f-438f-9088-550a6d211523","ios":"levelo://app?vid=cebc448e-710f-438f-9088-550a6d211523"},"vehicle_type_id":"4","last_reported":1702483704,"current_range_meters":8400,"station_id":"ce4bgt92rcd13ifvqcg0","pricing_plan_id":"free"},{"bike_id":"fceae11b-3a9b-4991-86cc-28e421603bfc","system_id":"levelo_inurba_marseille","lat":43.311125,"lon":5.377624,"is_reserved":false,"is_disabled":false,"rental_uris":{"android":"levelo://app?vid=fceae11b-3a9b-4991-86cc-28e421603bfc","ios":"levelo://app?vid=fceae11b-3a9b-4991-86cc-28e421603bfc"},"vehicle_type_id":"4","last_reported":1702483704,"current_range_meters":14000,"station_id":"ce4bgt92rcd13ifvqcg0","pricing_plan_id":"free"},{"bike_id":"cbfa6277-ff75-49f6-b137-a5e92bff2318","system_id":"levelo_inurba_marseille","lat":43.311125,"lon":5.377624,"is_reserved":false,"is_disabled":false,"rental_uris":{"android":"levelo://app?vid=cbfa6277-ff75-49f6-b137-a5e92bff2318","ios":"levelo://app?vid=cbfa6277-ff75-49f6-b137-a5e92bff2318"},"vehicle_type_id":"4","last_reported":1702483704,"current_range_meters":16800,"station_id":"ce4bgt92rcd13ifvqcg0","pricing_plan_id":"free"},{"bike_id":"a824c355-6df4-412f-844f-2ecb8e37f84e","system_id":"levelo_inurba_marseille","lat":43.307945,"lon":5.376487,"is_reserved":false,"is_disabled":false,"rental_uris":{"android":"levelo://app?vid=a824c355-6df4-412f-844f-2ecb8e37f84e","ios":"levelo://app?vid=a824c355-6df4-412f-844f-2ecb8e37f84e"},"vehicle_type_id":"4","last_reported":1702483704,"current_range_meters":24800,"station_id":"ce4bgv92rcd13ifvqcq0","pricing_plan_id":"free"},{"bike_id":"dc68debd-6203-4696-b9a5-55eea857c5a0","system_id":"levelo_inurba_marseille","lat":43.317192,"lon":5.376979,"is_reserved":false,"is_disabled":false,"rental_uris":{"android":"levelo://app?vid=dc68debd-6203-4696-b9a5-55eea857c5a0","ios":"levelo://app?vid=dc68debd-6203-4696-b9a5-55eea857c5a0"},"vehicle_type_id":"4","last_reported":1702483704,"current_range_meters":23200,"station_id":"ce4bgth2rcd13ifvqch0","pricing_plan_id":"free"},{"bike_id":"98421c4e-e096-460e-a28f-ae8f79c5f555","system_id":"levelo_inurba_marseille","lat":43.30933,"lon":5.37812,"is_reserved":false,"is_disabled":false,"rental_uris":{"android":"levelo://app?vid=98421c4e-e096-460e-a28f-ae8f79c5f555","ios":"levelo://app?vid=98421c4e-e096-460e-a28f-ae8f79c5f555"},"vehicle_type_id":"4","last_reported":1702483704,"current_range_meters":13200,"station_id":"","pricing_plan_id":"free"},{"bike_id":"2dbadbed-df86-4e0d-b431-2bb7fee70d08","system_id":"levelo_inurba_marseille","lat":43.312013,"lon":5.37955,"is_reserved":false,"is_disabled":false,"rental_uris":{"android":"levelo://app?vid=2dbadbed-df86-4e0d-b431-2bb7fee70d08","ios":"levelo://app?vid=2dbadbed-df86-4e0d-b431-2bb7fee70d08"},"vehicle_type_id":"4","last_reported":1702483704,"current_range_meters":400,"station_id":"ce4bgt92rcd13ifvqcg0","pricing_plan_id":"free"},{"bike_id":"e4e476fd-43ef-43cf-9525-d23ede3663b3","system_id":"levelo_inurba_marseille","lat":43.315293,"lon":5.380349,"is_reserved":false,"is_disabled":false,"rental_uris":{"android":"levelo://app?vid=e4e476fd-43ef-43cf-9525-d23ede3663b3","ios":"levelo://app?vid=e4e476fd-43ef-43cf-9525-d23ede3663b3"},"vehicle_type_id":"4","last_reported":1702483704,"current_range_meters":21200,"station_id":"ce4bhsp2rcd13ifvqi50","pricing_plan_id":"free"},{"bike_id":"227b454f-cbfd-4a97-b4c2-968569f53a3b","system_id":"levelo_inurba_marseille","lat":43.31531,"lon":5.38041,"is_reserved":false,"is_disabled":false,"rental_uris":{"android":"levelo://app?vid=227b454f-cbfd-4a97-b4c2-968569f53a3b","ios":"levelo://app?vid=227b454f-cbfd-4a97-b4c2-968569f53a3b"},"vehicle_type_id":"4","last_reported":1702483704,"current_range_meters":28800,"station_id":"ce4bhsp2rcd13ifvqi50","pricing_plan_id":"free"},{"bike_id":"33da782b-bdb3-44c3-9051-de14aa27e721","system_id":"levelo_inurba_marseille","lat":43.308012,"lon":5.381511,"is_reserved":false,"is_disabled":false,"rental_uris":{"android":"levelo://app?vid=33da782b-bdb3-44c3-9051-de14aa27e721","ios":"levelo://app?vid=33da782b-bdb3-44c3-9051-de14aa27e721"},"vehicle_type_id":"4","last_reported":1702483704,"current_range_meters":10400,"station_id":"ce4bgt12rcd13ifvqce0","pricing_plan_id":"free"},{"bike_id":"5565c369-41c1-46cb-9e2b-3f11796545d3","system_id":"levelo_inurba_marseille","lat":43.308012,"lon":5.381511,"is_reserved":false,"is_disabled":false,"rental_uris":{"android":"levelo://app?vid=5565c369-41c1-46cb-9e2b-3f11796545d3","ios":"levelo://app?vid=5565c369-41c1-46cb-9e2b-3f11796545d3"},"vehicle_type_id":"4","last_reported":1702483704,"current_range_meters":12400,"station_id":"ce4bgt12rcd13ifvqce0","pricing_plan_id":"free"},{"bike_id":"b795cd07-df6b-4c4c-8507-2dcae79f9bad","system_id":"levelo_inurba_marseille","lat":43.309039,"lon":5.371797,"is_reserved":false,"is_disabled":false,"rental_uris":{"android":"levelo://app?vid=b795cd07-df6b-4c4c-8507-2dcae79f9bad","ios":"levelo://app?vid=b795cd07-df6b-4c4c-8507-2dcae79f9bad"},"vehicle_type_id":"4","last_reported":1702483704,"current_range_meters":4400,"station_id":"ce4bguh2rcd13ifvqckg","pricing_plan_id":"free"},{"bike_id":"aa3cdc10-a2b4-4348-a58d-ea513d683fe2","system_id":"levelo_inurba_marseille","lat":43.324806,"lon":5.365606,"is_reserved":false,"is_disabled":false,"rental_uris":{"android":"levelo://app?vid=aa3cdc10-a2b4-4348-a58d-ea513d683fe2","ios":"levelo://app?vid=aa3cdc10-a2b4-4348-a58d-ea513d683fe2"},"vehicle_type_id":"4","last_reported":1702483704,"current_range_meters":22400,"station_id":"ce4bhs12rcd13ifvqhvg","pricing_plan_id":"free"},{"bike_id":"4956179e-483b-4c26-bdef-b95af16fab8d","system_id":"levelo_inurba_marseille","lat":43.319955,"lon":5.381505,"is_reserved":false,"is_disabled":false,"rental_uris":{"android":"levelo://app?vid=4956179e-483b-4c26-bdef-b95af16fab8d","ios":"levelo://app?vid=4956179e-483b-4c26-bdef-b95af16fab8d"},"vehicle_type_id":"4","last_reported":1702483704,"current_range_meters":18800,"station_id":"ce4bhr12rcd13ifvqhpg","pricing_plan_id":"free"},{"bike_id":"7c3bd0a5-c309-48fc-b089-dae980955961","system_id":"levelo_inurba_marseille","lat":43.31994,"lon":5.38157,"is_reserved":false,"is_disabled":false,"rental_uris":{"android":"levelo://app?vid=7c3bd0a5-c309-48fc-b089-dae980955961","ios":"levelo://app?vid=7c3bd0a5-c309-48fc-b089-dae980955961"},"vehicle_type_id":"4","last_reported":1702483704,"current_range_meters":28800,"station_id":"ce4bhr12rcd13ifvqhpg","pricing_plan_id":"free"},{"bike_id":"2b0fad47-7329-415b-b3ab-0219cce5e7ac","system_id":"levelo_inurba_marseille","lat":43.313571,"lon":5.384829,"is_reserved":false,"is_disabled":false,"rental_uris":{"android":"levelo://app?vid=2b0fad47-7329-415b-b3ab-0219cce5e7ac","ios":"levelo://app?vid=2b0fad47-7329-415b-b3ab-0219cce5e7ac"},"vehicle_type_id":"4","last_reported":1702483704,"current_range_meters":6400,"station_id":"ce4bgt92rcd13ifvqcf0","pricing_plan_id":"free"},{"bike_id":"45a6f842-58d4-42eb-adf7-07577ff60091","system_id":"levelo_inurba_marseille","lat":43.313571,"lon":5.384829,"is_reserved":false,"is_disabled":false,"rental_uris":{"android":"levelo://app?vid=45a6f842-58d4-42eb-adf7-07577ff60091","ios":"levelo://app?vid=45a6f842-58d4-42eb-adf7-07577ff60091"},"vehicle_type_id":"4","last_reported":1702483704,"current_range_meters":22800,"station_id":"ce4bgt92rcd13ifvqcf0","pricing_plan_id":"free"},{"bike_id":"2105440c-4d9c-4fda-bcb2-54927c134df5","system_id":"levelo_inurba_marseille","lat":43.299724,"lon":5.371829,"is_reserved":false,"is_disabled":false,"rental_uris":{"android":"levelo://app?vid=2105440c-4d9c-4fda-bcb2-54927c134df5","ios":"levelo://app?vid=2105440c-4d9c-4fda-bcb2-54927c134df5"},"vehicle_type_id":"4","last_reported":1702483704,"current_range_meters":25200,"station_id":"ce4bgr92rcd13ifvqc7g","pricing_plan_id":"free"},{"bike_id":"ac482d08-cd08-4031-a392-d9cedf223f79","system_id":"levelo_inurba_marseille","lat":43.299724,"lon":5.371829,"is_reserved":false,"is_disabled":false,"rental_uris":{"android":"levelo://app?vid=ac482d08-cd08-4031-a392-d9cedf223f79","ios":"levelo://app?vid=ac482d08-cd08-4031-a392-d9cedf223f79"},"vehicle_type_id":"4","last_reported":1702483704,"current_range_meters":22400,"station_id":"ce4bgr92rcd13ifvqc7g","pricing_plan_id":"free"},{"bike_id":"77a6c46d-d898-4e4f-8846-efa91689c7f0","system_id":"levelo_inurba_marseille","lat":43.302006,"lon":5.38065,"is_reserved":false,"is_disabled":false,"rental_uris":{"android":"levelo://app?vid=77a6c46d-d898-4e4f-8846-efa91689c7f0","ios":"levelo://app?vid=77a6c46d-d898-4e4f-8846-efa91689c7f0"},"vehicle_type_id":"4","last_reported":1702483704,"current_range_meters":0,"station_id":"","pricing_plan_id":"free"},{"bike_id":"c5a92a7b-8031-4fe6-8e08-0b72aba6a94f","system_id":"levelo_inurba_marseille","lat":43.311722,"lon":5.387247,"is_reserved":false,"is_disabled":false,"rental_uris":{"android":"levelo://app?vid=c5a92a7b-8031-4fe6-8e08-0b72aba6a94f","ios":"levelo://app?vid=c5a92a7b-8031-4fe6-8e08-0b72aba6a94f"},"vehicle_type_id":"4","last_reported":1702483704,"current_range_meters":17600,"station_id":"ce4bgv12rcd13ifvqcp0","pricing_plan_id":"free"},{"bike_id":"5b154302-993d-4e61-9f44-2d5a1033d675","system_id":"levelo_inurba_marseille","lat":43.322872,"lon":5.382756,"is_reserved":false,"is_disabled":false,"rental_uris":{"android":"levelo://app?vid=5b154302-993d-4e61-9f44-2d5a1033d675","ios":"levelo://app?vid=5b154302-993d-4e61-9f44-2d5a1033d675"},"vehicle_type_id":"4","last_reported":1702483704,"current_range_meters":25600,"station_id":"ce4bhr12rcd13ifvqhqg","pricing_plan_id":"free"},{"bike_id":"67fe5d6b-ab49-40fd-959e-244754439600","system_id":"levelo_inurba_marseille","lat":43.32827,"lon":5.3669,"is_reserved":false,"is_disabled":false,"rental_uris":{"android":"levelo://app?vid=67fe5d6b-ab49-40fd-959e-244754439600","ios":"levelo://app?vid=67fe5d6b-ab49-40fd-959e-244754439600"},"vehicle_type_id":"4","last_reported":1702483704,"current_range_meters":10800,"station_id":"ce4bhs92rcd13ifvqi0g","pricing_plan_id":"free"},{"bike_id":"85cf78a3-ed74-406c-a440-29e8c7a89565","system_id":"levelo_inurba_marseille","lat":43.328371,"lon":5.366912,"is_reserved":false,"is_disabled":false,"rental_uris":{"android":"levelo://app?vid=85cf78a3-ed74-406c-a440-29e8c7a89565","ios":"levelo://app?vid=85cf78a3-ed74-406c-a440-29e8c7a89565"},"vehicle_type_id":"4","last_reported":1702483704,"current_range_meters":21600,"station_id":"ce4bhs92rcd13ifvqi0g","pricing_plan_id":"free"},{"bike_id":"0c82194a-7776-49d4-9f0f-e4a3b8505195","system_id":"levelo_inurba_marseille","lat":43.296935,"lon":5.376544,"is_reserved":false,"is_disabled":false,"rental_uris":{"android":"levelo://app?vid=0c82194a-7776-49d4-9f0f-e4a3b8505195","ios":"levelo://app?vid=0c82194a-7776-49d4-9f0f-e4a3b8505195"},"vehicle_type_id":"4","last_reported":1702483704,"current_range_meters":23200,"station_id":"ce4bgkh2rcd13ifvqbl0","pricing_plan_id":"free"},{"bike_id":"0f7ae89b-c7c3-4881-85ed-97bfa1f39b05","system_id":"levelo_inurba_marseille","lat":43.296935,"lon":5.376544,"is_reserved":false,"is_disabled":false,"rental_uris":{"android":"levelo://app?vid=0f7ae89b-c7c3-4881-85ed-97bfa1f39b05","ios":"levelo://app?vid=0f7ae89b-c7c3-4881-85ed-97bfa1f39b05"},"vehicle_type_id":"4","last_reported":1702483704,"current_range_meters":16800,"station_id":"ce4bgkh2rcd13ifvqbl0","pricing_plan_id":"free"},{"bike_id":"23bbe805-c94b-4a71-b6b3-02557ecd6b8b","system_id":"levelo_inurba_marseille","lat":43.31746,"lon":5.39014,"is_reserved":false,"is_disabled":false,"rental_uris":{"android":"levelo://app?vid=23bbe805-c94b-4a71-b6b3-02557ecd6b8b","ios":"levelo://app?vid=23bbe805-c94b-4a71-b6b3-02557ecd6b8b"},"vehicle_type_id":"4","last_reported":1702483704,"current_range_meters":24800,"station_id":"ce4bhqp2rcd13ifvqhng","pricing_plan_id":"free"},{"bike_id":"e9d78157-ab4a-41df-a9e7-085811189ed4","system_id":"levelo_inurba_marseille","lat":43.317557,"lon":5.390173,"is_reserved":false,"is_disabled":false,"rental_uris":{"android":"levelo://app?vid=e9d78157-ab4a-41df-a9e7-085811189ed4","ios":"levelo://app?vid=e9d78157-ab4a-41df-a9e7-085811189ed4"},"vehicle_type_id":"4","last_reported":1702483704,"current_range_meters":17200,"station_id":"ce4bhqp2rcd13ifvqhng","pricing_plan_id":"free"},{"bike_id":"4a12fed5-96e7-4ad0-ad68-56298979ae5e","system_id":"levelo_inurba_marseille","lat":43.29772,"lon":5.38044,"is_reserved":false,"is_disabled":false,"rental_uris":{"android":"levelo://app?vid=4a12fed5-96e7-4ad0-ad68-56298979ae5e","ios":"levelo://app?vid=4a12fed5-96e7-4ad0-ad68-56298979ae5e"},"vehicle_type_id":"4","last_reported":1702483704,"current_range_meters":0,"station_id":"ce4bgip2rcd13ifvqbb0","pricing_plan_id":"free"},{"bike_id":"09427380-84fd-4abc-941c-b2f45bc707ea","system_id":"levelo_inurba_marseille","lat":43.295748,"lon":5.37522,"is_reserved":false,"is_disabled":false,"rental_uris":{"android":"levelo://app?vid=09427380-84fd-4abc-941c-b2f45bc707ea","ios":"levelo://app?vid=09427380-84fd-4abc-941c-b2f45bc707ea"},"vehicle_type_id":"4","last_reported":1702483704,"current_range_meters":26000,"station_id":"ce4bgh92rcd13ifvqb50","pricing_plan_id":"free"},{"bike_id":"89078aa8-f00d-42b3-b96e-3ec30d0430f4","system_id":"levelo_inurba_marseille","lat":43.296263,"lon":5.377094,"is_reserved":false,"is_disabled":false,"rental_uris":{"android":"levelo://app?vid=89078aa8-f00d-42b3-b96e-3ec30d0430f4","ios":"levelo://app?vid=89078aa8-f00d-42b3-b96e-3ec30d0430f4"},"vehicle_type_id":"4","last_reported":1702483704,"current_range_meters":8000,"station_id":"ce4bgi92rcd13ifvqb90","pricing_plan_id":"free"},{"bike_id":"2a1e980b-7680-4619-8e1a-21a6a024e304","system_id":"levelo_inurba_marseille","lat":43.295279,"lon":5.375048,"is_reserved":false,"is_disabled":false,"rental_uris":{"android":"levelo://app?vid=2a1e980b-7680-4619-8e1a-21a6a024e304","ios":"levelo://app?vid=2a1e980b-7680-4619-8e1a-21a6a024e304"},"vehicle_type_id":"4","last_reported":1702483704,"current_range_meters":2400,"station_id":"ce4bgkp2rcd13ifvqbmg","pricing_plan_id":"free"},{"bike_id":"5515ee18-e232-42f5-b5dc-9d2710814282","system_id":"levelo_inurba_marseille","lat":43.32218,"lon":5.38948,"is_reserved":false,"is_disabled":false,"rental_uris":{"android":"levelo://app?vid=5515ee18-e232-42f5-b5dc-9d2710814282","ios":"levelo://app?vid=5515ee18-e232-42f5-b5dc-9d2710814282"},"vehicle_type_id":"4","last_reported":1702483704,"current_range_meters":16000,"station_id":"","pricing_plan_id":"free"},{"bike_id":"7aa43ffc-78db-484a-8d60-858527897509","system_id":"levelo_inurba_marseille","lat":43.32367,"lon":5.388836,"is_reserved":false,"is_disabled":false,"rental_uris":{"android":"levelo://app?vid=7aa43ffc-78db-484a-8d60-858527897509","ios":"levelo://app?vid=7aa43ffc-78db-484a-8d60-858527897509"},"vehicle_type_id":"4","last_reported":1702483704,"current_range_meters":15200,"station_id":"ce4bhqp2rcd13ifvqhog","pricing_plan_id":"free"},{"bike_id":"2f5ae8d5-0bee-4931-8dca-e2349d1eadad","system_id":"levelo_inurba_marseille","lat":43.32364,"lon":5.38883,"is_reserved":false,"is_disabled":false,"rental_uris":{"android":"levelo://app?vid=2f5ae8d5-0bee-4931-8dca-e2349d1eadad","ios":"levelo://app?vid=2f5ae8d5-0bee-4931-8dca-e2349d1eadad"},"vehicle_type_id":"4","last_reported":1702483704,"current_range_meters":11600,"station_id":"ce4bhqp2rcd13ifvqhog","pricing_plan_id":"free"},{"bike_id":"66ca8d84-534d-4387-a089-13a2c461100c","system_id":"levelo_inurba_marseille","lat":43.32367,"lon":5.388836,"is_reserved":false,"is_disabled":false,"rental_uris":{"android":"levelo://app?vid=66ca8d84-534d-4387-a089-13a2c461100c","ios":"levelo://app?vid=66ca8d84-534d-4387-a089-13a2c461100c"},"vehicle_type_id":"4","last_reported":1702483704,"current_range_meters":12000,"station_id":"ce4bhqp2rcd13ifvqhog","pricing_plan_id":"free"},{"bike_id":"e9e1c847-e99c-449a-9b01-e7cb7dd32f73","system_id":"levelo_inurba_marseille","lat":43.3237,"lon":5.38885,"is_reserved":false,"is_disabled":false,"rental_uris":{"android":"levelo://app?vid=e9e1c847-e99c-449a-9b01-e7cb7dd32f73","ios":"levelo://app?vid=e9e1c847-e99c-449a-9b01-e7cb7dd32f73"},"vehicle_type_id":"4","last_reported":1702483704,"current_range_meters":1200,"station_id":"ce4bhqp2rcd13ifvqhog","pricing_plan_id":"free"},{"bike_id":"e9706453-e33e-438e-a0cf-1e2602d6c3e7","system_id":"levelo_inurba_marseille","lat":43.2936,"lon":5.37835,"is_reserved":false,"is_disabled":false,"rental_uris":{"android":"levelo://app?vid=e9706453-e33e-438e-a0cf-1e2602d6c3e7","ios":"levelo://app?vid=e9706453-e33e-438e-a0cf-1e2602d6c3e7"},"vehicle_type_id":"4","last_reported":1702483704,"current_range_meters":7200,"station_id":"ce4bgjh2rcd13ifvqbf0","pricing_plan_id":"free"},{"bike_id":"7481e3dd-f9da-4d27-862e-60a9da28db13","system_id":"levelo_inurba_marseille","lat":43.29529,"lon":5.385581,"is_reserved":false,"is_disabled":false,"rental_uris":{"android":"levelo://app?vid=7481e3dd-f9da-4d27-862e-60a9da28db13","ios":"levelo://app?vid=7481e3dd-f9da-4d27-862e-60a9da28db13"},"vehicle_type_id":"4","last_reported":1702483704,"current_range_meters":10800,"station_id":"ce4bgih2rcd13ifvqba0","pricing_plan_id":"free"},{"bike_id":"50b95f3c-d4c4-49e5-b01c-6c09f345eabd","system_id":"levelo_inurba_marseille","lat":43.290624,"lon":5.359245,"is_reserved":false,"is_disabled":false,"rental_uris":{"android":"levelo://app?vid=50b95f3c-d4c4-49e5-b01c-6c09f345eabd","ios":"levelo://app?vid=50b95f3c-d4c4-49e5-b01c-6c09f345eabd"},"vehicle_type_id":"4","last_reported":1702483704,"current_range_meters":28400,"station_id":"ce4bha92rcd13ifvqeg0","pricing_plan_id":"free"},{"bike_id":"d611f202-63b9-4f5a-861a-829fb0141b27","system_id":"levelo_inurba_marseille","lat":43.32968,"lon":5.389128,"is_reserved":false,"is_disabled":false,"rental_uris":{"android":"levelo://app?vid=d611f202-63b9-4f5a-861a-829fb0141b27","ios":"levelo://app?vid=d611f202-63b9-4f5a-861a-829fb0141b27"},"vehicle_type_id":"4","last_reported":1702483704,"current_range_meters":25200,"station_id":"ce4bhr92rcd13ifvqhrg","pricing_plan_id":"free"},{"bike_id":"681d6c49-ae18-42fe-a03f-fbefd31dc595","system_id":"levelo_inurba_marseille","lat":43.290104,"lon":5.356111,"is_reserved":false,"is_disabled":false,"rental_uris":{"android":"levelo://app?vid=681d6c49-ae18-42fe-a03f-fbefd31dc595","ios":"levelo://app?vid=681d6c49-ae18-42fe-a03f-fbefd31dc595"},"vehicle_type_id":"4","last_reported":1702483704,"current_range_meters":2800,"station_id":"ce4bhb92rcd13ifvqen0","pricing_plan_id":"free"},{"bike_id":"618b3aee-590e-4e0c-ad3d-7236eefa84d5","system_id":"levelo_inurba_marseille","lat":43.290103,"lon":5.356114,"is_reserved":false,"is_disabled":false,"rental_uris":{"android":"levelo://app?vid=618b3aee-590e-4e0c-ad3d-7236eefa84d5","ios":"levelo://app?vid=618b3aee-590e-4e0c-ad3d-7236eefa84d5"},"vehicle_type_id":"4","last_reported":1702483704,"current_range_meters":26800,"station_id":"ce4bhb92rcd13ifvqen0","pricing_plan_id":"free"},{"bike_id":"961c316d-4dbf-4ae0-a672-72812afc3b24","system_id":"levelo_inurba_marseille","lat":43.312609,"lon":5.401662,"is_reserved":false,"is_disabled":false,"rental_uris":{"android":"levelo://app?vid=961c316d-4dbf-4ae0-a672-72812afc3b24","ios":"levelo://app?vid=961c316d-4dbf-4ae0-a672-72812afc3b24"},"vehicle_type_id":"4","last_reported":1702483704,"current_range_meters":2800,"station_id":"ce4bh092rcd13ifvqd30","pricing_plan_id":"free"},{"bike_id":"af6279ba-4ae4-431c-b3f7-f22b55e749ba","system_id":"levelo_inurba_marseille","lat":43.312609,"lon":5.401662,"is_reserved":false,"is_disabled":false,"rental_uris":{"android":"levelo://app?vid=af6279ba-4ae4-431c-b3f7-f22b55e749ba","ios":"levelo://app?vid=af6279ba-4ae4-431c-b3f7-f22b55e749ba"},"vehicle_type_id":"4","last_reported":1702483704,"current_range_meters":23200,"station_id":"ce4bh092rcd13ifvqd30","pricing_plan_id":"free"},{"bike_id":"8331eefb-e3fa-4ac5-a8dd-abd730cc2aca","system_id":"levelo_inurba_marseille","lat":43.30927,"lon":5.40141,"is_reserved":false,"is_disabled":false,"rental_uris":{"android":"levelo://app?vid=8331eefb-e3fa-4ac5-a8dd-abd730cc2aca","ios":"levelo://app?vid=8331eefb-e3fa-4ac5-a8dd-abd730cc2aca"},"vehicle_type_id":"4","last_reported":1702483704,"current_range_meters":12400,"station_id":"ce4bgvp2rcd13ifvqct0","pricing_plan_id":"free"},{"bike_id":"05c0943e-d1ea-462d-b680-d6159b12f830","system_id":"levelo_inurba_marseille","lat":43.312761,"lon":5.401805,"is_reserved":false,"is_disabled":false,"rental_uris":{"android":"levelo://app?vid=05c0943e-d1ea-462d-b680-d6159b12f830","ios":"levelo://app?vid=05c0943e-d1ea-462d-b680-d6159b12f830"},"vehicle_type_id":"4","last_reported":1702483704,"current_range_meters":22400,"station_id":"ce4bh092rcd13ifvqd30","pricing_plan_id":"free"},{"bike_id":"00899904-0b09-4d26-b15c-911b508c746a","system_id":"levelo_inurba_marseille","lat":43.309243,"lon":5.401487,"is_reserved":false,"is_disabled":false,"rental_uris":{"android":"levelo://app?vid=00899904-0b09-4d26-b15c-911b508c746a","ios":"levelo://app?vid=00899904-0b09-4d26-b15c-911b508c746a"},"vehicle_type_id":"4","last_reported":1702483704,"current_range_meters":15200,"station_id":"ce4bgvp2rcd13ifvqct0","pricing_plan_id":"free"},{"bike_id":"fa23bc4c-3492-4ba5-ab13-c42e18316583","system_id":"levelo_inurba_marseille","lat":43.33755,"lon":5.37466,"is_reserved":false,"is_disabled":false,"rental_uris":{"android":"levelo://app?vid=fa23bc4c-3492-4ba5-ab13-c42e18316583","ios":"levelo://app?vid=fa23bc4c-3492-4ba5-ab13-c42e18316583"},"vehicle_type_id":"4","last_reported":1702483704,"current_range_meters":31200,"station_id":"","pricing_plan_id":"free"},{"bike_id":"ba7df738-0077-4475-a17d-7c0dae78f941","system_id":"levelo_inurba_marseille","lat":43.30642,"lon":5.401031,"is_reserved":false,"is_disabled":false,"rental_uris":{"android":"levelo://app?vid=ba7df738-0077-4475-a17d-7c0dae78f941","ios":"levelo://app?vid=ba7df738-0077-4475-a17d-7c0dae78f941"},"vehicle_type_id":"4","last_reported":1702483704,"current_range_meters":22800,"station_id":"ce4bh112rcd13ifvqda0","pricing_plan_id":"free"},{"bike_id":"84fbaaae-f887-45a9-9127-dad46e45831b","system_id":"levelo_inurba_marseille","lat":43.30649,"lon":5.40108,"is_reserved":false,"is_disabled":false,"rental_uris":{"android":"levelo://app?vid=84fbaaae-f887-45a9-9127-dad46e45831b","ios":"levelo://app?vid=84fbaaae-f887-45a9-9127-dad46e45831b"},"vehicle_type_id":"4","last_reported":1702483704,"current_range_meters":20800,"station_id":"ce4bh112rcd13ifvqda0","pricing_plan_id":"free"},{"bike_id":"bc8e3f52-beed-46bc-a123-437218b85729","system_id":"levelo_inurba_marseille","lat":43.3063,"lon":5.40174,"is_reserved":false,"is_disabled":false,"rental_uris":{"android":"levelo://app?vid=bc8e3f52-beed-46bc-a123-437218b85729","ios":"levelo://app?vid=bc8e3f52-beed-46bc-a123-437218b85729"},"vehicle_type_id":"4","last_reported":1702483704,"current_range_meters":27200,"station_id":"","pricing_plan_id":"free"},{"bike_id":"509e197f-82a1-4798-8af6-b6a286155bb7","system_id":"levelo_inurba_marseille","lat":43.286961,"lon":5.373785,"is_reserved":false,"is_disabled":false,"rental_uris":{"android":"levelo://app?vid=509e197f-82a1-4798-8af6-b6a286155bb7","ios":"levelo://app?vid=509e197f-82a1-4798-8af6-b6a286155bb7"},"vehicle_type_id":"4","last_reported":1702483704,"current_range_meters":1600,"station_id":"ce4bh3p2rcd13ifvqdq0","pricing_plan_id":"free"},{"bike_id":"113edc72-5b7a-42b4-a2e5-b3d611a63e57","system_id":"levelo_inurba_marseille","lat":43.29029,"lon":5.38652,"is_reserved":false,"is_disabled":false,"rental_uris":{"android":"levelo://app?vid=113edc72-5b7a-42b4-a2e5-b3d611a63e57","ios":"levelo://app?vid=113edc72-5b7a-42b4-a2e5-b3d611a63e57"},"vehicle_type_id":"4","last_reported":1702483704,"current_range_meters":2000,"station_id":"ce4bh4p2rcd13ifvqe0g","pricing_plan_id":"free"},{"bike_id":"17ad54fa-30dd-43a6-8536-35935c3c0b86","system_id":"levelo_inurba_marseille","lat":43.286039,"lon":5.370681,"is_reserved":false,"is_disabled":false,"rental_uris":{"android":"levelo://app?vid=17ad54fa-30dd-43a6-8536-35935c3c0b86","ios":"levelo://app?vid=17ad54fa-30dd-43a6-8536-35935c3c0b86"},"vehicle_type_id":"4","last_reported":1702483704,"current_range_meters":5600,"station_id":"ce4bht12rcd13ifvqi60","pricing_plan_id":"free"},{"bike_id":"1b7f1ff1-232d-418b-99f8-3235f19e86ba","system_id":"levelo_inurba_marseille","lat":43.28614,"lon":5.35104,"is_reserved":false,"is_disabled":false,"rental_uris":{"android":"levelo://app?vid=1b7f1ff1-232d-418b-99f8-3235f19e86ba","ios":"levelo://app?vid=1b7f1ff1-232d-418b-99f8-3235f19e86ba"},"vehicle_type_id":"4","last_reported":1702483704,"current_range_meters":22800,"station_id":"ce4bhch2rcd13ifvqeug","pricing_plan_id":"free"},{"bike_id":"07240b03-eba4-456a-b056-fbc4a3f32a2a","system_id":"levelo_inurba_marseille","lat":43.304112,"lon":5.405716,"is_reserved":false,"is_disabled":false,"rental_uris":{"android":"levelo://app?vid=07240b03-eba4-456a-b056-fbc4a3f32a2a","ios":"levelo://app?vid=07240b03-eba4-456a-b056-fbc4a3f32a2a"},"vehicle_type_id":"4","last_reported":1702483704,"current_range_meters":18800,"station_id":"","pricing_plan_id":"free"},{"bike_id":"06ca8534-65b4-4774-a7c8-03b5af893c6a","system_id":"levelo_inurba_marseille","lat":43.32358,"lon":5.40622,"is_reserved":false,"is_disabled":false,"rental_uris":{"android":"levelo://app?vid=06ca8534-65b4-4774-a7c8-03b5af893c6a","ios":"levelo://app?vid=06ca8534-65b4-4774-a7c8-03b5af893c6a"},"vehicle_type_id":"4","last_reported":1702483704,"current_range_meters":8400,"station_id":"","pricing_plan_id":"free"},{"bike_id":"13de29fb-f0fc-4e20-bb3c-4f6721fd01bd","system_id":"levelo_inurba_marseille","lat":43.284793,"lon":5.384119,"is_reserved":false,"is_disabled":false,"rental_uris":{"android":"levelo://app?vid=13de29fb-f0fc-4e20-bb3c-4f6721fd01bd","ios":"levelo://app?vid=13de29fb-f0fc-4e20-bb3c-4f6721fd01bd"},"vehicle_type_id":"4","last_reported":1702483704,"current_range_meters":400,"station_id":"ce4bh512rcd13ifvqe3g","pricing_plan_id":"free"},{"bike_id":"64b349c1-0a18-476f-991c-f5a23082b206","system_id":"levelo_inurba_marseille","lat":43.284219,"lon":5.3497,"is_reserved":false,"is_disabled":false,"rental_uris":{"android":"levelo://app?vid=64b349c1-0a18-476f-991c-f5a23082b206","ios":"levelo://app?vid=64b349c1-0a18-476f-991c-f5a23082b206"},"vehicle_type_id":"4","last_reported":1702483704,"current_range_meters":23600,"station_id":"ce4bhbh2rcd13ifvqepg","pricing_plan_id":"free"},{"bike_id":"5c0dc56d-6aab-49c4-b6d8-7fb722e20db5","system_id":"levelo_inurba_marseille","lat":43.284217,"lon":5.349697,"is_reserved":false,"is_disabled":false,"rental_uris":{"android":"levelo://app?vid=5c0dc56d-6aab-49c4-b6d8-7fb722e20db5","ios":"levelo://app?vid=5c0dc56d-6aab-49c4-b6d8-7fb722e20db5"},"vehicle_type_id":"4","last_reported":1702483704,"current_range_meters":3200,"station_id":"ce4bhbh2rcd13ifvqepg","pricing_plan_id":"free"},{"bike_id":"b3d60ed6-4b26-463a-8207-33a5df26d7f6","system_id":"levelo_inurba_marseille","lat":43.289363,"lon":5.396322,"is_reserved":false,"is_disabled":false,"rental_uris":{"android":"levelo://app?vid=b3d60ed6-4b26-463a-8207-33a5df26d7f6","ios":"levelo://app?vid=b3d60ed6-4b26-463a-8207-33a5df26d7f6"},"vehicle_type_id":"4","last_reported":1702483704,"current_range_meters":3200,"station_id":"ce4bh3h2rcd13ifvqdn0","pricing_plan_id":"free"},{"bike_id":"20da6991-ed77-4464-989c-dc9c7433eb26","system_id":"levelo_inurba_marseille","lat":43.282754,"lon":5.350519,"is_reserved":false,"is_disabled":false,"rental_uris":{"android":"levelo://app?vid=20da6991-ed77-4464-989c-dc9c7433eb26","ios":"levelo://app?vid=20da6991-ed77-4464-989c-dc9c7433eb26"},"vehicle_type_id":"4","last_reported":1702483704,"current_range_meters":4400,"station_id":"ce4bhbp2rcd13ifvqerg","pricing_plan_id":"free"},{"bike_id":"e7efb3e9-f195-4c5b-997c-893fe2cfcdb1","system_id":"levelo_inurba_marseille","lat":43.29041,"lon":5.399634,"is_reserved":false,"is_disabled":false,"rental_uris":{"android":"levelo://app?vid=e7efb3e9-f195-4c5b-997c-893fe2cfcdb1","ios":"levelo://app?vid=e7efb3e9-f195-4c5b-997c-893fe2cfcdb1"},"vehicle_type_id":"4","last_reported":1702483704,"current_range_meters":27600,"station_id":"ce4bh392rcd13ifvqdm0","pricing_plan_id":"free"},{"bike_id":"d2c4948b-ee18-48e1-8061-1ea2bc1f02f1","system_id":"levelo_inurba_marseille","lat":43.281044,"lon":5.378308,"is_reserved":false,"is_disabled":false,"rental_uris":{"android":"levelo://app?vid=d2c4948b-ee18-48e1-8061-1ea2bc1f02f1","ios":"levelo://app?vid=d2c4948b-ee18-48e1-8061-1ea2bc1f02f1"},"vehicle_type_id":"4","last_reported":1702483704,"current_range_meters":8000,"station_id":"ce4bha12rcd13ifvqee0","pricing_plan_id":"free"},{"bike_id":"fd742d58-919a-4269-a846-6d4a55c1b297","system_id":"levelo_inurba_marseille","lat":43.304277,"lon":5.413057,"is_reserved":false,"is_disabled":false,"rental_uris":{"android":"levelo://app?vid=fd742d58-919a-4269-a846-6d4a55c1b297","ios":"levelo://app?vid=fd742d58-919a-4269-a846-6d4a55c1b297"},"vehicle_type_id":"4","last_reported":1702483704,"current_range_meters":25600,"station_id":"ce4bhop2rcd13ifvqh8g","pricing_plan_id":"free"},{"bike_id":"02576dcf-6063-480a-aad0-06ec81c9cb51","system_id":"levelo_inurba_marseille","lat":43.292571,"lon":5.409107,"is_reserved":false,"is_disabled":false,"rental_uris":{"android":"levelo://app?vid=02576dcf-6063-480a-aad0-06ec81c9cb51","ios":"levelo://app?vid=02576dcf-6063-480a-aad0-06ec81c9cb51"},"vehicle_type_id":"4","last_reported":1702483704,"current_range_meters":11200,"station_id":"ce4bh192rcd13ifvqdc0","pricing_plan_id":"free"},{"bike_id":"aa2d3fce-e67f-4466-9373-ec319e541d1e","system_id":"levelo_inurba_marseille","lat":43.280784,"lon":5.396622,"is_reserved":false,"is_disabled":false,"rental_uris":{"android":"levelo://app?vid=aa2d3fce-e67f-4466-9373-ec319e541d1e","ios":"levelo://app?vid=aa2d3fce-e67f-4466-9373-ec319e541d1e"},"vehicle_type_id":"4","last_reported":1702483704,"current_range_meters":28400,"station_id":"ce4bho12rcd13ifvqh2g","pricing_plan_id":"free"},{"bike_id":"b22f8ce6-3c7e-4979-a709-52ee547ea436","system_id":"levelo_inurba_marseille","lat":43.278401,"lon":5.392152,"is_reserved":false,"is_disabled":false,"rental_uris":{"android":"levelo://app?vid=b22f8ce6-3c7e-4979-a709-52ee547ea436","ios":"levelo://app?vid=b22f8ce6-3c7e-4979-a709-52ee547ea436"},"vehicle_type_id":"4","last_reported":1702483704,"current_range_meters":25200,"station_id":"ce4bhjp2rcd13ifvqga0","pricing_plan_id":"free"},{"bike_id":"b8be7bca-49b9-40f2-b897-2034105789af","system_id":"levelo_inurba_marseille","lat":43.273613,"lon":5.362705,"is_reserved":false,"is_disabled":false,"rental_uris":{"android":"levelo://app?vid=b8be7bca-49b9-40f2-b897-2034105789af","ios":"levelo://app?vid=b8be7bca-49b9-40f2-b897-2034105789af"},"vehicle_type_id":"4","last_reported":1702483704,"current_range_meters":18800,"station_id":"ce4bhbh2rcd13ifvqeo0","pricing_plan_id":"free"},{"bike_id":"eef6c982-2db6-4b90-ab57-5b9c8d89d0e5","system_id":"levelo_inurba_marseille","lat":43.275478,"lon":5.384423,"is_reserved":false,"is_disabled":false,"rental_uris":{"android":"levelo://app?vid=eef6c982-2db6-4b90-ab57-5b9c8d89d0e5","ios":"levelo://app?vid=eef6c982-2db6-4b90-ab57-5b9c8d89d0e5"},"vehicle_type_id":"4","last_reported":1702483704,"current_range_meters":29200,"station_id":"ce4bhh92rcd13ifvqfi0","pricing_plan_id":"free"},{"bike_id":"91fd58f2-cd4d-4c4d-89f9-57c19fce442a","system_id":"levelo_inurba_marseille","lat":43.279975,"lon":5.40009,"is_reserved":false,"is_disabled":false,"rental_uris":{"android":"levelo://app?vid=91fd58f2-cd4d-4c4d-89f9-57c19fce442a","ios":"levelo://app?vid=91fd58f2-cd4d-4c4d-89f9-57c19fce442a"},"vehicle_type_id":"4","last_reported":1702483704,"current_range_meters":18000,"station_id":"ce4bho92rcd13ifvqh4g","pricing_plan_id":"free"},{"bike_id":"73256d35-e750-4b8d-aacc-2613b7e5ef3c","system_id":"levelo_inurba_marseille","lat":43.279952,"lon":5.400085,"is_reserved":false,"is_disabled":false,"rental_uris":{"android":"levelo://app?vid=73256d35-e750-4b8d-aacc-2613b7e5ef3c","ios":"levelo://app?vid=73256d35-e750-4b8d-aacc-2613b7e5ef3c"},"vehicle_type_id":"4","last_reported":1702483704,"current_range_meters":2000,"station_id":"ce4bho92rcd13ifvqh4g","pricing_plan_id":"free"},{"bike_id":"6d0496bd-7845-4f30-b621-61907f9d50de","system_id":"levelo_inurba_marseille","lat":43.279952,"lon":5.400085,"is_reserved":false,"is_disabled":false,"rental_uris":{"android":"levelo://app?vid=6d0496bd-7845-4f30-b621-61907f9d50de","ios":"levelo://app?vid=6d0496bd-7845-4f30-b621-61907f9d50de"},"vehicle_type_id":"4","last_reported":1702483704,"current_range_meters":20800,"station_id":"ce4bho92rcd13ifvqh4g","pricing_plan_id":"free"},{"bike_id":"7add75c4-5abb-4dac-8db9-76b308456366","system_id":"levelo_inurba_marseille","lat":43.279952,"lon":5.400085,"is_reserved":false,"is_disabled":false,"rental_uris":{"android":"levelo://app?vid=7add75c4-5abb-4dac-8db9-76b308456366","ios":"levelo://app?vid=7add75c4-5abb-4dac-8db9-76b308456366"},"vehicle_type_id":"4","last_reported":1702483704,"current_range_meters":13600,"station_id":"ce4bho92rcd13ifvqh4g","pricing_plan_id":"free"},{"bike_id":"d1cb7e5e-c680-4a8c-8468-98798066e31d","system_id":"levelo_inurba_marseille","lat":43.279975,"lon":5.40009,"is_reserved":false,"is_disabled":false,"rental_uris":{"android":"levelo://app?vid=d1cb7e5e-c680-4a8c-8468-98798066e31d","ios":"levelo://app?vid=d1cb7e5e-c680-4a8c-8468-98798066e31d"},"vehicle_type_id":"4","last_reported":1702483704,"current_range_meters":400,"station_id":"ce4bho92rcd13ifvqh4g","pricing_plan_id":"free"},{"bike_id":"2bf2aff0-ad87-4ed6-868a-c5f5695f1c5a","system_id":"levelo_inurba_marseille","lat":43.279975,"lon":5.40009,"is_reserved":false,"is_disabled":false,"rental_uris":{"android":"levelo://app?vid=2bf2aff0-ad87-4ed6-868a-c5f5695f1c5a","ios":"levelo://app?vid=2bf2aff0-ad87-4ed6-868a-c5f5695f1c5a"},"vehicle_type_id":"4","last_reported":1702483704,"current_range_meters":12000,"station_id":"ce4bho92rcd13ifvqh4g","pricing_plan_id":"free"},{"bike_id":"c4d56341-cd55-4040-9e29-98a1cb7ecf12","system_id":"levelo_inurba_marseille","lat":43.279952,"lon":5.400085,"is_reserved":false,"is_disabled":false,"rental_uris":{"android":"levelo://app?vid=c4d56341-cd55-4040-9e29-98a1cb7ecf12","ios":"levelo://app?vid=c4d56341-cd55-4040-9e29-98a1cb7ecf12"},"vehicle_type_id":"4","last_reported":1702483704,"current_range_meters":28000,"station_id":"ce4bho92rcd13ifvqh4g","pricing_plan_id":"free"},{"bike_id":"3738efb3-f76f-4e7b-830f-4134d20f78b0","system_id":"levelo_inurba_marseille","lat":43.279952,"lon":5.400085,"is_reserved":false,"is_disabled":false,"rental_uris":{"android":"levelo://app?vid=3738efb3-f76f-4e7b-830f-4134d20f78b0","ios":"levelo://app?vid=3738efb3-f76f-4e7b-830f-4134d20f78b0"},"vehicle_type_id":"4","last_reported":1702483704,"current_range_meters":28000,"station_id":"ce4bho92rcd13ifvqh4g","pricing_plan_id":"free"},{"bike_id":"fe0a789f-e57a-472a-b8c8-b3b0f92ab63e","system_id":"levelo_inurba_marseille","lat":43.317121,"lon":5.423936,"is_reserved":false,"is_disabled":false,"rental_uris":{"android":"levelo://app?vid=fe0a789f-e57a-472a-b8c8-b3b0f92ab63e","ios":"levelo://app?vid=fe0a789f-e57a-472a-b8c8-b3b0f92ab63e"},"vehicle_type_id":"4","last_reported":1702483704,"current_range_meters":30000,"station_id":"ce4bhp92rcd13ifvqhbg","pricing_plan_id":"free"},{"bike_id":"55f8cf7b-a384-4860-b1f5-075034029351","system_id":"levelo_inurba_marseille","lat":43.317123,"lon":5.424017,"is_reserved":false,"is_disabled":false,"rental_uris":{"android":"levelo://app?vid=55f8cf7b-a384-4860-b1f5-075034029351","ios":"levelo://app?vid=55f8cf7b-a384-4860-b1f5-075034029351"},"vehicle_type_id":"4","last_reported":1702483704,"current_range_meters":26000,"station_id":"ce4bhp92rcd13ifvqhbg","pricing_plan_id":"free"},{"bike_id":"b1c028eb-0fe1-4afa-b35c-b9783a0e9537","system_id":"levelo_inurba_marseille","lat":43.31723,"lon":5.42405,"is_reserved":false,"is_disabled":false,"rental_uris":{"android":"levelo://app?vid=b1c028eb-0fe1-4afa-b35c-b9783a0e9537","ios":"levelo://app?vid=b1c028eb-0fe1-4afa-b35c-b9783a0e9537"},"vehicle_type_id":"4","last_reported":1702483704,"current_range_meters":1200,"station_id":"ce4bhp92rcd13ifvqhbg","pricing_plan_id":"free"},{"bike_id":"1c3fbb28-dbf4-409d-a5b4-b2f7db3ece4e","system_id":"levelo_inurba_marseille","lat":43.310785,"lon":5.424305,"is_reserved":false,"is_disabled":false,"rental_uris":{"android":"levelo://app?vid=1c3fbb28-dbf4-409d-a5b4-b2f7db3ece4e","ios":"levelo://app?vid=1c3fbb28-dbf4-409d-a5b4-b2f7db3ece4e"},"vehicle_type_id":"4","last_reported":1702483704,"current_range_meters":18400,"station_id":"ce4bhp92rcd13ifvqhag","pricing_plan_id":"free"},{"bike_id":"e15fcb76-150b-4e94-ba14-1765fbabad44","system_id":"levelo_inurba_marseille","lat":43.310785,"lon":5.424305,"is_reserved":false,"is_disabled":false,"rental_uris":{"android":"levelo://app?vid=e15fcb76-150b-4e94-ba14-1765fbabad44","ios":"levelo://app?vid=e15fcb76-150b-4e94-ba14-1765fbabad44"},"vehicle_type_id":"4","last_reported":1702483704,"current_range_meters":31200,"station_id":"ce4bhp92rcd13ifvqhag","pricing_plan_id":"free"},{"bike_id":"3ca2c2d2-99b0-4aa6-a05d-e30f02e6a7fb","system_id":"levelo_inurba_marseille","lat":43.27588,"lon":5.39495,"is_reserved":false,"is_disabled":false,"rental_uris":{"android":"levelo://app?vid=3ca2c2d2-99b0-4aa6-a05d-e30f02e6a7fb","ios":"levelo://app?vid=3ca2c2d2-99b0-4aa6-a05d-e30f02e6a7fb"},"vehicle_type_id":"4","last_reported":1702483704,"current_range_meters":16000,"station_id":"","pricing_plan_id":"free"},{"bike_id":"8964eb56-0b5e-453b-8500-6bd4e24979c2","system_id":"levelo_inurba_marseille","lat":43.278128,"lon":5.407195,"is_reserved":false,"is_disabled":false,"rental_uris":{"android":"levelo://app?vid=8964eb56-0b5e-453b-8500-6bd4e24979c2","ios":"levelo://app?vid=8964eb56-0b5e-453b-8500-6bd4e24979c2"},"vehicle_type_id":"4","last_reported":1702483704,"current_range_meters":28800,"station_id":"ce4bhnh2rcd13ifvqgtg","pricing_plan_id":"free"},{"bike_id":"7c6d7f1c-0ccd-4e53-a440-4b83356f3083","system_id":"levelo_inurba_marseille","lat":43.279465,"lon":5.410561,"is_reserved":false,"is_disabled":false,"rental_uris":{"android":"levelo://app?vid=7c6d7f1c-0ccd-4e53-a440-4b83356f3083","ios":"levelo://app?vid=7c6d7f1c-0ccd-4e53-a440-4b83356f3083"},"vehicle_type_id":"4","last_reported":1702483704,"current_range_meters":31200,"station_id":"ce4bhnp2rcd13ifvqh0g","pricing_plan_id":"free"},{"bike_id":"cc12f4f0-988c-4a02-86c3-dbb02e78aa62","system_id":"levelo_inurba_marseille","lat":43.279465,"lon":5.410561,"is_reserved":false,"is_disabled":false,"rental_uris":{"android":"levelo://app?vid=cc12f4f0-988c-4a02-86c3-dbb02e78aa62","ios":"levelo://app?vid=cc12f4f0-988c-4a02-86c3-dbb02e78aa62"},"vehicle_type_id":"4","last_reported":1702483704,"current_range_meters":21600,"station_id":"ce4bhnp2rcd13ifvqh0g","pricing_plan_id":"free"},{"bike_id":"11d6dfb1-26c7-4106-b64b-5d1b75cd1d6a","system_id":"levelo_inurba_marseille","lat":43.279413,"lon":5.410477,"is_reserved":false,"is_disabled":false,"rental_uris":{"android":"levelo://app?vid=11d6dfb1-26c7-4106-b64b-5d1b75cd1d6a","ios":"levelo://app?vid=11d6dfb1-26c7-4106-b64b-5d1b75cd1d6a"},"vehicle_type_id":"4","last_reported":1702483704,"current_range_meters":30400,"station_id":"ce4bhnp2rcd13ifvqh0g","pricing_plan_id":"free"},{"bike_id":"d050efb3-e0d8-40fc-9a25-560404e9daad","system_id":"levelo_inurba_marseille","lat":43.279319,"lon":5.410423,"is_reserved":false,"is_disabled":false,"rental_uris":{"android":"levelo://app?vid=d050efb3-e0d8-40fc-9a25-560404e9daad","ios":"levelo://app?vid=d050efb3-e0d8-40fc-9a25-560404e9daad"},"vehicle_type_id":"4","last_reported":1702483704,"current_range_meters":18000,"station_id":"cjm6bp8fraef2m0cb0m0","pricing_plan_id":"free"},{"bike_id":"3a5f177d-c56d-4ddb-90f3-58077b78e696","system_id":"levelo_inurba_marseille","lat":43.26555,"lon":5.37285,"is_reserved":false,"is_disabled":false,"rental_uris":{"android":"levelo://app?vid=3a5f177d-c56d-4ddb-90f3-58077b78e696","ios":"levelo://app?vid=3a5f177d-c56d-4ddb-90f3-58077b78e696"},"vehicle_type_id":"4","last_reported":1702483704,"current_range_meters":5200,"station_id":"ce4bhg12rcd13ifvqf70","pricing_plan_id":"free"},{"bike_id":"3f232a0b-f328-4a7c-9376-5d1041aa79e5","system_id":"levelo_inurba_marseille","lat":43.30803,"lon":5.43523,"is_reserved":false,"is_disabled":false,"rental_uris":{"android":"levelo://app?vid=3f232a0b-f328-4a7c-9376-5d1041aa79e5","ios":"levelo://app?vid=3f232a0b-f328-4a7c-9376-5d1041aa79e5"},"vehicle_type_id":"4","last_reported":1702483704,"current_range_meters":31200,"station_id":"ce4bhph2rcd13ifvqheg","pricing_plan_id":"free"},{"bike_id":"45b99c1c-15e8-441b-978a-cfd866322470","system_id":"levelo_inurba_marseille","lat":43.26942,"lon":5.4025,"is_reserved":false,"is_disabled":false,"rental_uris":{"android":"levelo://app?vid=45b99c1c-15e8-441b-978a-cfd866322470","ios":"levelo://app?vid=45b99c1c-15e8-441b-978a-cfd866322470"},"vehicle_type_id":"4","last_reported":1702483704,"current_range_meters":6400,"station_id":"cjm6bp8fraef2m0cb0m0","pricing_plan_id":"free"},{"bike_id":"362bc326-de00-4db7-af08-9e69d5064a2f","system_id":"levelo_inurba_marseille","lat":43.317104,"lon":5.436818,"is_reserved":false,"is_disabled":false,"rental_uris":{"android":"levelo://app?vid=362bc326-de00-4db7-af08-9e69d5064a2f","ios":"levelo://app?vid=362bc326-de00-4db7-af08-9e69d5064a2f"},"vehicle_type_id":"4","last_reported":1702483704,"current_range_meters":22000,"station_id":"ce4bhp92rcd13ifvqhcg","pricing_plan_id":"free"},{"bike_id":"582ca4bf-aa7b-4d68-8a54-b31c9007dfcf","system_id":"levelo_inurba_marseille","lat":43.317104,"lon":5.436818,"is_reserved":false,"is_disabled":false,"rental_uris":{"android":"levelo://app?vid=582ca4bf-aa7b-4d68-8a54-b31c9007dfcf","ios":"levelo://app?vid=582ca4bf-aa7b-4d68-8a54-b31c9007dfcf"},"vehicle_type_id":"4","last_reported":1702483704,"current_range_meters":28800,"station_id":"ce4bhp92rcd13ifvqhcg","pricing_plan_id":"free"},{"bike_id":"0634f25c-f5b1-468b-a8f9-4c5a81b89cb7","system_id":"levelo_inurba_marseille","lat":43.26204,"lon":5.37931,"is_reserved":false,"is_disabled":false,"rental_uris":{"android":"levelo://app?vid=0634f25c-f5b1-468b-a8f9-4c5a81b89cb7","ios":"levelo://app?vid=0634f25c-f5b1-468b-a8f9-4c5a81b89cb7"},"vehicle_type_id":"4","last_reported":1702483704,"current_range_meters":14400,"station_id":"ce4bhjp2rcd13ifvqg90","pricing_plan_id":"free"},{"bike_id":"c8a009df-33ad-4abc-aece-9615da0ca783","system_id":"levelo_inurba_marseille","lat":43.271368,"lon":5.40928,"is_reserved":false,"is_disabled":false,"rental_uris":{"android":"levelo://app?vid=c8a009df-33ad-4abc-aece-9615da0ca783","ios":"levelo://app?vid=c8a009df-33ad-4abc-aece-9615da0ca783"},"vehicle_type_id":"4","last_reported":1702483704,"current_range_meters":12000,"station_id":"ce4bhl12rcd13ifvqgf0","pricing_plan_id":"free"},{"bike_id":"1c843d79-4826-4010-a306-e3af4a6e1ea2","system_id":"levelo_inurba_marseille","lat":43.267959,"lon":5.402685,"is_reserved":false,"is_disabled":false,"rental_uris":{"android":"levelo://app?vid=1c843d79-4826-4010-a306-e3af4a6e1ea2","ios":"levelo://app?vid=1c843d79-4826-4010-a306-e3af4a6e1ea2"},"vehicle_type_id":"4","last_reported":1702483704,"current_range_meters":16000,"station_id":"ce501612rcd8frsf0b60","pricing_plan_id":"free"},{"bike_id":"38a4a3ac-b01c-43e0-abb4-5a012521fc8c","system_id":"levelo_inurba_marseille","lat":43.298768,"lon":5.43643,"is_reserved":false,"is_disabled":false,"rental_uris":{"android":"levelo://app?vid=38a4a3ac-b01c-43e0-abb4-5a012521fc8c","ios":"levelo://app?vid=38a4a3ac-b01c-43e0-abb4-5a012521fc8c"},"vehicle_type_id":"4","last_reported":1702483704,"current_range_meters":28800,"station_id":"ce4bhpp2rcd13ifvqhfg","pricing_plan_id":"free"},{"bike_id":"d7658bda-c400-40f7-a400-a06ea0959a79","system_id":"levelo_inurba_marseille","lat":43.281548,"lon":5.42643,"is_reserved":false,"is_disabled":false,"rental_uris":{"android":"levelo://app?vid=d7658bda-c400-40f7-a400-a06ea0959a79","ios":"levelo://app?vid=d7658bda-c400-40f7-a400-a06ea0959a79"},"vehicle_type_id":"4","last_reported":1702483704,"current_range_meters":6800,"station_id":"ce4bhnh2rcd13ifvqgug","pricing_plan_id":"free"},{"bike_id":"ff3a8381-9094-4eb5-a986-0f41f3933e59","system_id":"levelo_inurba_marseille","lat":43.281548,"lon":5.42643,"is_reserved":false,"is_disabled":false,"rental_uris":{"android":"levelo://app?vid=ff3a8381-9094-4eb5-a986-0f41f3933e59","ios":"levelo://app?vid=ff3a8381-9094-4eb5-a986-0f41f3933e59"},"vehicle_type_id":"4","last_reported":1702483704,"current_range_meters":20800,"station_id":"ce4bhnh2rcd13ifvqgug","pricing_plan_id":"free"},{"bike_id":"208562c2-b41f-4178-9d7f-dc2f87d92e41","system_id":"levelo_inurba_marseille","lat":43.26348,"lon":5.39678,"is_reserved":false,"is_disabled":false,"rental_uris":{"android":"levelo://app?vid=208562c2-b41f-4178-9d7f-dc2f87d92e41","ios":"levelo://app?vid=208562c2-b41f-4178-9d7f-dc2f87d92e41"},"vehicle_type_id":"4","last_reported":1702483704,"current_range_meters":8000,"station_id":"","pricing_plan_id":"free"},{"bike_id":"5710290e-df78-4e7d-ae16-d77f449abcc7","system_id":"levelo_inurba_marseille","lat":43.2607,"lon":5.393983,"is_reserved":false,"is_disabled":false,"rental_uris":{"android":"levelo://app?vid=5710290e-df78-4e7d-ae16-d77f449abcc7","ios":"levelo://app?vid=5710290e-df78-4e7d-ae16-d77f449abcc7"},"vehicle_type_id":"4","last_reported":1702483704,"current_range_meters":31200,"station_id":"ce4bhh92rcd13ifvqfj0","pricing_plan_id":"free"},{"bike_id":"230d245e-795c-4ffa-aceb-d803be8aee46","system_id":"levelo_inurba_marseille","lat":43.2607,"lon":5.393983,"is_reserved":false,"is_disabled":false,"rental_uris":{"android":"levelo://app?vid=230d245e-795c-4ffa-aceb-d803be8aee46","ios":"levelo://app?vid=230d245e-795c-4ffa-aceb-d803be8aee46"},"vehicle_type_id":"4","last_reported":1702483704,"current_range_meters":31200,"station_id":"ce4bhh92rcd13ifvqfj0","pricing_plan_id":"free"},{"bike_id":"8b65ee4d-3339-4867-9c50-301c0ee38af2","system_id":"levelo_inurba_marseille","lat":43.275028,"lon":5.424534,"is_reserved":false,"is_disabled":false,"rental_uris":{"android":"levelo://app?vid=8b65ee4d-3339-4867-9c50-301c0ee38af2","ios":"levelo://app?vid=8b65ee4d-3339-4867-9c50-301c0ee38af2"},"vehicle_type_id":"4","last_reported":1702483704,"current_range_meters":22400,"station_id":"ce4bhn92rcd13ifvqgrg","pricing_plan_id":"free"},{"bike_id":"1e240c27-298b-415a-ac25-b0a2e5657c97","system_id":"levelo_inurba_marseille","lat":43.25831,"lon":5.39433,"is_reserved":false,"is_disabled":false,"rental_uris":{"android":"levelo://app?vid=1e240c27-298b-415a-ac25-b0a2e5657c97","ios":"levelo://app?vid=1e240c27-298b-415a-ac25-b0a2e5657c97"},"vehicle_type_id":"4","last_reported":1702483704,"current_range_meters":30400,"station_id":"","pricing_plan_id":"free"},{"bike_id":"39eefe27-03d9-47f3-9de8-d68c3a12f1c4","system_id":"levelo_inurba_marseille","lat":43.25369,"lon":5.3825,"is_reserved":false,"is_disabled":false,"rental_uris":{"android":"levelo://app?vid=39eefe27-03d9-47f3-9de8-d68c3a12f1c4","ios":"levelo://app?vid=39eefe27-03d9-47f3-9de8-d68c3a12f1c4"},"vehicle_type_id":"4","last_reported":1702483704,"current_range_meters":0,"station_id":"","pricing_plan_id":"free"},{"bike_id":"b3778f4b-17a5-414d-a355-5d6709a05873","system_id":"levelo_inurba_marseille","lat":43.25369,"lon":5.38251,"is_reserved":false,"is_disabled":false,"rental_uris":{"android":"levelo://app?vid=b3778f4b-17a5-414d-a355-5d6709a05873","ios":"levelo://app?vid=b3778f4b-17a5-414d-a355-5d6709a05873"},"vehicle_type_id":"4","last_reported":1702483704,"current_range_meters":22400,"station_id":"","pricing_plan_id":"free"},{"bike_id":"e20e394f-3313-42b6-893e-5a7487857f23","system_id":"levelo_inurba_marseille","lat":43.25711,"lon":5.41128,"is_reserved":false,"is_disabled":false,"rental_uris":{"android":"levelo://app?vid=e20e394f-3313-42b6-893e-5a7487857f23","ios":"levelo://app?vid=e20e394f-3313-42b6-893e-5a7487857f23"},"vehicle_type_id":"4","last_reported":1702483704,"current_range_meters":16800,"station_id":"ce4bhkp2rcd13ifvqgd0","pricing_plan_id":"free"},{"bike_id":"c27f1ef8-919a-4e83-a7e5-89c68e4cbfd5","system_id":"levelo_inurba_marseille","lat":43.2479,"lon":5.374457,"is_reserved":false,"is_disabled":false,"rental_uris":{"android":"levelo://app?vid=c27f1ef8-919a-4e83-a7e5-89c68e4cbfd5","ios":"levelo://app?vid=c27f1ef8-919a-4e83-a7e5-89c68e4cbfd5"},"vehicle_type_id":"4","last_reported":1702483704,"current_range_meters":27200,"station_id":"ce4bhgh2rcd13ifvqfb0","pricing_plan_id":"free"},{"bike_id":"e8d2a85c-7881-4d0f-927b-0ba847ec2d1d","system_id":"levelo_inurba_marseille","lat":43.24806,"lon":5.37459,"is_reserved":false,"is_disabled":false,"rental_uris":{"android":"levelo://app?vid=e8d2a85c-7881-4d0f-927b-0ba847ec2d1d","ios":"levelo://app?vid=e8d2a85c-7881-4d0f-927b-0ba847ec2d1d"},"vehicle_type_id":"4","last_reported":1702483704,"current_range_meters":4400,"station_id":"ce4bhgh2rcd13ifvqfb0","pricing_plan_id":"free"},{"bike_id":"ac31240d-4dca-4e43-bf55-3985a9f1250a","system_id":"levelo_inurba_marseille","lat":43.2479,"lon":5.374457,"is_reserved":false,"is_disabled":false,"rental_uris":{"android":"levelo://app?vid=ac31240d-4dca-4e43-bf55-3985a9f1250a","ios":"levelo://app?vid=ac31240d-4dca-4e43-bf55-3985a9f1250a"},"vehicle_type_id":"4","last_reported":1702483704,"current_range_meters":12000,"station_id":"ce4bhgh2rcd13ifvqfb0","pricing_plan_id":"free"},{"bike_id":"055d4307-9f89-4b54-89c9-f74cba930b57","system_id":"levelo_inurba_marseille","lat":43.25102,"lon":5.403214,"is_reserved":false,"is_disabled":false,"rental_uris":{"android":"levelo://app?vid=055d4307-9f89-4b54-89c9-f74cba930b57","ios":"levelo://app?vid=055d4307-9f89-4b54-89c9-f74cba930b57"},"vehicle_type_id":"4","last_reported":1702483704,"current_range_meters":18400,"station_id":"ce4bhlh2rcd13ifvqgig","pricing_plan_id":"free"},{"bike_id":"7cb48f85-63a8-456c-9c09-5c8990f47557","system_id":"levelo_inurba_marseille","lat":43.246467,"lon":5.388984,"is_reserved":false,"is_disabled":false,"rental_uris":{"android":"levelo://app?vid=7cb48f85-63a8-456c-9c09-5c8990f47557","ios":"levelo://app?vid=7cb48f85-63a8-456c-9c09-5c8990f47557"},"vehicle_type_id":"4","last_reported":1702483704,"current_range_meters":15600,"station_id":"ce4bhg12rcd13ifvqf60","pricing_plan_id":"free"},{"bike_id":"fbf0762a-f3fc-450d-a00d-5771debb171a","system_id":"levelo_inurba_marseille","lat":43.243884,"lon":5.370736,"is_reserved":false,"is_disabled":false,"rental_uris":{"android":"levelo://app?vid=fbf0762a-f3fc-450d-a00d-5771debb171a","ios":"levelo://app?vid=fbf0762a-f3fc-450d-a00d-5771debb171a"},"vehicle_type_id":"4","last_reported":1702483704,"current_range_meters":26800,"station_id":"ce4bhhh2rcd13ifvqfk0","pricing_plan_id":"free"},{"bike_id":"9af76f9c-24ab-48cd-a884-2f55b135e3d5","system_id":"levelo_inurba_marseille","lat":43.239588,"lon":5.366238,"is_reserved":false,"is_disabled":false,"rental_uris":{"android":"levelo://app?vid=9af76f9c-24ab-48cd-a884-2f55b135e3d5","ios":"levelo://app?vid=9af76f9c-24ab-48cd-a884-2f55b135e3d5"},"vehicle_type_id":"4","last_reported":1702483704,"current_range_meters":4000,"station_id":"ce4bhi12rcd13ifvqfp0","pricing_plan_id":"free"},{"bike_id":"5e73fbfd-7e47-4a34-af61-72f438a4ee66","system_id":"levelo_inurba_marseille","lat":43.239588,"lon":5.366238,"is_reserved":false,"is_disabled":false,"rental_uris":{"android":"levelo://app?vid=5e73fbfd-7e47-4a34-af61-72f438a4ee66","ios":"levelo://app?vid=5e73fbfd-7e47-4a34-af61-72f438a4ee66"},"vehicle_type_id":"4","last_reported":1702483704,"current_range_meters":8400,"station_id":"ce4bhi12rcd13ifvqfp0","pricing_plan_id":"free"},{"bike_id":"825265e1-f294-4e04-ac72-2c431a6af408","system_id":"levelo_inurba_marseille","lat":43.239588,"lon":5.366238,"is_reserved":false,"is_disabled":false,"rental_uris":{"android":"levelo://app?vid=825265e1-f294-4e04-ac72-2c431a6af408","ios":"levelo://app?vid=825265e1-f294-4e04-ac72-2c431a6af408"},"vehicle_type_id":"4","last_reported":1702483704,"current_range_meters":4000,"station_id":"ce4bhi12rcd13ifvqfp0","pricing_plan_id":"free"},{"bike_id":"dfc2f271-ee2c-4fa7-88de-51339aa910c2","system_id":"levelo_inurba_marseille","lat":43.239588,"lon":5.366238,"is_reserved":false,"is_disabled":false,"rental_uris":{"android":"levelo://app?vid=dfc2f271-ee2c-4fa7-88de-51339aa910c2","ios":"levelo://app?vid=dfc2f271-ee2c-4fa7-88de-51339aa910c2"},"vehicle_type_id":"4","last_reported":1702483704,"current_range_meters":8000,"station_id":"ce4bhi12rcd13ifvqfp0","pricing_plan_id":"free"},{"bike_id":"b1daf600-447f-4a38-9c28-5dbe227ab6ee","system_id":"levelo_inurba_marseille","lat":43.239588,"lon":5.366238,"is_reserved":false,"is_disabled":false,"rental_uris":{"android":"levelo://app?vid=b1daf600-447f-4a38-9c28-5dbe227ab6ee","ios":"levelo://app?vid=b1daf600-447f-4a38-9c28-5dbe227ab6ee"},"vehicle_type_id":"4","last_reported":1702483704,"current_range_meters":13600,"station_id":"ce4bhi12rcd13ifvqfp0","pricing_plan_id":"free"},{"bike_id":"a24e9a7d-aca6-4a9e-803e-e0faeb33511b","system_id":"levelo_inurba_marseille","lat":43.23201,"lon":5.3555,"is_reserved":false,"is_disabled":false,"rental_uris":{"android":"levelo://app?vid=a24e9a7d-aca6-4a9e-803e-e0faeb33511b","ios":"levelo://app?vid=a24e9a7d-aca6-4a9e-803e-e0faeb33511b"},"vehicle_type_id":"4","last_reported":1702483704,"current_range_meters":0,"station_id":"ce4bhu92rcd13ifvqi70","pricing_plan_id":"free"},{"bike_id":"45d74d7d-92de-4f90-9f72-1f4b20339208","system_id":"levelo_inurba_marseille","lat":43.231919,"lon":5.355532,"is_reserved":false,"is_disabled":false,"rental_uris":{"android":"levelo://app?vid=45d74d7d-92de-4f90-9f72-1f4b20339208","ios":"levelo://app?vid=45d74d7d-92de-4f90-9f72-1f4b20339208"},"vehicle_type_id":"4","last_reported":1702483704,"current_range_meters":9600,"station_id":"ce4bhu92rcd13ifvqi70","pricing_plan_id":"free"},{"bike_id":"7419071b-370e-4ee1-b8ec-fe330c17852b","system_id":"levelo_inurba_marseille","lat":43.231923,"lon":5.355545,"is_reserved":false,"is_disabled":false,"rental_uris":{"android":"levelo://app?vid=7419071b-370e-4ee1-b8ec-fe330c17852b","ios":"levelo://app?vid=7419071b-370e-4ee1-b8ec-fe330c17852b"},"vehicle_type_id":"4","last_reported":1702483704,"current_range_meters":2800,"station_id":"ce4bhu92rcd13ifvqi70","pricing_plan_id":"free"},{"bike_id":"28cf0186-3129-4448-9e8f-8fa9860365e7","system_id":"levelo_inurba_marseille","lat":43.231794,"lon":5.400052,"is_reserved":false,"is_disabled":false,"rental_uris":{"android":"levelo://app?vid=28cf0186-3129-4448-9e8f-8fa9860365e7","ios":"levelo://app?vid=28cf0186-3129-4448-9e8f-8fa9860365e7"},"vehicle_type_id":"4","last_reported":1702483704,"current_range_meters":19200,"station_id":"ce4bhn12rcd13ifvqgqg","pricing_plan_id":"free"},{"bike_id":"46e85755-7f44-4770-9e69-88e3e5d2d0d4","system_id":"levelo_inurba_marseille","lat":43.231794,"lon":5.400052,"is_reserved":false,"is_disabled":false,"rental_uris":{"android":"levelo://app?vid=46e85755-7f44-4770-9e69-88e3e5d2d0d4","ios":"levelo://app?vid=46e85755-7f44-4770-9e69-88e3e5d2d0d4"},"vehicle_type_id":"4","last_reported":1702483704,"current_range_meters":21200,"station_id":"ce4bhn12rcd13ifvqgqg","pricing_plan_id":"free"},{"bike_id":"323b152d-4068-4c49-b93b-d6b4949d3742","system_id":"levelo_inurba_marseille","lat":43.231793,"lon":5.400044,"is_reserved":false,"is_disabled":false,"rental_uris":{"android":"levelo://app?vid=323b152d-4068-4c49-b93b-d6b4949d3742","ios":"levelo://app?vid=323b152d-4068-4c49-b93b-d6b4949d3742"},"vehicle_type_id":"4","last_reported":1702483704,"current_range_meters":23600,"station_id":"ce4bhn12rcd13ifvqgqg","pricing_plan_id":"free"},{"bike_id":"e2d194e4-66ed-4272-8a5d-37a90e6c06b8","system_id":"levelo_inurba_marseille","lat":43.23186,"lon":5.39983,"is_reserved":false,"is_disabled":false,"rental_uris":{"android":"levelo://app?vid=e2d194e4-66ed-4272-8a5d-37a90e6c06b8","ios":"levelo://app?vid=e2d194e4-66ed-4272-8a5d-37a90e6c06b8"},"vehicle_type_id":"4","last_reported":1702483704,"current_range_meters":18000,"station_id":"ce4bhn12rcd13ifvqgqg","pricing_plan_id":"free"},{"bike_id":"e9e13da5-814b-4e04-963f-f688451db439","system_id":"levelo_inurba_marseille","lat":43.231793,"lon":5.400044,"is_reserved":false,"is_disabled":false,"rental_uris":{"android":"levelo://app?vid=e9e13da5-814b-4e04-963f-f688451db439","ios":"levelo://app?vid=e9e13da5-814b-4e04-963f-f688451db439"},"vehicle_type_id":"4","last_reported":1702483704,"current_range_meters":0,"station_id":"ce4bhn12rcd13ifvqgqg","pricing_plan_id":"free"},{"bike_id":"57c72221-af87-447c-8105-25c1397a08c0","system_id":"levelo_inurba_marseille","lat":43.231793,"lon":5.400044,"is_reserved":false,"is_disabled":false,"rental_uris":{"android":"levelo://app?vid=57c72221-af87-447c-8105-25c1397a08c0","ios":"levelo://app?vid=57c72221-af87-447c-8105-25c1397a08c0"},"vehicle_type_id":"4","last_reported":1702483704,"current_range_meters":20800,"station_id":"ce4bhn12rcd13ifvqgqg","pricing_plan_id":"free"},{"bike_id":"976b51c7-50e5-4a1e-9623-472378627f57","system_id":"levelo_inurba_marseille","lat":43.231794,"lon":5.400052,"is_reserved":false,"is_disabled":false,"rental_uris":{"android":"levelo://app?vid=976b51c7-50e5-4a1e-9623-472378627f57","ios":"levelo://app?vid=976b51c7-50e5-4a1e-9623-472378627f57"},"vehicle_type_id":"4","last_reported":1702483704,"current_range_meters":11600,"station_id":"ce4bhn12rcd13ifvqgqg","pricing_plan_id":"free"},{"bike_id":"5d66a1e1-407e-43b7-8a1f-b43437a90341","system_id":"levelo_inurba_marseille","lat":43.231794,"lon":5.400052,"is_reserved":false,"is_disabled":false,"rental_uris":{"android":"levelo://app?vid=5d66a1e1-407e-43b7-8a1f-b43437a90341","ios":"levelo://app?vid=5d66a1e1-407e-43b7-8a1f-b43437a90341"},"vehicle_type_id":"4","last_reported":1702483704,"current_range_meters":23200,"station_id":"ce4bhn12rcd13ifvqgqg","pricing_plan_id":"free"},{"bike_id":"8b01bb59-2645-444e-8775-2b8dfa773148","system_id":"levelo_inurba_marseille","lat":43.231793,"lon":5.400044,"is_reserved":false,"is_disabled":false,"rental_uris":{"android":"levelo://app?vid=8b01bb59-2645-444e-8775-2b8dfa773148","ios":"levelo://app?vid=8b01bb59-2645-444e-8775-2b8dfa773148"},"vehicle_type_id":"4","last_reported":1702483704,"current_range_meters":4000,"station_id":"ce4bhn12rcd13ifvqgqg","pricing_plan_id":"free"},{"bike_id":"a70842cf-3cdd-4227-8996-9e4cdf55219b","system_id":"levelo_inurba_marseille","lat":43.231793,"lon":5.400044,"is_reserved":false,"is_disabled":false,"rental_uris":{"android":"levelo://app?vid=a70842cf-3cdd-4227-8996-9e4cdf55219b","ios":"levelo://app?vid=a70842cf-3cdd-4227-8996-9e4cdf55219b"},"vehicle_type_id":"4","last_reported":1702483704,"current_range_meters":14400,"station_id":"ce4bhn12rcd13ifvqgqg","pricing_plan_id":"free"}]}}