{"last_updated":1700381334,"ttl":30,"version":"2.2","data":{"bikes":[{"bike_id":"28b45bf1-75a9-48c1-b248-6b251f71f427","system_id":"levelo_inurba_marseille","lat":43.309076,"lon":5.368465,"is_reserved":false,"is_disabled":false,"rental_uris":{"android":"levelo://app?vid=28b45bf1-75a9-48c1-b248-6b251f71f427","ios":"levelo://app?vid=28b45bf1-75a9-48c1-b248-6b251f71f427"},"vehicle_type_id":"4","last_reported":1700381334,"current_range_meters":14000,"station_id":"ce4bgn92rcd13ifvqbvg","pricing_plan_id":"free"},{"bike_id":"799fa044-789d-4cdf-b347-a3909665b9d5","system_id":"levelo_inurba_marseille","lat":43.314811,"lon":5.373103,"is_reserved":false,"is_disabled":false,"rental_uris":{"android":"levelo://app?vid=799fa044-789d-4cdf-b347-a3909665b9d5","ios":"levelo://app?vid=799fa044-789d-4cdf-b347-a3909665b9d5"},"vehicle_type_id":"4","last_reported":1700381334,"current_range_meters":14400,"station_id":"ce4bgt12rcd13ifvqcd0","pricing_plan_id":"free"},{"bike_id":"a7f6df4c-102b-4fa2-ab34-732971f6d3d3","system_id":"levelo_inurba_marseille","lat":43.309039,"lon":5.371797,"is_reserved":false,"is_disabled":false,"rental_uris":{"android":"levelo://app?vid=a7f6df4c-102b-4fa2-ab34-732971f6d3d3","ios":"levelo://app?vid=a7f6df4c-102b-4fa2-ab34-732971f6d3d3"},"vehicle_type_id":"4","last_reported":1700381334,"current_range_meters":23600,"station_id":"ce4bguh2rcd13ifvqckg","pricing_plan_id":"free"},{"bike_id":"3475d204-43b6-43d9-b615-ca1d0d58200e","system_id":"levelo_inurba_marseille","lat":43.30679,"lon":5.3679,"is_reserved":false,"is_disabled":false,"rental_uris":{"android":"levelo://app?vid=3475d204-43b6-43d9-b615-ca1d0d58200e","ios":"levelo://app?vid=3475d204-43b6-43d9-b615-ca1d0d58200e"},"vehicle_type_id":"4","last_reported":1700381334,"current_range_meters":11600,"station_id":"","pricing_plan_id":"free"},{"bike_id":"607819cf-a4fa-4b55-885d-29b97af7d346","system_id":"levelo_inurba_marseille","lat":43.30555,"lon":5.36705,"is_reserved":false,"is_disabled":false,"rental_uris":{"android":"levelo://app?vid=607819cf-a4fa-4b55-885d-29b97af7d346","ios":"levelo://app?vid=607819cf-a4fa-4b55-885d-29b97af7d346"},"vehicle_type_id":"4","last_reported":1700381334,"current_range_meters":0,"station_id":"ce4bgrp2rcd13ifvqc9g","pricing_plan_id":"free"},{"bike_id":"59e54b89-bdfc-4764-955d-35696999d873","system_id":"levelo_inurba_marseille","lat":43.305714,"lon":5.365633,"is_reserved":false,"is_disabled":false,"rental_uris":{"android":"levelo://app?vid=59e54b89-bdfc-4764-955d-35696999d873","ios":"levelo://app?vid=59e54b89-bdfc-4764-955d-35696999d873"},"vehicle_type_id":"4","last_reported":1700381334,"current_range_meters":12800,"station_id":"ce4bgs12rcd13ifvqcag","pricing_plan_id":"free"},{"bike_id":"09ccbac6-0f01-4cfb-8bb8-da5484277d5c","system_id":"levelo_inurba_marseille","lat":43.31952,"lon":5.371,"is_reserved":false,"is_disabled":false,"rental_uris":{"android":"levelo://app?vid=09ccbac6-0f01-4cfb-8bb8-da5484277d5c","ios":"levelo://app?vid=09ccbac6-0f01-4cfb-8bb8-da5484277d5c"},"vehicle_type_id":"4","last_reported":1700381334,"current_range_meters":1200,"station_id":"","pricing_plan_id":"free"},{"bike_id":"14cbc7f4-48b9-447b-916a-617e037a97d3","system_id":"levelo_inurba_marseille","lat":43.305989,"lon":5.37225,"is_reserved":false,"is_disabled":false,"rental_uris":{"android":"levelo://app?vid=14cbc7f4-48b9-447b-916a-617e037a97d3","ios":"levelo://app?vid=14cbc7f4-48b9-447b-916a-617e037a97d3"},"vehicle_type_id":"4","last_reported":1700381334,"current_range_meters":15600,"station_id":"ce4bgqh2rcd13ifvqc4g","pricing_plan_id":"free"},{"bike_id":"bb470fd6-a73a-4ec9-bacf-ed403c683c67","system_id":"levelo_inurba_marseille","lat":43.305989,"lon":5.37225,"is_reserved":false,"is_disabled":false,"rental_uris":{"android":"levelo://app?vid=bb470fd6-a73a-4ec9-bacf-ed403c683c67","ios":"levelo://app?vid=bb470fd6-a73a-4ec9-bacf-ed403c683c67"},"vehicle_type_id":"4","last_reported":1700381334,"current_range_meters":2000,"station_id":"ce4bgqh2rcd13ifvqc4g","pricing_plan_id":"free"},{"bike_id":"3eb74c67-99eb-4ab3-bef1-4f9fbde77b5a","system_id":"levelo_inurba_marseille","lat":43.305989,"lon":5.37225,"is_reserved":false,"is_disabled":false,"rental_uris":{"android":"levelo://app?vid=3eb74c67-99eb-4ab3-bef1-4f9fbde77b5a","ios":"levelo://app?vid=3eb74c67-99eb-4ab3-bef1-4f9fbde77b5a"},"vehicle_type_id":"4","last_reported":1700381334,"current_range_meters":31600,"station_id":"ce4bgqh2rcd13ifvqc4g","pricing_plan_id":"free"},{"bike_id":"dcbf9c93-0758-41cf-8699-4ede01d69428","system_id":"levelo_inurba_marseille","lat":43.308157,"lon":5.376466,"is_reserved":false,"is_disabled":false,"rental_uris":{"android":"levelo://app?vid=dcbf9c93-0758-41cf-8699-4ede01d69428","ios":"levelo://app?vid=dcbf9c93-0758-41cf-8699-4ede01d69428"},"vehicle_type_id":"4","last_reported":1700381334,"current_range_meters":12400,"station_id":"ce4bgv92rcd13ifvqcq0","pricing_plan_id":"free"},{"bike_id":"184737ea-30ec-475d-964a-e94f53249e42","system_id":"levelo_inurba_marseille","lat":43.307945,"lon":5.376487,"is_reserved":false,"is_disabled":false,"rental_uris":{"android":"levelo://app?vid=184737ea-30ec-475d-964a-e94f53249e42","ios":"levelo://app?vid=184737ea-30ec-475d-964a-e94f53249e42"},"vehicle_type_id":"4","last_reported":1700381334,"current_range_meters":28800,"station_id":"ce4bgv92rcd13ifvqcq0","pricing_plan_id":"free"},{"bike_id":"68149713-0167-4f17-95ab-db14393f9d1a","system_id":"levelo_inurba_marseille","lat":43.307945,"lon":5.376487,"is_reserved":false,"is_disabled":false,"rental_uris":{"android":"levelo://app?vid=68149713-0167-4f17-95ab-db14393f9d1a","ios":"levelo://app?vid=68149713-0167-4f17-95ab-db14393f9d1a"},"vehicle_type_id":"4","last_reported":1700381334,"current_range_meters":30800,"station_id":"ce4bgv92rcd13ifvqcq0","pricing_plan_id":"free"},{"bike_id":"44ffd2fe-8c40-4a32-9fbb-21ba366c522b","system_id":"levelo_inurba_marseille","lat":43.307945,"lon":5.376487,"is_reserved":false,"is_disabled":false,"rental_uris":{"android":"levelo://app?vid=44ffd2fe-8c40-4a32-9fbb-21ba366c522b","ios":"levelo://app?vid=44ffd2fe-8c40-4a32-9fbb-21ba366c522b"},"vehicle_type_id":"4","last_reported":1700381334,"current_range_meters":22400,"station_id":"ce4bgv92rcd13ifvqcq0","pricing_plan_id":"free"},{"bike_id":"621c6813-1569-4a9e-8f10-4a24632f0f5f","system_id":"levelo_inurba_marseille","lat":43.30782,"lon":5.37645,"is_reserved":false,"is_disabled":false,"rental_uris":{"android":"levelo://app?vid=621c6813-1569-4a9e-8f10-4a24632f0f5f","ios":"levelo://app?vid=621c6813-1569-4a9e-8f10-4a24632f0f5f"},"vehicle_type_id":"4","last_reported":1700381334,"current_range_meters":29200,"station_id":"ce4bgv92rcd13ifvqcq0","pricing_plan_id":"free"},{"bike_id":"54b29839-14db-4da8-80cb-74ee93185d65","system_id":"levelo_inurba_marseille","lat":43.307945,"lon":5.376487,"is_reserved":false,"is_disabled":false,"rental_uris":{"android":"levelo://app?vid=54b29839-14db-4da8-80cb-74ee93185d65","ios":"levelo://app?vid=54b29839-14db-4da8-80cb-74ee93185d65"},"vehicle_type_id":"4","last_reported":1700381334,"current_range_meters":31600,"station_id":"ce4bgv92rcd13ifvqcq0","pricing_plan_id":"free"},{"bike_id":"dfd8689c-38ea-4d64-aede-1f2ca434c891","system_id":"levelo_inurba_marseille","lat":43.307945,"lon":5.376487,"is_reserved":false,"is_disabled":false,"rental_uris":{"android":"levelo://app?vid=dfd8689c-38ea-4d64-aede-1f2ca434c891","ios":"levelo://app?vid=dfd8689c-38ea-4d64-aede-1f2ca434c891"},"vehicle_type_id":"4","last_reported":1700381334,"current_range_meters":18400,"station_id":"ce4bgv92rcd13ifvqcq0","pricing_plan_id":"free"},{"bike_id":"1e04415b-3b52-4cfa-88c9-3795153e0d28","system_id":"levelo_inurba_marseille","lat":43.307945,"lon":5.376487,"is_reserved":false,"is_disabled":false,"rental_uris":{"android":"levelo://app?vid=1e04415b-3b52-4cfa-88c9-3795153e0d28","ios":"levelo://app?vid=1e04415b-3b52-4cfa-88c9-3795153e0d28"},"vehicle_type_id":"4","last_reported":1700381334,"current_range_meters":27600,"station_id":"ce4bgv92rcd13ifvqcq0","pricing_plan_id":"free"},{"bike_id":"d6cccfa3-d2c2-4ba9-830b-fe64f36e0212","system_id":"levelo_inurba_marseille","lat":43.317075,"lon":5.377367,"is_reserved":false,"is_disabled":false,"rental_uris":{"android":"levelo://app?vid=d6cccfa3-d2c2-4ba9-830b-fe64f36e0212","ios":"levelo://app?vid=d6cccfa3-d2c2-4ba9-830b-fe64f36e0212"},"vehicle_type_id":"4","last_reported":1700381334,"current_range_meters":31200,"station_id":"ce4bgth2rcd13ifvqch0","pricing_plan_id":"free"},{"bike_id":"887f1c16-d12f-40d6-974e-18fcc06e65f2","system_id":"levelo_inurba_marseille","lat":43.303046,"lon":5.368981,"is_reserved":false,"is_disabled":false,"rental_uris":{"android":"levelo://app?vid=887f1c16-d12f-40d6-974e-18fcc06e65f2","ios":"levelo://app?vid=887f1c16-d12f-40d6-974e-18fcc06e65f2"},"vehicle_type_id":"4","last_reported":1700381334,"current_range_meters":15200,"station_id":"ce4bgqh2rcd13ifvqc5g","pricing_plan_id":"free"},{"bike_id":"4edd2089-dcf6-494a-a79b-a2b4aa1b567e","system_id":"levelo_inurba_marseille","lat":43.303046,"lon":5.368981,"is_reserved":false,"is_disabled":false,"rental_uris":{"android":"levelo://app?vid=4edd2089-dcf6-494a-a79b-a2b4aa1b567e","ios":"levelo://app?vid=4edd2089-dcf6-494a-a79b-a2b4aa1b567e"},"vehicle_type_id":"4","last_reported":1700381334,"current_range_meters":6800,"station_id":"ce4bgqh2rcd13ifvqc5g","pricing_plan_id":"free"},{"bike_id":"0e1e11a1-bf62-446a-b589-b347992da176","system_id":"levelo_inurba_marseille","lat":43.304606,"lon":5.379026,"is_reserved":false,"is_disabled":false,"rental_uris":{"android":"levelo://app?vid=0e1e11a1-bf62-446a-b589-b347992da176","ios":"levelo://app?vid=0e1e11a1-bf62-446a-b589-b347992da176"},"vehicle_type_id":"4","last_reported":1700381334,"current_range_meters":27600,"station_id":"ce4bgup2rcd13ifvqcn0","pricing_plan_id":"free"},{"bike_id":"330e873e-779f-4127-b4c4-68691c2ce1dd","system_id":"levelo_inurba_marseille","lat":43.304606,"lon":5.379026,"is_reserved":false,"is_disabled":false,"rental_uris":{"android":"levelo://app?vid=330e873e-779f-4127-b4c4-68691c2ce1dd","ios":"levelo://app?vid=330e873e-779f-4127-b4c4-68691c2ce1dd"},"vehicle_type_id":"4","last_reported":1700381334,"current_range_meters":9200,"station_id":"ce4bgup2rcd13ifvqcn0","pricing_plan_id":"free"},{"bike_id":"a378361e-91ae-4591-aeb4-2aa9e10695b9","system_id":"levelo_inurba_marseille","lat":43.30474,"lon":5.37902,"is_reserved":false,"is_disabled":false,"rental_uris":{"android":"levelo://app?vid=a378361e-91ae-4591-aeb4-2aa9e10695b9","ios":"levelo://app?vid=a378361e-91ae-4591-aeb4-2aa9e10695b9"},"vehicle_type_id":"4","last_reported":1700381334,"current_range_meters":26800,"station_id":"ce4bgup2rcd13ifvqcn0","pricing_plan_id":"free"},{"bike_id":"22f30ccb-1773-4b68-9d34-5f3b0feb1aa8","system_id":"levelo_inurba_marseille","lat":43.304606,"lon":5.379026,"is_reserved":false,"is_disabled":false,"rental_uris":{"android":"levelo://app?vid=22f30ccb-1773-4b68-9d34-5f3b0feb1aa8","ios":"levelo://app?vid=22f30ccb-1773-4b68-9d34-5f3b0feb1aa8"},"vehicle_type_id":"4","last_reported":1700381334,"current_range_meters":29200,"station_id":"ce4bgup2rcd13ifvqcn0","pricing_plan_id":"free"},{"bike_id":"3fca04da-f4bc-4a31-afef-de29bdaf525b","system_id":"levelo_inurba_marseille","lat":43.304747,"lon":5.37904,"is_reserved":false,"is_disabled":false,"rental_uris":{"android":"levelo://app?vid=3fca04da-f4bc-4a31-afef-de29bdaf525b","ios":"levelo://app?vid=3fca04da-f4bc-4a31-afef-de29bdaf525b"},"vehicle_type_id":"4","last_reported":1700381334,"current_range_meters":28000,"station_id":"ce4bgup2rcd13ifvqcn0","pricing_plan_id":"free"},{"bike_id":"4b958746-7ba6-433f-8dc0-44ca2244cf0d","system_id":"levelo_inurba_marseille","lat":43.30468,"lon":5.378961,"is_reserved":false,"is_disabled":false,"rental_uris":{"android":"levelo://app?vid=4b958746-7ba6-433f-8dc0-44ca2244cf0d","ios":"levelo://app?vid=4b958746-7ba6-433f-8dc0-44ca2244cf0d"},"vehicle_type_id":"4","last_reported":1700381334,"current_range_meters":25200,"station_id":"ce4bgup2rcd13ifvqcn0","pricing_plan_id":"free"},{"bike_id":"2c4c28a3-9b65-4307-afaa-316795d2dc86","system_id":"levelo_inurba_marseille","lat":43.304673,"lon":5.378963,"is_reserved":false,"is_disabled":false,"rental_uris":{"android":"levelo://app?vid=2c4c28a3-9b65-4307-afaa-316795d2dc86","ios":"levelo://app?vid=2c4c28a3-9b65-4307-afaa-316795d2dc86"},"vehicle_type_id":"4","last_reported":1700381334,"current_range_meters":24800,"station_id":"ce4bgup2rcd13ifvqcn0","pricing_plan_id":"free"},{"bike_id":"1602a82f-895f-4107-a118-dccfb9aab958","system_id":"levelo_inurba_marseille","lat":43.304667,"lon":5.378992,"is_reserved":false,"is_disabled":false,"rental_uris":{"android":"levelo://app?vid=1602a82f-895f-4107-a118-dccfb9aab958","ios":"levelo://app?vid=1602a82f-895f-4107-a118-dccfb9aab958"},"vehicle_type_id":"4","last_reported":1700381334,"current_range_meters":19600,"station_id":"ce4bgup2rcd13ifvqcn0","pricing_plan_id":"free"},{"bike_id":"cc038ebd-e421-4aec-9968-1b924053831b","system_id":"levelo_inurba_marseille","lat":43.30467,"lon":5.379,"is_reserved":false,"is_disabled":false,"rental_uris":{"android":"levelo://app?vid=cc038ebd-e421-4aec-9968-1b924053831b","ios":"levelo://app?vid=cc038ebd-e421-4aec-9968-1b924053831b"},"vehicle_type_id":"4","last_reported":1700381334,"current_range_meters":26400,"station_id":"ce4bgup2rcd13ifvqcn0","pricing_plan_id":"free"},{"bike_id":"ced210ce-d921-414a-a93d-04da427dc608","system_id":"levelo_inurba_marseille","lat":43.30462,"lon":5.37896,"is_reserved":false,"is_disabled":false,"rental_uris":{"android":"levelo://app?vid=ced210ce-d921-414a-a93d-04da427dc608","ios":"levelo://app?vid=ced210ce-d921-414a-a93d-04da427dc608"},"vehicle_type_id":"4","last_reported":1700381334,"current_range_meters":24400,"station_id":"ce4bgup2rcd13ifvqcn0","pricing_plan_id":"free"},{"bike_id":"c89d295a-85f6-4918-bcca-c3e343b8514b","system_id":"levelo_inurba_marseille","lat":43.304606,"lon":5.379026,"is_reserved":false,"is_disabled":false,"rental_uris":{"android":"levelo://app?vid=c89d295a-85f6-4918-bcca-c3e343b8514b","ios":"levelo://app?vid=c89d295a-85f6-4918-bcca-c3e343b8514b"},"vehicle_type_id":"4","last_reported":1700381334,"current_range_meters":30400,"station_id":"ce4bgup2rcd13ifvqcn0","pricing_plan_id":"free"},{"bike_id":"e4aaf8cd-7065-4f66-8d7a-90ea4770189e","system_id":"levelo_inurba_marseille","lat":43.304665,"lon":5.379034,"is_reserved":false,"is_disabled":false,"rental_uris":{"android":"levelo://app?vid=e4aaf8cd-7065-4f66-8d7a-90ea4770189e","ios":"levelo://app?vid=e4aaf8cd-7065-4f66-8d7a-90ea4770189e"},"vehicle_type_id":"4","last_reported":1700381334,"current_range_meters":30000,"station_id":"ce4bgup2rcd13ifvqcn0","pricing_plan_id":"free"},{"bike_id":"0feb477c-9ab0-4138-b193-e8ebd1c8aa73","system_id":"levelo_inurba_marseille","lat":43.304674,"lon":5.379059,"is_reserved":false,"is_disabled":false,"rental_uris":{"android":"levelo://app?vid=0feb477c-9ab0-4138-b193-e8ebd1c8aa73","ios":"levelo://app?vid=0feb477c-9ab0-4138-b193-e8ebd1c8aa73"},"vehicle_type_id":"4","last_reported":1700381334,"current_range_meters":30400,"station_id":"ce4bgup2rcd13ifvqcn0","pricing_plan_id":"free"},{"bike_id":"77c597bb-5d1d-4ea2-851a-1fefefef1707","system_id":"levelo_inurba_marseille","lat":43.30466,"lon":5.379048,"is_reserved":false,"is_disabled":false,"rental_uris":{"android":"levelo://app?vid=77c597bb-5d1d-4ea2-851a-1fefefef1707","ios":"levelo://app?vid=77c597bb-5d1d-4ea2-851a-1fefefef1707"},"vehicle_type_id":"4","last_reported":1700381334,"current_range_meters":29600,"station_id":"ce4bgup2rcd13ifvqcn0","pricing_plan_id":"free"},{"bike_id":"9aaa69a6-5c78-4738-906f-c643d77e4a17","system_id":"levelo_inurba_marseille","lat":43.304606,"lon":5.379026,"is_reserved":false,"is_disabled":false,"rental_uris":{"android":"levelo://app?vid=9aaa69a6-5c78-4738-906f-c643d77e4a17","ios":"levelo://app?vid=9aaa69a6-5c78-4738-906f-c643d77e4a17"},"vehicle_type_id":"4","last_reported":1700381334,"current_range_meters":31600,"station_id":"ce4bgup2rcd13ifvqcn0","pricing_plan_id":"free"},{"bike_id":"4dc95d59-02af-4a20-b141-d642fd86d642","system_id":"levelo_inurba_marseille","lat":43.304606,"lon":5.379026,"is_reserved":false,"is_disabled":false,"rental_uris":{"android":"levelo://app?vid=4dc95d59-02af-4a20-b141-d642fd86d642","ios":"levelo://app?vid=4dc95d59-02af-4a20-b141-d642fd86d642"},"vehicle_type_id":"4","last_reported":1700381334,"current_range_meters":30800,"station_id":"ce4bgup2rcd13ifvqcn0","pricing_plan_id":"free"},{"bike_id":"03d2071b-3201-4087-a740-ebc7be9f2f48","system_id":"levelo_inurba_marseille","lat":43.304606,"lon":5.379026,"is_reserved":false,"is_disabled":false,"rental_uris":{"android":"levelo://app?vid=03d2071b-3201-4087-a740-ebc7be9f2f48","ios":"levelo://app?vid=03d2071b-3201-4087-a740-ebc7be9f2f48"},"vehicle_type_id":"4","last_reported":1700381334,"current_range_meters":27200,"station_id":"ce4bgup2rcd13ifvqcn0","pricing_plan_id":"free"},{"bike_id":"e21c2867-58fe-412d-804f-e18a1cea66e7","system_id":"levelo_inurba_marseille","lat":43.304606,"lon":5.379026,"is_reserved":false,"is_disabled":false,"rental_uris":{"android":"levelo://app?vid=e21c2867-58fe-412d-804f-e18a1cea66e7","ios":"levelo://app?vid=e21c2867-58fe-412d-804f-e18a1cea66e7"},"vehicle_type_id":"4","last_reported":1700381334,"current_range_meters":28000,"station_id":"ce4bgup2rcd13ifvqcn0","pricing_plan_id":"free"},{"bike_id":"994de4fb-8d2a-465f-8067-2bed03c4295d","system_id":"levelo_inurba_marseille","lat":43.304606,"lon":5.379026,"is_reserved":false,"is_disabled":false,"rental_uris":{"android":"levelo://app?vid=994de4fb-8d2a-465f-8067-2bed03c4295d","ios":"levelo://app?vid=994de4fb-8d2a-465f-8067-2bed03c4295d"},"vehicle_type_id":"4","last_reported":1700381334,"current_range_meters":30400,"station_id":"ce4bgup2rcd13ifvqcn0","pricing_plan_id":"free"},{"bike_id":"d1ef4304-d529-490c-a34d-17bad09a4dc6","system_id":"levelo_inurba_marseille","lat":43.30458,"lon":5.37912,"is_reserved":false,"is_disabled":false,"rental_uris":{"android":"levelo://app?vid=d1ef4304-d529-490c-a34d-17bad09a4dc6","ios":"levelo://app?vid=d1ef4304-d529-490c-a34d-17bad09a4dc6"},"vehicle_type_id":"4","last_reported":1700381334,"current_range_meters":24400,"station_id":"ce4bgup2rcd13ifvqcn0","pricing_plan_id":"free"},{"bike_id":"793bd78b-5063-4793-9678-c60d77847e13","system_id":"levelo_inurba_marseille","lat":43.302784,"lon":5.377158,"is_reserved":false,"is_disabled":false,"rental_uris":{"android":"levelo://app?vid=793bd78b-5063-4793-9678-c60d77847e13","ios":"levelo://app?vid=793bd78b-5063-4793-9678-c60d77847e13"},"vehicle_type_id":"4","last_reported":1700381334,"current_range_meters":25600,"station_id":"ce4bguh2rcd13ifvqcj0","pricing_plan_id":"free"},{"bike_id":"752146dd-b916-4cde-a656-1d7537983ebe","system_id":"levelo_inurba_marseille","lat":43.302784,"lon":5.377158,"is_reserved":false,"is_disabled":false,"rental_uris":{"android":"levelo://app?vid=752146dd-b916-4cde-a656-1d7537983ebe","ios":"levelo://app?vid=752146dd-b916-4cde-a656-1d7537983ebe"},"vehicle_type_id":"4","last_reported":1700381334,"current_range_meters":25600,"station_id":"ce4bguh2rcd13ifvqcj0","pricing_plan_id":"free"},{"bike_id":"abb5a752-dcd4-4467-a360-e886684f7426","system_id":"levelo_inurba_marseille","lat":43.32003,"lon":5.38156,"is_reserved":false,"is_disabled":false,"rental_uris":{"android":"levelo://app?vid=abb5a752-dcd4-4467-a360-e886684f7426","ios":"levelo://app?vid=abb5a752-dcd4-4467-a360-e886684f7426"},"vehicle_type_id":"4","last_reported":1700381334,"current_range_meters":26000,"station_id":"ce4bhr12rcd13ifvqhpg","pricing_plan_id":"free"},{"bike_id":"d39152dc-fb7a-4c2f-bc48-1d91712f2978","system_id":"levelo_inurba_marseille","lat":43.299732,"lon":5.371798,"is_reserved":false,"is_disabled":false,"rental_uris":{"android":"levelo://app?vid=d39152dc-fb7a-4c2f-bc48-1d91712f2978","ios":"levelo://app?vid=d39152dc-fb7a-4c2f-bc48-1d91712f2978"},"vehicle_type_id":"4","last_reported":1700381334,"current_range_meters":0,"station_id":"ce4bgr92rcd13ifvqc7g","pricing_plan_id":"free"},{"bike_id":"5da9dea2-bd9f-4746-b637-56e44ea9e587","system_id":"levelo_inurba_marseille","lat":43.298489,"lon":5.362942,"is_reserved":false,"is_disabled":false,"rental_uris":{"android":"levelo://app?vid=5da9dea2-bd9f-4746-b637-56e44ea9e587","ios":"levelo://app?vid=5da9dea2-bd9f-4746-b637-56e44ea9e587"},"vehicle_type_id":"4","last_reported":1700381334,"current_range_meters":0,"station_id":"","pricing_plan_id":"free"},{"bike_id":"5e6e75b6-7e48-465e-9a25-74236abaa939","system_id":"levelo_inurba_marseille","lat":43.298433,"lon":5.362774,"is_reserved":false,"is_disabled":false,"rental_uris":{"android":"levelo://app?vid=5e6e75b6-7e48-465e-9a25-74236abaa939","ios":"levelo://app?vid=5e6e75b6-7e48-465e-9a25-74236abaa939"},"vehicle_type_id":"4","last_reported":1700381334,"current_range_meters":26400,"station_id":"ce4bgpp2rcd13ifvqc3g","pricing_plan_id":"free"},{"bike_id":"22e3ead1-8760-477f-ac72-dbef755bd087","system_id":"levelo_inurba_marseille","lat":43.311722,"lon":5.387247,"is_reserved":false,"is_disabled":false,"rental_uris":{"android":"levelo://app?vid=22e3ead1-8760-477f-ac72-dbef755bd087","ios":"levelo://app?vid=22e3ead1-8760-477f-ac72-dbef755bd087"},"vehicle_type_id":"4","last_reported":1700381334,"current_range_meters":29200,"station_id":"ce4bgv12rcd13ifvqcp0","pricing_plan_id":"free"},{"bike_id":"842acf58-fbe4-45bd-8672-072917e8c3b0","system_id":"levelo_inurba_marseille","lat":43.311722,"lon":5.387247,"is_reserved":false,"is_disabled":false,"rental_uris":{"android":"levelo://app?vid=842acf58-fbe4-45bd-8672-072917e8c3b0","ios":"levelo://app?vid=842acf58-fbe4-45bd-8672-072917e8c3b0"},"vehicle_type_id":"4","last_reported":1700381334,"current_range_meters":25600,"station_id":"ce4bgv12rcd13ifvqcp0","pricing_plan_id":"free"},{"bike_id":"478752d1-9aa7-4c56-bf90-4563b97f5f63","system_id":"levelo_inurba_marseille","lat":43.311722,"lon":5.387247,"is_reserved":false,"is_disabled":false,"rental_uris":{"android":"levelo://app?vid=478752d1-9aa7-4c56-bf90-4563b97f5f63","ios":"levelo://app?vid=478752d1-9aa7-4c56-bf90-4563b97f5f63"},"vehicle_type_id":"4","last_reported":1700381334,"current_range_meters":31200,"station_id":"ce4bgv12rcd13ifvqcp0","pricing_plan_id":"free"},{"bike_id":"1d9a662a-701b-4b0d-b857-90749b89fd9c","system_id":"levelo_inurba_marseille","lat":43.299067,"lon":5.37473,"is_reserved":false,"is_disabled":false,"rental_uris":{"android":"levelo://app?vid=1d9a662a-701b-4b0d-b857-90749b89fd9c","ios":"levelo://app?vid=1d9a662a-701b-4b0d-b857-90749b89fd9c"},"vehicle_type_id":"4","last_reported":1700381334,"current_range_meters":23600,"station_id":"ce4bgjh2rcd13ifvqbg0","pricing_plan_id":"free"},{"bike_id":"8d3386a0-e16b-44b3-bb44-6167c6f1810e","system_id":"levelo_inurba_marseille","lat":43.297163,"lon":5.365866,"is_reserved":false,"is_disabled":false,"rental_uris":{"android":"levelo://app?vid=8d3386a0-e16b-44b3-bb44-6167c6f1810e","ios":"levelo://app?vid=8d3386a0-e16b-44b3-bb44-6167c6f1810e"},"vehicle_type_id":"4","last_reported":1700381334,"current_range_meters":30400,"station_id":"ce4bgn12rcd13ifvqbt0","pricing_plan_id":"free"},{"bike_id":"e64c21ef-86f8-4f0a-a8d2-787579e4b5f7","system_id":"levelo_inurba_marseille","lat":43.2968,"lon":5.37291,"is_reserved":false,"is_disabled":false,"rental_uris":{"android":"levelo://app?vid=e64c21ef-86f8-4f0a-a8d2-787579e4b5f7","ios":"levelo://app?vid=e64c21ef-86f8-4f0a-a8d2-787579e4b5f7"},"vehicle_type_id":"4","last_reported":1700381334,"current_range_meters":30400,"station_id":"ce4bgk12rcd13ifvqbj0","pricing_plan_id":"free"},{"bike_id":"60a7f6f9-6212-4e51-9320-5917a061ab53","system_id":"levelo_inurba_marseille","lat":43.296833,"lon":5.372882,"is_reserved":false,"is_disabled":false,"rental_uris":{"android":"levelo://app?vid=60a7f6f9-6212-4e51-9320-5917a061ab53","ios":"levelo://app?vid=60a7f6f9-6212-4e51-9320-5917a061ab53"},"vehicle_type_id":"4","last_reported":1700381334,"current_range_meters":3600,"station_id":"ce4bgk12rcd13ifvqbj0","pricing_plan_id":"free"},{"bike_id":"8a9cf4c5-6f16-4a1f-9ef7-a89e0f4573e3","system_id":"levelo_inurba_marseille","lat":43.2968,"lon":5.37291,"is_reserved":false,"is_disabled":false,"rental_uris":{"android":"levelo://app?vid=8a9cf4c5-6f16-4a1f-9ef7-a89e0f4573e3","ios":"levelo://app?vid=8a9cf4c5-6f16-4a1f-9ef7-a89e0f4573e3"},"vehicle_type_id":"4","last_reported":1700381334,"current_range_meters":27600,"station_id":"ce4bgk12rcd13ifvqbj0","pricing_plan_id":"free"},{"bike_id":"99b6aab7-be3e-41b8-b806-8cf381908e49","system_id":"levelo_inurba_marseille","lat":43.296131,"lon":5.370791,"is_reserved":false,"is_disabled":false,"rental_uris":{"android":"levelo://app?vid=99b6aab7-be3e-41b8-b806-8cf381908e49","ios":"levelo://app?vid=99b6aab7-be3e-41b8-b806-8cf381908e49"},"vehicle_type_id":"4","last_reported":1700381334,"current_range_meters":26800,"station_id":"ce4bgnh2rcd13ifvqc0g","pricing_plan_id":"free"},{"bike_id":"ef8ce7f4-d60a-48a6-8437-beb11e462419","system_id":"levelo_inurba_marseille","lat":43.296129,"lon":5.370777,"is_reserved":false,"is_disabled":false,"rental_uris":{"android":"levelo://app?vid=ef8ce7f4-d60a-48a6-8437-beb11e462419","ios":"levelo://app?vid=ef8ce7f4-d60a-48a6-8437-beb11e462419"},"vehicle_type_id":"4","last_reported":1700381334,"current_range_meters":17200,"station_id":"ce4bgnh2rcd13ifvqc0g","pricing_plan_id":"free"},{"bike_id":"20b1bf74-ac98-4d89-b81e-a4fecefebccf","system_id":"levelo_inurba_marseille","lat":43.296131,"lon":5.370773,"is_reserved":false,"is_disabled":false,"rental_uris":{"android":"levelo://app?vid=20b1bf74-ac98-4d89-b81e-a4fecefebccf","ios":"levelo://app?vid=20b1bf74-ac98-4d89-b81e-a4fecefebccf"},"vehicle_type_id":"4","last_reported":1700381334,"current_range_meters":22400,"station_id":"ce4bgnh2rcd13ifvqc0g","pricing_plan_id":"free"},{"bike_id":"e7a37e8f-98cc-4c1d-b0fb-6436caf50ad3","system_id":"levelo_inurba_marseille","lat":43.296131,"lon":5.370773,"is_reserved":false,"is_disabled":false,"rental_uris":{"android":"levelo://app?vid=e7a37e8f-98cc-4c1d-b0fb-6436caf50ad3","ios":"levelo://app?vid=e7a37e8f-98cc-4c1d-b0fb-6436caf50ad3"},"vehicle_type_id":"4","last_reported":1700381334,"current_range_meters":25200,"station_id":"ce4bgnh2rcd13ifvqc0g","pricing_plan_id":"free"},{"bike_id":"0577e793-a086-4c2e-b999-09a92cb61cc9","system_id":"levelo_inurba_marseille","lat":43.29573,"lon":5.367355,"is_reserved":false,"is_disabled":false,"rental_uris":{"android":"levelo://app?vid=0577e793-a086-4c2e-b999-09a92cb61cc9","ios":"levelo://app?vid=0577e793-a086-4c2e-b999-09a92cb61cc9"},"vehicle_type_id":"4","last_reported":1700381334,"current_range_meters":28800,"station_id":"ce4bgph2rcd13ifvqc2g","pricing_plan_id":"free"},{"bike_id":"a0bec04b-021f-436d-b881-2c075cb314ca","system_id":"levelo_inurba_marseille","lat":43.296935,"lon":5.376544,"is_reserved":false,"is_disabled":false,"rental_uris":{"android":"levelo://app?vid=a0bec04b-021f-436d-b881-2c075cb314ca","ios":"levelo://app?vid=a0bec04b-021f-436d-b881-2c075cb314ca"},"vehicle_type_id":"4","last_reported":1700381334,"current_range_meters":28800,"station_id":"ce4bgkh2rcd13ifvqbl0","pricing_plan_id":"free"},{"bike_id":"b8d19ce1-ccac-403a-aad8-682f4a86e250","system_id":"levelo_inurba_marseille","lat":43.296935,"lon":5.376544,"is_reserved":false,"is_disabled":false,"rental_uris":{"android":"levelo://app?vid=b8d19ce1-ccac-403a-aad8-682f4a86e250","ios":"levelo://app?vid=b8d19ce1-ccac-403a-aad8-682f4a86e250"},"vehicle_type_id":"4","last_reported":1700381334,"current_range_meters":27600,"station_id":"ce4bgkh2rcd13ifvqbl0","pricing_plan_id":"free"},{"bike_id":"f1cf567a-2b65-44cf-812f-8690a7110496","system_id":"levelo_inurba_marseille","lat":43.295748,"lon":5.37522,"is_reserved":false,"is_disabled":false,"rental_uris":{"android":"levelo://app?vid=f1cf567a-2b65-44cf-812f-8690a7110496","ios":"levelo://app?vid=f1cf567a-2b65-44cf-812f-8690a7110496"},"vehicle_type_id":"4","last_reported":1700381334,"current_range_meters":28800,"station_id":"ce4bgh92rcd13ifvqb50","pricing_plan_id":"free"},{"bike_id":"f8722a23-4246-4a86-bfc3-19588a3dc8ba","system_id":"levelo_inurba_marseille","lat":43.29571,"lon":5.37494,"is_reserved":false,"is_disabled":false,"rental_uris":{"android":"levelo://app?vid=f8722a23-4246-4a86-bfc3-19588a3dc8ba","ios":"levelo://app?vid=f8722a23-4246-4a86-bfc3-19588a3dc8ba"},"vehicle_type_id":"4","last_reported":1700381334,"current_range_meters":27200,"station_id":"ce4bgh92rcd13ifvqb50","pricing_plan_id":"free"},{"bike_id":"189525e1-6d57-46b0-b41b-80d13d3fae28","system_id":"levelo_inurba_marseille","lat":43.304274,"lon":5.388873,"is_reserved":false,"is_disabled":false,"rental_uris":{"android":"levelo://app?vid=189525e1-6d57-46b0-b41b-80d13d3fae28","ios":"levelo://app?vid=189525e1-6d57-46b0-b41b-80d13d3fae28"},"vehicle_type_id":"4","last_reported":1700381334,"current_range_meters":30800,"station_id":"ce4bgk12rcd13ifvqbi0","pricing_plan_id":"free"},{"bike_id":"e1a26c65-9674-41d1-a7ff-3bbe1b0524c6","system_id":"levelo_inurba_marseille","lat":43.304274,"lon":5.388873,"is_reserved":false,"is_disabled":false,"rental_uris":{"android":"levelo://app?vid=e1a26c65-9674-41d1-a7ff-3bbe1b0524c6","ios":"levelo://app?vid=e1a26c65-9674-41d1-a7ff-3bbe1b0524c6"},"vehicle_type_id":"4","last_reported":1700381334,"current_range_meters":20800,"station_id":"ce4bgk12rcd13ifvqbi0","pricing_plan_id":"free"},{"bike_id":"afb9a2d4-f96e-41c4-81a7-1fe1c834c18b","system_id":"levelo_inurba_marseille","lat":43.295748,"lon":5.37522,"is_reserved":false,"is_disabled":false,"rental_uris":{"android":"levelo://app?vid=afb9a2d4-f96e-41c4-81a7-1fe1c834c18b","ios":"levelo://app?vid=afb9a2d4-f96e-41c4-81a7-1fe1c834c18b"},"vehicle_type_id":"4","last_reported":1700381334,"current_range_meters":26400,"station_id":"ce4bgh92rcd13ifvqb50","pricing_plan_id":"free"},{"bike_id":"67ffd28a-0325-489b-a10f-d90500122751","system_id":"levelo_inurba_marseille","lat":43.295748,"lon":5.37522,"is_reserved":false,"is_disabled":false,"rental_uris":{"android":"levelo://app?vid=67ffd28a-0325-489b-a10f-d90500122751","ios":"levelo://app?vid=67ffd28a-0325-489b-a10f-d90500122751"},"vehicle_type_id":"4","last_reported":1700381334,"current_range_meters":30400,"station_id":"ce4bgh92rcd13ifvqb50","pricing_plan_id":"free"},{"bike_id":"3e3e92fe-39b7-4933-99ff-3747b28b5d69","system_id":"levelo_inurba_marseille","lat":43.328154,"lon":5.380034,"is_reserved":false,"is_disabled":false,"rental_uris":{"android":"levelo://app?vid=3e3e92fe-39b7-4933-99ff-3747b28b5d69","ios":"levelo://app?vid=3e3e92fe-39b7-4933-99ff-3747b28b5d69"},"vehicle_type_id":"4","last_reported":1700381334,"current_range_meters":6800,"station_id":"","pricing_plan_id":"free"},{"bike_id":"f47bd0e0-04fb-42f7-8da9-808e364e36b4","system_id":"levelo_inurba_marseille","lat":43.295748,"lon":5.37522,"is_reserved":false,"is_disabled":false,"rental_uris":{"android":"levelo://app?vid=f47bd0e0-04fb-42f7-8da9-808e364e36b4","ios":"levelo://app?vid=f47bd0e0-04fb-42f7-8da9-808e364e36b4"},"vehicle_type_id":"4","last_reported":1700381334,"current_range_meters":27600,"station_id":"ce4bgh92rcd13ifvqb50","pricing_plan_id":"free"},{"bike_id":"219e3465-5ce6-4812-b066-d6749ee6a914","system_id":"levelo_inurba_marseille","lat":43.296058,"lon":5.37705,"is_reserved":false,"is_disabled":false,"rental_uris":{"android":"levelo://app?vid=219e3465-5ce6-4812-b066-d6749ee6a914","ios":"levelo://app?vid=219e3465-5ce6-4812-b066-d6749ee6a914"},"vehicle_type_id":"4","last_reported":1700381334,"current_range_meters":27600,"station_id":"ce4bgi92rcd13ifvqb90","pricing_plan_id":"free"},{"bike_id":"b5040dee-1e96-4bf7-b417-f6f0be499157","system_id":"levelo_inurba_marseille","lat":43.296,"lon":5.37715,"is_reserved":false,"is_disabled":false,"rental_uris":{"android":"levelo://app?vid=b5040dee-1e96-4bf7-b417-f6f0be499157","ios":"levelo://app?vid=b5040dee-1e96-4bf7-b417-f6f0be499157"},"vehicle_type_id":"4","last_reported":1700381334,"current_range_meters":28800,"station_id":"ce4bgi92rcd13ifvqb90","pricing_plan_id":"free"},{"bike_id":"5f835015-76f3-4c40-8496-53d498110d81","system_id":"levelo_inurba_marseille","lat":43.297794,"lon":5.370888,"is_reserved":false,"is_disabled":false,"rental_uris":{"android":"levelo://app?vid=5f835015-76f3-4c40-8496-53d498110d81","ios":"levelo://app?vid=5f835015-76f3-4c40-8496-53d498110d81"},"vehicle_type_id":"4","last_reported":1700381334,"current_range_meters":6400,"station_id":"ce4bgop2rcd13ifvqc1g","pricing_plan_id":"free"},{"bike_id":"55ced206-3dd8-4767-bd2a-0d9ab879e673","system_id":"levelo_inurba_marseille","lat":43.29597,"lon":5.37717,"is_reserved":false,"is_disabled":false,"rental_uris":{"android":"levelo://app?vid=55ced206-3dd8-4767-bd2a-0d9ab879e673","ios":"levelo://app?vid=55ced206-3dd8-4767-bd2a-0d9ab879e673"},"vehicle_type_id":"4","last_reported":1700381334,"current_range_meters":26400,"station_id":"ce4bgi92rcd13ifvqb90","pricing_plan_id":"free"},{"bike_id":"dbe2b063-e1ef-4bc8-83cd-57dbab686d5d","system_id":"levelo_inurba_marseille","lat":43.295279,"lon":5.375048,"is_reserved":false,"is_disabled":false,"rental_uris":{"android":"levelo://app?vid=dbe2b063-e1ef-4bc8-83cd-57dbab686d5d","ios":"levelo://app?vid=dbe2b063-e1ef-4bc8-83cd-57dbab686d5d"},"vehicle_type_id":"4","last_reported":1700381334,"current_range_meters":23200,"station_id":"ce4bgkp2rcd13ifvqbmg","pricing_plan_id":"free"},{"bike_id":"ec0336ce-2d28-49a6-b7ec-963ef314875e","system_id":"levelo_inurba_marseille","lat":43.29515,"lon":5.37496,"is_reserved":false,"is_disabled":false,"rental_uris":{"android":"levelo://app?vid=ec0336ce-2d28-49a6-b7ec-963ef314875e","ios":"levelo://app?vid=ec0336ce-2d28-49a6-b7ec-963ef314875e"},"vehicle_type_id":"4","last_reported":1700381334,"current_range_meters":28400,"station_id":"ce4bgkp2rcd13ifvqbmg","pricing_plan_id":"free"},{"bike_id":"e145a3f7-00ac-4f8f-bfe5-435bc38ccaf7","system_id":"levelo_inurba_marseille","lat":43.293801,"lon":5.363066,"is_reserved":false,"is_disabled":false,"rental_uris":{"android":"levelo://app?vid=e145a3f7-00ac-4f8f-bfe5-435bc38ccaf7","ios":"levelo://app?vid=e145a3f7-00ac-4f8f-bfe5-435bc38ccaf7"},"vehicle_type_id":"4","last_reported":1700381334,"current_range_meters":24400,"station_id":"","pricing_plan_id":"free"},{"bike_id":"4eef38cc-64cf-4f4d-8d5b-99bd9d3b1b37","system_id":"levelo_inurba_marseille","lat":43.293215,"lon":5.371108,"is_reserved":false,"is_disabled":false,"rental_uris":{"android":"levelo://app?vid=4eef38cc-64cf-4f4d-8d5b-99bd9d3b1b37","ios":"levelo://app?vid=4eef38cc-64cf-4f4d-8d5b-99bd9d3b1b37"},"vehicle_type_id":"4","last_reported":1700381334,"current_range_meters":25600,"station_id":"","pricing_plan_id":"free"},{"bike_id":"64527639-9dc6-4b30-9f68-e65bbe87a755","system_id":"levelo_inurba_marseille","lat":43.29289,"lon":5.36846,"is_reserved":false,"is_disabled":false,"rental_uris":{"android":"levelo://app?vid=64527639-9dc6-4b30-9f68-e65bbe87a755","ios":"levelo://app?vid=64527639-9dc6-4b30-9f68-e65bbe87a755"},"vehicle_type_id":"4","last_reported":1700381334,"current_range_meters":28800,"station_id":"ce4bhbp2rcd13ifvqesg","pricing_plan_id":"free"},{"bike_id":"56be962e-e98f-4d47-83bc-1182b3e9b93c","system_id":"levelo_inurba_marseille","lat":43.29307,"lon":5.37176,"is_reserved":false,"is_disabled":false,"rental_uris":{"android":"levelo://app?vid=56be962e-e98f-4d47-83bc-1182b3e9b93c","ios":"levelo://app?vid=56be962e-e98f-4d47-83bc-1182b3e9b93c"},"vehicle_type_id":"4","last_reported":1700381334,"current_range_meters":24800,"station_id":"ce4bgh92rcd13ifvqb40","pricing_plan_id":"free"},{"bike_id":"fe3f7910-6972-411c-a730-a621dd7b7f76","system_id":"levelo_inurba_marseille","lat":43.293009,"lon":5.374584,"is_reserved":false,"is_disabled":false,"rental_uris":{"android":"levelo://app?vid=fe3f7910-6972-411c-a730-a621dd7b7f76","ios":"levelo://app?vid=fe3f7910-6972-411c-a730-a621dd7b7f76"},"vehicle_type_id":"4","last_reported":1700381334,"current_range_meters":19200,"station_id":"ce4bgi12rcd13ifvqb70","pricing_plan_id":"free"},{"bike_id":"10ce1dbe-1617-421d-94bf-3d3b2e4d3047","system_id":"levelo_inurba_marseille","lat":43.305994,"lon":5.393687,"is_reserved":false,"is_disabled":false,"rental_uris":{"android":"levelo://app?vid=10ce1dbe-1617-421d-94bf-3d3b2e4d3047","ios":"levelo://app?vid=10ce1dbe-1617-421d-94bf-3d3b2e4d3047"},"vehicle_type_id":"4","last_reported":1700381334,"current_range_meters":31200,"station_id":"ce4bh0p2rcd13ifvqd80","pricing_plan_id":"free"},{"bike_id":"7b340b6e-5dd6-4822-a6d9-9a8ecbf04cb5","system_id":"levelo_inurba_marseille","lat":43.305994,"lon":5.393687,"is_reserved":false,"is_disabled":false,"rental_uris":{"android":"levelo://app?vid=7b340b6e-5dd6-4822-a6d9-9a8ecbf04cb5","ios":"levelo://app?vid=7b340b6e-5dd6-4822-a6d9-9a8ecbf04cb5"},"vehicle_type_id":"4","last_reported":1700381334,"current_range_meters":31200,"station_id":"ce4bh0p2rcd13ifvqd80","pricing_plan_id":"free"},{"bike_id":"5387b23a-348b-4d43-81b1-9d8273b1ed83","system_id":"levelo_inurba_marseille","lat":43.305994,"lon":5.393687,"is_reserved":false,"is_disabled":false,"rental_uris":{"android":"levelo://app?vid=5387b23a-348b-4d43-81b1-9d8273b1ed83","ios":"levelo://app?vid=5387b23a-348b-4d43-81b1-9d8273b1ed83"},"vehicle_type_id":"4","last_reported":1700381334,"current_range_meters":29600,"station_id":"ce4bh0p2rcd13ifvqd80","pricing_plan_id":"free"},{"bike_id":"0a32c363-9b37-4fd8-8c7c-fcb63ef5c1d5","system_id":"levelo_inurba_marseille","lat":43.305994,"lon":5.393687,"is_reserved":false,"is_disabled":false,"rental_uris":{"android":"levelo://app?vid=0a32c363-9b37-4fd8-8c7c-fcb63ef5c1d5","ios":"levelo://app?vid=0a32c363-9b37-4fd8-8c7c-fcb63ef5c1d5"},"vehicle_type_id":"4","last_reported":1700381334,"current_range_meters":30800,"station_id":"ce4bh0p2rcd13ifvqd80","pricing_plan_id":"free"},{"bike_id":"dca98fea-aad1-487b-b6b8-898789b31d11","system_id":"levelo_inurba_marseille","lat":43.305994,"lon":5.393687,"is_reserved":false,"is_disabled":false,"rental_uris":{"android":"levelo://app?vid=dca98fea-aad1-487b-b6b8-898789b31d11","ios":"levelo://app?vid=dca98fea-aad1-487b-b6b8-898789b31d11"},"vehicle_type_id":"4","last_reported":1700381334,"current_range_meters":28000,"station_id":"ce4bh0p2rcd13ifvqd80","pricing_plan_id":"free"},{"bike_id":"a46d62c8-83f8-42f3-a320-2d8aaa63ceb3","system_id":"levelo_inurba_marseille","lat":43.2936,"lon":5.37835,"is_reserved":false,"is_disabled":false,"rental_uris":{"android":"levelo://app?vid=a46d62c8-83f8-42f3-a320-2d8aaa63ceb3","ios":"levelo://app?vid=a46d62c8-83f8-42f3-a320-2d8aaa63ceb3"},"vehicle_type_id":"4","last_reported":1700381334,"current_range_meters":22000,"station_id":"ce4bgjh2rcd13ifvqbf0","pricing_plan_id":"free"},{"bike_id":"1de2b2dc-1173-4a14-9c40-0d8462f58bf8","system_id":"levelo_inurba_marseille","lat":43.29369,"lon":5.378638,"is_reserved":false,"is_disabled":false,"rental_uris":{"android":"levelo://app?vid=1de2b2dc-1173-4a14-9c40-0d8462f58bf8","ios":"levelo://app?vid=1de2b2dc-1173-4a14-9c40-0d8462f58bf8"},"vehicle_type_id":"4","last_reported":1700381334,"current_range_meters":20000,"station_id":"ce4bgjh2rcd13ifvqbf0","pricing_plan_id":"free"},{"bike_id":"41d9144c-c2d7-4fa2-88e1-3baa9b8a1641","system_id":"levelo_inurba_marseille","lat":43.292311,"lon":5.360731,"is_reserved":false,"is_disabled":false,"rental_uris":{"android":"levelo://app?vid=41d9144c-c2d7-4fa2-88e1-3baa9b8a1641","ios":"levelo://app?vid=41d9144c-c2d7-4fa2-88e1-3baa9b8a1641"},"vehicle_type_id":"4","last_reported":1700381334,"current_range_meters":24000,"station_id":"ce4bhbh2rcd13ifvqeqg","pricing_plan_id":"free"},{"bike_id":"7c03522e-826c-499c-92e8-386c7efa9867","system_id":"levelo_inurba_marseille","lat":43.292311,"lon":5.360731,"is_reserved":false,"is_disabled":false,"rental_uris":{"android":"levelo://app?vid=7c03522e-826c-499c-92e8-386c7efa9867","ios":"levelo://app?vid=7c03522e-826c-499c-92e8-386c7efa9867"},"vehicle_type_id":"4","last_reported":1700381334,"current_range_meters":11200,"station_id":"ce4bhbh2rcd13ifvqeqg","pricing_plan_id":"free"},{"bike_id":"c11c4604-0e0c-4a74-a5f6-51ab2cf65604","system_id":"levelo_inurba_marseille","lat":43.292311,"lon":5.360731,"is_reserved":false,"is_disabled":false,"rental_uris":{"android":"levelo://app?vid=c11c4604-0e0c-4a74-a5f6-51ab2cf65604","ios":"levelo://app?vid=c11c4604-0e0c-4a74-a5f6-51ab2cf65604"},"vehicle_type_id":"4","last_reported":1700381334,"current_range_meters":28000,"station_id":"ce4bhbh2rcd13ifvqeqg","pricing_plan_id":"free"},{"bike_id":"a3000145-35d1-412e-907f-c89f131f1145","system_id":"levelo_inurba_marseille","lat":43.292311,"lon":5.360731,"is_reserved":false,"is_disabled":false,"rental_uris":{"android":"levelo://app?vid=a3000145-35d1-412e-907f-c89f131f1145","ios":"levelo://app?vid=a3000145-35d1-412e-907f-c89f131f1145"},"vehicle_type_id":"4","last_reported":1700381334,"current_range_meters":28400,"station_id":"ce4bhbh2rcd13ifvqeqg","pricing_plan_id":"free"},{"bike_id":"47ad121c-e85f-481a-a432-9b53fa5ed6bd","system_id":"levelo_inurba_marseille","lat":43.292311,"lon":5.360731,"is_reserved":false,"is_disabled":false,"rental_uris":{"android":"levelo://app?vid=47ad121c-e85f-481a-a432-9b53fa5ed6bd","ios":"levelo://app?vid=47ad121c-e85f-481a-a432-9b53fa5ed6bd"},"vehicle_type_id":"4","last_reported":1700381334,"current_range_meters":14000,"station_id":"ce4bhbh2rcd13ifvqeqg","pricing_plan_id":"free"},{"bike_id":"d58ad5bc-d57e-45aa-94af-7ca361be6462","system_id":"levelo_inurba_marseille","lat":43.292311,"lon":5.360731,"is_reserved":false,"is_disabled":false,"rental_uris":{"android":"levelo://app?vid=d58ad5bc-d57e-45aa-94af-7ca361be6462","ios":"levelo://app?vid=d58ad5bc-d57e-45aa-94af-7ca361be6462"},"vehicle_type_id":"4","last_reported":1700381334,"current_range_meters":22400,"station_id":"ce4bhbh2rcd13ifvqeqg","pricing_plan_id":"free"},{"bike_id":"6310aac1-166e-4292-a513-1ccb3d7d95a3","system_id":"levelo_inurba_marseille","lat":43.291675,"lon":5.371583,"is_reserved":false,"is_disabled":false,"rental_uris":{"android":"levelo://app?vid=6310aac1-166e-4292-a513-1ccb3d7d95a3","ios":"levelo://app?vid=6310aac1-166e-4292-a513-1ccb3d7d95a3"},"vehicle_type_id":"4","last_reported":1700381334,"current_range_meters":31200,"station_id":"ce4bha92rcd13ifvqeh0","pricing_plan_id":"free"},{"bike_id":"33075253-836e-4ba1-8e89-8aa665059210","system_id":"levelo_inurba_marseille","lat":43.291658,"lon":5.371415,"is_reserved":false,"is_disabled":false,"rental_uris":{"android":"levelo://app?vid=33075253-836e-4ba1-8e89-8aa665059210","ios":"levelo://app?vid=33075253-836e-4ba1-8e89-8aa665059210"},"vehicle_type_id":"4","last_reported":1700381334,"current_range_meters":13200,"station_id":"ce4bha92rcd13ifvqeh0","pricing_plan_id":"free"},{"bike_id":"45b0cee5-d3e3-46b0-8894-e6be52e794dd","system_id":"levelo_inurba_marseille","lat":43.309047,"lon":5.396551,"is_reserved":false,"is_disabled":false,"rental_uris":{"android":"levelo://app?vid=45b0cee5-d3e3-46b0-8894-e6be52e794dd","ios":"levelo://app?vid=45b0cee5-d3e3-46b0-8894-e6be52e794dd"},"vehicle_type_id":"4","last_reported":1700381334,"current_range_meters":31200,"station_id":"ce4bh012rcd13ifvqcv0","pricing_plan_id":"free"},{"bike_id":"46429514-9d87-4911-8fbc-f0eb0137767d","system_id":"levelo_inurba_marseille","lat":43.309047,"lon":5.396551,"is_reserved":false,"is_disabled":false,"rental_uris":{"android":"levelo://app?vid=46429514-9d87-4911-8fbc-f0eb0137767d","ios":"levelo://app?vid=46429514-9d87-4911-8fbc-f0eb0137767d"},"vehicle_type_id":"4","last_reported":1700381334,"current_range_meters":30000,"station_id":"ce4bh012rcd13ifvqcv0","pricing_plan_id":"free"},{"bike_id":"2958b1fb-4b1c-4e52-9a5b-2d20f8f9506e","system_id":"levelo_inurba_marseille","lat":43.309038,"lon":5.396546,"is_reserved":false,"is_disabled":false,"rental_uris":{"android":"levelo://app?vid=2958b1fb-4b1c-4e52-9a5b-2d20f8f9506e","ios":"levelo://app?vid=2958b1fb-4b1c-4e52-9a5b-2d20f8f9506e"},"vehicle_type_id":"4","last_reported":1700381334,"current_range_meters":31200,"station_id":"ce4bh012rcd13ifvqcv0","pricing_plan_id":"free"},{"bike_id":"de48c973-5f81-47b8-915b-1bae369a9bd3","system_id":"levelo_inurba_marseille","lat":43.31323,"lon":5.39687,"is_reserved":false,"is_disabled":false,"rental_uris":{"android":"levelo://app?vid=de48c973-5f81-47b8-915b-1bae369a9bd3","ios":"levelo://app?vid=de48c973-5f81-47b8-915b-1bae369a9bd3"},"vehicle_type_id":"4","last_reported":1700381334,"current_range_meters":31200,"station_id":"ce4bgvp2rcd13ifvqcu0","pricing_plan_id":"free"},{"bike_id":"4a033192-1d0b-4496-989f-de9078ffaa36","system_id":"levelo_inurba_marseille","lat":43.309047,"lon":5.396551,"is_reserved":false,"is_disabled":false,"rental_uris":{"android":"levelo://app?vid=4a033192-1d0b-4496-989f-de9078ffaa36","ios":"levelo://app?vid=4a033192-1d0b-4496-989f-de9078ffaa36"},"vehicle_type_id":"4","last_reported":1700381334,"current_range_meters":25200,"station_id":"ce4bh012rcd13ifvqcv0","pricing_plan_id":"free"},{"bike_id":"f80ff396-067b-4aff-84db-1a4288d6b7f3","system_id":"levelo_inurba_marseille","lat":43.31325,"lon":5.39688,"is_reserved":false,"is_disabled":false,"rental_uris":{"android":"levelo://app?vid=f80ff396-067b-4aff-84db-1a4288d6b7f3","ios":"levelo://app?vid=f80ff396-067b-4aff-84db-1a4288d6b7f3"},"vehicle_type_id":"4","last_reported":1700381334,"current_range_meters":30400,"station_id":"ce4bgvp2rcd13ifvqcu0","pricing_plan_id":"free"},{"bike_id":"3fdeda8b-81e4-449f-8880-52fb050994b9","system_id":"levelo_inurba_marseille","lat":43.309038,"lon":5.396546,"is_reserved":false,"is_disabled":false,"rental_uris":{"android":"levelo://app?vid=3fdeda8b-81e4-449f-8880-52fb050994b9","ios":"levelo://app?vid=3fdeda8b-81e4-449f-8880-52fb050994b9"},"vehicle_type_id":"4","last_reported":1700381334,"current_range_meters":31200,"station_id":"ce4bh012rcd13ifvqcv0","pricing_plan_id":"free"},{"bike_id":"0de747ba-d827-4bc2-8d9f-f961b891b941","system_id":"levelo_inurba_marseille","lat":43.309038,"lon":5.396546,"is_reserved":false,"is_disabled":false,"rental_uris":{"android":"levelo://app?vid=0de747ba-d827-4bc2-8d9f-f961b891b941","ios":"levelo://app?vid=0de747ba-d827-4bc2-8d9f-f961b891b941"},"vehicle_type_id":"4","last_reported":1700381334,"current_range_meters":31200,"station_id":"ce4bh012rcd13ifvqcv0","pricing_plan_id":"free"},{"bike_id":"ea5dd6f1-efec-4b11-bbf3-ceb31fc1397f","system_id":"levelo_inurba_marseille","lat":43.291994,"lon":5.357886,"is_reserved":false,"is_disabled":false,"rental_uris":{"android":"levelo://app?vid=ea5dd6f1-efec-4b11-bbf3-ceb31fc1397f","ios":"levelo://app?vid=ea5dd6f1-efec-4b11-bbf3-ceb31fc1397f"},"vehicle_type_id":"4","last_reported":1700381334,"current_range_meters":6400,"station_id":"ce4bhb12rcd13ifvqel0","pricing_plan_id":"free"},{"bike_id":"04fa29a5-84b4-4b16-b7ea-709f116fe52e","system_id":"levelo_inurba_marseille","lat":43.291994,"lon":5.357886,"is_reserved":false,"is_disabled":false,"rental_uris":{"android":"levelo://app?vid=04fa29a5-84b4-4b16-b7ea-709f116fe52e","ios":"levelo://app?vid=04fa29a5-84b4-4b16-b7ea-709f116fe52e"},"vehicle_type_id":"4","last_reported":1700381334,"current_range_meters":30800,"station_id":"ce4bhb12rcd13ifvqel0","pricing_plan_id":"free"},{"bike_id":"75160227-c293-45c2-8c0f-b2e6a290f1e8","system_id":"levelo_inurba_marseille","lat":43.29185,"lon":5.35795,"is_reserved":false,"is_disabled":false,"rental_uris":{"android":"levelo://app?vid=75160227-c293-45c2-8c0f-b2e6a290f1e8","ios":"levelo://app?vid=75160227-c293-45c2-8c0f-b2e6a290f1e8"},"vehicle_type_id":"4","last_reported":1700381334,"current_range_meters":29200,"station_id":"ce4bhb12rcd13ifvqel0","pricing_plan_id":"free"},{"bike_id":"da7cc4d0-9299-4edf-83a2-8e98d9e8a6ca","system_id":"levelo_inurba_marseille","lat":43.29181,"lon":5.35801,"is_reserved":false,"is_disabled":false,"rental_uris":{"android":"levelo://app?vid=da7cc4d0-9299-4edf-83a2-8e98d9e8a6ca","ios":"levelo://app?vid=da7cc4d0-9299-4edf-83a2-8e98d9e8a6ca"},"vehicle_type_id":"4","last_reported":1700381334,"current_range_meters":21200,"station_id":"ce4bhb12rcd13ifvqel0","pricing_plan_id":"free"},{"bike_id":"d1b70635-0df1-4c98-90c4-fbb3ab46d803","system_id":"levelo_inurba_marseille","lat":43.313291,"lon":5.396838,"is_reserved":false,"is_disabled":false,"rental_uris":{"android":"levelo://app?vid=d1b70635-0df1-4c98-90c4-fbb3ab46d803","ios":"levelo://app?vid=d1b70635-0df1-4c98-90c4-fbb3ab46d803"},"vehicle_type_id":"4","last_reported":1700381334,"current_range_meters":25200,"station_id":"ce4bgvp2rcd13ifvqcu0","pricing_plan_id":"free"},{"bike_id":"d34eb08f-7006-4a8e-bb54-9b55935135e6","system_id":"levelo_inurba_marseille","lat":43.302249,"lon":5.394596,"is_reserved":false,"is_disabled":false,"rental_uris":{"android":"levelo://app?vid=d34eb08f-7006-4a8e-bb54-9b55935135e6","ios":"levelo://app?vid=d34eb08f-7006-4a8e-bb54-9b55935135e6"},"vehicle_type_id":"4","last_reported":1700381334,"current_range_meters":31200,"station_id":"","pricing_plan_id":"free"},{"bike_id":"d06d2be3-034a-47d0-9a53-6d39f93a1dfb","system_id":"levelo_inurba_marseille","lat":43.302166,"lon":5.394559,"is_reserved":false,"is_disabled":false,"rental_uris":{"android":"levelo://app?vid=d06d2be3-034a-47d0-9a53-6d39f93a1dfb","ios":"levelo://app?vid=d06d2be3-034a-47d0-9a53-6d39f93a1dfb"},"vehicle_type_id":"4","last_reported":1700381334,"current_range_meters":29200,"station_id":"ce4bh0p2rcd13ifvqd70","pricing_plan_id":"free"},{"bike_id":"1de3bf7d-9700-4cf9-83aa-0f37fdd429f7","system_id":"levelo_inurba_marseille","lat":43.302102,"lon":5.394655,"is_reserved":false,"is_disabled":false,"rental_uris":{"android":"levelo://app?vid=1de3bf7d-9700-4cf9-83aa-0f37fdd429f7","ios":"levelo://app?vid=1de3bf7d-9700-4cf9-83aa-0f37fdd429f7"},"vehicle_type_id":"4","last_reported":1700381334,"current_range_meters":23600,"station_id":"ce4bh0p2rcd13ifvqd70","pricing_plan_id":"free"},{"bike_id":"a897081b-f5ba-423f-8722-d3068e8a98c8","system_id":"levelo_inurba_marseille","lat":43.302008,"lon":5.394694,"is_reserved":false,"is_disabled":false,"rental_uris":{"android":"levelo://app?vid=a897081b-f5ba-423f-8722-d3068e8a98c8","ios":"levelo://app?vid=a897081b-f5ba-423f-8722-d3068e8a98c8"},"vehicle_type_id":"4","last_reported":1700381334,"current_range_meters":30800,"station_id":"ce4bh0p2rcd13ifvqd70","pricing_plan_id":"free"},{"bike_id":"b59fa648-a532-4e8b-89b9-f9c57314c2e0","system_id":"levelo_inurba_marseille","lat":43.290631,"lon":5.359244,"is_reserved":false,"is_disabled":false,"rental_uris":{"android":"levelo://app?vid=b59fa648-a532-4e8b-89b9-f9c57314c2e0","ios":"levelo://app?vid=b59fa648-a532-4e8b-89b9-f9c57314c2e0"},"vehicle_type_id":"4","last_reported":1700381334,"current_range_meters":27600,"station_id":"ce4bha92rcd13ifvqeg0","pricing_plan_id":"free"},{"bike_id":"2f5c7951-a851-4ce4-b180-17f735769598","system_id":"levelo_inurba_marseille","lat":43.289421,"lon":5.366376,"is_reserved":false,"is_disabled":false,"rental_uris":{"android":"levelo://app?vid=2f5c7951-a851-4ce4-b180-17f735769598","ios":"levelo://app?vid=2f5c7951-a851-4ce4-b180-17f735769598"},"vehicle_type_id":"4","last_reported":1700381334,"current_range_meters":30000,"station_id":"ce4bhap2rcd13ifvqek0","pricing_plan_id":"free"},{"bike_id":"3aac6ede-e242-4167-84a6-2d76be04167c","system_id":"levelo_inurba_marseille","lat":43.290104,"lon":5.356111,"is_reserved":false,"is_disabled":false,"rental_uris":{"android":"levelo://app?vid=3aac6ede-e242-4167-84a6-2d76be04167c","ios":"levelo://app?vid=3aac6ede-e242-4167-84a6-2d76be04167c"},"vehicle_type_id":"4","last_reported":1700381334,"current_range_meters":6800,"station_id":"ce4bhb92rcd13ifvqen0","pricing_plan_id":"free"},{"bike_id":"a39b0f5c-e9f0-4db5-b025-205bbacbdbba","system_id":"levelo_inurba_marseille","lat":43.289973,"lon":5.356053,"is_reserved":false,"is_disabled":false,"rental_uris":{"android":"levelo://app?vid=a39b0f5c-e9f0-4db5-b025-205bbacbdbba","ios":"levelo://app?vid=a39b0f5c-e9f0-4db5-b025-205bbacbdbba"},"vehicle_type_id":"4","last_reported":1700381334,"current_range_meters":28400,"station_id":"ce4bhb92rcd13ifvqen0","pricing_plan_id":"free"},{"bike_id":"c5b40436-6ebe-4f46-af56-f7f175003df0","system_id":"levelo_inurba_marseille","lat":43.290995,"lon":5.381361,"is_reserved":false,"is_disabled":false,"rental_uris":{"android":"levelo://app?vid=c5b40436-6ebe-4f46-af56-f7f175003df0","ios":"levelo://app?vid=c5b40436-6ebe-4f46-af56-f7f175003df0"},"vehicle_type_id":"4","last_reported":1700381334,"current_range_meters":29600,"station_id":"ce4bh512rcd13ifvqe2g","pricing_plan_id":"free"},{"bike_id":"c053e55a-b36d-4c97-b222-c56232dfc123","system_id":"levelo_inurba_marseille","lat":43.29789,"lon":5.39345,"is_reserved":false,"is_disabled":false,"rental_uris":{"android":"levelo://app?vid=c053e55a-b36d-4c97-b222-c56232dfc123","ios":"levelo://app?vid=c053e55a-b36d-4c97-b222-c56232dfc123"},"vehicle_type_id":"4","last_reported":1700381334,"current_range_meters":22400,"station_id":"chh1huq6cuj3fo74tm60","pricing_plan_id":"free"},{"bike_id":"07202f70-50d7-46f0-a5bd-59712659d6a0","system_id":"levelo_inurba_marseille","lat":43.31251,"lon":5.40162,"is_reserved":false,"is_disabled":false,"rental_uris":{"android":"levelo://app?vid=07202f70-50d7-46f0-a5bd-59712659d6a0","ios":"levelo://app?vid=07202f70-50d7-46f0-a5bd-59712659d6a0"},"vehicle_type_id":"4","last_reported":1700381334,"current_range_meters":11600,"station_id":"","pricing_plan_id":"free"},{"bike_id":"4b839fc0-878b-4eed-9fc2-f5225b4f213c","system_id":"levelo_inurba_marseille","lat":43.312804,"lon":5.401636,"is_reserved":false,"is_disabled":false,"rental_uris":{"android":"levelo://app?vid=4b839fc0-878b-4eed-9fc2-f5225b4f213c","ios":"levelo://app?vid=4b839fc0-878b-4eed-9fc2-f5225b4f213c"},"vehicle_type_id":"4","last_reported":1700381334,"current_range_meters":0,"station_id":"ce4bh092rcd13ifvqd30","pricing_plan_id":"free"},{"bike_id":"55e03788-2a8a-437b-b98d-eddedafa78d8","system_id":"levelo_inurba_marseille","lat":43.312758,"lon":5.401714,"is_reserved":false,"is_disabled":false,"rental_uris":{"android":"levelo://app?vid=55e03788-2a8a-437b-b98d-eddedafa78d8","ios":"levelo://app?vid=55e03788-2a8a-437b-b98d-eddedafa78d8"},"vehicle_type_id":"4","last_reported":1700381334,"current_range_meters":30400,"station_id":"ce4bh092rcd13ifvqd30","pricing_plan_id":"free"},{"bike_id":"1e6bc39f-70a0-4e65-902a-720fd9cb3bff","system_id":"levelo_inurba_marseille","lat":43.31285,"lon":5.401731,"is_reserved":false,"is_disabled":false,"rental_uris":{"android":"levelo://app?vid=1e6bc39f-70a0-4e65-902a-720fd9cb3bff","ios":"levelo://app?vid=1e6bc39f-70a0-4e65-902a-720fd9cb3bff"},"vehicle_type_id":"4","last_reported":1700381334,"current_range_meters":30800,"station_id":"ce4bh092rcd13ifvqd30","pricing_plan_id":"free"},{"bike_id":"e7150089-9d6d-41fd-9e10-330e1e4530dc","system_id":"levelo_inurba_marseille","lat":43.309235,"lon":5.401451,"is_reserved":false,"is_disabled":false,"rental_uris":{"android":"levelo://app?vid=e7150089-9d6d-41fd-9e10-330e1e4530dc","ios":"levelo://app?vid=e7150089-9d6d-41fd-9e10-330e1e4530dc"},"vehicle_type_id":"4","last_reported":1700381334,"current_range_meters":11200,"station_id":"ce4bgvp2rcd13ifvqct0","pricing_plan_id":"free"},{"bike_id":"edb5550c-7de5-4e16-84ed-60743e7de1dd","system_id":"levelo_inurba_marseille","lat":43.309155,"lon":5.401485,"is_reserved":false,"is_disabled":false,"rental_uris":{"android":"levelo://app?vid=edb5550c-7de5-4e16-84ed-60743e7de1dd","ios":"levelo://app?vid=edb5550c-7de5-4e16-84ed-60743e7de1dd"},"vehicle_type_id":"4","last_reported":1700381334,"current_range_meters":14000,"station_id":"ce4bgvp2rcd13ifvqct0","pricing_plan_id":"free"},{"bike_id":"46509513-12f0-4bae-91ab-3b5bb7ed22cf","system_id":"levelo_inurba_marseille","lat":43.33765,"lon":5.374202,"is_reserved":false,"is_disabled":false,"rental_uris":{"android":"levelo://app?vid=46509513-12f0-4bae-91ab-3b5bb7ed22cf","ios":"levelo://app?vid=46509513-12f0-4bae-91ab-3b5bb7ed22cf"},"vehicle_type_id":"4","last_reported":1700381334,"current_range_meters":20000,"station_id":"","pricing_plan_id":"free"},{"bike_id":"5aa7b4aa-a474-40d5-9482-631f318fc6cd","system_id":"levelo_inurba_marseille","lat":43.301117,"lon":5.398795,"is_reserved":false,"is_disabled":false,"rental_uris":{"android":"levelo://app?vid=5aa7b4aa-a474-40d5-9482-631f318fc6cd","ios":"levelo://app?vid=5aa7b4aa-a474-40d5-9482-631f318fc6cd"},"vehicle_type_id":"4","last_reported":1700381334,"current_range_meters":23200,"station_id":"ce4bh0h2rcd13ifvqd40","pricing_plan_id":"free"},{"bike_id":"80f0407b-2cda-4fc5-8d4b-b0681a7c9611","system_id":"levelo_inurba_marseille","lat":43.28727,"lon":5.36078,"is_reserved":false,"is_disabled":false,"rental_uris":{"android":"levelo://app?vid=80f0407b-2cda-4fc5-8d4b-b0681a7c9611","ios":"levelo://app?vid=80f0407b-2cda-4fc5-8d4b-b0681a7c9611"},"vehicle_type_id":"4","last_reported":1700381334,"current_range_meters":31600,"station_id":"cki0cbj6b192h4jlfktg","pricing_plan_id":"free"},{"bike_id":"4cd639b0-092a-4370-9ad5-f9bd06344ddb","system_id":"levelo_inurba_marseille","lat":43.28727,"lon":5.36078,"is_reserved":false,"is_disabled":false,"rental_uris":{"android":"levelo://app?vid=4cd639b0-092a-4370-9ad5-f9bd06344ddb","ios":"levelo://app?vid=4cd639b0-092a-4370-9ad5-f9bd06344ddb"},"vehicle_type_id":"4","last_reported":1700381334,"current_range_meters":31600,"station_id":"cki0cbj6b192h4jlfktg","pricing_plan_id":"free"},{"bike_id":"8e5cf5c8-1dc2-4e3c-a31e-02e895926b4b","system_id":"levelo_inurba_marseille","lat":43.28727,"lon":5.36078,"is_reserved":false,"is_disabled":false,"rental_uris":{"android":"levelo://app?vid=8e5cf5c8-1dc2-4e3c-a31e-02e895926b4b","ios":"levelo://app?vid=8e5cf5c8-1dc2-4e3c-a31e-02e895926b4b"},"vehicle_type_id":"4","last_reported":1700381334,"current_range_meters":13200,"station_id":"cki0cbj6b192h4jlfktg","pricing_plan_id":"free"},{"bike_id":"70aa7f9c-9f54-4d73-baea-40672d909afe","system_id":"levelo_inurba_marseille","lat":43.28727,"lon":5.36078,"is_reserved":false,"is_disabled":false,"rental_uris":{"android":"levelo://app?vid=70aa7f9c-9f54-4d73-baea-40672d909afe","ios":"levelo://app?vid=70aa7f9c-9f54-4d73-baea-40672d909afe"},"vehicle_type_id":"4","last_reported":1700381334,"current_range_meters":28800,"station_id":"cki0cbj6b192h4jlfktg","pricing_plan_id":"free"},{"bike_id":"11da9b45-26cc-4b09-8151-244ce97768b3","system_id":"levelo_inurba_marseille","lat":43.287023,"lon":5.379438,"is_reserved":false,"is_disabled":false,"rental_uris":{"android":"levelo://app?vid=11da9b45-26cc-4b09-8151-244ce97768b3","ios":"levelo://app?vid=11da9b45-26cc-4b09-8151-244ce97768b3"},"vehicle_type_id":"4","last_reported":1700381334,"current_range_meters":23600,"station_id":"ce4bh9p2rcd13ifvqec0","pricing_plan_id":"free"},{"bike_id":"1bbabb7f-526c-4127-8124-22b20bb7c170","system_id":"levelo_inurba_marseille","lat":43.316517,"lon":5.404375,"is_reserved":false,"is_disabled":false,"rental_uris":{"android":"levelo://app?vid=1bbabb7f-526c-4127-8124-22b20bb7c170","ios":"levelo://app?vid=1bbabb7f-526c-4127-8124-22b20bb7c170"},"vehicle_type_id":"4","last_reported":1700381334,"current_range_meters":31600,"station_id":"ce4bh012rcd13ifvqd00","pricing_plan_id":"free"},{"bike_id":"824d08d7-12b5-4033-8b85-ccc24caa3678","system_id":"levelo_inurba_marseille","lat":43.284534,"lon":5.358662,"is_reserved":false,"is_disabled":false,"rental_uris":{"android":"levelo://app?vid=824d08d7-12b5-4033-8b85-ccc24caa3678","ios":"levelo://app?vid=824d08d7-12b5-4033-8b85-ccc24caa3678"},"vehicle_type_id":"4","last_reported":1700381334,"current_range_meters":24000,"station_id":"ce4bhah2rcd13ifvqei0","pricing_plan_id":"free"},{"bike_id":"18a3691a-a453-4830-92d3-eba4e4df882e","system_id":"levelo_inurba_marseille","lat":43.294314,"lon":5.397498,"is_reserved":false,"is_disabled":false,"rental_uris":{"android":"levelo://app?vid=18a3691a-a453-4830-92d3-eba4e4df882e","ios":"levelo://app?vid=18a3691a-a453-4830-92d3-eba4e4df882e"},"vehicle_type_id":"4","last_reported":1700381334,"current_range_meters":30400,"station_id":"ce4bh3h2rcd13ifvqdo0","pricing_plan_id":"free"},{"bike_id":"c5702630-2c8d-47e5-8918-d2cea553181f","system_id":"levelo_inurba_marseille","lat":43.28621,"lon":5.35101,"is_reserved":false,"is_disabled":false,"rental_uris":{"android":"levelo://app?vid=c5702630-2c8d-47e5-8918-d2cea553181f","ios":"levelo://app?vid=c5702630-2c8d-47e5-8918-d2cea553181f"},"vehicle_type_id":"4","last_reported":1700381334,"current_range_meters":30800,"station_id":"ce4bhch2rcd13ifvqeug","pricing_plan_id":"free"},{"bike_id":"d94dfb15-e572-4e59-af3c-ee7cbd62cef5","system_id":"levelo_inurba_marseille","lat":43.295717,"lon":5.399697,"is_reserved":false,"is_disabled":false,"rental_uris":{"android":"levelo://app?vid=d94dfb15-e572-4e59-af3c-ee7cbd62cef5","ios":"levelo://app?vid=d94dfb15-e572-4e59-af3c-ee7cbd62cef5"},"vehicle_type_id":"4","last_reported":1700381334,"current_range_meters":10800,"station_id":"","pricing_plan_id":"free"},{"bike_id":"8ea4d595-0e85-412a-a574-6a086b52c3f2","system_id":"levelo_inurba_marseille","lat":43.319179,"lon":5.407725,"is_reserved":false,"is_disabled":false,"rental_uris":{"android":"levelo://app?vid=8ea4d595-0e85-412a-a574-6a086b52c3f2","ios":"levelo://app?vid=8ea4d595-0e85-412a-a574-6a086b52c3f2"},"vehicle_type_id":"4","last_reported":1700381334,"current_range_meters":29600,"station_id":"ce4bhq12rcd13ifvqhig","pricing_plan_id":"free"},{"bike_id":"5974ad3b-da81-42ca-a08b-1b3632a47afa","system_id":"levelo_inurba_marseille","lat":43.33237,"lon":5.3985,"is_reserved":false,"is_disabled":false,"rental_uris":{"android":"levelo://app?vid=5974ad3b-da81-42ca-a08b-1b3632a47afa","ios":"levelo://app?vid=5974ad3b-da81-42ca-a08b-1b3632a47afa"},"vehicle_type_id":"4","last_reported":1700381334,"current_range_meters":2400,"station_id":"","pricing_plan_id":"free"},{"bike_id":"69dea16a-46ca-4ecf-9a18-aec792baa921","system_id":"levelo_inurba_marseille","lat":43.323464,"lon":5.406297,"is_reserved":false,"is_disabled":false,"rental_uris":{"android":"levelo://app?vid=69dea16a-46ca-4ecf-9a18-aec792baa921","ios":"levelo://app?vid=69dea16a-46ca-4ecf-9a18-aec792baa921"},"vehicle_type_id":"4","last_reported":1700381334,"current_range_meters":26800,"station_id":"ce4bhq92rcd13ifvqhjg","pricing_plan_id":"free"},{"bike_id":"a08607c1-816a-491b-a085-3077fb7fb178","system_id":"levelo_inurba_marseille","lat":43.323464,"lon":5.406297,"is_reserved":false,"is_disabled":false,"rental_uris":{"android":"levelo://app?vid=a08607c1-816a-491b-a085-3077fb7fb178","ios":"levelo://app?vid=a08607c1-816a-491b-a085-3077fb7fb178"},"vehicle_type_id":"4","last_reported":1700381334,"current_range_meters":30000,"station_id":"ce4bhq92rcd13ifvqhjg","pricing_plan_id":"free"},{"bike_id":"236ec2a5-43e7-4c93-a5cd-c4c707fb90bf","system_id":"levelo_inurba_marseille","lat":43.284793,"lon":5.384119,"is_reserved":false,"is_disabled":false,"rental_uris":{"android":"levelo://app?vid=236ec2a5-43e7-4c93-a5cd-c4c707fb90bf","ios":"levelo://app?vid=236ec2a5-43e7-4c93-a5cd-c4c707fb90bf"},"vehicle_type_id":"4","last_reported":1700381334,"current_range_meters":27200,"station_id":"ce4bh512rcd13ifvqe3g","pricing_plan_id":"free"},{"bike_id":"d3dd3e3d-57b0-4c9e-949f-fddd56c2349c","system_id":"levelo_inurba_marseille","lat":43.32521,"lon":5.40575,"is_reserved":false,"is_disabled":false,"rental_uris":{"android":"levelo://app?vid=d3dd3e3d-57b0-4c9e-949f-fddd56c2349c","ios":"levelo://app?vid=d3dd3e3d-57b0-4c9e-949f-fddd56c2349c"},"vehicle_type_id":"4","last_reported":1700381334,"current_range_meters":0,"station_id":"","pricing_plan_id":"free"},{"bike_id":"db6c6c1b-cc54-4be6-8b0d-7997173745b5","system_id":"levelo_inurba_marseille","lat":43.283498,"lon":5.380948,"is_reserved":false,"is_disabled":false,"rental_uris":{"android":"levelo://app?vid=db6c6c1b-cc54-4be6-8b0d-7997173745b5","ios":"levelo://app?vid=db6c6c1b-cc54-4be6-8b0d-7997173745b5"},"vehicle_type_id":"4","last_reported":1700381334,"current_range_meters":0,"station_id":"ce4bh412rcd13ifvqdr0","pricing_plan_id":"free"},{"bike_id":"46c7c8f3-095f-41dc-a09f-2c8ea3ec63e7","system_id":"levelo_inurba_marseille","lat":43.284217,"lon":5.349697,"is_reserved":false,"is_disabled":false,"rental_uris":{"android":"levelo://app?vid=46c7c8f3-095f-41dc-a09f-2c8ea3ec63e7","ios":"levelo://app?vid=46c7c8f3-095f-41dc-a09f-2c8ea3ec63e7"},"vehicle_type_id":"4","last_reported":1700381334,"current_range_meters":22400,"station_id":"ce4bhbh2rcd13ifvqepg","pricing_plan_id":"free"},{"bike_id":"07bf0ef5-ece1-4ae1-88ea-cde2aa7227ab","system_id":"levelo_inurba_marseille","lat":43.28414,"lon":5.34976,"is_reserved":false,"is_disabled":false,"rental_uris":{"android":"levelo://app?vid=07bf0ef5-ece1-4ae1-88ea-cde2aa7227ab","ios":"levelo://app?vid=07bf0ef5-ece1-4ae1-88ea-cde2aa7227ab"},"vehicle_type_id":"4","last_reported":1700381334,"current_range_meters":20400,"station_id":"ce4bhbh2rcd13ifvqepg","pricing_plan_id":"free"},{"bike_id":"d9013e91-e799-477f-8a83-5eee9e87f7a9","system_id":"levelo_inurba_marseille","lat":43.28408,"lon":5.34988,"is_reserved":false,"is_disabled":false,"rental_uris":{"android":"levelo://app?vid=d9013e91-e799-477f-8a83-5eee9e87f7a9","ios":"levelo://app?vid=d9013e91-e799-477f-8a83-5eee9e87f7a9"},"vehicle_type_id":"4","last_reported":1700381334,"current_range_meters":28000,"station_id":"ce4bhbh2rcd13ifvqepg","pricing_plan_id":"free"},{"bike_id":"6c643a42-fd6c-4cdd-b347-0b3b77ac255a","system_id":"levelo_inurba_marseille","lat":43.289363,"lon":5.396322,"is_reserved":false,"is_disabled":false,"rental_uris":{"android":"levelo://app?vid=6c643a42-fd6c-4cdd-b347-0b3b77ac255a","ios":"levelo://app?vid=6c643a42-fd6c-4cdd-b347-0b3b77ac255a"},"vehicle_type_id":"4","last_reported":1700381334,"current_range_meters":0,"station_id":"ce4bh3h2rcd13ifvqdn0","pricing_plan_id":"free"},{"bike_id":"7a1b707c-0456-43af-a93b-6ba1c14178b9","system_id":"levelo_inurba_marseille","lat":43.28271,"lon":5.35073,"is_reserved":false,"is_disabled":false,"rental_uris":{"android":"levelo://app?vid=7a1b707c-0456-43af-a93b-6ba1c14178b9","ios":"levelo://app?vid=7a1b707c-0456-43af-a93b-6ba1c14178b9"},"vehicle_type_id":"4","last_reported":1700381334,"current_range_meters":23600,"station_id":"ce4bhbp2rcd13ifvqerg","pricing_plan_id":"free"},{"bike_id":"f1c4bd7f-15f5-4508-840c-51adf6c86080","system_id":"levelo_inurba_marseille","lat":43.282678,"lon":5.35068,"is_reserved":false,"is_disabled":false,"rental_uris":{"android":"levelo://app?vid=f1c4bd7f-15f5-4508-840c-51adf6c86080","ios":"levelo://app?vid=f1c4bd7f-15f5-4508-840c-51adf6c86080"},"vehicle_type_id":"4","last_reported":1700381334,"current_range_meters":28400,"station_id":"ce4bhbp2rcd13ifvqerg","pricing_plan_id":"free"},{"bike_id":"b6364394-f19a-4f6b-aecf-b7b3486706a0","system_id":"levelo_inurba_marseille","lat":43.282693,"lon":5.35062,"is_reserved":false,"is_disabled":false,"rental_uris":{"android":"levelo://app?vid=b6364394-f19a-4f6b-aecf-b7b3486706a0","ios":"levelo://app?vid=b6364394-f19a-4f6b-aecf-b7b3486706a0"},"vehicle_type_id":"4","last_reported":1700381334,"current_range_meters":22800,"station_id":"ce4bhbp2rcd13ifvqerg","pricing_plan_id":"free"},{"bike_id":"cea45467-b65f-4456-b1c2-7a2ff6c22702","system_id":"levelo_inurba_marseille","lat":43.284482,"lon":5.391802,"is_reserved":false,"is_disabled":false,"rental_uris":{"android":"levelo://app?vid=cea45467-b65f-4456-b1c2-7a2ff6c22702","ios":"levelo://app?vid=cea45467-b65f-4456-b1c2-7a2ff6c22702"},"vehicle_type_id":"4","last_reported":1700381334,"current_range_meters":30400,"station_id":"ce4bhoh2rcd13ifvqh5g","pricing_plan_id":"free"},{"bike_id":"4a2f5acd-50c3-47b4-a30c-85111b37a269","system_id":"levelo_inurba_marseille","lat":43.28442,"lon":5.39188,"is_reserved":false,"is_disabled":false,"rental_uris":{"android":"levelo://app?vid=4a2f5acd-50c3-47b4-a30c-85111b37a269","ios":"levelo://app?vid=4a2f5acd-50c3-47b4-a30c-85111b37a269"},"vehicle_type_id":"4","last_reported":1700381334,"current_range_meters":30400,"station_id":"ce4bhoh2rcd13ifvqh5g","pricing_plan_id":"free"},{"bike_id":"20afe71b-e308-4e10-96d1-c6ba9740cfcc","system_id":"levelo_inurba_marseille","lat":43.280498,"lon":5.353309,"is_reserved":false,"is_disabled":false,"rental_uris":{"android":"levelo://app?vid=20afe71b-e308-4e10-96d1-c6ba9740cfcc","ios":"levelo://app?vid=20afe71b-e308-4e10-96d1-c6ba9740cfcc"},"vehicle_type_id":"4","last_reported":1700381334,"current_range_meters":27600,"station_id":"","pricing_plan_id":"free"},{"bike_id":"ccf9b17e-2fb6-47d5-b5cb-73ea08fcb6e5","system_id":"levelo_inurba_marseille","lat":43.28575,"lon":5.39498,"is_reserved":false,"is_disabled":false,"rental_uris":{"android":"levelo://app?vid=ccf9b17e-2fb6-47d5-b5cb-73ea08fcb6e5","ios":"levelo://app?vid=ccf9b17e-2fb6-47d5-b5cb-73ea08fcb6e5"},"vehicle_type_id":"4","last_reported":1700381334,"current_range_meters":0,"station_id":"ce4bh292rcd13ifvqdg0","pricing_plan_id":"free"},{"bike_id":"e85470cc-66fb-41ae-9ddd-acb075ca7542","system_id":"levelo_inurba_marseille","lat":43.28772,"lon":5.398745,"is_reserved":false,"is_disabled":false,"rental_uris":{"android":"levelo://app?vid=e85470cc-66fb-41ae-9ddd-acb075ca7542","ios":"levelo://app?vid=e85470cc-66fb-41ae-9ddd-acb075ca7542"},"vehicle_type_id":"4","last_reported":1700381334,"current_range_meters":2400,"station_id":"","pricing_plan_id":"free"},{"bike_id":"e05860e3-01ce-4b1f-86c7-9f839ae165cc","system_id":"levelo_inurba_marseille","lat":43.304188,"lon":5.412904,"is_reserved":false,"is_disabled":false,"rental_uris":{"android":"levelo://app?vid=e05860e3-01ce-4b1f-86c7-9f839ae165cc","ios":"levelo://app?vid=e05860e3-01ce-4b1f-86c7-9f839ae165cc"},"vehicle_type_id":"4","last_reported":1700381334,"current_range_meters":31600,"station_id":"ce4bhop2rcd13ifvqh8g","pricing_plan_id":"free"},{"bike_id":"83ca4b25-5287-4b0c-b011-97bd9eff2f26","system_id":"levelo_inurba_marseille","lat":43.279742,"lon":5.38744,"is_reserved":false,"is_disabled":false,"rental_uris":{"android":"levelo://app?vid=83ca4b25-5287-4b0c-b011-97bd9eff2f26","ios":"levelo://app?vid=83ca4b25-5287-4b0c-b011-97bd9eff2f26"},"vehicle_type_id":"4","last_reported":1700381334,"current_range_meters":25600,"station_id":"ce4bhg12rcd13ifvqf80","pricing_plan_id":"free"},{"bike_id":"06f154da-4aae-4fe6-8d38-922fd2c19629","system_id":"levelo_inurba_marseille","lat":43.299579,"lon":5.413255,"is_reserved":false,"is_disabled":false,"rental_uris":{"android":"levelo://app?vid=06f154da-4aae-4fe6-8d38-922fd2c19629","ios":"levelo://app?vid=06f154da-4aae-4fe6-8d38-922fd2c19629"},"vehicle_type_id":"4","last_reported":1700381334,"current_range_meters":28800,"station_id":"ce4bhp12rcd13ifvqh9g","pricing_plan_id":"free"},{"bike_id":"1a66ec51-8872-4bc4-b87a-d78c086073cf","system_id":"levelo_inurba_marseille","lat":43.292658,"lon":5.408168,"is_reserved":false,"is_disabled":false,"rental_uris":{"android":"levelo://app?vid=1a66ec51-8872-4bc4-b87a-d78c086073cf","ios":"levelo://app?vid=1a66ec51-8872-4bc4-b87a-d78c086073cf"},"vehicle_type_id":"4","last_reported":1700381334,"current_range_meters":7600,"station_id":"","pricing_plan_id":"free"},{"bike_id":"eff1cc3c-387b-459f-893c-214c8316ff9d","system_id":"levelo_inurba_marseille","lat":43.279742,"lon":5.38744,"is_reserved":false,"is_disabled":false,"rental_uris":{"android":"levelo://app?vid=eff1cc3c-387b-459f-893c-214c8316ff9d","ios":"levelo://app?vid=eff1cc3c-387b-459f-893c-214c8316ff9d"},"vehicle_type_id":"4","last_reported":1700381334,"current_range_meters":30400,"station_id":"ce4bhg12rcd13ifvqf80","pricing_plan_id":"free"},{"bike_id":"8f459cb7-3c2d-4342-9b37-f73be9e1b310","system_id":"levelo_inurba_marseille","lat":43.279742,"lon":5.38744,"is_reserved":false,"is_disabled":false,"rental_uris":{"android":"levelo://app?vid=8f459cb7-3c2d-4342-9b37-f73be9e1b310","ios":"levelo://app?vid=8f459cb7-3c2d-4342-9b37-f73be9e1b310"},"vehicle_type_id":"4","last_reported":1700381334,"current_range_meters":30000,"station_id":"ce4bhg12rcd13ifvqf80","pricing_plan_id":"free"},{"bike_id":"4d947df7-b378-4384-a0da-0bf145d9c965","system_id":"levelo_inurba_marseille","lat":43.279742,"lon":5.38744,"is_reserved":false,"is_disabled":false,"rental_uris":{"android":"levelo://app?vid=4d947df7-b378-4384-a0da-0bf145d9c965","ios":"levelo://app?vid=4d947df7-b378-4384-a0da-0bf145d9c965"},"vehicle_type_id":"4","last_reported":1700381334,"current_range_meters":26800,"station_id":"ce4bhg12rcd13ifvqf80","pricing_plan_id":"free"},{"bike_id":"557e0fd2-e8e2-4503-abb2-2d138a28acc1","system_id":"levelo_inurba_marseille","lat":43.28083,"lon":5.39658,"is_reserved":false,"is_disabled":false,"rental_uris":{"android":"levelo://app?vid=557e0fd2-e8e2-4503-abb2-2d138a28acc1","ios":"levelo://app?vid=557e0fd2-e8e2-4503-abb2-2d138a28acc1"},"vehicle_type_id":"4","last_reported":1700381334,"current_range_meters":4400,"station_id":"ce4bho12rcd13ifvqh2g","pricing_plan_id":"free"},{"bike_id":"10606041-6d1f-4abe-8004-6325e0030224","system_id":"levelo_inurba_marseille","lat":43.280784,"lon":5.396622,"is_reserved":false,"is_disabled":false,"rental_uris":{"android":"levelo://app?vid=10606041-6d1f-4abe-8004-6325e0030224","ios":"levelo://app?vid=10606041-6d1f-4abe-8004-6325e0030224"},"vehicle_type_id":"4","last_reported":1700381334,"current_range_meters":31200,"station_id":"ce4bho12rcd13ifvqh2g","pricing_plan_id":"free"},{"bike_id":"c6788832-3bc0-41bc-81e7-c86f322cdccc","system_id":"levelo_inurba_marseille","lat":43.30356,"lon":5.4188,"is_reserved":false,"is_disabled":false,"rental_uris":{"android":"levelo://app?vid=c6788832-3bc0-41bc-81e7-c86f322cdccc","ios":"levelo://app?vid=c6788832-3bc0-41bc-81e7-c86f322cdccc"},"vehicle_type_id":"4","last_reported":1700381334,"current_range_meters":0,"station_id":"ce4bhop2rcd13ifvqh7g","pricing_plan_id":"free"},{"bike_id":"c94bad85-9533-422a-b3bc-abf1e98ea89e","system_id":"levelo_inurba_marseille","lat":43.278399,"lon":5.392139,"is_reserved":false,"is_disabled":false,"rental_uris":{"android":"levelo://app?vid=c94bad85-9533-422a-b3bc-abf1e98ea89e","ios":"levelo://app?vid=c94bad85-9533-422a-b3bc-abf1e98ea89e"},"vehicle_type_id":"4","last_reported":1700381334,"current_range_meters":30000,"station_id":"ce4bhjp2rcd13ifvqga0","pricing_plan_id":"free"},{"bike_id":"29caab89-965c-4ed0-a878-714d3fe39485","system_id":"levelo_inurba_marseille","lat":43.27378,"lon":5.362478,"is_reserved":false,"is_disabled":false,"rental_uris":{"android":"levelo://app?vid=29caab89-965c-4ed0-a878-714d3fe39485","ios":"levelo://app?vid=29caab89-965c-4ed0-a878-714d3fe39485"},"vehicle_type_id":"4","last_reported":1700381334,"current_range_meters":26000,"station_id":"ce4bhbh2rcd13ifvqeo0","pricing_plan_id":"free"},{"bike_id":"b0a8836e-2f87-4143-972c-aab2a0e5f3b2","system_id":"levelo_inurba_marseille","lat":43.273613,"lon":5.362705,"is_reserved":false,"is_disabled":false,"rental_uris":{"android":"levelo://app?vid=b0a8836e-2f87-4143-972c-aab2a0e5f3b2","ios":"levelo://app?vid=b0a8836e-2f87-4143-972c-aab2a0e5f3b2"},"vehicle_type_id":"4","last_reported":1700381334,"current_range_meters":28000,"station_id":"ce4bhbh2rcd13ifvqeo0","pricing_plan_id":"free"},{"bike_id":"68b6c5dd-0e43-4de2-a5f5-36d86c68dd66","system_id":"levelo_inurba_marseille","lat":43.273613,"lon":5.362705,"is_reserved":false,"is_disabled":false,"rental_uris":{"android":"levelo://app?vid=68b6c5dd-0e43-4de2-a5f5-36d86c68dd66","ios":"levelo://app?vid=68b6c5dd-0e43-4de2-a5f5-36d86c68dd66"},"vehicle_type_id":"4","last_reported":1700381334,"current_range_meters":30000,"station_id":"ce4bhbh2rcd13ifvqeo0","pricing_plan_id":"free"},{"bike_id":"3722b463-6f19-46da-8bcc-affad47df645","system_id":"levelo_inurba_marseille","lat":43.33612,"lon":5.410321,"is_reserved":false,"is_disabled":false,"rental_uris":{"android":"levelo://app?vid=3722b463-6f19-46da-8bcc-affad47df645","ios":"levelo://app?vid=3722b463-6f19-46da-8bcc-affad47df645"},"vehicle_type_id":"4","last_reported":1700381334,"current_range_meters":30000,"station_id":"ce4bhqh2rcd13ifvqhmg","pricing_plan_id":"free"},{"bike_id":"d6474040-ce9b-43e8-8bdd-f9d7c8213d72","system_id":"levelo_inurba_marseille","lat":43.280039,"lon":5.400115,"is_reserved":false,"is_disabled":false,"rental_uris":{"android":"levelo://app?vid=d6474040-ce9b-43e8-8bdd-f9d7c8213d72","ios":"levelo://app?vid=d6474040-ce9b-43e8-8bdd-f9d7c8213d72"},"vehicle_type_id":"4","last_reported":1700381334,"current_range_meters":30000,"station_id":"ce4bho92rcd13ifvqh4g","pricing_plan_id":"free"},{"bike_id":"d69994bb-c32a-48c3-9c4a-3b835490a2ba","system_id":"levelo_inurba_marseille","lat":43.279952,"lon":5.400085,"is_reserved":false,"is_disabled":false,"rental_uris":{"android":"levelo://app?vid=d69994bb-c32a-48c3-9c4a-3b835490a2ba","ios":"levelo://app?vid=d69994bb-c32a-48c3-9c4a-3b835490a2ba"},"vehicle_type_id":"4","last_reported":1700381334,"current_range_meters":28400,"station_id":"ce4bho92rcd13ifvqh4g","pricing_plan_id":"free"},{"bike_id":"781ae6eb-3597-43d0-afe4-b37e8d7744e8","system_id":"levelo_inurba_marseille","lat":43.279952,"lon":5.400085,"is_reserved":false,"is_disabled":false,"rental_uris":{"android":"levelo://app?vid=781ae6eb-3597-43d0-afe4-b37e8d7744e8","ios":"levelo://app?vid=781ae6eb-3597-43d0-afe4-b37e8d7744e8"},"vehicle_type_id":"4","last_reported":1700381334,"current_range_meters":25600,"station_id":"ce4bho92rcd13ifvqh4g","pricing_plan_id":"free"},{"bike_id":"eafeb385-8734-4d6e-872f-817338dfdd8c","system_id":"levelo_inurba_marseille","lat":43.317121,"lon":5.423936,"is_reserved":false,"is_disabled":false,"rental_uris":{"android":"levelo://app?vid=eafeb385-8734-4d6e-872f-817338dfdd8c","ios":"levelo://app?vid=eafeb385-8734-4d6e-872f-817338dfdd8c"},"vehicle_type_id":"4","last_reported":1700381334,"current_range_meters":20400,"station_id":"ce4bhp92rcd13ifvqhbg","pricing_plan_id":"free"},{"bike_id":"f1682c53-c82a-4992-b79b-bff87445594c","system_id":"levelo_inurba_marseille","lat":43.310785,"lon":5.424305,"is_reserved":false,"is_disabled":false,"rental_uris":{"android":"levelo://app?vid=f1682c53-c82a-4992-b79b-bff87445594c","ios":"levelo://app?vid=f1682c53-c82a-4992-b79b-bff87445594c"},"vehicle_type_id":"4","last_reported":1700381334,"current_range_meters":7600,"station_id":"ce4bhp92rcd13ifvqhag","pricing_plan_id":"free"},{"bike_id":"2b211598-c6f8-4e22-9ff6-5fa6873b8d02","system_id":"levelo_inurba_marseille","lat":43.317121,"lon":5.423936,"is_reserved":false,"is_disabled":false,"rental_uris":{"android":"levelo://app?vid=2b211598-c6f8-4e22-9ff6-5fa6873b8d02","ios":"levelo://app?vid=2b211598-c6f8-4e22-9ff6-5fa6873b8d02"},"vehicle_type_id":"4","last_reported":1700381334,"current_range_meters":28800,"station_id":"ce4bhp92rcd13ifvqhbg","pricing_plan_id":"free"},{"bike_id":"1e060b8c-96b3-4523-8d29-c997e066ee10","system_id":"levelo_inurba_marseille","lat":43.27326,"lon":5.39071,"is_reserved":false,"is_disabled":false,"rental_uris":{"android":"levelo://app?vid=1e060b8c-96b3-4523-8d29-c997e066ee10","ios":"levelo://app?vid=1e060b8c-96b3-4523-8d29-c997e066ee10"},"vehicle_type_id":"4","last_reported":1700381334,"current_range_meters":13200,"station_id":"ce4bhgp2rcd13ifvqfe0","pricing_plan_id":"free"},{"bike_id":"ec2dc8e6-c228-4c5d-8296-983e86e5754a","system_id":"levelo_inurba_marseille","lat":43.273125,"lon":5.390731,"is_reserved":false,"is_disabled":false,"rental_uris":{"android":"levelo://app?vid=ec2dc8e6-c228-4c5d-8296-983e86e5754a","ios":"levelo://app?vid=ec2dc8e6-c228-4c5d-8296-983e86e5754a"},"vehicle_type_id":"4","last_reported":1700381334,"current_range_meters":15600,"station_id":"ce4bhgp2rcd13ifvqfe0","pricing_plan_id":"free"},{"bike_id":"1276d62a-8716-420e-b0e2-68ce797c22cf","system_id":"levelo_inurba_marseille","lat":43.273125,"lon":5.390731,"is_reserved":false,"is_disabled":false,"rental_uris":{"android":"levelo://app?vid=1276d62a-8716-420e-b0e2-68ce797c22cf","ios":"levelo://app?vid=1276d62a-8716-420e-b0e2-68ce797c22cf"},"vehicle_type_id":"4","last_reported":1700381334,"current_range_meters":25600,"station_id":"ce4bhgp2rcd13ifvqfe0","pricing_plan_id":"free"},{"bike_id":"640fece4-ea07-4f86-9b82-61fb3b63de7a","system_id":"levelo_inurba_marseille","lat":43.273129,"lon":5.390725,"is_reserved":false,"is_disabled":false,"rental_uris":{"android":"levelo://app?vid=640fece4-ea07-4f86-9b82-61fb3b63de7a","ios":"levelo://app?vid=640fece4-ea07-4f86-9b82-61fb3b63de7a"},"vehicle_type_id":"4","last_reported":1700381334,"current_range_meters":26000,"station_id":"ce4bhgp2rcd13ifvqfe0","pricing_plan_id":"free"},{"bike_id":"fa4671d4-131d-49ff-8ca2-5f7c231deecb","system_id":"levelo_inurba_marseille","lat":43.304096,"lon":5.425385,"is_reserved":false,"is_disabled":false,"rental_uris":{"android":"levelo://app?vid=fa4671d4-131d-49ff-8ca2-5f7c231deecb","ios":"levelo://app?vid=fa4671d4-131d-49ff-8ca2-5f7c231deecb"},"vehicle_type_id":"4","last_reported":1700381334,"current_range_meters":18400,"station_id":"ce4bhoh2rcd13ifvqh6g","pricing_plan_id":"free"},{"bike_id":"ce542890-8717-4995-89d1-bfd21ca58cd1","system_id":"levelo_inurba_marseille","lat":43.304096,"lon":5.425385,"is_reserved":false,"is_disabled":false,"rental_uris":{"android":"levelo://app?vid=ce542890-8717-4995-89d1-bfd21ca58cd1","ios":"levelo://app?vid=ce542890-8717-4995-89d1-bfd21ca58cd1"},"vehicle_type_id":"4","last_reported":1700381334,"current_range_meters":11600,"station_id":"ce4bhoh2rcd13ifvqh6g","pricing_plan_id":"free"},{"bike_id":"69d3e5e9-343f-4efc-aa7b-0bec1bce6c1d","system_id":"levelo_inurba_marseille","lat":43.295511,"lon":5.422926,"is_reserved":false,"is_disabled":false,"rental_uris":{"android":"levelo://app?vid=69d3e5e9-343f-4efc-aa7b-0bec1bce6c1d","ios":"levelo://app?vid=69d3e5e9-343f-4efc-aa7b-0bec1bce6c1d"},"vehicle_type_id":"4","last_reported":1700381334,"current_range_meters":28400,"station_id":"ce4bhph2rcd13ifvqhdg","pricing_plan_id":"free"},{"bike_id":"f8f5619a-a183-461d-b100-453fb972fcd4","system_id":"levelo_inurba_marseille","lat":43.272118,"lon":5.391758,"is_reserved":false,"is_disabled":false,"rental_uris":{"android":"levelo://app?vid=f8f5619a-a183-461d-b100-453fb972fcd4","ios":"levelo://app?vid=f8f5619a-a183-461d-b100-453fb972fcd4"},"vehicle_type_id":"4","last_reported":1700381334,"current_range_meters":21600,"station_id":"ce4bhhp2rcd13ifvqfm0","pricing_plan_id":"free"},{"bike_id":"4c63495d-3c85-464b-a623-60c3394ea7e5","system_id":"levelo_inurba_marseille","lat":43.272116,"lon":5.391763,"is_reserved":false,"is_disabled":false,"rental_uris":{"android":"levelo://app?vid=4c63495d-3c85-464b-a623-60c3394ea7e5","ios":"levelo://app?vid=4c63495d-3c85-464b-a623-60c3394ea7e5"},"vehicle_type_id":"4","last_reported":1700381334,"current_range_meters":27200,"station_id":"ce4bhhp2rcd13ifvqfm0","pricing_plan_id":"free"},{"bike_id":"36b25673-4c38-4b0f-a0da-e1a2ed85c324","system_id":"levelo_inurba_marseille","lat":43.272124,"lon":5.391768,"is_reserved":false,"is_disabled":false,"rental_uris":{"android":"levelo://app?vid=36b25673-4c38-4b0f-a0da-e1a2ed85c324","ios":"levelo://app?vid=36b25673-4c38-4b0f-a0da-e1a2ed85c324"},"vehicle_type_id":"4","last_reported":1700381334,"current_range_meters":31200,"station_id":"ce4bhhp2rcd13ifvqfm0","pricing_plan_id":"free"},{"bike_id":"a2594bb0-d394-4de1-9309-47403b5f3407","system_id":"levelo_inurba_marseille","lat":43.27201,"lon":5.39186,"is_reserved":false,"is_disabled":false,"rental_uris":{"android":"levelo://app?vid=a2594bb0-d394-4de1-9309-47403b5f3407","ios":"levelo://app?vid=a2594bb0-d394-4de1-9309-47403b5f3407"},"vehicle_type_id":"4","last_reported":1700381334,"current_range_meters":25200,"station_id":"ce4bhhp2rcd13ifvqfm0","pricing_plan_id":"free"},{"bike_id":"139753b1-0b83-4c3a-80f1-5052bac15461","system_id":"levelo_inurba_marseille","lat":43.27215,"lon":5.392658,"is_reserved":false,"is_disabled":false,"rental_uris":{"android":"levelo://app?vid=139753b1-0b83-4c3a-80f1-5052bac15461","ios":"levelo://app?vid=139753b1-0b83-4c3a-80f1-5052bac15461"},"vehicle_type_id":"4","last_reported":1700381334,"current_range_meters":8800,"station_id":"","pricing_plan_id":"free"},{"bike_id":"fe139271-7817-4645-9ec4-f7eee743e805","system_id":"levelo_inurba_marseille","lat":43.271896,"lon":5.392307,"is_reserved":false,"is_disabled":false,"rental_uris":{"android":"levelo://app?vid=fe139271-7817-4645-9ec4-f7eee743e805","ios":"levelo://app?vid=fe139271-7817-4645-9ec4-f7eee743e805"},"vehicle_type_id":"4","last_reported":1700381334,"current_range_meters":0,"station_id":"","pricing_plan_id":"free"},{"bike_id":"f0ed4531-078e-42fb-a007-3ed80505eb54","system_id":"levelo_inurba_marseille","lat":43.271891,"lon":5.392412,"is_reserved":false,"is_disabled":false,"rental_uris":{"android":"levelo://app?vid=f0ed4531-078e-42fb-a007-3ed80505eb54","ios":"levelo://app?vid=f0ed4531-078e-42fb-a007-3ed80505eb54"},"vehicle_type_id":"4","last_reported":1700381334,"current_range_meters":4000,"station_id":"","pricing_plan_id":"free"},{"bike_id":"957419d6-2316-4832-ac69-68b47f7dc39f","system_id":"levelo_inurba_marseille","lat":43.26681,"lon":5.382694,"is_reserved":false,"is_disabled":false,"rental_uris":{"android":"levelo://app?vid=957419d6-2316-4832-ac69-68b47f7dc39f","ios":"levelo://app?vid=957419d6-2316-4832-ac69-68b47f7dc39f"},"vehicle_type_id":"4","last_reported":1700381334,"current_range_meters":18400,"station_id":"ce4bhg92rcd13ifvqf90","pricing_plan_id":"free"},{"bike_id":"31604b0b-1a94-4633-998b-285d19be3d3f","system_id":"levelo_inurba_marseille","lat":43.26681,"lon":5.382694,"is_reserved":false,"is_disabled":false,"rental_uris":{"android":"levelo://app?vid=31604b0b-1a94-4633-998b-285d19be3d3f","ios":"levelo://app?vid=31604b0b-1a94-4633-998b-285d19be3d3f"},"vehicle_type_id":"4","last_reported":1700381334,"current_range_meters":26400,"station_id":"ce4bhg92rcd13ifvqf90","pricing_plan_id":"free"},{"bike_id":"875af01b-d3ae-4784-840c-2df39061230d","system_id":"levelo_inurba_marseille","lat":43.26681,"lon":5.382694,"is_reserved":false,"is_disabled":false,"rental_uris":{"android":"levelo://app?vid=875af01b-d3ae-4784-840c-2df39061230d","ios":"levelo://app?vid=875af01b-d3ae-4784-840c-2df39061230d"},"vehicle_type_id":"4","last_reported":1700381334,"current_range_meters":27200,"station_id":"ce4bhg92rcd13ifvqf90","pricing_plan_id":"free"},{"bike_id":"c7758cb2-2a45-4f89-aa5c-0e391d845c76","system_id":"levelo_inurba_marseille","lat":43.326053,"lon":5.429943,"is_reserved":false,"is_disabled":false,"rental_uris":{"android":"levelo://app?vid=c7758cb2-2a45-4f89-aa5c-0e391d845c76","ios":"levelo://app?vid=c7758cb2-2a45-4f89-aa5c-0e391d845c76"},"vehicle_type_id":"4","last_reported":1700381334,"current_range_meters":1200,"station_id":"","pricing_plan_id":"free"},{"bike_id":"42871d3b-8c03-490f-baf1-f4b57c44a331","system_id":"levelo_inurba_marseille","lat":43.326569,"lon":5.430586,"is_reserved":false,"is_disabled":false,"rental_uris":{"android":"levelo://app?vid=42871d3b-8c03-490f-baf1-f4b57c44a331","ios":"levelo://app?vid=42871d3b-8c03-490f-baf1-f4b57c44a331"},"vehicle_type_id":"4","last_reported":1700381334,"current_range_meters":16400,"station_id":"","pricing_plan_id":"free"},{"bike_id":"744fc5b6-56b0-4417-ac42-865cd1ebd472","system_id":"levelo_inurba_marseille","lat":43.265714,"lon":5.372891,"is_reserved":false,"is_disabled":false,"rental_uris":{"android":"levelo://app?vid=744fc5b6-56b0-4417-ac42-865cd1ebd472","ios":"levelo://app?vid=744fc5b6-56b0-4417-ac42-865cd1ebd472"},"vehicle_type_id":"4","last_reported":1700381334,"current_range_meters":23200,"station_id":"ce4bhg12rcd13ifvqf70","pricing_plan_id":"free"},{"bike_id":"20239025-ca57-4ea6-b208-9e44589f48c4","system_id":"levelo_inurba_marseille","lat":43.267966,"lon":5.393976,"is_reserved":false,"is_disabled":false,"rental_uris":{"android":"levelo://app?vid=20239025-ca57-4ea6-b208-9e44589f48c4","ios":"levelo://app?vid=20239025-ca57-4ea6-b208-9e44589f48c4"},"vehicle_type_id":"4","last_reported":1700381334,"current_range_meters":26800,"station_id":"ce4bhh12rcd13ifvqfg0","pricing_plan_id":"free"},{"bike_id":"6b683970-5c84-4993-bf58-c9ab9b835cbc","system_id":"levelo_inurba_marseille","lat":43.265714,"lon":5.372891,"is_reserved":false,"is_disabled":false,"rental_uris":{"android":"levelo://app?vid=6b683970-5c84-4993-bf58-c9ab9b835cbc","ios":"levelo://app?vid=6b683970-5c84-4993-bf58-c9ab9b835cbc"},"vehicle_type_id":"4","last_reported":1700381334,"current_range_meters":27200,"station_id":"ce4bhg12rcd13ifvqf70","pricing_plan_id":"free"},{"bike_id":"9df876ae-bfd2-455f-9038-22d835368a2a","system_id":"levelo_inurba_marseille","lat":43.267966,"lon":5.393976,"is_reserved":false,"is_disabled":false,"rental_uris":{"android":"levelo://app?vid=9df876ae-bfd2-455f-9038-22d835368a2a","ios":"levelo://app?vid=9df876ae-bfd2-455f-9038-22d835368a2a"},"vehicle_type_id":"4","last_reported":1700381334,"current_range_meters":30400,"station_id":"ce4bhh12rcd13ifvqfg0","pricing_plan_id":"free"},{"bike_id":"b62e75f9-7e74-40fa-a582-5ea8b782f419","system_id":"levelo_inurba_marseille","lat":43.267966,"lon":5.393976,"is_reserved":false,"is_disabled":false,"rental_uris":{"android":"levelo://app?vid=b62e75f9-7e74-40fa-a582-5ea8b782f419","ios":"levelo://app?vid=b62e75f9-7e74-40fa-a582-5ea8b782f419"},"vehicle_type_id":"4","last_reported":1700381334,"current_range_meters":25200,"station_id":"ce4bhh12rcd13ifvqfg0","pricing_plan_id":"free"},{"bike_id":"572febf1-f7cb-450e-9a87-e1a25a6cd70b","system_id":"levelo_inurba_marseille","lat":43.308051,"lon":5.43527,"is_reserved":false,"is_disabled":false,"rental_uris":{"android":"levelo://app?vid=572febf1-f7cb-450e-9a87-e1a25a6cd70b","ios":"levelo://app?vid=572febf1-f7cb-450e-9a87-e1a25a6cd70b"},"vehicle_type_id":"4","last_reported":1700381334,"current_range_meters":28000,"station_id":"ce4bhph2rcd13ifvqheg","pricing_plan_id":"free"},{"bike_id":"c8493734-954e-4d55-82b2-5c0c406b53e5","system_id":"levelo_inurba_marseille","lat":43.26556,"lon":5.39004,"is_reserved":false,"is_disabled":false,"rental_uris":{"android":"levelo://app?vid=c8493734-954e-4d55-82b2-5c0c406b53e5","ios":"levelo://app?vid=c8493734-954e-4d55-82b2-5c0c406b53e5"},"vehicle_type_id":"4","last_reported":1700381334,"current_range_meters":28800,"station_id":"ce4bhe12rcd13ifvqf30","pricing_plan_id":"free"},{"bike_id":"2bba8091-b83c-431a-850a-bd280dacad58","system_id":"levelo_inurba_marseille","lat":43.26949,"lon":5.40262,"is_reserved":false,"is_disabled":false,"rental_uris":{"android":"levelo://app?vid=2bba8091-b83c-431a-850a-bd280dacad58","ios":"levelo://app?vid=2bba8091-b83c-431a-850a-bd280dacad58"},"vehicle_type_id":"4","last_reported":1700381334,"current_range_meters":28800,"station_id":"cjm6bp8fraef2m0cb0m0","pricing_plan_id":"free"},{"bike_id":"47ecfd7c-71ef-4bdf-a37d-886cb8c19a51","system_id":"levelo_inurba_marseille","lat":43.262012,"lon":5.379307,"is_reserved":false,"is_disabled":false,"rental_uris":{"android":"levelo://app?vid=47ecfd7c-71ef-4bdf-a37d-886cb8c19a51","ios":"levelo://app?vid=47ecfd7c-71ef-4bdf-a37d-886cb8c19a51"},"vehicle_type_id":"4","last_reported":1700381334,"current_range_meters":27200,"station_id":"ce4bhjp2rcd13ifvqg90","pricing_plan_id":"free"},{"bike_id":"d06dceee-ec7a-4aad-b25e-6d0840a89e3d","system_id":"levelo_inurba_marseille","lat":43.262012,"lon":5.379307,"is_reserved":false,"is_disabled":false,"rental_uris":{"android":"levelo://app?vid=d06dceee-ec7a-4aad-b25e-6d0840a89e3d","ios":"levelo://app?vid=d06dceee-ec7a-4aad-b25e-6d0840a89e3d"},"vehicle_type_id":"4","last_reported":1700381334,"current_range_meters":31200,"station_id":"ce4bhjp2rcd13ifvqg90","pricing_plan_id":"free"},{"bike_id":"fceea0b4-dbf1-4ef6-9594-3d8e82d56d53","system_id":"levelo_inurba_marseille","lat":43.271368,"lon":5.40928,"is_reserved":false,"is_disabled":false,"rental_uris":{"android":"levelo://app?vid=fceea0b4-dbf1-4ef6-9594-3d8e82d56d53","ios":"levelo://app?vid=fceea0b4-dbf1-4ef6-9594-3d8e82d56d53"},"vehicle_type_id":"4","last_reported":1700381334,"current_range_meters":19600,"station_id":"ce4bhl12rcd13ifvqgf0","pricing_plan_id":"free"},{"bike_id":"b32e2de1-6bab-4eb8-b968-5c933e4a655b","system_id":"levelo_inurba_marseille","lat":43.262012,"lon":5.379307,"is_reserved":false,"is_disabled":false,"rental_uris":{"android":"levelo://app?vid=b32e2de1-6bab-4eb8-b968-5c933e4a655b","ios":"levelo://app?vid=b32e2de1-6bab-4eb8-b968-5c933e4a655b"},"vehicle_type_id":"4","last_reported":1700381334,"current_range_meters":30400,"station_id":"ce4bhjp2rcd13ifvqg90","pricing_plan_id":"free"},{"bike_id":"1dd4dd20-2d67-44d1-b93b-d14142ab73a4","system_id":"levelo_inurba_marseille","lat":43.26202,"lon":5.379299,"is_reserved":false,"is_disabled":false,"rental_uris":{"android":"levelo://app?vid=1dd4dd20-2d67-44d1-b93b-d14142ab73a4","ios":"levelo://app?vid=1dd4dd20-2d67-44d1-b93b-d14142ab73a4"},"vehicle_type_id":"4","last_reported":1700381334,"current_range_meters":2400,"station_id":"ce4bhjp2rcd13ifvqg90","pricing_plan_id":"free"},{"bike_id":"bb89e912-1fd0-4de3-8767-1f75ceeff0ad","system_id":"levelo_inurba_marseille","lat":43.26202,"lon":5.379299,"is_reserved":false,"is_disabled":false,"rental_uris":{"android":"levelo://app?vid=bb89e912-1fd0-4de3-8767-1f75ceeff0ad","ios":"levelo://app?vid=bb89e912-1fd0-4de3-8767-1f75ceeff0ad"},"vehicle_type_id":"4","last_reported":1700381334,"current_range_meters":18400,"station_id":"ce4bhjp2rcd13ifvqg90","pricing_plan_id":"free"},{"bike_id":"18f018e0-1c7f-4884-8612-59ad868abb57","system_id":"levelo_inurba_marseille","lat":43.262012,"lon":5.379307,"is_reserved":false,"is_disabled":false,"rental_uris":{"android":"levelo://app?vid=18f018e0-1c7f-4884-8612-59ad868abb57","ios":"levelo://app?vid=18f018e0-1c7f-4884-8612-59ad868abb57"},"vehicle_type_id":"4","last_reported":1700381334,"current_range_meters":29200,"station_id":"ce4bhjp2rcd13ifvqg90","pricing_plan_id":"free"},{"bike_id":"0612b137-cda2-42e8-b3aa-5bd9cb302c5d","system_id":"levelo_inurba_marseille","lat":43.26203,"lon":5.37927,"is_reserved":false,"is_disabled":false,"rental_uris":{"android":"levelo://app?vid=0612b137-cda2-42e8-b3aa-5bd9cb302c5d","ios":"levelo://app?vid=0612b137-cda2-42e8-b3aa-5bd9cb302c5d"},"vehicle_type_id":"4","last_reported":1700381334,"current_range_meters":19200,"station_id":"ce4bhjp2rcd13ifvqg90","pricing_plan_id":"free"},{"bike_id":"10cc9d15-12a4-4222-8ac4-988310eef869","system_id":"levelo_inurba_marseille","lat":43.262012,"lon":5.379307,"is_reserved":false,"is_disabled":false,"rental_uris":{"android":"levelo://app?vid=10cc9d15-12a4-4222-8ac4-988310eef869","ios":"levelo://app?vid=10cc9d15-12a4-4222-8ac4-988310eef869"},"vehicle_type_id":"4","last_reported":1700381334,"current_range_meters":31200,"station_id":"ce4bhjp2rcd13ifvqg90","pricing_plan_id":"free"},{"bike_id":"a27f2fe6-c9c1-4f41-b70b-8ecbc41e6bde","system_id":"levelo_inurba_marseille","lat":43.262012,"lon":5.379307,"is_reserved":false,"is_disabled":false,"rental_uris":{"android":"levelo://app?vid=a27f2fe6-c9c1-4f41-b70b-8ecbc41e6bde","ios":"levelo://app?vid=a27f2fe6-c9c1-4f41-b70b-8ecbc41e6bde"},"vehicle_type_id":"4","last_reported":1700381334,"current_range_meters":30400,"station_id":"ce4bhjp2rcd13ifvqg90","pricing_plan_id":"free"},{"bike_id":"05c00383-ec19-421b-b6cf-818fbc2db8ef","system_id":"levelo_inurba_marseille","lat":43.26202,"lon":5.379299,"is_reserved":false,"is_disabled":false,"rental_uris":{"android":"levelo://app?vid=05c00383-ec19-421b-b6cf-818fbc2db8ef","ios":"levelo://app?vid=05c00383-ec19-421b-b6cf-818fbc2db8ef"},"vehicle_type_id":"4","last_reported":1700381334,"current_range_meters":31200,"station_id":"ce4bhjp2rcd13ifvqg90","pricing_plan_id":"free"},{"bike_id":"4845b3d6-d400-4de1-941b-c54ac5191bb3","system_id":"levelo_inurba_marseille","lat":43.262,"lon":5.37932,"is_reserved":false,"is_disabled":false,"rental_uris":{"android":"levelo://app?vid=4845b3d6-d400-4de1-941b-c54ac5191bb3","ios":"levelo://app?vid=4845b3d6-d400-4de1-941b-c54ac5191bb3"},"vehicle_type_id":"4","last_reported":1700381334,"current_range_meters":15200,"station_id":"ce4bhjp2rcd13ifvqg90","pricing_plan_id":"free"},{"bike_id":"621dbf3d-a8ce-4ff8-b7a2-b61746dd3457","system_id":"levelo_inurba_marseille","lat":43.26202,"lon":5.379299,"is_reserved":false,"is_disabled":false,"rental_uris":{"android":"levelo://app?vid=621dbf3d-a8ce-4ff8-b7a2-b61746dd3457","ios":"levelo://app?vid=621dbf3d-a8ce-4ff8-b7a2-b61746dd3457"},"vehicle_type_id":"4","last_reported":1700381334,"current_range_meters":26400,"station_id":"ce4bhjp2rcd13ifvqg90","pricing_plan_id":"free"},{"bike_id":"22b727a9-9142-4203-873d-af829385afe6","system_id":"levelo_inurba_marseille","lat":43.26202,"lon":5.379299,"is_reserved":false,"is_disabled":false,"rental_uris":{"android":"levelo://app?vid=22b727a9-9142-4203-873d-af829385afe6","ios":"levelo://app?vid=22b727a9-9142-4203-873d-af829385afe6"},"vehicle_type_id":"4","last_reported":1700381334,"current_range_meters":26800,"station_id":"ce4bhjp2rcd13ifvqg90","pricing_plan_id":"free"},{"bike_id":"bcf0b301-e2a1-41ec-acd8-ca3c9d017f9d","system_id":"levelo_inurba_marseille","lat":43.26202,"lon":5.379299,"is_reserved":false,"is_disabled":false,"rental_uris":{"android":"levelo://app?vid=bcf0b301-e2a1-41ec-acd8-ca3c9d017f9d","ios":"levelo://app?vid=bcf0b301-e2a1-41ec-acd8-ca3c9d017f9d"},"vehicle_type_id":"4","last_reported":1700381334,"current_range_meters":18400,"station_id":"ce4bhjp2rcd13ifvqg90","pricing_plan_id":"free"},{"bike_id":"c4692fbd-b674-4f72-93b8-b45e596d5484","system_id":"levelo_inurba_marseille","lat":43.26202,"lon":5.379299,"is_reserved":false,"is_disabled":false,"rental_uris":{"android":"levelo://app?vid=c4692fbd-b674-4f72-93b8-b45e596d5484","ios":"levelo://app?vid=c4692fbd-b674-4f72-93b8-b45e596d5484"},"vehicle_type_id":"4","last_reported":1700381334,"current_range_meters":22000,"station_id":"ce4bhjp2rcd13ifvqg90","pricing_plan_id":"free"},{"bike_id":"0ad1b81a-6990-449b-b6f7-a2b1217ae316","system_id":"levelo_inurba_marseille","lat":43.26202,"lon":5.379299,"is_reserved":false,"is_disabled":false,"rental_uris":{"android":"levelo://app?vid=0ad1b81a-6990-449b-b6f7-a2b1217ae316","ios":"levelo://app?vid=0ad1b81a-6990-449b-b6f7-a2b1217ae316"},"vehicle_type_id":"4","last_reported":1700381334,"current_range_meters":30800,"station_id":"ce4bhjp2rcd13ifvqg90","pricing_plan_id":"free"},{"bike_id":"6903a251-9f6c-44af-927a-5f7d93eb6a4d","system_id":"levelo_inurba_marseille","lat":43.26202,"lon":5.379299,"is_reserved":false,"is_disabled":false,"rental_uris":{"android":"levelo://app?vid=6903a251-9f6c-44af-927a-5f7d93eb6a4d","ios":"levelo://app?vid=6903a251-9f6c-44af-927a-5f7d93eb6a4d"},"vehicle_type_id":"4","last_reported":1700381334,"current_range_meters":26800,"station_id":"ce4bhjp2rcd13ifvqg90","pricing_plan_id":"free"},{"bike_id":"74ce853b-0d8b-42c9-81c8-17a7564a4b34","system_id":"levelo_inurba_marseille","lat":43.31725,"lon":5.43786,"is_reserved":false,"is_disabled":false,"rental_uris":{"android":"levelo://app?vid=74ce853b-0d8b-42c9-81c8-17a7564a4b34","ios":"levelo://app?vid=74ce853b-0d8b-42c9-81c8-17a7564a4b34"},"vehicle_type_id":"4","last_reported":1700381334,"current_range_meters":15600,"station_id":"","pricing_plan_id":"free"},{"bike_id":"abadc828-69fe-497b-b711-e5360a68b2c4","system_id":"levelo_inurba_marseille","lat":43.29899,"lon":5.43662,"is_reserved":false,"is_disabled":false,"rental_uris":{"android":"levelo://app?vid=abadc828-69fe-497b-b711-e5360a68b2c4","ios":"levelo://app?vid=abadc828-69fe-497b-b711-e5360a68b2c4"},"vehicle_type_id":"4","last_reported":1700381334,"current_range_meters":21600,"station_id":"ce4bhpp2rcd13ifvqhfg","pricing_plan_id":"free"},{"bike_id":"eceaa0f3-52ef-4d0d-b422-04c8e585a271","system_id":"levelo_inurba_marseille","lat":43.28153,"lon":5.42643,"is_reserved":false,"is_disabled":false,"rental_uris":{"android":"levelo://app?vid=eceaa0f3-52ef-4d0d-b422-04c8e585a271","ios":"levelo://app?vid=eceaa0f3-52ef-4d0d-b422-04c8e585a271"},"vehicle_type_id":"4","last_reported":1700381334,"current_range_meters":0,"station_id":"ce4bhnh2rcd13ifvqgug","pricing_plan_id":"free"},{"bike_id":"3646afb5-c275-455c-90ea-8a222762c4a7","system_id":"levelo_inurba_marseille","lat":43.281548,"lon":5.42643,"is_reserved":false,"is_disabled":false,"rental_uris":{"android":"levelo://app?vid=3646afb5-c275-455c-90ea-8a222762c4a7","ios":"levelo://app?vid=3646afb5-c275-455c-90ea-8a222762c4a7"},"vehicle_type_id":"4","last_reported":1700381334,"current_range_meters":0,"station_id":"ce4bhnh2rcd13ifvqgug","pricing_plan_id":"free"},{"bike_id":"4b05078a-8712-4997-a6f5-f5ba1ef519e4","system_id":"levelo_inurba_marseille","lat":43.26064,"lon":5.3939,"is_reserved":false,"is_disabled":false,"rental_uris":{"android":"levelo://app?vid=4b05078a-8712-4997-a6f5-f5ba1ef519e4","ios":"levelo://app?vid=4b05078a-8712-4997-a6f5-f5ba1ef519e4"},"vehicle_type_id":"4","last_reported":1700381334,"current_range_meters":26800,"station_id":"ce4bhh92rcd13ifvqfj0","pricing_plan_id":"free"},