{"last_updated":1703236035,"ttl":30,"version":"2.2","data":{"bikes":[{"bike_id":"d9be9273-6818-4dba-90fd-67ea928effa5","system_id":"levelo_inurba_marseille","lat":43.31341,"lon":5.367098,"is_reserved":false,"is_disabled":false,"rental_uris":{"android":"levelo://app?vid=d9be9273-6818-4dba-90fd-67ea928effa5","ios":"levelo://app?vid=d9be9273-6818-4dba-90fd-67ea928effa5"},"vehicle_type_id":"4","last_reported":1703236035,"current_range_meters":27200,"station_id":"ce4bgr92rcd13ifvqc6g","pricing_plan_id":"free"},{"bike_id":"e5e55641-75e1-4ac4-aada-bb8e333a7a2e","system_id":"levelo_inurba_marseille","lat":43.313391,"lon":5.36706,"is_reserved":false,"is_disabled":false,"rental_uris":{"android":"levelo://app?vid=e5e55641-75e1-4ac4-aada-bb8e333a7a2e","ios":"levelo://app?vid=e5e55641-75e1-4ac4-aada-bb8e333a7a2e"},"vehicle_type_id":"4","last_reported":1703236035,"current_range_meters":18800,"station_id":"ce4bgr92rcd13ifvqc6g","pricing_plan_id":"free"},{"bike_id":"387e0b76-e3b2-4523-ad04-138ee00889c0","system_id":"levelo_inurba_marseille","lat":43.313391,"lon":5.36706,"is_reserved":false,"is_disabled":false,"rental_uris":{"android":"levelo://app?vid=387e0b76-e3b2-4523-ad04-138ee00889c0","ios":"levelo://app?vid=387e0b76-e3b2-4523-ad04-138ee00889c0"},"vehicle_type_id":"4","last_reported":1703236035,"current_range_meters":28800,"station_id":"ce4bgr92rcd13ifvqc6g","pricing_plan_id":"free"},{"bike_id":"61ea5a5d-9237-4652-afe7-eef3dd69c4f1","system_id":"levelo_inurba_marseille","lat":43.31341,"lon":5.367098,"is_reserved":false,"is_disabled":false,"rental_uris":{"android":"levelo://app?vid=61ea5a5d-9237-4652-afe7-eef3dd69c4f1","ios":"levelo://app?vid=61ea5a5d-9237-4652-afe7-eef3dd69c4f1"},"vehicle_type_id":"4","last_reported":1703236035,"current_range_meters":28800,"station_id":"ce4bgr92rcd13ifvqc6g","pricing_plan_id":"free"},{"bike_id":"a24471a6-dea3-45ed-8119-1dfea2abaea5","system_id":"levelo_inurba_marseille","lat":43.313391,"lon":5.36706,"is_reserved":false,"is_disabled":false,"rental_uris":{"android":"levelo://app?vid=a24471a6-dea3-45ed-8119-1dfea2abaea5","ios":"levelo://app?vid=a24471a6-dea3-45ed-8119-1dfea2abaea5"},"vehicle_type_id":"4","last_reported":1703236035,"current_range_meters":30000,"station_id":"ce4bgr92rcd13ifvqc6g","pricing_plan_id":"free"},{"bike_id":"fa5948ab-141d-43da-8a7b-070662ff9bc3","system_id":"levelo_inurba_marseille","lat":43.312239,"lon":5.368562,"is_reserved":false,"is_disabled":false,"rental_uris":{"android":"levelo://app?vid=fa5948ab-141d-43da-8a7b-070662ff9bc3","ios":"levelo://app?vid=fa5948ab-141d-43da-8a7b-070662ff9bc3"},"vehicle_type_id":"4","last_reported":1703236035,"current_range_meters":31200,"station_id":"ce4bgl92rcd13ifvqbq0","pricing_plan_id":"free"},{"bike_id":"fd5fbcb2-82c4-4fdc-b237-a39a5b465b82","system_id":"levelo_inurba_marseille","lat":43.312239,"lon":5.368562,"is_reserved":false,"is_disabled":false,"rental_uris":{"android":"levelo://app?vid=fd5fbcb2-82c4-4fdc-b237-a39a5b465b82","ios":"levelo://app?vid=fd5fbcb2-82c4-4fdc-b237-a39a5b465b82"},"vehicle_type_id":"4","last_reported":1703236035,"current_range_meters":26800,"station_id":"ce4bgl92rcd13ifvqbq0","pricing_plan_id":"free"},{"bike_id":"aa0789ac-8076-426c-ac5c-4a8a9e8240ed","system_id":"levelo_inurba_marseille","lat":43.312239,"lon":5.368562,"is_reserved":false,"is_disabled":false,"rental_uris":{"android":"levelo://app?vid=aa0789ac-8076-426c-ac5c-4a8a9e8240ed","ios":"levelo://app?vid=aa0789ac-8076-426c-ac5c-4a8a9e8240ed"},"vehicle_type_id":"4","last_reported":1703236035,"current_range_meters":14400,"station_id":"ce4bgl92rcd13ifvqbq0","pricing_plan_id":"free"},{"bike_id":"1068ba29-5fb8-4e1d-902c-05896e2fe819","system_id":"levelo_inurba_marseille","lat":43.309076,"lon":5.368465,"is_reserved":false,"is_disabled":false,"rental_uris":{"android":"levelo://app?vid=1068ba29-5fb8-4e1d-902c-05896e2fe819","ios":"levelo://app?vid=1068ba29-5fb8-4e1d-902c-05896e2fe819"},"vehicle_type_id":"4","last_reported":1703236035,"current_range_meters":20000,"station_id":"ce4bgn92rcd13ifvqbvg","pricing_plan_id":"free"},{"bike_id":"eaf1ac56-c914-4ed5-a2ad-c9157a079e81","system_id":"levelo_inurba_marseille","lat":43.309076,"lon":5.368465,"is_reserved":false,"is_disabled":false,"rental_uris":{"android":"levelo://app?vid=eaf1ac56-c914-4ed5-a2ad-c9157a079e81","ios":"levelo://app?vid=eaf1ac56-c914-4ed5-a2ad-c9157a079e81"},"vehicle_type_id":"4","last_reported":1703236035,"current_range_meters":0,"station_id":"ce4bgn92rcd13ifvqbvg","pricing_plan_id":"free"},{"bike_id":"e27a14e1-4a23-47b8-ae24-501e06f4399e","system_id":"levelo_inurba_marseille","lat":43.309076,"lon":5.368465,"is_reserved":false,"is_disabled":false,"rental_uris":{"android":"levelo://app?vid=e27a14e1-4a23-47b8-ae24-501e06f4399e","ios":"levelo://app?vid=e27a14e1-4a23-47b8-ae24-501e06f4399e"},"vehicle_type_id":"4","last_reported":1703236035,"current_range_meters":24400,"station_id":"ce4bgn92rcd13ifvqbvg","pricing_plan_id":"free"},{"bike_id":"36bf2e2d-745f-4ee0-b732-aecb376261da","system_id":"levelo_inurba_marseille","lat":43.309076,"lon":5.368465,"is_reserved":false,"is_disabled":false,"rental_uris":{"android":"levelo://app?vid=36bf2e2d-745f-4ee0-b732-aecb376261da","ios":"levelo://app?vid=36bf2e2d-745f-4ee0-b732-aecb376261da"},"vehicle_type_id":"4","last_reported":1703236035,"current_range_meters":26000,"station_id":"ce4bgn92rcd13ifvqbvg","pricing_plan_id":"free"},{"bike_id":"6bb7cf40-1a7e-45a3-a7cf-3df1c2fc94e1","system_id":"levelo_inurba_marseille","lat":43.305712,"lon":5.365641,"is_reserved":false,"is_disabled":false,"rental_uris":{"android":"levelo://app?vid=6bb7cf40-1a7e-45a3-a7cf-3df1c2fc94e1","ios":"levelo://app?vid=6bb7cf40-1a7e-45a3-a7cf-3df1c2fc94e1"},"vehicle_type_id":"4","last_reported":1703236035,"current_range_meters":13200,"station_id":"ce4bgs12rcd13ifvqcag","pricing_plan_id":"free"},{"bike_id":"a557f9ba-44ab-462a-9969-6e3ef0543c3f","system_id":"levelo_inurba_marseille","lat":43.305368,"lon":5.367343,"is_reserved":false,"is_disabled":false,"rental_uris":{"android":"levelo://app?vid=a557f9ba-44ab-462a-9969-6e3ef0543c3f","ios":"levelo://app?vid=a557f9ba-44ab-462a-9969-6e3ef0543c3f"},"vehicle_type_id":"4","last_reported":1703236035,"current_range_meters":23200,"station_id":"ce4bgrp2rcd13ifvqc9g","pricing_plan_id":"free"},{"bike_id":"ec910eeb-fc03-4a03-9fd1-55d811603d77","system_id":"levelo_inurba_marseille","lat":43.30544,"lon":5.36552,"is_reserved":false,"is_disabled":false,"rental_uris":{"android":"levelo://app?vid=ec910eeb-fc03-4a03-9fd1-55d811603d77","ios":"levelo://app?vid=ec910eeb-fc03-4a03-9fd1-55d811603d77"},"vehicle_type_id":"4","last_reported":1703236035,"current_range_meters":18000,"station_id":"ce4bgs12rcd13ifvqcag","pricing_plan_id":"free"},{"bike_id":"a02172a4-306e-47e6-8fc2-3de1d8112193","system_id":"levelo_inurba_marseille","lat":43.305706,"lon":5.365654,"is_reserved":false,"is_disabled":false,"rental_uris":{"android":"levelo://app?vid=a02172a4-306e-47e6-8fc2-3de1d8112193","ios":"levelo://app?vid=a02172a4-306e-47e6-8fc2-3de1d8112193"},"vehicle_type_id":"4","last_reported":1703236035,"current_range_meters":800,"station_id":"ce4bgs12rcd13ifvqcag","pricing_plan_id":"free"},{"bike_id":"401635c5-dff3-40a1-a84e-2a718388a25c","system_id":"levelo_inurba_marseille","lat":43.305706,"lon":5.365654,"is_reserved":false,"is_disabled":false,"rental_uris":{"android":"levelo://app?vid=401635c5-dff3-40a1-a84e-2a718388a25c","ios":"levelo://app?vid=401635c5-dff3-40a1-a84e-2a718388a25c"},"vehicle_type_id":"4","last_reported":1703236035,"current_range_meters":16400,"station_id":"ce4bgs12rcd13ifvqcag","pricing_plan_id":"free"},{"bike_id":"24795ba9-15e6-400a-bb03-38187a2b0bfc","system_id":"levelo_inurba_marseille","lat":43.305706,"lon":5.365654,"is_reserved":false,"is_disabled":false,"rental_uris":{"android":"levelo://app?vid=24795ba9-15e6-400a-bb03-38187a2b0bfc","ios":"levelo://app?vid=24795ba9-15e6-400a-bb03-38187a2b0bfc"},"vehicle_type_id":"4","last_reported":1703236035,"current_range_meters":31200,"station_id":"ce4bgs12rcd13ifvqcag","pricing_plan_id":"free"},{"bike_id":"bac7f966-575e-450a-8e48-394ffc5da34d","system_id":"levelo_inurba_marseille","lat":43.305989,"lon":5.37225,"is_reserved":false,"is_disabled":false,"rental_uris":{"android":"levelo://app?vid=bac7f966-575e-450a-8e48-394ffc5da34d","ios":"levelo://app?vid=bac7f966-575e-450a-8e48-394ffc5da34d"},"vehicle_type_id":"4","last_reported":1703236035,"current_range_meters":11600,"station_id":"ce4bgqh2rcd13ifvqc4g","pricing_plan_id":"free"},{"bike_id":"9c2b5c12-1e66-4ea4-a871-3fffc8a7df17","system_id":"levelo_inurba_marseille","lat":43.311131,"lon":5.377651,"is_reserved":false,"is_disabled":false,"rental_uris":{"android":"levelo://app?vid=9c2b5c12-1e66-4ea4-a871-3fffc8a7df17","ios":"levelo://app?vid=9c2b5c12-1e66-4ea4-a871-3fffc8a7df17"},"vehicle_type_id":"4","last_reported":1703236035,"current_range_meters":29600,"station_id":"ce4bgt92rcd13ifvqcg0","pricing_plan_id":"free"},{"bike_id":"91d3bb26-85cf-4a58-85e4-631cb392d1b9","system_id":"levelo_inurba_marseille","lat":43.311125,"lon":5.377624,"is_reserved":false,"is_disabled":false,"rental_uris":{"android":"levelo://app?vid=91d3bb26-85cf-4a58-85e4-631cb392d1b9","ios":"levelo://app?vid=91d3bb26-85cf-4a58-85e4-631cb392d1b9"},"vehicle_type_id":"4","last_reported":1703236035,"current_range_meters":8000,"station_id":"ce4bgt92rcd13ifvqcg0","pricing_plan_id":"free"},{"bike_id":"62ac327a-9cb6-469c-a7b9-145ba51016e0","system_id":"levelo_inurba_marseille","lat":43.30304,"lon":5.368987,"is_reserved":false,"is_disabled":false,"rental_uris":{"android":"levelo://app?vid=62ac327a-9cb6-469c-a7b9-145ba51016e0","ios":"levelo://app?vid=62ac327a-9cb6-469c-a7b9-145ba51016e0"},"vehicle_type_id":"4","last_reported":1703236035,"current_range_meters":22800,"station_id":"ce4bgqh2rcd13ifvqc5g","pricing_plan_id":"free"},{"bike_id":"f77994c5-9f0d-4ebb-9aea-03e04a6e3169","system_id":"levelo_inurba_marseille","lat":43.30304,"lon":5.368987,"is_reserved":false,"is_disabled":false,"rental_uris":{"android":"levelo://app?vid=f77994c5-9f0d-4ebb-9aea-03e04a6e3169","ios":"levelo://app?vid=f77994c5-9f0d-4ebb-9aea-03e04a6e3169"},"vehicle_type_id":"4","last_reported":1703236035,"current_range_meters":26400,"station_id":"ce4bgqh2rcd13ifvqc5g","pricing_plan_id":"free"},{"bike_id":"2ed3bfa6-3968-4626-8613-074c8405d666","system_id":"levelo_inurba_marseille","lat":43.304606,"lon":5.379026,"is_reserved":false,"is_disabled":false,"rental_uris":{"android":"levelo://app?vid=2ed3bfa6-3968-4626-8613-074c8405d666","ios":"levelo://app?vid=2ed3bfa6-3968-4626-8613-074c8405d666"},"vehicle_type_id":"4","last_reported":1703236035,"current_range_meters":31200,"station_id":"ce4bgup2rcd13ifvqcn0","pricing_plan_id":"free"},{"bike_id":"69224611-0a94-434e-bfca-4b7172866789","system_id":"levelo_inurba_marseille","lat":43.304606,"lon":5.379026,"is_reserved":false,"is_disabled":false,"rental_uris":{"android":"levelo://app?vid=69224611-0a94-434e-bfca-4b7172866789","ios":"levelo://app?vid=69224611-0a94-434e-bfca-4b7172866789"},"vehicle_type_id":"4","last_reported":1703236035,"current_range_meters":2400,"station_id":"ce4bgup2rcd13ifvqcn0","pricing_plan_id":"free"},{"bike_id":"93a187a2-e76f-43e3-a7c9-e9600da9e92f","system_id":"levelo_inurba_marseille","lat":43.304606,"lon":5.379026,"is_reserved":false,"is_disabled":false,"rental_uris":{"android":"levelo://app?vid=93a187a2-e76f-43e3-a7c9-e9600da9e92f","ios":"levelo://app?vid=93a187a2-e76f-43e3-a7c9-e9600da9e92f"},"vehicle_type_id":"4","last_reported":1703236035,"current_range_meters":0,"station_id":"ce4bgup2rcd13ifvqcn0","pricing_plan_id":"free"},{"bike_id":"7f7ef23d-bca0-4a0f-95c5-169753a11056","system_id":"levelo_inurba_marseille","lat":43.304606,"lon":5.379026,"is_reserved":false,"is_disabled":false,"rental_uris":{"android":"levelo://app?vid=7f7ef23d-bca0-4a0f-95c5-169753a11056","ios":"levelo://app?vid=7f7ef23d-bca0-4a0f-95c5-169753a11056"},"vehicle_type_id":"4","last_reported":1703236035,"current_range_meters":2800,"station_id":"ce4bgup2rcd13ifvqcn0","pricing_plan_id":"free"},{"bike_id":"6c32bb2c-097c-4ce1-a092-c7f1674a1d70","system_id":"levelo_inurba_marseille","lat":43.304606,"lon":5.379026,"is_reserved":false,"is_disabled":false,"rental_uris":{"android":"levelo://app?vid=6c32bb2c-097c-4ce1-a092-c7f1674a1d70","ios":"levelo://app?vid=6c32bb2c-097c-4ce1-a092-c7f1674a1d70"},"vehicle_type_id":"4","last_reported":1703236035,"current_range_meters":24000,"station_id":"ce4bgup2rcd13ifvqcn0","pricing_plan_id":"free"},{"bike_id":"ea63f5ff-ed2a-4a1c-a64b-fef4232b63de","system_id":"levelo_inurba_marseille","lat":43.324771,"lon":5.36557,"is_reserved":false,"is_disabled":false,"rental_uris":{"android":"levelo://app?vid=ea63f5ff-ed2a-4a1c-a64b-fef4232b63de","ios":"levelo://app?vid=ea63f5ff-ed2a-4a1c-a64b-fef4232b63de"},"vehicle_type_id":"4","last_reported":1703236035,"current_range_meters":31200,"station_id":"ce4bhs12rcd13ifvqhvg","pricing_plan_id":"free"},{"bike_id":"5393f3a5-e6f3-407b-b0df-71b0efdebe10","system_id":"levelo_inurba_marseille","lat":43.302784,"lon":5.377158,"is_reserved":false,"is_disabled":false,"rental_uris":{"android":"levelo://app?vid=5393f3a5-e6f3-407b-b0df-71b0efdebe10","ios":"levelo://app?vid=5393f3a5-e6f3-407b-b0df-71b0efdebe10"},"vehicle_type_id":"4","last_reported":1703236035,"current_range_meters":22400,"station_id":"ce4bguh2rcd13ifvqcj0","pricing_plan_id":"free"},{"bike_id":"964e9e84-50ee-4e78-94c5-445bac6e6c57","system_id":"levelo_inurba_marseille","lat":43.301429,"lon":5.37413,"is_reserved":false,"is_disabled":false,"rental_uris":{"android":"levelo://app?vid=964e9e84-50ee-4e78-94c5-445bac6e6c57","ios":"levelo://app?vid=964e9e84-50ee-4e78-94c5-445bac6e6c57"},"vehicle_type_id":"4","last_reported":1703236035,"current_range_meters":23600,"station_id":"ce4bgs92rcd13ifvqcc0","pricing_plan_id":"free"},{"bike_id":"df63329a-cf0d-4708-a5ad-b9cbb895b120","system_id":"levelo_inurba_marseille","lat":43.302784,"lon":5.377158,"is_reserved":false,"is_disabled":false,"rental_uris":{"android":"levelo://app?vid=df63329a-cf0d-4708-a5ad-b9cbb895b120","ios":"levelo://app?vid=df63329a-cf0d-4708-a5ad-b9cbb895b120"},"vehicle_type_id":"4","last_reported":1703236035,"current_range_meters":10000,"station_id":"ce4bguh2rcd13ifvqcj0","pricing_plan_id":"free"},{"bike_id":"2dd3b479-3119-4e1e-b7a4-6c5ad66dd53c","system_id":"levelo_inurba_marseille","lat":43.301429,"lon":5.37413,"is_reserved":false,"is_disabled":false,"rental_uris":{"android":"levelo://app?vid=2dd3b479-3119-4e1e-b7a4-6c5ad66dd53c","ios":"levelo://app?vid=2dd3b479-3119-4e1e-b7a4-6c5ad66dd53c"},"vehicle_type_id":"4","last_reported":1703236035,"current_range_meters":31600,"station_id":"ce4bgs92rcd13ifvqcc0","pricing_plan_id":"free"},{"bike_id":"2939c9ef-a75d-41ad-82b2-d707ded173f9","system_id":"levelo_inurba_marseille","lat":43.301429,"lon":5.37413,"is_reserved":false,"is_disabled":false,"rental_uris":{"android":"levelo://app?vid=2939c9ef-a75d-41ad-82b2-d707ded173f9","ios":"levelo://app?vid=2939c9ef-a75d-41ad-82b2-d707ded173f9"},"vehicle_type_id":"4","last_reported":1703236035,"current_range_meters":2800,"station_id":"ce4bgs92rcd13ifvqcc0","pricing_plan_id":"free"},{"bike_id":"a77e0d5f-e0fa-46c2-8e74-448c47018ad4","system_id":"levelo_inurba_marseille","lat":43.301429,"lon":5.37413,"is_reserved":false,"is_disabled":false,"rental_uris":{"android":"levelo://app?vid=a77e0d5f-e0fa-46c2-8e74-448c47018ad4","ios":"levelo://app?vid=a77e0d5f-e0fa-46c2-8e74-448c47018ad4"},"vehicle_type_id":"4","last_reported":1703236035,"current_range_meters":26800,"station_id":"ce4bgs92rcd13ifvqcc0","pricing_plan_id":"free"},{"bike_id":"51360f23-00df-4b8c-b369-faeb35be788d","system_id":"levelo_inurba_marseille","lat":43.31998,"lon":5.38152,"is_reserved":false,"is_disabled":false,"rental_uris":{"android":"levelo://app?vid=51360f23-00df-4b8c-b369-faeb35be788d","ios":"levelo://app?vid=51360f23-00df-4b8c-b369-faeb35be788d"},"vehicle_type_id":"4","last_reported":1703236035,"current_range_meters":27600,"station_id":"ce4bhr12rcd13ifvqhpg","pricing_plan_id":"free"},{"bike_id":"0effb7f6-23e5-4f02-a1eb-80bdf14a191a","system_id":"levelo_inurba_marseille","lat":43.31998,"lon":5.38153,"is_reserved":false,"is_disabled":false,"rental_uris":{"android":"levelo://app?vid=0effb7f6-23e5-4f02-a1eb-80bdf14a191a","ios":"levelo://app?vid=0effb7f6-23e5-4f02-a1eb-80bdf14a191a"},"vehicle_type_id":"4","last_reported":1703236035,"current_range_meters":29600,"station_id":"ce4bhr12rcd13ifvqhpg","pricing_plan_id":"free"},{"bike_id":"dc0f6af5-c02c-4610-baea-e5c6ca16f530","system_id":"levelo_inurba_marseille","lat":43.320001,"lon":5.381542,"is_reserved":false,"is_disabled":false,"rental_uris":{"android":"levelo://app?vid=dc0f6af5-c02c-4610-baea-e5c6ca16f530","ios":"levelo://app?vid=dc0f6af5-c02c-4610-baea-e5c6ca16f530"},"vehicle_type_id":"4","last_reported":1703236035,"current_range_meters":29600,"station_id":"ce4bhr12rcd13ifvqhpg","pricing_plan_id":"free"},{"bike_id":"af0ab532-e26f-41d4-b9ce-17ae08ae4cee","system_id":"levelo_inurba_marseille","lat":43.320005,"lon":5.381601,"is_reserved":false,"is_disabled":false,"rental_uris":{"android":"levelo://app?vid=af0ab532-e26f-41d4-b9ce-17ae08ae4cee","ios":"levelo://app?vid=af0ab532-e26f-41d4-b9ce-17ae08ae4cee"},"vehicle_type_id":"4","last_reported":1703236035,"current_range_meters":7200,"station_id":"ce4bhr12rcd13ifvqhpg","pricing_plan_id":"free"},{"bike_id":"c5cae810-39cc-4218-86e0-83a8342df03b","system_id":"levelo_inurba_marseille","lat":43.32585,"lon":5.36642,"is_reserved":false,"is_disabled":false,"rental_uris":{"android":"levelo://app?vid=c5cae810-39cc-4218-86e0-83a8342df03b","ios":"levelo://app?vid=c5cae810-39cc-4218-86e0-83a8342df03b"},"vehicle_type_id":"4","last_reported":1703236035,"current_range_meters":10800,"station_id":"","pricing_plan_id":"free"},{"bike_id":"4414ffc8-1564-4297-a5fb-50dceb8116e2","system_id":"levelo_inurba_marseille","lat":43.299724,"lon":5.371829,"is_reserved":false,"is_disabled":false,"rental_uris":{"android":"levelo://app?vid=4414ffc8-1564-4297-a5fb-50dceb8116e2","ios":"levelo://app?vid=4414ffc8-1564-4297-a5fb-50dceb8116e2"},"vehicle_type_id":"4","last_reported":1703236035,"current_range_meters":25600,"station_id":"ce4bgr92rcd13ifvqc7g","pricing_plan_id":"free"},{"bike_id":"e0e7609e-b340-4910-a122-e3b33cb410d5","system_id":"levelo_inurba_marseille","lat":43.299724,"lon":5.371829,"is_reserved":false,"is_disabled":false,"rental_uris":{"android":"levelo://app?vid=e0e7609e-b340-4910-a122-e3b33cb410d5","ios":"levelo://app?vid=e0e7609e-b340-4910-a122-e3b33cb410d5"},"vehicle_type_id":"4","last_reported":1703236035,"current_range_meters":24000,"station_id":"ce4bgr92rcd13ifvqc7g","pricing_plan_id":"free"},{"bike_id":"f49563f5-7575-4198-b85a-04728c35b251","system_id":"levelo_inurba_marseille","lat":43.299222,"lon":5.365554,"is_reserved":false,"is_disabled":false,"rental_uris":{"android":"levelo://app?vid=f49563f5-7575-4198-b85a-04728c35b251","ios":"levelo://app?vid=f49563f5-7575-4198-b85a-04728c35b251"},"vehicle_type_id":"4","last_reported":1703236035,"current_range_meters":2800,"station_id":"ce4bgm92rcd13ifvqbr0","pricing_plan_id":"free"},{"bike_id":"b010fe41-76b7-4cc6-9d9c-de8fed54ed29","system_id":"levelo_inurba_marseille","lat":43.299724,"lon":5.371829,"is_reserved":false,"is_disabled":false,"rental_uris":{"android":"levelo://app?vid=b010fe41-76b7-4cc6-9d9c-de8fed54ed29","ios":"levelo://app?vid=b010fe41-76b7-4cc6-9d9c-de8fed54ed29"},"vehicle_type_id":"4","last_reported":1703236035,"current_range_meters":10400,"station_id":"ce4bgr92rcd13ifvqc7g","pricing_plan_id":"free"},{"bike_id":"7a3bbe3a-998e-44ae-87c6-dd227d3231d8","system_id":"levelo_inurba_marseille","lat":43.298433,"lon":5.362774,"is_reserved":false,"is_disabled":false,"rental_uris":{"android":"levelo://app?vid=7a3bbe3a-998e-44ae-87c6-dd227d3231d8","ios":"levelo://app?vid=7a3bbe3a-998e-44ae-87c6-dd227d3231d8"},"vehicle_type_id":"4","last_reported":1703236035,"current_range_meters":16400,"station_id":"ce4bgpp2rcd13ifvqc3g","pricing_plan_id":"free"},{"bike_id":"5b2af040-5332-4c1e-a9dc-794899885793","system_id":"levelo_inurba_marseille","lat":43.298433,"lon":5.362774,"is_reserved":false,"is_disabled":false,"rental_uris":{"android":"levelo://app?vid=5b2af040-5332-4c1e-a9dc-794899885793","ios":"levelo://app?vid=5b2af040-5332-4c1e-a9dc-794899885793"},"vehicle_type_id":"4","last_reported":1703236035,"current_range_meters":28800,"station_id":"ce4bgpp2rcd13ifvqc3g","pricing_plan_id":"free"},{"bike_id":"a4170d26-fe94-4121-a8e7-728173f260e9","system_id":"levelo_inurba_marseille","lat":43.298433,"lon":5.362774,"is_reserved":false,"is_disabled":false,"rental_uris":{"android":"levelo://app?vid=a4170d26-fe94-4121-a8e7-728173f260e9","ios":"levelo://app?vid=a4170d26-fe94-4121-a8e7-728173f260e9"},"vehicle_type_id":"4","last_reported":1703236035,"current_range_meters":28000,"station_id":"ce4bgpp2rcd13ifvqc3g","pricing_plan_id":"free"},{"bike_id":"6baf5627-4f30-41c0-b24e-50b8cd6737f3","system_id":"levelo_inurba_marseille","lat":43.298433,"lon":5.362774,"is_reserved":false,"is_disabled":false,"rental_uris":{"android":"levelo://app?vid=6baf5627-4f30-41c0-b24e-50b8cd6737f3","ios":"levelo://app?vid=6baf5627-4f30-41c0-b24e-50b8cd6737f3"},"vehicle_type_id":"4","last_reported":1703236035,"current_range_meters":20400,"station_id":"ce4bgpp2rcd13ifvqc3g","pricing_plan_id":"free"},{"bike_id":"160cd746-5f2e-4ae4-8992-4209d99b45f1","system_id":"levelo_inurba_marseille","lat":43.299243,"lon":5.374807,"is_reserved":false,"is_disabled":false,"rental_uris":{"android":"levelo://app?vid=160cd746-5f2e-4ae4-8992-4209d99b45f1","ios":"levelo://app?vid=160cd746-5f2e-4ae4-8992-4209d99b45f1"},"vehicle_type_id":"4","last_reported":1703236035,"current_range_meters":27200,"station_id":"ce4bgjh2rcd13ifvqbg0","pricing_plan_id":"free"},{"bike_id":"7a506112-0d06-4661-96c5-7498b4f17d3d","system_id":"levelo_inurba_marseille","lat":43.31182,"lon":5.38714,"is_reserved":false,"is_disabled":false,"rental_uris":{"android":"levelo://app?vid=7a506112-0d06-4661-96c5-7498b4f17d3d","ios":"levelo://app?vid=7a506112-0d06-4661-96c5-7498b4f17d3d"},"vehicle_type_id":"4","last_reported":1703236035,"current_range_meters":27600,"station_id":"ce4bgv12rcd13ifvqcp0","pricing_plan_id":"free"},{"bike_id":"b802169f-1d66-4bc5-b288-7890e99b3d38","system_id":"levelo_inurba_marseille","lat":43.299243,"lon":5.37481,"is_reserved":false,"is_disabled":false,"rental_uris":{"android":"levelo://app?vid=b802169f-1d66-4bc5-b288-7890e99b3d38","ios":"levelo://app?vid=b802169f-1d66-4bc5-b288-7890e99b3d38"},"vehicle_type_id":"4","last_reported":1703236035,"current_range_meters":30400,"station_id":"ce4bgjh2rcd13ifvqbg0","pricing_plan_id":"free"},{"bike_id":"9ed78dbe-e22f-48e1-9f20-34bb7394a649","system_id":"levelo_inurba_marseille","lat":43.311722,"lon":5.387247,"is_reserved":false,"is_disabled":false,"rental_uris":{"android":"levelo://app?vid=9ed78dbe-e22f-48e1-9f20-34bb7394a649","ios":"levelo://app?vid=9ed78dbe-e22f-48e1-9f20-34bb7394a649"},"vehicle_type_id":"4","last_reported":1703236035,"current_range_meters":22800,"station_id":"ce4bgv12rcd13ifvqcp0","pricing_plan_id":"free"},{"bike_id":"67604964-d2b9-4d0a-b4ce-00b815014e9c","system_id":"levelo_inurba_marseille","lat":43.326937,"lon":5.373183,"is_reserved":false,"is_disabled":false,"rental_uris":{"android":"levelo://app?vid=67604964-d2b9-4d0a-b4ce-00b815014e9c","ios":"levelo://app?vid=67604964-d2b9-4d0a-b4ce-00b815014e9c"},"vehicle_type_id":"4","last_reported":1703236035,"current_range_meters":17200,"station_id":"","pricing_plan_id":"free"},{"bike_id":"6afdec7b-4002-45b5-ba8f-029595865af2","system_id":"levelo_inurba_marseille","lat":43.297794,"lon":5.370888,"is_reserved":false,"is_disabled":false,"rental_uris":{"android":"levelo://app?vid=6afdec7b-4002-45b5-ba8f-029595865af2","ios":"levelo://app?vid=6afdec7b-4002-45b5-ba8f-029595865af2"},"vehicle_type_id":"4","last_reported":1703236035,"current_range_meters":30400,"station_id":"ce4bgop2rcd13ifvqc1g","pricing_plan_id":"free"},{"bike_id":"b58c4005-ed15-40ec-b249-38d0c39e7d3b","system_id":"levelo_inurba_marseille","lat":43.322872,"lon":5.382756,"is_reserved":false,"is_disabled":false,"rental_uris":{"android":"levelo://app?vid=b58c4005-ed15-40ec-b249-38d0c39e7d3b","ios":"levelo://app?vid=b58c4005-ed15-40ec-b249-38d0c39e7d3b"},"vehicle_type_id":"4","last_reported":1703236035,"current_range_meters":30400,"station_id":"ce4bhr12rcd13ifvqhqg","pricing_plan_id":"free"},{"bike_id":"2d0ccb8c-a8f7-4ee9-8463-316526ef0ad5","system_id":"levelo_inurba_marseille","lat":43.322872,"lon":5.382756,"is_reserved":false,"is_disabled":false,"rental_uris":{"android":"levelo://app?vid=2d0ccb8c-a8f7-4ee9-8463-316526ef0ad5","ios":"levelo://app?vid=2d0ccb8c-a8f7-4ee9-8463-316526ef0ad5"},"vehicle_type_id":"4","last_reported":1703236035,"current_range_meters":31200,"station_id":"ce4bhr12rcd13ifvqhqg","pricing_plan_id":"free"},{"bike_id":"0e18aacc-a0a4-43f4-b14e-a9e7be78440e","system_id":"levelo_inurba_marseille","lat":43.328371,"lon":5.366909,"is_reserved":false,"is_disabled":false,"rental_uris":{"android":"levelo://app?vid=0e18aacc-a0a4-43f4-b14e-a9e7be78440e","ios":"levelo://app?vid=0e18aacc-a0a4-43f4-b14e-a9e7be78440e"},"vehicle_type_id":"4","last_reported":1703236035,"current_range_meters":29600,"station_id":"ce4bhs92rcd13ifvqi0g","pricing_plan_id":"free"},{"bike_id":"e299beb3-acc1-46fa-9fec-22d2fe5e6b13","system_id":"levelo_inurba_marseille","lat":43.328371,"lon":5.366909,"is_reserved":false,"is_disabled":false,"rental_uris":{"android":"levelo://app?vid=e299beb3-acc1-46fa-9fec-22d2fe5e6b13","ios":"levelo://app?vid=e299beb3-acc1-46fa-9fec-22d2fe5e6b13"},"vehicle_type_id":"4","last_reported":1703236035,"current_range_meters":18800,"station_id":"ce4bhs92rcd13ifvqi0g","pricing_plan_id":"free"},{"bike_id":"8bf0395d-c27d-407d-bf00-1fe14b7d1f01","system_id":"levelo_inurba_marseille","lat":43.328371,"lon":5.366909,"is_reserved":false,"is_disabled":false,"rental_uris":{"android":"levelo://app?vid=8bf0395d-c27d-407d-bf00-1fe14b7d1f01","ios":"levelo://app?vid=8bf0395d-c27d-407d-bf00-1fe14b7d1f01"},"vehicle_type_id":"4","last_reported":1703236035,"current_range_meters":6000,"station_id":"ce4bhs92rcd13ifvqi0g","pricing_plan_id":"free"},{"bike_id":"45265c4c-2fc1-404c-b248-6d0b42aee4af","system_id":"levelo_inurba_marseille","lat":43.328371,"lon":5.366912,"is_reserved":false,"is_disabled":false,"rental_uris":{"android":"levelo://app?vid=45265c4c-2fc1-404c-b248-6d0b42aee4af","ios":"levelo://app?vid=45265c4c-2fc1-404c-b248-6d0b42aee4af"},"vehicle_type_id":"4","last_reported":1703236035,"current_range_meters":24800,"station_id":"ce4bhs92rcd13ifvqi0g","pricing_plan_id":"free"},{"bike_id":"fd993600-015b-4a57-8e11-1499ff8a6b71","system_id":"levelo_inurba_marseille","lat":43.328371,"lon":5.366909,"is_reserved":false,"is_disabled":false,"rental_uris":{"android":"levelo://app?vid=fd993600-015b-4a57-8e11-1499ff8a6b71","ios":"levelo://app?vid=fd993600-015b-4a57-8e11-1499ff8a6b71"},"vehicle_type_id":"4","last_reported":1703236035,"current_range_meters":17600,"station_id":"ce4bhs92rcd13ifvqi0g","pricing_plan_id":"free"},{"bike_id":"525f6ec1-c089-48ad-8216-d8e073aa768d","system_id":"levelo_inurba_marseille","lat":43.328371,"lon":5.366909,"is_reserved":false,"is_disabled":false,"rental_uris":{"android":"levelo://app?vid=525f6ec1-c089-48ad-8216-d8e073aa768d","ios":"levelo://app?vid=525f6ec1-c089-48ad-8216-d8e073aa768d"},"vehicle_type_id":"4","last_reported":1703236035,"current_range_meters":8400,"station_id":"ce4bhs92rcd13ifvqi0g","pricing_plan_id":"free"},{"bike_id":"0c61e5bc-f901-4d08-bb9d-5ad9dd6497f2","system_id":"levelo_inurba_marseille","lat":43.297163,"lon":5.365866,"is_reserved":false,"is_disabled":false,"rental_uris":{"android":"levelo://app?vid=0c61e5bc-f901-4d08-bb9d-5ad9dd6497f2","ios":"levelo://app?vid=0c61e5bc-f901-4d08-bb9d-5ad9dd6497f2"},"vehicle_type_id":"4","last_reported":1703236035,"current_range_meters":12400,"station_id":"ce4bgn12rcd13ifvqbt0","pricing_plan_id":"free"},{"bike_id":"f1df16cd-78f3-4274-ac16-67f6886fccdc","system_id":"levelo_inurba_marseille","lat":43.297163,"lon":5.365866,"is_reserved":false,"is_disabled":false,"rental_uris":{"android":"levelo://app?vid=f1df16cd-78f3-4274-ac16-67f6886fccdc","ios":"levelo://app?vid=f1df16cd-78f3-4274-ac16-67f6886fccdc"},"vehicle_type_id":"4","last_reported":1703236035,"current_range_meters":3200,"station_id":"ce4bgn12rcd13ifvqbt0","pricing_plan_id":"free"},{"bike_id":"a168877e-a7d0-431a-87ce-ca1756882521","system_id":"levelo_inurba_marseille","lat":43.2968,"lon":5.37291,"is_reserved":false,"is_disabled":false,"rental_uris":{"android":"levelo://app?vid=a168877e-a7d0-431a-87ce-ca1756882521","ios":"levelo://app?vid=a168877e-a7d0-431a-87ce-ca1756882521"},"vehicle_type_id":"4","last_reported":1703236035,"current_range_meters":29600,"station_id":"ce4bgk12rcd13ifvqbj0","pricing_plan_id":"free"},{"bike_id":"7cab028f-1a2d-4471-97ab-a3d7ba1afb1f","system_id":"levelo_inurba_marseille","lat":43.2968,"lon":5.37291,"is_reserved":false,"is_disabled":false,"rental_uris":{"android":"levelo://app?vid=7cab028f-1a2d-4471-97ab-a3d7ba1afb1f","ios":"levelo://app?vid=7cab028f-1a2d-4471-97ab-a3d7ba1afb1f"},"vehicle_type_id":"4","last_reported":1703236035,"current_range_meters":20800,"station_id":"ce4bgk12rcd13ifvqbj0","pricing_plan_id":"free"},{"bike_id":"14733658-01bd-46b1-8338-cd76464dddfc","system_id":"levelo_inurba_marseille","lat":43.29573,"lon":5.367355,"is_reserved":false,"is_disabled":false,"rental_uris":{"android":"levelo://app?vid=14733658-01bd-46b1-8338-cd76464dddfc","ios":"levelo://app?vid=14733658-01bd-46b1-8338-cd76464dddfc"},"vehicle_type_id":"4","last_reported":1703236035,"current_range_meters":10800,"station_id":"ce4bgph2rcd13ifvqc2g","pricing_plan_id":"free"},{"bike_id":"117fb11a-4928-41fe-91e1-e322676c8bba","system_id":"levelo_inurba_marseille","lat":43.29573,"lon":5.367355,"is_reserved":false,"is_disabled":false,"rental_uris":{"android":"levelo://app?vid=117fb11a-4928-41fe-91e1-e322676c8bba","ios":"levelo://app?vid=117fb11a-4928-41fe-91e1-e322676c8bba"},"vehicle_type_id":"4","last_reported":1703236035,"current_range_meters":25200,"station_id":"ce4bgph2rcd13ifvqc2g","pricing_plan_id":"free"},{"bike_id":"ca94db62-448a-43a3-ac0c-3c6677797741","system_id":"levelo_inurba_marseille","lat":43.309589,"lon":5.390258,"is_reserved":false,"is_disabled":false,"rental_uris":{"android":"levelo://app?vid=ca94db62-448a-43a3-ac0c-3c6677797741","ios":"levelo://app?vid=ca94db62-448a-43a3-ac0c-3c6677797741"},"vehicle_type_id":"4","last_reported":1703236035,"current_range_meters":29600,"station_id":"ce4bgup2rcd13ifvqco0","pricing_plan_id":"free"},{"bike_id":"ae522b74-89b3-4357-80ea-e50308b7ede2","system_id":"levelo_inurba_marseille","lat":43.296921,"lon":5.376579,"is_reserved":false,"is_disabled":false,"rental_uris":{"android":"levelo://app?vid=ae522b74-89b3-4357-80ea-e50308b7ede2","ios":"levelo://app?vid=ae522b74-89b3-4357-80ea-e50308b7ede2"},"vehicle_type_id":"4","last_reported":1703236035,"current_range_meters":27200,"station_id":"ce4bgkh2rcd13ifvqbl0","pricing_plan_id":"free"},{"bike_id":"b4bc59da-b0ba-4058-95f7-1ecf6a433714","system_id":"levelo_inurba_marseille","lat":43.309589,"lon":5.390258,"is_reserved":false,"is_disabled":false,"rental_uris":{"android":"levelo://app?vid=b4bc59da-b0ba-4058-95f7-1ecf6a433714","ios":"levelo://app?vid=b4bc59da-b0ba-4058-95f7-1ecf6a433714"},"vehicle_type_id":"4","last_reported":1703236035,"current_range_meters":27200,"station_id":"ce4bgup2rcd13ifvqco0","pricing_plan_id":"free"},{"bike_id":"8770e03e-8526-4ba1-b4ea-6cef146a428c","system_id":"levelo_inurba_marseille","lat":43.309589,"lon":5.390258,"is_reserved":false,"is_disabled":false,"rental_uris":{"android":"levelo://app?vid=8770e03e-8526-4ba1-b4ea-6cef146a428c","ios":"levelo://app?vid=8770e03e-8526-4ba1-b4ea-6cef146a428c"},"vehicle_type_id":"4","last_reported":1703236035,"current_range_meters":26800,"station_id":"ce4bgup2rcd13ifvqco0","pricing_plan_id":"free"},{"bike_id":"16cafd93-cdac-483c-8960-ef5fa278b7ef","system_id":"levelo_inurba_marseille","lat":43.309589,"lon":5.390258,"is_reserved":false,"is_disabled":false,"rental_uris":{"android":"levelo://app?vid=16cafd93-cdac-483c-8960-ef5fa278b7ef","ios":"levelo://app?vid=16cafd93-cdac-483c-8960-ef5fa278b7ef"},"vehicle_type_id":"4","last_reported":1703236035,"current_range_meters":29200,"station_id":"ce4bgup2rcd13ifvqco0","pricing_plan_id":"free"},{"bike_id":"dae6e121-82df-40f2-b249-cce22c874f53","system_id":"levelo_inurba_marseille","lat":43.309589,"lon":5.390258,"is_reserved":false,"is_disabled":false,"rental_uris":{"android":"levelo://app?vid=dae6e121-82df-40f2-b249-cce22c874f53","ios":"levelo://app?vid=dae6e121-82df-40f2-b249-cce22c874f53"},"vehicle_type_id":"4","last_reported":1703236035,"current_range_meters":7600,"station_id":"ce4bgup2rcd13ifvqco0","pricing_plan_id":"free"},{"bike_id":"7eada8fb-8c59-41ea-ae15-1164bd9fc1af","system_id":"levelo_inurba_marseille","lat":43.317557,"lon":5.390173,"is_reserved":false,"is_disabled":false,"rental_uris":{"android":"levelo://app?vid=7eada8fb-8c59-41ea-ae15-1164bd9fc1af","ios":"levelo://app?vid=7eada8fb-8c59-41ea-ae15-1164bd9fc1af"},"vehicle_type_id":"4","last_reported":1703236035,"current_range_meters":27600,"station_id":"ce4bhqp2rcd13ifvqhng","pricing_plan_id":"free"},{"bike_id":"3a1f228d-06ce-4355-b331-b83130b7013a","system_id":"levelo_inurba_marseille","lat":43.317557,"lon":5.390173,"is_reserved":false,"is_disabled":false,"rental_uris":{"android":"levelo://app?vid=3a1f228d-06ce-4355-b331-b83130b7013a","ios":"levelo://app?vid=3a1f228d-06ce-4355-b331-b83130b7013a"},"vehicle_type_id":"4","last_reported":1703236035,"current_range_meters":10800,"station_id":"ce4bhqp2rcd13ifvqhng","pricing_plan_id":"free"},{"bike_id":"53d02047-2fc2-4d30-88b2-583fd58923ab","system_id":"levelo_inurba_marseille","lat":43.317557,"lon":5.390173,"is_reserved":false,"is_disabled":false,"rental_uris":{"android":"levelo://app?vid=53d02047-2fc2-4d30-88b2-583fd58923ab","ios":"levelo://app?vid=53d02047-2fc2-4d30-88b2-583fd58923ab"},"vehicle_type_id":"4","last_reported":1703236035,"current_range_meters":30800,"station_id":"ce4bhqp2rcd13ifvqhng","pricing_plan_id":"free"},{"bike_id":"057bda3d-1ee8-4cae-9218-2544a3cd461f","system_id":"levelo_inurba_marseille","lat":43.304274,"lon":5.388873,"is_reserved":false,"is_disabled":false,"rental_uris":{"android":"levelo://app?vid=057bda3d-1ee8-4cae-9218-2544a3cd461f","ios":"levelo://app?vid=057bda3d-1ee8-4cae-9218-2544a3cd461f"},"vehicle_type_id":"4","last_reported":1703236035,"current_range_meters":25600,"station_id":"ce4bgk12rcd13ifvqbi0","pricing_plan_id":"free"},{"bike_id":"7eddd4ef-4412-4d08-b904-aadde9d34113","system_id":"levelo_inurba_marseille","lat":43.295748,"lon":5.37522,"is_reserved":false,"is_disabled":false,"rental_uris":{"android":"levelo://app?vid=7eddd4ef-4412-4d08-b904-aadde9d34113","ios":"levelo://app?vid=7eddd4ef-4412-4d08-b904-aadde9d34113"},"vehicle_type_id":"4","last_reported":1703236035,"current_range_meters":25600,"station_id":"ce4bgh92rcd13ifvqb50","pricing_plan_id":"free"},{"bike_id":"1f5c3596-63ae-4c95-b4f7-32fe00963874","system_id":"levelo_inurba_marseille","lat":43.304274,"lon":5.388873,"is_reserved":false,"is_disabled":false,"rental_uris":{"android":"levelo://app?vid=1f5c3596-63ae-4c95-b4f7-32fe00963874","ios":"levelo://app?vid=1f5c3596-63ae-4c95-b4f7-32fe00963874"},"vehicle_type_id":"4","last_reported":1703236035,"current_range_meters":19200,"station_id":"ce4bgk12rcd13ifvqbi0","pricing_plan_id":"free"},{"bike_id":"a4789943-8668-4c6a-9b87-f9403616b966","system_id":"levelo_inurba_marseille","lat":43.304278,"lon":5.388868,"is_reserved":false,"is_disabled":false,"rental_uris":{"android":"levelo://app?vid=a4789943-8668-4c6a-9b87-f9403616b966","ios":"levelo://app?vid=a4789943-8668-4c6a-9b87-f9403616b966"},"vehicle_type_id":"4","last_reported":1703236035,"current_range_meters":27600,"station_id":"ce4bgk12rcd13ifvqbi0","pricing_plan_id":"free"},{"bike_id":"f74a1598-3149-449f-bc84-deb4baab9d85","system_id":"levelo_inurba_marseille","lat":43.296263,"lon":5.377094,"is_reserved":false,"is_disabled":false,"rental_uris":{"android":"levelo://app?vid=f74a1598-3149-449f-bc84-deb4baab9d85","ios":"levelo://app?vid=f74a1598-3149-449f-bc84-deb4baab9d85"},"vehicle_type_id":"4","last_reported":1703236035,"current_range_meters":29200,"station_id":"ce4bgi92rcd13ifvqb90","pricing_plan_id":"free"},{"bike_id":"1378810b-812d-44e5-847a-1b7aeb90e4c4","system_id":"levelo_inurba_marseille","lat":43.299,"lon":5.38357,"is_reserved":false,"is_disabled":false,"rental_uris":{"android":"levelo://app?vid=1378810b-812d-44e5-847a-1b7aeb90e4c4","ios":"levelo://app?vid=1378810b-812d-44e5-847a-1b7aeb90e4c4"},"vehicle_type_id":"4","last_reported":1703236035,"current_range_meters":6800,"station_id":"","pricing_plan_id":"free"},{"bike_id":"7919eadd-c520-4cda-9196-5dc5695e55f6","system_id":"levelo_inurba_marseille","lat":43.298429,"lon":5.382786,"is_reserved":false,"is_disabled":false,"rental_uris":{"android":"levelo://app?vid=7919eadd-c520-4cda-9196-5dc5695e55f6","ios":"levelo://app?vid=7919eadd-c520-4cda-9196-5dc5695e55f6"},"vehicle_type_id":"4","last_reported":1703236035,"current_range_meters":6400,"station_id":"","pricing_plan_id":"free"},{"bike_id":"2547a6ba-f202-45d7-9560-1bcae0ed5972","system_id":"levelo_inurba_marseille","lat":43.299724,"lon":5.384848,"is_reserved":false,"is_disabled":false,"rental_uris":{"android":"levelo://app?vid=2547a6ba-f202-45d7-9560-1bcae0ed5972","ios":"levelo://app?vid=2547a6ba-f202-45d7-9560-1bcae0ed5972"},"vehicle_type_id":"4","last_reported":1703236035,"current_range_meters":6000,"station_id":"ce4bgj92rcd13ifvqbd0","pricing_plan_id":"free"},{"bike_id":"4ec7f9ee-3059-4281-9f08-dc41f2a9f5d0","system_id":"levelo_inurba_marseille","lat":43.32367,"lon":5.388836,"is_reserved":false,"is_disabled":false,"rental_uris":{"android":"levelo://app?vid=4ec7f9ee-3059-4281-9f08-dc41f2a9f5d0","ios":"levelo://app?vid=4ec7f9ee-3059-4281-9f08-dc41f2a9f5d0"},"vehicle_type_id":"4","last_reported":1703236035,"current_range_meters":6800,"station_id":"ce4bhqp2rcd13ifvqhog","pricing_plan_id":"free"},{"bike_id":"7825f2e2-5dc0-48bf-9610-bf0be308ff43","system_id":"levelo_inurba_marseille","lat":43.32367,"lon":5.388836,"is_reserved":false,"is_disabled":false,"rental_uris":{"android":"levelo://app?vid=7825f2e2-5dc0-48bf-9610-bf0be308ff43","ios":"levelo://app?vid=7825f2e2-5dc0-48bf-9610-bf0be308ff43"},"vehicle_type_id":"4","last_reported":1703236035,"current_range_meters":0,"station_id":"ce4bhqp2rcd13ifvqhog","pricing_plan_id":"free"},{"bike_id":"c63e5769-18da-4431-86a0-1325e0ee1435","system_id":"levelo_inurba_marseille","lat":43.32367,"lon":5.388836,"is_reserved":false,"is_disabled":false,"rental_uris":{"android":"levelo://app?vid=c63e5769-18da-4431-86a0-1325e0ee1435","ios":"levelo://app?vid=c63e5769-18da-4431-86a0-1325e0ee1435"},"vehicle_type_id":"4","last_reported":1703236035,"current_range_meters":26400,"station_id":"ce4bhqp2rcd13ifvqhog","pricing_plan_id":"free"},{"bike_id":"43325e32-9ed5-4c1e-ae00-71f7b44be0db","system_id":"levelo_inurba_marseille","lat":43.292749,"lon":5.368402,"is_reserved":false,"is_disabled":false,"rental_uris":{"android":"levelo://app?vid=43325e32-9ed5-4c1e-ae00-71f7b44be0db","ios":"levelo://app?vid=43325e32-9ed5-4c1e-ae00-71f7b44be0db"},"vehicle_type_id":"4","last_reported":1703236035,"current_range_meters":11200,"station_id":"ce4bhbp2rcd13ifvqesg","pricing_plan_id":"free"},{"bike_id":"ba12219f-1edb-4cd3-a1a6-6763f97bd1fb","system_id":"levelo_inurba_marseille","lat":43.292749,"lon":5.368402,"is_reserved":false,"is_disabled":false,"rental_uris":{"android":"levelo://app?vid=ba12219f-1edb-4cd3-a1a6-6763f97bd1fb","ios":"levelo://app?vid=ba12219f-1edb-4cd3-a1a6-6763f97bd1fb"},"vehicle_type_id":"4","last_reported":1703236035,"current_range_meters":22400,"station_id":"ce4bhbp2rcd13ifvqesg","pricing_plan_id":"free"},{"bike_id":"57f890dd-ab67-4070-9184-af668dafd215","system_id":"levelo_inurba_marseille","lat":43.293009,"lon":5.374584,"is_reserved":false,"is_disabled":false,"rental_uris":{"android":"levelo://app?vid=57f890dd-ab67-4070-9184-af668dafd215","ios":"levelo://app?vid=57f890dd-ab67-4070-9184-af668dafd215"},"vehicle_type_id":"4","last_reported":1703236035,"current_range_meters":30000,"station_id":"ce4bgi12rcd13ifvqb70","pricing_plan_id":"free"},{"bike_id":"73bc4254-091e-4208-bb7a-e7e78d066eaf","system_id":"levelo_inurba_marseille","lat":43.30598,"lon":5.39358,"is_reserved":false,"is_disabled":false,"rental_uris":{"android":"levelo://app?vid=73bc4254-091e-4208-bb7a-e7e78d066eaf","ios":"levelo://app?vid=73bc4254-091e-4208-bb7a-e7e78d066eaf"},"vehicle_type_id":"4","last_reported":1703236035,"current_range_meters":27600,"station_id":"ce4bh0p2rcd13ifvqd80","pricing_plan_id":"free"},{"bike_id":"84c1a834-5a65-498f-a093-35f3f9c9bd3b","system_id":"levelo_inurba_marseille","lat":43.293009,"lon":5.374584,"is_reserved":false,"is_disabled":false,"rental_uris":{"android":"levelo://app?vid=84c1a834-5a65-498f-a093-35f3f9c9bd3b","ios":"levelo://app?vid=84c1a834-5a65-498f-a093-35f3f9c9bd3b"},"vehicle_type_id":"4","last_reported":1703236035,"current_range_meters":20400,"station_id":"ce4bgi12rcd13ifvqb70","pricing_plan_id":"free"},{"bike_id":"5ab992d5-1898-4ec6-8901-e5165f0f4166","system_id":"levelo_inurba_marseille","lat":43.2936,"lon":5.37835,"is_reserved":false,"is_disabled":false,"rental_uris":{"android":"levelo://app?vid=5ab992d5-1898-4ec6-8901-e5165f0f4166","ios":"levelo://app?vid=5ab992d5-1898-4ec6-8901-e5165f0f4166"},"vehicle_type_id":"4","last_reported":1703236035,"current_range_meters":25600,"station_id":"ce4bgjh2rcd13ifvqbf0","pricing_plan_id":"free"},{"bike_id":"7bae1750-c196-4c01-90e4-4d4e0885a2a4","system_id":"levelo_inurba_marseille","lat":43.2936,"lon":5.37835,"is_reserved":false,"is_disabled":false,"rental_uris":{"android":"levelo://app?vid=7bae1750-c196-4c01-90e4-4d4e0885a2a4","ios":"levelo://app?vid=7bae1750-c196-4c01-90e4-4d4e0885a2a4"},"vehicle_type_id":"4","last_reported":1703236035,"current_range_meters":14400,"station_id":"ce4bgjh2rcd13ifvqbf0","pricing_plan_id":"free"},{"bike_id":"5e7fe082-f46f-45cd-ac1e-6acdb67c9950","system_id":"levelo_inurba_marseille","lat":43.292311,"lon":5.360731,"is_reserved":false,"is_disabled":false,"rental_uris":{"android":"levelo://app?vid=5e7fe082-f46f-45cd-ac1e-6acdb67c9950","ios":"levelo://app?vid=5e7fe082-f46f-45cd-ac1e-6acdb67c9950"},"vehicle_type_id":"4","last_reported":1703236035,"current_range_meters":20000,"station_id":"ce4bhbh2rcd13ifvqeqg","pricing_plan_id":"free"},{"bike_id":"8eca33e5-8b19-4379-b984-dc3bae0f4d55","system_id":"levelo_inurba_marseille","lat":43.292311,"lon":5.360731,"is_reserved":false,"is_disabled":false,"rental_uris":{"android":"levelo://app?vid=8eca33e5-8b19-4379-b984-dc3bae0f4d55","ios":"levelo://app?vid=8eca33e5-8b19-4379-b984-dc3bae0f4d55"},"vehicle_type_id":"4","last_reported":1703236035,"current_range_meters":17200,"station_id":"ce4bhbh2rcd13ifvqeqg","pricing_plan_id":"free"},{"bike_id":"6eb6cfa6-7568-4742-8b9c-97bf6ce79a34","system_id":"levelo_inurba_marseille","lat":43.291675,"lon":5.371583,"is_reserved":false,"is_disabled":false,"rental_uris":{"android":"levelo://app?vid=6eb6cfa6-7568-4742-8b9c-97bf6ce79a34","ios":"levelo://app?vid=6eb6cfa6-7568-4742-8b9c-97bf6ce79a34"},"vehicle_type_id":"4","last_reported":1703236035,"current_range_meters":25600,"station_id":"ce4bha92rcd13ifvqeh0","pricing_plan_id":"free"},{"bike_id":"65c3534d-7694-4760-9396-1f7dcbf0c85f","system_id":"levelo_inurba_marseille","lat":43.291675,"lon":5.371583,"is_reserved":false,"is_disabled":false,"rental_uris":{"android":"levelo://app?vid=65c3534d-7694-4760-9396-1f7dcbf0c85f","ios":"levelo://app?vid=65c3534d-7694-4760-9396-1f7dcbf0c85f"},"vehicle_type_id":"4","last_reported":1703236035,"current_range_meters":20000,"station_id":"ce4bha92rcd13ifvqeh0","pricing_plan_id":"free"},{"bike_id":"f5c4779a-c736-424c-8304-268798bae435","system_id":"levelo_inurba_marseille","lat":43.291675,"lon":5.371583,"is_reserved":false,"is_disabled":false,"rental_uris":{"android":"levelo://app?vid=f5c4779a-c736-424c-8304-268798bae435","ios":"levelo://app?vid=f5c4779a-c736-424c-8304-268798bae435"},"vehicle_type_id":"4","last_reported":1703236035,"current_range_meters":0,"station_id":"ce4bha92rcd13ifvqeh0","pricing_plan_id":"free"},{"bike_id":"b53b5008-b5c1-4536-bcce-f15c9935dbb6","system_id":"levelo_inurba_marseille","lat":43.291671,"lon":5.371575,"is_reserved":false,"is_disabled":false,"rental_uris":{"android":"levelo://app?vid=b53b5008-b5c1-4536-bcce-f15c9935dbb6","ios":"levelo://app?vid=b53b5008-b5c1-4536-bcce-f15c9935dbb6"},"vehicle_type_id":"4","last_reported":1703236035,"current_range_meters":27200,"station_id":"ce4bha92rcd13ifvqeh0","pricing_plan_id":"free"},{"bike_id":"86bf21f0-a262-489a-b2bc-0e1ae6d117e9","system_id":"levelo_inurba_marseille","lat":43.291675,"lon":5.371583,"is_reserved":false,"is_disabled":false,"rental_uris":{"android":"levelo://app?vid=86bf21f0-a262-489a-b2bc-0e1ae6d117e9","ios":"levelo://app?vid=86bf21f0-a262-489a-b2bc-0e1ae6d117e9"},"vehicle_type_id":"4","last_reported":1703236035,"current_range_meters":21200,"station_id":"ce4bha92rcd13ifvqeh0","pricing_plan_id":"free"},{"bike_id":"71db60f9-7767-4728-b0e7-ed3c76a3b7e6","system_id":"levelo_inurba_marseille","lat":43.290779,"lon":5.371482,"is_reserved":false,"is_disabled":false,"rental_uris":{"android":"levelo://app?vid=71db60f9-7767-4728-b0e7-ed3c76a3b7e6","ios":"levelo://app?vid=71db60f9-7767-4728-b0e7-ed3c76a3b7e6"},"vehicle_type_id":"4","last_reported":1703236035,"current_range_meters":20000,"station_id":"ce4bh5p2rcd13ifvqe4g","pricing_plan_id":"free"},{"bike_id":"70344f9e-d7ad-4db6-b74a-57864c5dbb37","system_id":"levelo_inurba_marseille","lat":43.290779,"lon":5.371482,"is_reserved":false,"is_disabled":false,"rental_uris":{"android":"levelo://app?vid=70344f9e-d7ad-4db6-b74a-57864c5dbb37","ios":"levelo://app?vid=70344f9e-d7ad-4db6-b74a-57864c5dbb37"},"vehicle_type_id":"4","last_reported":1703236035,"current_range_meters":18000,"station_id":"ce4bh5p2rcd13ifvqe4g","pricing_plan_id":"free"},{"bike_id":"bb9bfdcd-fd78-4bdd-94c4-2a2befb99590","system_id":"levelo_inurba_marseille","lat":43.290779,"lon":5.371482,"is_reserved":false,"is_disabled":false,"rental_uris":{"android":"levelo://app?vid=bb9bfdcd-fd78-4bdd-94c4-2a2befb99590","ios":"levelo://app?vid=bb9bfdcd-fd78-4bdd-94c4-2a2befb99590"},"vehicle_type_id":"4","last_reported":1703236035,"current_range_meters":25600,"station_id":"ce4bh5p2rcd13ifvqe4g","pricing_plan_id":"free"},{"bike_id":"36812749-f83c-4294-a5f2-95c2aa1512df","system_id":"levelo_inurba_marseille","lat":43.290327,"lon":5.375711,"is_reserved":false,"is_disabled":false,"rental_uris":{"android":"levelo://app?vid=36812749-f83c-4294-a5f2-95c2aa1512df","ios":"levelo://app?vid=36812749-f83c-4294-a5f2-95c2aa1512df"},"vehicle_type_id":"4","last_reported":1703236035,"current_range_meters":15200,"station_id":"ce4bh692rcd13ifvqe90","pricing_plan_id":"free"},{"bike_id":"dd7b8686-9a98-4d5a-9be6-07c7f91e9d52","system_id":"levelo_inurba_marseille","lat":43.290104,"lon":5.356111,"is_reserved":false,"is_disabled":false,"rental_uris":{"android":"levelo://app?vid=dd7b8686-9a98-4d5a-9be6-07c7f91e9d52","ios":"levelo://app?vid=dd7b8686-9a98-4d5a-9be6-07c7f91e9d52"},"vehicle_type_id":"4","last_reported":1703236035,"current_range_meters":3200,"station_id":"ce4bhb92rcd13ifvqen0","pricing_plan_id":"free"},{"bike_id":"f8914631-4a7b-4c19-af88-c57e901d0108","system_id":"levelo_inurba_marseille","lat":43.290103,"lon":5.356114,"is_reserved":false,"is_disabled":false,"rental_uris":{"android":"levelo://app?vid=f8914631-4a7b-4c19-af88-c57e901d0108","ios":"levelo://app?vid=f8914631-4a7b-4c19-af88-c57e901d0108"},"vehicle_type_id":"4","last_reported":1703236035,"current_range_meters":0,"station_id":"ce4bhb92rcd13ifvqen0","pricing_plan_id":"free"},{"bike_id":"fbf951b8-ab0e-4037-aab4-055070a208a1","system_id":"levelo_inurba_marseille","lat":43.290995,"lon":5.381361,"is_reserved":false,"is_disabled":false,"rental_uris":{"android":"levelo://app?vid=fbf951b8-ab0e-4037-aab4-055070a208a1","ios":"levelo://app?vid=fbf951b8-ab0e-4037-aab4-055070a208a1"},"vehicle_type_id":"4","last_reported":1703236035,"current_range_meters":5600,"station_id":"ce4bh512rcd13ifvqe2g","pricing_plan_id":"free"},{"bike_id":"2f4f1ba0-7ac8-4bd2-bbfc-9b79bf79332f","system_id":"levelo_inurba_marseille","lat":43.290995,"lon":5.381361,"is_reserved":false,"is_disabled":false,"rental_uris":{"android":"levelo://app?vid=2f4f1ba0-7ac8-4bd2-bbfc-9b79bf79332f","ios":"levelo://app?vid=2f4f1ba0-7ac8-4bd2-bbfc-9b79bf79332f"},"vehicle_type_id":"4","last_reported":1703236035,"current_range_meters":6800,"station_id":"ce4bh512rcd13ifvqe2g","pricing_plan_id":"free"},{"bike_id":"b6bfd4e4-ecf8-4855-a2ea-fdd10bee5a5d","system_id":"levelo_inurba_marseille","lat":43.290995,"lon":5.381361,"is_reserved":false,"is_disabled":false,"rental_uris":{"android":"levelo://app?vid=b6bfd4e4-ecf8-4855-a2ea-fdd10bee5a5d","ios":"levelo://app?vid=b6bfd4e4-ecf8-4855-a2ea-fdd10bee5a5d"},"vehicle_type_id":"4","last_reported":1703236035,"current_range_meters":28800,"station_id":"ce4bh512rcd13ifvqe2g","pricing_plan_id":"free"},{"bike_id":"bb30e42b-f6a9-4e78-bb1e-3078ad2f2afd","system_id":"levelo_inurba_marseille","lat":43.289741,"lon":5.378306,"is_reserved":false,"is_disabled":false,"rental_uris":{"android":"levelo://app?vid=bb30e42b-f6a9-4e78-bb1e-3078ad2f2afd","ios":"levelo://app?vid=bb30e42b-f6a9-4e78-bb1e-3078ad2f2afd"},"vehicle_type_id":"4","last_reported":1703236035,"current_range_meters":12400,"station_id":"ce4bh9p2rcd13ifvqed0","pricing_plan_id":"free"},{"bike_id":"99a384e8-0f93-453d-b289-fd41a009a797","system_id":"levelo_inurba_marseille","lat":43.29777,"lon":5.3935,"is_reserved":false,"is_disabled":false,"rental_uris":{"android":"levelo://app?vid=99a384e8-0f93-453d-b289-fd41a009a797","ios":"levelo://app?vid=99a384e8-0f93-453d-b289-fd41a009a797"},"vehicle_type_id":"4","last_reported":1703236035,"current_range_meters":5600,"station_id":"chh1huq6cuj3fo74tm60","pricing_plan_id":"free"},{"bike_id":"ac5aa76c-bf02-4e48-ae78-9934599d7cf1","system_id":"levelo_inurba_marseille","lat":43.290094,"lon":5.381264,"is_reserved":false,"is_disabled":false,"rental_uris":{"android":"levelo://app?vid=ac5aa76c-bf02-4e48-ae78-9934599d7cf1","ios":"levelo://app?vid=ac5aa76c-bf02-4e48-ae78-9934599d7cf1"},"vehicle_type_id":"4","last_reported":1703236035,"current_range_meters":20800,"station_id":"ce4bh4p2rcd13ifvqe1g","pricing_plan_id":"free"},{"bike_id":"0cb86a80-642f-4363-ac13-044412a82c75","system_id":"levelo_inurba_marseille","lat":43.290094,"lon":5.381264,"is_reserved":false,"is_disabled":false,"rental_uris":{"android":"levelo://app?vid=0cb86a80-642f-4363-ac13-044412a82c75","ios":"levelo://app?vid=0cb86a80-642f-4363-ac13-044412a82c75"},"vehicle_type_id":"4","last_reported":1703236035,"current_range_meters":5600,"station_id":"ce4bh4p2rcd13ifvqe1g","pricing_plan_id":"free"},{"bike_id":"a41d0fce-7638-4480-9471-e5fd01c1c3a5","system_id":"levelo_inurba_marseille","lat":43.2901,"lon":5.381269,"is_reserved":false,"is_disabled":false,"rental_uris":{"android":"levelo://app?vid=a41d0fce-7638-4480-9471-e5fd01c1c3a5","ios":"levelo://app?vid=a41d0fce-7638-4480-9471-e5fd01c1c3a5"},"vehicle_type_id":"4","last_reported":1703236035,"current_range_meters":18800,"station_id":"ce4bh4p2rcd13ifvqe1g","pricing_plan_id":"free"},{"bike_id":"3b11d344-04bb-4807-852f-e610690e9850","system_id":"levelo_inurba_marseille","lat":43.2901,"lon":5.381269,"is_reserved":false,"is_disabled":false,"rental_uris":{"android":"levelo://app?vid=3b11d344-04bb-4807-852f-e610690e9850","ios":"levelo://app?vid=3b11d344-04bb-4807-852f-e610690e9850"},"vehicle_type_id":"4","last_reported":1703236035,"current_range_meters":26800,"station_id":"ce4bh4p2rcd13ifvqe1g","pricing_plan_id":"free"},{"bike_id":"9533357e-6494-4526-8e64-5b9bfc4dd739","system_id":"levelo_inurba_marseille","lat":43.287184,"lon":5.37937,"is_reserved":false,"is_disabled":false,"rental_uris":{"android":"levelo://app?vid=9533357e-6494-4526-8e64-5b9bfc4dd739","ios":"levelo://app?vid=9533357e-6494-4526-8e64-5b9bfc4dd739"},"vehicle_type_id":"4","last_reported":1703236035,"current_range_meters":12400,"station_id":"ce4bh9p2rcd13ifvqec0","pricing_plan_id":"free"},{"bike_id":"83a58e7d-cb3a-4e3c-921a-2c69e374ba19","system_id":"levelo_inurba_marseille","lat":43.309371,"lon":5.401449,"is_reserved":false,"is_disabled":false,"rental_uris":{"android":"levelo://app?vid=83a58e7d-cb3a-4e3c-921a-2c69e374ba19","ios":"levelo://app?vid=83a58e7d-cb3a-4e3c-921a-2c69e374ba19"},"vehicle_type_id":"4","last_reported":1703236035,"current_range_meters":21600,"station_id":"ce4bgvp2rcd13ifvqct0","pricing_plan_id":"free"},{"bike_id":"a6af8a10-a45e-4627-8fa3-68098f7b37c3","system_id":"levelo_inurba_marseille","lat":43.286961,"lon":5.373785,"is_reserved":false,"is_disabled":false,"rental_uris":{"android":"levelo://app?vid=a6af8a10-a45e-4627-8fa3-68098f7b37c3","ios":"levelo://app?vid=a6af8a10-a45e-4627-8fa3-68098f7b37c3"},"vehicle_type_id":"4","last_reported":1703236035,"current_range_meters":13200,"station_id":"ce4bh3p2rcd13ifvqdq0","pricing_plan_id":"free"},{"bike_id":"1e6fd785-a07b-40f8-90e8-3e68570010c5","system_id":"levelo_inurba_marseille","lat":43.286961,"lon":5.373785,"is_reserved":false,"is_disabled":false,"rental_uris":{"android":"levelo://app?vid=1e6fd785-a07b-40f8-90e8-3e68570010c5","ios":"levelo://app?vid=1e6fd785-a07b-40f8-90e8-3e68570010c5"},"vehicle_type_id":"4","last_reported":1703236035,"current_range_meters":10000,"station_id":"ce4bh3p2rcd13ifvqdq0","pricing_plan_id":"free"},{"bike_id":"1d5e3658-f05f-4a2b-8fd7-734c824c2572","system_id":"levelo_inurba_marseille","lat":43.295194,"lon":5.39397,"is_reserved":false,"is_disabled":false,"rental_uris":{"android":"levelo://app?vid=1d5e3658-f05f-4a2b-8fd7-734c824c2572","ios":"levelo://app?vid=1d5e3658-f05f-4a2b-8fd7-734c824c2572"},"vehicle_type_id":"4","last_reported":1703236035,"current_range_meters":18800,"station_id":"ce4bh292rcd13ifvqdf0","pricing_plan_id":"free"},{"bike_id":"274478f5-d7ca-4138-be88-3abdeffee854","system_id":"levelo_inurba_marseille","lat":43.295196,"lon":5.39397,"is_reserved":false,"is_disabled":false,"rental_uris":{"android":"levelo://app?vid=274478f5-d7ca-4138-be88-3abdeffee854","ios":"levelo://app?vid=274478f5-d7ca-4138-be88-3abdeffee854"},"vehicle_type_id":"4","last_reported":1703236035,"current_range_meters":1600,"station_id":"ce4bh292rcd13ifvqdf0","pricing_plan_id":"free"},{"bike_id":"7b8822eb-5efd-4aad-b681-c81f0c88fc4c","system_id":"levelo_inurba_marseille","lat":43.290345,"lon":5.38646,"is_reserved":false,"is_disabled":false,"rental_uris":{"android":"levelo://app?vid=7b8822eb-5efd-4aad-b681-c81f0c88fc4c","ios":"levelo://app?vid=7b8822eb-5efd-4aad-b681-c81f0c88fc4c"},"vehicle_type_id":"4","last_reported":1703236035,"current_range_meters":28800,"station_id":"ce4bh4p2rcd13ifvqe0g","pricing_plan_id":"free"},{"bike_id":"a8089545-0974-4646-87ff-8263c36ae20d","system_id":"levelo_inurba_marseille","lat":43.290336,"lon":5.386425,"is_reserved":false,"is_disabled":false,"rental_uris":{"android":"levelo://app?vid=a8089545-0974-4646-87ff-8263c36ae20d","ios":"levelo://app?vid=a8089545-0974-4646-87ff-8263c36ae20d"},"vehicle_type_id":"4","last_reported":1703236035,"current_range_meters":10800,"station_id":"ce4bh4p2rcd13ifvqe0g","pricing_plan_id":"free"},{"bike_id":"657b4d30-11c4-4174-ae70-5f17e3ee8719","system_id":"levelo_inurba_marseille","lat":43.286039,"lon":5.370679,"is_reserved":false,"is_disabled":false,"rental_uris":{"android":"levelo://app?vid=657b4d30-11c4-4174-ae70-5f17e3ee8719","ios":"levelo://app?vid=657b4d30-11c4-4174-ae70-5f17e3ee8719"},"vehicle_type_id":"4","last_reported":1703236035,"current_range_meters":31200,"station_id":"ce4bht12rcd13ifvqi60","pricing_plan_id":"free"},{"bike_id":"40c6375e-ef0c-48ab-9b4c-4db7f4e79c48","system_id":"levelo_inurba_marseille","lat":43.287184,"lon":5.37937,"is_reserved":false,"is_disabled":false,"rental_uris":{"android":"levelo://app?vid=40c6375e-ef0c-48ab-9b4c-4db7f4e79c48","ios":"levelo://app?vid=40c6375e-ef0c-48ab-9b4c-4db7f4e79c48"},"vehicle_type_id":"4","last_reported":1703236035,"current_range_meters":29600,"station_id":"ce4bh9p2rcd13ifvqec0","pricing_plan_id":"free"},{"bike_id":"8adbf8c9-53f7-4485-a157-f85e20d21ffd","system_id":"levelo_inurba_marseille","lat":43.287184,"lon":5.37937,"is_reserved":false,"is_disabled":false,"rental_uris":{"android":"levelo://app?vid=8adbf8c9-53f7-4485-a157-f85e20d21ffd","ios":"levelo://app?vid=8adbf8c9-53f7-4485-a157-f85e20d21ffd"},"vehicle_type_id":"4","last_reported":1703236035,"current_range_meters":24800,"station_id":"ce4bh9p2rcd13ifvqec0","pricing_plan_id":"free"},{"bike_id":"8f7425dc-ad88-4e39-979f-f8c0e39deba4","system_id":"levelo_inurba_marseille","lat":43.287185,"lon":5.379373,"is_reserved":false,"is_disabled":false,"rental_uris":{"android":"levelo://app?vid=8f7425dc-ad88-4e39-979f-f8c0e39deba4","ios":"levelo://app?vid=8f7425dc-ad88-4e39-979f-f8c0e39deba4"},"vehicle_type_id":"4","last_reported":1703236035,"current_range_meters":28400,"station_id":"ce4bh9p2rcd13ifvqec0","pricing_plan_id":"free"},{"bike_id":"bb5e09d8-b6ac-4343-885c-25b611f81e6d","system_id":"levelo_inurba_marseille","lat":43.316821,"lon":5.404737,"is_reserved":false,"is_disabled":false,"rental_uris":{"android":"levelo://app?vid=bb5e09d8-b6ac-4343-885c-25b611f81e6d","ios":"levelo://app?vid=bb5e09d8-b6ac-4343-885c-25b611f81e6d"},"vehicle_type_id":"4","last_reported":1703236035,"current_range_meters":0,"station_id":"ce4bh012rcd13ifvqd00","pricing_plan_id":"free"},{"bike_id":"92207474-9a10-4739-9f61-76efde2174a5","system_id":"levelo_inurba_marseille","lat":43.316828,"lon":5.404723,"is_reserved":false,"is_disabled":false,"rental_uris":{"android":"levelo://app?vid=92207474-9a10-4739-9f61-76efde2174a5","ios":"levelo://app?vid=92207474-9a10-4739-9f61-76efde2174a5"},"vehicle_type_id":"4","last_reported":1703236035,"current_range_meters":13200,"station_id":"ce4bh012rcd13ifvqd00","pricing_plan_id":"free"},{"bike_id":"e2adfa7c-882e-48a1-9ee4-b36e6186ebbf","system_id":"levelo_inurba_marseille","lat":43.330912,"lon":5.396935,"is_reserved":false,"is_disabled":false,"rental_uris":{"android":"levelo://app?vid=e2adfa7c-882e-48a1-9ee4-b36e6186ebbf","ios":"levelo://app?vid=e2adfa7c-882e-48a1-9ee4-b36e6186ebbf"},"vehicle_type_id":"4","last_reported":1703236035,"current_range_meters":19200,"station_id":"","pricing_plan_id":"free"},{"bike_id":"6681f091-8cae-40db-82be-2afedc79afec","system_id":"levelo_inurba_marseille","lat":43.29787,"lon":5.40089,"is_reserved":false,"is_disabled":false,"rental_uris":{"android":"levelo://app?vid=6681f091-8cae-40db-82be-2afedc79afec","ios":"levelo://app?vid=6681f091-8cae-40db-82be-2afedc79afec"},"vehicle_type_id":"4","last_reported":1703236035,"current_range_meters":6800,"station_id":"","pricing_plan_id":"free"},{"bike_id":"3a46dc4a-68b3-488d-a372-7282ac2f1180","system_id":"levelo_inurba_marseille","lat":43.286595,"lon":5.386795,"is_reserved":false,"is_disabled":false,"rental_uris":{"android":"levelo://app?vid=3a46dc4a-68b3-488d-a372-7282ac2f1180","ios":"levelo://app?vid=3a46dc4a-68b3-488d-a372-7282ac2f1180"},"vehicle_type_id":"4","last_reported":1703236035,"current_range_meters":30800,"station_id":"ce4bh492rcd13ifvqdug","pricing_plan_id":"free"},{"bike_id":"41775817-55ed-4996-a343-c642549974a6","system_id":"levelo_inurba_marseille","lat":43.286595,"lon":5.386795,"is_reserved":false,"is_disabled":false,"rental_uris":{"android":"levelo://app?vid=41775817-55ed-4996-a343-c642549974a6","ios":"levelo://app?vid=41775817-55ed-4996-a343-c642549974a6"},"vehicle_type_id":"4","last_reported":1703236035,"current_range_meters":28000,"station_id":"ce4bh492rcd13ifvqdug","pricing_plan_id":"free"},{"bike_id":"0f198e8d-f2d4-4d28-bdc3-217031595060","system_id":"levelo_inurba_marseille","lat":43.286595,"lon":5.386795,"is_reserved":false,"is_disabled":false,"rental_uris":{"android":"levelo://app?vid=0f198e8d-f2d4-4d28-bdc3-217031595060","ios":"levelo://app?vid=0f198e8d-f2d4-4d28-bdc3-217031595060"},"vehicle_type_id":"4","last_reported":1703236035,"current_range_meters":23600,"station_id":"ce4bh492rcd13ifvqdug","pricing_plan_id":"free"},{"bike_id":"9d6893e2-7192-4a6d-82e0-69c0a3078e44","system_id":"levelo_inurba_marseille","lat":43.319179,"lon":5.407725,"is_reserved":false,"is_disabled":false,"rental_uris":{"android":"levelo://app?vid=9d6893e2-7192-4a6d-82e0-69c0a3078e44","ios":"levelo://app?vid=9d6893e2-7192-4a6d-82e0-69c0a3078e44"},"vehicle_type_id":"4","last_reported":1703236035,"current_range_meters":31200,"station_id":"ce4bhq12rcd13ifvqhig","pricing_plan_id":"free"},{"bike_id":"a396a5d3-3428-4c7d-bbce-d046d97fc93c","system_id":"levelo_inurba_marseille","lat":43.337168,"lon":5.391825,"is_reserved":false,"is_disabled":false,"rental_uris":{"android":"levelo://app?vid=a396a5d3-3428-4c7d-bbce-d046d97fc93c","ios":"levelo://app?vid=a396a5d3-3428-4c7d-bbce-d046d97fc93c"},"vehicle_type_id":"4","last_reported":1703236035,"current_range_meters":20400,"station_id":"ce4bhr92rcd13ifvqhsg","pricing_plan_id":"free"},{"bike_id":"687269d2-e082-4930-b7b6-db76459f0cad","system_id":"levelo_inurba_marseille","lat":43.323464,"lon":5.406297,"is_reserved":false,"is_disabled":false,"rental_uris":{"android":"levelo://app?vid=687269d2-e082-4930-b7b6-db76459f0cad","ios":"levelo://app?vid=687269d2-e082-4930-b7b6-db76459f0cad"},"vehicle_type_id":"4","last_reported":1703236035,"current_range_meters":6800,"station_id":"ce4bhq92rcd13ifvqhjg","pricing_plan_id":"free"},{"bike_id":"aa1bea3e-ff5f-4c49-a630-426ec3e7598d","system_id":"levelo_inurba_marseille","lat":43.323464,"lon":5.406297,"is_reserved":false,"is_disabled":false,"rental_uris":{"android":"levelo://app?vid=aa1bea3e-ff5f-4c49-a630-426ec3e7598d","ios":"levelo://app?vid=aa1bea3e-ff5f-4c49-a630-426ec3e7598d"},"vehicle_type_id":"4","last_reported":1703236035,"current_range_meters":31200,"station_id":"ce4bhq92rcd13ifvqhjg","pricing_plan_id":"free"},{"bike_id":"dfdadb00-295f-4147-bb7b-992e830130a9","system_id":"levelo_inurba_marseille","lat":43.323464,"lon":5.406297,"is_reserved":false,"is_disabled":false,"rental_uris":{"android":"levelo://app?vid=dfdadb00-295f-4147-bb7b-992e830130a9","ios":"levelo://app?vid=dfdadb00-295f-4147-bb7b-992e830130a9"},"vehicle_type_id":"4","last_reported":1703236035,"current_range_meters":31200,"station_id":"ce4bhq92rcd13ifvqhjg","pricing_plan_id":"free"},{"bike_id":"361799b8-0ade-4629-b104-c461534604f1","system_id":"levelo_inurba_marseille","lat":43.323464,"lon":5.406297,"is_reserved":false,"is_disabled":false,"rental_uris":{"android":"levelo://app?vid=361799b8-0ade-4629-b104-c461534604f1","ios":"levelo://app?vid=361799b8-0ade-4629-b104-c461534604f1"},"vehicle_type_id":"4","last_reported":1703236035,"current_range_meters":3600,"station_id":"ce4bhq92rcd13ifvqhjg","pricing_plan_id":"free"},{"bike_id":"6e7a404c-d4bf-447a-9767-4844bd529e49","system_id":"levelo_inurba_marseille","lat":43.288501,"lon":5.393087,"is_reserved":false,"is_disabled":false,"rental_uris":{"android":"levelo://app?vid=6e7a404c-d4bf-447a-9767-4844bd529e49","ios":"levelo://app?vid=6e7a404c-d4bf-447a-9767-4844bd529e49"},"vehicle_type_id":"4","last_reported":1703236035,"current_range_meters":21600,"station_id":"ce4bh2p2rcd13ifvqdi0","pricing_plan_id":"free"},{"bike_id":"519eeb6f-bf39-45e2-ba7f-fe2b2571fc1e","system_id":"levelo_inurba_marseille","lat":43.284787,"lon":5.384116,"is_reserved":false,"is_disabled":false,"rental_uris":{"android":"levelo://app?vid=519eeb6f-bf39-45e2-ba7f-fe2b2571fc1e","ios":"levelo://app?vid=519eeb6f-bf39-45e2-ba7f-fe2b2571fc1e"},"vehicle_type_id":"4","last_reported":1703236035,"current_range_meters":28000,"station_id":"ce4bh512rcd13ifvqe3g","pricing_plan_id":"free"},{"bike_id":"838387d1-585c-4a78-8342-31318d8c34b5","system_id":"levelo_inurba_marseille","lat":43.283494,"lon":5.380945,"is_reserved":false,"is_disabled":false,"rental_uris":{"android":"levelo://app?vid=838387d1-585c-4a78-8342-31318d8c34b5","ios":"levelo://app?vid=838387d1-585c-4a78-8342-31318d8c34b5"},"vehicle_type_id":"4","last_reported":1703236035,"current_range_meters":0,"station_id":"ce4bh412rcd13ifvqdr0","pricing_plan_id":"free"},{"bike_id":"812a54f4-9c91-48dd-88f9-1abc58444c37","system_id":"levelo_inurba_marseille","lat":43.288501,"lon":5.393087,"is_reserved":false,"is_disabled":false,"rental_uris":{"android":"levelo://app?vid=812a54f4-9c91-48dd-88f9-1abc58444c37","ios":"levelo://app?vid=812a54f4-9c91-48dd-88f9-1abc58444c37"},"vehicle_type_id":"4","last_reported":1703236035,"current_range_meters":30000,"station_id":"ce4bh2p2rcd13ifvqdi0","pricing_plan_id":"free"},{"bike_id":"67cf2095-8da6-42df-aada-95a13af0c352","system_id":"levelo_inurba_marseille","lat":43.292724,"lon":5.401131,"is_reserved":false,"is_disabled":false,"rental_uris":{"android":"levelo://app?vid=67cf2095-8da6-42df-aada-95a13af0c352","ios":"levelo://app?vid=67cf2095-8da6-42df-aada-95a13af0c352"},"vehicle_type_id":"4","last_reported":1703236035,"current_range_meters":4400,"station_id":"ce4bh312rcd13ifvqdk0","pricing_plan_id":"free"},{"bike_id":"1035d818-fdf3-449a-9258-0bce173637c6","system_id":"levelo_inurba_marseille","lat":43.29153,"lon":5.40046,"is_reserved":false,"is_disabled":false,"rental_uris":{"android":"levelo://app?vid=1035d818-fdf3-449a-9258-0bce173637c6","ios":"levelo://app?vid=1035d818-fdf3-449a-9258-0bce173637c6"},"vehicle_type_id":"4","last_reported":1703236035,"current_range_meters":19200,"station_id":"","pricing_plan_id":"free"},{"bike_id":"fa59b084-d1c5-4ace-aa4b-2719bc273797","system_id":"levelo_inurba_marseille","lat":43.282744,"lon":5.350533,"is_reserved":false,"is_disabled":false,"rental_uris":{"android":"levelo://app?vid=fa59b084-d1c5-4ace-aa4b-2719bc273797","ios":"levelo://app?vid=fa59b084-d1c5-4ace-aa4b-2719bc273797"},"vehicle_type_id":"4","last_reported":1703236035,"current_range_meters":30000,"station_id":"ce4bhbp2rcd13ifvqerg","pricing_plan_id":"free"},{"bike_id":"22fb4aa0-1dae-44d1-b6a1-d1959e599b45","system_id":"levelo_inurba_marseille","lat":43.2904,"lon":5.39936,"is_reserved":false,"is_disabled":false,"rental_uris":{"android":"levelo://app?vid=22fb4aa0-1dae-44d1-b6a1-d1959e599b45","ios":"levelo://app?vid=22fb4aa0-1dae-44d1-b6a1-d1959e599b45"},"vehicle_type_id":"4","last_reported":1703236035,"current_range_meters":4400,"station_id":"ce4bh392rcd13ifvqdm0","pricing_plan_id":"free"},{"bike_id":"31353ce1-7de5-4c63-ad09-7c6f7f93c1b6","system_id":"levelo_inurba_marseille","lat":43.290412,"lon":5.399633,"is_reserved":false,"is_disabled":false,"rental_uris":{"android":"levelo://app?vid=31353ce1-7de5-4c63-ad09-7c6f7f93c1b6","ios":"levelo://app?vid=31353ce1-7de5-4c63-ad09-7c6f7f93c1b6"},"vehicle_type_id":"4","last_reported":1703236035,"current_range_meters":13200,"station_id":"ce4bh392rcd13ifvqdm0","pricing_plan_id":"free"},{"bike_id":"052270ca-d550-4333-8329-c4fa8688e83f","system_id":"levelo_inurba_marseille","lat":43.29034,"lon":5.39964,"is_reserved":false,"is_disabled":false,"rental_uris":{"android":"levelo://app?vid=052270ca-d550-4333-8329-c4fa8688e83f","ios":"levelo://app?vid=052270ca-d550-4333-8329-c4fa8688e83f"},"vehicle_type_id":"4","last_reported":1703236035,"current_range_meters":31200,"station_id":"ce4bh392rcd13ifvqdm0","pricing_plan_id":"free"},{"bike_id":"81b5e6d1-8acb-4a8a-b329-0b30df024934","system_id":"levelo_inurba_marseille","lat":43.290412,"lon":5.399633,"is_reserved":false,"is_disabled":false,"rental_uris":{"android":"levelo://app?vid=81b5e6d1-8acb-4a8a-b329-0b30df024934","ios":"levelo://app?vid=81b5e6d1-8acb-4a8a-b329-0b30df024934"},"vehicle_type_id":"4","last_reported":1703236035,"current_range_meters":28000,"station_id":"ce4bh392rcd13ifvqdm0","pricing_plan_id":"free"},{"bike_id":"c76730af-eb06-4a9d-8197-4cb46b719d9b","system_id":"levelo_inurba_marseille","lat":43.290412,"lon":5.399633,"is_reserved":false,"is_disabled":false,"rental_uris":{"android":"levelo://app?vid=c76730af-eb06-4a9d-8197-4cb46b719d9b","ios":"levelo://app?vid=c76730af-eb06-4a9d-8197-4cb46b719d9b"},"vehicle_type_id":"4","last_reported":1703236035,"current_range_meters":25200,"station_id":"ce4bh392rcd13ifvqdm0","pricing_plan_id":"free"},{"bike_id":"e3cd9575-35a1-484e-9baf-9effa4fc0876","system_id":"levelo_inurba_marseille","lat":43.290412,"lon":5.399633,"is_reserved":false,"is_disabled":false,"rental_uris":{"android":"levelo://app?vid=e3cd9575-35a1-484e-9baf-9effa4fc0876","ios":"levelo://app?vid=e3cd9575-35a1-484e-9baf-9effa4fc0876"},"vehicle_type_id":"4","last_reported":1703236035,"current_range_meters":17200,"station_id":"ce4bh392rcd13ifvqdm0","pricing_plan_id":"free"},{"bike_id":"752de529-6fa7-4742-9b6d-149822349528","system_id":"levelo_inurba_marseille","lat":43.29033,"lon":5.39969,"is_reserved":false,"is_disabled":false,"rental_uris":{"android":"levelo://app?vid=752de529-6fa7-4742-9b6d-149822349528","ios":"levelo://app?vid=752de529-6fa7-4742-9b6d-149822349528"},"vehicle_type_id":"4","last_reported":1703236035,"current_range_meters":20000,"station_id":"ce4bh392rcd13ifvqdm0","pricing_plan_id":"free"},{"bike_id":"6c4631dc-eb75-4848-8403-53e57fff05e0","system_id":"levelo_inurba_marseille","lat":43.284462,"lon":5.392121,"is_reserved":false,"is_disabled":false,"rental_uris":{"android":"levelo://app?vid=6c4631dc-eb75-4848-8403-53e57fff05e0","ios":"levelo://app?vid=6c4631dc-eb75-4848-8403-53e57fff05e0"},"vehicle_type_id":"4","last_reported":1703236035,"current_range_meters":23600,"station_id":"ce4bhoh2rcd13ifvqh5g","pricing_plan_id":"free"},{"bike_id":"170ab2bf-d29f-4d5f-982a-a6ad40f685fd","system_id":"levelo_inurba_marseille","lat":43.28601,"lon":5.39998,"is_reserved":false,"is_disabled":false,"rental_uris":{"android":"levelo://app?vid=170ab2bf-d29f-4d5f-982a-a6ad40f685fd","ios":"levelo://app?vid=170ab2bf-d29f-4d5f-982a-a6ad40f685fd"},"vehicle_type_id":"4","last_reported":1703236035,"current_range_meters":13600,"station_id":"","pricing_plan_id":"free"},{"bike_id":"1afe6a6f-7637-4a46-9001-5cd508934db3","system_id":"levelo_inurba_marseille","lat":43.32541,"lon":5.41426,"is_reserved":false,"is_disabled":false,"rental_uris":{"android":"levelo://app?vid=1afe6a6f-7637-4a46-9001-5cd508934db3","ios":"levelo://app?vid=1afe6a6f-7637-4a46-9001-5cd508934db3"},"vehicle_type_id":"4","last_reported":1703236035,"current_range_meters":16800,"station_id":"ce4bhq12rcd13ifvqhhg","pricing_plan_id":"free"},{"bike_id":"09a21094-8e68-4ed9-9f1b-f64de89ddab8","system_id":"levelo_inurba_marseille","lat":43.32535,"lon":5.41436,"is_reserved":false,"is_disabled":false,"rental_uris":{"android":"levelo://app?vid=09a21094-8e68-4ed9-9f1b-f64de89ddab8","ios":"levelo://app?vid=09a21094-8e68-4ed9-9f1b-f64de89ddab8"},"vehicle_type_id":"4","last_reported":1703236035,"current_range_meters":28000,"station_id":"ce4bhq12rcd13ifvqhhg","pricing_plan_id":"free"},{"bike_id":"ccf08482-4944-4717-985c-c41efcbf1de2","system_id":"levelo_inurba_marseille","lat":43.325233,"lon":5.414318,"is_reserved":false,"is_disabled":false,"rental_uris":{"android":"levelo://app?vid=ccf08482-4944-4717-985c-c41efcbf1de2","ios":"levelo://app?vid=ccf08482-4944-4717-985c-c41efcbf1de2"},"vehicle_type_id":"4","last_reported":1703236035,"current_range_meters":31600,"station_id":"ce4bhq12rcd13ifvqhhg","pricing_plan_id":"free"},{"bike_id":"7cfd6e71-5272-400f-a668-9236c74e8277","system_id":"levelo_inurba_marseille","lat":43.32542,"lon":5.41442,"is_reserved":false,"is_disabled":false,"rental_uris":{"android":"levelo://app?vid=7cfd6e71-5272-400f-a668-9236c74e8277","ios":"levelo://app?vid=7cfd6e71-5272-400f-a668-9236c74e8277"},"vehicle_type_id":"4","last_reported":1703236035,"current_range_meters":22800,"station_id":"ce4bhq12rcd13ifvqhhg","pricing_plan_id":"free"},{"bike_id":"21f01083-e6a0-46eb-b58f-8e39e640143f","system_id":"levelo_inurba_marseille","lat":43.325233,"lon":5.414318,"is_reserved":false,"is_disabled":false,"rental_uris":{"android":"levelo://app?vid=21f01083-e6a0-46eb-b58f-8e39e640143f","ios":"levelo://app?vid=21f01083-e6a0-46eb-b58f-8e39e640143f"},"vehicle_type_id":"4","last_reported":1703236035,"current_range_meters":26800,"station_id":"ce4bhq12rcd13ifvqhhg","pricing_plan_id":"free"},{"bike_id":"9c5ad8b9-a33c-4feb-91bd-64ce3b0d8c02","system_id":"levelo_inurba_marseille","lat":43.32548,"lon":5.41444,"is_reserved":false,"is_disabled":false,"rental_uris":{"android":"levelo://app?vid=9c5ad8b9-a33c-4feb-91bd-64ce3b0d8c02","ios":"levelo://app?vid=9c5ad8b9-a33c-4feb-91bd-64ce3b0d8c02"},"vehicle_type_id":"4","last_reported":1703236035,"current_range_meters":8000,"station_id":"ce4bhq12rcd13ifvqhhg","pricing_plan_id":"free"},{"bike_id":"e10cc150-4041-48d5-aaa1-023406c60c29","system_id":"levelo_inurba_marseille","lat":43.273613,"lon":5.362705,"is_reserved":false,"is_disabled":false,"rental_uris":{"android":"levelo://app?vid=e10cc150-4041-48d5-aaa1-023406c60c29","ios":"levelo://app?vid=e10cc150-4041-48d5-aaa1-023406c60c29"},"vehicle_type_id":"4","last_reported":1703236035,"current_range_meters":12000,"station_id":"ce4bhbh2rcd13ifvqeo0","pricing_plan_id":"free"},{"bike_id":"f1edc802-0ccc-4821-9ca7-279093c88d45","system_id":"levelo_inurba_marseille","lat":43.336134,"lon":5.410341,"is_reserved":false,"is_disabled":false,"rental_uris":{"android":"levelo://app?vid=f1edc802-0ccc-4821-9ca7-279093c88d45","ios":"levelo://app?vid=f1edc802-0ccc-4821-9ca7-279093c88d45"},"vehicle_type_id":"4","last_reported":1703236035,"current_range_meters":31200,"station_id":"ce4bhqh2rcd13ifvqhmg","pricing_plan_id":"free"},{"bike_id":"fa6b1700-890f-4539-9d7b-e8b8a4e0b4f0","system_id":"levelo_inurba_marseille","lat":43.275625,"lon":5.384392,"is_reserved":false,"is_disabled":false,"rental_uris":{"android":"levelo://app?vid=fa6b1700-890f-4539-9d7b-e8b8a4e0b4f0","ios":"levelo://app?vid=fa6b1700-890f-4539-9d7b-e8b8a4e0b4f0"},"vehicle_type_id":"4","last_reported":1703236035,"current_range_meters":26800,"station_id":"ce4bhh92rcd13ifvqfi0","pricing_plan_id":"free"},{"bike_id":"c12de7e8-a347-40e6-8797-e98d6d1cb1b5","system_id":"levelo_inurba_marseille","lat":43.336148,"lon":5.410349,"is_reserved":false,"is_disabled":false,"rental_uris":{"android":"levelo://app?vid=c12de7e8-a347-40e6-8797-e98d6d1cb1b5","ios":"levelo://app?vid=c12de7e8-a347-40e6-8797-e98d6d1cb1b5"},"vehicle_type_id":"4","last_reported":1703236035,"current_range_meters":30800,"station_id":"ce4bhqh2rcd13ifvqhmg","pricing_plan_id":"free"},{"bike_id":"d3782ee6-ec7f-4521-b137-cec4637c00df","system_id":"levelo_inurba_marseille","lat":43.275625,"lon":5.384392,"is_reserved":false,"is_disabled":false,"rental_uris":{"android":"levelo://app?vid=d3782ee6-ec7f-4521-b137-cec4637c00df","ios":"levelo://app?vid=d3782ee6-ec7f-4521-b137-cec4637c00df"},"vehicle_type_id":"4","last_reported":1703236035,"current_range_meters":19200,"station_id":"ce4bhh92rcd13ifvqfi0","pricing_plan_id":"free"},{"bike_id":"3a1ebf0f-c579-45ad-ab89-953ea01137e2","system_id":"levelo_inurba_marseille","lat":43.336134,"lon":5.410341,"is_reserved":false,"is_disabled":false,"rental_uris":{"android":"levelo://app?vid=3a1ebf0f-c579-45ad-ab89-953ea01137e2","ios":"levelo://app?vid=3a1ebf0f-c579-45ad-ab89-953ea01137e2"},"vehicle_type_id":"4","last_reported":1703236035,"current_range_meters":30800,"station_id":"ce4bhqh2rcd13ifvqhmg","pricing_plan_id":"free"},{"bike_id":"9a35adc2-b84d-456d-a2eb-4c380434d042","system_id":"levelo_inurba_marseille","lat":43.336134,"lon":5.410341,"is_reserved":false,"is_disabled":false,"rental_uris":{"android":"levelo://app?vid=9a35adc2-b84d-456d-a2eb-4c380434d042","ios":"levelo://app?vid=9a35adc2-b84d-456d-a2eb-4c380434d042"},"vehicle_type_id":"4","last_reported":1703236035,"current_range_meters":23200,"station_id":"ce4bhqh2rcd13ifvqhmg","pricing_plan_id":"free"},{"bike_id":"09cff72f-879d-46f5-b0ad-2a907e0df9f2","system_id":"levelo_inurba_marseille","lat":43.276769,"lon":5.388787,"is_reserved":false,"is_disabled":false,"rental_uris":{"android":"levelo://app?vid=09cff72f-879d-46f5-b0ad-2a907e0df9f2","ios":"levelo://app?vid=09cff72f-879d-46f5-b0ad-2a907e0df9f2"},"vehicle_type_id":"4","last_reported":1703236035,"current_range_meters":23200,"station_id":"ce4bhi12rcd13ifvqfo0","pricing_plan_id":"free"},{"bike_id":"2e898446-aad9-4717-8dfe-629937307daf","system_id":"levelo_inurba_marseille","lat":43.336134,"lon":5.410341,"is_reserved":false,"is_disabled":false,"rental_uris":{"android":"levelo://app?vid=2e898446-aad9-4717-8dfe-629937307daf","ios":"levelo://app?vid=2e898446-aad9-4717-8dfe-629937307daf"},"vehicle_type_id":"4","last_reported":1703236035,"current_range_meters":19600,"station_id":"ce4bhqh2rcd13ifvqhmg","pricing_plan_id":"free"},{"bike_id":"f8cc2d37-6762-4c78-b22a-dbf56133ee6b","system_id":"levelo_inurba_marseille","lat":43.276769,"lon":5.388787,"is_reserved":false,"is_disabled":false,"rental_uris":{"android":"levelo://app?vid=f8cc2d37-6762-4c78-b22a-dbf56133ee6b","ios":"levelo://app?vid=f8cc2d37-6762-4c78-b22a-dbf56133ee6b"},"vehicle_type_id":"4","last_reported":1703236035,"current_range_meters":18400,"station_id":"ce4bhi12rcd13ifvqfo0","pricing_plan_id":"free"},{"bike_id":"67c95ba1-3b1b-4724-b685-672be7a82fce","system_id":"levelo_inurba_marseille","lat":43.31717,"lon":5.42392,"is_reserved":false,"is_disabled":false,"rental_uris":{"android":"levelo://app?vid=67c95ba1-3b1b-4724-b685-672be7a82fce","ios":"levelo://app?vid=67c95ba1-3b1b-4724-b685-672be7a82fce"},"vehicle_type_id":"4","last_reported":1703236035,"current_range_meters":2400,"station_id":"ce4bhp92rcd13ifvqhbg","pricing_plan_id":"free"},{"bike_id":"435d9b30-014f-4fe6-afb2-7fbe848f80a0","system_id":"levelo_inurba_marseille","lat":43.317121,"lon":5.423936,"is_reserved":false,"is_disabled":false,"rental_uris":{"android":"levelo://app?vid=435d9b30-014f-4fe6-afb2-7fbe848f80a0","ios":"levelo://app?vid=435d9b30-014f-4fe6-afb2-7fbe848f80a0"},"vehicle_type_id":"4","last_reported":1703236035,"current_range_meters":27200,"station_id":"ce4bhp92rcd13ifvqhbg","pricing_plan_id":"free"},{"bike_id":"04e875b4-5152-4bf1-99ed-b8bac73f4605","system_id":"levelo_inurba_marseille","lat":43.310785,"lon":5.424305,"is_reserved":false,"is_disabled":false,"rental_uris":{"android":"levelo://app?vid=04e875b4-5152-4bf1-99ed-b8bac73f4605","ios":"levelo://app?vid=04e875b4-5152-4bf1-99ed-b8bac73f4605"},"vehicle_type_id":"4","last_reported":1703236035,"current_range_meters":22800,"station_id":"ce4bhp92rcd13ifvqhag","pricing_plan_id":"free"},{"bike_id":"77782120-aa28-4661-b6de-5847d624fbaf","system_id":"levelo_inurba_marseille","lat":43.27326,"lon":5.39089,"is_reserved":false,"is_disabled":false,"rental_uris":{"android":"levelo://app?vid=77782120-aa28-4661-b6de-5847d624fbaf","ios":"levelo://app?vid=77782120-aa28-4661-b6de-5847d624fbaf"},"vehicle_type_id":"4","last_reported":1703236035,"current_range_meters":28800,"station_id":"ce4bhgp2rcd13ifvqfe0","pricing_plan_id":"free"},{"bike_id":"e4a85958-3370-474d-9a05-1fb0920b6a06","system_id":"levelo_inurba_marseille","lat":43.273129,"lon":5.390725,"is_reserved":false,"is_disabled":false,"rental_uris":{"android":"levelo://app?vid=e4a85958-3370-474d-9a05-1fb0920b6a06","ios":"levelo://app?vid=e4a85958-3370-474d-9a05-1fb0920b6a06"},"vehicle_type_id":"4","last_reported":1703236035,"current_range_meters":26400,"station_id":"ce4bhgp2rcd13ifvqfe0","pricing_plan_id":"free"},{"bike_id":"19c0271a-0179-4aff-a782-8217d3bdc754","system_id":"levelo_inurba_marseille","lat":43.274099,"lon":5.394019,"is_reserved":false,"is_disabled":false,"rental_uris":{"android":"levelo://app?vid=19c0271a-0179-4aff-a782-8217d3bdc754","ios":"levelo://app?vid=19c0271a-0179-4aff-a782-8217d3bdc754"},"vehicle_type_id":"4","last_reported":1703236035,"current_range_meters":24400,"station_id":"ce4bhdp2rcd13ifvqf20","pricing_plan_id":"free"},{"bike_id":"8254fd32-b9d4-49df-ab7e-cfea12d046d7","system_id":"levelo_inurba_marseille","lat":43.304096,"lon":5.425385,"is_reserved":false,"is_disabled":false,"rental_uris":{"android":"levelo://app?vid=8254fd32-b9d4-49df-ab7e-cfea12d046d7","ios":"levelo://app?vid=8254fd32-b9d4-49df-ab7e-cfea12d046d7"},"vehicle_type_id":"4","last_reported":1703236035,"current_range_meters":31200,"station_id":"ce4bhoh2rcd13ifvqh6g","pricing_plan_id":"free"},{"bike_id":"96777740-b7f1-4409-bcdb-20a8be6b2105","system_id":"levelo_inurba_marseille","lat":43.304096,"lon":5.425385,"is_reserved":false,"is_disabled":false,"rental_uris":{"android":"levelo://app?vid=96777740-b7f1-4409-bcdb-20a8be6b2105","ios":"levelo://app?vid=96777740-b7f1-4409-bcdb-20a8be6b2105"},"vehicle_type_id":"4","last_reported":1703236035,"current_range_meters":16000,"station_id":"ce4bhoh2rcd13ifvqh6g","pricing_plan_id":"free"},{"bike_id":"0e4cc326-10fa-4e7e-9ba9-ad4f832bb35e","system_id":"levelo_inurba_marseille","lat":43.304096,"lon":5.425385,"is_reserved":false,"is_disabled":false,"rental_uris":{"android":"levelo://app?vid=0e4cc326-10fa-4e7e-9ba9-ad4f832bb35e","ios":"levelo://app?vid=0e4cc326-10fa-4e7e-9ba9-ad4f832bb35e"},"vehicle_type_id":"4","last_reported":1703236035,"current_range_meters":25600,"station_id":"ce4bhoh2rcd13ifvqh6g","pricing_plan_id":"free"},{"bike_id":"13760c56-6e83-44d2-ab43-9aa69f06089a","system_id":"levelo_inurba_marseille","lat":43.304096,"lon":5.425385,"is_reserved":false,"is_disabled":false,"rental_uris":{"android":"levelo://app?vid=13760c56-6e83-44d2-ab43-9aa69f06089a","ios":"levelo://app?vid=13760c56-6e83-44d2-ab43-9aa69f06089a"},"vehicle_type_id":"4","last_reported":1703236035,"current_range_meters":27600,"station_id":"ce4bhoh2rcd13ifvqh6g","pricing_plan_id":"free"},{"bike_id":"a80c78b0-54bd-4c06-a456-7ff9cb5fb92c","system_id":"levelo_inurba_marseille","lat":43.295625,"lon":5.422824,"is_reserved":false,"is_disabled":false,"rental_uris":{"android":"levelo://app?vid=a80c78b0-54bd-4c06-a456-7ff9cb5fb92c","ios":"levelo://app?vid=a80c78b0-54bd-4c06-a456-7ff9cb5fb92c"},"vehicle_type_id":"4","last_reported":1703236035,"current_range_meters":8800,"station_id":"ce4bhph2rcd13ifvqhdg","pricing_plan_id":"free"},{"bike_id":"9449eb80-d18a-481d-bf00-b32c1d52c065","system_id":"levelo_inurba_marseille","lat":43.295523,"lon":5.422926,"is_reserved":false,"is_disabled":false,"rental_uris":{"android":"levelo://app?vid=9449eb80-d18a-481d-bf00-b32c1d52c065","ios":"levelo://app?vid=9449eb80-d18a-481d-bf00-b32c1d52c065"},"vehicle_type_id":"4","last_reported":1703236035,"current_range_meters":4000,"station_id":"ce4bhph2rcd13ifvqhdg","pricing_plan_id":"free"},{"bike_id":"96484c65-8dd7-4167-a438-a7d837c6b7a7","system_id":"levelo_inurba_marseille","lat":43.295523,"lon":5.422926,"is_reserved":false,"is_disabled":false,"rental_uris":{"android":"levelo://app?vid=96484c65-8dd7-4167-a438-a7d837c6b7a7","ios":"levelo://app?vid=96484c65-8dd7-4167-a438-a7d837c6b7a7"},"vehicle_type_id":"4","last_reported":1703236035,"current_range_meters":31200,"station_id":"ce4bhph2rcd13ifvqhdg","pricing_plan_id":"free"},{"bike_id":"218ca4ab-a316-43a6-87cd-acfc23cd8e62","system_id":"levelo_inurba_marseille","lat":43.295523,"lon":5.422926,"is_reserved":false,"is_disabled":false,"rental_uris":{"android":"levelo://app?vid=218ca4ab-a316-43a6-87cd-acfc23cd8e62","ios":"levelo://app?vid=218ca4ab-a316-43a6-87cd-acfc23cd8e62"},"vehicle_type_id":"4","last_reported":1703236035,"current_range_meters":19200,"station_id":"ce4bhph2rcd13ifvqhdg","pricing_plan_id":"free"},{"bike_id":"7d800ac1-1b26-47dd-97c6-49cd89d9ab11","system_id":"levelo_inurba_marseille","lat":43.295511,"lon":5.422926,"is_reserved":false,"is_disabled":false,"rental_uris":{"android":"levelo://app?vid=7d800ac1-1b26-47dd-97c6-49cd89d9ab11","ios":"levelo://app?vid=7d800ac1-1b26-47dd-97c6-49cd89d9ab11"},"vehicle_type_id":"4","last_reported":1703236035,"current_range_meters":12400,"station_id":"ce4bhph2rcd13ifvqhdg","pricing_plan_id":"free"},{"bike_id":"23d13786-8601-4dce-a424-5d4a35dea444","system_id":"levelo_inurba_marseille","lat":43.295511,"lon":5.422926,"is_reserved":false,"is_disabled":false,"rental_uris":{"android":"levelo://app?vid=23d13786-8601-4dce-a424-5d4a35dea444","ios":"levelo://app?vid=23d13786-8601-4dce-a424-5d4a35dea444"},"vehicle_type_id":"4","last_reported":1703236035,"current_range_meters":16000,"station_id":"ce4bhph2rcd13ifvqhdg","pricing_plan_id":"free"},{"bike_id":"b55db1a0-b820-479b-9929-7610c21584c5","system_id":"levelo_inurba_marseille","lat":43.295511,"lon":5.422926,"is_reserved":false,"is_disabled":false,"rental_uris":{"android":"levelo://app?vid=b55db1a0-b820-479b-9929-7610c21584c5","ios":"levelo://app?vid=b55db1a0-b820-479b-9929-7610c21584c5"},"vehicle_type_id":"4","last_reported":1703236035,"current_range_meters":25200,"station_id":"ce4bhph2rcd13ifvqhdg","pricing_plan_id":"free"},{"bike_id":"d3cea1e8-7f39-4fcc-ad32-91ac9a408d93","system_id":"levelo_inurba_marseille","lat":43.295511,"lon":5.422926,"is_reserved":false,"is_disabled":false,"rental_uris":{"android":"levelo://app?vid=d3cea1e8-7f39-4fcc-ad32-91ac9a408d93","ios":"levelo://app?vid=d3cea1e8-7f39-4fcc-ad32-91ac9a408d93"},"vehicle_type_id":"4","last_reported":1703236035,"current_range_meters":19200,"station_id":"ce4bhph2rcd13ifvqhdg","pricing_plan_id":"free"},{"bike_id":"990ec5fc-9883-4c1a-b20f-04c271aea712","system_id":"levelo_inurba_marseille","lat":43.272124,"lon":5.391768,"is_reserved":false,"is_disabled":false,"rental_uris":{"android":"levelo://app?vid=990ec5fc-9883-4c1a-b20f-04c271aea712","ios":"levelo://app?vid=990ec5fc-9883-4c1a-b20f-04c271aea712"},"vehicle_type_id":"4","last_reported":1703236035,"current_range_meters":14000,"station_id":"ce4bhhp2rcd13ifvqfm0","pricing_plan_id":"free"},{"bike_id":"2385a3dc-ecc5-4c8e-b554-c8e4b25ef268","system_id":"levelo_inurba_marseille","lat":43.278128,"lon":5.407195,"is_reserved":false,"is_disabled":false,"rental_uris":{"android":"levelo://app?vid=2385a3dc-ecc5-4c8e-b554-c8e4b25ef268","ios":"levelo://app?vid=2385a3dc-ecc5-4c8e-b554-c8e4b25ef268"},"vehicle_type_id":"4","last_reported":1703236035,"current_range_meters":22400,"station_id":"ce4bhnh2rcd13ifvqgtg","pricing_plan_id":"free"},{"bike_id":"a39aa9bc-9cb1-453b-ba34-c7f4c7e971f5","system_id":"levelo_inurba_marseille","lat":43.26955,"lon":5.38629,"is_reserved":false,"is_disabled":false,"rental_uris":{"android":"levelo://app?vid=a39aa9bc-9cb1-453b-ba34-c7f4c7e971f5","ios":"levelo://app?vid=a39aa9bc-9cb1-453b-ba34-c7f4c7e971f5"},"vehicle_type_id":"4","last_reported":1703236035,"current_range_meters":4400,"station_id":"ce4bhh92rcd13ifvqfh0","pricing_plan_id":"free"},{"bike_id":"6b3fe9ee-f6e2-452d-9d89-057b2cb3f257","system_id":"levelo_inurba_marseille","lat":43.26955,"lon":5.38638,"is_reserved":false,"is_disabled":false,"rental_uris":{"android":"levelo://app?vid=6b3fe9ee-f6e2-452d-9d89-057b2cb3f257","ios":"levelo://app?vid=6b3fe9ee-f6e2-452d-9d89-057b2cb3f257"},"vehicle_type_id":"4","last_reported":1703236035,"current_range_meters":14000,"station_id":"ce4bhh92rcd13ifvqfh0","pricing_plan_id":"free"},{"bike_id":"005ad40d-2c87-4800-ab2f-36df88f9a8fd","system_id":"levelo_inurba_marseille","lat":43.26954,"lon":5.38635,"is_reserved":false,"is_disabled":false,"rental_uris":{"android":"levelo://app?vid=005ad40d-2c87-4800-ab2f-36df88f9a8fd","ios":"levelo://app?vid=005ad40d-2c87-4800-ab2f-36df88f9a8fd"},"vehicle_type_id":"4","last_reported":1703236035,"current_range_meters":15600,"station_id":"ce4bhh92rcd13ifvqfh0","pricing_plan_id":"free"},{"bike_id":"b7a3dde3-61c0-4b41-a17a-8a6927bc420c","system_id":"levelo_inurba_marseille","lat":43.269467,"lon":5.386439,"is_reserved":false,"is_disabled":false,"rental_uris":{"android":"levelo://app?vid=b7a3dde3-61c0-4b41-a17a-8a6927bc420c","ios":"levelo://app?vid=b7a3dde3-61c0-4b41-a17a-8a6927bc420c"},"vehicle_type_id":"4","last_reported":1703236035,"current_range_meters":25200,"station_id":"ce4bhh92rcd13ifvqfh0","pricing_plan_id":"free"},{"bike_id":"017014cf-56d4-4de7-8952-68a5738436e6","system_id":"levelo_inurba_marseille","lat":43.26949,"lon":5.3864,"is_reserved":false,"is_disabled":false,"rental_uris":{"android":"levelo://app?vid=017014cf-56d4-4de7-8952-68a5738436e6","ios":"levelo://app?vid=017014cf-56d4-4de7-8952-68a5738436e6"},"vehicle_type_id":"4","last_reported":1703236035,"current_range_meters":26800,"station_id":"ce4bhh92rcd13ifvqfh0","pricing_plan_id":"free"},{"bike_id":"61550aad-2bdf-4d69-a4fa-2735b97e3ff1","system_id":"levelo_inurba_marseille","lat":43.269467,"lon":5.386439,"is_reserved":false,"is_disabled":false,"rental_uris":{"android":"levelo://app?vid=61550aad-2bdf-4d69-a4fa-2735b97e3ff1","ios":"levelo://app?vid=61550aad-2bdf-4d69-a4fa-2735b97e3ff1"},"vehicle_type_id":"4","last_reported":1703236035,"current_range_meters":28800,"station_id":"ce4bhh92rcd13ifvqfh0","pricing_plan_id":"free"},{"bike_id":"c9e5ec7a-720b-4445-83d0-19583367f177","system_id":"levelo_inurba_marseille","lat":43.269319,"lon":5.389397,"is_reserved":false,"is_disabled":false,"rental_uris":{"android":"levelo://app?vid=c9e5ec7a-720b-4445-83d0-19583367f177","ios":"levelo://app?vid=c9e5ec7a-720b-4445-83d0-19583367f177"},"vehicle_type_id":"4","last_reported":1703236035,"current_range_meters":23200,"station_id":"ce4bhhh2rcd13ifvqfl0","pricing_plan_id":"free"},{"bike_id":"8a59385d-f1a6-41b4-8d30-0cd8e4111bd3","system_id":"levelo_inurba_marseille","lat":43.269319,"lon":5.389397,"is_reserved":false,"is_disabled":false,"rental_uris":{"android":"levelo://app?vid=8a59385d-f1a6-41b4-8d30-0cd8e4111bd3","ios":"levelo://app?vid=8a59385d-f1a6-41b4-8d30-0cd8e4111bd3"},"vehicle_type_id":"4","last_reported":1703236035,"current_range_meters":27200,"station_id":"ce4bhhh2rcd13ifvqfl0","pricing_plan_id":"free"},{"bike_id":"bae3e7b7-6055-499e-863f-452c48318740","system_id":"levelo_inurba_marseille","lat":43.26681,"lon":5.382694,"is_reserved":false,"is_disabled":false,"rental_uris":{"android":"levelo://app?vid=bae3e7b7-6055-499e-863f-452c48318740","ios":"levelo://app?vid=bae3e7b7-6055-499e-863f-452c48318740"},"vehicle_type_id":"4","last_reported":1703236035,"current_range_meters":27200,"station_id":"ce4bhg92rcd13ifvqf90","pricing_plan_id":"free"},{"bike_id":"7fc51c9f-a329-4a91-9c7e-e28f7f158fba","system_id":"levelo_inurba_marseille","lat":43.26681,"lon":5.382694,"is_reserved":false,"is_disabled":false,"rental_uris":{"android":"levelo://app?vid=7fc51c9f-a329-4a91-9c7e-e28f7f158fba","ios":"levelo://app?vid=7fc51c9f-a329-4a91-9c7e-e28f7f158fba"},"vehicle_type_id":"4","last_reported":1703236035,"current_range_meters":30400,"station_id":"ce4bhg92rcd13ifvqf90","pricing_plan_id":"free"},{"bike_id":"56476f20-1eb3-45cd-ae52-f1964ab1ecc4","system_id":"levelo_inurba_marseille","lat":43.265714,"lon":5.372891,"is_reserved":false,"is_disabled":false,"rental_uris":{"android":"levelo://app?vid=56476f20-1eb3-45cd-ae52-f1964ab1ecc4","ios":"levelo://app?vid=56476f20-1eb3-45cd-ae52-f1964ab1ecc4"},"vehicle_type_id":"4","last_reported":1703236035,"current_range_meters":28800,"station_id":"ce4bhg12rcd13ifvqf70","pricing_plan_id":"free"},{"bike_id":"7a1239c7-d1ca-4115-b681-9f15678a0535","system_id":"levelo_inurba_marseille","lat":43.265569,"lon":5.390047,"is_reserved":false,"is_disabled":false,"rental_uris":{"android":"levelo://app?vid=7a1239c7-d1ca-4115-b681-9f15678a0535","ios":"levelo://app?vid=7a1239c7-d1ca-4115-b681-9f15678a0535"},"vehicle_type_id":"4","last_reported":1703236035,"current_range_meters":7200,"station_id":"ce4bhe12rcd13ifvqf30","pricing_plan_id":"free"},{"bike_id":"951d6b3e-9c23-4510-8018-6cbf4c7745c7","system_id":"levelo_inurba_marseille","lat":43.275625,"lon":5.384392,"is_reserved":false,"is_disabled":false,"rental_uris":{"android":"levelo://app?vid=951d6b3e-9c23-4510-8018-6cbf4c7745c7","ios":"levelo://app?vid=951d6b3e-9c23-4510-8018-6cbf4c7745c7"},"vehicle_type_id":"4","last_reported":1703236035,"current_range_meters":18400,"station_id":"ce4bhh92rcd13ifvqfi0","pricing_plan_id":"free"},{"bike_id":"453c7a65-f861-4622-bcd4-25e559706988","system_id":"levelo_inurba_marseille","lat":43.265569,"lon":5.390047,"is_reserved":false,"is_disabled":false,"rental_uris":{"android":"levelo://app?vid=453c7a65-f861-4622-bcd4-25e559706988","ios":"levelo://app?vid=453c7a65-f861-4622-bcd4-25e559706988"},"vehicle_type_id":"4","last_reported":1703236035,"current_range_meters":8400,"station_id":"ce4bhe12rcd13ifvqf30","pricing_plan_id":"free"},{"bike_id":"888b444c-93e8-44fd-a5ab-5cf2bdeac1a1","system_id":"levelo_inurba_marseille","lat":43.26949,"lon":5.40262,"is_reserved":false,"is_disabled":false,"rental_uris":{"android":"levelo://app?vid=888b444c-93e8-44fd-a5ab-5cf2bdeac1a1","ios":"levelo://app?vid=888b444c-93e8-44fd-a5ab-5cf2bdeac1a1"},"vehicle_type_id":"4","last_reported":1703236035,"current_range_meters":0,"station_id":"cjm6bp8fraef2m0cb0m0","pricing_plan_id":"free"},{"bike_id":"0b0c5e19-ce78-44c0-a9b5-3a785bc8569f","system_id":"levelo_inurba_marseille","lat":43.261782,"lon":5.374515,"is_reserved":false,"is_disabled":false,"rental_uris":{"android":"levelo://app?vid=0b0c5e19-ce78-44c0-a9b5-3a785bc8569f","ios":"levelo://app?vid=0b0c5e19-ce78-44c0-a9b5-3a785bc8569f"},"vehicle_type_id":"4","last_reported":1703236035,"current_range_meters":30400,"station_id":"ce4bhgp2rcd13ifvqfc0","pricing_plan_id":"free"},{"bike_id":"2e62984b-8771-47f8-8e36-d6a6f38059c0","system_id":"levelo_inurba_marseille","lat":43.31711,"lon":5.43704,"is_reserved":false,"is_disabled":false,"rental_uris":{"android":"levelo://app?vid=2e62984b-8771-47f8-8e36-d6a6f38059c0","ios":"levelo://app?vid=2e62984b-8771-47f8-8e36-d6a6f38059c0"},"vehicle_type_id":"4","last_reported":1703236035,"current_range_meters":28400,"station_id":"ce4bhp92rcd13ifvqhcg","pricing_plan_id":"free"},{"bike_id":"2d6427c7-a10a-4b24-b0a5-95d867c65295","system_id":"levelo_inurba_marseille","lat":43.31713,"lon":5.4371,"is_reserved":false,"is_disabled":false,"rental_uris":{"android":"levelo://app?vid=2d6427c7-a10a-4b24-b0a5-95d867c65295","ios":"levelo://app?vid=2d6427c7-a10a-4b24-b0a5-95d867c65295"},"vehicle_type_id":"4","last_reported":1703236035,"current_range_meters":22400,"station_id":"ce4bhp92rcd13ifvqhcg","pricing_plan_id":"free"},{"bike_id":"6f8ad8e2-621e-49bf-a771-0f336e5c4889","system_id":"levelo_inurba_marseille","lat":43.267959,"lon":5.402687,"is_reserved":false,"is_disabled":false,"rental_uris":{"android":"levelo://app?vid=6f8ad8e2-621e-49bf-a771-0f336e5c4889","ios":"levelo://app?vid=6f8ad8e2-621e-49bf-a771-0f336e5c4889"},"vehicle_type_id":"4","last_reported":1703236035,"current_range_meters":28400,"station_id":"ce501612rcd8frsf0b60","pricing_plan_id":"free"},{"bike_id":"b2902b78-67e3-446b-b19e-efaf3baa33fc","system_id":"levelo_inurba_marseille","lat":43.2651,"lon":5.39469,"is_reserved":false,"is_disabled":false,"rental_uris":{"android":"levelo://app?vid=b2902b78-67e3-446b-b19e-efaf3baa33fc","ios":"levelo://app?vid=b2902b78-67e3-446b-b19e-efaf3baa33fc"},"vehicle_type_id":"4","last_reported":1703236035,"current_range_meters":5600,"station_id":"ce4bhi12rcd13ifvqfq0","pricing_plan_id":"free"},{"bike_id":"5fb1731b-cb00-4313-9b1a-b5871e88be75","system_id":"levelo_inurba_marseille","lat":43.2651,"lon":5.39469,"is_reserved":false,"is_disabled":false,"rental_uris":{"android":"levelo://app?vid=5fb1731b-cb00-4313-9b1a-b5871e88be75","ios":"levelo://app?vid=5fb1731b-cb00-4313-9b1a-b5871e88be75"},"vehicle_type_id":"4","last_reported":1703236035,"current_range_meters":22000,"station_id":"ce4bhi12rcd13ifvqfq0","pricing_plan_id":"free"},{"bike_id":"a5d1b4ee-5b3a-4cf4-b3b6-691bc24ef5f0","system_id":"levelo_inurba_marseille","lat":43.2651,"lon":5.39469,"is_reserved":false,"is_disabled":false,"rental_uris":{"android":"levelo://app?vid=a5d1b4ee-5b3a-4cf4-b3b6-691bc24ef5f0","ios":"levelo://app?vid=a5d1b4ee-5b3a-4cf4-b3b6-691bc24ef5f0"},"vehicle_type_id":"4","last_reported":1703236035,"current_range_meters":6800,"station_id":"ce4bhi12rcd13ifvqfq0","pricing_plan_id":"free"},{"bike_id":"9bc11cf7-d766-47fb-a2ac-1ffa731b216c","system_id":"levelo_inurba_marseille","lat":43.298768,"lon":5.43643,"is_reserved":false,"is_disabled":false,"rental_uris":{"android":"levelo://app?vid=9bc11cf7-d766-47fb-a2ac-1ffa731b216c","ios":"levelo://app?vid=9bc11cf7-d766-47fb-a2ac-1ffa731b216c"},"vehicle_type_id":"4","last_reported":1703236035,"current_range_meters":31200,"station_id":"ce4bhpp2rcd13ifvqhfg","pricing_plan_id":"free"},{"bike_id":"68b66d54-6777-4a5e-9f90-4f5598e74a22","system_id":"levelo_inurba_marseille","lat":43.2607,"lon":5.393983,"is_reserved":false,"is_disabled":false,"rental_uris":{"android":"levelo://app?vid=68b66d54-6777-4a5e-9f90-4f5598e74a22","ios":"levelo://app?vid=68b66d54-6777-4a5e-9f90-4f5598e74a22"},"vehicle_type_id":"4","last_reported":1703236035,"current_range_meters":6400,"station_id":"ce4bhh92rcd13ifvqfj0","pricing_plan_id":"free"},{"bike_id":"96ecc86e-910b-4a71-9cd4-efe2d2fc56a8","system_id":"levelo_inurba_marseille","lat":43.2607,"lon":5.393983,"is_reserved":false,"is_disabled":false,"rental_uris":{"android":"levelo://app?vid=96ecc86e-910b-4a71-9cd4-efe2d2fc56a8","ios":"levelo://app?vid=96ecc86e-910b-4a71-9cd4-efe2d2fc56a8"},"vehicle_type_id":"4","last_reported":1703236035,"current_range_meters":17200,"station_id":"ce4bhh92rcd13ifvqfj0","pricing_plan_id":"free"},{"bike_id":"e3941761-b26c-4646-8433-4f67591110e5","system_id":"levelo_inurba_marseille","lat":43.2607,"lon":5.393983,"is_reserved":false,"is_disabled":false,"rental_uris":{"android":"levelo://app?vid=e3941761-b26c-4646-8433-4f67591110e5","ios":"levelo://app?vid=e3941761-b26c-4646-8433-4f67591110e5"},"vehicle_type_id":"4","last_reported":1703236035,"current_range_meters":28400,"station_id":"ce4bhh92rcd13ifvqfj0","pricing_plan_id":"free"},{"bike_id":"00f7622a-f2c7-40cf-a0a0-9a2405bbe743","system_id":"levelo_inurba_marseille","lat":43.27498,"lon":5.42449,"is_reserved":false,"is_disabled":false,"rental_uris":{"android":"levelo://app?vid=00f7622a-f2c7-40cf-a0a0-9a2405bbe743","ios":"levelo://app?vid=00f7622a-f2c7-40cf-a0a0-9a2405bbe743"},"vehicle_type_id":"4","last_reported":1703236035,"current_range_meters":27600,"station_id":"ce4bhn92rcd13ifvqgrg","pricing_plan_id":"free"},{"bike_id":"e234f860-ae58-4f17-bae8-44ee1f6e051b","system_id":"levelo_inurba_marseille","lat":43.27498,"lon":5.4245,"is_reserved":false,"is_disabled":false,"rental_uris":{"android":"levelo://app?vid=e234f860-ae58-4f17-bae8-44ee1f6e051b","ios":"levelo://app?vid=e234f860-ae58-4f17-bae8-44ee1f6e051b"},"vehicle_type_id":"4","last_reported":1703236035,"current_range_meters":17200,"station_id":"ce4bhn92rcd13ifvqgrg","pricing_plan_id":"free"},{"bike_id":"f69c533b-b7b6-45dd-9ff5-f1c615cc3f1d","system_id":"levelo_inurba_marseille","lat":43.275028,"lon":5.424534,"is_reserved":false,"is_disabled":false,"rental_uris":{"android":"levelo://app?vid=f69c533b-b7b6-45dd-9ff5-f1c615cc3f1d","ios":"levelo://app?vid=f69c533b-b7b6-45dd-9ff5-f1c615cc3f1d"},"vehicle_type_id":"4","last_reported":1703236035,"current_range_meters":2800,"station_id":"ce4bhn92rcd13ifvqgrg","pricing_plan_id":"free"},{"bike_id":"8d07411f-182e-4a27-a061-97b590cccf0f","system_id":"levelo_inurba_marseille","lat":43.275028,"lon":5.424534,"is_reserved":false,"is_disabled":false,"rental_uris":{"android":"levelo://app?vid=8d07411f-182e-4a27-a061-97b590cccf0f","ios":"levelo://app?vid=8d07411f-182e-4a27-a061-97b590cccf0f"},"vehicle_type_id":"4","last_reported":1703236035,"current_range_meters":26000,"station_id":"ce4bhn92rcd13ifvqgrg","pricing_plan_id":"free"},{"bike_id":"7977189a-5e27-4e84-99e4-b8bfdea28baa","system_id":"levelo_inurba_marseille","lat":43.275028,"lon":5.424534,"is_reserved":false,"is_disabled":false,"rental_uris":{"android":"levelo://app?vid=7977189a-5e27-4e84-99e4-b8bfdea28baa","ios":"levelo://app?vid=7977189a-5e27-4e84-99e4-b8bfdea28baa"},"vehicle_type_id":"4","last_reported":1703236035,"current_range_meters":20800,"station_id":"ce4bhn92rcd13ifvqgrg","pricing_plan_id":"free"},{"bike_id":"40fa9d3c-a838-4903-8976-1c446d320e83","system_id":"levelo_inurba_marseille","lat":43.27495,"lon":5.42451,"is_reserved":false,"is_disabled":false,"rental_uris":{"android":"levelo://app?vid=40fa9d3c-a838-4903-8976-1c446d320e83","ios":"levelo://app?vid=40fa9d3c-a838-4903-8976-1c446d320e83"},"vehicle_type_id":"4","last_reported":1703236035,"current_range_meters":28800,"station_id":"","pricing_plan_id":"free"},