{"last_updated":1685203666,"ttl":30,"version":"2.2","data":{"bikes":[{"bike_id":"bd0f04e4-2836-4bc8-8c8c-8e20f325e27a","system_id":"levelo_inurba_marseille","lat":43.31329,"lon":5.3671,"is_reserved":false,"is_disabled":false,"rental_uris":{"android":"levelo://app?vid=bd0f04e4-2836-4bc8-8c8c-8e20f325e27a","ios":"levelo://app?vid=bd0f04e4-2836-4bc8-8c8c-8e20f325e27a"},"vehicle_type_id":"4","last_reported":1685203667,"current_range_meters":9600,"station_id":"ce4bgr92rcd13ifvqc6g","pricing_plan_id":"free"},{"bike_id":"b7c2072f-1d43-402a-8c62-95cecf3bc0ab","system_id":"levelo_inurba_marseille","lat":43.312239,"lon":5.368562,"is_reserved":false,"is_disabled":false,"rental_uris":{"android":"levelo://app?vid=b7c2072f-1d43-402a-8c62-95cecf3bc0ab","ios":"levelo://app?vid=b7c2072f-1d43-402a-8c62-95cecf3bc0ab"},"vehicle_type_id":"4","last_reported":1685203667,"current_range_meters":5200,"station_id":"ce4bgl92rcd13ifvqbq0","pricing_plan_id":"free"},{"bike_id":"32b3a596-c6b8-402d-9f81-bda0234058c9","system_id":"levelo_inurba_marseille","lat":43.314811,"lon":5.373103,"is_reserved":false,"is_disabled":false,"rental_uris":{"android":"levelo://app?vid=32b3a596-c6b8-402d-9f81-bda0234058c9","ios":"levelo://app?vid=32b3a596-c6b8-402d-9f81-bda0234058c9"},"vehicle_type_id":"4","last_reported":1685203667,"current_range_meters":22800,"station_id":"ce4bgt12rcd13ifvqcd0","pricing_plan_id":"free"},{"bike_id":"df5b22a5-3f8e-4381-9c8c-043572725db3","system_id":"levelo_inurba_marseille","lat":43.314811,"lon":5.373104,"is_reserved":false,"is_disabled":false,"rental_uris":{"android":"levelo://app?vid=df5b22a5-3f8e-4381-9c8c-043572725db3","ios":"levelo://app?vid=df5b22a5-3f8e-4381-9c8c-043572725db3"},"vehicle_type_id":"4","last_reported":1685203667,"current_range_meters":0,"station_id":"ce4bgt12rcd13ifvqcd0","pricing_plan_id":"free"},{"bike_id":"2d486fc0-afd3-424f-8366-b92695ab8a0d","system_id":"levelo_inurba_marseille","lat":43.301939,"lon":5.366286,"is_reserved":false,"is_disabled":false,"rental_uris":{"android":"levelo://app?vid=2d486fc0-afd3-424f-8366-b92695ab8a0d","ios":"levelo://app?vid=2d486fc0-afd3-424f-8366-b92695ab8a0d"},"vehicle_type_id":"4","last_reported":1685203667,"current_range_meters":20800,"station_id":"ce4bgrh2rcd13ifvqc8g","pricing_plan_id":"free"},{"bike_id":"da3f1bc5-9d76-4279-89aa-46b31408a3ed","system_id":"levelo_inurba_marseille","lat":43.30469,"lon":5.37909,"is_reserved":false,"is_disabled":false,"rental_uris":{"android":"levelo://app?vid=da3f1bc5-9d76-4279-89aa-46b31408a3ed","ios":"levelo://app?vid=da3f1bc5-9d76-4279-89aa-46b31408a3ed"},"vehicle_type_id":"4","last_reported":1685203667,"current_range_meters":1200,"station_id":"ce4bgup2rcd13ifvqcn0","pricing_plan_id":"free"},{"bike_id":"5e638371-5c30-4ed5-8462-b255cdd63e8e","system_id":"levelo_inurba_marseille","lat":43.30147,"lon":5.37405,"is_reserved":false,"is_disabled":false,"rental_uris":{"android":"levelo://app?vid=5e638371-5c30-4ed5-8462-b255cdd63e8e","ios":"levelo://app?vid=5e638371-5c30-4ed5-8462-b255cdd63e8e"},"vehicle_type_id":"4","last_reported":1685203667,"current_range_meters":27200,"station_id":"","pricing_plan_id":"free"},{"bike_id":"a1268093-9ee3-4dad-939a-364ddb93e713","system_id":"levelo_inurba_marseille","lat":43.30144,"lon":5.37408,"is_reserved":false,"is_disabled":false,"rental_uris":{"android":"levelo://app?vid=a1268093-9ee3-4dad-939a-364ddb93e713","ios":"levelo://app?vid=a1268093-9ee3-4dad-939a-364ddb93e713"},"vehicle_type_id":"4","last_reported":1685203667,"current_range_meters":23600,"station_id":"","pricing_plan_id":"free"},{"bike_id":"edc96815-b3ab-4c58-b65b-672be6b50dea","system_id":"levelo_inurba_marseille","lat":43.31371,"lon":5.38522,"is_reserved":false,"is_disabled":false,"rental_uris":{"android":"levelo://app?vid=edc96815-b3ab-4c58-b65b-672be6b50dea","ios":"levelo://app?vid=edc96815-b3ab-4c58-b65b-672be6b50dea"},"vehicle_type_id":"4","last_reported":1685203667,"current_range_meters":19200,"station_id":"","pricing_plan_id":"free"},{"bike_id":"3b07cc09-c795-45a1-8711-e2e32a7947a1","system_id":"levelo_inurba_marseille","lat":43.32827,"lon":5.36676,"is_reserved":false,"is_disabled":false,"rental_uris":{"android":"levelo://app?vid=3b07cc09-c795-45a1-8711-e2e32a7947a1","ios":"levelo://app?vid=3b07cc09-c795-45a1-8711-e2e32a7947a1"},"vehicle_type_id":"4","last_reported":1685203667,"current_range_meters":400,"station_id":"ce4bhs92rcd13ifvqi0g","pricing_plan_id":"free"},{"bike_id":"7ce3d098-4510-412f-8173-acef5f3caaab","system_id":"levelo_inurba_marseille","lat":43.3283,"lon":5.36679,"is_reserved":false,"is_disabled":false,"rental_uris":{"android":"levelo://app?vid=7ce3d098-4510-412f-8173-acef5f3caaab","ios":"levelo://app?vid=7ce3d098-4510-412f-8173-acef5f3caaab"},"vehicle_type_id":"4","last_reported":1685203667,"current_range_meters":0,"station_id":"ce4bhs92rcd13ifvqi0g","pricing_plan_id":"free"},{"bike_id":"6aadd20f-ee22-42f7-9c69-f3066c5dfcf1","system_id":"levelo_inurba_marseille","lat":43.328371,"lon":5.366909,"is_reserved":false,"is_disabled":false,"rental_uris":{"android":"levelo://app?vid=6aadd20f-ee22-42f7-9c69-f3066c5dfcf1","ios":"levelo://app?vid=6aadd20f-ee22-42f7-9c69-f3066c5dfcf1"},"vehicle_type_id":"4","last_reported":1685203667,"current_range_meters":15200,"station_id":"ce4bhs92rcd13ifvqi0g","pricing_plan_id":"free"},{"bike_id":"54716154-8db0-4266-ab8e-a58a594b5020","system_id":"levelo_inurba_marseille","lat":43.32852,"lon":5.36516,"is_reserved":false,"is_disabled":false,"rental_uris":{"android":"levelo://app?vid=54716154-8db0-4266-ab8e-a58a594b5020","ios":"levelo://app?vid=54716154-8db0-4266-ab8e-a58a594b5020"},"vehicle_type_id":"4","last_reported":1685203667,"current_range_meters":0,"station_id":"","pricing_plan_id":"free"},{"bike_id":"b812b941-5eb1-4382-ac02-c15d6233d807","system_id":"levelo_inurba_marseille","lat":43.29606,"lon":5.3625,"is_reserved":false,"is_disabled":false,"rental_uris":{"android":"levelo://app?vid=b812b941-5eb1-4382-ac02-c15d6233d807","ios":"levelo://app?vid=b812b941-5eb1-4382-ac02-c15d6233d807"},"vehicle_type_id":"4","last_reported":1685203667,"current_range_meters":25200,"station_id":"","pricing_plan_id":"free"},{"bike_id":"f5e70913-e1c1-4f0d-9035-7f1aacdc738f","system_id":"levelo_inurba_marseille","lat":43.309589,"lon":5.390258,"is_reserved":false,"is_disabled":false,"rental_uris":{"android":"levelo://app?vid=f5e70913-e1c1-4f0d-9035-7f1aacdc738f","ios":"levelo://app?vid=f5e70913-e1c1-4f0d-9035-7f1aacdc738f"},"vehicle_type_id":"4","last_reported":1685203667,"current_range_meters":9600,"station_id":"ce4bgup2rcd13ifvqco0","pricing_plan_id":"free"},{"bike_id":"ab87b208-680b-4ab1-9564-50953473aff6","system_id":"levelo_inurba_marseille","lat":43.309589,"lon":5.390258,"is_reserved":false,"is_disabled":false,"rental_uris":{"android":"levelo://app?vid=ab87b208-680b-4ab1-9564-50953473aff6","ios":"levelo://app?vid=ab87b208-680b-4ab1-9564-50953473aff6"},"vehicle_type_id":"4","last_reported":1685203667,"current_range_meters":11200,"station_id":"ce4bgup2rcd13ifvqco0","pricing_plan_id":"free"},{"bike_id":"64fc500d-1101-4719-99e0-a6f37955a0fb","system_id":"levelo_inurba_marseille","lat":43.298037,"lon":5.381066,"is_reserved":false,"is_disabled":false,"rental_uris":{"android":"levelo://app?vid=64fc500d-1101-4719-99e0-a6f37955a0fb","ios":"levelo://app?vid=64fc500d-1101-4719-99e0-a6f37955a0fb"},"vehicle_type_id":"4","last_reported":1685203667,"current_range_meters":28400,"station_id":"ce4bgip2rcd13ifvqbb0","pricing_plan_id":"free"},{"bike_id":"538bae61-3cf1-4a1c-b29b-d383d144af0b","system_id":"levelo_inurba_marseille","lat":43.298037,"lon":5.381066,"is_reserved":false,"is_disabled":false,"rental_uris":{"android":"levelo://app?vid=538bae61-3cf1-4a1c-b29b-d383d144af0b","ios":"levelo://app?vid=538bae61-3cf1-4a1c-b29b-d383d144af0b"},"vehicle_type_id":"4","last_reported":1685203667,"current_range_meters":23600,"station_id":"ce4bgip2rcd13ifvqbb0","pricing_plan_id":"free"},{"bike_id":"53b8fe01-11fa-46c8-b783-3a97502ddb03","system_id":"levelo_inurba_marseille","lat":43.298037,"lon":5.381066,"is_reserved":false,"is_disabled":false,"rental_uris":{"android":"levelo://app?vid=53b8fe01-11fa-46c8-b783-3a97502ddb03","ios":"levelo://app?vid=53b8fe01-11fa-46c8-b783-3a97502ddb03"},"vehicle_type_id":"4","last_reported":1685203667,"current_range_meters":26800,"station_id":"ce4bgip2rcd13ifvqbb0","pricing_plan_id":"free"},{"bike_id":"0cf9f132-03bc-4239-9f1c-b355aa121a98","system_id":"levelo_inurba_marseille","lat":43.295279,"lon":5.375048,"is_reserved":false,"is_disabled":false,"rental_uris":{"android":"levelo://app?vid=0cf9f132-03bc-4239-9f1c-b355aa121a98","ios":"levelo://app?vid=0cf9f132-03bc-4239-9f1c-b355aa121a98"},"vehicle_type_id":"4","last_reported":1685203667,"current_range_meters":25600,"station_id":"ce4bgkp2rcd13ifvqbmg","pricing_plan_id":"free"},{"bike_id":"f347c875-db8c-474b-909f-1160c3f39ecb","system_id":"levelo_inurba_marseille","lat":43.299717,"lon":5.384845,"is_reserved":false,"is_disabled":false,"rental_uris":{"android":"levelo://app?vid=f347c875-db8c-474b-909f-1160c3f39ecb","ios":"levelo://app?vid=f347c875-db8c-474b-909f-1160c3f39ecb"},"vehicle_type_id":"4","last_reported":1685203667,"current_range_meters":17600,"station_id":"ce4bgj92rcd13ifvqbd0","pricing_plan_id":"free"},{"bike_id":"15764e95-c611-4bbc-b9e2-390ad06ff3ff","system_id":"levelo_inurba_marseille","lat":43.299724,"lon":5.384848,"is_reserved":false,"is_disabled":false,"rental_uris":{"android":"levelo://app?vid=15764e95-c611-4bbc-b9e2-390ad06ff3ff","ios":"levelo://app?vid=15764e95-c611-4bbc-b9e2-390ad06ff3ff"},"vehicle_type_id":"4","last_reported":1685203667,"current_range_meters":18400,"station_id":"ce4bgj92rcd13ifvqbd0","pricing_plan_id":"free"},{"bike_id":"470c3935-a194-4de5-8802-086ae6a4610e","system_id":"levelo_inurba_marseille","lat":43.299724,"lon":5.384848,"is_reserved":false,"is_disabled":false,"rental_uris":{"android":"levelo://app?vid=470c3935-a194-4de5-8802-086ae6a4610e","ios":"levelo://app?vid=470c3935-a194-4de5-8802-086ae6a4610e"},"vehicle_type_id":"4","last_reported":1685203667,"current_range_meters":27600,"station_id":"ce4bgj92rcd13ifvqbd0","pricing_plan_id":"free"},{"bike_id":"ae9b02f3-c2e7-46a6-83ce-fd0b253fbeb3","system_id":"levelo_inurba_marseille","lat":43.30085,"lon":5.390856,"is_reserved":false,"is_disabled":false,"rental_uris":{"android":"levelo://app?vid=ae9b02f3-c2e7-46a6-83ce-fd0b253fbeb3","ios":"levelo://app?vid=ae9b02f3-c2e7-46a6-83ce-fd0b253fbeb3"},"vehicle_type_id":"4","last_reported":1685203667,"current_range_meters":0,"station_id":"ce4bh192rcd13ifvqdb0","pricing_plan_id":"free"},{"bike_id":"3289b7bc-6138-4ebb-8d82-2b0e69f1f911","system_id":"levelo_inurba_marseille","lat":43.296556,"lon":5.381226,"is_reserved":false,"is_disabled":false,"rental_uris":{"android":"levelo://app?vid=3289b7bc-6138-4ebb-8d82-2b0e69f1f911","ios":"levelo://app?vid=3289b7bc-6138-4ebb-8d82-2b0e69f1f911"},"vehicle_type_id":"4","last_reported":1685203667,"current_range_meters":0,"station_id":"","pricing_plan_id":"free"},{"bike_id":"4b390488-4edb-4ab5-a5da-de76f4b88c74","system_id":"levelo_inurba_marseille","lat":43.29307,"lon":5.37183,"is_reserved":false,"is_disabled":false,"rental_uris":{"android":"levelo://app?vid=4b390488-4edb-4ab5-a5da-de76f4b88c74","ios":"levelo://app?vid=4b390488-4edb-4ab5-a5da-de76f4b88c74"},"vehicle_type_id":"4","last_reported":1685203667,"current_range_meters":6800,"station_id":"","pricing_plan_id":"free"},{"bike_id":"5a15e780-7434-4101-a5f5-756fb28ef13a","system_id":"levelo_inurba_marseille","lat":43.29305,"lon":5.37176,"is_reserved":false,"is_disabled":false,"rental_uris":{"android":"levelo://app?vid=5a15e780-7434-4101-a5f5-756fb28ef13a","ios":"levelo://app?vid=5a15e780-7434-4101-a5f5-756fb28ef13a"},"vehicle_type_id":"4","last_reported":1685203667,"current_range_meters":23200,"station_id":"ce4bgh92rcd13ifvqb40","pricing_plan_id":"free"},{"bike_id":"4c2764cd-b968-4965-8fbb-517cf24c78b5","system_id":"levelo_inurba_marseille","lat":43.303002,"lon":5.392142,"is_reserved":false,"is_disabled":false,"rental_uris":{"android":"levelo://app?vid=4c2764cd-b968-4965-8fbb-517cf24c78b5","ios":"levelo://app?vid=4c2764cd-b968-4965-8fbb-517cf24c78b5"},"vehicle_type_id":"4","last_reported":1685203667,"current_range_meters":400,"station_id":"ce4bgkh2rcd13ifvqbk0","pricing_plan_id":"free"},{"bike_id":"463e1574-77a4-43ec-bd32-b1468300c5e8","system_id":"levelo_inurba_marseille","lat":43.303002,"lon":5.392142,"is_reserved":false,"is_disabled":false,"rental_uris":{"android":"levelo://app?vid=463e1574-77a4-43ec-bd32-b1468300c5e8","ios":"levelo://app?vid=463e1574-77a4-43ec-bd32-b1468300c5e8"},"vehicle_type_id":"4","last_reported":1685203667,"current_range_meters":0,"station_id":"ce4bgkh2rcd13ifvqbk0","pricing_plan_id":"free"},{"bike_id":"cd7dd840-a4fe-4c61-badb-b7bc637e0109","system_id":"levelo_inurba_marseille","lat":43.291671,"lon":5.371575,"is_reserved":false,"is_disabled":false,"rental_uris":{"android":"levelo://app?vid=cd7dd840-a4fe-4c61-badb-b7bc637e0109","ios":"levelo://app?vid=cd7dd840-a4fe-4c61-badb-b7bc637e0109"},"vehicle_type_id":"4","last_reported":1685203667,"current_range_meters":1200,"station_id":"ce4bha92rcd13ifvqeh0","pricing_plan_id":"free"},{"bike_id":"fc365bbb-04d9-4dc9-8e8d-8b93543bdb5e","system_id":"levelo_inurba_marseille","lat":43.2989,"lon":5.38912,"is_reserved":false,"is_disabled":false,"rental_uris":{"android":"levelo://app?vid=fc365bbb-04d9-4dc9-8e8d-8b93543bdb5e","ios":"levelo://app?vid=fc365bbb-04d9-4dc9-8e8d-8b93543bdb5e"},"vehicle_type_id":"4","last_reported":1685203667,"current_range_meters":10000,"station_id":"ce4bh392rcd13ifvqdl0","pricing_plan_id":"free"},{"bike_id":"e7a92da5-b207-4de5-89ba-49a00b0d19f1","system_id":"levelo_inurba_marseille","lat":43.2919,"lon":5.35801,"is_reserved":false,"is_disabled":false,"rental_uris":{"android":"levelo://app?vid=e7a92da5-b207-4de5-89ba-49a00b0d19f1","ios":"levelo://app?vid=e7a92da5-b207-4de5-89ba-49a00b0d19f1"},"vehicle_type_id":"4","last_reported":1685203667,"current_range_meters":20800,"station_id":"ce4bhb12rcd13ifvqel0","pricing_plan_id":"free"},{"bike_id":"5610fc61-6947-4670-ba54-dbaa25f4254f","system_id":"levelo_inurba_marseille","lat":43.313291,"lon":5.396838,"is_reserved":false,"is_disabled":false,"rental_uris":{"android":"levelo://app?vid=5610fc61-6947-4670-ba54-dbaa25f4254f","ios":"levelo://app?vid=5610fc61-6947-4670-ba54-dbaa25f4254f"},"vehicle_type_id":"4","last_reported":1685203667,"current_range_meters":0,"station_id":"ce4bgvp2rcd13ifvqcu0","pricing_plan_id":"free"},{"bike_id":"ce15f312-90e4-4c32-98ae-71f5b9dca578","system_id":"levelo_inurba_marseille","lat":43.29529,"lon":5.385581,"is_reserved":false,"is_disabled":false,"rental_uris":{"android":"levelo://app?vid=ce15f312-90e4-4c32-98ae-71f5b9dca578","ios":"levelo://app?vid=ce15f312-90e4-4c32-98ae-71f5b9dca578"},"vehicle_type_id":"4","last_reported":1685203667,"current_range_meters":0,"station_id":"ce4bgih2rcd13ifvqba0","pricing_plan_id":"free"},{"bike_id":"e363757a-052d-4e2c-8ad5-3271e5d14bb2","system_id":"levelo_inurba_marseille","lat":43.290631,"lon":5.359244,"is_reserved":false,"is_disabled":false,"rental_uris":{"android":"levelo://app?vid=e363757a-052d-4e2c-8ad5-3271e5d14bb2","ios":"levelo://app?vid=e363757a-052d-4e2c-8ad5-3271e5d14bb2"},"vehicle_type_id":"4","last_reported":1685203667,"current_range_meters":28400,"station_id":"ce4bha92rcd13ifvqeg0","pricing_plan_id":"free"},{"bike_id":"afc5c2c1-bddd-4cc6-a68b-87bab1e7b8e5","system_id":"levelo_inurba_marseille","lat":43.290327,"lon":5.375711,"is_reserved":false,"is_disabled":false,"rental_uris":{"android":"levelo://app?vid=afc5c2c1-bddd-4cc6-a68b-87bab1e7b8e5","ios":"levelo://app?vid=afc5c2c1-bddd-4cc6-a68b-87bab1e7b8e5"},"vehicle_type_id":"4","last_reported":1685203667,"current_range_meters":21600,"station_id":"ce4bh692rcd13ifvqe90","pricing_plan_id":"free"},{"bike_id":"50b2b135-cde9-4ff9-9057-2d735311489c","system_id":"levelo_inurba_marseille","lat":43.289184,"lon":5.366408,"is_reserved":false,"is_disabled":false,"rental_uris":{"android":"levelo://app?vid=50b2b135-cde9-4ff9-9057-2d735311489c","ios":"levelo://app?vid=50b2b135-cde9-4ff9-9057-2d735311489c"},"vehicle_type_id":"4","last_reported":1685203667,"current_range_meters":21200,"station_id":"ce4bhap2rcd13ifvqek0","pricing_plan_id":"free"},{"bike_id":"b9d9b5bc-b7f5-4fe2-ad7a-2d9d3283e84a","system_id":"levelo_inurba_marseille","lat":43.290103,"lon":5.356114,"is_reserved":false,"is_disabled":false,"rental_uris":{"android":"levelo://app?vid=b9d9b5bc-b7f5-4fe2-ad7a-2d9d3283e84a","ios":"levelo://app?vid=b9d9b5bc-b7f5-4fe2-ad7a-2d9d3283e84a"},"vehicle_type_id":"4","last_reported":1685203667,"current_range_meters":0,"station_id":"ce4bhb92rcd13ifvqen0","pricing_plan_id":"free"},{"bike_id":"21b44f17-cec3-4fb8-adeb-4c8ce2591ef0","system_id":"levelo_inurba_marseille","lat":43.290103,"lon":5.356114,"is_reserved":false,"is_disabled":false,"rental_uris":{"android":"levelo://app?vid=21b44f17-cec3-4fb8-adeb-4c8ce2591ef0","ios":"levelo://app?vid=21b44f17-cec3-4fb8-adeb-4c8ce2591ef0"},"vehicle_type_id":"4","last_reported":1685203667,"current_range_meters":21200,"station_id":"ce4bhb92rcd13ifvqen0","pricing_plan_id":"free"},{"bike_id":"e95ce737-a56f-40f6-afdb-bfd156c3924c","system_id":"levelo_inurba_marseille","lat":43.290104,"lon":5.356111,"is_reserved":false,"is_disabled":false,"rental_uris":{"android":"levelo://app?vid=e95ce737-a56f-40f6-afdb-bfd156c3924c","ios":"levelo://app?vid=e95ce737-a56f-40f6-afdb-bfd156c3924c"},"vehicle_type_id":"4","last_reported":1685203667,"current_range_meters":14800,"station_id":"ce4bhb92rcd13ifvqen0","pricing_plan_id":"free"},{"bike_id":"a90dad28-e26a-44a3-85f2-c3e22e476bc4","system_id":"levelo_inurba_marseille","lat":43.29009,"lon":5.35621,"is_reserved":false,"is_disabled":false,"rental_uris":{"android":"levelo://app?vid=a90dad28-e26a-44a3-85f2-c3e22e476bc4","ios":"levelo://app?vid=a90dad28-e26a-44a3-85f2-c3e22e476bc4"},"vehicle_type_id":"4","last_reported":1685203667,"current_range_meters":16000,"station_id":"ce4bhb92rcd13ifvqen0","pricing_plan_id":"free"},{"bike_id":"8c05f3bd-d8d2-483f-95f1-1075b592da5f","system_id":"levelo_inurba_marseille","lat":43.29531,"lon":5.3905,"is_reserved":false,"is_disabled":false,"rental_uris":{"android":"levelo://app?vid=8c05f3bd-d8d2-483f-95f1-1075b592da5f","ios":"levelo://app?vid=8c05f3bd-d8d2-483f-95f1-1075b592da5f"},"vehicle_type_id":"4","last_reported":1685203667,"current_range_meters":0,"station_id":"ce4bh3p2rcd13ifvqdp0","pricing_plan_id":"free"},{"bike_id":"c67b547c-3fcb-4384-8614-e15f558fec55","system_id":"levelo_inurba_marseille","lat":43.33744,"lon":5.37451,"is_reserved":false,"is_disabled":false,"rental_uris":{"android":"levelo://app?vid=c67b547c-3fcb-4384-8614-e15f558fec55","ios":"levelo://app?vid=c67b547c-3fcb-4384-8614-e15f558fec55"},"vehicle_type_id":"4","last_reported":1685203667,"current_range_meters":30800,"station_id":"","pricing_plan_id":"free"},{"bike_id":"21bebb90-bd37-4351-9ead-f26273aea005","system_id":"levelo_inurba_marseille","lat":43.33753,"lon":5.37433,"is_reserved":false,"is_disabled":false,"rental_uris":{"android":"levelo://app?vid=21bebb90-bd37-4351-9ead-f26273aea005","ios":"levelo://app?vid=21bebb90-bd37-4351-9ead-f26273aea005"},"vehicle_type_id":"4","last_reported":1685203667,"current_range_meters":15600,"station_id":"","pricing_plan_id":"free"},{"bike_id":"556c6db1-2600-4c2b-9521-aae8453517c1","system_id":"levelo_inurba_marseille","lat":43.33752,"lon":5.37445,"is_reserved":false,"is_disabled":false,"rental_uris":{"android":"levelo://app?vid=556c6db1-2600-4c2b-9521-aae8453517c1","ios":"levelo://app?vid=556c6db1-2600-4c2b-9521-aae8453517c1"},"vehicle_type_id":"4","last_reported":1685203667,"current_range_meters":17600,"station_id":"","pricing_plan_id":"free"},{"bike_id":"5aaf445f-f097-4041-99e9-0b2edc8a39b1","system_id":"levelo_inurba_marseille","lat":43.33755,"lon":5.37447,"is_reserved":false,"is_disabled":false,"rental_uris":{"android":"levelo://app?vid=5aaf445f-f097-4041-99e9-0b2edc8a39b1","ios":"levelo://app?vid=5aaf445f-f097-4041-99e9-0b2edc8a39b1"},"vehicle_type_id":"4","last_reported":1685203667,"current_range_meters":24400,"station_id":"","pricing_plan_id":"free"},{"bike_id":"4a9be2f7-5d74-4d13-b74a-62d2aef957fc","system_id":"levelo_inurba_marseille","lat":43.337564,"lon":5.374517,"is_reserved":false,"is_disabled":false,"rental_uris":{"android":"levelo://app?vid=4a9be2f7-5d74-4d13-b74a-62d2aef957fc","ios":"levelo://app?vid=4a9be2f7-5d74-4d13-b74a-62d2aef957fc"},"vehicle_type_id":"4","last_reported":1685203667,"current_range_meters":30400,"station_id":"","pricing_plan_id":"free"},{"bike_id":"c622c08e-a260-4027-b92a-839107253eb5","system_id":"levelo_inurba_marseille","lat":43.33758,"lon":5.37446,"is_reserved":false,"is_disabled":false,"rental_uris":{"android":"levelo://app?vid=c622c08e-a260-4027-b92a-839107253eb5","ios":"levelo://app?vid=c622c08e-a260-4027-b92a-839107253eb5"},"vehicle_type_id":"4","last_reported":1685203667,"current_range_meters":29600,"station_id":"","pricing_plan_id":"free"},{"bike_id":"9e8ba907-b276-46b3-a0d4-643791b8cf62","system_id":"levelo_inurba_marseille","lat":43.33762,"lon":5.37426,"is_reserved":false,"is_disabled":false,"rental_uris":{"android":"levelo://app?vid=9e8ba907-b276-46b3-a0d4-643791b8cf62","ios":"levelo://app?vid=9e8ba907-b276-46b3-a0d4-643791b8cf62"},"vehicle_type_id":"4","last_reported":1685203667,"current_range_meters":30000,"station_id":"","pricing_plan_id":"free"},{"bike_id":"141c14ea-594b-43ee-894e-8c44af1dcd73","system_id":"levelo_inurba_marseille","lat":43.33764,"lon":5.37434,"is_reserved":false,"is_disabled":false,"rental_uris":{"android":"levelo://app?vid=141c14ea-594b-43ee-894e-8c44af1dcd73","ios":"levelo://app?vid=141c14ea-594b-43ee-894e-8c44af1dcd73"},"vehicle_type_id":"4","last_reported":1685203667,"current_range_meters":11600,"station_id":"","pricing_plan_id":"free"},{"bike_id":"cec24eac-b0db-4ae5-9996-961b8b4e3854","system_id":"levelo_inurba_marseille","lat":43.286591,"lon":5.363346,"is_reserved":false,"is_disabled":false,"rental_uris":{"android":"levelo://app?vid=cec24eac-b0db-4ae5-9996-961b8b4e3854","ios":"levelo://app?vid=cec24eac-b0db-4ae5-9996-961b8b4e3854"},"vehicle_type_id":"4","last_reported":1685203667,"current_range_meters":29600,"station_id":"ce4bhah2rcd13ifvqej0","pricing_plan_id":"free"},{"bike_id":"dc031fb2-cc1e-4eb3-a1af-cb9f1da6fb16","system_id":"levelo_inurba_marseille","lat":43.286732,"lon":5.363514,"is_reserved":false,"is_disabled":false,"rental_uris":{"android":"levelo://app?vid=dc031fb2-cc1e-4eb3-a1af-cb9f1da6fb16","ios":"levelo://app?vid=dc031fb2-cc1e-4eb3-a1af-cb9f1da6fb16"},"vehicle_type_id":"4","last_reported":1685203667,"current_range_meters":8400,"station_id":"","pricing_plan_id":"free"},{"bike_id":"15d7c2b6-9652-41a1-a6aa-511885eedb58","system_id":"levelo_inurba_marseille","lat":43.295194,"lon":5.39397,"is_reserved":false,"is_disabled":false,"rental_uris":{"android":"levelo://app?vid=15d7c2b6-9652-41a1-a6aa-511885eedb58","ios":"levelo://app?vid=15d7c2b6-9652-41a1-a6aa-511885eedb58"},"vehicle_type_id":"4","last_reported":1685203667,"current_range_meters":22000,"station_id":"ce4bh292rcd13ifvqdf0","pricing_plan_id":"free"},{"bike_id":"b1304b1e-89de-4fe2-84a8-c6df8d5f19b1","system_id":"levelo_inurba_marseille","lat":43.290345,"lon":5.38646,"is_reserved":false,"is_disabled":false,"rental_uris":{"android":"levelo://app?vid=b1304b1e-89de-4fe2-84a8-c6df8d5f19b1","ios":"levelo://app?vid=b1304b1e-89de-4fe2-84a8-c6df8d5f19b1"},"vehicle_type_id":"4","last_reported":1685203667,"current_range_meters":0,"station_id":"ce4bh4p2rcd13ifvqe0g","pricing_plan_id":"free"},{"bike_id":"7136b3bb-c330-4891-abd6-77c3ec8c0ff9","system_id":"levelo_inurba_marseille","lat":43.28607,"lon":5.370627,"is_reserved":false,"is_disabled":false,"rental_uris":{"android":"levelo://app?vid=7136b3bb-c330-4891-abd6-77c3ec8c0ff9","ios":"levelo://app?vid=7136b3bb-c330-4891-abd6-77c3ec8c0ff9"},"vehicle_type_id":"4","last_reported":1685203667,"current_range_meters":400,"station_id":"ce4bht12rcd13ifvqi60","pricing_plan_id":"free"},{"bike_id":"4de35b0b-05b3-44d5-960b-88d018a34ad3","system_id":"levelo_inurba_marseille","lat":43.31641,"lon":5.40433,"is_reserved":false,"is_disabled":false,"rental_uris":{"android":"levelo://app?vid=4de35b0b-05b3-44d5-960b-88d018a34ad3","ios":"levelo://app?vid=4de35b0b-05b3-44d5-960b-88d018a34ad3"},"vehicle_type_id":"4","last_reported":1685203667,"current_range_meters":0,"station_id":"ce4bh012rcd13ifvqd00","pricing_plan_id":"free"},{"bike_id":"4ebe09ea-bbd9-477a-ad27-805daef49ec1","system_id":"levelo_inurba_marseille","lat":43.31649,"lon":5.40437,"is_reserved":false,"is_disabled":false,"rental_uris":{"android":"levelo://app?vid=4ebe09ea-bbd9-477a-ad27-805daef49ec1","ios":"levelo://app?vid=4ebe09ea-bbd9-477a-ad27-805daef49ec1"},"vehicle_type_id":"4","last_reported":1685203667,"current_range_meters":0,"station_id":"ce4bh012rcd13ifvqd00","pricing_plan_id":"free"},{"bike_id":"c90c366b-b680-48db-be56-9bac33193934","system_id":"levelo_inurba_marseille","lat":43.28752,"lon":5.38291,"is_reserved":false,"is_disabled":false,"rental_uris":{"android":"levelo://app?vid=c90c366b-b680-48db-be56-9bac33193934","ios":"levelo://app?vid=c90c366b-b680-48db-be56-9bac33193934"},"vehicle_type_id":"4","last_reported":1685203667,"current_range_meters":11600,"station_id":"","pricing_plan_id":"free"},{"bike_id":"a1435526-06f5-47a7-9ec6-f9519e955bf3","system_id":"levelo_inurba_marseille","lat":43.291994,"lon":5.392907,"is_reserved":false,"is_disabled":false,"rental_uris":{"android":"levelo://app?vid=a1435526-06f5-47a7-9ec6-f9519e955bf3","ios":"levelo://app?vid=a1435526-06f5-47a7-9ec6-f9519e955bf3"},"vehicle_type_id":"4","last_reported":1685203667,"current_range_meters":23200,"station_id":"ce4bh192rcd13ifvqdd0","pricing_plan_id":"free"},{"bike_id":"a32e7532-2b10-4993-a7a1-936555948c50","system_id":"levelo_inurba_marseille","lat":43.291994,"lon":5.392907,"is_reserved":false,"is_disabled":false,"rental_uris":{"android":"levelo://app?vid=a32e7532-2b10-4993-a7a1-936555948c50","ios":"levelo://app?vid=a32e7532-2b10-4993-a7a1-936555948c50"},"vehicle_type_id":"4","last_reported":1685203667,"current_range_meters":0,"station_id":"ce4bh192rcd13ifvqdd0","pricing_plan_id":"free"},{"bike_id":"fc354d18-13a7-43bc-be9d-fb136a4f2675","system_id":"levelo_inurba_marseille","lat":43.284534,"lon":5.358662,"is_reserved":false,"is_disabled":false,"rental_uris":{"android":"levelo://app?vid=fc354d18-13a7-43bc-be9d-fb136a4f2675","ios":"levelo://app?vid=fc354d18-13a7-43bc-be9d-fb136a4f2675"},"vehicle_type_id":"4","last_reported":1685203667,"current_range_meters":8800,"station_id":"ce4bhah2rcd13ifvqei0","pricing_plan_id":"free"},{"bike_id":"a9ad982b-8914-4000-9d8e-e2aec20a5317","system_id":"levelo_inurba_marseille","lat":43.284534,"lon":5.358662,"is_reserved":false,"is_disabled":false,"rental_uris":{"android":"levelo://app?vid=a9ad982b-8914-4000-9d8e-e2aec20a5317","ios":"levelo://app?vid=a9ad982b-8914-4000-9d8e-e2aec20a5317"},"vehicle_type_id":"4","last_reported":1685203667,"current_range_meters":5200,"station_id":"ce4bhah2rcd13ifvqei0","pricing_plan_id":"free"},{"bike_id":"bc449b9b-137e-4a8f-a852-4b0b00bbdaa2","system_id":"levelo_inurba_marseille","lat":43.284534,"lon":5.358662,"is_reserved":false,"is_disabled":false,"rental_uris":{"android":"levelo://app?vid=bc449b9b-137e-4a8f-a852-4b0b00bbdaa2","ios":"levelo://app?vid=bc449b9b-137e-4a8f-a852-4b0b00bbdaa2"},"vehicle_type_id":"4","last_reported":1685203667,"current_range_meters":14400,"station_id":"ce4bhah2rcd13ifvqei0","pricing_plan_id":"free"},{"bike_id":"313049e2-232c-4f54-9b26-81086cea8884","system_id":"levelo_inurba_marseille","lat":43.33715,"lon":5.39185,"is_reserved":false,"is_disabled":false,"rental_uris":{"android":"levelo://app?vid=313049e2-232c-4f54-9b26-81086cea8884","ios":"levelo://app?vid=313049e2-232c-4f54-9b26-81086cea8884"},"vehicle_type_id":"4","last_reported":1685203667,"current_range_meters":8800,"station_id":"","pricing_plan_id":"free"},{"bike_id":"e8d17731-68f3-44b5-9065-c07996775097","system_id":"levelo_inurba_marseille","lat":43.323464,"lon":5.406297,"is_reserved":false,"is_disabled":false,"rental_uris":{"android":"levelo://app?vid=e8d17731-68f3-44b5-9065-c07996775097","ios":"levelo://app?vid=e8d17731-68f3-44b5-9065-c07996775097"},"vehicle_type_id":"4","last_reported":1685203667,"current_range_meters":28400,"station_id":"ce4bhq92rcd13ifvqhjg","pricing_plan_id":"free"},{"bike_id":"65c9d813-f717-43b6-a0c3-55f47a8bccea","system_id":"levelo_inurba_marseille","lat":43.28421,"lon":5.34982,"is_reserved":false,"is_disabled":false,"rental_uris":{"android":"levelo://app?vid=65c9d813-f717-43b6-a0c3-55f47a8bccea","ios":"levelo://app?vid=65c9d813-f717-43b6-a0c3-55f47a8bccea"},"vehicle_type_id":"4","last_reported":1685203667,"current_range_meters":22000,"station_id":"ce4bhu92rcd13ifvqi70","pricing_plan_id":"free"},{"bike_id":"8424e3dc-7f1f-4c18-a24d-d9ec17d150ac","system_id":"levelo_inurba_marseille","lat":43.28338,"lon":5.35042,"is_reserved":false,"is_disabled":false,"rental_uris":{"android":"levelo://app?vid=8424e3dc-7f1f-4c18-a24d-d9ec17d150ac","ios":"levelo://app?vid=8424e3dc-7f1f-4c18-a24d-d9ec17d150ac"},"vehicle_type_id":"4","last_reported":1685203667,"current_range_meters":31200,"station_id":"","pricing_plan_id":"free"},{"bike_id":"5c00389b-1e69-43fa-befd-7af62f4b4f3d","system_id":"levelo_inurba_marseille","lat":43.282754,"lon":5.350519,"is_reserved":false,"is_disabled":false,"rental_uris":{"android":"levelo://app?vid=5c00389b-1e69-43fa-befd-7af62f4b4f3d","ios":"levelo://app?vid=5c00389b-1e69-43fa-befd-7af62f4b4f3d"},"vehicle_type_id":"4","last_reported":1685203667,"current_range_meters":0,"station_id":"ce4bhbp2rcd13ifvqerg","pricing_plan_id":"free"},{"bike_id":"e095a156-3a8b-48e1-b385-5d8fef7399fa","system_id":"levelo_inurba_marseille","lat":43.282754,"lon":5.350519,"is_reserved":false,"is_disabled":false,"rental_uris":{"android":"levelo://app?vid=e095a156-3a8b-48e1-b385-5d8fef7399fa","ios":"levelo://app?vid=e095a156-3a8b-48e1-b385-5d8fef7399fa"},"vehicle_type_id":"4","last_reported":1685203667,"current_range_meters":18000,"station_id":"ce4bhbp2rcd13ifvqerg","pricing_plan_id":"free"},{"bike_id":"b4156d75-6d32-4b73-a0b2-69c2af71c8a6","system_id":"levelo_inurba_marseille","lat":43.282754,"lon":5.350519,"is_reserved":false,"is_disabled":false,"rental_uris":{"android":"levelo://app?vid=b4156d75-6d32-4b73-a0b2-69c2af71c8a6","ios":"levelo://app?vid=b4156d75-6d32-4b73-a0b2-69c2af71c8a6"},"vehicle_type_id":"4","last_reported":1685203667,"current_range_meters":22400,"station_id":"ce4bhbp2rcd13ifvqerg","pricing_plan_id":"free"},{"bike_id":"0905f9ef-b823-4a12-aa68-323fd2f4cd72","system_id":"levelo_inurba_marseille","lat":43.28269,"lon":5.35071,"is_reserved":false,"is_disabled":false,"rental_uris":{"android":"levelo://app?vid=0905f9ef-b823-4a12-aa68-323fd2f4cd72","ios":"levelo://app?vid=0905f9ef-b823-4a12-aa68-323fd2f4cd72"},"vehicle_type_id":"4","last_reported":1685203667,"current_range_meters":20400,"station_id":"ce4bhbp2rcd13ifvqerg","pricing_plan_id":"free"},{"bike_id":"47fcab98-9e14-4e42-b742-ac3bd782ae05","system_id":"levelo_inurba_marseille","lat":43.28039,"lon":5.369297,"is_reserved":false,"is_disabled":false,"rental_uris":{"android":"levelo://app?vid=47fcab98-9e14-4e42-b742-ac3bd782ae05","ios":"levelo://app?vid=47fcab98-9e14-4e42-b742-ac3bd782ae05"},"vehicle_type_id":"4","last_reported":1685203667,"current_range_meters":5600,"station_id":"ce4bha12rcd13ifvqef0","pricing_plan_id":"free"},{"bike_id":"2a90aafe-9241-4246-bf2a-4ade9f77af78","system_id":"levelo_inurba_marseille","lat":43.28039,"lon":5.369297,"is_reserved":false,"is_disabled":false,"rental_uris":{"android":"levelo://app?vid=2a90aafe-9241-4246-bf2a-4ade9f77af78","ios":"levelo://app?vid=2a90aafe-9241-4246-bf2a-4ade9f77af78"},"vehicle_type_id":"4","last_reported":1685203667,"current_range_meters":7200,"station_id":"ce4bha12rcd13ifvqef0","pricing_plan_id":"free"},{"bike_id":"3c96bcd0-6d28-42a1-b32f-db7cf79dd435","system_id":"levelo_inurba_marseille","lat":43.282744,"lon":5.350533,"is_reserved":false,"is_disabled":false,"rental_uris":{"android":"levelo://app?vid=3c96bcd0-6d28-42a1-b32f-db7cf79dd435","ios":"levelo://app?vid=3c96bcd0-6d28-42a1-b32f-db7cf79dd435"},"vehicle_type_id":"4","last_reported":1685203667,"current_range_meters":21200,"station_id":"ce4bhbp2rcd13ifvqerg","pricing_plan_id":"free"},{"bike_id":"4d86ce40-e406-44d0-9e2e-59dcfae65e59","system_id":"levelo_inurba_marseille","lat":43.29041,"lon":5.39947,"is_reserved":false,"is_disabled":false,"rental_uris":{"android":"levelo://app?vid=4d86ce40-e406-44d0-9e2e-59dcfae65e59","ios":"levelo://app?vid=4d86ce40-e406-44d0-9e2e-59dcfae65e59"},"vehicle_type_id":"4","last_reported":1685203667,"current_range_meters":0,"station_id":"ce4bh392rcd13ifvqdm0","pricing_plan_id":"free"},{"bike_id":"b8d1f7bd-2487-4d9d-a6f9-995423e4bbbd","system_id":"levelo_inurba_marseille","lat":43.281044,"lon":5.378308,"is_reserved":false,"is_disabled":false,"rental_uris":{"android":"levelo://app?vid=b8d1f7bd-2487-4d9d-a6f9-995423e4bbbd","ios":"levelo://app?vid=b8d1f7bd-2487-4d9d-a6f9-995423e4bbbd"},"vehicle_type_id":"4","last_reported":1685203667,"current_range_meters":21200,"station_id":"ce4bha12rcd13ifvqee0","pricing_plan_id":"free"},{"bike_id":"bd12b87d-a260-4361-855a-72458c404d9f","system_id":"levelo_inurba_marseille","lat":43.281044,"lon":5.378308,"is_reserved":false,"is_disabled":false,"rental_uris":{"android":"levelo://app?vid=bd12b87d-a260-4361-855a-72458c404d9f","ios":"levelo://app?vid=bd12b87d-a260-4361-855a-72458c404d9f"},"vehicle_type_id":"4","last_reported":1685203667,"current_range_meters":8000,"station_id":"ce4bha12rcd13ifvqee0","pricing_plan_id":"free"},{"bike_id":"46aa5381-a419-479f-88f7-861a4242f408","system_id":"levelo_inurba_marseille","lat":43.284462,"lon":5.392121,"is_reserved":false,"is_disabled":false,"rental_uris":{"android":"levelo://app?vid=46aa5381-a419-479f-88f7-861a4242f408","ios":"levelo://app?vid=46aa5381-a419-479f-88f7-861a4242f408"},"vehicle_type_id":"4","last_reported":1685203667,"current_range_meters":0,"station_id":"ce4bhoh2rcd13ifvqh5g","pricing_plan_id":"free"},{"bike_id":"29a9dcb6-6213-43b5-880b-cf35e9964f60","system_id":"levelo_inurba_marseille","lat":43.284462,"lon":5.392121,"is_reserved":false,"is_disabled":false,"rental_uris":{"android":"levelo://app?vid=29a9dcb6-6213-43b5-880b-cf35e9964f60","ios":"levelo://app?vid=29a9dcb6-6213-43b5-880b-cf35e9964f60"},"vehicle_type_id":"4","last_reported":1685203667,"current_range_meters":25200,"station_id":"ce4bhoh2rcd13ifvqh5g","pricing_plan_id":"free"},{"bike_id":"21a8a46a-9f15-44ec-8c8b-7e133321590b","system_id":"levelo_inurba_marseille","lat":43.304188,"lon":5.412904,"is_reserved":false,"is_disabled":false,"rental_uris":{"android":"levelo://app?vid=21a8a46a-9f15-44ec-8c8b-7e133321590b","ios":"levelo://app?vid=21a8a46a-9f15-44ec-8c8b-7e133321590b"},"vehicle_type_id":"4","last_reported":1685203667,"current_range_meters":24400,"station_id":"ce4bhop2rcd13ifvqh8g","pricing_plan_id":"free"},{"bike_id":"ba4bc1e4-c7c7-4158-a67d-8a88eaa9e9c0","system_id":"levelo_inurba_marseille","lat":43.287061,"lon":5.399911,"is_reserved":false,"is_disabled":false,"rental_uris":{"android":"levelo://app?vid=ba4bc1e4-c7c7-4158-a67d-8a88eaa9e9c0","ios":"levelo://app?vid=ba4bc1e4-c7c7-4158-a67d-8a88eaa9e9c0"},"vehicle_type_id":"4","last_reported":1685203667,"current_range_meters":400,"station_id":"","pricing_plan_id":"free"},{"bike_id":"a2318a6b-4558-4a34-9502-25878a774cb4","system_id":"levelo_inurba_marseille","lat":43.279742,"lon":5.38744,"is_reserved":false,"is_disabled":false,"rental_uris":{"android":"levelo://app?vid=a2318a6b-4558-4a34-9502-25878a774cb4","ios":"levelo://app?vid=a2318a6b-4558-4a34-9502-25878a774cb4"},"vehicle_type_id":"4","last_reported":1685203667,"current_range_meters":0,"station_id":"ce4bhg12rcd13ifvqf80","pricing_plan_id":"free"},{"bike_id":"97ca92f9-135e-4597-ad1e-e6d12055154d","system_id":"levelo_inurba_marseille","lat":43.292569,"lon":5.409107,"is_reserved":false,"is_disabled":false,"rental_uris":{"android":"levelo://app?vid=97ca92f9-135e-4597-ad1e-e6d12055154d","ios":"levelo://app?vid=97ca92f9-135e-4597-ad1e-e6d12055154d"},"vehicle_type_id":"4","last_reported":1685203667,"current_range_meters":8400,"station_id":"ce4bh192rcd13ifvqdc0","pricing_plan_id":"free"},{"bike_id":"8cd0731a-1b0b-4565-a78d-7dcb6b62e018","system_id":"levelo_inurba_marseille","lat":43.27383,"lon":5.3625,"is_reserved":false,"is_disabled":false,"rental_uris":{"android":"levelo://app?vid=8cd0731a-1b0b-4565-a78d-7dcb6b62e018","ios":"levelo://app?vid=8cd0731a-1b0b-4565-a78d-7dcb6b62e018"},"vehicle_type_id":"4","last_reported":1685203667,"current_range_meters":15200,"station_id":"","pricing_plan_id":"free"},{"bike_id":"c64178c6-3bec-407d-bdd6-653db11a143a","system_id":"levelo_inurba_marseille","lat":43.27382,"lon":5.36251,"is_reserved":false,"is_disabled":false,"rental_uris":{"android":"levelo://app?vid=c64178c6-3bec-407d-bdd6-653db11a143a","ios":"levelo://app?vid=c64178c6-3bec-407d-bdd6-653db11a143a"},"vehicle_type_id":"4","last_reported":1685203667,"current_range_meters":31200,"station_id":"","pricing_plan_id":"free"},{"bike_id":"4ee3ae4e-7c6f-4a13-ad39-56fec3fef575","system_id":"levelo_inurba_marseille","lat":43.273613,"lon":5.362705,"is_reserved":false,"is_disabled":false,"rental_uris":{"android":"levelo://app?vid=4ee3ae4e-7c6f-4a13-ad39-56fec3fef575","ios":"levelo://app?vid=4ee3ae4e-7c6f-4a13-ad39-56fec3fef575"},"vehicle_type_id":"4","last_reported":1685203667,"current_range_meters":0,"station_id":"ce4bhbh2rcd13ifvqeo0","pricing_plan_id":"free"},{"bike_id":"91b49189-18df-431a-bbbf-f0b2350181de","system_id":"levelo_inurba_marseille","lat":43.28425,"lon":5.40787,"is_reserved":false,"is_disabled":false,"rental_uris":{"android":"levelo://app?vid=91b49189-18df-431a-bbbf-f0b2350181de","ios":"levelo://app?vid=91b49189-18df-431a-bbbf-f0b2350181de"},"vehicle_type_id":"4","last_reported":1685203667,"current_range_meters":10400,"station_id":"","pricing_plan_id":"free"},{"bike_id":"8da8a837-7698-4a68-b724-f670b0f24b42","system_id":"levelo_inurba_marseille","lat":43.310785,"lon":5.424305,"is_reserved":false,"is_disabled":false,"rental_uris":{"android":"levelo://app?vid=8da8a837-7698-4a68-b724-f670b0f24b42","ios":"levelo://app?vid=8da8a837-7698-4a68-b724-f670b0f24b42"},"vehicle_type_id":"4","last_reported":1685203667,"current_range_meters":13600,"station_id":"ce4bhp92rcd13ifvqhag","pricing_plan_id":"free"},{"bike_id":"e8db600b-8fba-41f2-b434-0fb9f8c20f0c","system_id":"levelo_inurba_marseille","lat":43.310785,"lon":5.424305,"is_reserved":false,"is_disabled":false,"rental_uris":{"android":"levelo://app?vid=e8db600b-8fba-41f2-b434-0fb9f8c20f0c","ios":"levelo://app?vid=e8db600b-8fba-41f2-b434-0fb9f8c20f0c"},"vehicle_type_id":"4","last_reported":1685203667,"current_range_meters":14000,"station_id":"ce4bhp92rcd13ifvqhag","pricing_plan_id":"free"},{"bike_id":"40b66b8c-e4b1-449b-8c71-926386da5974","system_id":"levelo_inurba_marseille","lat":43.310785,"lon":5.424305,"is_reserved":false,"is_disabled":false,"rental_uris":{"android":"levelo://app?vid=40b66b8c-e4b1-449b-8c71-926386da5974","ios":"levelo://app?vid=40b66b8c-e4b1-449b-8c71-926386da5974"},"vehicle_type_id":"4","last_reported":1685203667,"current_range_meters":12000,"station_id":"ce4bhp92rcd13ifvqhag","pricing_plan_id":"free"},{"bike_id":"1beeca66-cb3f-448e-9e79-4e716e3e7894","system_id":"levelo_inurba_marseille","lat":43.310785,"lon":5.424305,"is_reserved":false,"is_disabled":false,"rental_uris":{"android":"levelo://app?vid=1beeca66-cb3f-448e-9e79-4e716e3e7894","ios":"levelo://app?vid=1beeca66-cb3f-448e-9e79-4e716e3e7894"},"vehicle_type_id":"4","last_reported":1685203667,"current_range_meters":12000,"station_id":"ce4bhp92rcd13ifvqhag","pricing_plan_id":"free"},{"bike_id":"13d26077-5f3c-46d2-a330-5891fdabc119","system_id":"levelo_inurba_marseille","lat":43.27211,"lon":5.39174,"is_reserved":false,"is_disabled":false,"rental_uris":{"android":"levelo://app?vid=13d26077-5f3c-46d2-a330-5891fdabc119","ios":"levelo://app?vid=13d26077-5f3c-46d2-a330-5891fdabc119"},"vehicle_type_id":"4","last_reported":1685203667,"current_range_meters":0,"station_id":"ce4bhhp2rcd13ifvqfm0","pricing_plan_id":"free"},{"bike_id":"560f680c-eafb-41cf-a58b-3db37cb9c503","system_id":"levelo_inurba_marseille","lat":43.272118,"lon":5.391758,"is_reserved":false,"is_disabled":false,"rental_uris":{"android":"levelo://app?vid=560f680c-eafb-41cf-a58b-3db37cb9c503","ios":"levelo://app?vid=560f680c-eafb-41cf-a58b-3db37cb9c503"},"vehicle_type_id":"4","last_reported":1685203667,"current_range_meters":18000,"station_id":"ce4bhhp2rcd13ifvqfm0","pricing_plan_id":"free"},{"bike_id":"9b8074eb-63d5-4ad9-acbd-8290712424f3","system_id":"levelo_inurba_marseille","lat":43.278128,"lon":5.407195,"is_reserved":false,"is_disabled":false,"rental_uris":{"android":"levelo://app?vid=9b8074eb-63d5-4ad9-acbd-8290712424f3","ios":"levelo://app?vid=9b8074eb-63d5-4ad9-acbd-8290712424f3"},"vehicle_type_id":"4","last_reported":1685203667,"current_range_meters":17600,"station_id":"ce4bhnh2rcd13ifvqgtg","pricing_plan_id":"free"},{"bike_id":"b47846d8-03a9-44cf-b290-cf0b8cc1d82b","system_id":"levelo_inurba_marseille","lat":43.278128,"lon":5.407195,"is_reserved":false,"is_disabled":false,"rental_uris":{"android":"levelo://app?vid=b47846d8-03a9-44cf-b290-cf0b8cc1d82b","ios":"levelo://app?vid=b47846d8-03a9-44cf-b290-cf0b8cc1d82b"},"vehicle_type_id":"4","last_reported":1685203667,"current_range_meters":25600,"station_id":"ce4bhnh2rcd13ifvqgtg","pricing_plan_id":"free"},{"bike_id":"978cacd2-84b9-4d90-9533-78b194e5c2f3","system_id":"levelo_inurba_marseille","lat":43.278128,"lon":5.407195,"is_reserved":false,"is_disabled":false,"rental_uris":{"android":"levelo://app?vid=978cacd2-84b9-4d90-9533-78b194e5c2f3","ios":"levelo://app?vid=978cacd2-84b9-4d90-9533-78b194e5c2f3"},"vehicle_type_id":"4","last_reported":1685203667,"current_range_meters":18400,"station_id":"ce4bhnh2rcd13ifvqgtg","pricing_plan_id":"free"},{"bike_id":"fbd2957c-c5dc-4075-8437-4a4d8e2233e0","system_id":"levelo_inurba_marseille","lat":43.278128,"lon":5.407195,"is_reserved":false,"is_disabled":false,"rental_uris":{"android":"levelo://app?vid=fbd2957c-c5dc-4075-8437-4a4d8e2233e0","ios":"levelo://app?vid=fbd2957c-c5dc-4075-8437-4a4d8e2233e0"},"vehicle_type_id":"4","last_reported":1685203667,"current_range_meters":3200,"station_id":"ce4bhnh2rcd13ifvqgtg","pricing_plan_id":"free"},{"bike_id":"118b0122-d227-4082-b1ac-5d1247c97679","system_id":"levelo_inurba_marseille","lat":43.269467,"lon":5.386439,"is_reserved":false,"is_disabled":false,"rental_uris":{"android":"levelo://app?vid=118b0122-d227-4082-b1ac-5d1247c97679","ios":"levelo://app?vid=118b0122-d227-4082-b1ac-5d1247c97679"},"vehicle_type_id":"4","last_reported":1685203667,"current_range_meters":8000,"station_id":"ce4bhh92rcd13ifvqfh0","pricing_plan_id":"free"},{"bike_id":"ec6f97f1-96b1-48ba-ab78-47e5ef1b0713","system_id":"levelo_inurba_marseille","lat":43.269467,"lon":5.386439,"is_reserved":false,"is_disabled":false,"rental_uris":{"android":"levelo://app?vid=ec6f97f1-96b1-48ba-ab78-47e5ef1b0713","ios":"levelo://app?vid=ec6f97f1-96b1-48ba-ab78-47e5ef1b0713"},"vehicle_type_id":"4","last_reported":1685203667,"current_range_meters":31200,"station_id":"ce4bhh92rcd13ifvqfh0","pricing_plan_id":"free"},{"bike_id":"476e4351-e055-4c92-96dc-da92e9c91644","system_id":"levelo_inurba_marseille","lat":43.269467,"lon":5.386439,"is_reserved":false,"is_disabled":false,"rental_uris":{"android":"levelo://app?vid=476e4351-e055-4c92-96dc-da92e9c91644","ios":"levelo://app?vid=476e4351-e055-4c92-96dc-da92e9c91644"},"vehicle_type_id":"4","last_reported":1685203667,"current_range_meters":15200,"station_id":"ce4bhh92rcd13ifvqfh0","pricing_plan_id":"free"},{"bike_id":"964e4a0a-acd9-447a-865d-c71f9013c815","system_id":"levelo_inurba_marseille","lat":43.26681,"lon":5.382694,"is_reserved":false,"is_disabled":false,"rental_uris":{"android":"levelo://app?vid=964e4a0a-acd9-447a-865d-c71f9013c815","ios":"levelo://app?vid=964e4a0a-acd9-447a-865d-c71f9013c815"},"vehicle_type_id":"4","last_reported":1685203667,"current_range_meters":16000,"station_id":"ce4bhg92rcd13ifvqf90","pricing_plan_id":"free"},{"bike_id":"187299ed-f371-4dea-af3a-d2e659b69fc5","system_id":"levelo_inurba_marseille","lat":43.265714,"lon":5.372891,"is_reserved":false,"is_disabled":false,"rental_uris":{"android":"levelo://app?vid=187299ed-f371-4dea-af3a-d2e659b69fc5","ios":"levelo://app?vid=187299ed-f371-4dea-af3a-d2e659b69fc5"},"vehicle_type_id":"4","last_reported":1685203667,"current_range_meters":23600,"station_id":"ce4bhg12rcd13ifvqf70","pricing_plan_id":"free"},{"bike_id":"b9eee4a9-c6bd-4c9e-bdcc-4d4e3df1f4fe","system_id":"levelo_inurba_marseille","lat":43.265714,"lon":5.372891,"is_reserved":false,"is_disabled":false,"rental_uris":{"android":"levelo://app?vid=b9eee4a9-c6bd-4c9e-bdcc-4d4e3df1f4fe","ios":"levelo://app?vid=b9eee4a9-c6bd-4c9e-bdcc-4d4e3df1f4fe"},"vehicle_type_id":"4","last_reported":1685203667,"current_range_meters":0,"station_id":"ce4bhg12rcd13ifvqf70","pricing_plan_id":"free"},{"bike_id":"f1af5359-90d5-47c5-82c4-d0068d72e72e","system_id":"levelo_inurba_marseille","lat":43.265573,"lon":5.372823,"is_reserved":false,"is_disabled":false,"rental_uris":{"android":"levelo://app?vid=f1af5359-90d5-47c5-82c4-d0068d72e72e","ios":"levelo://app?vid=f1af5359-90d5-47c5-82c4-d0068d72e72e"},"vehicle_type_id":"4","last_reported":1685203667,"current_range_meters":28000,"station_id":"","pricing_plan_id":"free"},{"bike_id":"d667c171-9eb7-4e56-9d47-7f20471bfa39","system_id":"levelo_inurba_marseille","lat":43.26681,"lon":5.382694,"is_reserved":false,"is_disabled":false,"rental_uris":{"android":"levelo://app?vid=d667c171-9eb7-4e56-9d47-7f20471bfa39","ios":"levelo://app?vid=d667c171-9eb7-4e56-9d47-7f20471bfa39"},"vehicle_type_id":"4","last_reported":1685203667,"current_range_meters":0,"station_id":"ce4bhg92rcd13ifvqf90","pricing_plan_id":"free"},{"bike_id":"21a31154-ec33-47f8-86df-928af99f26fd","system_id":"levelo_inurba_marseille","lat":43.26556,"lon":5.37293,"is_reserved":false,"is_disabled":false,"rental_uris":{"android":"levelo://app?vid=21a31154-ec33-47f8-86df-928af99f26fd","ios":"levelo://app?vid=21a31154-ec33-47f8-86df-928af99f26fd"},"vehicle_type_id":"4","last_reported":1685203667,"current_range_meters":28800,"station_id":"ce4bhg12rcd13ifvqf70","pricing_plan_id":"free"},{"bike_id":"e673226a-f594-432c-91d8-a6184fc8c0a2","system_id":"levelo_inurba_marseille","lat":43.265714,"lon":5.372891,"is_reserved":false,"is_disabled":false,"rental_uris":{"android":"levelo://app?vid=e673226a-f594-432c-91d8-a6184fc8c0a2","ios":"levelo://app?vid=e673226a-f594-432c-91d8-a6184fc8c0a2"},"vehicle_type_id":"4","last_reported":1685203667,"current_range_meters":14000,"station_id":"ce4bhg12rcd13ifvqf70","pricing_plan_id":"free"},{"bike_id":"f610399c-8e5c-4a5c-a7c3-830161f3507a","system_id":"levelo_inurba_marseille","lat":43.265714,"lon":5.372891,"is_reserved":false,"is_disabled":false,"rental_uris":{"android":"levelo://app?vid=f610399c-8e5c-4a5c-a7c3-830161f3507a","ios":"levelo://app?vid=f610399c-8e5c-4a5c-a7c3-830161f3507a"},"vehicle_type_id":"4","last_reported":1685203667,"current_range_meters":8000,"station_id":"ce4bhg12rcd13ifvqf70","pricing_plan_id":"free"},{"bike_id":"026cc139-9c1b-4e67-ab12-65fce239dcab","system_id":"levelo_inurba_marseille","lat":43.265714,"lon":5.372891,"is_reserved":false,"is_disabled":false,"rental_uris":{"android":"levelo://app?vid=026cc139-9c1b-4e67-ab12-65fce239dcab","ios":"levelo://app?vid=026cc139-9c1b-4e67-ab12-65fce239dcab"},"vehicle_type_id":"4","last_reported":1685203667,"current_range_meters":30800,"station_id":"ce4bhg12rcd13ifvqf70","pricing_plan_id":"free"},{"bike_id":"f336142f-a40b-46e0-abc4-fd029b129d4b","system_id":"levelo_inurba_marseille","lat":43.26551,"lon":5.37287,"is_reserved":false,"is_disabled":false,"rental_uris":{"android":"levelo://app?vid=f336142f-a40b-46e0-abc4-fd029b129d4b","ios":"levelo://app?vid=f336142f-a40b-46e0-abc4-fd029b129d4b"},"vehicle_type_id":"4","last_reported":1685203667,"current_range_meters":400,"station_id":"ce4bhg12rcd13ifvqf70","pricing_plan_id":"free"},{"bike_id":"3b3e9ebe-ac85-4230-b030-462877c0d9d7","system_id":"levelo_inurba_marseille","lat":43.265714,"lon":5.372891,"is_reserved":false,"is_disabled":false,"rental_uris":{"android":"levelo://app?vid=3b3e9ebe-ac85-4230-b030-462877c0d9d7","ios":"levelo://app?vid=3b3e9ebe-ac85-4230-b030-462877c0d9d7"},"vehicle_type_id":"4","last_reported":1685203667,"current_range_meters":17200,"station_id":"ce4bhg12rcd13ifvqf70","pricing_plan_id":"free"},{"bike_id":"6c99c10b-f97b-4ca0-b80d-e20ed79ef72c","system_id":"levelo_inurba_marseille","lat":43.27996,"lon":5.416624,"is_reserved":false,"is_disabled":false,"rental_uris":{"android":"levelo://app?vid=6c99c10b-f97b-4ca0-b80d-e20ed79ef72c","ios":"levelo://app?vid=6c99c10b-f97b-4ca0-b80d-e20ed79ef72c"},"vehicle_type_id":"4","last_reported":1685203667,"current_range_meters":23200,"station_id":"ce4bho12rcd13ifvqh1g","pricing_plan_id":"free"},{"bike_id":"8bc28b31-74ae-4ca4-9360-d12b1d53f1b6","system_id":"levelo_inurba_marseille","lat":43.26195,"lon":5.37438,"is_reserved":false,"is_disabled":false,"rental_uris":{"android":"levelo://app?vid=8bc28b31-74ae-4ca4-9360-d12b1d53f1b6","ios":"levelo://app?vid=8bc28b31-74ae-4ca4-9360-d12b1d53f1b6"},"vehicle_type_id":"4","last_reported":1685203667,"current_range_meters":0,"station_id":"ce4bhgp2rcd13ifvqfc0","pricing_plan_id":"free"},{"bike_id":"ae1dff9e-e4e4-47d5-8d41-361995eb6ad3","system_id":"levelo_inurba_marseille","lat":43.26193,"lon":5.37437,"is_reserved":false,"is_disabled":false,"rental_uris":{"android":"levelo://app?vid=ae1dff9e-e4e4-47d5-8d41-361995eb6ad3","ios":"levelo://app?vid=ae1dff9e-e4e4-47d5-8d41-361995eb6ad3"},"vehicle_type_id":"4","last_reported":1685203667,"current_range_meters":8000,"station_id":"ce4bhgp2rcd13ifvqfc0","pricing_plan_id":"free"},{"bike_id":"47f9fd8e-d4c6-43f9-941b-0af2e0d572f6","system_id":"levelo_inurba_marseille","lat":43.261782,"lon":5.374515,"is_reserved":false,"is_disabled":false,"rental_uris":{"android":"levelo://app?vid=47f9fd8e-d4c6-43f9-941b-0af2e0d572f6","ios":"levelo://app?vid=47f9fd8e-d4c6-43f9-941b-0af2e0d572f6"},"vehicle_type_id":"4","last_reported":1685203667,"current_range_meters":9200,"station_id":"ce4bhgp2rcd13ifvqfc0","pricing_plan_id":"free"},{"bike_id":"32ef17a8-f40b-4cb8-a15b-40566864af0d","system_id":"levelo_inurba_marseille","lat":43.261782,"lon":5.374515,"is_reserved":false,"is_disabled":false,"rental_uris":{"android":"levelo://app?vid=32ef17a8-f40b-4cb8-a15b-40566864af0d","ios":"levelo://app?vid=32ef17a8-f40b-4cb8-a15b-40566864af0d"},"vehicle_type_id":"4","last_reported":1685203667,"current_range_meters":19200,"station_id":"ce4bhgp2rcd13ifvqfc0","pricing_plan_id":"free"},{"bike_id":"071b3226-63ef-4b1c-919e-3738d44a0394","system_id":"levelo_inurba_marseille","lat":43.26184,"lon":5.37441,"is_reserved":false,"is_disabled":false,"rental_uris":{"android":"levelo://app?vid=071b3226-63ef-4b1c-919e-3738d44a0394","ios":"levelo://app?vid=071b3226-63ef-4b1c-919e-3738d44a0394"},"vehicle_type_id":"4","last_reported":1685203667,"current_range_meters":18800,"station_id":"ce4bhgp2rcd13ifvqfc0","pricing_plan_id":"free"},{"bike_id":"97f92444-dc7f-4ac8-885e-43ac50454dc0","system_id":"levelo_inurba_marseille","lat":43.3172,"lon":5.43706,"is_reserved":false,"is_disabled":false,"rental_uris":{"android":"levelo://app?vid=97f92444-dc7f-4ac8-885e-43ac50454dc0","ios":"levelo://app?vid=97f92444-dc7f-4ac8-885e-43ac50454dc0"},"vehicle_type_id":"4","last_reported":1685203667,"current_range_meters":0,"station_id":"ce4bhp92rcd13ifvqhcg","pricing_plan_id":"free"},{"bike_id":"997fbca5-8dd6-4985-8f12-98f562376a79","system_id":"levelo_inurba_marseille","lat":43.31718,"lon":5.43707,"is_reserved":false,"is_disabled":false,"rental_uris":{"android":"levelo://app?vid=997fbca5-8dd6-4985-8f12-98f562376a79","ios":"levelo://app?vid=997fbca5-8dd6-4985-8f12-98f562376a79"},"vehicle_type_id":"4","last_reported":1685203667,"current_range_meters":29200,"station_id":"ce4bhp92rcd13ifvqhcg","pricing_plan_id":"free"},{"bike_id":"3ba9708f-bff7-41c1-9340-bfea0f3467ce","system_id":"levelo_inurba_marseille","lat":43.3172,"lon":5.43711,"is_reserved":false,"is_disabled":false,"rental_uris":{"android":"levelo://app?vid=3ba9708f-bff7-41c1-9340-bfea0f3467ce","ios":"levelo://app?vid=3ba9708f-bff7-41c1-9340-bfea0f3467ce"},"vehicle_type_id":"4","last_reported":1685203667,"current_range_meters":28400,"station_id":"ce4bhp92rcd13ifvqhcg","pricing_plan_id":"free"},{"bike_id":"7661bca5-e0b2-41fd-9c7e-8f1cb9507ce0","system_id":"levelo_inurba_marseille","lat":43.2616,"lon":5.37439,"is_reserved":false,"is_disabled":false,"rental_uris":{"android":"levelo://app?vid=7661bca5-e0b2-41fd-9c7e-8f1cb9507ce0","ios":"levelo://app?vid=7661bca5-e0b2-41fd-9c7e-8f1cb9507ce0"},"vehicle_type_id":"4","last_reported":1685203667,"current_range_meters":20400,"station_id":"ce4bhgp2rcd13ifvqfc0","pricing_plan_id":"free"},{"bike_id":"108bd8c6-8ebc-4f70-99ac-edec113e00ad","system_id":"levelo_inurba_marseille","lat":43.271368,"lon":5.40928,"is_reserved":false,"is_disabled":false,"rental_uris":{"android":"levelo://app?vid=108bd8c6-8ebc-4f70-99ac-edec113e00ad","ios":"levelo://app?vid=108bd8c6-8ebc-4f70-99ac-edec113e00ad"},"vehicle_type_id":"4","last_reported":1685203667,"current_range_meters":30400,"station_id":"ce4bhl12rcd13ifvqgf0","pricing_plan_id":"free"},{"bike_id":"951bc54a-1c43-47cd-a384-dd777ba20f4a","system_id":"levelo_inurba_marseille","lat":43.26819,"lon":5.40272,"is_reserved":false,"is_disabled":false,"rental_uris":{"android":"levelo://app?vid=951bc54a-1c43-47cd-a384-dd777ba20f4a","ios":"levelo://app?vid=951bc54a-1c43-47cd-a384-dd777ba20f4a"},"vehicle_type_id":"4","last_reported":1685203667,"current_range_meters":6400,"station_id":"ce501612rcd8frsf0b60","pricing_plan_id":"free"},{"bike_id":"e1994ec5-ec52-4cc4-9846-1b273e6ac008","system_id":"levelo_inurba_marseille","lat":43.26809,"lon":5.40268,"is_reserved":false,"is_disabled":false,"rental_uris":{"android":"levelo://app?vid=e1994ec5-ec52-4cc4-9846-1b273e6ac008","ios":"levelo://app?vid=e1994ec5-ec52-4cc4-9846-1b273e6ac008"},"vehicle_type_id":"4","last_reported":1685203667,"current_range_meters":8400,"station_id":"ce501612rcd8frsf0b60","pricing_plan_id":"free"},{"bike_id":"8e39e2e1-4961-4516-97cc-12f7d4fb9e6d","system_id":"levelo_inurba_marseille","lat":43.267959,"lon":5.402687,"is_reserved":false,"is_disabled":false,"rental_uris":{"android":"levelo://app?vid=8e39e2e1-4961-4516-97cc-12f7d4fb9e6d","ios":"levelo://app?vid=8e39e2e1-4961-4516-97cc-12f7d4fb9e6d"},"vehicle_type_id":"4","last_reported":1685203667,"current_range_meters":5200,"station_id":"ce501612rcd8frsf0b60","pricing_plan_id":"free"},{"bike_id":"2e6b474d-ec7a-4339-a61a-83e84f3cfde6","system_id":"levelo_inurba_marseille","lat":43.267959,"lon":5.402687,"is_reserved":false,"is_disabled":false,"rental_uris":{"android":"levelo://app?vid=2e6b474d-ec7a-4339-a61a-83e84f3cfde6","ios":"levelo://app?vid=2e6b474d-ec7a-4339-a61a-83e84f3cfde6"},"vehicle_type_id":"4","last_reported":1685203667,"current_range_meters":25600,"station_id":"ce501612rcd8frsf0b60","pricing_plan_id":"free"},{"bike_id":"69720978-b7d5-43a3-924d-d1f81d83caa9","system_id":"levelo_inurba_marseille","lat":43.267959,"lon":5.402687,"is_reserved":false,"is_disabled":false,"rental_uris":{"android":"levelo://app?vid=69720978-b7d5-43a3-924d-d1f81d83caa9","ios":"levelo://app?vid=69720978-b7d5-43a3-924d-d1f81d83caa9"},"vehicle_type_id":"4","last_reported":1685203667,"current_range_meters":27200,"station_id":"ce501612rcd8frsf0b60","pricing_plan_id":"free"},{"bike_id":"0817be7b-bbae-4b64-a5f0-aa42f64864f1","system_id":"levelo_inurba_marseille","lat":43.267959,"lon":5.402687,"is_reserved":false,"is_disabled":false,"rental_uris":{"android":"levelo://app?vid=0817be7b-bbae-4b64-a5f0-aa42f64864f1","ios":"levelo://app?vid=0817be7b-bbae-4b64-a5f0-aa42f64864f1"},"vehicle_type_id":"4","last_reported":1685203667,"current_range_meters":29600,"station_id":"ce501612rcd8frsf0b60","pricing_plan_id":"free"},{"bike_id":"625cf51e-ab1a-4754-ae5a-a72655adf3ff","system_id":"levelo_inurba_marseille","lat":43.298768,"lon":5.43643,"is_reserved":false,"is_disabled":false,"rental_uris":{"android":"levelo://app?vid=625cf51e-ab1a-4754-ae5a-a72655adf3ff","ios":"levelo://app?vid=625cf51e-ab1a-4754-ae5a-a72655adf3ff"},"vehicle_type_id":"4","last_reported":1685203667,"current_range_meters":7200,"station_id":"ce4bhpp2rcd13ifvqhfg","pricing_plan_id":"free"},{"bike_id":"a01b8269-cd6f-432a-9c44-37513ea96cd0","system_id":"levelo_inurba_marseille","lat":43.298768,"lon":5.43643,"is_reserved":false,"is_disabled":false,"rental_uris":{"android":"levelo://app?vid=a01b8269-cd6f-432a-9c44-37513ea96cd0","ios":"levelo://app?vid=a01b8269-cd6f-432a-9c44-37513ea96cd0"},"vehicle_type_id":"4","last_reported":1685203667,"current_range_meters":29600,"station_id":"ce4bhpp2rcd13ifvqhfg","pricing_plan_id":"free"},{"bike_id":"393fb8d7-9c3a-4c26-adde-9c67bba0a82d","system_id":"levelo_inurba_marseille","lat":43.298768,"lon":5.43643,"is_reserved":false,"is_disabled":false,"rental_uris":{"android":"levelo://app?vid=393fb8d7-9c3a-4c26-adde-9c67bba0a82d","ios":"levelo://app?vid=393fb8d7-9c3a-4c26-adde-9c67bba0a82d"},"vehicle_type_id":"4","last_reported":1685203667,"current_range_meters":17600,"station_id":"ce4bhpp2rcd13ifvqhfg","pricing_plan_id":"free"},{"bike_id":"1522e6fe-e66c-4a0c-a606-391cd3d5a93b","system_id":"levelo_inurba_marseille","lat":43.298768,"lon":5.43643,"is_reserved":false,"is_disabled":false,"rental_uris":{"android":"levelo://app?vid=1522e6fe-e66c-4a0c-a606-391cd3d5a93b","ios":"levelo://app?vid=1522e6fe-e66c-4a0c-a606-391cd3d5a93b"},"vehicle_type_id":"4","last_reported":1685203667,"current_range_meters":31200,"station_id":"ce4bhpp2rcd13ifvqhfg","pricing_plan_id":"free"},{"bike_id":"57572c88-3708-4036-891a-204b9f884608","system_id":"levelo_inurba_marseille","lat":43.298768,"lon":5.43643,"is_reserved":false,"is_disabled":false,"rental_uris":{"android":"levelo://app?vid=57572c88-3708-4036-891a-204b9f884608","ios":"levelo://app?vid=57572c88-3708-4036-891a-204b9f884608"},"vehicle_type_id":"4","last_reported":1685203667,"current_range_meters":9600,"station_id":"ce4bhpp2rcd13ifvqhfg","pricing_plan_id":"free"},{"bike_id":"4e1b86b6-b12c-441f-b5c1-ba0a90fca197","system_id":"levelo_inurba_marseille","lat":43.298768,"lon":5.43643,"is_reserved":false,"is_disabled":false,"rental_uris":{"android":"levelo://app?vid=4e1b86b6-b12c-441f-b5c1-ba0a90fca197","ios":"levelo://app?vid=4e1b86b6-b12c-441f-b5c1-ba0a90fca197"},"vehicle_type_id":"4","last_reported":1685203667,"current_range_meters":31200,"station_id":"ce4bhpp2rcd13ifvqhfg","pricing_plan_id":"free"},{"bike_id":"9ded7651-7195-422e-95d2-93f2e8b982ad","system_id":"levelo_inurba_marseille","lat":43.26024,"lon":5.37555,"is_reserved":false,"is_disabled":false,"rental_uris":{"android":"levelo://app?vid=9ded7651-7195-422e-95d2-93f2e8b982ad","ios":"levelo://app?vid=9ded7651-7195-422e-95d2-93f2e8b982ad"},"vehicle_type_id":"4","last_reported":1685203667,"current_range_meters":4400,"station_id":"ce4bhgh2rcd13ifvqfa0","pricing_plan_id":"free"},{"bike_id":"6b404443-757b-4b8d-9a78-a03ca59013fb","system_id":"levelo_inurba_marseille","lat":43.2592,"lon":5.37283,"is_reserved":false,"is_disabled":false,"rental_uris":{"android":"levelo://app?vid=6b404443-757b-4b8d-9a78-a03ca59013fb","ios":"levelo://app?vid=6b404443-757b-4b8d-9a78-a03ca59013fb"},"vehicle_type_id":"4","last_reported":1685203667,"current_range_meters":13600,"station_id":"","pricing_plan_id":"free"},{"bike_id":"03363efb-8903-4bf7-afd2-5b8fe68f7ce5","system_id":"levelo_inurba_marseille","lat":43.2607,"lon":5.393983,"is_reserved":false,"is_disabled":false,"rental_uris":{"android":"levelo://app?vid=03363efb-8903-4bf7-afd2-5b8fe68f7ce5","ios":"levelo://app?vid=03363efb-8903-4bf7-afd2-5b8fe68f7ce5"},"vehicle_type_id":"4","last_reported":1685203667,"current_range_meters":0,"station_id":"ce4bhh92rcd13ifvqfj0","pricing_plan_id":"free"},{"bike_id":"acd29bba-e465-401b-866a-c5c3db5deb2b","system_id":"levelo_inurba_marseille","lat":43.26065,"lon":5.39399,"is_reserved":false,"is_disabled":false,"rental_uris":{"android":"levelo://app?vid=acd29bba-e465-401b-866a-c5c3db5deb2b","ios":"levelo://app?vid=acd29bba-e465-401b-866a-c5c3db5deb2b"},"vehicle_type_id":"4","last_reported":1685203667,"current_range_meters":0,"station_id":"ce4bhh92rcd13ifvqfj0","pricing_plan_id":"free"},{"bike_id":"f072cd81-3b89-40b1-a023-ab01c8f89174","system_id":"levelo_inurba_marseille","lat":43.26082,"lon":5.3977,"is_reserved":false,"is_disabled":false,"rental_uris":{"android":"levelo://app?vid=f072cd81-3b89-40b1-a023-ab01c8f89174","ios":"levelo://app?vid=f072cd81-3b89-40b1-a023-ab01c8f89174"},"vehicle_type_id":"4","last_reported":1685203667,"current_range_meters":14000,"station_id":"ce4bhi12rcd13ifvqfq0","pricing_plan_id":"free"},{"bike_id":"7fa70dc4-8030-4b7d-bf58-04d44aeb92c5","system_id":"levelo_inurba_marseille","lat":43.254947,"lon":5.376454,"is_reserved":false,"is_disabled":false,"rental_uris":{"android":"levelo://app?vid=7fa70dc4-8030-4b7d-bf58-04d44aeb92c5","ios":"levelo://app?vid=7fa70dc4-8030-4b7d-bf58-04d44aeb92c5"},"vehicle_type_id":"4","last_reported":1685203667,"current_range_meters":2800,"station_id":"ce4bhh12rcd13ifvqff0","pricing_plan_id":"free"},{"bike_id":"a7afb4b9-0d0c-4bba-91d5-e994eae2a2e5","system_id":"levelo_inurba_marseille","lat":43.254945,"lon":5.376454,"is_reserved":false,"is_disabled":false,"rental_uris":{"android":"levelo://app?vid=a7afb4b9-0d0c-4bba-91d5-e994eae2a2e5","ios":"levelo://app?vid=a7afb4b9-0d0c-4bba-91d5-e994eae2a2e5"},"vehicle_type_id":"4","last_reported":1685203667,"current_range_meters":15200,"station_id":"ce4bhh12rcd13ifvqff0","pricing_plan_id":"free"},{"bike_id":"6a066797-6e9d-4ecd-acfa-81a9e242bc47","system_id":"levelo_inurba_marseille","lat":43.254945,"lon":5.376454,"is_reserved":false,"is_disabled":false,"rental_uris":{"android":"levelo://app?vid=6a066797-6e9d-4ecd-acfa-81a9e242bc47","ios":"levelo://app?vid=6a066797-6e9d-4ecd-acfa-81a9e242bc47"},"vehicle_type_id":"4","last_reported":1685203667,"current_range_meters":0,"station_id":"ce4bhh12rcd13ifvqff0","pricing_plan_id":"free"},{"bike_id":"21a94e83-2bcf-4902-8a6a-85407ac0d3c9","system_id":"levelo_inurba_marseille","lat":43.254952,"lon":5.376471,"is_reserved":false,"is_disabled":false,"rental_uris":{"android":"levelo://app?vid=21a94e83-2bcf-4902-8a6a-85407ac0d3c9","ios":"levelo://app?vid=21a94e83-2bcf-4902-8a6a-85407ac0d3c9"},"vehicle_type_id":"4","last_reported":1685203667,"current_range_meters":4000,"station_id":"","pricing_plan_id":"free"},{"bike_id":"da42c078-ac69-4e1a-afb6-77e98c018cf1","system_id":"levelo_inurba_marseille","lat":43.270721,"lon":5.422764,"is_reserved":false,"is_disabled":false,"rental_uris":{"android":"levelo://app?vid=da42c078-ac69-4e1a-afb6-77e98c018cf1","ios":"levelo://app?vid=da42c078-ac69-4e1a-afb6-77e98c018cf1"},"vehicle_type_id":"4","last_reported":1685203667,"current_range_meters":13200,"station_id":"ce4bhk92rcd13ifvqgb0","pricing_plan_id":"free"},{"bike_id":"8ee6b2ed-40ec-4fae-8836-710aaf549957","system_id":"levelo_inurba_marseille","lat":43.270721,"lon":5.422764,"is_reserved":false,"is_disabled":false,"rental_uris":{"android":"levelo://app?vid=8ee6b2ed-40ec-4fae-8836-710aaf549957","ios":"levelo://app?vid=8ee6b2ed-40ec-4fae-8836-710aaf549957"},"vehicle_type_id":"4","last_reported":1685203667,"current_range_meters":27600,"station_id":"ce4bhk92rcd13ifvqgb0","pricing_plan_id":"free"},{"bike_id":"3583dbe0-433b-4cf5-8a78-02a3550f1dd8","system_id":"levelo_inurba_marseille","lat":43.27443,"lon":5.42944,"is_reserved":false,"is_disabled":false,"rental_uris":{"android":"levelo://app?vid=3583dbe0-433b-4cf5-8a78-02a3550f1dd8","ios":"levelo://app?vid=3583dbe0-433b-4cf5-8a78-02a3550f1dd8"},"vehicle_type_id":"4","last_reported":1685203667,"current_range_meters":0,"station_id":"","pricing_plan_id":"free"},{"bike_id":"6724b20a-8935-470a-8ea9-e09f691f7014","system_id":"levelo_inurba_marseille","lat":43.250009,"lon":5.389195,"is_reserved":false,"is_disabled":false,"rental_uris":{"android":"levelo://app?vid=6724b20a-8935-470a-8ea9-e09f691f7014","ios":"levelo://app?vid=6724b20a-8935-470a-8ea9-e09f691f7014"},"vehicle_type_id":"4","last_reported":1685203667,"current_range_meters":1600,"station_id":"ce4bhgp2rcd13ifvqfd0","pricing_plan_id":"free"},{"bike_id":"7a2c5a4e-0bce-49c5-9326-ffb937e90552","system_id":"levelo_inurba_marseille","lat":43.250009,"lon":5.389195,"is_reserved":false,"is_disabled":false,"rental_uris":{"android":"levelo://app?vid=7a2c5a4e-0bce-49c5-9326-ffb937e90552","ios":"levelo://app?vid=7a2c5a4e-0bce-49c5-9326-ffb937e90552"},"vehicle_type_id":"4","last_reported":1685203667,"current_range_meters":22000,"station_id":"ce4bhgp2rcd13ifvqfd0","pricing_plan_id":"free"},{"bike_id":"5a05a135-83bd-4fb7-89bd-eea6ed40c277","system_id":"levelo_inurba_marseille","lat":43.250009,"lon":5.389195,"is_reserved":false,"is_disabled":false,"rental_uris":{"android":"levelo://app?vid=5a05a135-83bd-4fb7-89bd-eea6ed40c277","ios":"levelo://app?vid=5a05a135-83bd-4fb7-89bd-eea6ed40c277"},"vehicle_type_id":"4","last_reported":1685203667,"current_range_meters":22800,"station_id":"ce4bhgp2rcd13ifvqfd0","pricing_plan_id":"free"},{"bike_id":"ca5a47c1-0c93-45d7-992a-764ceb3e3c54","system_id":"levelo_inurba_marseille","lat":43.2479,"lon":5.374457,"is_reserved":false,"is_disabled":false,"rental_uris":{"android":"levelo://app?vid=ca5a47c1-0c93-45d7-992a-764ceb3e3c54","ios":"levelo://app?vid=ca5a47c1-0c93-45d7-992a-764ceb3e3c54"},"vehicle_type_id":"4","last_reported":1685203667,"current_range_meters":4800,"station_id":"ce4bhgh2rcd13ifvqfb0","pricing_plan_id":"free"},{"bike_id":"315f5e0a-a652-486f-858a-3e20bcad95c9","system_id":"levelo_inurba_marseille","lat":43.25094,"lon":5.39516,"is_reserved":false,"is_disabled":false,"rental_uris":{"android":"levelo://app?vid=315f5e0a-a652-486f-858a-3e20bcad95c9","ios":"levelo://app?vid=315f5e0a-a652-486f-858a-3e20bcad95c9"},"vehicle_type_id":"4","last_reported":1685203667,"current_range_meters":0,"station_id":"ce4bhm12rcd13ifvqgkg","pricing_plan_id":"free"},{"bike_id":"42fa27b7-dcca-4371-82ca-806917481198","system_id":"levelo_inurba_marseille","lat":43.250966,"lon":5.395186,"is_reserved":false,"is_disabled":false,"rental_uris":{"android":"levelo://app?vid=42fa27b7-dcca-4371-82ca-806917481198","ios":"levelo://app?vid=42fa27b7-dcca-4371-82ca-806917481198"},"vehicle_type_id":"4","last_reported":1685203667,"current_range_meters":10400,"station_id":"ce4bhm12rcd13ifvqgkg","pricing_plan_id":"free"},{"bike_id":"20a5d7ca-0254-4e79-acb0-a6fcc8a4b5ff","system_id":"levelo_inurba_marseille","lat":43.250966,"lon":5.395186,"is_reserved":false,"is_disabled":false,"rental_uris":{"android":"levelo://app?vid=20a5d7ca-0254-4e79-acb0-a6fcc8a4b5ff","ios":"levelo://app?vid=20a5d7ca-0254-4e79-acb0-a6fcc8a4b5ff"},"vehicle_type_id":"4","last_reported":1685203667,"current_range_meters":21200,"station_id":"ce4bhm12rcd13ifvqgkg","pricing_plan_id":"free"},{"bike_id":"31f1c690-49c6-490c-afbe-079c9cb9a5c9","system_id":"levelo_inurba_marseille","lat":43.246629,"lon":5.381738,"is_reserved":false,"is_disabled":false,"rental_uris":{"android":"levelo://app?vid=31f1c690-49c6-490c-afbe-079c9cb9a5c9","ios":"levelo://app?vid=31f1c690-49c6-490c-afbe-079c9cb9a5c9"},"vehicle_type_id":"4","last_reported":1685203667,"current_range_meters":18800,"station_id":"ce4bhih2rcd13ifvqfr0","pricing_plan_id":"free"},{"bike_id":"df6ed138-15f1-4293-a9f6-260650001f58","system_id":"levelo_inurba_marseille","lat":43.24656,"lon":5.38897,"is_reserved":false,"is_disabled":false,"rental_uris":{"android":"levelo://app?vid=df6ed138-15f1-4293-a9f6-260650001f58","ios":"levelo://app?vid=df6ed138-15f1-4293-a9f6-260650001f58"},"vehicle_type_id":"4","last_reported":1685203667,"current_range_meters":19600,"station_id":"ce4bhg12rcd13ifvqf60","pricing_plan_id":"free"},{"bike_id":"49908483-01ed-4e13-9089-fbcd57717794","system_id":"levelo_inurba_marseille","lat":43.245581,"lon":5.395069,"is_reserved":false,"is_disabled":false,"rental_uris":{"android":"levelo://app?vid=49908483-01ed-4e13-9089-fbcd57717794","ios":"levelo://app?vid=49908483-01ed-4e13-9089-fbcd57717794"},"vehicle_type_id":"4","last_reported":1685203667,"current_range_meters":13600,"station_id":"ce4bhlp2rcd13ifvqgjg","pricing_plan_id":"free"},{"bike_id":"75290e6c-a568-41b0-b74c-9b9bf2dc08fa","system_id":"levelo_inurba_marseille","lat":43.245581,"lon":5.395069,"is_reserved":false,"is_disabled":false,"rental_uris":{"android":"levelo://app?vid=75290e6c-a568-41b0-b74c-9b9bf2dc08fa","ios":"levelo://app?vid=75290e6c-a568-41b0-b74c-9b9bf2dc08fa"},"vehicle_type_id":"4","last_reported":1685203667,"current_range_meters":17600,"station_id":"ce4bhlp2rcd13ifvqgjg","pricing_plan_id":"free"},{"bike_id":"ca48a4b8-aafe-4d34-bc24-09630ca6a745","system_id":"levelo_inurba_marseille","lat":43.245581,"lon":5.395069,"is_reserved":false,"is_disabled":false,"rental_uris":{"android":"levelo://app?vid=ca48a4b8-aafe-4d34-bc24-09630ca6a745","ios":"levelo://app?vid=ca48a4b8-aafe-4d34-bc24-09630ca6a745"},"vehicle_type_id":"4","last_reported":1685203667,"current_range_meters":5200,"station_id":"ce4bhlp2rcd13ifvqgjg","pricing_plan_id":"free"},{"bike_id":"b3ac0f63-1d71-46d2-ba24-5e1165bfbe33","system_id":"levelo_inurba_marseille","lat":43.24081,"lon":5.37758,"is_reserved":false,"is_disabled":false,"rental_uris":{"android":"levelo://app?vid=b3ac0f63-1d71-46d2-ba24-5e1165bfbe33","ios":"levelo://app?vid=b3ac0f63-1d71-46d2-ba24-5e1165bfbe33"},"vehicle_type_id":"4","last_reported":1685203667,"current_range_meters":28800,"station_id":"","pricing_plan_id":"free"},{"bike_id":"bc231acf-4e1f-42a5-9e94-c7405517798f","system_id":"levelo_inurba_marseille","lat":43.24079,"lon":5.3775,"is_reserved":false,"is_disabled":false,"rental_uris":{"android":"levelo://app?vid=bc231acf-4e1f-42a5-9e94-c7405517798f","ios":"levelo://app?vid=bc231acf-4e1f-42a5-9e94-c7405517798f"},"vehicle_type_id":"4","last_reported":1685203667,"current_range_meters":31600,"station_id":"","pricing_plan_id":"free"},{"bike_id":"18f076d8-3344-423e-9b08-269f60c9dc01","system_id":"levelo_inurba_marseille","lat":43.24079,"lon":5.37759,"is_reserved":false,"is_disabled":false,"rental_uris":{"android":"levelo://app?vid=18f076d8-3344-423e-9b08-269f60c9dc01","ios":"levelo://app?vid=18f076d8-3344-423e-9b08-269f60c9dc01"},"vehicle_type_id":"4","last_reported":1685203667,"current_range_meters":0,"station_id":"","pricing_plan_id":"free"},{"bike_id":"3f9d5554-d744-4bff-b624-cf6ae23d37e4","system_id":"levelo_inurba_marseille","lat":43.239588,"lon":5.366238,"is_reserved":false,"is_disabled":false,"rental_uris":{"android":"levelo://app?vid=3f9d5554-d744-4bff-b624-cf6ae23d37e4","ios":"levelo://app?vid=3f9d5554-d744-4bff-b624-cf6ae23d37e4"},"vehicle_type_id":"4","last_reported":1685203667,"current_range_meters":4000,"station_id":"ce4bhi12rcd13ifvqfp0","pricing_plan_id":"free"},{"bike_id":"0530bda9-a283-4f69-bd6e-9b3eefb52eaa","system_id":"levelo_inurba_marseille","lat":43.23964,"lon":5.36624,"is_reserved":false,"is_disabled":false,"rental_uris":{"android":"levelo://app?vid=0530bda9-a283-4f69-bd6e-9b3eefb52eaa","ios":"levelo://app?vid=0530bda9-a283-4f69-bd6e-9b3eefb52eaa"},"vehicle_type_id":"4","last_reported":1685203667,"current_range_meters":12400,"station_id":"ce4bhi12rcd13ifvqfp0","pricing_plan_id":"free"},{"bike_id":"d159ffde-77f6-4f5a-8808-fffb931d819a","system_id":"levelo_inurba_marseille","lat":43.23962,"lon":5.36634,"is_reserved":false,"is_disabled":false,"rental_uris":{"android":"levelo://app?vid=d159ffde-77f6-4f5a-8808-fffb931d819a","ios":"levelo://app?vid=d159ffde-77f6-4f5a-8808-fffb931d819a"},"vehicle_type_id":"4","last_reported":1685203667,"current_range_meters":26800,"station_id":"ce4bhi12rcd13ifvqfp0","pricing_plan_id":"free"},{"bike_id":"c604f5f1-6669-4c7b-ba48-fd6f89aee699","system_id":"levelo_inurba_marseille","lat":43.23959,"lon":5.3663,"is_reserved":false,"is_disabled":false,"rental_uris":{"android":"levelo://app?vid=c604f5f1-6669-4c7b-ba48-fd6f89aee699","ios":"levelo://app?vid=c604f5f1-6669-4c7b-ba48-fd6f89aee699"},"vehicle_type_id":"4","last_reported":1685203667,"current_range_meters":400,"station_id":"ce4bhi12rcd13ifvqfp0","pricing_plan_id":"free"},{"bike_id":"7d95665a-c3dd-410c-8d0a-323710c9f67f","system_id":"levelo_inurba_marseille","lat":43.23958,"lon":5.36634,"is_reserved":false,"is_disabled":false,"rental_uris":{"android":"levelo://app?vid=7d95665a-c3dd-410c-8d0a-323710c9f67f","ios":"levelo://app?vid=7d95665a-c3dd-410c-8d0a-323710c9f67f"},"vehicle_type_id":"4","last_reported":1685203667,"current_range_meters":20400,"station_id":"ce4bhi12rcd13ifvqfp0","pricing_plan_id":"free"},{"bike_id":"017cbb90-9d16-469d-ab9b-008c01d90208","system_id":"levelo_inurba_marseille","lat":43.23986,"lon":5.38363,"is_reserved":false,"is_disabled":false,"rental_uris":{"android":"levelo://app?vid=017cbb90-9d16-469d-ab9b-008c01d90208","ios":"levelo://app?vid=017cbb90-9d16-469d-ab9b-008c01d90208"},"vehicle_type_id":"4","last_reported":1685203667,"current_range_meters":4000,"station_id":"","pricing_plan_id":"free"},{"bike_id":"2ba8040e-3e84-4d1c-8e8b-bb67e4c779d0","system_id":"levelo_inurba_marseille","lat":43.241782,"lon":5.397261,"is_reserved":false,"is_disabled":false,"rental_uris":{"android":"levelo://app?vid=2ba8040e-3e84-4d1c-8e8b-bb67e4c779d0","ios":"levelo://app?vid=2ba8040e-3e84-4d1c-8e8b-bb67e4c779d0"},"vehicle_type_id":"4","last_reported":1685203667,"current_range_meters":9600,"station_id":"ce4bhn12rcd13ifvqgpg","pricing_plan_id":"free"},{"bike_id":"7b639687-2037-4fde-bdc8-1cc34059d9d7","system_id":"levelo_inurba_marseille","lat":43.241782,"lon":5.397264,"is_reserved":false,"is_disabled":false,"rental_uris":{"android":"levelo://app?vid=7b639687-2037-4fde-bdc8-1cc34059d9d7","ios":"levelo://app?vid=7b639687-2037-4fde-bdc8-1cc34059d9d7"},"vehicle_type_id":"4","last_reported":1685203667,"current_range_meters":6000,"station_id":"ce4bhn12rcd13ifvqgpg","pricing_plan_id":"free"},{"bike_id":"622814d8-ef07-4004-b769-cbeaf0caef2e","system_id":"levelo_inurba_marseille","lat":43.241782,"lon":5.397264,"is_reserved":false,"is_disabled":false,"rental_uris":{"android":"levelo://app?vid=622814d8-ef07-4004-b769-cbeaf0caef2e","ios":"levelo://app?vid=622814d8-ef07-4004-b769-cbeaf0caef2e"},"vehicle_type_id":"4","last_reported":1685203667,"current_range_meters":21200,"station_id":"ce4bhn12rcd13ifvqgpg","pricing_plan_id":"free"},{"bike_id":"28ad54f4-c398-4f31-8332-0e96db427bbd","system_id":"levelo_inurba_marseille","lat":43.241782,"lon":5.397264,"is_reserved":false,"is_disabled":false,"rental_uris":{"android":"levelo://app?vid=28ad54f4-c398-4f31-8332-0e96db427bbd","ios":"levelo://app?vid=28ad54f4-c398-4f31-8332-0e96db427bbd"},"vehicle_type_id":"4","last_reported":1685203667,"current_range_meters":0,"station_id":"ce4bhn12rcd13ifvqgpg","pricing_plan_id":"free"},{"bike_id":"81eeadbd-9829-41dd-82d5-66dfbf91b7db","system_id":"levelo_inurba_marseille","lat":43.241782,"lon":5.397261,"is_reserved":false,"is_disabled":false,"rental_uris":{"android":"levelo://app?vid=81eeadbd-9829-41dd-82d5-66dfbf91b7db","ios":"levelo://app?vid=81eeadbd-9829-41dd-82d5-66dfbf91b7db"},"vehicle_type_id":"4","last_reported":1685203667,"current_range_meters":29600,"station_id":"ce4bhn12rcd13ifvqgpg","pricing_plan_id":"free"},{"bike_id":"fa87f35f-cebd-4ee1-a7ad-8cd1dfb219b2","system_id":"levelo_inurba_marseille","lat":43.23201,"lon":5.35549,"is_reserved":false,"is_disabled":false,"rental_uris":{"android":"levelo://app?vid=fa87f35f-cebd-4ee1-a7ad-8cd1dfb219b2","ios":"levelo://app?vid=fa87f35f-cebd-4ee1-a7ad-8cd1dfb219b2"},"vehicle_type_id":"4","last_reported":1685203667,"current_range_meters":0,"station_id":"ce4bhu92rcd13ifvqi70","pricing_plan_id":"free"},{"bike_id":"cdba1f78-f1c6-41ec-a8f0-6e70f887a7cc","system_id":"levelo_inurba_marseille","lat":43.23199,"lon":5.35559,"is_reserved":false,"is_disabled":false,"rental_uris":{"android":"levelo://app?vid=cdba1f78-f1c6-41ec-a8f0-6e70f887a7cc","ios":"levelo://app?vid=cdba1f78-f1c6-41ec-a8f0-6e70f887a7cc"},"vehicle_type_id":"4","last_reported":1685203667,"current_range_meters":3200,"station_id":"ce4bhu92rcd13ifvqi70","pricing_plan_id":"free"},{"bike_id":"dd0d3bbe-c8a5-425f-8248-9fc8cf606134","system_id":"levelo_inurba_marseille","lat":43.23199,"lon":5.35553,"is_reserved":false,"is_disabled":false,"rental_uris":{"android":"levelo://app?vid=dd0d3bbe-c8a5-425f-8248-9fc8cf606134","ios":"levelo://app?vid=dd0d3bbe-c8a5-425f-8248-9fc8cf606134"},"vehicle_type_id":"4","last_reported":1685203667,"current_range_meters":5600,"station_id":"ce4bhu92rcd13ifvqi70","pricing_plan_id":"free"},{"bike_id":"8db97d03-e255-4375-ae82-4586ade67a7d","system_id":"levelo_inurba_marseille","lat":43.23199,"lon":5.35548,"is_reserved":false,"is_disabled":false,"rental_uris":{"android":"levelo://app?vid=8db97d03-e255-4375-ae82-4586ade67a7d","ios":"levelo://app?vid=8db97d03-e255-4375-ae82-4586ade67a7d"},"vehicle_type_id":"4","last_reported":1685203667,"current_range_meters":1600,"station_id":"ce4bhu92rcd13ifvqi70","pricing_plan_id":"free"},{"bike_id":"28195c54-7f8a-4ce8-9740-1aaa85644c34","system_id":"levelo_inurba_marseille","lat":43.23199,"lon":5.35545,"is_reserved":false,"is_disabled":false,"rental_uris":{"android":"levelo://app?vid=28195c54-7f8a-4ce8-9740-1aaa85644c34","ios":"levelo://app?vid=28195c54-7f8a-4ce8-9740-1aaa85644c34"},"vehicle_type_id":"4","last_reported":1685203667,"current_range_meters":8400,"station_id":"ce4bhu92rcd13ifvqi70","pricing_plan_id":"free"},{"bike_id":"891bafd3-312a-4d55-b5fc-6cf93e2ea350","system_id":"levelo_inurba_marseille","lat":43.23197,"lon":5.35559,"is_reserved":false,"is_disabled":false,"rental_uris":{"android":"levelo://app?vid=891bafd3-312a-4d55-b5fc-6cf93e2ea350","ios":"levelo://app?vid=891bafd3-312a-4d55-b5fc-6cf93e2ea350"},"vehicle_type_id":"4","last_reported":1685203667,"current_range_meters":400,"station_id":"ce4bhu92rcd13ifvqi70","pricing_plan_id":"free"},{"bike_id":"15666ab8-36ab-4c19-b45b-4326042504e2","system_id":"levelo_inurba_marseille","lat":43.23197,"lon":5.35552,"is_reserved":false,"is_disabled":false,"rental_uris":{"android":"levelo://app?vid=15666ab8-36ab-4c19-b45b-4326042504e2","ios":"levelo://app?vid=15666ab8-36ab-4c19-b45b-4326042504e2"},"vehicle_type_id":"4","last_reported":1685203667,"current_range_meters":16000,"station_id":"ce4bhu92rcd13ifvqi70","pricing_plan_id":"free"},{"bike_id":"40782b5c-2472-4eb6-a0b3-cb8fbd7a5f7c","system_id":"levelo_inurba_marseille","lat":43.23197,"lon":5.35548,"is_reserved":false,"is_disabled":false,"rental_uris":{"android":"levelo://app?vid=40782b5c-2472-4eb6-a0b3-cb8fbd7a5f7c","ios":"levelo://app?vid=40782b5c-2472-4eb6-a0b3-cb8fbd7a5f7c"},"vehicle_type_id":"4","last_reported":1685203667,"current_range_meters":18400,"station_id":"ce4bhu92rcd13ifvqi70","pricing_plan_id":"free"},{"bike_id":"b7aefa64-ec3d-4858-aacd-1d52c88ba0a2","system_id":"levelo_inurba_marseille","lat":43.231923,"lon":5.355545,"is_reserved":false,"is_disabled":false,"rental_uris":{"android":"levelo://app?vid=b7aefa64-ec3d-4858-aacd-1d52c88ba0a2","ios":"levelo://app?vid=b7aefa64-ec3d-4858-aacd-1d52c88ba0a2"},"vehicle_type_id":"4","last_reported":1685203667,"current_range_meters":6400,"station_id":"ce4bhu92rcd13ifvqi70","pricing_plan_id":"free"},{"bike_id":"ef9f2203-8be0-47e6-b94b-ef4b11ad3421","system_id":"levelo_inurba_marseille","lat":43.23196,"lon":5.35555,"is_reserved":false,"is_disabled":false,"rental_uris":{"android":"levelo://app?vid=ef9f2203-8be0-47e6-b94b-ef4b11ad3421","ios":"levelo://app?vid=ef9f2203-8be0-47e6-b94b-ef4b11ad3421"},"vehicle_type_id":"4","last_reported":1685203667,"current_range_meters":8400,"station_id":"ce4bhu92rcd13ifvqi70","pricing_plan_id":"free"},{"bike_id":"144a6551-d0d3-4024-b005-e12837de2a5b","system_id":"levelo_inurba_marseille","lat":43.231919,"lon":5.355532,"is_reserved":false,"is_disabled":false,"rental_uris":{"android":"levelo://app?vid=144a6551-d0d3-4024-b005-e12837de2a5b","ios":"levelo://app?vid=144a6551-d0d3-4024-b005-e12837de2a5b"},"vehicle_type_id":"4","last_reported":1685203667,"current_range_meters":8800,"station_id":"ce4bhu92rcd13ifvqi70","pricing_plan_id":"free"},{"bike_id":"7c0d7d70-7152-490c-ac8b-1b8c97663a41","system_id":"levelo_inurba_marseille","lat":43.23196,"lon":5.35553,"is_reserved":false,"is_disabled":false,"rental_uris":{"android":"levelo://app?vid=7c0d7d70-7152-490c-ac8b-1b8c97663a41","ios":"levelo://app?vid=7c0d7d70-7152-490c-ac8b-1b8c97663a41"},"vehicle_type_id":"4","last_reported":1685203667,"current_range_meters":6400,"station_id":"ce4bhu92rcd13ifvqi70","pricing_plan_id":"free"},{"bike_id":"1a9c2f89-7963-49cd-9ec4-a9a912023e6b","system_id":"levelo_inurba_marseille","lat":43.23195,"lon":5.35555,"is_reserved":false,"is_disabled":false,"rental_uris":{"android":"levelo://app?vid=1a9c2f89-7963-49cd-9ec4-a9a912023e6b","ios":"levelo://app?vid=1a9c2f89-7963-49cd-9ec4-a9a912023e6b"},"vehicle_type_id":"4","last_reported":1685203667,"current_range_meters":17200,"station_id":"ce4bhu92rcd13ifvqi70","pricing_plan_id":"free"},{"bike_id":"32c1acc0-fc7a-4556-aeed-50f2c5d1a04e","system_id":"levelo_inurba_marseille","lat":43.23195,"lon":5.35552,"is_reserved":false,"is_disabled":false,"rental_uris":{"android":"levelo://app?vid=32c1acc0-fc7a-4556-aeed-50f2c5d1a04e","ios":"levelo://app?vid=32c1acc0-fc7a-4556-aeed-50f2c5d1a04e"},"vehicle_type_id":"4","last_reported":1685203667,"current_range_meters":10800,"station_id":"ce4bhu92rcd13ifvqi70","pricing_plan_id":"free"},{"bike_id":"8d3ef7c4-9045-46bc-b9e0-4c19c735224a","system_id":"levelo_inurba_marseille","lat":43.231919,"lon":5.355532,"is_reserved":false,"is_disabled":false,"rental_uris":{"android":"levelo://app?vid=8d3ef7c4-9045-46bc-b9e0-4c19c735224a","ios":"levelo://app?vid=8d3ef7c4-9045-46bc-b9e0-4c19c735224a"},"vehicle_type_id":"4","last_reported":1685203667,"current_range_meters":18400,"station_id":"ce4bhu92rcd13ifvqi70","pricing_plan_id":"free"},{"bike_id":"7dc7eede-6ff9-49b2-adea-b7e66558b46a","system_id":"levelo_inurba_marseille","lat":43.23195,"lon":5.35544,"is_reserved":false,"is_disabled":false,"rental_uris":{"android":"levelo://app?vid=7dc7eede-6ff9-49b2-adea-b7e66558b46a","ios":"levelo://app?vid=7dc7eede-6ff9-49b2-adea-b7e66558b46a"},"vehicle_type_id":"4","last_reported":1685203667,"current_range_meters":14000,"station_id":"ce4bhu92rcd13ifvqi70","pricing_plan_id":"free"},{"bike_id":"6d1f3975-08e6-4ba8-880a-e8737225ac6a","system_id":"levelo_inurba_marseille","lat":43.231919,"lon":5.355532,"is_reserved":false,"is_disabled":false,"rental_uris":{"android":"levelo://app?vid=6d1f3975-08e6-4ba8-880a-e8737225ac6a","ios":"levelo://app?vid=6d1f3975-08e6-4ba8-880a-e8737225ac6a"},"vehicle_type_id":"4","last_reported":1685203667,"current_range_meters":31600,"station_id":"ce4bhu92rcd13ifvqi70","pricing_plan_id":"free"},{"bike_id":"6ed80210-e865-4830-a64d-7a44325491b1","system_id":"levelo_inurba_marseille","lat":43.23194,"lon":5.35554,"is_reserved":false,"is_disabled":false,"rental_uris":{"android":"levelo://app?vid=6ed80210-e865-4830-a64d-7a44325491b1","ios":"levelo://app?vid=6ed80210-e865-4830-a64d-7a44325491b1"},"vehicle_type_id":"4","last_reported":1685203667,"current_range_meters":25200,"station_id":"ce4bhu92rcd13ifvqi70","pricing_plan_id":"free"},{"bike_id":"45bcb331-f0ff-44fe-a894-f4dcf1578a6c","system_id":"levelo_inurba_marseille","lat":43.23194,"lon":5.35553,"is_reserved":false,"is_disabled":false,"rental_uris":{"android":"levelo://app?vid=45bcb331-f0ff-44fe-a894-f4dcf1578a6c","ios":"levelo://app?vid=45bcb331-f0ff-44fe-a894-f4dcf1578a6c"},"vehicle_type_id":"4","last_reported":1685203667,"current_range_meters":15200,"station_id":"ce4bhu92rcd13ifvqi70","pricing_plan_id":"free"},{"bike_id":"1e1e7a23-0f56-4fa4-83d4-600306b275f9","system_id":"levelo_inurba_marseille","lat":43.231923,"lon":5.355545,"is_reserved":false,"is_disabled":false,"rental_uris":{"android":"levelo://app?vid=1e1e7a23-0f56-4fa4-83d4-600306b275f9","ios":"levelo://app?vid=1e1e7a23-0f56-4fa4-83d4-600306b275f9"},"vehicle_type_id":"4","last_reported":1685203667,"current_range_meters":15200,"station_id":"ce4bhu92rcd13ifvqi70","pricing_plan_id":"free"},{"bike_id":"92d79ede-4d39-4444-9f03-21f285731a7d","system_id":"levelo_inurba_marseille","lat":43.23194,"lon":5.35549,"is_reserved":false,"is_disabled":false,"rental_uris":{"android":"levelo://app?vid=92d79ede-4d39-4444-9f03-21f285731a7d","ios":"levelo://app?vid=92d79ede-4d39-4444-9f03-21f285731a7d"},"vehicle_type_id":"4","last_reported":1685203667,"current_range_meters":18800,"station_id":"ce4bhu92rcd13ifvqi70","pricing_plan_id":"free"},{"bike_id":"3a873fb4-06c2-406f-8d34-58e29e8fb0f4","system_id":"levelo_inurba_marseille","lat":43.23193,"lon":5.35559,"is_reserved":false,"is_disabled":false,"rental_uris":{"android":"levelo://app?vid=3a873fb4-06c2-406f-8d34-58e29e8fb0f4","ios":"levelo://app?vid=3a873fb4-06c2-406f-8d34-58e29e8fb0f4"},"vehicle_type_id":"4","last_reported":1685203667,"current_range_meters":25200,"station_id":"ce4bhu92rcd13ifvqi70","pricing_plan_id":"free"},{"bike_id":"3b038ede-bb04-4398-89fa-a7ae298b41a0","system_id":"levelo_inurba_marseille","lat":43.231919,"lon":5.355532,"is_reserved":false,"is_disabled":false,"rental_uris":{"android":"levelo://app?vid=3b038ede-bb04-4398-89fa-a7ae298b41a0","ios":"levelo://app?vid=3b038ede-bb04-4398-89fa-a7ae298b41a0"},"vehicle_type_id":"4","last_reported":1685203667,"current_range_meters":28000,"station_id":"ce4bhu92rcd13ifvqi70","pricing_plan_id":"free"},{"bike_id":"4a918908-e5e9-4298-90f9-36dff6ac69a9","system_id":"levelo_inurba_marseille","lat":43.231919,"lon":5.355532,"is_reserved":false,"is_disabled":false,"rental_uris":{"android":"levelo://app?vid=4a918908-e5e9-4298-90f9-36dff6ac69a9","ios":"levelo://app?vid=4a918908-e5e9-4298-90f9-36dff6ac69a9"},"vehicle_type_id":"4","last_reported":1685203667,"current_range_meters":14000,"station_id":"ce4bhu92rcd13ifvqi70","pricing_plan_id":"free"},{"bike_id":"e5b27e6e-d2e8-4c0a-af54-354b90563f64","system_id":"levelo_inurba_marseille","lat":43.23193,"lon":5.35545,"is_reserved":false,"is_disabled":false,"rental_uris":{"android":"levelo://app?vid=e5b27e6e-d2e8-4c0a-af54-354b90563f64","ios":"levelo://app?vid=e5b27e6e-d2e8-4c0a-af54-354b90563f64"},"vehicle_type_id":"4","last_reported":1685203667,"current_range_meters":20000,"station_id":"ce4bhu92rcd13ifvqi70","pricing_plan_id":"free"},{"bike_id":"06cc29fe-4669-4afc-bb35-a5e1af0a1bc4","system_id":"levelo_inurba_marseille","lat":43.23192,"lon":5.35552,"is_reserved":false,"is_disabled":false,"rental_uris":{"android":"levelo://app?vid=06cc29fe-4669-4afc-bb35-a5e1af0a1bc4","ios":"levelo://app?vid=06cc29fe-4669-4afc-bb35-a5e1af0a1bc4"},"vehicle_type_id":"4","last_reported":1685203667,"current_range_meters":1200,"station_id":"ce4bhu92rcd13ifvqi70","pricing_plan_id":"free"},{"bike_id":"9cd93ba6-24bd-45e6-a589-0421fafa6296","system_id":"levelo_inurba_marseille","lat":43.23192,"lon":5.3555,"is_reserved":false,"is_disabled":false,"rental_uris":{"android":"levelo://app?vid=9cd93ba6-24bd-45e6-a589-0421fafa6296","ios":"levelo://app?vid=9cd93ba6-24bd-45e6-a589-0421fafa6296"},"vehicle_type_id":"4","last_reported":1685203667,"current_range_meters":5600,"station_id":"ce4bhu92rcd13ifvqi70","pricing_plan_id":"free"},{"bike_id":"4dafd8cb-9053-49f7-b8f7-897a58b16ccd","system_id":"levelo_inurba_marseille","lat":43.23192,"lon":5.35546,"is_reserved":false,"is_disabled":false,"rental_uris":{"android":"levelo://app?vid=4dafd8cb-9053-49f7-b8f7-897a58b16ccd","ios":"levelo://app?vid=4dafd8cb-9053-49f7-b8f7-897a58b16ccd"},"vehicle_type_id":"4","last_reported":1685203667,"current_range_meters":10800,"station_id":"ce4bhu92rcd13ifvqi70","pricing_plan_id":"free"},{"bike_id":"ba4d59a8-54c3-439d-b6ce-459d537c072d","system_id":"levelo_inurba_marseille","lat":43.23191,"lon":5.35551,"is_reserved":false,"is_disabled":false,"rental_uris":{"android":"levelo://app?vid=ba4d59a8-54c3-439d-b6ce-459d537c072d","ios":"levelo://app?vid=ba4d59a8-54c3-439d-b6ce-459d537c072d"},"vehicle_type_id":"4","last_reported":1685203667,"current_range_meters":8400,"station_id":"ce4bhu92rcd13ifvqi70","pricing_plan_id":"free"},{"bike_id":"81d4dcc7-3fc7-449d-ab1e-2ea2b47e5952","system_id":"levelo_inurba_marseille","lat":43.23189,"lon":5.3555,"is_reserved":false,"is_disabled":false,"rental_uris":{"android":"levelo://app?vid=81d4dcc7-3fc7-449d-ab1e-2ea2b47e5952","ios":"levelo://app?vid=81d4dcc7-3fc7-449d-ab1e-2ea2b47e5952"},"vehicle_type_id":"4","last_reported":1685203667,"current_range_meters":13600,"station_id":"ce4bhu92rcd13ifvqi70","pricing_plan_id":"free"},{"bike_id":"c610a91d-6873-4603-a7e0-667af06ce82c","system_id":"levelo_inurba_marseille","lat":43.23185,"lon":5.35558,"is_reserved":false,"is_disabled":false,"rental_uris":{"android":"levelo://app?vid=c610a91d-6873-4603-a7e0-667af06ce82c","ios":"levelo://app?vid=c610a91d-6873-4603-a7e0-667af06ce82c"},"vehicle_type_id":"4","last_reported":1685203667,"current_range_meters":8400,"station_id":"ce4bhu92rcd13ifvqi70","pricing_plan_id":"free"},{"bike_id":"5c272820-3a04-409e-a879-87b2d365273d","system_id":"levelo_inurba_marseille","lat":43.23133,"lon":5.35519,"is_reserved":false,"is_disabled":false,"rental_uris":{"android":"levelo://app?vid=5c272820-3a04-409e-a879-87b2d365273d","ios":"levelo://app?vid=5c272820-3a04-409e-a879-87b2d365273d"},"vehicle_type_id":"4","last_reported":1685203667,"current_range_meters":11200,"station_id":"","pricing_plan_id":"free"},{"bike_id":"63607156-c1a2-4322-928e-68c363a6df3a","system_id":"levelo_inurba_marseille","lat":43.231793,"lon":5.400044,"is_reserved":false,"is_disabled":false,"rental_uris":{"android":"levelo://app?vid=63607156-c1a2-4322-928e-68c363a6df3a","ios":"levelo://app?vid=63607156-c1a2-4322-928e-68c363a6df3a"},"vehicle_type_id":"4","last_reported":1685203667,"current_range_meters":8800,"station_id":"ce4bhn12rcd13ifvqgqg","pricing_plan_id":"free"},{"bike_id":"b38c7023-653f-4a41-b5d3-ac6821df23b1","system_id":"levelo_inurba_marseille","lat":43.231793,"lon":5.400044,"is_reserved":false,"is_disabled":false,"rental_uris":{"android":"levelo://app?vid=b38c7023-653f-4a41-b5d3-ac6821df23b1","ios":"levelo://app?vid=b38c7023-653f-4a41-b5d3-ac6821df23b1"},"vehicle_type_id":"4","last_reported":1685203667,"current_range_meters":30800,"station_id":"ce4bhn12rcd13ifvqgqg","pricing_plan_id":"free"},{"bike_id":"e2a38690-0aaf-4e7f-8613-94db9ab0ed8f","system_id":"levelo_inurba_marseille","lat":43.23191,"lon":5.39986,"is_reserved":false,"is_disabled":false,"rental_uris":{"android":"levelo://app?vid=e2a38690-0aaf-4e7f-8613-94db9ab0ed8f","ios":"levelo://app?vid=e2a38690-0aaf-4e7f-8613-94db9ab0ed8f"},"vehicle_type_id":"4","last_reported":1685203667,"current_range_meters":27200,"station_id":"ce4bhn12rcd13ifvqgqg","pricing_plan_id":"free"},{"bike_id":"e39c0672-1b6c-4e48-943d-c79fd5ce8d4a","system_id":"levelo_inurba_marseille","lat":43.23191,"lon":5.39989,"is_reserved":false,"is_disabled":false,"rental_uris":{"android":"levelo://app?vid=e39c0672-1b6c-4e48-943d-c79fd5ce8d4a","ios":"levelo://app?vid=e39c0672-1b6c-4e48-943d-c79fd5ce8d4a"},"vehicle_type_id":"4","last_reported":1685203667,"current_range_meters":13600,"station_id":"ce4bhn12rcd13ifvqgqg","pricing_plan_id":"free"},{"bike_id":"38fb2407-9793-4e5f-97a7-c7b35fe4a4cc","system_id":"levelo_inurba_marseille","lat":43.231794,"lon":5.400052,"is_reserved":false,"is_disabled":false,"rental_uris":{"android":"levelo://app?vid=38fb2407-9793-4e5f-97a7-c7b35fe4a4cc","ios":"levelo://app?vid=38fb2407-9793-4e5f-97a7-c7b35fe4a4cc"},"vehicle_type_id":"4","last_reported":1685203667,"current_range_meters":25200,"station_id":"ce4bhn12rcd13ifvqgqg","pricing_plan_id":"free"},{"bike_id":"67b77559-a903-49c5-9f37-4b2143617b52","system_id":"levelo_inurba_marseille","lat":43.231794,"lon":5.400052,"is_reserved":false,"is_disabled":false,"rental_uris":{"android":"levelo://app?vid=67b77559-a903-49c5-9f37-4b2143617b52","ios":"levelo://app?vid=67b77559-a903-49c5-9f37-4b2143617b52"},"vehicle_type_id":"4","last_reported":1685203667,"current_range_meters":32000,"station_id":"ce4bhn12rcd13ifvqgqg","pricing_plan_id":"free"},{"bike_id":"892866fb-7003-463c-ac82-bfe4115e542b","system_id":"levelo_inurba_marseille","lat":43.231793,"lon":5.400044,"is_reserved":false,"is_disabled":false,"rental_uris":{"android":"levelo://app?vid=892866fb-7003-463c-ac82-bfe4115e542b","ios":"levelo://app?vid=892866fb-7003-463c-ac82-bfe4115e542b"},"vehicle_type_id":"4","last_reported":1685203667,"current_range_meters":10000,"station_id":"ce4bhn12rcd13ifvqgqg","pricing_plan_id":"free"},{"bike_id":"a7fbfb05-3a72-4dea-b5c9-12ad7997a8ad","system_id":"levelo_inurba_marseille","lat":43.231794,"lon":5.400052,"is_reserved":false,"is_disabled":false,"rental_uris":{"android":"levelo://app?vid=a7fbfb05-3a72-4dea-b5c9-12ad7997a8ad","ios":"levelo://app?vid=a7fbfb05-3a72-4dea-b5c9-12ad7997a8ad"},"vehicle_type_id":"4","last_reported":1685203667,"current_range_meters":30000,"station_id":"ce4bhn12rcd13ifvqgqg","pricing_plan_id":"free"},{"bike_id":"7dcc073b-b41d-40ec-9cbd-380dfe07c27c","system_id":"levelo_inurba_marseille","lat":43.231794,"lon":5.400052,"is_reserved":false,"is_disabled":false,"rental_uris":{"android":"levelo://app?vid=7dcc073b-b41d-40ec-9cbd-380dfe07c27c","ios":"levelo://app?vid=7dcc073b-b41d-40ec-9cbd-380dfe07c27c"},"vehicle_type_id":"4","last_reported":1685203667,"current_range_meters":16400,"station_id":"ce4bhn12rcd13ifvqgqg","pricing_plan_id":"free"},{"bike_id":"0098075c-728f-4919-85e5-a85abece1c10","system_id":"levelo_inurba_marseille","lat":43.231793,"lon":5.400044,"is_reserved":false,"is_disabled":false,"rental_uris":{"android":"levelo://app?vid=0098075c-728f-4919-85e5-a85abece1c10","ios":"levelo://app?vid=0098075c-728f-4919-85e5-a85abece1c10"},"vehicle_type_id":"4","last_reported":1685203667,"current_range_meters":0,"station_id":"ce4bhn12rcd13ifvqgqg","pricing_plan_id":"free"},{"bike_id":"1420567d-5493-4112-adec-f09973b532e9","system_id":"levelo_inurba_marseille","lat":43.231793,"lon":5.400044,"is_reserved":false,"is_disabled":false,"rental_uris":{"android":"levelo://app?vid=1420567d-5493-4112-adec-f09973b532e9","ios":"levelo://app?vid=1420567d-5493-4112-adec-f09973b532e9"},"vehicle_type_id":"4","last_reported":1685203667,"current_range_meters":22000,"station_id":"ce4bhn12rcd13ifvqgqg","pricing_plan_id":"free"},{"bike_id":"279132f9-fc26-4eef-a41e-65b19a1b60ea","system_id":"levelo_inurba_marseille","lat":43.231794,"lon":5.400052,"is_reserved":false,"is_disabled":false,"rental_uris":{"android":"levelo://app?vid=279132f9-fc26-4eef-a41e-65b19a1b60ea","ios":"levelo://app?vid=279132f9-fc26-4eef-a41e-65b19a1b60ea"},"vehicle_type_id":"4","last_reported":1685203667,"current_range_meters":13200,"station_id":"ce4bhn12rcd13ifvqgqg","pricing_plan_id":"free"},{"bike_id":"ba0d3f6b-184d-4ff1-8bc3-4745ecf4e83b","system_id":"levelo_inurba_marseille","lat":43.231794,"lon":5.400052,"is_reserved":false,"is_disabled":false,"rental_uris":{"android":"levelo://app?vid=ba0d3f6b-184d-4ff1-8bc3-4745ecf4e83b","ios":"levelo://app?vid=ba0d3f6b-184d-4ff1-8bc3-4745ecf4e83b"},"vehicle_type_id":"4","last_reported":1685203667,"current_range_meters":2800,"station_id":"ce4bhn12rcd13ifvqgqg","pricing_plan_id":"free"},{"bike_id":"ed57468f-31d3-4dec-b266-e43da35d81c6","system_id":"levelo_inurba_marseille","lat":43.231793,"lon":5.400044,"is_reserved":false,"is_disabled":false,"rental_uris":{"android":"levelo://app?vid=ed57468f-31d3-4dec-b266-e43da35d81c6","ios":"levelo://app?vid=ed57468f-31d3-4dec-b266-e43da35d81c6"},"vehicle_type_id":"4","last_reported":1685203667,"current_range_meters":27600,"station_id":"ce4bhn12rcd13ifvqgqg","pricing_plan_id":"free"},{"bike_id":"6bf87b3f-2e5e-484d-9f73-d12a90c06e2e","system_id":"levelo_inurba_marseille","lat":43.231794,"lon":5.400052,"is_reserved":false,"is_disabled":false,"rental_uris":{"android":"levelo://app?vid=6bf87b3f-2e5e-484d-9f73-d12a90c06e2e","ios":"levelo://app?vid=6bf87b3f-2e5e-484d-9f73-d12a90c06e2e"},"vehicle_type_id":"4","last_reported":1685203667,"current_range_meters":32000,"station_id":"ce4bhn12rcd13ifvqgqg","pricing_plan_id":"free"},{"bike_id":"fa025f6b-9b72-4047-81a2-78b1accb1a5e","system_id":"levelo_inurba_marseille","lat":43.231793,"lon":5.400044,"is_reserved":false,"is_disabled":false,"rental_uris":{"android":"levelo://app?vid=fa025f6b-9b72-4047-81a2-78b1accb1a5e","ios":"levelo://app?vid=fa025f6b-9b72-4047-81a2-78b1accb1a5e"},"vehicle_type_id":"4","last_reported":1685203667,"current_range_meters":11600,"station_id":"ce4bhn12rcd13ifvqgqg","pricing_plan_id":"free"}]}}