{"last_updated":1700526962,"ttl":30,"version":"2.2","data":{"bikes":[{"bike_id":"05ebe6d2-585f-4e1c-a224-6ffd077648a6","system_id":"levelo_inurba_marseille","lat":43.312239,"lon":5.368562,"is_reserved":false,"is_disabled":false,"rental_uris":{"android":"levelo://app?vid=05ebe6d2-585f-4e1c-a224-6ffd077648a6","ios":"levelo://app?vid=05ebe6d2-585f-4e1c-a224-6ffd077648a6"},"vehicle_type_id":"4","last_reported":1700526962,"current_range_meters":30000,"station_id":"ce4bgl92rcd13ifvqbq0","pricing_plan_id":"free"},{"bike_id":"1cb0dbcc-46d9-4ef6-81b7-0c6c37809961","system_id":"levelo_inurba_marseille","lat":43.309253,"lon":5.366766,"is_reserved":false,"is_disabled":false,"rental_uris":{"android":"levelo://app?vid=1cb0dbcc-46d9-4ef6-81b7-0c6c37809961","ios":"levelo://app?vid=1cb0dbcc-46d9-4ef6-81b7-0c6c37809961"},"vehicle_type_id":"4","last_reported":1700526962,"current_range_meters":31200,"station_id":"ce4bgr92rcd13ifvqc6g","pricing_plan_id":"free"},{"bike_id":"841ee792-2879-4a49-8e9b-0f31cabdbac4","system_id":"levelo_inurba_marseille","lat":43.309076,"lon":5.368465,"is_reserved":false,"is_disabled":false,"rental_uris":{"android":"levelo://app?vid=841ee792-2879-4a49-8e9b-0f31cabdbac4","ios":"levelo://app?vid=841ee792-2879-4a49-8e9b-0f31cabdbac4"},"vehicle_type_id":"4","last_reported":1700526962,"current_range_meters":21200,"station_id":"ce4bgn92rcd13ifvqbvg","pricing_plan_id":"free"},{"bike_id":"14ead429-c547-47ed-a35b-85841b61ca40","system_id":"levelo_inurba_marseille","lat":43.308403,"lon":5.368918,"is_reserved":false,"is_disabled":false,"rental_uris":{"android":"levelo://app?vid=14ead429-c547-47ed-a35b-85841b61ca40","ios":"levelo://app?vid=14ead429-c547-47ed-a35b-85841b61ca40"},"vehicle_type_id":"4","last_reported":1700526962,"current_range_meters":20000,"station_id":"","pricing_plan_id":"free"},{"bike_id":"5cc0a047-e5d1-4400-9e37-13b6840c7e27","system_id":"levelo_inurba_marseille","lat":43.314811,"lon":5.373104,"is_reserved":false,"is_disabled":false,"rental_uris":{"android":"levelo://app?vid=5cc0a047-e5d1-4400-9e37-13b6840c7e27","ios":"levelo://app?vid=5cc0a047-e5d1-4400-9e37-13b6840c7e27"},"vehicle_type_id":"4","last_reported":1700526962,"current_range_meters":0,"station_id":"ce4bgt12rcd13ifvqcd0","pricing_plan_id":"free"},{"bike_id":"09f74b07-b4a0-4746-be23-5eda5c1c36a5","system_id":"levelo_inurba_marseille","lat":43.315734,"lon":5.372501,"is_reserved":false,"is_disabled":false,"rental_uris":{"android":"levelo://app?vid=09f74b07-b4a0-4746-be23-5eda5c1c36a5","ios":"levelo://app?vid=09f74b07-b4a0-4746-be23-5eda5c1c36a5"},"vehicle_type_id":"4","last_reported":1700526962,"current_range_meters":14800,"station_id":"","pricing_plan_id":"free"},{"bike_id":"46c281d1-c7a5-46ba-af68-4768368ce9cc","system_id":"levelo_inurba_marseille","lat":43.309039,"lon":5.371797,"is_reserved":false,"is_disabled":false,"rental_uris":{"android":"levelo://app?vid=46c281d1-c7a5-46ba-af68-4768368ce9cc","ios":"levelo://app?vid=46c281d1-c7a5-46ba-af68-4768368ce9cc"},"vehicle_type_id":"4","last_reported":1700526962,"current_range_meters":24000,"station_id":"ce4bguh2rcd13ifvqckg","pricing_plan_id":"free"},{"bike_id":"539aefa7-14cf-4095-9531-19c78400c9fc","system_id":"levelo_inurba_marseille","lat":43.309039,"lon":5.371797,"is_reserved":false,"is_disabled":false,"rental_uris":{"android":"levelo://app?vid=539aefa7-14cf-4095-9531-19c78400c9fc","ios":"levelo://app?vid=539aefa7-14cf-4095-9531-19c78400c9fc"},"vehicle_type_id":"4","last_reported":1700526962,"current_range_meters":23600,"station_id":"ce4bguh2rcd13ifvqckg","pricing_plan_id":"free"},{"bike_id":"2bc311dc-da0b-403e-8cae-84f8764bc67c","system_id":"levelo_inurba_marseille","lat":43.30679,"lon":5.3679,"is_reserved":false,"is_disabled":false,"rental_uris":{"android":"levelo://app?vid=2bc311dc-da0b-403e-8cae-84f8764bc67c","ios":"levelo://app?vid=2bc311dc-da0b-403e-8cae-84f8764bc67c"},"vehicle_type_id":"4","last_reported":1700526962,"current_range_meters":5200,"station_id":"","pricing_plan_id":"free"},{"bike_id":"73747106-e6cf-4877-a3f4-17cc5465750b","system_id":"levelo_inurba_marseille","lat":43.305368,"lon":5.367343,"is_reserved":false,"is_disabled":false,"rental_uris":{"android":"levelo://app?vid=73747106-e6cf-4877-a3f4-17cc5465750b","ios":"levelo://app?vid=73747106-e6cf-4877-a3f4-17cc5465750b"},"vehicle_type_id":"4","last_reported":1700526962,"current_range_meters":30800,"station_id":"ce4bgrp2rcd13ifvqc9g","pricing_plan_id":"free"},{"bike_id":"709e0aa1-c7ea-4ec7-87dd-fff73191c3ac","system_id":"levelo_inurba_marseille","lat":43.30545,"lon":5.36713,"is_reserved":false,"is_disabled":false,"rental_uris":{"android":"levelo://app?vid=709e0aa1-c7ea-4ec7-87dd-fff73191c3ac","ios":"levelo://app?vid=709e0aa1-c7ea-4ec7-87dd-fff73191c3ac"},"vehicle_type_id":"4","last_reported":1700526962,"current_range_meters":19600,"station_id":"ce4bgrp2rcd13ifvqc9g","pricing_plan_id":"free"},{"bike_id":"44b24f96-5758-4f0d-b318-c2c30fd2d2e1","system_id":"levelo_inurba_marseille","lat":43.305989,"lon":5.37225,"is_reserved":false,"is_disabled":false,"rental_uris":{"android":"levelo://app?vid=44b24f96-5758-4f0d-b318-c2c30fd2d2e1","ios":"levelo://app?vid=44b24f96-5758-4f0d-b318-c2c30fd2d2e1"},"vehicle_type_id":"4","last_reported":1700526962,"current_range_meters":24000,"station_id":"ce4bgqh2rcd13ifvqc4g","pricing_plan_id":"free"},{"bike_id":"5faeba2b-aebf-4db0-956d-802c04585781","system_id":"levelo_inurba_marseille","lat":43.307945,"lon":5.376487,"is_reserved":false,"is_disabled":false,"rental_uris":{"android":"levelo://app?vid=5faeba2b-aebf-4db0-956d-802c04585781","ios":"levelo://app?vid=5faeba2b-aebf-4db0-956d-802c04585781"},"vehicle_type_id":"4","last_reported":1700526962,"current_range_meters":4400,"station_id":"ce4bgv92rcd13ifvqcq0","pricing_plan_id":"free"},{"bike_id":"a57adc60-d3eb-416a-85f4-6a3c3d9588c5","system_id":"levelo_inurba_marseille","lat":43.307945,"lon":5.376487,"is_reserved":false,"is_disabled":false,"rental_uris":{"android":"levelo://app?vid=a57adc60-d3eb-416a-85f4-6a3c3d9588c5","ios":"levelo://app?vid=a57adc60-d3eb-416a-85f4-6a3c3d9588c5"},"vehicle_type_id":"4","last_reported":1700526962,"current_range_meters":17600,"station_id":"ce4bgv92rcd13ifvqcq0","pricing_plan_id":"free"},{"bike_id":"124b1e7d-4a33-4518-81f0-4e664b1b21ed","system_id":"levelo_inurba_marseille","lat":43.307945,"lon":5.376487,"is_reserved":false,"is_disabled":false,"rental_uris":{"android":"levelo://app?vid=124b1e7d-4a33-4518-81f0-4e664b1b21ed","ios":"levelo://app?vid=124b1e7d-4a33-4518-81f0-4e664b1b21ed"},"vehicle_type_id":"4","last_reported":1700526962,"current_range_meters":29600,"station_id":"ce4bgv92rcd13ifvqcq0","pricing_plan_id":"free"},{"bike_id":"839c9e85-b108-4964-a4ab-822621cc8e10","system_id":"levelo_inurba_marseille","lat":43.307945,"lon":5.376487,"is_reserved":false,"is_disabled":false,"rental_uris":{"android":"levelo://app?vid=839c9e85-b108-4964-a4ab-822621cc8e10","ios":"levelo://app?vid=839c9e85-b108-4964-a4ab-822621cc8e10"},"vehicle_type_id":"4","last_reported":1700526962,"current_range_meters":30400,"station_id":"ce4bgv92rcd13ifvqcq0","pricing_plan_id":"free"},{"bike_id":"65fedc3c-8b27-4473-a255-e256fb6b0871","system_id":"levelo_inurba_marseille","lat":43.30314,"lon":5.36913,"is_reserved":false,"is_disabled":false,"rental_uris":{"android":"levelo://app?vid=65fedc3c-8b27-4473-a255-e256fb6b0871","ios":"levelo://app?vid=65fedc3c-8b27-4473-a255-e256fb6b0871"},"vehicle_type_id":"4","last_reported":1700526962,"current_range_meters":31200,"station_id":"ce4bgqh2rcd13ifvqc5g","pricing_plan_id":"free"},{"bike_id":"82f55002-f8a6-420b-aaf0-9014e681764a","system_id":"levelo_inurba_marseille","lat":43.303133,"lon":5.369098,"is_reserved":false,"is_disabled":false,"rental_uris":{"android":"levelo://app?vid=82f55002-f8a6-420b-aaf0-9014e681764a","ios":"levelo://app?vid=82f55002-f8a6-420b-aaf0-9014e681764a"},"vehicle_type_id":"4","last_reported":1700526962,"current_range_meters":30800,"station_id":"ce4bgqh2rcd13ifvqc5g","pricing_plan_id":"free"},{"bike_id":"8dacf36b-0f1c-45d4-bbde-4d12aac1bfe3","system_id":"levelo_inurba_marseille","lat":43.303112,"lon":5.369091,"is_reserved":false,"is_disabled":false,"rental_uris":{"android":"levelo://app?vid=8dacf36b-0f1c-45d4-bbde-4d12aac1bfe3","ios":"levelo://app?vid=8dacf36b-0f1c-45d4-bbde-4d12aac1bfe3"},"vehicle_type_id":"4","last_reported":1700526962,"current_range_meters":30400,"station_id":"ce4bgqh2rcd13ifvqc5g","pricing_plan_id":"free"},{"bike_id":"479c6f3a-a2b6-48d8-9099-d11d9148e290","system_id":"levelo_inurba_marseille","lat":43.302575,"lon":5.367681,"is_reserved":false,"is_disabled":false,"rental_uris":{"android":"levelo://app?vid=479c6f3a-a2b6-48d8-9099-d11d9148e290","ios":"levelo://app?vid=479c6f3a-a2b6-48d8-9099-d11d9148e290"},"vehicle_type_id":"4","last_reported":1700526962,"current_range_meters":30000,"station_id":"ce4bgrh2rcd13ifvqc8g","pricing_plan_id":"free"},{"bike_id":"85bd6c6b-39bf-43a6-860d-5e58d02a366b","system_id":"levelo_inurba_marseille","lat":43.3019,"lon":5.36629,"is_reserved":false,"is_disabled":false,"rental_uris":{"android":"levelo://app?vid=85bd6c6b-39bf-43a6-860d-5e58d02a366b","ios":"levelo://app?vid=85bd6c6b-39bf-43a6-860d-5e58d02a366b"},"vehicle_type_id":"4","last_reported":1700526962,"current_range_meters":29200,"station_id":"ce4bgrh2rcd13ifvqc8g","pricing_plan_id":"free"},{"bike_id":"75ed3f5f-a3df-4e5c-a3c3-1d99e0731e1c","system_id":"levelo_inurba_marseille","lat":43.301939,"lon":5.366286,"is_reserved":false,"is_disabled":false,"rental_uris":{"android":"levelo://app?vid=75ed3f5f-a3df-4e5c-a3c3-1d99e0731e1c","ios":"levelo://app?vid=75ed3f5f-a3df-4e5c-a3c3-1d99e0731e1c"},"vehicle_type_id":"4","last_reported":1700526962,"current_range_meters":30400,"station_id":"ce4bgrh2rcd13ifvqc8g","pricing_plan_id":"free"},{"bike_id":"cb63e563-60df-48c6-a3aa-1bf0c92ace97","system_id":"levelo_inurba_marseille","lat":43.30799,"lon":5.38143,"is_reserved":false,"is_disabled":false,"rental_uris":{"android":"levelo://app?vid=cb63e563-60df-48c6-a3aa-1bf0c92ace97","ios":"levelo://app?vid=cb63e563-60df-48c6-a3aa-1bf0c92ace97"},"vehicle_type_id":"4","last_reported":1700526962,"current_range_meters":2800,"station_id":"ce4bgt12rcd13ifvqce0","pricing_plan_id":"free"},{"bike_id":"0cf6c103-baa6-4495-88b5-c0562c4dbe9b","system_id":"levelo_inurba_marseille","lat":43.301429,"lon":5.37413,"is_reserved":false,"is_disabled":false,"rental_uris":{"android":"levelo://app?vid=0cf6c103-baa6-4495-88b5-c0562c4dbe9b","ios":"levelo://app?vid=0cf6c103-baa6-4495-88b5-c0562c4dbe9b"},"vehicle_type_id":"4","last_reported":1700526962,"current_range_meters":0,"station_id":"ce4bgs92rcd13ifvqcc0","pricing_plan_id":"free"},{"bike_id":"45b6d444-b644-4faa-a554-c920a523d237","system_id":"levelo_inurba_marseille","lat":43.319935,"lon":5.381699,"is_reserved":false,"is_disabled":false,"rental_uris":{"android":"levelo://app?vid=45b6d444-b644-4faa-a554-c920a523d237","ios":"levelo://app?vid=45b6d444-b644-4faa-a554-c920a523d237"},"vehicle_type_id":"4","last_reported":1700526962,"current_range_meters":19200,"station_id":"ce4bhr12rcd13ifvqhpg","pricing_plan_id":"free"},{"bike_id":"9db2ba96-3cc0-4ebd-81c0-9ca61fa55863","system_id":"levelo_inurba_marseille","lat":43.313571,"lon":5.384829,"is_reserved":false,"is_disabled":false,"rental_uris":{"android":"levelo://app?vid=9db2ba96-3cc0-4ebd-81c0-9ca61fa55863","ios":"levelo://app?vid=9db2ba96-3cc0-4ebd-81c0-9ca61fa55863"},"vehicle_type_id":"4","last_reported":1700526962,"current_range_meters":30000,"station_id":"ce4bgt92rcd13ifvqcf0","pricing_plan_id":"free"},{"bike_id":"c5819962-9eac-449f-88dd-52b906d94be6","system_id":"levelo_inurba_marseille","lat":43.313571,"lon":5.384829,"is_reserved":false,"is_disabled":false,"rental_uris":{"android":"levelo://app?vid=c5819962-9eac-449f-88dd-52b906d94be6","ios":"levelo://app?vid=c5819962-9eac-449f-88dd-52b906d94be6"},"vehicle_type_id":"4","last_reported":1700526962,"current_range_meters":29200,"station_id":"ce4bgt92rcd13ifvqcf0","pricing_plan_id":"free"},{"bike_id":"9e3df631-d7b7-461b-8959-9a0a4df3727f","system_id":"levelo_inurba_marseille","lat":43.313571,"lon":5.384829,"is_reserved":false,"is_disabled":false,"rental_uris":{"android":"levelo://app?vid=9e3df631-d7b7-461b-8959-9a0a4df3727f","ios":"levelo://app?vid=9e3df631-d7b7-461b-8959-9a0a4df3727f"},"vehicle_type_id":"4","last_reported":1700526962,"current_range_meters":28400,"station_id":"ce4bgt92rcd13ifvqcf0","pricing_plan_id":"free"},{"bike_id":"4592b191-4490-4d97-8923-8e12ba52850c","system_id":"levelo_inurba_marseille","lat":43.299222,"lon":5.365554,"is_reserved":false,"is_disabled":false,"rental_uris":{"android":"levelo://app?vid=4592b191-4490-4d97-8923-8e12ba52850c","ios":"levelo://app?vid=4592b191-4490-4d97-8923-8e12ba52850c"},"vehicle_type_id":"4","last_reported":1700526962,"current_range_meters":18800,"station_id":"ce4bgm92rcd13ifvqbr0","pricing_plan_id":"free"},{"bike_id":"ed81c766-9880-41f3-9d4b-5110bdd0084f","system_id":"levelo_inurba_marseille","lat":43.305364,"lon":5.384119,"is_reserved":false,"is_disabled":false,"rental_uris":{"android":"levelo://app?vid=ed81c766-9880-41f3-9d4b-5110bdd0084f","ios":"levelo://app?vid=ed81c766-9880-41f3-9d4b-5110bdd0084f"},"vehicle_type_id":"4","last_reported":1700526962,"current_range_meters":11600,"station_id":"ce4bgg92rcd13ifvqb30","pricing_plan_id":"free"},{"bike_id":"cb4d2ae5-f160-4767-a697-654901f078ee","system_id":"levelo_inurba_marseille","lat":43.299157,"lon":5.374722,"is_reserved":false,"is_disabled":false,"rental_uris":{"android":"levelo://app?vid=cb4d2ae5-f160-4767-a697-654901f078ee","ios":"levelo://app?vid=cb4d2ae5-f160-4767-a697-654901f078ee"},"vehicle_type_id":"4","last_reported":1700526962,"current_range_meters":0,"station_id":"ce4bgjh2rcd13ifvqbg0","pricing_plan_id":"free"},{"bike_id":"55d6d5d5-d636-4dff-a65c-03d13cd87951","system_id":"levelo_inurba_marseille","lat":43.311722,"lon":5.387247,"is_reserved":false,"is_disabled":false,"rental_uris":{"android":"levelo://app?vid=55d6d5d5-d636-4dff-a65c-03d13cd87951","ios":"levelo://app?vid=55d6d5d5-d636-4dff-a65c-03d13cd87951"},"vehicle_type_id":"4","last_reported":1700526962,"current_range_meters":17200,"station_id":"ce4bgv12rcd13ifvqcp0","pricing_plan_id":"free"},{"bike_id":"c7d129c7-f501-42d4-ab07-a09ea13dd26b","system_id":"levelo_inurba_marseille","lat":43.311722,"lon":5.387247,"is_reserved":false,"is_disabled":false,"rental_uris":{"android":"levelo://app?vid=c7d129c7-f501-42d4-ab07-a09ea13dd26b","ios":"levelo://app?vid=c7d129c7-f501-42d4-ab07-a09ea13dd26b"},"vehicle_type_id":"4","last_reported":1700526962,"current_range_meters":0,"station_id":"ce4bgv12rcd13ifvqcp0","pricing_plan_id":"free"},{"bike_id":"78f7d21f-bb24-4a81-b831-3cf2df233e8a","system_id":"levelo_inurba_marseille","lat":43.311722,"lon":5.387247,"is_reserved":false,"is_disabled":false,"rental_uris":{"android":"levelo://app?vid=78f7d21f-bb24-4a81-b831-3cf2df233e8a","ios":"levelo://app?vid=78f7d21f-bb24-4a81-b831-3cf2df233e8a"},"vehicle_type_id":"4","last_reported":1700526962,"current_range_meters":19200,"station_id":"ce4bgv12rcd13ifvqcp0","pricing_plan_id":"free"},{"bike_id":"a2954210-3934-42af-9ab2-e4361acf2249","system_id":"levelo_inurba_marseille","lat":43.311722,"lon":5.387247,"is_reserved":false,"is_disabled":false,"rental_uris":{"android":"levelo://app?vid=a2954210-3934-42af-9ab2-e4361acf2249","ios":"levelo://app?vid=a2954210-3934-42af-9ab2-e4361acf2249"},"vehicle_type_id":"4","last_reported":1700526962,"current_range_meters":28000,"station_id":"ce4bgv12rcd13ifvqcp0","pricing_plan_id":"free"},{"bike_id":"ca10a671-79e4-467a-b2f8-eb57983815af","system_id":"levelo_inurba_marseille","lat":43.311722,"lon":5.387247,"is_reserved":false,"is_disabled":false,"rental_uris":{"android":"levelo://app?vid=ca10a671-79e4-467a-b2f8-eb57983815af","ios":"levelo://app?vid=ca10a671-79e4-467a-b2f8-eb57983815af"},"vehicle_type_id":"4","last_reported":1700526962,"current_range_meters":27600,"station_id":"ce4bgv12rcd13ifvqcp0","pricing_plan_id":"free"},{"bike_id":"375401b1-7a0d-4ad3-baf8-6af7730c1d08","system_id":"levelo_inurba_marseille","lat":43.311722,"lon":5.387247,"is_reserved":false,"is_disabled":false,"rental_uris":{"android":"levelo://app?vid=375401b1-7a0d-4ad3-baf8-6af7730c1d08","ios":"levelo://app?vid=375401b1-7a0d-4ad3-baf8-6af7730c1d08"},"vehicle_type_id":"4","last_reported":1700526962,"current_range_meters":26800,"station_id":"ce4bgv12rcd13ifvqcp0","pricing_plan_id":"free"},{"bike_id":"5654e3c9-c766-4ad9-9ef9-151b2e258b17","system_id":"levelo_inurba_marseille","lat":43.311722,"lon":5.387247,"is_reserved":false,"is_disabled":false,"rental_uris":{"android":"levelo://app?vid=5654e3c9-c766-4ad9-9ef9-151b2e258b17","ios":"levelo://app?vid=5654e3c9-c766-4ad9-9ef9-151b2e258b17"},"vehicle_type_id":"4","last_reported":1700526962,"current_range_meters":22400,"station_id":"ce4bgv12rcd13ifvqcp0","pricing_plan_id":"free"},{"bike_id":"23f01139-4a05-420f-9c79-3d0ba6b5f001","system_id":"levelo_inurba_marseille","lat":43.311722,"lon":5.387247,"is_reserved":false,"is_disabled":false,"rental_uris":{"android":"levelo://app?vid=23f01139-4a05-420f-9c79-3d0ba6b5f001","ios":"levelo://app?vid=23f01139-4a05-420f-9c79-3d0ba6b5f001"},"vehicle_type_id":"4","last_reported":1700526962,"current_range_meters":2000,"station_id":"ce4bgv12rcd13ifvqcp0","pricing_plan_id":"free"},{"bike_id":"d9a95eb2-3ca7-4d5c-ae71-fae5be7a5a02","system_id":"levelo_inurba_marseille","lat":43.29811,"lon":5.37099,"is_reserved":false,"is_disabled":false,"rental_uris":{"android":"levelo://app?vid=d9a95eb2-3ca7-4d5c-ae71-fae5be7a5a02","ios":"levelo://app?vid=d9a95eb2-3ca7-4d5c-ae71-fae5be7a5a02"},"vehicle_type_id":"4","last_reported":1700526962,"current_range_meters":18400,"station_id":"ce4bgop2rcd13ifvqc1g","pricing_plan_id":"free"},{"bike_id":"8c9e1a02-23da-4ac0-b951-fa395b82ae4d","system_id":"levelo_inurba_marseille","lat":43.322872,"lon":5.382756,"is_reserved":false,"is_disabled":false,"rental_uris":{"android":"levelo://app?vid=8c9e1a02-23da-4ac0-b951-fa395b82ae4d","ios":"levelo://app?vid=8c9e1a02-23da-4ac0-b951-fa395b82ae4d"},"vehicle_type_id":"4","last_reported":1700526962,"current_range_meters":4400,"station_id":"ce4bhr12rcd13ifvqhqg","pricing_plan_id":"free"},{"bike_id":"97faffe6-e302-4641-bdbd-31a4b4cbc08e","system_id":"levelo_inurba_marseille","lat":43.322872,"lon":5.382756,"is_reserved":false,"is_disabled":false,"rental_uris":{"android":"levelo://app?vid=97faffe6-e302-4641-bdbd-31a4b4cbc08e","ios":"levelo://app?vid=97faffe6-e302-4641-bdbd-31a4b4cbc08e"},"vehicle_type_id":"4","last_reported":1700526962,"current_range_meters":11200,"station_id":"ce4bhr12rcd13ifvqhqg","pricing_plan_id":"free"},{"bike_id":"8f48367f-c67e-4ae9-a0ec-8671c6efbe3c","system_id":"levelo_inurba_marseille","lat":43.322872,"lon":5.382756,"is_reserved":false,"is_disabled":false,"rental_uris":{"android":"levelo://app?vid=8f48367f-c67e-4ae9-a0ec-8671c6efbe3c","ios":"levelo://app?vid=8f48367f-c67e-4ae9-a0ec-8671c6efbe3c"},"vehicle_type_id":"4","last_reported":1700526962,"current_range_meters":31200,"station_id":"ce4bhr12rcd13ifvqhqg","pricing_plan_id":"free"},{"bike_id":"84679955-3af0-4225-b983-aa354dee5e55","system_id":"levelo_inurba_marseille","lat":43.322872,"lon":5.382756,"is_reserved":false,"is_disabled":false,"rental_uris":{"android":"levelo://app?vid=84679955-3af0-4225-b983-aa354dee5e55","ios":"levelo://app?vid=84679955-3af0-4225-b983-aa354dee5e55"},"vehicle_type_id":"4","last_reported":1700526962,"current_range_meters":6400,"station_id":"ce4bhr12rcd13ifvqhqg","pricing_plan_id":"free"},{"bike_id":"e13f952a-c1cd-445a-869b-c7b187398abd","system_id":"levelo_inurba_marseille","lat":43.322872,"lon":5.382756,"is_reserved":false,"is_disabled":false,"rental_uris":{"android":"levelo://app?vid=e13f952a-c1cd-445a-869b-c7b187398abd","ios":"levelo://app?vid=e13f952a-c1cd-445a-869b-c7b187398abd"},"vehicle_type_id":"4","last_reported":1700526962,"current_range_meters":24400,"station_id":"ce4bhr12rcd13ifvqhqg","pricing_plan_id":"free"},{"bike_id":"f6eec5fa-ea37-4d12-bbab-dda6417f556e","system_id":"levelo_inurba_marseille","lat":43.328371,"lon":5.366909,"is_reserved":false,"is_disabled":false,"rental_uris":{"android":"levelo://app?vid=f6eec5fa-ea37-4d12-bbab-dda6417f556e","ios":"levelo://app?vid=f6eec5fa-ea37-4d12-bbab-dda6417f556e"},"vehicle_type_id":"4","last_reported":1700526962,"current_range_meters":31200,"station_id":"ce4bhs92rcd13ifvqi0g","pricing_plan_id":"free"},{"bike_id":"33f7a205-a0fa-45aa-8dec-d47c850fa3fa","system_id":"levelo_inurba_marseille","lat":43.29728,"lon":5.37003,"is_reserved":false,"is_disabled":false,"rental_uris":{"android":"levelo://app?vid=33f7a205-a0fa-45aa-8dec-d47c850fa3fa","ios":"levelo://app?vid=33f7a205-a0fa-45aa-8dec-d47c850fa3fa"},"vehicle_type_id":"4","last_reported":1700526962,"current_range_meters":3600,"station_id":"","pricing_plan_id":"free"},{"bike_id":"df373b3d-4a63-429e-a1bd-798cd3096a40","system_id":"levelo_inurba_marseille","lat":43.297163,"lon":5.365866,"is_reserved":false,"is_disabled":false,"rental_uris":{"android":"levelo://app?vid=df373b3d-4a63-429e-a1bd-798cd3096a40","ios":"levelo://app?vid=df373b3d-4a63-429e-a1bd-798cd3096a40"},"vehicle_type_id":"4","last_reported":1700526962,"current_range_meters":28800,"station_id":"ce4bgn12rcd13ifvqbt0","pricing_plan_id":"free"},{"bike_id":"293c4f59-5e14-45f3-a364-846be1453300","system_id":"levelo_inurba_marseille","lat":43.299635,"lon":5.379135,"is_reserved":false,"is_disabled":false,"rental_uris":{"android":"levelo://app?vid=293c4f59-5e14-45f3-a364-846be1453300","ios":"levelo://app?vid=293c4f59-5e14-45f3-a364-846be1453300"},"vehicle_type_id":"4","last_reported":1700526962,"current_range_meters":800,"station_id":"","pricing_plan_id":"free"},{"bike_id":"d64a6339-bfe2-4036-b5b8-e587b73ace66","system_id":"levelo_inurba_marseille","lat":43.29573,"lon":5.367355,"is_reserved":false,"is_disabled":false,"rental_uris":{"android":"levelo://app?vid=d64a6339-bfe2-4036-b5b8-e587b73ace66","ios":"levelo://app?vid=d64a6339-bfe2-4036-b5b8-e587b73ace66"},"vehicle_type_id":"4","last_reported":1700526962,"current_range_meters":28400,"station_id":"ce4bgph2rcd13ifvqc2g","pricing_plan_id":"free"},{"bike_id":"6196efa6-9555-4cac-b656-0445e953c4a1","system_id":"levelo_inurba_marseille","lat":43.29591,"lon":5.36774,"is_reserved":false,"is_disabled":false,"rental_uris":{"android":"levelo://app?vid=6196efa6-9555-4cac-b656-0445e953c4a1","ios":"levelo://app?vid=6196efa6-9555-4cac-b656-0445e953c4a1"},"vehicle_type_id":"4","last_reported":1700526962,"current_range_meters":21600,"station_id":"ce4bgph2rcd13ifvqc2g","pricing_plan_id":"free"},{"bike_id":"3c9dd66a-5eeb-4a8a-9d1f-0451a86b01ce","system_id":"levelo_inurba_marseille","lat":43.29573,"lon":5.367355,"is_reserved":false,"is_disabled":false,"rental_uris":{"android":"levelo://app?vid=3c9dd66a-5eeb-4a8a-9d1f-0451a86b01ce","ios":"levelo://app?vid=3c9dd66a-5eeb-4a8a-9d1f-0451a86b01ce"},"vehicle_type_id":"4","last_reported":1700526962,"current_range_meters":21600,"station_id":"ce4bgph2rcd13ifvqc2g","pricing_plan_id":"free"},{"bike_id":"f3630b4d-980f-4ab1-9fe8-884be7118730","system_id":"levelo_inurba_marseille","lat":43.321427,"lon":5.386995,"is_reserved":false,"is_disabled":false,"rental_uris":{"android":"levelo://app?vid=f3630b4d-980f-4ab1-9fe8-884be7118730","ios":"levelo://app?vid=f3630b4d-980f-4ab1-9fe8-884be7118730"},"vehicle_type_id":"4","last_reported":1700526962,"current_range_meters":0,"station_id":"","pricing_plan_id":"free"},{"bike_id":"5aaba369-13fa-4680-a9b3-f0eaf67544f7","system_id":"levelo_inurba_marseille","lat":43.296921,"lon":5.376579,"is_reserved":false,"is_disabled":false,"rental_uris":{"android":"levelo://app?vid=5aaba369-13fa-4680-a9b3-f0eaf67544f7","ios":"levelo://app?vid=5aaba369-13fa-4680-a9b3-f0eaf67544f7"},"vehicle_type_id":"4","last_reported":1700526962,"current_range_meters":23200,"station_id":"ce4bgkh2rcd13ifvqbl0","pricing_plan_id":"free"},{"bike_id":"4d20ffa8-a205-40d2-83aa-7f6369e9411d","system_id":"levelo_inurba_marseille","lat":43.309589,"lon":5.390258,"is_reserved":false,"is_disabled":false,"rental_uris":{"android":"levelo://app?vid=4d20ffa8-a205-40d2-83aa-7f6369e9411d","ios":"levelo://app?vid=4d20ffa8-a205-40d2-83aa-7f6369e9411d"},"vehicle_type_id":"4","last_reported":1700526962,"current_range_meters":30000,"station_id":"ce4bgup2rcd13ifvqco0","pricing_plan_id":"free"},{"bike_id":"8e69b43c-570c-4d1a-b4da-794aad5fcb75","system_id":"levelo_inurba_marseille","lat":43.309589,"lon":5.390258,"is_reserved":false,"is_disabled":false,"rental_uris":{"android":"levelo://app?vid=8e69b43c-570c-4d1a-b4da-794aad5fcb75","ios":"levelo://app?vid=8e69b43c-570c-4d1a-b4da-794aad5fcb75"},"vehicle_type_id":"4","last_reported":1700526962,"current_range_meters":18400,"station_id":"ce4bgup2rcd13ifvqco0","pricing_plan_id":"free"},{"bike_id":"19e5e59d-3036-4e10-bd3c-c2ffb7a2af7c","system_id":"levelo_inurba_marseille","lat":43.314603,"lon":5.390867,"is_reserved":false,"is_disabled":false,"rental_uris":{"android":"levelo://app?vid=19e5e59d-3036-4e10-bd3c-c2ffb7a2af7c","ios":"levelo://app?vid=19e5e59d-3036-4e10-bd3c-c2ffb7a2af7c"},"vehicle_type_id":"4","last_reported":1700526962,"current_range_meters":13200,"station_id":"","pricing_plan_id":"free"},{"bike_id":"863e9ad1-593b-4075-96a3-97a3d7b434cb","system_id":"levelo_inurba_marseille","lat":43.29751,"lon":5.37993,"is_reserved":false,"is_disabled":false,"rental_uris":{"android":"levelo://app?vid=863e9ad1-593b-4075-96a3-97a3d7b434cb","ios":"levelo://app?vid=863e9ad1-593b-4075-96a3-97a3d7b434cb"},"vehicle_type_id":"4","last_reported":1700526962,"current_range_meters":15600,"station_id":"","pricing_plan_id":"free"},{"bike_id":"dbfbc456-160f-40a3-a550-623081ce3d71","system_id":"levelo_inurba_marseille","lat":43.295748,"lon":5.37522,"is_reserved":false,"is_disabled":false,"rental_uris":{"android":"levelo://app?vid=dbfbc456-160f-40a3-a550-623081ce3d71","ios":"levelo://app?vid=dbfbc456-160f-40a3-a550-623081ce3d71"},"vehicle_type_id":"4","last_reported":1700526962,"current_range_meters":31200,"station_id":"ce4bgh92rcd13ifvqb50","pricing_plan_id":"free"},{"bike_id":"444d59a3-9ecc-47e4-a940-05c5af235458","system_id":"levelo_inurba_marseille","lat":43.304278,"lon":5.388868,"is_reserved":false,"is_disabled":false,"rental_uris":{"android":"levelo://app?vid=444d59a3-9ecc-47e4-a940-05c5af235458","ios":"levelo://app?vid=444d59a3-9ecc-47e4-a940-05c5af235458"},"vehicle_type_id":"4","last_reported":1700526962,"current_range_meters":26000,"station_id":"ce4bgk12rcd13ifvqbi0","pricing_plan_id":"free"},{"bike_id":"3059d4c1-3d42-4321-a339-0fea9a03ef82","system_id":"levelo_inurba_marseille","lat":43.328154,"lon":5.380034,"is_reserved":false,"is_disabled":false,"rental_uris":{"android":"levelo://app?vid=3059d4c1-3d42-4321-a339-0fea9a03ef82","ios":"levelo://app?vid=3059d4c1-3d42-4321-a339-0fea9a03ef82"},"vehicle_type_id":"4","last_reported":1700526962,"current_range_meters":400,"station_id":"","pricing_plan_id":"free"},{"bike_id":"c0faa826-d161-4636-b3d5-870d3d0106f0","system_id":"levelo_inurba_marseille","lat":43.299717,"lon":5.384845,"is_reserved":false,"is_disabled":false,"rental_uris":{"android":"levelo://app?vid=c0faa826-d161-4636-b3d5-870d3d0106f0","ios":"levelo://app?vid=c0faa826-d161-4636-b3d5-870d3d0106f0"},"vehicle_type_id":"4","last_reported":1700526962,"current_range_meters":24800,"station_id":"ce4bgj92rcd13ifvqbd0","pricing_plan_id":"free"},{"bike_id":"6b621983-5e9e-42f7-990d-ad5a093820d2","system_id":"levelo_inurba_marseille","lat":43.293801,"lon":5.363066,"is_reserved":false,"is_disabled":false,"rental_uris":{"android":"levelo://app?vid=6b621983-5e9e-42f7-990d-ad5a093820d2","ios":"levelo://app?vid=6b621983-5e9e-42f7-990d-ad5a093820d2"},"vehicle_type_id":"4","last_reported":1700526962,"current_range_meters":18000,"station_id":"","pricing_plan_id":"free"},{"bike_id":"215ecd7f-28ba-4aa8-b27a-c891ad7cd64e","system_id":"levelo_inurba_marseille","lat":43.32367,"lon":5.388836,"is_reserved":false,"is_disabled":false,"rental_uris":{"android":"levelo://app?vid=215ecd7f-28ba-4aa8-b27a-c891ad7cd64e","ios":"levelo://app?vid=215ecd7f-28ba-4aa8-b27a-c891ad7cd64e"},"vehicle_type_id":"4","last_reported":1700526962,"current_range_meters":14000,"station_id":"ce4bhqp2rcd13ifvqhog","pricing_plan_id":"free"},{"bike_id":"930c70eb-0d5a-4b2a-bc29-7fe4c14fbb7d","system_id":"levelo_inurba_marseille","lat":43.32367,"lon":5.388836,"is_reserved":false,"is_disabled":false,"rental_uris":{"android":"levelo://app?vid=930c70eb-0d5a-4b2a-bc29-7fe4c14fbb7d","ios":"levelo://app?vid=930c70eb-0d5a-4b2a-bc29-7fe4c14fbb7d"},"vehicle_type_id":"4","last_reported":1700526962,"current_range_meters":3200,"station_id":"ce4bhqp2rcd13ifvqhog","pricing_plan_id":"free"},{"bike_id":"d9cb91c9-93b1-4333-a091-003adc2b82df","system_id":"levelo_inurba_marseille","lat":43.32367,"lon":5.388836,"is_reserved":false,"is_disabled":false,"rental_uris":{"android":"levelo://app?vid=d9cb91c9-93b1-4333-a091-003adc2b82df","ios":"levelo://app?vid=d9cb91c9-93b1-4333-a091-003adc2b82df"},"vehicle_type_id":"4","last_reported":1700526962,"current_range_meters":3600,"station_id":"ce4bhqp2rcd13ifvqhog","pricing_plan_id":"free"},{"bike_id":"3faa4d2c-7f4c-46ae-a58b-23ab1d8759e2","system_id":"levelo_inurba_marseille","lat":43.32367,"lon":5.3888,"is_reserved":false,"is_disabled":false,"rental_uris":{"android":"levelo://app?vid=3faa4d2c-7f4c-46ae-a58b-23ab1d8759e2","ios":"levelo://app?vid=3faa4d2c-7f4c-46ae-a58b-23ab1d8759e2"},"vehicle_type_id":"4","last_reported":1700526962,"current_range_meters":18000,"station_id":"ce4bhqp2rcd13ifvqhog","pricing_plan_id":"free"},{"bike_id":"21dbd61c-01d9-49ac-a257-280b88434b99","system_id":"levelo_inurba_marseille","lat":43.323699,"lon":5.388826,"is_reserved":false,"is_disabled":false,"rental_uris":{"android":"levelo://app?vid=21dbd61c-01d9-49ac-a257-280b88434b99","ios":"levelo://app?vid=21dbd61c-01d9-49ac-a257-280b88434b99"},"vehicle_type_id":"4","last_reported":1700526962,"current_range_meters":9600,"station_id":"ce4bhqp2rcd13ifvqhog","pricing_plan_id":"free"},{"bike_id":"4a8de9e8-9ed0-4224-a986-bfd0af6d8591","system_id":"levelo_inurba_marseille","lat":43.323688,"lon":5.388857,"is_reserved":false,"is_disabled":false,"rental_uris":{"android":"levelo://app?vid=4a8de9e8-9ed0-4224-a986-bfd0af6d8591","ios":"levelo://app?vid=4a8de9e8-9ed0-4224-a986-bfd0af6d8591"},"vehicle_type_id":"4","last_reported":1700526962,"current_range_meters":9200,"station_id":"ce4bhqp2rcd13ifvqhog","pricing_plan_id":"free"},{"bike_id":"1d10a1b1-d55f-4279-928a-9c6858f32ca9","system_id":"levelo_inurba_marseille","lat":43.330543,"lon":5.378928,"is_reserved":false,"is_disabled":false,"rental_uris":{"android":"levelo://app?vid=1d10a1b1-d55f-4279-928a-9c6858f32ca9","ios":"levelo://app?vid=1d10a1b1-d55f-4279-928a-9c6858f32ca9"},"vehicle_type_id":"4","last_reported":1700526962,"current_range_meters":4000,"station_id":"","pricing_plan_id":"free"},{"bike_id":"9c4a4ce3-6f24-49b6-83b3-dcdb552efdee","system_id":"levelo_inurba_marseille","lat":43.303002,"lon":5.392142,"is_reserved":false,"is_disabled":false,"rental_uris":{"android":"levelo://app?vid=9c4a4ce3-6f24-49b6-83b3-dcdb552efdee","ios":"levelo://app?vid=9c4a4ce3-6f24-49b6-83b3-dcdb552efdee"},"vehicle_type_id":"4","last_reported":1700526962,"current_range_meters":28400,"station_id":"ce4bgkh2rcd13ifvqbk0","pricing_plan_id":"free"},{"bike_id":"1ffaab7b-7cd2-4d57-8888-3f9ed1b61b18","system_id":"levelo_inurba_marseille","lat":43.30312,"lon":5.39204,"is_reserved":false,"is_disabled":false,"rental_uris":{"android":"levelo://app?vid=1ffaab7b-7cd2-4d57-8888-3f9ed1b61b18","ios":"levelo://app?vid=1ffaab7b-7cd2-4d57-8888-3f9ed1b61b18"},"vehicle_type_id":"4","last_reported":1700526962,"current_range_meters":0,"station_id":"ce4bgkh2rcd13ifvqbk0","pricing_plan_id":"free"},{"bike_id":"74176b71-cbed-4ff1-a69a-6e70da0502ac","system_id":"levelo_inurba_marseille","lat":43.306521,"lon":5.394121,"is_reserved":false,"is_disabled":false,"rental_uris":{"android":"levelo://app?vid=74176b71-cbed-4ff1-a69a-6e70da0502ac","ios":"levelo://app?vid=74176b71-cbed-4ff1-a69a-6e70da0502ac"},"vehicle_type_id":"4","last_reported":1700526962,"current_range_meters":25200,"station_id":"","pricing_plan_id":"free"},{"bike_id":"6b4f1bb1-a79a-45a0-9198-ac373bea4f24","system_id":"levelo_inurba_marseille","lat":43.309038,"lon":5.396546,"is_reserved":false,"is_disabled":false,"rental_uris":{"android":"levelo://app?vid=6b4f1bb1-a79a-45a0-9198-ac373bea4f24","ios":"levelo://app?vid=6b4f1bb1-a79a-45a0-9198-ac373bea4f24"},"vehicle_type_id":"4","last_reported":1700526962,"current_range_meters":21200,"station_id":"ce4bh012rcd13ifvqcv0","pricing_plan_id":"free"},{"bike_id":"611cb24d-f89b-4a6a-8c1b-02447cf624fd","system_id":"levelo_inurba_marseille","lat":43.309038,"lon":5.396546,"is_reserved":false,"is_disabled":false,"rental_uris":{"android":"levelo://app?vid=611cb24d-f89b-4a6a-8c1b-02447cf624fd","ios":"levelo://app?vid=611cb24d-f89b-4a6a-8c1b-02447cf624fd"},"vehicle_type_id":"4","last_reported":1700526962,"current_range_meters":24000,"station_id":"ce4bh012rcd13ifvqcv0","pricing_plan_id":"free"},{"bike_id":"29c94f60-8671-46a1-810e-4f87c180185c","system_id":"levelo_inurba_marseille","lat":43.309038,"lon":5.396546,"is_reserved":false,"is_disabled":false,"rental_uris":{"android":"levelo://app?vid=29c94f60-8671-46a1-810e-4f87c180185c","ios":"levelo://app?vid=29c94f60-8671-46a1-810e-4f87c180185c"},"vehicle_type_id":"4","last_reported":1700526962,"current_range_meters":28400,"station_id":"ce4bh012rcd13ifvqcv0","pricing_plan_id":"free"},{"bike_id":"898369d7-0edf-4846-a9c1-3ad9202b958d","system_id":"levelo_inurba_marseille","lat":43.31327,"lon":5.39688,"is_reserved":false,"is_disabled":false,"rental_uris":{"android":"levelo://app?vid=898369d7-0edf-4846-a9c1-3ad9202b958d","ios":"levelo://app?vid=898369d7-0edf-4846-a9c1-3ad9202b958d"},"vehicle_type_id":"4","last_reported":1700526962,"current_range_meters":0,"station_id":"ce4bgvp2rcd13ifvqcu0","pricing_plan_id":"free"},{"bike_id":"606f1cab-238e-4291-a597-4f1048ecfc21","system_id":"levelo_inurba_marseille","lat":43.309047,"lon":5.396551,"is_reserved":false,"is_disabled":false,"rental_uris":{"android":"levelo://app?vid=606f1cab-238e-4291-a597-4f1048ecfc21","ios":"levelo://app?vid=606f1cab-238e-4291-a597-4f1048ecfc21"},"vehicle_type_id":"4","last_reported":1700526962,"current_range_meters":0,"station_id":"ce4bh012rcd13ifvqcv0","pricing_plan_id":"free"},{"bike_id":"74fc9d97-8b0e-4c6c-8395-074149e27619","system_id":"levelo_inurba_marseille","lat":43.313318,"lon":5.396914,"is_reserved":false,"is_disabled":false,"rental_uris":{"android":"levelo://app?vid=74fc9d97-8b0e-4c6c-8395-074149e27619","ios":"levelo://app?vid=74fc9d97-8b0e-4c6c-8395-074149e27619"},"vehicle_type_id":"4","last_reported":1700526962,"current_range_meters":13600,"station_id":"ce4bgvp2rcd13ifvqcu0","pricing_plan_id":"free"},{"bike_id":"02ef4d4a-8fd7-4eaa-aba2-131381ee1c2f","system_id":"levelo_inurba_marseille","lat":43.31323,"lon":5.39693,"is_reserved":false,"is_disabled":false,"rental_uris":{"android":"levelo://app?vid=02ef4d4a-8fd7-4eaa-aba2-131381ee1c2f","ios":"levelo://app?vid=02ef4d4a-8fd7-4eaa-aba2-131381ee1c2f"},"vehicle_type_id":"4","last_reported":1700526962,"current_range_meters":23600,"station_id":"ce4bgvp2rcd13ifvqcu0","pricing_plan_id":"free"},{"bike_id":"35791023-6349-462b-b332-6ed328942524","system_id":"levelo_inurba_marseille","lat":43.309047,"lon":5.396551,"is_reserved":false,"is_disabled":false,"rental_uris":{"android":"levelo://app?vid=35791023-6349-462b-b332-6ed328942524","ios":"levelo://app?vid=35791023-6349-462b-b332-6ed328942524"},"vehicle_type_id":"4","last_reported":1700526962,"current_range_meters":31600,"station_id":"ce4bh012rcd13ifvqcv0","pricing_plan_id":"free"},{"bike_id":"144ef5af-6bf2-4aaf-a82c-4e530be81325","system_id":"levelo_inurba_marseille","lat":43.31327,"lon":5.39694,"is_reserved":false,"is_disabled":false,"rental_uris":{"android":"levelo://app?vid=144ef5af-6bf2-4aaf-a82c-4e530be81325","ios":"levelo://app?vid=144ef5af-6bf2-4aaf-a82c-4e530be81325"},"vehicle_type_id":"4","last_reported":1700526962,"current_range_meters":10400,"station_id":"ce4bgvp2rcd13ifvqcu0","pricing_plan_id":"free"},{"bike_id":"199c2c74-b634-4795-9c8e-c751d3e0c5d8","system_id":"levelo_inurba_marseille","lat":43.31329,"lon":5.39694,"is_reserved":false,"is_disabled":false,"rental_uris":{"android":"levelo://app?vid=199c2c74-b634-4795-9c8e-c751d3e0c5d8","ios":"levelo://app?vid=199c2c74-b634-4795-9c8e-c751d3e0c5d8"},"vehicle_type_id":"4","last_reported":1700526962,"current_range_meters":22000,"station_id":"ce4bgvp2rcd13ifvqcu0","pricing_plan_id":"free"},{"bike_id":"e3b924f1-4868-4c09-8fbb-683280c54505","system_id":"levelo_inurba_marseille","lat":43.313291,"lon":5.396838,"is_reserved":false,"is_disabled":false,"rental_uris":{"android":"levelo://app?vid=e3b924f1-4868-4c09-8fbb-683280c54505","ios":"levelo://app?vid=e3b924f1-4868-4c09-8fbb-683280c54505"},"vehicle_type_id":"4","last_reported":1700526962,"current_range_meters":27200,"station_id":"ce4bgvp2rcd13ifvqcu0","pricing_plan_id":"free"},{"bike_id":"83ffd5c9-4788-44f3-937c-c0bed0ba13df","system_id":"levelo_inurba_marseille","lat":43.309047,"lon":5.396551,"is_reserved":false,"is_disabled":false,"rental_uris":{"android":"levelo://app?vid=83ffd5c9-4788-44f3-937c-c0bed0ba13df","ios":"levelo://app?vid=83ffd5c9-4788-44f3-937c-c0bed0ba13df"},"vehicle_type_id":"4","last_reported":1700526962,"current_range_meters":23200,"station_id":"ce4bh012rcd13ifvqcv0","pricing_plan_id":"free"},{"bike_id":"b58b0c72-4687-477b-8560-aa1341fb0614","system_id":"levelo_inurba_marseille","lat":43.309038,"lon":5.396546,"is_reserved":false,"is_disabled":false,"rental_uris":{"android":"levelo://app?vid=b58b0c72-4687-477b-8560-aa1341fb0614","ios":"levelo://app?vid=b58b0c72-4687-477b-8560-aa1341fb0614"},"vehicle_type_id":"4","last_reported":1700526962,"current_range_meters":800,"station_id":"ce4bh012rcd13ifvqcv0","pricing_plan_id":"free"},{"bike_id":"6d0acfd0-a987-48bb-9be4-54334897d613","system_id":"levelo_inurba_marseille","lat":43.309038,"lon":5.396546,"is_reserved":false,"is_disabled":false,"rental_uris":{"android":"levelo://app?vid=6d0acfd0-a987-48bb-9be4-54334897d613","ios":"levelo://app?vid=6d0acfd0-a987-48bb-9be4-54334897d613"},"vehicle_type_id":"4","last_reported":1700526962,"current_range_meters":16000,"station_id":"ce4bh012rcd13ifvqcv0","pricing_plan_id":"free"},{"bike_id":"b20ebddc-afc4-4a99-b3d0-b035573cbd9d","system_id":"levelo_inurba_marseille","lat":43.290624,"lon":5.359245,"is_reserved":false,"is_disabled":false,"rental_uris":{"android":"levelo://app?vid=b20ebddc-afc4-4a99-b3d0-b035573cbd9d","ios":"levelo://app?vid=b20ebddc-afc4-4a99-b3d0-b035573cbd9d"},"vehicle_type_id":"4","last_reported":1700526962,"current_range_meters":28000,"station_id":"ce4bha92rcd13ifvqeg0","pricing_plan_id":"free"},{"bike_id":"fcf5f674-90b2-47db-8ca8-8215bf1f56b2","system_id":"levelo_inurba_marseille","lat":43.290624,"lon":5.359245,"is_reserved":false,"is_disabled":false,"rental_uris":{"android":"levelo://app?vid=fcf5f674-90b2-47db-8ca8-8215bf1f56b2","ios":"levelo://app?vid=fcf5f674-90b2-47db-8ca8-8215bf1f56b2"},"vehicle_type_id":"4","last_reported":1700526962,"current_range_meters":30000,"station_id":"ce4bha92rcd13ifvqeg0","pricing_plan_id":"free"},{"bike_id":"a3b6727d-9fd0-4191-8b4a-8db82d7699b2","system_id":"levelo_inurba_marseille","lat":43.316643,"lon":5.398175,"is_reserved":false,"is_disabled":false,"rental_uris":{"android":"levelo://app?vid=a3b6727d-9fd0-4191-8b4a-8db82d7699b2","ios":"levelo://app?vid=a3b6727d-9fd0-4191-8b4a-8db82d7699b2"},"vehicle_type_id":"4","last_reported":1700526962,"current_range_meters":0,"station_id":"ce4bgvp2rcd13ifvqcu0","pricing_plan_id":"free"},{"bike_id":"8dd013f6-6ffb-4f5e-b6e5-3ae41f3453ea","system_id":"levelo_inurba_marseille","lat":43.289466,"lon":5.364026,"is_reserved":false,"is_disabled":false,"rental_uris":{"android":"levelo://app?vid=8dd013f6-6ffb-4f5e-b6e5-3ae41f3453ea","ios":"levelo://app?vid=8dd013f6-6ffb-4f5e-b6e5-3ae41f3453ea"},"vehicle_type_id":"4","last_reported":1700526962,"current_range_meters":31200,"station_id":"ce4bhc92rcd13ifvqetg","pricing_plan_id":"free"},{"bike_id":"1f85aec7-42ac-42c9-a6e8-b0323af62dfe","system_id":"levelo_inurba_marseille","lat":43.289427,"lon":5.363928,"is_reserved":false,"is_disabled":false,"rental_uris":{"android":"levelo://app?vid=1f85aec7-42ac-42c9-a6e8-b0323af62dfe","ios":"levelo://app?vid=1f85aec7-42ac-42c9-a6e8-b0323af62dfe"},"vehicle_type_id":"4","last_reported":1700526962,"current_range_meters":31200,"station_id":"ce4bhc92rcd13ifvqetg","pricing_plan_id":"free"},{"bike_id":"ad4cdf3c-438d-470b-9c9d-01fe2aa0c0bd","system_id":"levelo_inurba_marseille","lat":43.28941,"lon":5.363937,"is_reserved":false,"is_disabled":false,"rental_uris":{"android":"levelo://app?vid=ad4cdf3c-438d-470b-9c9d-01fe2aa0c0bd","ios":"levelo://app?vid=ad4cdf3c-438d-470b-9c9d-01fe2aa0c0bd"},"vehicle_type_id":"4","last_reported":1700526962,"current_range_meters":28800,"station_id":"ce4bhc92rcd13ifvqetg","pricing_plan_id":"free"},{"bike_id":"05037645-00e1-48cc-9c55-7c835e0a0b6e","system_id":"levelo_inurba_marseille","lat":43.304296,"lon":5.397513,"is_reserved":false,"is_disabled":false,"rental_uris":{"android":"levelo://app?vid=05037645-00e1-48cc-9c55-7c835e0a0b6e","ios":"levelo://app?vid=05037645-00e1-48cc-9c55-7c835e0a0b6e"},"vehicle_type_id":"4","last_reported":1700526962,"current_range_meters":14800,"station_id":"ce4bh092rcd13ifvqd20","pricing_plan_id":"free"},{"bike_id":"c595ad11-c7ba-48a3-943b-5adaa1a14c92","system_id":"levelo_inurba_marseille","lat":43.330389,"lon":5.389238,"is_reserved":false,"is_disabled":false,"rental_uris":{"android":"levelo://app?vid=c595ad11-c7ba-48a3-943b-5adaa1a14c92","ios":"levelo://app?vid=c595ad11-c7ba-48a3-943b-5adaa1a14c92"},"vehicle_type_id":"4","last_reported":1700526962,"current_range_meters":11600,"station_id":"ce4bhr92rcd13ifvqhrg","pricing_plan_id":"free"},{"bike_id":"a8f39741-84c2-4c97-bef1-d094abcf5b56","system_id":"levelo_inurba_marseille","lat":43.33045,"lon":5.38916,"is_reserved":false,"is_disabled":false,"rental_uris":{"android":"levelo://app?vid=a8f39741-84c2-4c97-bef1-d094abcf5b56","ios":"levelo://app?vid=a8f39741-84c2-4c97-bef1-d094abcf5b56"},"vehicle_type_id":"4","last_reported":1700526962,"current_range_meters":0,"station_id":"ce4bhr92rcd13ifvqhrg","pricing_plan_id":"free"},{"bike_id":"b316c6d1-cdc3-42d1-9e5b-25f37e786475","system_id":"levelo_inurba_marseille","lat":43.33043,"lon":5.38927,"is_reserved":false,"is_disabled":false,"rental_uris":{"android":"levelo://app?vid=b316c6d1-cdc3-42d1-9e5b-25f37e786475","ios":"levelo://app?vid=b316c6d1-cdc3-42d1-9e5b-25f37e786475"},"vehicle_type_id":"4","last_reported":1700526962,"current_range_meters":21200,"station_id":"ce4bhr92rcd13ifvqhrg","pricing_plan_id":"free"},{"bike_id":"e96969f2-30ff-4c2f-94d6-b7638aebaeb2","system_id":"levelo_inurba_marseille","lat":43.28991,"lon":5.35617,"is_reserved":false,"is_disabled":false,"rental_uris":{"android":"levelo://app?vid=e96969f2-30ff-4c2f-94d6-b7638aebaeb2","ios":"levelo://app?vid=e96969f2-30ff-4c2f-94d6-b7638aebaeb2"},"vehicle_type_id":"4","last_reported":1700526962,"current_range_meters":0,"station_id":"ce4bhb92rcd13ifvqen0","pricing_plan_id":"free"},{"bike_id":"bf17e72d-4bf7-4e9c-8f3d-37bb7268593b","system_id":"levelo_inurba_marseille","lat":43.297902,"lon":5.393361,"is_reserved":false,"is_disabled":false,"rental_uris":{"android":"levelo://app?vid=bf17e72d-4bf7-4e9c-8f3d-37bb7268593b","ios":"levelo://app?vid=bf17e72d-4bf7-4e9c-8f3d-37bb7268593b"},"vehicle_type_id":"4","last_reported":1700526962,"current_range_meters":27600,"station_id":"chh1huq6cuj3fo74tm60","pricing_plan_id":"free"},{"bike_id":"4b7cfc4c-f605-43ec-bde2-89297985a33f","system_id":"levelo_inurba_marseille","lat":43.297938,"lon":5.3934,"is_reserved":false,"is_disabled":false,"rental_uris":{"android":"levelo://app?vid=4b7cfc4c-f605-43ec-bde2-89297985a33f","ios":"levelo://app?vid=4b7cfc4c-f605-43ec-bde2-89297985a33f"},"vehicle_type_id":"4","last_reported":1700526962,"current_range_meters":28800,"station_id":"chh1huq6cuj3fo74tm60","pricing_plan_id":"free"},{"bike_id":"b01adbf1-78ec-4501-86bc-66682808ccb3","system_id":"levelo_inurba_marseille","lat":43.295218,"lon":5.390431,"is_reserved":false,"is_disabled":false,"rental_uris":{"android":"levelo://app?vid=b01adbf1-78ec-4501-86bc-66682808ccb3","ios":"levelo://app?vid=b01adbf1-78ec-4501-86bc-66682808ccb3"},"vehicle_type_id":"4","last_reported":1700526962,"current_range_meters":0,"station_id":"ce4bh3p2rcd13ifvqdp0","pricing_plan_id":"free"},{"bike_id":"e9f6f42d-4c7d-4d4a-afab-a16a10bb77be","system_id":"levelo_inurba_marseille","lat":43.295169,"lon":5.390426,"is_reserved":false,"is_disabled":false,"rental_uris":{"android":"levelo://app?vid=e9f6f42d-4c7d-4d4a-afab-a16a10bb77be","ios":"levelo://app?vid=e9f6f42d-4c7d-4d4a-afab-a16a10bb77be"},"vehicle_type_id":"4","last_reported":1700526962,"current_range_meters":30000,"station_id":"ce4bh3p2rcd13ifvqdp0","pricing_plan_id":"free"},{"bike_id":"d31d982f-0fd8-4b38-baf9-65ff26e3dc6c","system_id":"levelo_inurba_marseille","lat":43.288402,"lon":5.358518,"is_reserved":false,"is_disabled":false,"rental_uris":{"android":"levelo://app?vid=d31d982f-0fd8-4b38-baf9-65ff26e3dc6c","ios":"levelo://app?vid=d31d982f-0fd8-4b38-baf9-65ff26e3dc6c"},"vehicle_type_id":"4","last_reported":1700526962,"current_range_meters":30800,"station_id":"ce4bhb12rcd13ifvqem0","pricing_plan_id":"free"},{"bike_id":"aad9a792-6976-4183-919a-aef819ff2e25","system_id":"levelo_inurba_marseille","lat":43.31251,"lon":5.40162,"is_reserved":false,"is_disabled":false,"rental_uris":{"android":"levelo://app?vid=aad9a792-6976-4183-919a-aef819ff2e25","ios":"levelo://app?vid=aad9a792-6976-4183-919a-aef819ff2e25"},"vehicle_type_id":"4","last_reported":1700526962,"current_range_meters":5200,"station_id":"","pricing_plan_id":"free"},{"bike_id":"cd51f2b7-1c7a-423f-b786-d0963b93bc6f","system_id":"levelo_inurba_marseille","lat":43.309371,"lon":5.401449,"is_reserved":false,"is_disabled":false,"rental_uris":{"android":"levelo://app?vid=cd51f2b7-1c7a-423f-b786-d0963b93bc6f","ios":"levelo://app?vid=cd51f2b7-1c7a-423f-b786-d0963b93bc6f"},"vehicle_type_id":"4","last_reported":1700526962,"current_range_meters":14400,"station_id":"ce4bgvp2rcd13ifvqct0","pricing_plan_id":"free"},{"bike_id":"bb67d680-b24b-47ed-8fd4-f19d015f72d2","system_id":"levelo_inurba_marseille","lat":43.312829,"lon":5.401749,"is_reserved":false,"is_disabled":false,"rental_uris":{"android":"levelo://app?vid=bb67d680-b24b-47ed-8fd4-f19d015f72d2","ios":"levelo://app?vid=bb67d680-b24b-47ed-8fd4-f19d015f72d2"},"vehicle_type_id":"4","last_reported":1700526962,"current_range_meters":30000,"station_id":"ce4bh092rcd13ifvqd30","pricing_plan_id":"free"},{"bike_id":"7f122f85-b45a-4eb1-8006-c5073f4d69f3","system_id":"levelo_inurba_marseille","lat":43.309371,"lon":5.401449,"is_reserved":false,"is_disabled":false,"rental_uris":{"android":"levelo://app?vid=7f122f85-b45a-4eb1-8006-c5073f4d69f3","ios":"levelo://app?vid=7f122f85-b45a-4eb1-8006-c5073f4d69f3"},"vehicle_type_id":"4","last_reported":1700526962,"current_range_meters":0,"station_id":"ce4bgvp2rcd13ifvqct0","pricing_plan_id":"free"},{"bike_id":"7e8bac27-6ca8-4b69-b3ff-3142809f20be","system_id":"levelo_inurba_marseille","lat":43.309371,"lon":5.401449,"is_reserved":false,"is_disabled":false,"rental_uris":{"android":"levelo://app?vid=7e8bac27-6ca8-4b69-b3ff-3142809f20be","ios":"levelo://app?vid=7e8bac27-6ca8-4b69-b3ff-3142809f20be"},"vehicle_type_id":"4","last_reported":1700526962,"current_range_meters":25200,"station_id":"ce4bgvp2rcd13ifvqct0","pricing_plan_id":"free"},{"bike_id":"abb877fb-5940-464e-bb23-546a9d06eedf","system_id":"levelo_inurba_marseille","lat":43.30642,"lon":5.401031,"is_reserved":false,"is_disabled":false,"rental_uris":{"android":"levelo://app?vid=abb877fb-5940-464e-bb23-546a9d06eedf","ios":"levelo://app?vid=abb877fb-5940-464e-bb23-546a9d06eedf"},"vehicle_type_id":"4","last_reported":1700526962,"current_range_meters":8800,"station_id":"ce4bh112rcd13ifvqda0","pricing_plan_id":"free"},{"bike_id":"b18f7129-ad48-4614-b1e6-0bd0d07bb9cc","system_id":"levelo_inurba_marseille","lat":43.3064,"lon":5.40081,"is_reserved":false,"is_disabled":false,"rental_uris":{"android":"levelo://app?vid=b18f7129-ad48-4614-b1e6-0bd0d07bb9cc","ios":"levelo://app?vid=b18f7129-ad48-4614-b1e6-0bd0d07bb9cc"},"vehicle_type_id":"4","last_reported":1700526962,"current_range_meters":10400,"station_id":"ce4bh112rcd13ifvqda0","pricing_plan_id":"free"},{"bike_id":"8693d43e-7c67-4239-9915-bdd625f6c60d","system_id":"levelo_inurba_marseille","lat":43.28727,"lon":5.36078,"is_reserved":false,"is_disabled":false,"rental_uris":{"android":"levelo://app?vid=8693d43e-7c67-4239-9915-bdd625f6c60d","ios":"levelo://app?vid=8693d43e-7c67-4239-9915-bdd625f6c60d"},"vehicle_type_id":"4","last_reported":1700526962,"current_range_meters":2000,"station_id":"cki0cbj6b192h4jlfktg","pricing_plan_id":"free"},{"bike_id":"89638828-1fdc-423c-9e5a-b0233882246f","system_id":"levelo_inurba_marseille","lat":43.28727,"lon":5.36078,"is_reserved":false,"is_disabled":false,"rental_uris":{"android":"levelo://app?vid=89638828-1fdc-423c-9e5a-b0233882246f","ios":"levelo://app?vid=89638828-1fdc-423c-9e5a-b0233882246f"},"vehicle_type_id":"4","last_reported":1700526962,"current_range_meters":28800,"station_id":"cki0cbj6b192h4jlfktg","pricing_plan_id":"free"},{"bike_id":"c58b4322-360f-482a-b067-faa886cf43fd","system_id":"levelo_inurba_marseille","lat":43.28727,"lon":5.36078,"is_reserved":false,"is_disabled":false,"rental_uris":{"android":"levelo://app?vid=c58b4322-360f-482a-b067-faa886cf43fd","ios":"levelo://app?vid=c58b4322-360f-482a-b067-faa886cf43fd"},"vehicle_type_id":"4","last_reported":1700526962,"current_range_meters":31200,"station_id":"cki0cbj6b192h4jlfktg","pricing_plan_id":"free"},{"bike_id":"5d2f2a66-ab11-4632-a547-faac941783b0","system_id":"levelo_inurba_marseille","lat":43.28727,"lon":5.36078,"is_reserved":false,"is_disabled":false,"rental_uris":{"android":"levelo://app?vid=5d2f2a66-ab11-4632-a547-faac941783b0","ios":"levelo://app?vid=5d2f2a66-ab11-4632-a547-faac941783b0"},"vehicle_type_id":"4","last_reported":1700526962,"current_range_meters":31200,"station_id":"cki0cbj6b192h4jlfktg","pricing_plan_id":"free"},{"bike_id":"a9ca8184-0af5-47b2-86f0-0780e0dee8a8","system_id":"levelo_inurba_marseille","lat":43.28727,"lon":5.36078,"is_reserved":false,"is_disabled":false,"rental_uris":{"android":"levelo://app?vid=a9ca8184-0af5-47b2-86f0-0780e0dee8a8","ios":"levelo://app?vid=a9ca8184-0af5-47b2-86f0-0780e0dee8a8"},"vehicle_type_id":"4","last_reported":1700526962,"current_range_meters":0,"station_id":"cki0cbj6b192h4jlfktg","pricing_plan_id":"free"},{"bike_id":"1c1d4005-29cf-4146-8cb5-f658a46fd606","system_id":"levelo_inurba_marseille","lat":43.286591,"lon":5.363346,"is_reserved":false,"is_disabled":false,"rental_uris":{"android":"levelo://app?vid=1c1d4005-29cf-4146-8cb5-f658a46fd606","ios":"levelo://app?vid=1c1d4005-29cf-4146-8cb5-f658a46fd606"},"vehicle_type_id":"4","last_reported":1700526962,"current_range_meters":30000,"station_id":"ce4bhah2rcd13ifvqej0","pricing_plan_id":"free"},{"bike_id":"e1a3bc3f-64a8-42df-9e00-95d912e6a3ff","system_id":"levelo_inurba_marseille","lat":43.286593,"lon":5.363346,"is_reserved":false,"is_disabled":false,"rental_uris":{"android":"levelo://app?vid=e1a3bc3f-64a8-42df-9e00-95d912e6a3ff","ios":"levelo://app?vid=e1a3bc3f-64a8-42df-9e00-95d912e6a3ff"},"vehicle_type_id":"4","last_reported":1700526962,"current_range_meters":29200,"station_id":"ce4bhah2rcd13ifvqej0","pricing_plan_id":"free"},{"bike_id":"9765428d-a3d7-4f4e-8028-76ba006c1945","system_id":"levelo_inurba_marseille","lat":43.286593,"lon":5.363346,"is_reserved":false,"is_disabled":false,"rental_uris":{"android":"levelo://app?vid=9765428d-a3d7-4f4e-8028-76ba006c1945","ios":"levelo://app?vid=9765428d-a3d7-4f4e-8028-76ba006c1945"},"vehicle_type_id":"4","last_reported":1700526962,"current_range_meters":29200,"station_id":"ce4bhah2rcd13ifvqej0","pricing_plan_id":"free"},{"bike_id":"05501a05-fa03-44df-a2b1-c0744b0bf3cd","system_id":"levelo_inurba_marseille","lat":43.298681,"lon":5.397225,"is_reserved":false,"is_disabled":false,"rental_uris":{"android":"levelo://app?vid=05501a05-fa03-44df-a2b1-c0744b0bf3cd","ios":"levelo://app?vid=05501a05-fa03-44df-a2b1-c0744b0bf3cd"},"vehicle_type_id":"4","last_reported":1700526962,"current_range_meters":13200,"station_id":"ce4bh0h2rcd13ifvqd50","pricing_plan_id":"free"},{"bike_id":"47ca1d63-af5c-40ac-ab10-8012ddf887c2","system_id":"levelo_inurba_marseille","lat":43.295194,"lon":5.39397,"is_reserved":false,"is_disabled":false,"rental_uris":{"android":"levelo://app?vid=47ca1d63-af5c-40ac-ab10-8012ddf887c2","ios":"levelo://app?vid=47ca1d63-af5c-40ac-ab10-8012ddf887c2"},"vehicle_type_id":"4","last_reported":1700526962,"current_range_meters":800,"station_id":"ce4bh292rcd13ifvqdf0","pricing_plan_id":"free"},{"bike_id":"11103850-fc3c-4312-8ea8-950751cd4e26","system_id":"levelo_inurba_marseille","lat":43.295194,"lon":5.39397,"is_reserved":false,"is_disabled":false,"rental_uris":{"android":"levelo://app?vid=11103850-fc3c-4312-8ea8-950751cd4e26","ios":"levelo://app?vid=11103850-fc3c-4312-8ea8-950751cd4e26"},"vehicle_type_id":"4","last_reported":1700526962,"current_range_meters":2000,"station_id":"ce4bh292rcd13ifvqdf0","pricing_plan_id":"free"},{"bike_id":"6364ee3d-e03d-4942-af2d-86e97b40aa23","system_id":"levelo_inurba_marseille","lat":43.29028,"lon":5.38651,"is_reserved":false,"is_disabled":false,"rental_uris":{"android":"levelo://app?vid=6364ee3d-e03d-4942-af2d-86e97b40aa23","ios":"levelo://app?vid=6364ee3d-e03d-4942-af2d-86e97b40aa23"},"vehicle_type_id":"4","last_reported":1700526962,"current_range_meters":0,"station_id":"","pricing_plan_id":"free"},{"bike_id":"b9c32eac-3391-42a6-afe0-cb8d93337fec","system_id":"levelo_inurba_marseille","lat":43.302759,"lon":5.400793,"is_reserved":false,"is_disabled":false,"rental_uris":{"android":"levelo://app?vid=b9c32eac-3391-42a6-afe0-cb8d93337fec","ios":"levelo://app?vid=b9c32eac-3391-42a6-afe0-cb8d93337fec"},"vehicle_type_id":"4","last_reported":1700526962,"current_range_meters":27600,"station_id":"ce4bgvh2rcd13ifvqcs0","pricing_plan_id":"free"},{"bike_id":"982bbc4b-d9bb-4e09-8894-ace0e46e85de","system_id":"levelo_inurba_marseille","lat":43.289307,"lon":5.38406,"is_reserved":false,"is_disabled":false,"rental_uris":{"android":"levelo://app?vid=982bbc4b-d9bb-4e09-8894-ace0e46e85de","ios":"levelo://app?vid=982bbc4b-d9bb-4e09-8894-ace0e46e85de"},"vehicle_type_id":"4","last_reported":1700526962,"current_range_meters":3600,"station_id":"ce4bh612rcd13ifvqe6g","pricing_plan_id":"free"},{"bike_id":"80660ebb-0728-4afa-bfed-b5d93a8eb350","system_id":"levelo_inurba_marseille","lat":43.286039,"lon":5.370681,"is_reserved":false,"is_disabled":false,"rental_uris":{"android":"levelo://app?vid=80660ebb-0728-4afa-bfed-b5d93a8eb350","ios":"levelo://app?vid=80660ebb-0728-4afa-bfed-b5d93a8eb350"},"vehicle_type_id":"4","last_reported":1700526962,"current_range_meters":28000,"station_id":"ce4bht12rcd13ifvqi60","pricing_plan_id":"free"},{"bike_id":"1ab4356b-5cd2-458a-9b07-0c8dbc8bac0a","system_id":"levelo_inurba_marseille","lat":43.286039,"lon":5.370681,"is_reserved":false,"is_disabled":false,"rental_uris":{"android":"levelo://app?vid=1ab4356b-5cd2-458a-9b07-0c8dbc8bac0a","ios":"levelo://app?vid=1ab4356b-5cd2-458a-9b07-0c8dbc8bac0a"},"vehicle_type_id":"4","last_reported":1700526962,"current_range_meters":24400,"station_id":"ce4bht12rcd13ifvqi60","pricing_plan_id":"free"},{"bike_id":"ac338cca-4835-443c-ad40-854b3381be4c","system_id":"levelo_inurba_marseille","lat":43.287184,"lon":5.37937,"is_reserved":false,"is_disabled":false,"rental_uris":{"android":"levelo://app?vid=ac338cca-4835-443c-ad40-854b3381be4c","ios":"levelo://app?vid=ac338cca-4835-443c-ad40-854b3381be4c"},"vehicle_type_id":"4","last_reported":1700526962,"current_range_meters":21200,"station_id":"ce4bh9p2rcd13ifvqec0","pricing_plan_id":"free"},{"bike_id":"89396e33-b524-46cf-aca3-8146ecd85dce","system_id":"levelo_inurba_marseille","lat":43.287185,"lon":5.379373,"is_reserved":false,"is_disabled":false,"rental_uris":{"android":"levelo://app?vid=89396e33-b524-46cf-aca3-8146ecd85dce","ios":"levelo://app?vid=89396e33-b524-46cf-aca3-8146ecd85dce"},"vehicle_type_id":"4","last_reported":1700526962,"current_range_meters":28400,"station_id":"ce4bh9p2rcd13ifvqec0","pricing_plan_id":"free"},{"bike_id":"89f8e323-8339-4bcd-8c3e-d3ae708e8638","system_id":"levelo_inurba_marseille","lat":43.287185,"lon":5.379373,"is_reserved":false,"is_disabled":false,"rental_uris":{"android":"levelo://app?vid=89f8e323-8339-4bcd-8c3e-d3ae708e8638","ios":"levelo://app?vid=89f8e323-8339-4bcd-8c3e-d3ae708e8638"},"vehicle_type_id":"4","last_reported":1700526962,"current_range_meters":2800,"station_id":"ce4bh9p2rcd13ifvqec0","pricing_plan_id":"free"},{"bike_id":"88d3c175-93d0-4fa6-9492-0145df2e4146","system_id":"levelo_inurba_marseille","lat":43.287185,"lon":5.379373,"is_reserved":false,"is_disabled":false,"rental_uris":{"android":"levelo://app?vid=88d3c175-93d0-4fa6-9492-0145df2e4146","ios":"levelo://app?vid=88d3c175-93d0-4fa6-9492-0145df2e4146"},"vehicle_type_id":"4","last_reported":1700526962,"current_range_meters":9200,"station_id":"ce4bh9p2rcd13ifvqec0","pricing_plan_id":"free"},{"bike_id":"cee46f8e-08a3-4b68-bb49-1ddf460f22b3","system_id":"levelo_inurba_marseille","lat":43.31645,"lon":5.40433,"is_reserved":false,"is_disabled":false,"rental_uris":{"android":"levelo://app?vid=cee46f8e-08a3-4b68-bb49-1ddf460f22b3","ios":"levelo://app?vid=cee46f8e-08a3-4b68-bb49-1ddf460f22b3"},"vehicle_type_id":"4","last_reported":1700526962,"current_range_meters":800,"station_id":"ce4bh012rcd13ifvqd00","pricing_plan_id":"free"},{"bike_id":"3c6cad4f-5bbe-490e-8526-0ec18caf9066","system_id":"levelo_inurba_marseille","lat":43.31643,"lon":5.40434,"is_reserved":false,"is_disabled":false,"rental_uris":{"android":"levelo://app?vid=3c6cad4f-5bbe-490e-8526-0ec18caf9066","ios":"levelo://app?vid=3c6cad4f-5bbe-490e-8526-0ec18caf9066"},"vehicle_type_id":"4","last_reported":1700526962,"current_range_meters":17200,"station_id":"ce4bh012rcd13ifvqd00","pricing_plan_id":"free"},{"bike_id":"bb208950-e948-4a7b-9ffd-ded8e1141c02","system_id":"levelo_inurba_marseille","lat":43.292039,"lon":5.393176,"is_reserved":false,"is_disabled":false,"rental_uris":{"android":"levelo://app?vid=bb208950-e948-4a7b-9ffd-ded8e1141c02","ios":"levelo://app?vid=bb208950-e948-4a7b-9ffd-ded8e1141c02"},"vehicle_type_id":"4","last_reported":1700526962,"current_range_meters":13200,"station_id":"ce4bh192rcd13ifvqdd0","pricing_plan_id":"free"},{"bike_id":"83f7ef62-ecd6-40c8-87ea-ce78f7935b54","system_id":"levelo_inurba_marseille","lat":43.291973,"lon":5.393153,"is_reserved":false,"is_disabled":false,"rental_uris":{"android":"levelo://app?vid=83f7ef62-ecd6-40c8-87ea-ce78f7935b54","ios":"levelo://app?vid=83f7ef62-ecd6-40c8-87ea-ce78f7935b54"},"vehicle_type_id":"4","last_reported":1700526962,"current_range_meters":21600,"station_id":"ce4bh192rcd13ifvqdd0","pricing_plan_id":"free"},{"bike_id":"ed0a3756-4267-4e49-8b54-f97ee2751952","system_id":"levelo_inurba_marseille","lat":43.291994,"lon":5.392907,"is_reserved":false,"is_disabled":false,"rental_uris":{"android":"levelo://app?vid=ed0a3756-4267-4e49-8b54-f97ee2751952","ios":"levelo://app?vid=ed0a3756-4267-4e49-8b54-f97ee2751952"},"vehicle_type_id":"4","last_reported":1700526962,"current_range_meters":4400,"station_id":"ce4bh192rcd13ifvqdd0","pricing_plan_id":"free"},{"bike_id":"47b31351-306a-4af1-9c51-3543f87cb08f","system_id":"levelo_inurba_marseille","lat":43.291994,"lon":5.392907,"is_reserved":false,"is_disabled":false,"rental_uris":{"android":"levelo://app?vid=47b31351-306a-4af1-9c51-3543f87cb08f","ios":"levelo://app?vid=47b31351-306a-4af1-9c51-3543f87cb08f"},"vehicle_type_id":"4","last_reported":1700526962,"current_range_meters":18800,"station_id":"ce4bh192rcd13ifvqdd0","pricing_plan_id":"free"},{"bike_id":"1c993c5b-a5d5-4005-a325-c0dceb933c4e","system_id":"levelo_inurba_marseille","lat":43.291994,"lon":5.392907,"is_reserved":false,"is_disabled":false,"rental_uris":{"android":"levelo://app?vid=1c993c5b-a5d5-4005-a325-c0dceb933c4e","ios":"levelo://app?vid=1c993c5b-a5d5-4005-a325-c0dceb933c4e"},"vehicle_type_id":"4","last_reported":1700526962,"current_range_meters":7200,"station_id":"ce4bh192rcd13ifvqdd0","pricing_plan_id":"free"},{"bike_id":"35132f94-9ed4-4f70-8cc8-d0584d357ba2","system_id":"levelo_inurba_marseille","lat":43.28465,"lon":5.35893,"is_reserved":false,"is_disabled":false,"rental_uris":{"android":"levelo://app?vid=35132f94-9ed4-4f70-8cc8-d0584d357ba2","ios":"levelo://app?vid=35132f94-9ed4-4f70-8cc8-d0584d357ba2"},"vehicle_type_id":"4","last_reported":1700526962,"current_range_meters":31200,"station_id":"ce4bhah2rcd13ifvqei0","pricing_plan_id":"free"},{"bike_id":"3937158d-e3a8-4872-b0a3-5aa7c94b1d14","system_id":"levelo_inurba_marseille","lat":43.284538,"lon":5.358657,"is_reserved":false,"is_disabled":false,"rental_uris":{"android":"levelo://app?vid=3937158d-e3a8-4872-b0a3-5aa7c94b1d14","ios":"levelo://app?vid=3937158d-e3a8-4872-b0a3-5aa7c94b1d14"},"vehicle_type_id":"4","last_reported":1700526962,"current_range_meters":28800,"station_id":"ce4bhah2rcd13ifvqei0","pricing_plan_id":"free"},{"bike_id":"ab685fbe-d919-4293-92c1-db32baca0ff7","system_id":"levelo_inurba_marseille","lat":43.28465,"lon":5.35884,"is_reserved":false,"is_disabled":false,"rental_uris":{"android":"levelo://app?vid=ab685fbe-d919-4293-92c1-db32baca0ff7","ios":"levelo://app?vid=ab685fbe-d919-4293-92c1-db32baca0ff7"},"vehicle_type_id":"4","last_reported":1700526962,"current_range_meters":30400,"station_id":"ce4bhah2rcd13ifvqei0","pricing_plan_id":"free"},{"bike_id":"cd2cf517-8ac5-449f-ad2f-54090e6299c5","system_id":"levelo_inurba_marseille","lat":43.284538,"lon":5.358657,"is_reserved":false,"is_disabled":false,"rental_uris":{"android":"levelo://app?vid=cd2cf517-8ac5-449f-ad2f-54090e6299c5","ios":"levelo://app?vid=cd2cf517-8ac5-449f-ad2f-54090e6299c5"},"vehicle_type_id":"4","last_reported":1700526962,"current_range_meters":31200,"station_id":"ce4bhah2rcd13ifvqei0","pricing_plan_id":"free"},{"bike_id":"1a48db0c-d810-4582-a81d-5dda6fd3c879","system_id":"levelo_inurba_marseille","lat":43.284538,"lon":5.358657,"is_reserved":false,"is_disabled":false,"rental_uris":{"android":"levelo://app?vid=1a48db0c-d810-4582-a81d-5dda6fd3c879","ios":"levelo://app?vid=1a48db0c-d810-4582-a81d-5dda6fd3c879"},"vehicle_type_id":"4","last_reported":1700526962,"current_range_meters":24400,"station_id":"ce4bhah2rcd13ifvqei0","pricing_plan_id":"free"},{"bike_id":"2633d83b-62d9-4981-945d-faceade5a141","system_id":"levelo_inurba_marseille","lat":43.28462,"lon":5.35883,"is_reserved":false,"is_disabled":false,"rental_uris":{"android":"levelo://app?vid=2633d83b-62d9-4981-945d-faceade5a141","ios":"levelo://app?vid=2633d83b-62d9-4981-945d-faceade5a141"},"vehicle_type_id":"4","last_reported":1700526962,"current_range_meters":28800,"station_id":"ce4bhah2rcd13ifvqei0","pricing_plan_id":"free"},{"bike_id":"107ca024-d6e0-4b99-8399-d918210c3502","system_id":"levelo_inurba_marseille","lat":43.284538,"lon":5.358657,"is_reserved":false,"is_disabled":false,"rental_uris":{"android":"levelo://app?vid=107ca024-d6e0-4b99-8399-d918210c3502","ios":"levelo://app?vid=107ca024-d6e0-4b99-8399-d918210c3502"},"vehicle_type_id":"4","last_reported":1700526962,"current_range_meters":31200,"station_id":"ce4bhah2rcd13ifvqei0","pricing_plan_id":"free"},{"bike_id":"1c3b4e18-1850-4957-bd14-7a7e60c6cc4a","system_id":"levelo_inurba_marseille","lat":43.284579,"lon":5.358945,"is_reserved":false,"is_disabled":false,"rental_uris":{"android":"levelo://app?vid=1c3b4e18-1850-4957-bd14-7a7e60c6cc4a","ios":"levelo://app?vid=1c3b4e18-1850-4957-bd14-7a7e60c6cc4a"},"vehicle_type_id":"4","last_reported":1700526962,"current_range_meters":29600,"station_id":"ce4bhah2rcd13ifvqei0","pricing_plan_id":"free"},{"bike_id":"26803a62-8bd9-4f47-8fcf-9e710fc2a55e","system_id":"levelo_inurba_marseille","lat":43.2846,"lon":5.3588,"is_reserved":false,"is_disabled":false,"rental_uris":{"android":"levelo://app?vid=26803a62-8bd9-4f47-8fcf-9e710fc2a55e","ios":"levelo://app?vid=26803a62-8bd9-4f47-8fcf-9e710fc2a55e"},"vehicle_type_id":"4","last_reported":1700526962,"current_range_meters":31200,"station_id":"ce4bhah2rcd13ifvqei0","pricing_plan_id":"free"},{"bike_id":"9e62039f-5055-4cc8-a128-7e59f8737422","system_id":"levelo_inurba_marseille","lat":43.284538,"lon":5.358657,"is_reserved":false,"is_disabled":false,"rental_uris":{"android":"levelo://app?vid=9e62039f-5055-4cc8-a128-7e59f8737422","ios":"levelo://app?vid=9e62039f-5055-4cc8-a128-7e59f8737422"},"vehicle_type_id":"4","last_reported":1700526962,"current_range_meters":31200,"station_id":"ce4bhah2rcd13ifvqei0","pricing_plan_id":"free"},{"bike_id":"960f76d4-465d-47f0-9dc3-a85a1a4d6da0","system_id":"levelo_inurba_marseille","lat":43.28456,"lon":5.358917,"is_reserved":false,"is_disabled":false,"rental_uris":{"android":"levelo://app?vid=960f76d4-465d-47f0-9dc3-a85a1a4d6da0","ios":"levelo://app?vid=960f76d4-465d-47f0-9dc3-a85a1a4d6da0"},"vehicle_type_id":"4","last_reported":1700526962,"current_range_meters":31200,"station_id":"ce4bhah2rcd13ifvqei0","pricing_plan_id":"free"},{"bike_id":"cb01bd7d-4dd0-48f7-b5a4-087a25c8636e","system_id":"levelo_inurba_marseille","lat":43.28456,"lon":5.35891,"is_reserved":false,"is_disabled":false,"rental_uris":{"android":"levelo://app?vid=cb01bd7d-4dd0-48f7-b5a4-087a25c8636e","ios":"levelo://app?vid=cb01bd7d-4dd0-48f7-b5a4-087a25c8636e"},"vehicle_type_id":"4","last_reported":1700526962,"current_range_meters":22400,"station_id":"ce4bhah2rcd13ifvqei0","pricing_plan_id":"free"},{"bike_id":"cee97ee0-0e03-4f38-b174-114abb334bce","system_id":"levelo_inurba_marseille","lat":43.284538,"lon":5.358657,"is_reserved":false,"is_disabled":false,"rental_uris":{"android":"levelo://app?vid=cee97ee0-0e03-4f38-b174-114abb334bce","ios":"levelo://app?vid=cee97ee0-0e03-4f38-b174-114abb334bce"},"vehicle_type_id":"4","last_reported":1700526962,"current_range_meters":30400,"station_id":"ce4bhah2rcd13ifvqei0","pricing_plan_id":"free"},{"bike_id":"67f3e8b6-0aee-4781-ad81-0ab708b08251","system_id":"levelo_inurba_marseille","lat":43.284538,"lon":5.358657,"is_reserved":false,"is_disabled":false,"rental_uris":{"android":"levelo://app?vid=67f3e8b6-0aee-4781-ad81-0ab708b08251","ios":"levelo://app?vid=67f3e8b6-0aee-4781-ad81-0ab708b08251"},"vehicle_type_id":"4","last_reported":1700526962,"current_range_meters":30800,"station_id":"ce4bhah2rcd13ifvqei0","pricing_plan_id":"free"},{"bike_id":"f37966fe-41ae-447c-917a-41cb1f883e26","system_id":"levelo_inurba_marseille","lat":43.28451,"lon":5.35885,"is_reserved":false,"is_disabled":false,"rental_uris":{"android":"levelo://app?vid=f37966fe-41ae-447c-917a-41cb1f883e26","ios":"levelo://app?vid=f37966fe-41ae-447c-917a-41cb1f883e26"},"vehicle_type_id":"4","last_reported":1700526962,"current_range_meters":21600,"station_id":"ce4bhah2rcd13ifvqei0","pricing_plan_id":"free"},{"bike_id":"8a45b352-ba94-4938-ba81-8d71eea864d3","system_id":"levelo_inurba_marseille","lat":43.285856,"lon":5.350771,"is_reserved":false,"is_disabled":false,"rental_uris":{"android":"levelo://app?vid=8a45b352-ba94-4938-ba81-8d71eea864d3","ios":"levelo://app?vid=8a45b352-ba94-4938-ba81-8d71eea864d3"},"vehicle_type_id":"4","last_reported":1700526962,"current_range_meters":400,"station_id":"ce4bhch2rcd13ifvqeug","pricing_plan_id":"free"},{"bike_id":"73d95b50-41c7-4761-9e1e-9b814d8ccbcc","system_id":"levelo_inurba_marseille","lat":43.285856,"lon":5.350771,"is_reserved":false,"is_disabled":false,"rental_uris":{"android":"levelo://app?vid=73d95b50-41c7-4761-9e1e-9b814d8ccbcc","ios":"levelo://app?vid=73d95b50-41c7-4761-9e1e-9b814d8ccbcc"},"vehicle_type_id":"4","last_reported":1700526962,"current_range_meters":16800,"station_id":"ce4bhch2rcd13ifvqeug","pricing_plan_id":"free"},{"bike_id":"81f3d1b2-1ab5-459a-8a95-393166a42c1d","system_id":"levelo_inurba_marseille","lat":43.283998,"lon":5.375062,"is_reserved":false,"is_disabled":false,"rental_uris":{"android":"levelo://app?vid=81f3d1b2-1ab5-459a-8a95-393166a42c1d","ios":"levelo://app?vid=81f3d1b2-1ab5-459a-8a95-393166a42c1d"},"vehicle_type_id":"4","last_reported":1700526962,"current_range_meters":8800,"station_id":"ce4bh412rcd13ifvqds0","pricing_plan_id":"free"},{"bike_id":"791dbcea-9589-457a-a131-de9b914b11b4","system_id":"levelo_inurba_marseille","lat":43.286259,"lon":5.383944,"is_reserved":false,"is_disabled":false,"rental_uris":{"android":"levelo://app?vid=791dbcea-9589-457a-a131-de9b914b11b4","ios":"levelo://app?vid=791dbcea-9589-457a-a131-de9b914b11b4"},"vehicle_type_id":"4","last_reported":1700526962,"current_range_meters":0,"station_id":"","pricing_plan_id":"free"},{"bike_id":"f9f461b0-7787-4ecc-ad83-aecd22c70e3a","system_id":"levelo_inurba_marseille","lat":43.283998,"lon":5.375062,"is_reserved":false,"is_disabled":false,"rental_uris":{"android":"levelo://app?vid=f9f461b0-7787-4ecc-ad83-aecd22c70e3a","ios":"levelo://app?vid=f9f461b0-7787-4ecc-ad83-aecd22c70e3a"},"vehicle_type_id":"4","last_reported":1700526962,"current_range_meters":9200,"station_id":"ce4bh412rcd13ifvqds0","pricing_plan_id":"free"},{"bike_id":"a3c7db83-9295-4c0b-aec6-ce6c4dd82160","system_id":"levelo_inurba_marseille","lat":43.283998,"lon":5.375062,"is_reserved":false,"is_disabled":false,"rental_uris":{"android":"levelo://app?vid=a3c7db83-9295-4c0b-aec6-ce6c4dd82160","ios":"levelo://app?vid=a3c7db83-9295-4c0b-aec6-ce6c4dd82160"},"vehicle_type_id":"4","last_reported":1700526962,"current_range_meters":15600,"station_id":"ce4bh412rcd13ifvqds0","pricing_plan_id":"free"},{"bike_id":"c78a9899-36b8-48f9-8f59-b808cbcbf4e3","system_id":"levelo_inurba_marseille","lat":43.319179,"lon":5.407725,"is_reserved":false,"is_disabled":false,"rental_uris":{"android":"levelo://app?vid=c78a9899-36b8-48f9-8f59-b808cbcbf4e3","ios":"levelo://app?vid=c78a9899-36b8-48f9-8f59-b808cbcbf4e3"},"vehicle_type_id":"4","last_reported":1700526962,"current_range_meters":16400,"station_id":"ce4bhq12rcd13ifvqhig","pricing_plan_id":"free"},{"bike_id":"35b19955-8c3e-4374-b999-0b151664b0e8","system_id":"levelo_inurba_marseille","lat":43.33237,"lon":5.3985,"is_reserved":false,"is_disabled":false,"rental_uris":{"android":"levelo://app?vid=35b19955-8c3e-4374-b999-0b151664b0e8","ios":"levelo://app?vid=35b19955-8c3e-4374-b999-0b151664b0e8"},"vehicle_type_id":"4","last_reported":1700526962,"current_range_meters":0,"station_id":"","pricing_plan_id":"free"},{"bike_id":"defca466-6ced-4946-9e3a-4f0476167969","system_id":"levelo_inurba_marseille","lat":43.337168,"lon":5.391825,"is_reserved":false,"is_disabled":false,"rental_uris":{"android":"levelo://app?vid=defca466-6ced-4946-9e3a-4f0476167969","ios":"levelo://app?vid=defca466-6ced-4946-9e3a-4f0476167969"},"vehicle_type_id":"4","last_reported":1700526962,"current_range_meters":29600,"station_id":"ce4bhr92rcd13ifvqhsg","pricing_plan_id":"free"},{"bike_id":"0ad361d0-0606-4579-8fde-1ac516c83c25","system_id":"levelo_inurba_marseille","lat":43.323364,"lon":5.406159,"is_reserved":false,"is_disabled":false,"rental_uris":{"android":"levelo://app?vid=0ad361d0-0606-4579-8fde-1ac516c83c25","ios":"levelo://app?vid=0ad361d0-0606-4579-8fde-1ac516c83c25"},"vehicle_type_id":"4","last_reported":1700526962,"current_range_meters":20400,"station_id":"","pricing_plan_id":"free"},{"bike_id":"b7f8ff4d-b5e5-40f2-b0a3-2a788b3f8cb1","system_id":"levelo_inurba_marseille","lat":43.32337,"lon":5.4062,"is_reserved":false,"is_disabled":false,"rental_uris":{"android":"levelo://app?vid=b7f8ff4d-b5e5-40f2-b0a3-2a788b3f8cb1","ios":"levelo://app?vid=b7f8ff4d-b5e5-40f2-b0a3-2a788b3f8cb1"},"vehicle_type_id":"4","last_reported":1700526962,"current_range_meters":24400,"station_id":"ce4bhq92rcd13ifvqhjg","pricing_plan_id":"free"},{"bike_id":"f39fb202-15b4-4b0b-967a-c89c26042911","system_id":"levelo_inurba_marseille","lat":43.297946,"lon":5.404063,"is_reserved":false,"is_disabled":false,"rental_uris":{"android":"levelo://app?vid=f39fb202-15b4-4b0b-967a-c89c26042911","ios":"levelo://app?vid=f39fb202-15b4-4b0b-967a-c89c26042911"},"vehicle_type_id":"4","last_reported":1700526962,"current_range_meters":27200,"station_id":"ce4bh112rcd13ifvqd90","pricing_plan_id":"free"},{"bike_id":"45546699-282b-493e-a7e3-af46d996c4d4","system_id":"levelo_inurba_marseille","lat":43.288501,"lon":5.393087,"is_reserved":false,"is_disabled":false,"rental_uris":{"android":"levelo://app?vid=45546699-282b-493e-a7e3-af46d996c4d4","ios":"levelo://app?vid=45546699-282b-493e-a7e3-af46d996c4d4"},"vehicle_type_id":"4","last_reported":1700526962,"current_range_meters":4000,"station_id":"ce4bh2p2rcd13ifvqdi0","pricing_plan_id":"free"},{"bike_id":"16e37eee-425c-466e-98a9-e88a04ff5fbc","system_id":"levelo_inurba_marseille","lat":43.288501,"lon":5.393087,"is_reserved":false,"is_disabled":false,"rental_uris":{"android":"levelo://app?vid=16e37eee-425c-466e-98a9-e88a04ff5fbc","ios":"levelo://app?vid=16e37eee-425c-466e-98a9-e88a04ff5fbc"},"vehicle_type_id":"4","last_reported":1700526962,"current_range_meters":9600,"station_id":"ce4bh2p2rcd13ifvqdi0","pricing_plan_id":"free"},{"bike_id":"ba264ef8-9f4b-4062-9fc9-cbeb35b00f1c","system_id":"levelo_inurba_marseille","lat":43.283494,"lon":5.380945,"is_reserved":false,"is_disabled":false,"rental_uris":{"android":"levelo://app?vid=ba264ef8-9f4b-4062-9fc9-cbeb35b00f1c","ios":"levelo://app?vid=ba264ef8-9f4b-4062-9fc9-cbeb35b00f1c"},"vehicle_type_id":"4","last_reported":1700526962,"current_range_meters":21600,"station_id":"ce4bh412rcd13ifvqdr0","pricing_plan_id":"free"},{"bike_id":"914416c6-f7f5-4c65-a972-918e539dfdaf","system_id":"levelo_inurba_marseille","lat":43.283494,"lon":5.380945,"is_reserved":false,"is_disabled":false,"rental_uris":{"android":"levelo://app?vid=914416c6-f7f5-4c65-a972-918e539dfdaf","ios":"levelo://app?vid=914416c6-f7f5-4c65-a972-918e539dfdaf"},"vehicle_type_id":"4","last_reported":1700526962,"current_range_meters":30000,"station_id":"ce4bh412rcd13ifvqdr0","pricing_plan_id":"free"},{"bike_id":"c25d56f7-5a5d-41c8-a548-9a855c12b05d","system_id":"levelo_inurba_marseille","lat":43.284219,"lon":5.3497,"is_reserved":false,"is_disabled":false,"rental_uris":{"android":"levelo://app?vid=c25d56f7-5a5d-41c8-a548-9a855c12b05d","ios":"levelo://app?vid=c25d56f7-5a5d-41c8-a548-9a855c12b05d"},"vehicle_type_id":"4","last_reported":1700526962,"current_range_meters":24400,"station_id":"ce4bhbh2rcd13ifvqepg","pricing_plan_id":"free"},{"bike_id":"c7961bb5-d48d-4907-ab39-4b484d85f279","system_id":"levelo_inurba_marseille","lat":43.284219,"lon":5.3497,"is_reserved":false,"is_disabled":false,"rental_uris":{"android":"levelo://app?vid=c7961bb5-d48d-4907-ab39-4b484d85f279","ios":"levelo://app?vid=c7961bb5-d48d-4907-ab39-4b484d85f279"},"vehicle_type_id":"4","last_reported":1700526962,"current_range_meters":30800,"station_id":"ce4bhbh2rcd13ifvqepg","pricing_plan_id":"free"},{"bike_id":"5249c341-5765-412e-aef6-0abd6c5f3465","system_id":"levelo_inurba_marseille","lat":43.284219,"lon":5.3497,"is_reserved":false,"is_disabled":false,"rental_uris":{"android":"levelo://app?vid=5249c341-5765-412e-aef6-0abd6c5f3465","ios":"levelo://app?vid=5249c341-5765-412e-aef6-0abd6c5f3465"},"vehicle_type_id":"4","last_reported":1700526962,"current_range_meters":20800,"station_id":"ce4bhbh2rcd13ifvqepg","pricing_plan_id":"free"},{"bike_id":"6951882a-d7ee-4978-a2e8-e59d598bf3a1","system_id":"levelo_inurba_marseille","lat":43.343612,"lon":5.37501,"is_reserved":false,"is_disabled":false,"rental_uris":{"android":"levelo://app?vid=6951882a-d7ee-4978-a2e8-e59d598bf3a1","ios":"levelo://app?vid=6951882a-d7ee-4978-a2e8-e59d598bf3a1"},"vehicle_type_id":"4","last_reported":1700526962,"current_range_meters":0,"station_id":"","pricing_plan_id":"free"},{"bike_id":"1a6e3bb3-3d2f-41f6-aa0c-aaf6a03ad4e4","system_id":"levelo_inurba_marseille","lat":43.289363,"lon":5.396322,"is_reserved":false,"is_disabled":false,"rental_uris":{"android":"levelo://app?vid=1a6e3bb3-3d2f-41f6-aa0c-aaf6a03ad4e4","ios":"levelo://app?vid=1a6e3bb3-3d2f-41f6-aa0c-aaf6a03ad4e4"},"vehicle_type_id":"4","last_reported":1700526962,"current_range_meters":25200,"station_id":"ce4bh3h2rcd13ifvqdn0","pricing_plan_id":"free"},{"bike_id":"4c58d012-c801-440e-b398-4178c561d8be","system_id":"levelo_inurba_marseille","lat":43.292724,"lon":5.401131,"is_reserved":false,"is_disabled":false,"rental_uris":{"android":"levelo://app?vid=4c58d012-c801-440e-b398-4178c561d8be","ios":"levelo://app?vid=4c58d012-c801-440e-b398-4178c561d8be"},"vehicle_type_id":"4","last_reported":1700526962,"current_range_meters":19200,"station_id":"ce4bh312rcd13ifvqdk0","pricing_plan_id":"free"},{"bike_id":"bf2f94ef-3ecb-44ed-83dd-8e48d263afba","system_id":"levelo_inurba_marseille","lat":43.282754,"lon":5.350519,"is_reserved":false,"is_disabled":false,"rental_uris":{"android":"levelo://app?vid=bf2f94ef-3ecb-44ed-83dd-8e48d263afba","ios":"levelo://app?vid=bf2f94ef-3ecb-44ed-83dd-8e48d263afba"},"vehicle_type_id":"4","last_reported":1700526962,"current_range_meters":28000,"station_id":"ce4bhbp2rcd13ifvqerg","pricing_plan_id":"free"},{"bike_id":"2e2ecf62-1896-427e-9be3-bc4da49e608b","system_id":"levelo_inurba_marseille","lat":43.282744,"lon":5.350533,"is_reserved":false,"is_disabled":false,"rental_uris":{"android":"levelo://app?vid=2e2ecf62-1896-427e-9be3-bc4da49e608b","ios":"levelo://app?vid=2e2ecf62-1896-427e-9be3-bc4da49e608b"},"vehicle_type_id":"4","last_reported":1700526962,"current_range_meters":30400,"station_id":"ce4bhbp2rcd13ifvqerg","pricing_plan_id":"free"},{"bike_id":"47902890-9bf1-4351-a22a-b9df8d1d42fa","system_id":"levelo_inurba_marseille","lat":43.282744,"lon":5.350533,"is_reserved":false,"is_disabled":false,"rental_uris":{"android":"levelo://app?vid=47902890-9bf1-4351-a22a-b9df8d1d42fa","ios":"levelo://app?vid=47902890-9bf1-4351-a22a-b9df8d1d42fa"},"vehicle_type_id":"4","last_reported":1700526962,"current_range_meters":19200,"station_id":"ce4bhbp2rcd13ifvqerg","pricing_plan_id":"free"},{"bike_id":"2d929a33-25b9-4ab8-973e-0323ef9c1864","system_id":"levelo_inurba_marseille","lat":43.282754,"lon":5.350519,"is_reserved":false,"is_disabled":false,"rental_uris":{"android":"levelo://app?vid=2d929a33-25b9-4ab8-973e-0323ef9c1864","ios":"levelo://app?vid=2d929a33-25b9-4ab8-973e-0323ef9c1864"},"vehicle_type_id":"4","last_reported":1700526962,"current_range_meters":31200,"station_id":"ce4bhbp2rcd13ifvqerg","pricing_plan_id":"free"},{"bike_id":"182a9b76-3c55-4aea-8ecf-bcb79f8c0471","system_id":"levelo_inurba_marseille","lat":43.283502,"lon":5.386471,"is_reserved":false,"is_disabled":false,"rental_uris":{"android":"levelo://app?vid=182a9b76-3c55-4aea-8ecf-bcb79f8c0471","ios":"levelo://app?vid=182a9b76-3c55-4aea-8ecf-bcb79f8c0471"},"vehicle_type_id":"4","last_reported":1700526962,"current_range_meters":24400,"station_id":"ce4bh492rcd13ifvqdvg","pricing_plan_id":"free"},{"bike_id":"6b9f0ae6-5261-4dc0-839e-a2e2ca028add","system_id":"levelo_inurba_marseille","lat":43.282744,"lon":5.350533,"is_reserved":false,"is_disabled":false,"rental_uris":{"android":"levelo://app?vid=6b9f0ae6-5261-4dc0-839e-a2e2ca028add","ios":"levelo://app?vid=6b9f0ae6-5261-4dc0-839e-a2e2ca028add"},"vehicle_type_id":"4","last_reported":1700526962,"current_range_meters":31200,"station_id":"ce4bhbp2rcd13ifvqerg","pricing_plan_id":"free"},{"bike_id":"2e302b31-e41b-4930-a8a7-727e9124e1f3","system_id":"levelo_inurba_marseille","lat":43.282754,"lon":5.350519,"is_reserved":false,"is_disabled":false,"rental_uris":{"android":"levelo://app?vid=2e302b31-e41b-4930-a8a7-727e9124e1f3","ios":"levelo://app?vid=2e302b31-e41b-4930-a8a7-727e9124e1f3"},"vehicle_type_id":"4","last_reported":1700526962,"current_range_meters":31200,"station_id":"ce4bhbp2rcd13ifvqerg","pricing_plan_id":"free"},{"bike_id":"4613bddc-9911-4b4d-ad47-511fa9016b37","system_id":"levelo_inurba_marseille","lat":43.28039,"lon":5.369297,"is_reserved":false,"is_disabled":false,"rental_uris":{"android":"levelo://app?vid=4613bddc-9911-4b4d-ad47-511fa9016b37","ios":"levelo://app?vid=4613bddc-9911-4b4d-ad47-511fa9016b37"},"vehicle_type_id":"4","last_reported":1700526962,"current_range_meters":29600,"station_id":"ce4bha12rcd13ifvqef0","pricing_plan_id":"free"},{"bike_id":"ffa9ccf7-aa34-4dd8-860f-c548d790ec9f","system_id":"levelo_inurba_marseille","lat":43.28039,"lon":5.369297,"is_reserved":false,"is_disabled":false,"rental_uris":{"android":"levelo://app?vid=ffa9ccf7-aa34-4dd8-860f-c548d790ec9f","ios":"levelo://app?vid=ffa9ccf7-aa34-4dd8-860f-c548d790ec9f"},"vehicle_type_id":"4","last_reported":1700526962,"current_range_meters":30000,"station_id":"ce4bha12rcd13ifvqef0","pricing_plan_id":"free"},{"bike_id":"7380e940-dc1c-4e6f-843f-881f8d18b14f","system_id":"levelo_inurba_marseille","lat":43.28039,"lon":5.369297,"is_reserved":false,"is_disabled":false,"rental_uris":{"android":"levelo://app?vid=7380e940-dc1c-4e6f-843f-881f8d18b14f","ios":"levelo://app?vid=7380e940-dc1c-4e6f-843f-881f8d18b14f"},"vehicle_type_id":"4","last_reported":1700526962,"current_range_meters":31200,"station_id":"ce4bha12rcd13ifvqef0","pricing_plan_id":"free"},{"bike_id":"c7cad030-54fa-42c0-bd40-7fe740802999","system_id":"levelo_inurba_marseille","lat":43.280382,"lon":5.369291,"is_reserved":false,"is_disabled":false,"rental_uris":{"android":"levelo://app?vid=c7cad030-54fa-42c0-bd40-7fe740802999","ios":"levelo://app?vid=c7cad030-54fa-42c0-bd40-7fe740802999"},"vehicle_type_id":"4","last_reported":1700526962,"current_range_meters":22400,"station_id":"ce4bha12rcd13ifvqef0","pricing_plan_id":"free"},{"bike_id":"9f8d16a2-02b6-4578-a232-9e468e78352d","system_id":"levelo_inurba_marseille","lat":43.28039,"lon":5.369297,"is_reserved":false,"is_disabled":false,"rental_uris":{"android":"levelo://app?vid=9f8d16a2-02b6-4578-a232-9e468e78352d","ios":"levelo://app?vid=9f8d16a2-02b6-4578-a232-9e468e78352d"},"vehicle_type_id":"4","last_reported":1700526962,"current_range_meters":20800,"station_id":"ce4bha12rcd13ifvqef0","pricing_plan_id":"free"},{"bike_id":"25cde1b0-9bce-4db1-88c7-15e51ad1d681","system_id":"levelo_inurba_marseille","lat":43.28039,"lon":5.369297,"is_reserved":false,"is_disabled":false,"rental_uris":{"android":"levelo://app?vid=25cde1b0-9bce-4db1-88c7-15e51ad1d681","ios":"levelo://app?vid=25cde1b0-9bce-4db1-88c7-15e51ad1d681"},"vehicle_type_id":"4","last_reported":1700526962,"current_range_meters":28000,"station_id":"ce4bha12rcd13ifvqef0","pricing_plan_id":"free"},{"bike_id":"cc453e4b-011d-4585-86c6-2d9b32da31c7","system_id":"levelo_inurba_marseille","lat":43.290412,"lon":5.399633,"is_reserved":false,"is_disabled":false,"rental_uris":{"android":"levelo://app?vid=cc453e4b-011d-4585-86c6-2d9b32da31c7","ios":"levelo://app?vid=cc453e4b-011d-4585-86c6-2d9b32da31c7"},"vehicle_type_id":"4","last_reported":1700526962,"current_range_meters":28400,"station_id":"ce4bh392rcd13ifvqdm0","pricing_plan_id":"free"},{"bike_id":"dccf26a8-172d-4b0d-a5a6-bf240315fc99","system_id":"levelo_inurba_marseille","lat":43.290412,"lon":5.399633,"is_reserved":false,"is_disabled":false,"rental_uris":{"android":"levelo://app?vid=dccf26a8-172d-4b0d-a5a6-bf240315fc99","ios":"levelo://app?vid=dccf26a8-172d-4b0d-a5a6-bf240315fc99"},"vehicle_type_id":"4","last_reported":1700526962,"current_range_meters":30000,"station_id":"ce4bh392rcd13ifvqdm0","pricing_plan_id":"free"},{"bike_id":"f83c4a72-1dd9-4bfa-b1da-4d7e2d30661c","system_id":"levelo_inurba_marseille","lat":43.290412,"lon":5.399633,"is_reserved":false,"is_disabled":false,"rental_uris":{"android":"levelo://app?vid=f83c4a72-1dd9-4bfa-b1da-4d7e2d30661c","ios":"levelo://app?vid=f83c4a72-1dd9-4bfa-b1da-4d7e2d30661c"},"vehicle_type_id":"4","last_reported":1700526962,"current_range_meters":29200,"station_id":"ce4bh392rcd13ifvqdm0","pricing_plan_id":"free"},{"bike_id":"d07d076e-9f72-4982-b871-def80b0426ff","system_id":"levelo_inurba_marseille","lat":43.281044,"lon":5.378308,"is_reserved":false,"is_disabled":false,"rental_uris":{"android":"levelo://app?vid=d07d076e-9f72-4982-b871-def80b0426ff","ios":"levelo://app?vid=d07d076e-9f72-4982-b871-def80b0426ff"},"vehicle_type_id":"4","last_reported":1700526962,"current_range_meters":31200,"station_id":"ce4bha12rcd13ifvqee0","pricing_plan_id":"free"},{"bike_id":"0e59d448-33c8-4047-8a6a-7e0a5eeb2e60","system_id":"levelo_inurba_marseille","lat":43.281044,"lon":5.378308,"is_reserved":false,"is_disabled":false,"rental_uris":{"android":"levelo://app?vid=0e59d448-33c8-4047-8a6a-7e0a5eeb2e60","ios":"levelo://app?vid=0e59d448-33c8-4047-8a6a-7e0a5eeb2e60"},"vehicle_type_id":"4","last_reported":1700526962,"current_range_meters":29200,"station_id":"ce4bha12rcd13ifvqee0","pricing_plan_id":"free"},{"bike_id":"80d750b5-e983-47b2-94fe-c72a3dc115fe","system_id":"levelo_inurba_marseille","lat":43.281044,"lon":5.378308,"is_reserved":false,"is_disabled":false,"rental_uris":{"android":"levelo://app?vid=80d750b5-e983-47b2-94fe-c72a3dc115fe","ios":"levelo://app?vid=80d750b5-e983-47b2-94fe-c72a3dc115fe"},"vehicle_type_id":"4","last_reported":1700526962,"current_range_meters":25600,"station_id":"ce4bha12rcd13ifvqee0","pricing_plan_id":"free"},{"bike_id":"d81e6046-c00c-4f6b-83ca-74a96a19604f","system_id":"levelo_inurba_marseille","lat":43.281006,"lon":5.378386,"is_reserved":false,"is_disabled":false,"rental_uris":{"android":"levelo://app?vid=d81e6046-c00c-4f6b-83ca-74a96a19604f","ios":"levelo://app?vid=d81e6046-c00c-4f6b-83ca-74a96a19604f"},"vehicle_type_id":"4","last_reported":1700526962,"current_range_meters":31200,"station_id":"ce4bha12rcd13ifvqee0","pricing_plan_id":"free"},{"bike_id":"d46efa46-fa2a-4784-8ec4-045917079bd6","system_id":"levelo_inurba_marseille","lat":43.284462,"lon":5.392121,"is_reserved":false,"is_disabled":false,"rental_uris":{"android":"levelo://app?vid=d46efa46-fa2a-4784-8ec4-045917079bd6","ios":"levelo://app?vid=d46efa46-fa2a-4784-8ec4-045917079bd6"},"vehicle_type_id":"4","last_reported":1700526962,"current_range_meters":28000,"station_id":"ce4bhoh2rcd13ifvqh5g","pricing_plan_id":"free"},{"bike_id":"6acea3e5-6f84-403e-97e8-0af6458df007","system_id":"levelo_inurba_marseille","lat":43.284462,"lon":5.392121,"is_reserved":false,"is_disabled":false,"rental_uris":{"android":"levelo://app?vid=6acea3e5-6f84-403e-97e8-0af6458df007","ios":"levelo://app?vid=6acea3e5-6f84-403e-97e8-0af6458df007"},"vehicle_type_id":"4","last_reported":1700526962,"current_range_meters":28400,"station_id":"ce4bhoh2rcd13ifvqh5g","pricing_plan_id":"free"},{"bike_id":"d6ea2e5f-03a0-4a26-9132-87801b1c7e6f","system_id":"levelo_inurba_marseille","lat":43.34568,"lon":5.35455,"is_reserved":false,"is_disabled":false,"rental_uris":{"android":"levelo://app?vid=d6ea2e5f-03a0-4a26-9132-87801b1c7e6f","ios":"levelo://app?vid=d6ea2e5f-03a0-4a26-9132-87801b1c7e6f"},"vehicle_type_id":"4","last_reported":1700526962,"current_range_meters":30800,"station_id":"","pricing_plan_id":"free"},{"bike_id":"65d585f3-f4b8-4778-a9c4-4a9d801769bc","system_id":"levelo_inurba_marseille","lat":43.326605,"lon":5.409903,"is_reserved":false,"is_disabled":false,"rental_uris":{"android":"levelo://app?vid=65d585f3-f4b8-4778-a9c4-4a9d801769bc","ios":"levelo://app?vid=65d585f3-f4b8-4778-a9c4-4a9d801769bc"},"vehicle_type_id":"4","last_reported":1700526962,"current_range_meters":17600,"station_id":"ce4bhpp2rcd13ifvqhgg","pricing_plan_id":"free"},{"bike_id":"ebb7c2a9-64cf-430f-9079-afe67584b63f","system_id":"levelo_inurba_marseille","lat":43.326605,"lon":5.409903,"is_reserved":false,"is_disabled":false,"rental_uris":{"android":"levelo://app?vid=ebb7c2a9-64cf-430f-9079-afe67584b63f","ios":"levelo://app?vid=ebb7c2a9-64cf-430f-9079-afe67584b63f"},"vehicle_type_id":"4","last_reported":1700526962,"current_range_meters":28400,"station_id":"ce4bhpp2rcd13ifvqhgg","pricing_plan_id":"free"},{"bike_id":"8d1c3bad-9d3c-4e65-a090-580d6246242d","system_id":"levelo_inurba_marseille","lat":43.304188,"lon":5.412904,"is_reserved":false,"is_disabled":false,"rental_uris":{"android":"levelo://app?vid=8d1c3bad-9d3c-4e65-a090-580d6246242d","ios":"levelo://app?vid=8d1c3bad-9d3c-4e65-a090-580d6246242d"},"vehicle_type_id":"4","last_reported":1700526962,"current_range_meters":2400,"station_id":"ce4bhop2rcd13ifvqh8g","pricing_plan_id":"free"},{"bike_id":"58d79184-91d3-47ea-9302-289f7e1fed54","system_id":"levelo_inurba_marseille","lat":43.304188,"lon":5.412904,"is_reserved":false,"is_disabled":false,"rental_uris":{"android":"levelo://app?vid=58d79184-91d3-47ea-9302-289f7e1fed54","ios":"levelo://app?vid=58d79184-91d3-47ea-9302-289f7e1fed54"},"vehicle_type_id":"4","last_reported":1700526962,"current_range_meters":3600,"station_id":"ce4bhop2rcd13ifvqh8g","pricing_plan_id":"free"},{"bike_id":"e7ec0292-f5e0-4492-ad53-e9aea0932144","system_id":"levelo_inurba_marseille","lat":43.304188,"lon":5.412904,"is_reserved":false,"is_disabled":false,"rental_uris":{"android":"levelo://app?vid=e7ec0292-f5e0-4492-ad53-e9aea0932144","ios":"levelo://app?vid=e7ec0292-f5e0-4492-ad53-e9aea0932144"},"vehicle_type_id":"4","last_reported":1700526962,"current_range_meters":30000,"station_id":"ce4bhop2rcd13ifvqh8g","pricing_plan_id":"free"},{"bike_id":"5d961297-63dc-440f-88f4-0be19e238765","system_id":"levelo_inurba_marseille","lat":43.287154,"lon":5.399979,"is_reserved":false,"is_disabled":false,"rental_uris":{"android":"levelo://app?vid=5d961297-63dc-440f-88f4-0be19e238765","ios":"levelo://app?vid=5d961297-63dc-440f-88f4-0be19e238765"},"vehicle_type_id":"4","last_reported":1700526962,"current_range_meters":28000,"station_id":"ce4bho92rcd13ifvqh3g","pricing_plan_id":"free"},{"bike_id":"b1a13ef7-6dbb-4dfa-b218-4f771033bbf3","system_id":"levelo_inurba_marseille","lat":43.287154,"lon":5.399979,"is_reserved":false,"is_disabled":false,"rental_uris":{"android":"levelo://app?vid=b1a13ef7-6dbb-4dfa-b218-4f771033bbf3","ios":"levelo://app?vid=b1a13ef7-6dbb-4dfa-b218-4f771033bbf3"},"vehicle_type_id":"4","last_reported":1700526962,"current_range_meters":25200,"station_id":"ce4bho92rcd13ifvqh3g","pricing_plan_id":"free"},{"bike_id":"dfe51589-93c4-4739-8e8a-deeec37b6802","system_id":"levelo_inurba_marseille","lat":43.320045,"lon":5.415046,"is_reserved":false,"is_disabled":false,"rental_uris":{"android":"levelo://app?vid=dfe51589-93c4-4739-8e8a-deeec37b6802","ios":"levelo://app?vid=dfe51589-93c4-4739-8e8a-deeec37b6802"},"vehicle_type_id":"4","last_reported":1700526962,"current_range_meters":25200,"station_id":"ce4bhq92rcd13ifvqhkg","pricing_plan_id":"free"},{"bike_id":"2e06cf54-8977-4fec-8c9f-211cea5b93e6","system_id":"levelo_inurba_marseille","lat":43.320045,"lon":5.415046,"is_reserved":false,"is_disabled":false,"rental_uris":{"android":"levelo://app?vid=2e06cf54-8977-4fec-8c9f-211cea5b93e6","ios":"levelo://app?vid=2e06cf54-8977-4fec-8c9f-211cea5b93e6"},"vehicle_type_id":"4","last_reported":1700526962,"current_range_meters":18800,"station_id":"ce4bhq92rcd13ifvqhkg","pricing_plan_id":"free"},{"bike_id":"97748afb-010c-4cc9-8628-192e058e9b50","system_id":"levelo_inurba_marseille","lat":43.299579,"lon":5.413255,"is_reserved":false,"is_disabled":false,"rental_uris":{"android":"levelo://app?vid=97748afb-010c-4cc9-8628-192e058e9b50","ios":"levelo://app?vid=97748afb-010c-4cc9-8628-192e058e9b50"},"vehicle_type_id":"4","last_reported":1700526962,"current_range_meters":19200,"station_id":"ce4bhp12rcd13ifvqh9g","pricing_plan_id":"free"},{"bike_id":"cf7c6503-d761-4e4a-b826-f55f74848caf","system_id":"levelo_inurba_marseille","lat":43.34885,"lon":5.37509,"is_reserved":false,"is_disabled":false,"rental_uris":{"android":"levelo://app?vid=cf7c6503-d761-4e4a-b826-f55f74848caf","ios":"levelo://app?vid=cf7c6503-d761-4e4a-b826-f55f74848caf"},"vehicle_type_id":"4","last_reported":1700526962,"current_range_meters":12800,"station_id":"","pricing_plan_id":"free"},{"bike_id":"b8130140-7445-4952-aa03-975c2b21a8e4","system_id":"levelo_inurba_marseille","lat":43.276206,"lon":5.361197,"is_reserved":false,"is_disabled":false,"rental_uris":{"android":"levelo://app?vid=b8130140-7445-4952-aa03-975c2b21a8e4","ios":"levelo://app?vid=b8130140-7445-4952-aa03-975c2b21a8e4"},"vehicle_type_id":"4","last_reported":1700526962,"current_range_meters":28400,"station_id":"ce4bgj92rcd13ifvqbe0","pricing_plan_id":"free"},{"bike_id":"f18e273a-f078-4b63-8224-2c12a878d030","system_id":"levelo_inurba_marseille","lat":43.27621,"lon":5.36103,"is_reserved":false,"is_disabled":false,"rental_uris":{"android":"levelo://app?vid=f18e273a-f078-4b63-8224-2c12a878d030","ios":"levelo://app?vid=f18e273a-f078-4b63-8224-2c12a878d030"},"vehicle_type_id":"4","last_reported":1700526962,"current_range_meters":27200,"station_id":"ce4bgj92rcd13ifvqbe0","pricing_plan_id":"free"},{"bike_id":"e361903a-860d-4262-b1d0-dda909abb794","system_id":"levelo_inurba_marseille","lat":43.276168,"lon":5.361211,"is_reserved":false,"is_disabled":false,"rental_uris":{"android":"levelo://app?vid=e361903a-860d-4262-b1d0-dda909abb794","ios":"levelo://app?vid=e361903a-860d-4262-b1d0-dda909abb794"},"vehicle_type_id":"4","last_reported":1700526962,"current_range_meters":13600,"station_id":"ce4bgj92rcd13ifvqbe0","pricing_plan_id":"free"},{"bike_id":"04f937d9-cfbe-49fe-ba36-1a798da3f258","system_id":"levelo_inurba_marseille","lat":43.276154,"lon":5.361186,"is_reserved":false,"is_disabled":false,"rental_uris":{"android":"levelo://app?vid=04f937d9-cfbe-49fe-ba36-1a798da3f258","ios":"levelo://app?vid=04f937d9-cfbe-49fe-ba36-1a798da3f258"},"vehicle_type_id":"4","last_reported":1700526962,"current_range_meters":25600,"station_id":"ce4bgj92rcd13ifvqbe0","pricing_plan_id":"free"},{"bike_id":"86f2680b-cbb9-48ba-8ba1-e54d745b18f6","system_id":"levelo_inurba_marseille","lat":43.27614,"lon":5.36109,"is_reserved":false,"is_disabled":false,"rental_uris":{"android":"levelo://app?vid=86f2680b-cbb9-48ba-8ba1-e54d745b18f6","ios":"levelo://app?vid=86f2680b-cbb9-48ba-8ba1-e54d745b18f6"},"vehicle_type_id":"4","last_reported":1700526962,"current_range_meters":18000,"station_id":"ce4bgj92rcd13ifvqbe0","pricing_plan_id":"free"},{"bike_id":"0eef84e2-b016-4cd5-ac1c-51384344e17f","system_id":"levelo_inurba_marseille","lat":43.276179,"lon":5.361009,"is_reserved":false,"is_disabled":false,"rental_uris":{"android":"levelo://app?vid=0eef84e2-b016-4cd5-ac1c-51384344e17f","ios":"levelo://app?vid=0eef84e2-b016-4cd5-ac1c-51384344e17f"},"vehicle_type_id":"4","last_reported":1700526962,"current_range_meters":30000,"station_id":"ce4bgj92rcd13ifvqbe0","pricing_plan_id":"free"},{"bike_id":"55e03907-99f8-435e-94bc-2f8c3fea4163","system_id":"levelo_inurba_marseille","lat":43.276115,"lon":5.361123,"is_reserved":false,"is_disabled":false,"rental_uris":{"android":"levelo://app?vid=55e03907-99f8-435e-94bc-2f8c3fea4163","ios":"levelo://app?vid=55e03907-99f8-435e-94bc-2f8c3fea4163"},"vehicle_type_id":"4","last_reported":1700526962,"current_range_meters":2800,"station_id":"ce4bgj92rcd13ifvqbe0","pricing_plan_id":"free"},{"bike_id":"afe2afb5-6053-4970-b4ac-259cf2207663","system_id":"levelo_inurba_marseille","lat":43.280784,"lon":5.396622,"is_reserved":false,"is_disabled":false,"rental_uris":{"android":"levelo://app?vid=afe2afb5-6053-4970-b4ac-259cf2207663","ios":"levelo://app?vid=afe2afb5-6053-4970-b4ac-259cf2207663"},"vehicle_type_id":"4","last_reported":1700526962,"current_range_meters":24800,"station_id":"ce4bho12rcd13ifvqh2g","pricing_plan_id":"free"},{"bike_id":"c8b3554c-ed1b-45e5-9a4b-677475072bb1","system_id":"levelo_inurba_marseille","lat":43.280784,"lon":5.396622,"is_reserved":false,"is_disabled":false,"rental_uris":{"android":"levelo://app?vid=c8b3554c-ed1b-45e5-9a4b-677475072bb1","ios":"levelo://app?vid=c8b3554c-ed1b-45e5-9a4b-677475072bb1"},"vehicle_type_id":"4","last_reported":1700526962,"current_range_meters":25200,"station_id":"ce4bho12rcd13ifvqh2g","pricing_plan_id":"free"},{"bike_id":"cf3c09be-3b94-4085-8b7b-dbf68d687c35","system_id":"levelo_inurba_marseille","lat":43.27823,"lon":5.39202,"is_reserved":false,"is_disabled":false,"rental_uris":{"android":"levelo://app?vid=cf3c09be-3b94-4085-8b7b-dbf68d687c35","ios":"levelo://app?vid=cf3c09be-3b94-4085-8b7b-dbf68d687c35"},"vehicle_type_id":"4","last_reported":1700526962,"current_range_meters":0,"station_id":"ce4bhjp2rcd13ifvqga0","pricing_plan_id":"free"},{"bike_id":"6171081e-4d07-4742-8f20-406a637ed711","system_id":"levelo_inurba_marseille","lat":43.27377,"lon":5.36247,"is_reserved":false,"is_disabled":false,"rental_uris":{"android":"levelo://app?vid=6171081e-4d07-4742-8f20-406a637ed711","ios":"levelo://app?vid=6171081e-4d07-4742-8f20-406a637ed711"},"vehicle_type_id":"4","last_reported":1700526962,"current_range_meters":23600,"station_id":"ce4bhbh2rcd13ifvqeo0","pricing_plan_id":"free"},{"bike_id":"8b4a54ed-21bd-4b96-92d8-21891d1e938b","system_id":"levelo_inurba_marseille","lat":43.275625,"lon":5.384392,"is_reserved":false,"is_disabled":false,"rental_uris":{"android":"levelo://app?vid=8b4a54ed-21bd-4b96-92d8-21891d1e938b","ios":"levelo://app?vid=8b4a54ed-21bd-4b96-92d8-21891d1e938b"},"vehicle_type_id":"4","last_reported":1700526962,"current_range_meters":29200,"station_id":"ce4bhh92rcd13ifvqfi0","pricing_plan_id":"free"},{"bike_id":"86df983e-2e5e-4ab0-a2d5-fecf13dbe050","system_id":"levelo_inurba_marseille","lat":43.275625,"lon":5.384392,"is_reserved":false,"is_disabled":false,"rental_uris":{"android":"levelo://app?vid=86df983e-2e5e-4ab0-a2d5-fecf13dbe050","ios":"levelo://app?vid=86df983e-2e5e-4ab0-a2d5-fecf13dbe050"},"vehicle_type_id":"4","last_reported":1700526962,"current_range_meters":2400,"station_id":"ce4bhh92rcd13ifvqfi0","pricing_plan_id":"free"},{"bike_id":"2988aac0-8d89-41bb-9f67-6802b211dafd","system_id":"levelo_inurba_marseille","lat":43.275625,"lon":5.384392,"is_reserved":false,"is_disabled":false,"rental_uris":{"android":"levelo://app?vid=2988aac0-8d89-41bb-9f67-6802b211dafd","ios":"levelo://app?vid=2988aac0-8d89-41bb-9f67-6802b211dafd"},"vehicle_type_id":"4","last_reported":1700526962,"current_range_meters":27200,"station_id":"ce4bhh92rcd13ifvqfi0","pricing_plan_id":"free"},{"bike_id":"0cd78891-c124-454f-90ec-020ca8dd462b","system_id":"levelo_inurba_marseille","lat":43.33612,"lon":5.410321,"is_reserved":false,"is_disabled":false,"rental_uris":{"android":"levelo://app?vid=0cd78891-c124-454f-90ec-020ca8dd462b","ios":"levelo://app?vid=0cd78891-c124-454f-90ec-020ca8dd462b"},"vehicle_type_id":"4","last_reported":1700526962,"current_range_meters":14000,"station_id":"ce4bhqh2rcd13ifvqhmg","pricing_plan_id":"free"},{"bike_id":"9a863964-cfd0-4136-8361-19ff30ad255d","system_id":"levelo_inurba_marseille","lat":43.33612,"lon":5.410321,"is_reserved":false,"is_disabled":false,"rental_uris":{"android":"levelo://app?vid=9a863964-cfd0-4136-8361-19ff30ad255d","ios":"levelo://app?vid=9a863964-cfd0-4136-8361-19ff30ad255d"},"vehicle_type_id":"4","last_reported":1700526962,"current_range_meters":20400,"station_id":"ce4bhqh2rcd13ifvqhmg","pricing_plan_id":"free"},{"bike_id":"26a97a9d-ac99-4d0d-975a-4ff7117df5bc","system_id":"levelo_inurba_marseille","lat":43.33612,"lon":5.410321,"is_reserved":false,"is_disabled":false,"rental_uris":{"android":"levelo://app?vid=26a97a9d-ac99-4d0d-975a-4ff7117df5bc","ios":"levelo://app?vid=26a97a9d-ac99-4d0d-975a-4ff7117df5bc"},"vehicle_type_id":"4","last_reported":1700526962,"current_range_meters":0,"station_id":"ce4bhqh2rcd13ifvqhmg","pricing_plan_id":"free"},{"bike_id":"5717554b-a30d-40bb-9903-1753e94966b1","system_id":"levelo_inurba_marseille","lat":43.33612,"lon":5.410321,"is_reserved":false,"is_disabled":false,"rental_uris":{"android":"levelo://app?vid=5717554b-a30d-40bb-9903-1753e94966b1","ios":"levelo://app?vid=5717554b-a30d-40bb-9903-1753e94966b1"},"vehicle_type_id":"4","last_reported":1700526962,"current_range_meters":21200,"station_id":"ce4bhqh2rcd13ifvqhmg","pricing_plan_id":"free"},{"bike_id":"6c052b52-370e-4341-99f3-382b47cb5205","system_id":"levelo_inurba_marseille","lat":43.33612,"lon":5.410321,"is_reserved":false,"is_disabled":false,"rental_uris":{"android":"levelo://app?vid=6c052b52-370e-4341-99f3-382b47cb5205","ios":"levelo://app?vid=6c052b52-370e-4341-99f3-382b47cb5205"},"vehicle_type_id":"4","last_reported":1700526962,"current_range_meters":5200,"station_id":"ce4bhqh2rcd13ifvqhmg","pricing_plan_id":"free"},