{"last_updated":1693512423,"ttl":30,"version":"2.2","data":{"bikes":[{"bike_id":"1ae4f2be-e61a-4f99-bb04-0f3e4b11b99b","system_id":"levelo_inurba_marseille","lat":43.31341,"lon":5.367098,"is_reserved":false,"is_disabled":false,"rental_uris":{"android":"levelo://app?vid=1ae4f2be-e61a-4f99-bb04-0f3e4b11b99b","ios":"levelo://app?vid=1ae4f2be-e61a-4f99-bb04-0f3e4b11b99b"},"vehicle_type_id":"4","last_reported":1693512423,"current_range_meters":0,"station_id":"ce4bgr92rcd13ifvqc6g","pricing_plan_id":"free"},{"bike_id":"62789b38-bb62-4102-a70e-5f3003218213","system_id":"levelo_inurba_marseille","lat":43.31341,"lon":5.367098,"is_reserved":false,"is_disabled":false,"rental_uris":{"android":"levelo://app?vid=62789b38-bb62-4102-a70e-5f3003218213","ios":"levelo://app?vid=62789b38-bb62-4102-a70e-5f3003218213"},"vehicle_type_id":"4","last_reported":1693512423,"current_range_meters":1600,"station_id":"ce4bgr92rcd13ifvqc6g","pricing_plan_id":"free"},{"bike_id":"6f91a29a-e504-452e-94cd-3153bd9bd76b","system_id":"levelo_inurba_marseille","lat":43.31341,"lon":5.367098,"is_reserved":false,"is_disabled":false,"rental_uris":{"android":"levelo://app?vid=6f91a29a-e504-452e-94cd-3153bd9bd76b","ios":"levelo://app?vid=6f91a29a-e504-452e-94cd-3153bd9bd76b"},"vehicle_type_id":"4","last_reported":1693512423,"current_range_meters":4800,"station_id":"ce4bgr92rcd13ifvqc6g","pricing_plan_id":"free"},{"bike_id":"d75929ed-2b53-411f-a637-20eaae9bf0b5","system_id":"levelo_inurba_marseille","lat":43.31358,"lon":5.36818,"is_reserved":false,"is_disabled":false,"rental_uris":{"android":"levelo://app?vid=d75929ed-2b53-411f-a637-20eaae9bf0b5","ios":"levelo://app?vid=d75929ed-2b53-411f-a637-20eaae9bf0b5"},"vehicle_type_id":"4","last_reported":1693512423,"current_range_meters":0,"station_id":"","pricing_plan_id":"free"},{"bike_id":"2e732f08-54d8-4343-84f9-849a5c609df2","system_id":"levelo_inurba_marseille","lat":43.31214,"lon":5.36888,"is_reserved":false,"is_disabled":false,"rental_uris":{"android":"levelo://app?vid=2e732f08-54d8-4343-84f9-849a5c609df2","ios":"levelo://app?vid=2e732f08-54d8-4343-84f9-849a5c609df2"},"vehicle_type_id":"4","last_reported":1693512423,"current_range_meters":20800,"station_id":"ce4bgl92rcd13ifvqbq0","pricing_plan_id":"free"},{"bike_id":"483c1499-9c82-4592-8dbc-c66c737d8eb7","system_id":"levelo_inurba_marseille","lat":43.309076,"lon":5.368465,"is_reserved":false,"is_disabled":false,"rental_uris":{"android":"levelo://app?vid=483c1499-9c82-4592-8dbc-c66c737d8eb7","ios":"levelo://app?vid=483c1499-9c82-4592-8dbc-c66c737d8eb7"},"vehicle_type_id":"4","last_reported":1693512423,"current_range_meters":11600,"station_id":"ce4bgn92rcd13ifvqbvg","pricing_plan_id":"free"},{"bike_id":"d2be997d-44d2-40a5-bb20-02aeaaf65fa5","system_id":"levelo_inurba_marseille","lat":43.314811,"lon":5.373104,"is_reserved":false,"is_disabled":false,"rental_uris":{"android":"levelo://app?vid=d2be997d-44d2-40a5-bb20-02aeaaf65fa5","ios":"levelo://app?vid=d2be997d-44d2-40a5-bb20-02aeaaf65fa5"},"vehicle_type_id":"4","last_reported":1693512423,"current_range_meters":30800,"station_id":"ce4bgt12rcd13ifvqcd0","pricing_plan_id":"free"},{"bike_id":"ad27212e-f60c-4c81-9af9-bcdc9d84d84a","system_id":"levelo_inurba_marseille","lat":43.314811,"lon":5.373103,"is_reserved":false,"is_disabled":false,"rental_uris":{"android":"levelo://app?vid=ad27212e-f60c-4c81-9af9-bcdc9d84d84a","ios":"levelo://app?vid=ad27212e-f60c-4c81-9af9-bcdc9d84d84a"},"vehicle_type_id":"4","last_reported":1693512423,"current_range_meters":21600,"station_id":"ce4bgt12rcd13ifvqcd0","pricing_plan_id":"free"},{"bike_id":"abf58a36-ce70-417c-9dac-9b8bc28596c0","system_id":"levelo_inurba_marseille","lat":43.314811,"lon":5.373103,"is_reserved":false,"is_disabled":false,"rental_uris":{"android":"levelo://app?vid=abf58a36-ce70-417c-9dac-9b8bc28596c0","ios":"levelo://app?vid=abf58a36-ce70-417c-9dac-9b8bc28596c0"},"vehicle_type_id":"4","last_reported":1693512423,"current_range_meters":4000,"station_id":"ce4bgt12rcd13ifvqcd0","pricing_plan_id":"free"},{"bike_id":"48b6ddc8-a4d4-4e88-a7d2-81bede47171f","system_id":"levelo_inurba_marseille","lat":43.314811,"lon":5.373103,"is_reserved":false,"is_disabled":false,"rental_uris":{"android":"levelo://app?vid=48b6ddc8-a4d4-4e88-a7d2-81bede47171f","ios":"levelo://app?vid=48b6ddc8-a4d4-4e88-a7d2-81bede47171f"},"vehicle_type_id":"4","last_reported":1693512423,"current_range_meters":19600,"station_id":"ce4bgt12rcd13ifvqcd0","pricing_plan_id":"free"},{"bike_id":"53e22d60-5a0d-45f8-955e-9c1c15c8c7aa","system_id":"levelo_inurba_marseille","lat":43.314811,"lon":5.373103,"is_reserved":false,"is_disabled":false,"rental_uris":{"android":"levelo://app?vid=53e22d60-5a0d-45f8-955e-9c1c15c8c7aa","ios":"levelo://app?vid=53e22d60-5a0d-45f8-955e-9c1c15c8c7aa"},"vehicle_type_id":"4","last_reported":1693512423,"current_range_meters":15600,"station_id":"ce4bgt12rcd13ifvqcd0","pricing_plan_id":"free"},{"bike_id":"45894cdb-0358-41ac-8b8e-e34b15459e03","system_id":"levelo_inurba_marseille","lat":43.305714,"lon":5.365633,"is_reserved":false,"is_disabled":false,"rental_uris":{"android":"levelo://app?vid=45894cdb-0358-41ac-8b8e-e34b15459e03","ios":"levelo://app?vid=45894cdb-0358-41ac-8b8e-e34b15459e03"},"vehicle_type_id":"4","last_reported":1693512423,"current_range_meters":12400,"station_id":"ce4bgs12rcd13ifvqcag","pricing_plan_id":"free"},{"bike_id":"4dac53a6-23df-4740-ae99-7e97f439e40a","system_id":"levelo_inurba_marseille","lat":43.305712,"lon":5.365641,"is_reserved":false,"is_disabled":false,"rental_uris":{"android":"levelo://app?vid=4dac53a6-23df-4740-ae99-7e97f439e40a","ios":"levelo://app?vid=4dac53a6-23df-4740-ae99-7e97f439e40a"},"vehicle_type_id":"4","last_reported":1693512423,"current_range_meters":28800,"station_id":"ce4bgs12rcd13ifvqcag","pricing_plan_id":"free"},{"bike_id":"7e3f873b-c612-4a99-8269-f814206af6a7","system_id":"levelo_inurba_marseille","lat":43.30531,"lon":5.36715,"is_reserved":false,"is_disabled":false,"rental_uris":{"android":"levelo://app?vid=7e3f873b-c612-4a99-8269-f814206af6a7","ios":"levelo://app?vid=7e3f873b-c612-4a99-8269-f814206af6a7"},"vehicle_type_id":"4","last_reported":1693512423,"current_range_meters":4000,"station_id":"ce4bgrp2rcd13ifvqc9g","pricing_plan_id":"free"},{"bike_id":"3fbda355-5f57-40e2-8458-dac8e794abfc","system_id":"levelo_inurba_marseille","lat":43.305989,"lon":5.37225,"is_reserved":false,"is_disabled":false,"rental_uris":{"android":"levelo://app?vid=3fbda355-5f57-40e2-8458-dac8e794abfc","ios":"levelo://app?vid=3fbda355-5f57-40e2-8458-dac8e794abfc"},"vehicle_type_id":"4","last_reported":1693512423,"current_range_meters":24000,"station_id":"ce4bgqh2rcd13ifvqc4g","pricing_plan_id":"free"},{"bike_id":"2bbcaeff-e759-4924-8508-e646486783dd","system_id":"levelo_inurba_marseille","lat":43.305989,"lon":5.37225,"is_reserved":false,"is_disabled":false,"rental_uris":{"android":"levelo://app?vid=2bbcaeff-e759-4924-8508-e646486783dd","ios":"levelo://app?vid=2bbcaeff-e759-4924-8508-e646486783dd"},"vehicle_type_id":"4","last_reported":1693512423,"current_range_meters":10000,"station_id":"ce4bgqh2rcd13ifvqc4g","pricing_plan_id":"free"},{"bike_id":"4ea654ca-7011-47f8-8e50-fb739d0dde64","system_id":"levelo_inurba_marseille","lat":43.30596,"lon":5.37219,"is_reserved":false,"is_disabled":false,"rental_uris":{"android":"levelo://app?vid=4ea654ca-7011-47f8-8e50-fb739d0dde64","ios":"levelo://app?vid=4ea654ca-7011-47f8-8e50-fb739d0dde64"},"vehicle_type_id":"4","last_reported":1693512423,"current_range_meters":28800,"station_id":"ce4bgqh2rcd13ifvqc4g","pricing_plan_id":"free"},{"bike_id":"c027755b-6d82-4144-b8fa-e0134e18968e","system_id":"levelo_inurba_marseille","lat":43.30793,"lon":5.37645,"is_reserved":false,"is_disabled":false,"rental_uris":{"android":"levelo://app?vid=c027755b-6d82-4144-b8fa-e0134e18968e","ios":"levelo://app?vid=c027755b-6d82-4144-b8fa-e0134e18968e"},"vehicle_type_id":"4","last_reported":1693512423,"current_range_meters":23200,"station_id":"ce4bgv92rcd13ifvqcq0","pricing_plan_id":"free"},{"bike_id":"4893d0e9-e77e-40b6-919b-6e49e19570ed","system_id":"levelo_inurba_marseille","lat":43.317075,"lon":5.377367,"is_reserved":false,"is_disabled":false,"rental_uris":{"android":"levelo://app?vid=4893d0e9-e77e-40b6-919b-6e49e19570ed","ios":"levelo://app?vid=4893d0e9-e77e-40b6-919b-6e49e19570ed"},"vehicle_type_id":"4","last_reported":1693512423,"current_range_meters":22400,"station_id":"ce4bgth2rcd13ifvqch0","pricing_plan_id":"free"},{"bike_id":"537a927d-8a1c-43e0-871b-ee68f3239d6e","system_id":"levelo_inurba_marseille","lat":43.317075,"lon":5.377367,"is_reserved":false,"is_disabled":false,"rental_uris":{"android":"levelo://app?vid=537a927d-8a1c-43e0-871b-ee68f3239d6e","ios":"levelo://app?vid=537a927d-8a1c-43e0-871b-ee68f3239d6e"},"vehicle_type_id":"4","last_reported":1693512423,"current_range_meters":31200,"station_id":"ce4bgth2rcd13ifvqch0","pricing_plan_id":"free"},{"bike_id":"cd3d548f-bd59-45ea-a76c-bcaa7c22f274","system_id":"levelo_inurba_marseille","lat":43.317075,"lon":5.377367,"is_reserved":false,"is_disabled":false,"rental_uris":{"android":"levelo://app?vid=cd3d548f-bd59-45ea-a76c-bcaa7c22f274","ios":"levelo://app?vid=cd3d548f-bd59-45ea-a76c-bcaa7c22f274"},"vehicle_type_id":"4","last_reported":1693512423,"current_range_meters":31200,"station_id":"ce4bgth2rcd13ifvqch0","pricing_plan_id":"free"},{"bike_id":"536c548e-f26a-4f2c-8478-2c31233ebf18","system_id":"levelo_inurba_marseille","lat":43.317075,"lon":5.377367,"is_reserved":false,"is_disabled":false,"rental_uris":{"android":"levelo://app?vid=536c548e-f26a-4f2c-8478-2c31233ebf18","ios":"levelo://app?vid=536c548e-f26a-4f2c-8478-2c31233ebf18"},"vehicle_type_id":"4","last_reported":1693512423,"current_range_meters":26000,"station_id":"ce4bgth2rcd13ifvqch0","pricing_plan_id":"free"},{"bike_id":"1394391b-76a4-47b5-b055-d176f7a452cb","system_id":"levelo_inurba_marseille","lat":43.303046,"lon":5.368981,"is_reserved":false,"is_disabled":false,"rental_uris":{"android":"levelo://app?vid=1394391b-76a4-47b5-b055-d176f7a452cb","ios":"levelo://app?vid=1394391b-76a4-47b5-b055-d176f7a452cb"},"vehicle_type_id":"4","last_reported":1693512423,"current_range_meters":14000,"station_id":"ce4bgqh2rcd13ifvqc5g","pricing_plan_id":"free"},{"bike_id":"e2f9764a-7a45-4f7c-87e1-a583bc7334cb","system_id":"levelo_inurba_marseille","lat":43.3031,"lon":5.36897,"is_reserved":false,"is_disabled":false,"rental_uris":{"android":"levelo://app?vid=e2f9764a-7a45-4f7c-87e1-a583bc7334cb","ios":"levelo://app?vid=e2f9764a-7a45-4f7c-87e1-a583bc7334cb"},"vehicle_type_id":"4","last_reported":1693512423,"current_range_meters":21200,"station_id":"ce4bgqh2rcd13ifvqc5g","pricing_plan_id":"free"},{"bike_id":"f72b7f77-06ae-40ea-b296-9089da9e4c45","system_id":"levelo_inurba_marseille","lat":43.315293,"lon":5.380349,"is_reserved":false,"is_disabled":false,"rental_uris":{"android":"levelo://app?vid=f72b7f77-06ae-40ea-b296-9089da9e4c45","ios":"levelo://app?vid=f72b7f77-06ae-40ea-b296-9089da9e4c45"},"vehicle_type_id":"4","last_reported":1693512423,"current_range_meters":400,"station_id":"ce4bhsp2rcd13ifvqi50","pricing_plan_id":"free"},{"bike_id":"4abf28c8-542d-4caa-ab46-9f81497b0977","system_id":"levelo_inurba_marseille","lat":43.31537,"lon":5.38031,"is_reserved":false,"is_disabled":false,"rental_uris":{"android":"levelo://app?vid=4abf28c8-542d-4caa-ab46-9f81497b0977","ios":"levelo://app?vid=4abf28c8-542d-4caa-ab46-9f81497b0977"},"vehicle_type_id":"4","last_reported":1693512423,"current_range_meters":1200,"station_id":"ce4bhsp2rcd13ifvqi50","pricing_plan_id":"free"},{"bike_id":"58bb6726-9040-4762-b7cf-63391bfe0a32","system_id":"levelo_inurba_marseille","lat":43.31531,"lon":5.38043,"is_reserved":false,"is_disabled":false,"rental_uris":{"android":"levelo://app?vid=58bb6726-9040-4762-b7cf-63391bfe0a32","ios":"levelo://app?vid=58bb6726-9040-4762-b7cf-63391bfe0a32"},"vehicle_type_id":"4","last_reported":1693512423,"current_range_meters":15200,"station_id":"ce4bhsp2rcd13ifvqi50","pricing_plan_id":"free"},{"bike_id":"26830f1b-3359-414a-a945-bde0d26dff0e","system_id":"levelo_inurba_marseille","lat":43.301939,"lon":5.366286,"is_reserved":false,"is_disabled":false,"rental_uris":{"android":"levelo://app?vid=26830f1b-3359-414a-a945-bde0d26dff0e","ios":"levelo://app?vid=26830f1b-3359-414a-a945-bde0d26dff0e"},"vehicle_type_id":"4","last_reported":1693512423,"current_range_meters":0,"station_id":"ce4bgrh2rcd13ifvqc8g","pricing_plan_id":"free"},{"bike_id":"e0f89844-991e-4503-a437-a2c7576c25c2","system_id":"levelo_inurba_marseille","lat":43.301939,"lon":5.366286,"is_reserved":false,"is_disabled":false,"rental_uris":{"android":"levelo://app?vid=e0f89844-991e-4503-a437-a2c7576c25c2","ios":"levelo://app?vid=e0f89844-991e-4503-a437-a2c7576c25c2"},"vehicle_type_id":"4","last_reported":1693512423,"current_range_meters":15600,"station_id":"ce4bgrh2rcd13ifvqc8g","pricing_plan_id":"free"},{"bike_id":"4bf8d559-5dce-4dc7-9d9c-9f4d34c512cc","system_id":"levelo_inurba_marseille","lat":43.30801,"lon":5.38148,"is_reserved":false,"is_disabled":false,"rental_uris":{"android":"levelo://app?vid=4bf8d559-5dce-4dc7-9d9c-9f4d34c512cc","ios":"levelo://app?vid=4bf8d559-5dce-4dc7-9d9c-9f4d34c512cc"},"vehicle_type_id":"4","last_reported":1693512423,"current_range_meters":8400,"station_id":"ce4bgt12rcd13ifvqce0","pricing_plan_id":"free"},{"bike_id":"09c0d6dc-936e-46af-b388-c46183bf241b","system_id":"levelo_inurba_marseille","lat":43.30814,"lon":5.38159,"is_reserved":false,"is_disabled":false,"rental_uris":{"android":"levelo://app?vid=09c0d6dc-936e-46af-b388-c46183bf241b","ios":"levelo://app?vid=09c0d6dc-936e-46af-b388-c46183bf241b"},"vehicle_type_id":"4","last_reported":1693512423,"current_range_meters":17600,"station_id":"ce4bgt12rcd13ifvqce0","pricing_plan_id":"free"},{"bike_id":"2ae5b8db-d1ff-46d2-807d-a778cbd93a6e","system_id":"levelo_inurba_marseille","lat":43.308012,"lon":5.381511,"is_reserved":false,"is_disabled":false,"rental_uris":{"android":"levelo://app?vid=2ae5b8db-d1ff-46d2-807d-a778cbd93a6e","ios":"levelo://app?vid=2ae5b8db-d1ff-46d2-807d-a778cbd93a6e"},"vehicle_type_id":"4","last_reported":1693512423,"current_range_meters":3600,"station_id":"ce4bgt12rcd13ifvqce0","pricing_plan_id":"free"},{"bike_id":"822436b2-8910-4aa4-89d1-742436025735","system_id":"levelo_inurba_marseille","lat":43.308012,"lon":5.381511,"is_reserved":false,"is_disabled":false,"rental_uris":{"android":"levelo://app?vid=822436b2-8910-4aa4-89d1-742436025735","ios":"levelo://app?vid=822436b2-8910-4aa4-89d1-742436025735"},"vehicle_type_id":"4","last_reported":1693512423,"current_range_meters":25600,"station_id":"ce4bgt12rcd13ifvqce0","pricing_plan_id":"free"},{"bike_id":"ab2a71b1-cf45-4170-b2e5-464b1779fc70","system_id":"levelo_inurba_marseille","lat":43.31998,"lon":5.3816,"is_reserved":false,"is_disabled":false,"rental_uris":{"android":"levelo://app?vid=ab2a71b1-cf45-4170-b2e5-464b1779fc70","ios":"levelo://app?vid=ab2a71b1-cf45-4170-b2e5-464b1779fc70"},"vehicle_type_id":"4","last_reported":1693512423,"current_range_meters":1600,"station_id":"ce4bhr12rcd13ifvqhpg","pricing_plan_id":"free"},{"bike_id":"fbccc954-a677-496a-a71b-484fcb7f3767","system_id":"levelo_inurba_marseille","lat":43.313571,"lon":5.384829,"is_reserved":false,"is_disabled":false,"rental_uris":{"android":"levelo://app?vid=fbccc954-a677-496a-a71b-484fcb7f3767","ios":"levelo://app?vid=fbccc954-a677-496a-a71b-484fcb7f3767"},"vehicle_type_id":"4","last_reported":1693512423,"current_range_meters":12000,"station_id":"ce4bgt92rcd13ifvqcf0","pricing_plan_id":"free"},{"bike_id":"ae2e290b-8206-49b0-aace-5747457af896","system_id":"levelo_inurba_marseille","lat":43.313571,"lon":5.384829,"is_reserved":false,"is_disabled":false,"rental_uris":{"android":"levelo://app?vid=ae2e290b-8206-49b0-aace-5747457af896","ios":"levelo://app?vid=ae2e290b-8206-49b0-aace-5747457af896"},"vehicle_type_id":"4","last_reported":1693512423,"current_range_meters":2000,"station_id":"ce4bgt92rcd13ifvqcf0","pricing_plan_id":"free"},{"bike_id":"afe3450d-b88a-4b2c-abc6-1df6a40356bd","system_id":"levelo_inurba_marseille","lat":43.313571,"lon":5.384829,"is_reserved":false,"is_disabled":false,"rental_uris":{"android":"levelo://app?vid=afe3450d-b88a-4b2c-abc6-1df6a40356bd","ios":"levelo://app?vid=afe3450d-b88a-4b2c-abc6-1df6a40356bd"},"vehicle_type_id":"4","last_reported":1693512423,"current_range_meters":400,"station_id":"ce4bgt92rcd13ifvqcf0","pricing_plan_id":"free"},{"bike_id":"f720a373-6ca4-4583-85c8-3a1e16bb8838","system_id":"levelo_inurba_marseille","lat":43.29935,"lon":5.3655,"is_reserved":false,"is_disabled":false,"rental_uris":{"android":"levelo://app?vid=f720a373-6ca4-4583-85c8-3a1e16bb8838","ios":"levelo://app?vid=f720a373-6ca4-4583-85c8-3a1e16bb8838"},"vehicle_type_id":"4","last_reported":1693512423,"current_range_meters":24800,"station_id":"ce4bgm92rcd13ifvqbr0","pricing_plan_id":"free"},{"bike_id":"3a0f3c08-2cbc-4738-8df8-b67d9db9bea2","system_id":"levelo_inurba_marseille","lat":43.29933,"lon":5.36563,"is_reserved":false,"is_disabled":false,"rental_uris":{"android":"levelo://app?vid=3a0f3c08-2cbc-4738-8df8-b67d9db9bea2","ios":"levelo://app?vid=3a0f3c08-2cbc-4738-8df8-b67d9db9bea2"},"vehicle_type_id":"4","last_reported":1693512423,"current_range_meters":15200,"station_id":"ce4bgm92rcd13ifvqbr0","pricing_plan_id":"free"},{"bike_id":"13f35256-0127-4aaa-a477-54af04235e01","system_id":"levelo_inurba_marseille","lat":43.29931,"lon":5.36551,"is_reserved":false,"is_disabled":false,"rental_uris":{"android":"levelo://app?vid=13f35256-0127-4aaa-a477-54af04235e01","ios":"levelo://app?vid=13f35256-0127-4aaa-a477-54af04235e01"},"vehicle_type_id":"4","last_reported":1693512423,"current_range_meters":17600,"station_id":"ce4bgm92rcd13ifvqbr0","pricing_plan_id":"free"},{"bike_id":"34e4e463-358d-4af3-bc2b-39a81f4ea9fa","system_id":"levelo_inurba_marseille","lat":43.3124,"lon":5.38647,"is_reserved":false,"is_disabled":false,"rental_uris":{"android":"levelo://app?vid=34e4e463-358d-4af3-bc2b-39a81f4ea9fa","ios":"levelo://app?vid=34e4e463-358d-4af3-bc2b-39a81f4ea9fa"},"vehicle_type_id":"4","last_reported":1693512423,"current_range_meters":17600,"station_id":"","pricing_plan_id":"free"},{"bike_id":"a6a09b1d-1d82-496b-9e3e-aa90bc897510","system_id":"levelo_inurba_marseille","lat":43.29851,"lon":5.36281,"is_reserved":false,"is_disabled":false,"rental_uris":{"android":"levelo://app?vid=a6a09b1d-1d82-496b-9e3e-aa90bc897510","ios":"levelo://app?vid=a6a09b1d-1d82-496b-9e3e-aa90bc897510"},"vehicle_type_id":"4","last_reported":1693512423,"current_range_meters":7600,"station_id":"ce4bgpp2rcd13ifvqc3g","pricing_plan_id":"free"},{"bike_id":"8e2b9a06-00c4-4ca4-9e00-e0e873057ebf","system_id":"levelo_inurba_marseille","lat":43.29846,"lon":5.36278,"is_reserved":false,"is_disabled":false,"rental_uris":{"android":"levelo://app?vid=8e2b9a06-00c4-4ca4-9e00-e0e873057ebf","ios":"levelo://app?vid=8e2b9a06-00c4-4ca4-9e00-e0e873057ebf"},"vehicle_type_id":"4","last_reported":1693512423,"current_range_meters":8000,"station_id":"ce4bgpp2rcd13ifvqc3g","pricing_plan_id":"free"},{"bike_id":"50afd08b-540e-4b25-8079-b1998c4c08ec","system_id":"levelo_inurba_marseille","lat":43.298433,"lon":5.362774,"is_reserved":false,"is_disabled":false,"rental_uris":{"android":"levelo://app?vid=50afd08b-540e-4b25-8079-b1998c4c08ec","ios":"levelo://app?vid=50afd08b-540e-4b25-8079-b1998c4c08ec"},"vehicle_type_id":"4","last_reported":1693512423,"current_range_meters":0,"station_id":"ce4bgpp2rcd13ifvqc3g","pricing_plan_id":"free"},{"bike_id":"44e99f3d-5e89-4fba-ac89-184b1839557d","system_id":"levelo_inurba_marseille","lat":43.298433,"lon":5.362774,"is_reserved":false,"is_disabled":false,"rental_uris":{"android":"levelo://app?vid=44e99f3d-5e89-4fba-ac89-184b1839557d","ios":"levelo://app?vid=44e99f3d-5e89-4fba-ac89-184b1839557d"},"vehicle_type_id":"4","last_reported":1693512423,"current_range_meters":15600,"station_id":"ce4bgpp2rcd13ifvqc3g","pricing_plan_id":"free"},{"bike_id":"c9b0f246-e2af-4f82-95f5-3af8cfca2005","system_id":"levelo_inurba_marseille","lat":43.305364,"lon":5.384119,"is_reserved":false,"is_disabled":false,"rental_uris":{"android":"levelo://app?vid=c9b0f246-e2af-4f82-95f5-3af8cfca2005","ios":"levelo://app?vid=c9b0f246-e2af-4f82-95f5-3af8cfca2005"},"vehicle_type_id":"4","last_reported":1693512423,"current_range_meters":8000,"station_id":"ce4bgg92rcd13ifvqb30","pricing_plan_id":"free"},{"bike_id":"de903abe-b037-4e62-8863-78a07a6b3ca3","system_id":"levelo_inurba_marseille","lat":43.298433,"lon":5.362774,"is_reserved":false,"is_disabled":false,"rental_uris":{"android":"levelo://app?vid=de903abe-b037-4e62-8863-78a07a6b3ca3","ios":"levelo://app?vid=de903abe-b037-4e62-8863-78a07a6b3ca3"},"vehicle_type_id":"4","last_reported":1693512423,"current_range_meters":19600,"station_id":"ce4bgpp2rcd13ifvqc3g","pricing_plan_id":"free"},{"bike_id":"c3f28d3d-e590-483c-8636-a26254f9a9e4","system_id":"levelo_inurba_marseille","lat":43.298433,"lon":5.362774,"is_reserved":false,"is_disabled":false,"rental_uris":{"android":"levelo://app?vid=c3f28d3d-e590-483c-8636-a26254f9a9e4","ios":"levelo://app?vid=c3f28d3d-e590-483c-8636-a26254f9a9e4"},"vehicle_type_id":"4","last_reported":1693512423,"current_range_meters":19200,"station_id":"ce4bgpp2rcd13ifvqc3g","pricing_plan_id":"free"},{"bike_id":"7d6691e0-0742-4ab1-a2b8-07e741c19c76","system_id":"levelo_inurba_marseille","lat":43.31167,"lon":5.38707,"is_reserved":false,"is_disabled":false,"rental_uris":{"android":"levelo://app?vid=7d6691e0-0742-4ab1-a2b8-07e741c19c76","ios":"levelo://app?vid=7d6691e0-0742-4ab1-a2b8-07e741c19c76"},"vehicle_type_id":"4","last_reported":1693512423,"current_range_meters":9200,"station_id":"ce4bgv12rcd13ifvqcp0","pricing_plan_id":"free"},{"bike_id":"2f9e2def-2173-4eb4-a460-9a385f59debe","system_id":"levelo_inurba_marseille","lat":43.299243,"lon":5.37481,"is_reserved":false,"is_disabled":false,"rental_uris":{"android":"levelo://app?vid=2f9e2def-2173-4eb4-a460-9a385f59debe","ios":"levelo://app?vid=2f9e2def-2173-4eb4-a460-9a385f59debe"},"vehicle_type_id":"4","last_reported":1693512423,"current_range_meters":31200,"station_id":"ce4bgjh2rcd13ifvqbg0","pricing_plan_id":"free"},{"bike_id":"5d87c11d-8c46-4f07-b383-149754ffeb7f","system_id":"levelo_inurba_marseille","lat":43.31166,"lon":5.38711,"is_reserved":false,"is_disabled":false,"rental_uris":{"android":"levelo://app?vid=5d87c11d-8c46-4f07-b383-149754ffeb7f","ios":"levelo://app?vid=5d87c11d-8c46-4f07-b383-149754ffeb7f"},"vehicle_type_id":"4","last_reported":1693512423,"current_range_meters":22000,"station_id":"ce4bgv12rcd13ifvqcp0","pricing_plan_id":"free"},{"bike_id":"efa6cfb5-9240-4e6e-b550-6ae87d68e975","system_id":"levelo_inurba_marseille","lat":43.311722,"lon":5.387247,"is_reserved":false,"is_disabled":false,"rental_uris":{"android":"levelo://app?vid=efa6cfb5-9240-4e6e-b550-6ae87d68e975","ios":"levelo://app?vid=efa6cfb5-9240-4e6e-b550-6ae87d68e975"},"vehicle_type_id":"4","last_reported":1693512423,"current_range_meters":14400,"station_id":"ce4bgv12rcd13ifvqcp0","pricing_plan_id":"free"},{"bike_id":"e37052b9-621a-4d84-b2bd-20f9da224368","system_id":"levelo_inurba_marseille","lat":43.31171,"lon":5.38716,"is_reserved":false,"is_disabled":false,"rental_uris":{"android":"levelo://app?vid=e37052b9-621a-4d84-b2bd-20f9da224368","ios":"levelo://app?vid=e37052b9-621a-4d84-b2bd-20f9da224368"},"vehicle_type_id":"4","last_reported":1693512423,"current_range_meters":4800,"station_id":"ce4bgv12rcd13ifvqcp0","pricing_plan_id":"free"},{"bike_id":"9dda54f7-47e0-477e-976b-7bf9d39a9876","system_id":"levelo_inurba_marseille","lat":43.311722,"lon":5.387247,"is_reserved":false,"is_disabled":false,"rental_uris":{"android":"levelo://app?vid=9dda54f7-47e0-477e-976b-7bf9d39a9876","ios":"levelo://app?vid=9dda54f7-47e0-477e-976b-7bf9d39a9876"},"vehicle_type_id":"4","last_reported":1693512423,"current_range_meters":1600,"station_id":"ce4bgv12rcd13ifvqcp0","pricing_plan_id":"free"},{"bike_id":"a65e51a4-df05-47a3-bf01-d47e6807db74","system_id":"levelo_inurba_marseille","lat":43.31166,"lon":5.38717,"is_reserved":false,"is_disabled":false,"rental_uris":{"android":"levelo://app?vid=a65e51a4-df05-47a3-bf01-d47e6807db74","ios":"levelo://app?vid=a65e51a4-df05-47a3-bf01-d47e6807db74"},"vehicle_type_id":"4","last_reported":1693512423,"current_range_meters":22400,"station_id":"ce4bgv12rcd13ifvqcp0","pricing_plan_id":"free"},{"bike_id":"e382927a-7162-40a5-976e-79434f08ea52","system_id":"levelo_inurba_marseille","lat":43.31168,"lon":5.38724,"is_reserved":false,"is_disabled":false,"rental_uris":{"android":"levelo://app?vid=e382927a-7162-40a5-976e-79434f08ea52","ios":"levelo://app?vid=e382927a-7162-40a5-976e-79434f08ea52"},"vehicle_type_id":"4","last_reported":1693512423,"current_range_meters":22000,"station_id":"ce4bgv12rcd13ifvqcp0","pricing_plan_id":"free"},{"bike_id":"924d6452-f7f7-4baa-af9a-49926af70474","system_id":"levelo_inurba_marseille","lat":43.297794,"lon":5.370888,"is_reserved":false,"is_disabled":false,"rental_uris":{"android":"levelo://app?vid=924d6452-f7f7-4baa-af9a-49926af70474","ios":"levelo://app?vid=924d6452-f7f7-4baa-af9a-49926af70474"},"vehicle_type_id":"4","last_reported":1693512423,"current_range_meters":28000,"station_id":"ce4bgop2rcd13ifvqc1g","pricing_plan_id":"free"},{"bike_id":"96c08aab-7e9e-4fad-af17-951d0c5dbac6","system_id":"levelo_inurba_marseille","lat":43.297774,"lon":5.370875,"is_reserved":false,"is_disabled":false,"rental_uris":{"android":"levelo://app?vid=96c08aab-7e9e-4fad-af17-951d0c5dbac6","ios":"levelo://app?vid=96c08aab-7e9e-4fad-af17-951d0c5dbac6"},"vehicle_type_id":"4","last_reported":1693512423,"current_range_meters":12400,"station_id":"ce4bgop2rcd13ifvqc1g","pricing_plan_id":"free"},{"bike_id":"8143ebd5-c5c5-467f-a353-1c0066f90341","system_id":"levelo_inurba_marseille","lat":43.297774,"lon":5.370875,"is_reserved":false,"is_disabled":false,"rental_uris":{"android":"levelo://app?vid=8143ebd5-c5c5-467f-a353-1c0066f90341","ios":"levelo://app?vid=8143ebd5-c5c5-467f-a353-1c0066f90341"},"vehicle_type_id":"4","last_reported":1693512423,"current_range_meters":31600,"station_id":"ce4bgop2rcd13ifvqc1g","pricing_plan_id":"free"},{"bike_id":"36dc30cc-8707-401f-a548-16d5de607dc5","system_id":"levelo_inurba_marseille","lat":43.32287,"lon":5.38269,"is_reserved":false,"is_disabled":false,"rental_uris":{"android":"levelo://app?vid=36dc30cc-8707-401f-a548-16d5de607dc5","ios":"levelo://app?vid=36dc30cc-8707-401f-a548-16d5de607dc5"},"vehicle_type_id":"4","last_reported":1693512423,"current_range_meters":23600,"station_id":"ce4bhr12rcd13ifvqhqg","pricing_plan_id":"free"},{"bike_id":"380b3064-a6d4-48b3-a86f-3a87c3eb24d4","system_id":"levelo_inurba_marseille","lat":43.322872,"lon":5.382756,"is_reserved":false,"is_disabled":false,"rental_uris":{"android":"levelo://app?vid=380b3064-a6d4-48b3-a86f-3a87c3eb24d4","ios":"levelo://app?vid=380b3064-a6d4-48b3-a86f-3a87c3eb24d4"},"vehicle_type_id":"4","last_reported":1693512423,"current_range_meters":23600,"station_id":"ce4bhr12rcd13ifvqhqg","pricing_plan_id":"free"},{"bike_id":"c29114e8-dc25-4be3-832f-1611beb9061c","system_id":"levelo_inurba_marseille","lat":43.322903,"lon":5.382703,"is_reserved":false,"is_disabled":false,"rental_uris":{"android":"levelo://app?vid=c29114e8-dc25-4be3-832f-1611beb9061c","ios":"levelo://app?vid=c29114e8-dc25-4be3-832f-1611beb9061c"},"vehicle_type_id":"4","last_reported":1693512423,"current_range_meters":7600,"station_id":"ce4bhr12rcd13ifvqhqg","pricing_plan_id":"free"},{"bike_id":"4d68b32a-f525-41e1-9b8a-138c46b77005","system_id":"levelo_inurba_marseille","lat":43.328371,"lon":5.366912,"is_reserved":false,"is_disabled":false,"rental_uris":{"android":"levelo://app?vid=4d68b32a-f525-41e1-9b8a-138c46b77005","ios":"levelo://app?vid=4d68b32a-f525-41e1-9b8a-138c46b77005"},"vehicle_type_id":"4","last_reported":1693512423,"current_range_meters":10400,"station_id":"ce4bhs92rcd13ifvqi0g","pricing_plan_id":"free"},{"bike_id":"243ad62e-9964-4e2f-afc3-82031035ad31","system_id":"levelo_inurba_marseille","lat":43.32832,"lon":5.36683,"is_reserved":false,"is_disabled":false,"rental_uris":{"android":"levelo://app?vid=243ad62e-9964-4e2f-afc3-82031035ad31","ios":"levelo://app?vid=243ad62e-9964-4e2f-afc3-82031035ad31"},"vehicle_type_id":"4","last_reported":1693512423,"current_range_meters":28000,"station_id":"ce4bhs92rcd13ifvqi0g","pricing_plan_id":"free"},{"bike_id":"bd0bd295-6ecc-40c4-a4d0-89f645593756","system_id":"levelo_inurba_marseille","lat":43.297163,"lon":5.365866,"is_reserved":false,"is_disabled":false,"rental_uris":{"android":"levelo://app?vid=bd0bd295-6ecc-40c4-a4d0-89f645593756","ios":"levelo://app?vid=bd0bd295-6ecc-40c4-a4d0-89f645593756"},"vehicle_type_id":"4","last_reported":1693512423,"current_range_meters":21600,"station_id":"ce4bgn12rcd13ifvqbt0","pricing_plan_id":"free"},{"bike_id":"dd789220-e7b5-42c1-b9dc-dc4243148021","system_id":"levelo_inurba_marseille","lat":43.29705,"lon":5.366,"is_reserved":false,"is_disabled":false,"rental_uris":{"android":"levelo://app?vid=dd789220-e7b5-42c1-b9dc-dc4243148021","ios":"levelo://app?vid=dd789220-e7b5-42c1-b9dc-dc4243148021"},"vehicle_type_id":"4","last_reported":1693512423,"current_range_meters":29600,"station_id":"ce4bgn12rcd13ifvqbt0","pricing_plan_id":"free"},{"bike_id":"c8dc0c2e-b08c-4502-93d9-8db1a74262a5","system_id":"levelo_inurba_marseille","lat":43.297163,"lon":5.365866,"is_reserved":false,"is_disabled":false,"rental_uris":{"android":"levelo://app?vid=c8dc0c2e-b08c-4502-93d9-8db1a74262a5","ios":"levelo://app?vid=c8dc0c2e-b08c-4502-93d9-8db1a74262a5"},"vehicle_type_id":"4","last_reported":1693512423,"current_range_meters":800,"station_id":"ce4bgn12rcd13ifvqbt0","pricing_plan_id":"free"},{"bike_id":"6f472ff8-eb62-451a-be43-6cba680e60c4","system_id":"levelo_inurba_marseille","lat":43.297163,"lon":5.365866,"is_reserved":false,"is_disabled":false,"rental_uris":{"android":"levelo://app?vid=6f472ff8-eb62-451a-be43-6cba680e60c4","ios":"levelo://app?vid=6f472ff8-eb62-451a-be43-6cba680e60c4"},"vehicle_type_id":"4","last_reported":1693512423,"current_range_meters":22000,"station_id":"ce4bgn12rcd13ifvqbt0","pricing_plan_id":"free"},{"bike_id":"2d38d843-9501-4a8b-8d1e-e53e054245cc","system_id":"levelo_inurba_marseille","lat":43.32164,"lon":5.38573,"is_reserved":false,"is_disabled":false,"rental_uris":{"android":"levelo://app?vid=2d38d843-9501-4a8b-8d1e-e53e054245cc","ios":"levelo://app?vid=2d38d843-9501-4a8b-8d1e-e53e054245cc"},"vehicle_type_id":"4","last_reported":1693512423,"current_range_meters":28400,"station_id":"","pricing_plan_id":"free"},{"bike_id":"10d32cd1-8307-45ca-ad3e-2653e5514234","system_id":"levelo_inurba_marseille","lat":43.2964,"lon":5.37123,"is_reserved":false,"is_disabled":false,"rental_uris":{"android":"levelo://app?vid=10d32cd1-8307-45ca-ad3e-2653e5514234","ios":"levelo://app?vid=10d32cd1-8307-45ca-ad3e-2653e5514234"},"vehicle_type_id":"4","last_reported":1693512423,"current_range_meters":0,"station_id":"","pricing_plan_id":"free"},{"bike_id":"65d934c8-ea94-404c-b991-a012f59c0b64","system_id":"levelo_inurba_marseille","lat":43.296131,"lon":5.370773,"is_reserved":false,"is_disabled":false,"rental_uris":{"android":"levelo://app?vid=65d934c8-ea94-404c-b991-a012f59c0b64","ios":"levelo://app?vid=65d934c8-ea94-404c-b991-a012f59c0b64"},"vehicle_type_id":"4","last_reported":1693512423,"current_range_meters":26400,"station_id":"ce4bgnh2rcd13ifvqc0g","pricing_plan_id":"free"},{"bike_id":"d3139180-8ba9-4c91-b6e4-8baae3c22113","system_id":"levelo_inurba_marseille","lat":43.296131,"lon":5.370773,"is_reserved":false,"is_disabled":false,"rental_uris":{"android":"levelo://app?vid=d3139180-8ba9-4c91-b6e4-8baae3c22113","ios":"levelo://app?vid=d3139180-8ba9-4c91-b6e4-8baae3c22113"},"vehicle_type_id":"4","last_reported":1693512423,"current_range_meters":31200,"station_id":"ce4bgnh2rcd13ifvqc0g","pricing_plan_id":"free"},{"bike_id":"dc0efc11-c00a-4d6f-a959-1bfc15a6ac80","system_id":"levelo_inurba_marseille","lat":43.29573,"lon":5.367355,"is_reserved":false,"is_disabled":false,"rental_uris":{"android":"levelo://app?vid=dc0efc11-c00a-4d6f-a959-1bfc15a6ac80","ios":"levelo://app?vid=dc0efc11-c00a-4d6f-a959-1bfc15a6ac80"},"vehicle_type_id":"4","last_reported":1693512423,"current_range_meters":13200,"station_id":"ce4bgph2rcd13ifvqc2g","pricing_plan_id":"free"},{"bike_id":"f25c301a-28c7-4421-ba00-b71afa8e1d78","system_id":"levelo_inurba_marseille","lat":43.29573,"lon":5.367355,"is_reserved":false,"is_disabled":false,"rental_uris":{"android":"levelo://app?vid=f25c301a-28c7-4421-ba00-b71afa8e1d78","ios":"levelo://app?vid=f25c301a-28c7-4421-ba00-b71afa8e1d78"},"vehicle_type_id":"4","last_reported":1693512423,"current_range_meters":2000,"station_id":"ce4bgph2rcd13ifvqc2g","pricing_plan_id":"free"},{"bike_id":"740dce6a-3f67-4571-a2a7-d618a8df53ce","system_id":"levelo_inurba_marseille","lat":43.29573,"lon":5.367355,"is_reserved":false,"is_disabled":false,"rental_uris":{"android":"levelo://app?vid=740dce6a-3f67-4571-a2a7-d618a8df53ce","ios":"levelo://app?vid=740dce6a-3f67-4571-a2a7-d618a8df53ce"},"vehicle_type_id":"4","last_reported":1693512423,"current_range_meters":14000,"station_id":"ce4bgph2rcd13ifvqc2g","pricing_plan_id":"free"},{"bike_id":"74603b1d-5a06-445b-bae1-cbfb427aa90e","system_id":"levelo_inurba_marseille","lat":43.309589,"lon":5.390258,"is_reserved":false,"is_disabled":false,"rental_uris":{"android":"levelo://app?vid=74603b1d-5a06-445b-bae1-cbfb427aa90e","ios":"levelo://app?vid=74603b1d-5a06-445b-bae1-cbfb427aa90e"},"vehicle_type_id":"4","last_reported":1693512423,"current_range_meters":22800,"station_id":"ce4bgup2rcd13ifvqco0","pricing_plan_id":"free"},{"bike_id":"5b44def6-9969-4cd2-9ea9-b457346871dd","system_id":"levelo_inurba_marseille","lat":43.30951,"lon":5.39041,"is_reserved":false,"is_disabled":false,"rental_uris":{"android":"levelo://app?vid=5b44def6-9969-4cd2-9ea9-b457346871dd","ios":"levelo://app?vid=5b44def6-9969-4cd2-9ea9-b457346871dd"},"vehicle_type_id":"4","last_reported":1693512423,"current_range_meters":28400,"station_id":"ce4bgup2rcd13ifvqco0","pricing_plan_id":"free"},{"bike_id":"2c93ce6f-c5e1-4ec9-9941-ebb7469bb8f2","system_id":"levelo_inurba_marseille","lat":43.31763,"lon":5.39005,"is_reserved":false,"is_disabled":false,"rental_uris":{"android":"levelo://app?vid=2c93ce6f-c5e1-4ec9-9941-ebb7469bb8f2","ios":"levelo://app?vid=2c93ce6f-c5e1-4ec9-9941-ebb7469bb8f2"},"vehicle_type_id":"4","last_reported":1693512423,"current_range_meters":22800,"station_id":"ce4bhqp2rcd13ifvqhng","pricing_plan_id":"free"},{"bike_id":"935beb17-0fba-4795-85f1-edd7d3c4d835","system_id":"levelo_inurba_marseille","lat":43.317557,"lon":5.390173,"is_reserved":false,"is_disabled":false,"rental_uris":{"android":"levelo://app?vid=935beb17-0fba-4795-85f1-edd7d3c4d835","ios":"levelo://app?vid=935beb17-0fba-4795-85f1-edd7d3c4d835"},"vehicle_type_id":"4","last_reported":1693512423,"current_range_meters":22800,"station_id":"ce4bhqp2rcd13ifvqhng","pricing_plan_id":"free"},{"bike_id":"720dd94e-a706-4e3a-afd3-a1f49ede6b8a","system_id":"levelo_inurba_marseille","lat":43.31759,"lon":5.39013,"is_reserved":false,"is_disabled":false,"rental_uris":{"android":"levelo://app?vid=720dd94e-a706-4e3a-afd3-a1f49ede6b8a","ios":"levelo://app?vid=720dd94e-a706-4e3a-afd3-a1f49ede6b8a"},"vehicle_type_id":"4","last_reported":1693512423,"current_range_meters":16400,"station_id":"","pricing_plan_id":"free"},{"bike_id":"792b5992-c376-483e-a72d-036ff9063de7","system_id":"levelo_inurba_marseille","lat":43.317557,"lon":5.390173,"is_reserved":false,"is_disabled":false,"rental_uris":{"android":"levelo://app?vid=792b5992-c376-483e-a72d-036ff9063de7","ios":"levelo://app?vid=792b5992-c376-483e-a72d-036ff9063de7"},"vehicle_type_id":"4","last_reported":1693512423,"current_range_meters":12400,"station_id":"ce4bhqp2rcd13ifvqhng","pricing_plan_id":"free"},{"bike_id":"3576e508-5e18-40e2-93e2-9ac9dce76ede","system_id":"levelo_inurba_marseille","lat":43.317557,"lon":5.390173,"is_reserved":false,"is_disabled":false,"rental_uris":{"android":"levelo://app?vid=3576e508-5e18-40e2-93e2-9ac9dce76ede","ios":"levelo://app?vid=3576e508-5e18-40e2-93e2-9ac9dce76ede"},"vehicle_type_id":"4","last_reported":1693512423,"current_range_meters":29600,"station_id":"ce4bhqp2rcd13ifvqhng","pricing_plan_id":"free"},{"bike_id":"a3c3bd2c-55bc-49d7-b4d7-41e93c26373a","system_id":"levelo_inurba_marseille","lat":43.317557,"lon":5.390173,"is_reserved":false,"is_disabled":false,"rental_uris":{"android":"levelo://app?vid=a3c3bd2c-55bc-49d7-b4d7-41e93c26373a","ios":"levelo://app?vid=a3c3bd2c-55bc-49d7-b4d7-41e93c26373a"},"vehicle_type_id":"4","last_reported":1693512423,"current_range_meters":6800,"station_id":"ce4bhqp2rcd13ifvqhng","pricing_plan_id":"free"},{"bike_id":"86d37462-6f2c-4ee1-b5e1-16f3e9285866","system_id":"levelo_inurba_marseille","lat":43.31755,"lon":5.39023,"is_reserved":false,"is_disabled":false,"rental_uris":{"android":"levelo://app?vid=86d37462-6f2c-4ee1-b5e1-16f3e9285866","ios":"levelo://app?vid=86d37462-6f2c-4ee1-b5e1-16f3e9285866"},"vehicle_type_id":"4","last_reported":1693512423,"current_range_meters":23200,"station_id":"ce4bhqp2rcd13ifvqhng","pricing_plan_id":"free"},{"bike_id":"88d9d596-f438-4684-ae9f-d2d3fa8d2d69","system_id":"levelo_inurba_marseille","lat":43.317557,"lon":5.390173,"is_reserved":false,"is_disabled":false,"rental_uris":{"android":"levelo://app?vid=88d9d596-f438-4684-ae9f-d2d3fa8d2d69","ios":"levelo://app?vid=88d9d596-f438-4684-ae9f-d2d3fa8d2d69"},"vehicle_type_id":"4","last_reported":1693512423,"current_range_meters":16400,"station_id":"ce4bhqp2rcd13ifvqhng","pricing_plan_id":"free"},{"bike_id":"939920dd-4f04-4cad-a700-9d3d53977bcd","system_id":"levelo_inurba_marseille","lat":43.298091,"lon":5.380838,"is_reserved":false,"is_disabled":false,"rental_uris":{"android":"levelo://app?vid=939920dd-4f04-4cad-a700-9d3d53977bcd","ios":"levelo://app?vid=939920dd-4f04-4cad-a700-9d3d53977bcd"},"vehicle_type_id":"4","last_reported":1693512423,"current_range_meters":12800,"station_id":"ce4bgip2rcd13ifvqbb0","pricing_plan_id":"free"},{"bike_id":"1389e75d-d269-4088-996e-871885fd01a0","system_id":"levelo_inurba_marseille","lat":43.298037,"lon":5.381066,"is_reserved":false,"is_disabled":false,"rental_uris":{"android":"levelo://app?vid=1389e75d-d269-4088-996e-871885fd01a0","ios":"levelo://app?vid=1389e75d-d269-4088-996e-871885fd01a0"},"vehicle_type_id":"4","last_reported":1693512423,"current_range_meters":0,"station_id":"ce4bgip2rcd13ifvqbb0","pricing_plan_id":"free"},{"bike_id":"febe4ea8-8f0d-4494-97af-9404dd5b0929","system_id":"levelo_inurba_marseille","lat":43.298037,"lon":5.381066,"is_reserved":false,"is_disabled":false,"rental_uris":{"android":"levelo://app?vid=febe4ea8-8f0d-4494-97af-9404dd5b0929","ios":"levelo://app?vid=febe4ea8-8f0d-4494-97af-9404dd5b0929"},"vehicle_type_id":"4","last_reported":1693512423,"current_range_meters":1200,"station_id":"ce4bgip2rcd13ifvqbb0","pricing_plan_id":"free"},{"bike_id":"d2ea3322-313d-45ae-8422-0c9eaaa67a96","system_id":"levelo_inurba_marseille","lat":43.29798,"lon":5.38093,"is_reserved":false,"is_disabled":false,"rental_uris":{"android":"levelo://app?vid=d2ea3322-313d-45ae-8422-0c9eaaa67a96","ios":"levelo://app?vid=d2ea3322-313d-45ae-8422-0c9eaaa67a96"},"vehicle_type_id":"4","last_reported":1693512423,"current_range_meters":12800,"station_id":"ce4bgip2rcd13ifvqbb0","pricing_plan_id":"free"},{"bike_id":"68204a09-ffd5-456a-a0cf-f10abe0c3b99","system_id":"levelo_inurba_marseille","lat":43.29576,"lon":5.37513,"is_reserved":false,"is_disabled":false,"rental_uris":{"android":"levelo://app?vid=68204a09-ffd5-456a-a0cf-f10abe0c3b99","ios":"levelo://app?vid=68204a09-ffd5-456a-a0cf-f10abe0c3b99"},"vehicle_type_id":"4","last_reported":1693512423,"current_range_meters":0,"station_id":"ce4bgh92rcd13ifvqb50","pricing_plan_id":"free"},{"bike_id":"622d6978-a8dc-460a-bf69-c65029d17378","system_id":"levelo_inurba_marseille","lat":43.30437,"lon":5.3889,"is_reserved":false,"is_disabled":false,"rental_uris":{"android":"levelo://app?vid=622d6978-a8dc-460a-bf69-c65029d17378","ios":"levelo://app?vid=622d6978-a8dc-460a-bf69-c65029d17378"},"vehicle_type_id":"4","last_reported":1693512423,"current_range_meters":6400,"station_id":"ce4bgk12rcd13ifvqbi0","pricing_plan_id":"free"},{"bike_id":"a73a1a60-6cd9-46f7-9808-0b2f99e3b5e1","system_id":"levelo_inurba_marseille","lat":43.29975,"lon":5.38485,"is_reserved":false,"is_disabled":false,"rental_uris":{"android":"levelo://app?vid=a73a1a60-6cd9-46f7-9808-0b2f99e3b5e1","ios":"levelo://app?vid=a73a1a60-6cd9-46f7-9808-0b2f99e3b5e1"},"vehicle_type_id":"4","last_reported":1693512423,"current_range_meters":5600,"station_id":"ce4bgj92rcd13ifvqbd0","pricing_plan_id":"free"},{"bike_id":"28627494-8426-4f06-a1e1-2515aaeb09eb","system_id":"levelo_inurba_marseille","lat":43.29525,"lon":5.3751,"is_reserved":false,"is_disabled":false,"rental_uris":{"android":"levelo://app?vid=28627494-8426-4f06-a1e1-2515aaeb09eb","ios":"levelo://app?vid=28627494-8426-4f06-a1e1-2515aaeb09eb"},"vehicle_type_id":"4","last_reported":1693512423,"current_range_meters":25600,"station_id":"ce4bgkp2rcd13ifvqbmg","pricing_plan_id":"free"},{"bike_id":"2496b897-edbd-4d29-abec-ad4a9e02d494","system_id":"levelo_inurba_marseille","lat":43.299717,"lon":5.384845,"is_reserved":false,"is_disabled":false,"rental_uris":{"android":"levelo://app?vid=2496b897-edbd-4d29-abec-ad4a9e02d494","ios":"levelo://app?vid=2496b897-edbd-4d29-abec-ad4a9e02d494"},"vehicle_type_id":"4","last_reported":1693512423,"current_range_meters":12000,"station_id":"ce4bgj92rcd13ifvqbd0","pricing_plan_id":"free"},{"bike_id":"79f67bfc-d73f-4bbe-9f2e-815ee8cb5fce","system_id":"levelo_inurba_marseille","lat":43.299717,"lon":5.384845,"is_reserved":false,"is_disabled":false,"rental_uris":{"android":"levelo://app?vid=79f67bfc-d73f-4bbe-9f2e-815ee8cb5fce","ios":"levelo://app?vid=79f67bfc-d73f-4bbe-9f2e-815ee8cb5fce"},"vehicle_type_id":"4","last_reported":1693512423,"current_range_meters":29600,"station_id":"ce4bgj92rcd13ifvqbd0","pricing_plan_id":"free"},{"bike_id":"b16c0dbf-273d-4cd4-b83c-1e94aa4d8ef0","system_id":"levelo_inurba_marseille","lat":43.29513,"lon":5.37516,"is_reserved":false,"is_disabled":false,"rental_uris":{"android":"levelo://app?vid=b16c0dbf-273d-4cd4-b83c-1e94aa4d8ef0","ios":"levelo://app?vid=b16c0dbf-273d-4cd4-b83c-1e94aa4d8ef0"},"vehicle_type_id":"4","last_reported":1693512423,"current_range_meters":13600,"station_id":"ce4bgkp2rcd13ifvqbmg","pricing_plan_id":"free"},{"bike_id":"14a4fd98-cf7d-4f74-afae-e35e8b6eb8a0","system_id":"levelo_inurba_marseille","lat":43.299717,"lon":5.384845,"is_reserved":false,"is_disabled":false,"rental_uris":{"android":"levelo://app?vid=14a4fd98-cf7d-4f74-afae-e35e8b6eb8a0","ios":"levelo://app?vid=14a4fd98-cf7d-4f74-afae-e35e8b6eb8a0"},"vehicle_type_id":"4","last_reported":1693512423,"current_range_meters":30800,"station_id":"ce4bgj92rcd13ifvqbd0","pricing_plan_id":"free"},{"bike_id":"065bcbbf-4978-40a8-9cc4-a0cbd2ceb2cb","system_id":"levelo_inurba_marseille","lat":43.3236,"lon":5.38881,"is_reserved":false,"is_disabled":false,"rental_uris":{"android":"levelo://app?vid=065bcbbf-4978-40a8-9cc4-a0cbd2ceb2cb","ios":"levelo://app?vid=065bcbbf-4978-40a8-9cc4-a0cbd2ceb2cb"},"vehicle_type_id":"4","last_reported":1693512423,"current_range_meters":12800,"station_id":"ce4bhqp2rcd13ifvqhog","pricing_plan_id":"free"},{"bike_id":"32431900-e5b2-4351-92b6-d8ed3ec60164","system_id":"levelo_inurba_marseille","lat":43.32364,"lon":5.3888,"is_reserved":false,"is_disabled":false,"rental_uris":{"android":"levelo://app?vid=32431900-e5b2-4351-92b6-d8ed3ec60164","ios":"levelo://app?vid=32431900-e5b2-4351-92b6-d8ed3ec60164"},"vehicle_type_id":"4","last_reported":1693512423,"current_range_meters":12800,"station_id":"ce4bhqp2rcd13ifvqhog","pricing_plan_id":"free"},{"bike_id":"75dd2d9b-e11c-4209-90bf-8c81a9698c47","system_id":"levelo_inurba_marseille","lat":43.32363,"lon":5.38882,"is_reserved":false,"is_disabled":false,"rental_uris":{"android":"levelo://app?vid=75dd2d9b-e11c-4209-90bf-8c81a9698c47","ios":"levelo://app?vid=75dd2d9b-e11c-4209-90bf-8c81a9698c47"},"vehicle_type_id":"4","last_reported":1693512423,"current_range_meters":13600,"station_id":"ce4bhqp2rcd13ifvqhog","pricing_plan_id":"free"},{"bike_id":"2b97dc1d-285c-4b1c-a64a-1cdad8afbc16","system_id":"levelo_inurba_marseille","lat":43.32366,"lon":5.38883,"is_reserved":false,"is_disabled":false,"rental_uris":{"android":"levelo://app?vid=2b97dc1d-285c-4b1c-a64a-1cdad8afbc16","ios":"levelo://app?vid=2b97dc1d-285c-4b1c-a64a-1cdad8afbc16"},"vehicle_type_id":"4","last_reported":1693512423,"current_range_meters":16400,"station_id":"ce4bhqp2rcd13ifvqhog","pricing_plan_id":"free"},{"bike_id":"441b4bf0-2f81-424d-80e6-f67d81a2e87f","system_id":"levelo_inurba_marseille","lat":43.32367,"lon":5.38883,"is_reserved":false,"is_disabled":false,"rental_uris":{"android":"levelo://app?vid=441b4bf0-2f81-424d-80e6-f67d81a2e87f","ios":"levelo://app?vid=441b4bf0-2f81-424d-80e6-f67d81a2e87f"},"vehicle_type_id":"4","last_reported":1693512423,"current_range_meters":13600,"station_id":"ce4bhqp2rcd13ifvqhog","pricing_plan_id":"free"},{"bike_id":"5a3a50cc-32e2-455f-b26b-345f0fc0c89d","system_id":"levelo_inurba_marseille","lat":43.29602,"lon":5.381084,"is_reserved":false,"is_disabled":false,"rental_uris":{"android":"levelo://app?vid=5a3a50cc-32e2-455f-b26b-345f0fc0c89d","ios":"levelo://app?vid=5a3a50cc-32e2-455f-b26b-345f0fc0c89d"},"vehicle_type_id":"4","last_reported":1693512423,"current_range_meters":9600,"station_id":"ce4bgl12rcd13ifvqbo0","pricing_plan_id":"free"},{"bike_id":"f6dd50f7-afad-46f0-a59b-a6e45efe0321","system_id":"levelo_inurba_marseille","lat":43.29282,"lon":5.36844,"is_reserved":false,"is_disabled":false,"rental_uris":{"android":"levelo://app?vid=f6dd50f7-afad-46f0-a59b-a6e45efe0321","ios":"levelo://app?vid=f6dd50f7-afad-46f0-a59b-a6e45efe0321"},"vehicle_type_id":"4","last_reported":1693512423,"current_range_meters":6800,"station_id":"ce4bhbp2rcd13ifvqesg","pricing_plan_id":"free"},{"bike_id":"5fb22c69-e4a2-4d9f-8e1d-29119795c5dd","system_id":"levelo_inurba_marseille","lat":43.29271,"lon":5.36839,"is_reserved":false,"is_disabled":false,"rental_uris":{"android":"levelo://app?vid=5fb22c69-e4a2-4d9f-8e1d-29119795c5dd","ios":"levelo://app?vid=5fb22c69-e4a2-4d9f-8e1d-29119795c5dd"},"vehicle_type_id":"4","last_reported":1693512423,"current_range_meters":3600,"station_id":"ce4bhbp2rcd13ifvqesg","pricing_plan_id":"free"},{"bike_id":"af378848-4ab5-4a0c-a75c-c290cd6c3483","system_id":"levelo_inurba_marseille","lat":43.32459,"lon":5.38946,"is_reserved":false,"is_disabled":false,"rental_uris":{"android":"levelo://app?vid=af378848-4ab5-4a0c-a75c-c290cd6c3483","ios":"levelo://app?vid=af378848-4ab5-4a0c-a75c-c290cd6c3483"},"vehicle_type_id":"4","last_reported":1693512423,"current_range_meters":6000,"station_id":"","pricing_plan_id":"free"},{"bike_id":"cddddfb0-4a61-4f2c-8cd8-d2e8bb96d8bc","system_id":"levelo_inurba_marseille","lat":43.29248,"lon":5.36702,"is_reserved":false,"is_disabled":false,"rental_uris":{"android":"levelo://app?vid=cddddfb0-4a61-4f2c-8cd8-d2e8bb96d8bc","ios":"levelo://app?vid=cddddfb0-4a61-4f2c-8cd8-d2e8bb96d8bc"},"vehicle_type_id":"4","last_reported":1693512423,"current_range_meters":31200,"station_id":"","pricing_plan_id":"free"},{"bike_id":"0f84c312-3632-45b1-980e-b12edfe77701","system_id":"levelo_inurba_marseille","lat":43.305994,"lon":5.393687,"is_reserved":false,"is_disabled":false,"rental_uris":{"android":"levelo://app?vid=0f84c312-3632-45b1-980e-b12edfe77701","ios":"levelo://app?vid=0f84c312-3632-45b1-980e-b12edfe77701"},"vehicle_type_id":"4","last_reported":1693512423,"current_range_meters":26000,"station_id":"ce4bh0p2rcd13ifvqd80","pricing_plan_id":"free"},{"bike_id":"a65a0c79-80ef-47c7-ae93-6ddc6d5757d5","system_id":"levelo_inurba_marseille","lat":43.2936,"lon":5.37835,"is_reserved":false,"is_disabled":false,"rental_uris":{"android":"levelo://app?vid=a65a0c79-80ef-47c7-ae93-6ddc6d5757d5","ios":"levelo://app?vid=a65a0c79-80ef-47c7-ae93-6ddc6d5757d5"},"vehicle_type_id":"4","last_reported":1693512423,"current_range_meters":26400,"station_id":"ce4bgjh2rcd13ifvqbf0","pricing_plan_id":"free"},{"bike_id":"16ca5763-c1b2-466f-b704-88bf0c65b1e5","system_id":"levelo_inurba_marseille","lat":43.30311,"lon":5.39212,"is_reserved":false,"is_disabled":false,"rental_uris":{"android":"levelo://app?vid=16ca5763-c1b2-466f-b704-88bf0c65b1e5","ios":"levelo://app?vid=16ca5763-c1b2-466f-b704-88bf0c65b1e5"},"vehicle_type_id":"4","last_reported":1693512423,"current_range_meters":10000,"station_id":"ce4bgkh2rcd13ifvqbk0","pricing_plan_id":"free"},{"bike_id":"38fef587-7cc5-4800-b069-87b8f296a10a","system_id":"levelo_inurba_marseille","lat":43.30307,"lon":5.39215,"is_reserved":false,"is_disabled":false,"rental_uris":{"android":"levelo://app?vid=38fef587-7cc5-4800-b069-87b8f296a10a","ios":"levelo://app?vid=38fef587-7cc5-4800-b069-87b8f296a10a"},"vehicle_type_id":"4","last_reported":1693512423,"current_range_meters":28000,"station_id":"ce4bgkh2rcd13ifvqbk0","pricing_plan_id":"free"},{"bike_id":"85681cce-47ea-4e39-82ea-ed75c08af999","system_id":"levelo_inurba_marseille","lat":43.303002,"lon":5.392142,"is_reserved":false,"is_disabled":false,"rental_uris":{"android":"levelo://app?vid=85681cce-47ea-4e39-82ea-ed75c08af999","ios":"levelo://app?vid=85681cce-47ea-4e39-82ea-ed75c08af999"},"vehicle_type_id":"4","last_reported":1693512423,"current_range_meters":7200,"station_id":"ce4bgkh2rcd13ifvqbk0","pricing_plan_id":"free"},{"bike_id":"0724f352-a262-45b7-9b71-9a09ff17d945","system_id":"levelo_inurba_marseille","lat":43.30299,"lon":5.39217,"is_reserved":false,"is_disabled":false,"rental_uris":{"android":"levelo://app?vid=0724f352-a262-45b7-9b71-9a09ff17d945","ios":"levelo://app?vid=0724f352-a262-45b7-9b71-9a09ff17d945"},"vehicle_type_id":"4","last_reported":1693512423,"current_range_meters":2400,"station_id":"ce4bgkh2rcd13ifvqbk0","pricing_plan_id":"free"},{"bike_id":"59d4a7cc-c4d8-47e1-a63f-2e26b5d209c3","system_id":"levelo_inurba_marseille","lat":43.2936,"lon":5.37835,"is_reserved":false,"is_disabled":false,"rental_uris":{"android":"levelo://app?vid=59d4a7cc-c4d8-47e1-a63f-2e26b5d209c3","ios":"levelo://app?vid=59d4a7cc-c4d8-47e1-a63f-2e26b5d209c3"},"vehicle_type_id":"4","last_reported":1693512423,"current_range_meters":31200,"station_id":"ce4bgjh2rcd13ifvqbf0","pricing_plan_id":"free"},{"bike_id":"f701222b-76bf-4942-8928-1fc66eb8e9e0","system_id":"levelo_inurba_marseille","lat":43.30292,"lon":5.39221,"is_reserved":false,"is_disabled":false,"rental_uris":{"android":"levelo://app?vid=f701222b-76bf-4942-8928-1fc66eb8e9e0","ios":"levelo://app?vid=f701222b-76bf-4942-8928-1fc66eb8e9e0"},"vehicle_type_id":"4","last_reported":1693512423,"current_range_meters":11200,"station_id":"ce4bgkh2rcd13ifvqbk0","pricing_plan_id":"free"},{"bike_id":"996920af-004e-47d6-aad8-9345fc6ddf03","system_id":"levelo_inurba_marseille","lat":43.30085,"lon":5.390856,"is_reserved":false,"is_disabled":false,"rental_uris":{"android":"levelo://app?vid=996920af-004e-47d6-aad8-9345fc6ddf03","ios":"levelo://app?vid=996920af-004e-47d6-aad8-9345fc6ddf03"},"vehicle_type_id":"4","last_reported":1693512423,"current_range_meters":6000,"station_id":"ce4bh192rcd13ifvqdb0","pricing_plan_id":"free"},{"bike_id":"b127cb02-a67f-4944-955b-2653cb69db42","system_id":"levelo_inurba_marseille","lat":43.29142,"lon":5.36689,"is_reserved":false,"is_disabled":false,"rental_uris":{"android":"levelo://app?vid=b127cb02-a67f-4944-955b-2653cb69db42","ios":"levelo://app?vid=b127cb02-a67f-4944-955b-2653cb69db42"},"vehicle_type_id":"4","last_reported":1693512423,"current_range_meters":26000,"station_id":"ce4bhc92rcd13ifvqetg","pricing_plan_id":"free"},{"bike_id":"80afc2a9-0811-40fc-9500-cbfa005a909f","system_id":"levelo_inurba_marseille","lat":43.29879,"lon":5.38912,"is_reserved":false,"is_disabled":false,"rental_uris":{"android":"levelo://app?vid=80afc2a9-0811-40fc-9500-cbfa005a909f","ios":"levelo://app?vid=80afc2a9-0811-40fc-9500-cbfa005a909f"},"vehicle_type_id":"4","last_reported":1693512423,"current_range_meters":11600,"station_id":"ce4bh392rcd13ifvqdl0","pricing_plan_id":"free"},{"bike_id":"d64fac4b-7291-4ebb-93ea-846f2836ea09","system_id":"levelo_inurba_marseille","lat":43.31677,"lon":5.39579,"is_reserved":false,"is_disabled":false,"rental_uris":{"android":"levelo://app?vid=d64fac4b-7291-4ebb-93ea-846f2836ea09","ios":"levelo://app?vid=d64fac4b-7291-4ebb-93ea-846f2836ea09"},"vehicle_type_id":"4","last_reported":1693512423,"current_range_meters":30000,"station_id":"","pricing_plan_id":"free"},{"bike_id":"fe93a250-b791-4ed0-b521-fefcf7b94e9e","system_id":"levelo_inurba_marseille","lat":43.29195,"lon":5.35803,"is_reserved":false,"is_disabled":false,"rental_uris":{"android":"levelo://app?vid=fe93a250-b791-4ed0-b521-fefcf7b94e9e","ios":"levelo://app?vid=fe93a250-b791-4ed0-b521-fefcf7b94e9e"},"vehicle_type_id":"4","last_reported":1693512423,"current_range_meters":10000,"station_id":"ce4bhb12rcd13ifvqel0","pricing_plan_id":"free"},{"bike_id":"5bb50458-ce48-4c00-a9a6-172a3f0bb3a1","system_id":"levelo_inurba_marseille","lat":43.313291,"lon":5.396838,"is_reserved":false,"is_disabled":false,"rental_uris":{"android":"levelo://app?vid=5bb50458-ce48-4c00-a9a6-172a3f0bb3a1","ios":"levelo://app?vid=5bb50458-ce48-4c00-a9a6-172a3f0bb3a1"},"vehicle_type_id":"4","last_reported":1693512423,"current_range_meters":31200,"station_id":"ce4bgvp2rcd13ifvqcu0","pricing_plan_id":"free"},{"bike_id":"411aecea-7042-42e2-9e4b-b0e27cbcc21a","system_id":"levelo_inurba_marseille","lat":43.3133,"lon":5.39689,"is_reserved":false,"is_disabled":false,"rental_uris":{"android":"levelo://app?vid=411aecea-7042-42e2-9e4b-b0e27cbcc21a","ios":"levelo://app?vid=411aecea-7042-42e2-9e4b-b0e27cbcc21a"},"vehicle_type_id":"4","last_reported":1693512423,"current_range_meters":22800,"station_id":"ce4bgvp2rcd13ifvqcu0","pricing_plan_id":"free"},{"bike_id":"43a8e9b2-011c-4001-9552-4aa717c36055","system_id":"levelo_inurba_marseille","lat":43.31328,"lon":5.39691,"is_reserved":false,"is_disabled":false,"rental_uris":{"android":"levelo://app?vid=43a8e9b2-011c-4001-9552-4aa717c36055","ios":"levelo://app?vid=43a8e9b2-011c-4001-9552-4aa717c36055"},"vehicle_type_id":"4","last_reported":1693512423,"current_range_meters":31200,"station_id":"ce4bgvp2rcd13ifvqcu0","pricing_plan_id":"free"},{"bike_id":"0f8222cc-ccbc-46f3-83f0-e8dfa7cc4061","system_id":"levelo_inurba_marseille","lat":43.309038,"lon":5.396546,"is_reserved":false,"is_disabled":false,"rental_uris":{"android":"levelo://app?vid=0f8222cc-ccbc-46f3-83f0-e8dfa7cc4061","ios":"levelo://app?vid=0f8222cc-ccbc-46f3-83f0-e8dfa7cc4061"},"vehicle_type_id":"4","last_reported":1693512423,"current_range_meters":31200,"station_id":"ce4bh012rcd13ifvqcv0","pricing_plan_id":"free"},{"bike_id":"478e5943-5bdf-46ce-b102-8c9dcf2b43b7","system_id":"levelo_inurba_marseille","lat":43.31327,"lon":5.39694,"is_reserved":false,"is_disabled":false,"rental_uris":{"android":"levelo://app?vid=478e5943-5bdf-46ce-b102-8c9dcf2b43b7","ios":"levelo://app?vid=478e5943-5bdf-46ce-b102-8c9dcf2b43b7"},"vehicle_type_id":"4","last_reported":1693512423,"current_range_meters":16800,"station_id":"ce4bgvp2rcd13ifvqcu0","pricing_plan_id":"free"},{"bike_id":"73c2e0c0-a939-4bc3-943a-e52094180bff","system_id":"levelo_inurba_marseille","lat":43.29186,"lon":5.35804,"is_reserved":false,"is_disabled":false,"rental_uris":{"android":"levelo://app?vid=73c2e0c0-a939-4bc3-943a-e52094180bff","ios":"levelo://app?vid=73c2e0c0-a939-4bc3-943a-e52094180bff"},"vehicle_type_id":"4","last_reported":1693512423,"current_range_meters":26800,"station_id":"ce4bhb12rcd13ifvqel0","pricing_plan_id":"free"},{"bike_id":"07e27ff4-77b5-4fd0-93a8-f24b799c166c","system_id":"levelo_inurba_marseille","lat":43.31331,"lon":5.39696,"is_reserved":false,"is_disabled":false,"rental_uris":{"android":"levelo://app?vid=07e27ff4-77b5-4fd0-93a8-f24b799c166c","ios":"levelo://app?vid=07e27ff4-77b5-4fd0-93a8-f24b799c166c"},"vehicle_type_id":"4","last_reported":1693512423,"current_range_meters":22000,"station_id":"ce4bgvp2rcd13ifvqcu0","pricing_plan_id":"free"},{"bike_id":"23d9ee89-f609-4ccd-a540-511e10d81855","system_id":"levelo_inurba_marseille","lat":43.31324,"lon":5.39699,"is_reserved":false,"is_disabled":false,"rental_uris":{"android":"levelo://app?vid=23d9ee89-f609-4ccd-a540-511e10d81855","ios":"levelo://app?vid=23d9ee89-f609-4ccd-a540-511e10d81855"},"vehicle_type_id":"4","last_reported":1693512423,"current_range_meters":4800,"station_id":"ce4bgvp2rcd13ifvqcu0","pricing_plan_id":"free"},{"bike_id":"5e9a18df-20fe-4272-82cd-f489868dbaef","system_id":"levelo_inurba_marseille","lat":43.30878,"lon":5.39651,"is_reserved":false,"is_disabled":false,"rental_uris":{"android":"levelo://app?vid=5e9a18df-20fe-4272-82cd-f489868dbaef","ios":"levelo://app?vid=5e9a18df-20fe-4272-82cd-f489868dbaef"},"vehicle_type_id":"4","last_reported":1693512423,"current_range_meters":9200,"station_id":"ce4bh012rcd13ifvqcv0","pricing_plan_id":"free"},{"bike_id":"e0b2f192-f373-4c48-a309-3bc1ba23c795","system_id":"levelo_inurba_marseille","lat":43.313291,"lon":5.396838,"is_reserved":false,"is_disabled":false,"rental_uris":{"android":"levelo://app?vid=e0b2f192-f373-4c48-a309-3bc1ba23c795","ios":"levelo://app?vid=e0b2f192-f373-4c48-a309-3bc1ba23c795"},"vehicle_type_id":"4","last_reported":1693512423,"current_range_meters":25600,"station_id":"ce4bgvp2rcd13ifvqcu0","pricing_plan_id":"free"},{"bike_id":"0d962e12-b732-4464-bc89-f40845207671","system_id":"levelo_inurba_marseille","lat":43.33235,"lon":5.38036,"is_reserved":false,"is_disabled":false,"rental_uris":{"android":"levelo://app?vid=0d962e12-b732-4464-bc89-f40845207671","ios":"levelo://app?vid=0d962e12-b732-4464-bc89-f40845207671"},"vehicle_type_id":"4","last_reported":1693512423,"current_range_meters":14400,"station_id":"","pricing_plan_id":"free"},{"bike_id":"d35ffc08-60b6-48ac-bc16-7b2b03131663","system_id":"levelo_inurba_marseille","lat":43.308799,"lon":5.39658,"is_reserved":false,"is_disabled":false,"rental_uris":{"android":"levelo://app?vid=d35ffc08-60b6-48ac-bc16-7b2b03131663","ios":"levelo://app?vid=d35ffc08-60b6-48ac-bc16-7b2b03131663"},"vehicle_type_id":"4","last_reported":1693512423,"current_range_meters":11600,"station_id":"ce4bh012rcd13ifvqcv0","pricing_plan_id":"free"},{"bike_id":"9bf7bc6b-c4d7-4717-819a-3f16d7fd5fd9","system_id":"levelo_inurba_marseille","lat":43.29539,"lon":5.38543,"is_reserved":false,"is_disabled":false,"rental_uris":{"android":"levelo://app?vid=9bf7bc6b-c4d7-4717-819a-3f16d7fd5fd9","ios":"levelo://app?vid=9bf7bc6b-c4d7-4717-819a-3f16d7fd5fd9"},"vehicle_type_id":"4","last_reported":1693512423,"current_range_meters":10000,"station_id":"ce4bgih2rcd13ifvqba0","pricing_plan_id":"free"},{"bike_id":"4aea02ad-35ae-4193-b5b3-001d411db858","system_id":"levelo_inurba_marseille","lat":43.29529,"lon":5.385581,"is_reserved":false,"is_disabled":false,"rental_uris":{"android":"levelo://app?vid=4aea02ad-35ae-4193-b5b3-001d411db858","ios":"levelo://app?vid=4aea02ad-35ae-4193-b5b3-001d411db858"},"vehicle_type_id":"4","last_reported":1693512423,"current_range_meters":24800,"station_id":"ce4bgih2rcd13ifvqba0","pricing_plan_id":"free"},{"bike_id":"781c097c-e8df-417e-ba27-1588af86de10","system_id":"levelo_inurba_marseille","lat":43.29529,"lon":5.385581,"is_reserved":false,"is_disabled":false,"rental_uris":{"android":"levelo://app?vid=781c097c-e8df-417e-ba27-1588af86de10","ios":"levelo://app?vid=781c097c-e8df-417e-ba27-1588af86de10"},"vehicle_type_id":"4","last_reported":1693512423,"current_range_meters":18000,"station_id":"ce4bgih2rcd13ifvqba0","pricing_plan_id":"free"},{"bike_id":"c663077a-4669-4482-9e69-0c05c0672f3a","system_id":"levelo_inurba_marseille","lat":43.29529,"lon":5.385581,"is_reserved":false,"is_disabled":false,"rental_uris":{"android":"levelo://app?vid=c663077a-4669-4482-9e69-0c05c0672f3a","ios":"levelo://app?vid=c663077a-4669-4482-9e69-0c05c0672f3a"},"vehicle_type_id":"4","last_reported":1693512423,"current_range_meters":18800,"station_id":"ce4bgih2rcd13ifvqba0","pricing_plan_id":"free"},{"bike_id":"c0d2ba17-4fd5-46fc-895e-b8ded262e59a","system_id":"levelo_inurba_marseille","lat":43.29525,"lon":5.38543,"is_reserved":false,"is_disabled":false,"rental_uris":{"android":"levelo://app?vid=c0d2ba17-4fd5-46fc-895e-b8ded262e59a","ios":"levelo://app?vid=c0d2ba17-4fd5-46fc-895e-b8ded262e59a"},"vehicle_type_id":"4","last_reported":1693512423,"current_range_meters":29600,"station_id":"ce4bgih2rcd13ifvqba0","pricing_plan_id":"free"},{"bike_id":"8a2c57f4-1ea7-4e63-9eec-d4e5de391592","system_id":"levelo_inurba_marseille","lat":43.29529,"lon":5.385581,"is_reserved":false,"is_disabled":false,"rental_uris":{"android":"levelo://app?vid=8a2c57f4-1ea7-4e63-9eec-d4e5de391592","ios":"levelo://app?vid=8a2c57f4-1ea7-4e63-9eec-d4e5de391592"},"vehicle_type_id":"4","last_reported":1693512423,"current_range_meters":10000,"station_id":"ce4bgih2rcd13ifvqba0","pricing_plan_id":"free"},{"bike_id":"8ece6798-fe07-4f2c-a897-242837d4a521","system_id":"levelo_inurba_marseille","lat":43.29388,"lon":5.38342,"is_reserved":false,"is_disabled":false,"rental_uris":{"android":"levelo://app?vid=8ece6798-fe07-4f2c-a897-242837d4a521","ios":"levelo://app?vid=8ece6798-fe07-4f2c-a897-242837d4a521"},"vehicle_type_id":"4","last_reported":1693512423,"current_range_meters":0,"station_id":"","pricing_plan_id":"free"},{"bike_id":"d47d1530-85be-47ab-9b14-eb8e2fdd8934","system_id":"levelo_inurba_marseille","lat":43.302008,"lon":5.394694,"is_reserved":false,"is_disabled":false,"rental_uris":{"android":"levelo://app?vid=d47d1530-85be-47ab-9b14-eb8e2fdd8934","ios":"levelo://app?vid=d47d1530-85be-47ab-9b14-eb8e2fdd8934"},"vehicle_type_id":"4","last_reported":1693512423,"current_range_meters":4800,"station_id":"ce4bh0p2rcd13ifvqd70","pricing_plan_id":"free"},{"bike_id":"bd4c5834-556b-4fac-bdb8-0427fd31e76e","system_id":"levelo_inurba_marseille","lat":43.30214,"lon":5.39467,"is_reserved":false,"is_disabled":false,"rental_uris":{"android":"levelo://app?vid=bd4c5834-556b-4fac-bdb8-0427fd31e76e","ios":"levelo://app?vid=bd4c5834-556b-4fac-bdb8-0427fd31e76e"},"vehicle_type_id":"4","last_reported":1693512423,"current_range_meters":31200,"station_id":"ce4bh0p2rcd13ifvqd70","pricing_plan_id":"free"},{"bike_id":"b2d88ba4-b490-4010-b662-7edec89874de","system_id":"levelo_inurba_marseille","lat":43.302008,"lon":5.394694,"is_reserved":false,"is_disabled":false,"rental_uris":{"android":"levelo://app?vid=b2d88ba4-b490-4010-b662-7edec89874de","ios":"levelo://app?vid=b2d88ba4-b490-4010-b662-7edec89874de"},"vehicle_type_id":"4","last_reported":1693512423,"current_range_meters":19200,"station_id":"ce4bh0p2rcd13ifvqd70","pricing_plan_id":"free"},{"bike_id":"d88747b3-b4c2-4c01-8473-c19df69c33f6","system_id":"levelo_inurba_marseille","lat":43.302008,"lon":5.394694,"is_reserved":false,"is_disabled":false,"rental_uris":{"android":"levelo://app?vid=d88747b3-b4c2-4c01-8473-c19df69c33f6","ios":"levelo://app?vid=d88747b3-b4c2-4c01-8473-c19df69c33f6"},"vehicle_type_id":"4","last_reported":1693512423,"current_range_meters":16400,"station_id":"ce4bh0p2rcd13ifvqd70","pricing_plan_id":"free"},{"bike_id":"373c458d-f171-4633-b4d3-4bda7c6e9f7a","system_id":"levelo_inurba_marseille","lat":43.290631,"lon":5.359244,"is_reserved":false,"is_disabled":false,"rental_uris":{"android":"levelo://app?vid=373c458d-f171-4633-b4d3-4bda7c6e9f7a","ios":"levelo://app?vid=373c458d-f171-4633-b4d3-4bda7c6e9f7a"},"vehicle_type_id":"4","last_reported":1693512423,"current_range_meters":28400,"station_id":"ce4bha92rcd13ifvqeg0","pricing_plan_id":"free"},{"bike_id":"615bc4dd-1416-4eb9-9afa-53e320353ab7","system_id":"levelo_inurba_marseille","lat":43.29422,"lon":5.38618,"is_reserved":false,"is_disabled":false,"rental_uris":{"android":"levelo://app?vid=615bc4dd-1416-4eb9-9afa-53e320353ab7","ios":"levelo://app?vid=615bc4dd-1416-4eb9-9afa-53e320353ab7"},"vehicle_type_id":"4","last_reported":1693512423,"current_range_meters":8000,"station_id":"ce4bh2h2rcd13ifvqdh0","pricing_plan_id":"free"},{"bike_id":"2f93318d-a393-4e93-88c9-60d3ec241b0e","system_id":"levelo_inurba_marseille","lat":43.2895,"lon":5.36635,"is_reserved":false,"is_disabled":false,"rental_uris":{"android":"levelo://app?vid=2f93318d-a393-4e93-88c9-60d3ec241b0e","ios":"levelo://app?vid=2f93318d-a393-4e93-88c9-60d3ec241b0e"},"vehicle_type_id":"4","last_reported":1693512423,"current_range_meters":30800,"station_id":"ce4bhap2rcd13ifvqek0","pricing_plan_id":"free"},{"bike_id":"1cf275d1-1308-411a-bd93-657bac551aca","system_id":"levelo_inurba_marseille","lat":43.294162,"lon":5.386292,"is_reserved":false,"is_disabled":false,"rental_uris":{"android":"levelo://app?vid=1cf275d1-1308-411a-bd93-657bac551aca","ios":"levelo://app?vid=1cf275d1-1308-411a-bd93-657bac551aca"},"vehicle_type_id":"4","last_reported":1693512423,"current_range_meters":31200,"station_id":"ce4bh2h2rcd13ifvqdh0","pricing_plan_id":"free"},{"bike_id":"5361f6e2-c43a-4e25-9a93-ce915e7d1120","system_id":"levelo_inurba_marseille","lat":43.29419,"lon":5.38625,"is_reserved":false,"is_disabled":false,"rental_uris":{"android":"levelo://app?vid=5361f6e2-c43a-4e25-9a93-ce915e7d1120","ios":"levelo://app?vid=5361f6e2-c43a-4e25-9a93-ce915e7d1120"},"vehicle_type_id":"4","last_reported":1693512423,"current_range_meters":0,"station_id":"ce4bh2h2rcd13ifvqdh0","pricing_plan_id":"free"},{"bike_id":"127d5f10-5c6c-4e97-bc6a-5daa30ea6293","system_id":"levelo_inurba_marseille","lat":43.29416,"lon":5.38622,"is_reserved":false,"is_disabled":false,"rental_uris":{"android":"levelo://app?vid=127d5f10-5c6c-4e97-bc6a-5daa30ea6293","ios":"levelo://app?vid=127d5f10-5c6c-4e97-bc6a-5daa30ea6293"},"vehicle_type_id":"4","last_reported":1693512423,"current_range_meters":5600,"station_id":"ce4bh2h2rcd13ifvqdh0","pricing_plan_id":"free"},{"bike_id":"27060bf4-39c0-4757-986e-41f82b70c535","system_id":"levelo_inurba_marseille","lat":43.29415,"lon":5.38624,"is_reserved":false,"is_disabled":false,"rental_uris":{"android":"levelo://app?vid=27060bf4-39c0-4757-986e-41f82b70c535","ios":"levelo://app?vid=27060bf4-39c0-4757-986e-41f82b70c535"},"vehicle_type_id":"4","last_reported":1693512423,"current_range_meters":8800,"station_id":"ce4bh2h2rcd13ifvqdh0","pricing_plan_id":"free"},{"bike_id":"d8b214b2-a37a-4d67-916c-a8af2b7fdeab","system_id":"levelo_inurba_marseille","lat":43.29414,"lon":5.38625,"is_reserved":false,"is_disabled":false,"rental_uris":{"android":"levelo://app?vid=d8b214b2-a37a-4d67-916c-a8af2b7fdeab","ios":"levelo://app?vid=d8b214b2-a37a-4d67-916c-a8af2b7fdeab"},"vehicle_type_id":"4","last_reported":1693512423,"current_range_meters":30000,"station_id":"ce4bh2h2rcd13ifvqdh0","pricing_plan_id":"free"},{"bike_id":"41c0929c-72e9-4232-873a-61dd30f50db1","system_id":"levelo_inurba_marseille","lat":43.29413,"lon":5.38624,"is_reserved":false,"is_disabled":false,"rental_uris":{"android":"levelo://app?vid=41c0929c-72e9-4232-873a-61dd30f50db1","ios":"levelo://app?vid=41c0929c-72e9-4232-873a-61dd30f50db1"},"vehicle_type_id":"4","last_reported":1693512423,"current_range_meters":10800,"station_id":"ce4bh2h2rcd13ifvqdh0","pricing_plan_id":"free"},{"bike_id":"1017c052-932a-4020-a22e-dad31bfcffe5","system_id":"levelo_inurba_marseille","lat":43.29412,"lon":5.38625,"is_reserved":false,"is_disabled":false,"rental_uris":{"android":"levelo://app?vid=1017c052-932a-4020-a22e-dad31bfcffe5","ios":"levelo://app?vid=1017c052-932a-4020-a22e-dad31bfcffe5"},"vehicle_type_id":"4","last_reported":1693512423,"current_range_meters":800,"station_id":"ce4bh2h2rcd13ifvqdh0","pricing_plan_id":"free"},{"bike_id":"e5293ebe-03f4-4638-abfc-c640c92bc0fe","system_id":"levelo_inurba_marseille","lat":43.29415,"lon":5.38632,"is_reserved":false,"is_disabled":false,"rental_uris":{"android":"levelo://app?vid=e5293ebe-03f4-4638-abfc-c640c92bc0fe","ios":"levelo://app?vid=e5293ebe-03f4-4638-abfc-c640c92bc0fe"},"vehicle_type_id":"4","last_reported":1693512423,"current_range_meters":0,"station_id":"ce4bh2h2rcd13ifvqdh0","pricing_plan_id":"free"},{"bike_id":"dad628ef-ab95-4bcc-b021-ead90e8ef58c","system_id":"levelo_inurba_marseille","lat":43.29278,"lon":5.38445,"is_reserved":false,"is_disabled":false,"rental_uris":{"android":"levelo://app?vid=dad628ef-ab95-4bcc-b021-ead90e8ef58c","ios":"levelo://app?vid=dad628ef-ab95-4bcc-b021-ead90e8ef58c"},"vehicle_type_id":"4","last_reported":1693512423,"current_range_meters":31200,"station_id":"ce4bh692rcd13ifvqea0","pricing_plan_id":"free"},{"bike_id":"18ada172-4af0-4336-bf62-1c7102e10a59","system_id":"levelo_inurba_marseille","lat":43.292642,"lon":5.384254,"is_reserved":false,"is_disabled":false,"rental_uris":{"android":"levelo://app?vid=18ada172-4af0-4336-bf62-1c7102e10a59","ios":"levelo://app?vid=18ada172-4af0-4336-bf62-1c7102e10a59"},"vehicle_type_id":"4","last_reported":1693512423,"current_range_meters":21200,"station_id":"ce4bh692rcd13ifvqea0","pricing_plan_id":"free"},{"bike_id":"67a6e958-f476-4fb2-b3de-84ded9fac809","system_id":"levelo_inurba_marseille","lat":43.29529,"lon":5.385581,"is_reserved":false,"is_disabled":false,"rental_uris":{"android":"levelo://app?vid=67a6e958-f476-4fb2-b3de-84ded9fac809","ios":"levelo://app?vid=67a6e958-f476-4fb2-b3de-84ded9fac809"},"vehicle_type_id":"4","last_reported":1693512423,"current_range_meters":27200,"station_id":"ce4bgih2rcd13ifvqba0","pricing_plan_id":"free"},{"bike_id":"2cebb3ce-c0d1-4726-a1fa-3344d5e5ec33","system_id":"levelo_inurba_marseille","lat":43.292642,"lon":5.384254,"is_reserved":false,"is_disabled":false,"rental_uris":{"android":"levelo://app?vid=2cebb3ce-c0d1-4726-a1fa-3344d5e5ec33","ios":"levelo://app?vid=2cebb3ce-c0d1-4726-a1fa-3344d5e5ec33"},"vehicle_type_id":"4","last_reported":1693512423,"current_range_meters":12800,"station_id":"ce4bh692rcd13ifvqea0","pricing_plan_id":"free"},{"bike_id":"79803846-5bbd-417b-a6c0-a54142dc69c9","system_id":"levelo_inurba_marseille","lat":43.292642,"lon":5.384254,"is_reserved":false,"is_disabled":false,"rental_uris":{"android":"levelo://app?vid=79803846-5bbd-417b-a6c0-a54142dc69c9","ios":"levelo://app?vid=79803846-5bbd-417b-a6c0-a54142dc69c9"},"vehicle_type_id":"4","last_reported":1693512423,"current_range_meters":2000,"station_id":"ce4bh692rcd13ifvqea0","pricing_plan_id":"free"},{"bike_id":"6771ebf1-b3a4-4d81-a7da-97d436735448","system_id":"levelo_inurba_marseille","lat":43.292644,"lon":5.384257,"is_reserved":false,"is_disabled":false,"rental_uris":{"android":"levelo://app?vid=6771ebf1-b3a4-4d81-a7da-97d436735448","ios":"levelo://app?vid=6771ebf1-b3a4-4d81-a7da-97d436735448"},"vehicle_type_id":"4","last_reported":1693512423,"current_range_meters":2400,"station_id":"ce4bh692rcd13ifvqea0","pricing_plan_id":"free"},{"bike_id":"d8f39f59-d808-4011-906f-d36b4c6a2357","system_id":"levelo_inurba_marseille","lat":43.29264,"lon":5.384446,"is_reserved":false,"is_disabled":false,"rental_uris":{"android":"levelo://app?vid=d8f39f59-d808-4011-906f-d36b4c6a2357","ios":"levelo://app?vid=d8f39f59-d808-4011-906f-d36b4c6a2357"},"vehicle_type_id":"4","last_reported":1693512423,"current_range_meters":31200,"station_id":"ce4bh692rcd13ifvqea0","pricing_plan_id":"free"},{"bike_id":"ccd7c1a4-f28c-4ad8-963d-6384079405b0","system_id":"levelo_inurba_marseille","lat":43.292644,"lon":5.384257,"is_reserved":false,"is_disabled":false,"rental_uris":{"android":"levelo://app?vid=ccd7c1a4-f28c-4ad8-963d-6384079405b0","ios":"levelo://app?vid=ccd7c1a4-f28c-4ad8-963d-6384079405b0"},"vehicle_type_id":"4","last_reported":1693512423,"current_range_meters":0,"station_id":"ce4bh692rcd13ifvqea0","pricing_plan_id":"free"},{"bike_id":"041555c1-d2b0-4af6-8c1d-b13c088bed88","system_id":"levelo_inurba_marseille","lat":43.292605,"lon":5.384463,"is_reserved":false,"is_disabled":false,"rental_uris":{"android":"levelo://app?vid=041555c1-d2b0-4af6-8c1d-b13c088bed88","ios":"levelo://app?vid=041555c1-d2b0-4af6-8c1d-b13c088bed88"},"vehicle_type_id":"4","last_reported":1693512423,"current_range_meters":31200,"station_id":"ce4bh692rcd13ifvqea0","pricing_plan_id":"free"},{"bike_id":"ceccc87a-bc09-4f17-aa5a-b5e90f29210e","system_id":"levelo_inurba_marseille","lat":43.33045,"lon":5.38918,"is_reserved":false,"is_disabled":false,"rental_uris":{"android":"levelo://app?vid=ceccc87a-bc09-4f17-aa5a-b5e90f29210e","ios":"levelo://app?vid=ceccc87a-bc09-4f17-aa5a-b5e90f29210e"},"vehicle_type_id":"4","last_reported":1693512423,"current_range_meters":31200,"station_id":"ce4bhr92rcd13ifvqhrg","pricing_plan_id":"free"},{"bike_id":"60c294a9-fa43-4fa1-b176-ddd6748e879e","system_id":"levelo_inurba_marseille","lat":43.330463,"lon":5.389187,"is_reserved":false,"is_disabled":false,"rental_uris":{"android":"levelo://app?vid=60c294a9-fa43-4fa1-b176-ddd6748e879e","ios":"levelo://app?vid=60c294a9-fa43-4fa1-b176-ddd6748e879e"},"vehicle_type_id":"4","last_reported":1693512423,"current_range_meters":31200,"station_id":"ce4bhr92rcd13ifvqhrg","pricing_plan_id":"free"},{"bike_id":"1895038e-acdb-4d35-aa35-e1291f23a30a","system_id":"levelo_inurba_marseille","lat":43.290103,"lon":5.356114,"is_reserved":false,"is_disabled":false,"rental_uris":{"android":"levelo://app?vid=1895038e-acdb-4d35-aa35-e1291f23a30a","ios":"levelo://app?vid=1895038e-acdb-4d35-aa35-e1291f23a30a"},"vehicle_type_id":"4","last_reported":1693512423,"current_range_meters":31200,"station_id":"ce4bhb92rcd13ifvqen0","pricing_plan_id":"free"},{"bike_id":"85d3fcbb-b3e0-4fc3-8e4f-a6c1a1674e24","system_id":"levelo_inurba_marseille","lat":43.330431,"lon":5.389239,"is_reserved":false,"is_disabled":false,"rental_uris":{"android":"levelo://app?vid=85d3fcbb-b3e0-4fc3-8e4f-a6c1a1674e24","ios":"levelo://app?vid=85d3fcbb-b3e0-4fc3-8e4f-a6c1a1674e24"},"vehicle_type_id":"4","last_reported":1693512423,"current_range_meters":31200,"station_id":"ce4bhr92rcd13ifvqhrg","pricing_plan_id":"free"},{"bike_id":"d11b89ea-03d9-4bd1-8d94-225f53817def","system_id":"levelo_inurba_marseille","lat":43.330449,"lon":5.389214,"is_reserved":false,"is_disabled":false,"rental_uris":{"android":"levelo://app?vid=d11b89ea-03d9-4bd1-8d94-225f53817def","ios":"levelo://app?vid=d11b89ea-03d9-4bd1-8d94-225f53817def"},"vehicle_type_id":"4","last_reported":1693512423,"current_range_meters":17600,"station_id":"ce4bhr92rcd13ifvqhrg","pricing_plan_id":"free"},{"bike_id":"d346ead7-ea15-4af0-898b-f25c067a214a","system_id":"levelo_inurba_marseille","lat":43.33044,"lon":5.38924,"is_reserved":false,"is_disabled":false,"rental_uris":{"android":"levelo://app?vid=d346ead7-ea15-4af0-898b-f25c067a214a","ios":"levelo://app?vid=d346ead7-ea15-4af0-898b-f25c067a214a"},"vehicle_type_id":"4","last_reported":1693512423,"current_range_meters":27200,"station_id":"ce4bhr92rcd13ifvqhrg","pricing_plan_id":"free"},{"bike_id":"eed6fdbf-9470-49dd-b5db-5589c61979b7","system_id":"levelo_inurba_marseille","lat":43.330468,"lon":5.389199,"is_reserved":false,"is_disabled":false,"rental_uris":{"android":"levelo://app?vid=eed6fdbf-9470-49dd-b5db-5589c61979b7","ios":"levelo://app?vid=eed6fdbf-9470-49dd-b5db-5589c61979b7"},"vehicle_type_id":"4","last_reported":1693512423,"current_range_meters":14000,"station_id":"ce4bhr92rcd13ifvqhrg","pricing_plan_id":"free"},{"bike_id":"028b16b4-c861-455c-93e2-214442c48086","system_id":"levelo_inurba_marseille","lat":43.290104,"lon":5.356111,"is_reserved":false,"is_disabled":false,"rental_uris":{"android":"levelo://app?vid=028b16b4-c861-455c-93e2-214442c48086","ios":"levelo://app?vid=028b16b4-c861-455c-93e2-214442c48086"},"vehicle_type_id":"4","last_reported":1693512423,"current_range_meters":30800,"station_id":"ce4bhb92rcd13ifvqen0","pricing_plan_id":"free"},{"bike_id":"73697e9c-3f24-4a67-a995-4407eaa6f990","system_id":"levelo_inurba_marseille","lat":43.290995,"lon":5.381361,"is_reserved":false,"is_disabled":false,"rental_uris":{"android":"levelo://app?vid=73697e9c-3f24-4a67-a995-4407eaa6f990","ios":"levelo://app?vid=73697e9c-3f24-4a67-a995-4407eaa6f990"},"vehicle_type_id":"4","last_reported":1693512423,"current_range_meters":17200,"station_id":"ce4bh512rcd13ifvqe2g","pricing_plan_id":"free"},{"bike_id":"997fca1c-e2ae-4d9b-a088-a72612da4d2d","system_id":"levelo_inurba_marseille","lat":43.290995,"lon":5.381361,"is_reserved":false,"is_disabled":false,"rental_uris":{"android":"levelo://app?vid=997fca1c-e2ae-4d9b-a088-a72612da4d2d","ios":"levelo://app?vid=997fca1c-e2ae-4d9b-a088-a72612da4d2d"},"vehicle_type_id":"4","last_reported":1693512423,"current_range_meters":14800,"station_id":"ce4bh512rcd13ifvqe2g","pricing_plan_id":"free"},{"bike_id":"bdf46e18-3ebe-467a-8d10-bc9c34d46507","system_id":"levelo_inurba_marseille","lat":43.290995,"lon":5.381361,"is_reserved":false,"is_disabled":false,"rental_uris":{"android":"levelo://app?vid=bdf46e18-3ebe-467a-8d10-bc9c34d46507","ios":"levelo://app?vid=bdf46e18-3ebe-467a-8d10-bc9c34d46507"},"vehicle_type_id":"4","last_reported":1693512423,"current_range_meters":30800,"station_id":"ce4bh512rcd13ifvqe2g","pricing_plan_id":"free"},{"bike_id":"c5030412-8a62-47a2-a946-815da962bcf2","system_id":"levelo_inurba_marseille","lat":43.295169,"lon":5.390426,"is_reserved":false,"is_disabled":false,"rental_uris":{"android":"levelo://app?vid=c5030412-8a62-47a2-a946-815da962bcf2","ios":"levelo://app?vid=c5030412-8a62-47a2-a946-815da962bcf2"},"vehicle_type_id":"4","last_reported":1693512423,"current_range_meters":400,"station_id":"ce4bh3p2rcd13ifvqdp0","pricing_plan_id":"free"},{"bike_id":"f1c4f192-ebba-40d7-b7f2-1d1da91340c9","system_id":"levelo_inurba_marseille","lat":43.29015,"lon":5.38129,"is_reserved":false,"is_disabled":false,"rental_uris":{"android":"levelo://app?vid=f1c4f192-ebba-40d7-b7f2-1d1da91340c9","ios":"levelo://app?vid=f1c4f192-ebba-40d7-b7f2-1d1da91340c9"},"vehicle_type_id":"4","last_reported":1693512423,"current_range_meters":7600,"station_id":"ce4bh4p2rcd13ifvqe1g","pricing_plan_id":"free"},{"bike_id":"f2400329-9dc1-4467-ba9c-4b91bc7268af","system_id":"levelo_inurba_marseille","lat":43.28856,"lon":5.358371,"is_reserved":false,"is_disabled":false,"rental_uris":{"android":"levelo://app?vid=f2400329-9dc1-4467-ba9c-4b91bc7268af","ios":"levelo://app?vid=f2400329-9dc1-4467-ba9c-4b91bc7268af"},"vehicle_type_id":"4","last_reported":1693512423,"current_range_meters":18400,"station_id":"ce4bhb12rcd13ifvqem0","pricing_plan_id":"free"},{"bike_id":"d3580968-fe25-4585-8899-8a88ce38b9a1","system_id":"levelo_inurba_marseille","lat":43.312609,"lon":5.401662,"is_reserved":false,"is_disabled":false,"rental_uris":{"android":"levelo://app?vid=d3580968-fe25-4585-8899-8a88ce38b9a1","ios":"levelo://app?vid=d3580968-fe25-4585-8899-8a88ce38b9a1"},"vehicle_type_id":"4","last_reported":1693512423,"current_range_meters":12800,"station_id":"ce4bh092rcd13ifvqd30","pricing_plan_id":"free"},{"bike_id":"3180ca6e-8839-4320-8b89-7d2ce5255538","system_id":"levelo_inurba_marseille","lat":43.30937,"lon":5.40145,"is_reserved":false,"is_disabled":false,"rental_uris":{"android":"levelo://app?vid=3180ca6e-8839-4320-8b89-7d2ce5255538","ios":"levelo://app?vid=3180ca6e-8839-4320-8b89-7d2ce5255538"},"vehicle_type_id":"4","last_reported":1693512423,"current_range_meters":5600,"station_id":"ce4bgvp2rcd13ifvqct0","pricing_plan_id":"free"},{"bike_id":"1a245a12-247c-4310-8227-d60ec709bd70","system_id":"levelo_inurba_marseille","lat":43.3065,"lon":5.4009,"is_reserved":false,"is_disabled":false,"rental_uris":{"android":"levelo://app?vid=1a245a12-247c-4310-8227-d60ec709bd70","ios":"levelo://app?vid=1a245a12-247c-4310-8227-d60ec709bd70"},"vehicle_type_id":"4","last_reported":1693512423,"current_range_meters":17200,"station_id":"ce4bh112rcd13ifvqda0","pricing_plan_id":"free"},{"bike_id":"32d23beb-ab00-4ce9-a0e7-650aed08b142","system_id":"levelo_inurba_marseille","lat":43.30626,"lon":5.40084,"is_reserved":false,"is_disabled":false,"rental_uris":{"android":"levelo://app?vid=32d23beb-ab00-4ce9-a0e7-650aed08b142","ios":"levelo://app?vid=32d23beb-ab00-4ce9-a0e7-650aed08b142"},"vehicle_type_id":"4","last_reported":1693512423,"current_range_meters":0,"station_id":"ce4bh112rcd13ifvqda0","pricing_plan_id":"free"},{"bike_id":"8affe3bd-078b-42ea-99e2-5c0e6b036425","system_id":"levelo_inurba_marseille","lat":43.3065,"lon":5.40095,"is_reserved":false,"is_disabled":false,"rental_uris":{"android":"levelo://app?vid=8affe3bd-078b-42ea-99e2-5c0e6b036425","ios":"levelo://app?vid=8affe3bd-078b-42ea-99e2-5c0e6b036425"},"vehicle_type_id":"4","last_reported":1693512423,"current_range_meters":12400,"station_id":"ce4bh112rcd13ifvqda0","pricing_plan_id":"free"},{"bike_id":"f18057ea-de22-4d4f-85b3-567cd26c841f","system_id":"levelo_inurba_marseille","lat":43.30636,"lon":5.401,"is_reserved":false,"is_disabled":false,"rental_uris":{"android":"levelo://app?vid=f18057ea-de22-4d4f-85b3-567cd26c841f","ios":"levelo://app?vid=f18057ea-de22-4d4f-85b3-567cd26c841f"},"vehicle_type_id":"4","last_reported":1693512423,"current_range_meters":14800,"station_id":"ce4bh112rcd13ifvqda0","pricing_plan_id":"free"},{"bike_id":"f03f66d6-5844-4ee5-80b9-c7517b2a1bc9","system_id":"levelo_inurba_marseille","lat":43.30647,"lon":5.40105,"is_reserved":false,"is_disabled":false,"rental_uris":{"android":"levelo://app?vid=f03f66d6-5844-4ee5-80b9-c7517b2a1bc9","ios":"levelo://app?vid=f03f66d6-5844-4ee5-80b9-c7517b2a1bc9"},"vehicle_type_id":"4","last_reported":1693512423,"current_range_meters":4800,"station_id":"ce4bh112rcd13ifvqda0","pricing_plan_id":"free"},{"bike_id":"72cfdf11-fb23-4d91-bf0d-2c0809774602","system_id":"levelo_inurba_marseille","lat":43.306516,"lon":5.40107,"is_reserved":false,"is_disabled":false,"rental_uris":{"android":"levelo://app?vid=72cfdf11-fb23-4d91-bf0d-2c0809774602","ios":"levelo://app?vid=72cfdf11-fb23-4d91-bf0d-2c0809774602"},"vehicle_type_id":"4","last_reported":1693512423,"current_range_meters":22000,"station_id":"ce4bh112rcd13ifvqda0","pricing_plan_id":"free"},{"bike_id":"27c0638b-4492-4469-a64b-2f876f88579f","system_id":"levelo_inurba_marseille","lat":43.33785,"lon":5.37408,"is_reserved":false,"is_disabled":false,"rental_uris":{"android":"levelo://app?vid=27c0638b-4492-4469-a64b-2f876f88579f","ios":"levelo://app?vid=27c0638b-4492-4469-a64b-2f876f88579f"},"vehicle_type_id":"4","last_reported":1693512423,"current_range_meters":21600,"station_id":"","pricing_plan_id":"free"},{"bike_id":"fbaa9450-9ce7-49c4-95c2-ad3f128d31dd","system_id":"levelo_inurba_marseille","lat":43.33784,"lon":5.37436,"is_reserved":false,"is_disabled":false,"rental_uris":{"android":"levelo://app?vid=fbaa9450-9ce7-49c4-95c2-ad3f128d31dd","ios":"levelo://app?vid=fbaa9450-9ce7-49c4-95c2-ad3f128d31dd"},"vehicle_type_id":"4","last_reported":1693512423,"current_range_meters":31200,"station_id":"","pricing_plan_id":"free"},{"bike_id":"0a0a9a0c-89e6-4e82-80e9-45ae90d75a2b","system_id":"levelo_inurba_marseille","lat":43.301117,"lon":5.398795,"is_reserved":false,"is_disabled":false,"rental_uris":{"android":"levelo://app?vid=0a0a9a0c-89e6-4e82-80e9-45ae90d75a2b","ios":"levelo://app?vid=0a0a9a0c-89e6-4e82-80e9-45ae90d75a2b"},"vehicle_type_id":"4","last_reported":1693512423,"current_range_meters":5200,"station_id":"ce4bh0h2rcd13ifvqd40","pricing_plan_id":"free"},{"bike_id":"c0640697-5c05-495b-b351-8129cc3ccc43","system_id":"levelo_inurba_marseille","lat":43.30721,"lon":5.4016,"is_reserved":false,"is_disabled":false,"rental_uris":{"android":"levelo://app?vid=c0640697-5c05-495b-b351-8129cc3ccc43","ios":"levelo://app?vid=c0640697-5c05-495b-b351-8129cc3ccc43"},"vehicle_type_id":"4","last_reported":1693512423,"current_range_meters":4000,"station_id":"","pricing_plan_id":"free"},{"bike_id":"94f9e37f-4a0f-40ad-bb49-85ea3433508a","system_id":"levelo_inurba_marseille","lat":43.28711,"lon":5.37392,"is_reserved":false,"is_disabled":false,"rental_uris":{"android":"levelo://app?vid=94f9e37f-4a0f-40ad-bb49-85ea3433508a","ios":"levelo://app?vid=94f9e37f-4a0f-40ad-bb49-85ea3433508a"},"vehicle_type_id":"4","last_reported":1693512423,"current_range_meters":12400,"station_id":"ce4bh3p2rcd13ifvqdq0","pricing_plan_id":"free"},{"bike_id":"0646bf50-7879-4759-91ce-4ee40224d87e","system_id":"levelo_inurba_marseille","lat":43.28711,"lon":5.37395,"is_reserved":false,"is_disabled":false,"rental_uris":{"android":"levelo://app?vid=0646bf50-7879-4759-91ce-4ee40224d87e","ios":"levelo://app?vid=0646bf50-7879-4759-91ce-4ee40224d87e"},"vehicle_type_id":"4","last_reported":1693512423,"current_range_meters":0,"station_id":"ce4bh3p2rcd13ifvqdq0","pricing_plan_id":"free"},{"bike_id":"5b3ef720-751f-4eab-bb25-6a7291b6347c","system_id":"levelo_inurba_marseille","lat":43.286591,"lon":5.363346,"is_reserved":false,"is_disabled":false,"rental_uris":{"android":"levelo://app?vid=5b3ef720-751f-4eab-bb25-6a7291b6347c","ios":"levelo://app?vid=5b3ef720-751f-4eab-bb25-6a7291b6347c"},"vehicle_type_id":"4","last_reported":1693512423,"current_range_meters":4400,"station_id":"ce4bhah2rcd13ifvqej0","pricing_plan_id":"free"},{"bike_id":"4fd243bb-6585-4a8c-88ee-b88191ff48c5","system_id":"levelo_inurba_marseille","lat":43.28705,"lon":5.37391,"is_reserved":false,"is_disabled":false,"rental_uris":{"android":"levelo://app?vid=4fd243bb-6585-4a8c-88ee-b88191ff48c5","ios":"levelo://app?vid=4fd243bb-6585-4a8c-88ee-b88191ff48c5"},"vehicle_type_id":"4","last_reported":1693512423,"current_range_meters":0,"station_id":"ce4bh3p2rcd13ifvqdq0","pricing_plan_id":"free"},{"bike_id":"5c24a42b-cc56-4a1a-a4be-fdfcb421222e","system_id":"levelo_inurba_marseille","lat":43.28665,"lon":5.36338,"is_reserved":false,"is_disabled":false,"rental_uris":{"android":"levelo://app?vid=5c24a42b-cc56-4a1a-a4be-fdfcb421222e","ios":"levelo://app?vid=5c24a42b-cc56-4a1a-a4be-fdfcb421222e"},"vehicle_type_id":"4","last_reported":1693512423,"current_range_meters":1200,"station_id":"ce4bhah2rcd13ifvqej0","pricing_plan_id":"free"},{"bike_id":"75199276-b705-4ad7-b6a9-49aeaa84628a","system_id":"levelo_inurba_marseille","lat":43.286591,"lon":5.363346,"is_reserved":false,"is_disabled":false,"rental_uris":{"android":"levelo://app?vid=75199276-b705-4ad7-b6a9-49aeaa84628a","ios":"levelo://app?vid=75199276-b705-4ad7-b6a9-49aeaa84628a"},"vehicle_type_id":"4","last_reported":1693512423,"current_range_meters":29600,"station_id":"ce4bhah2rcd13ifvqej0","pricing_plan_id":"free"},{"bike_id":"2365150f-73ab-4507-aea4-76016e6109c8","system_id":"levelo_inurba_marseille","lat":43.286593,"lon":5.363346,"is_reserved":false,"is_disabled":false,"rental_uris":{"android":"levelo://app?vid=2365150f-73ab-4507-aea4-76016e6109c8","ios":"levelo://app?vid=2365150f-73ab-4507-aea4-76016e6109c8"},"vehicle_type_id":"4","last_reported":1693512423,"current_range_meters":31200,"station_id":"ce4bhah2rcd13ifvqej0","pricing_plan_id":"free"},{"bike_id":"04048d90-7bd2-459f-b0be-5966afae1efa","system_id":"levelo_inurba_marseille","lat":43.286591,"lon":5.363346,"is_reserved":false,"is_disabled":false,"rental_uris":{"android":"levelo://app?vid=04048d90-7bd2-459f-b0be-5966afae1efa","ios":"levelo://app?vid=04048d90-7bd2-459f-b0be-5966afae1efa"},"vehicle_type_id":"4","last_reported":1693512423,"current_range_meters":400,"station_id":"ce4bhah2rcd13ifvqej0","pricing_plan_id":"free"},{"bike_id":"64d4d48a-9f87-4b48-984b-0b3cf1d9c0a9","system_id":"levelo_inurba_marseille","lat":43.28696,"lon":5.37382,"is_reserved":false,"is_disabled":false,"rental_uris":{"android":"levelo://app?vid=64d4d48a-9f87-4b48-984b-0b3cf1d9c0a9","ios":"levelo://app?vid=64d4d48a-9f87-4b48-984b-0b3cf1d9c0a9"},"vehicle_type_id":"4","last_reported":1693512423,"current_range_meters":21200,"station_id":"ce4bh3p2rcd13ifvqdq0","pricing_plan_id":"free"},{"bike_id":"fed09998-2ccf-4c40-8f05-c503a202915e","system_id":"levelo_inurba_marseille","lat":43.29874,"lon":5.39747,"is_reserved":false,"is_disabled":false,"rental_uris":{"android":"levelo://app?vid=fed09998-2ccf-4c40-8f05-c503a202915e","ios":"levelo://app?vid=fed09998-2ccf-4c40-8f05-c503a202915e"},"vehicle_type_id":"4","last_reported":1693512423,"current_range_meters":31200,"station_id":"ce4bh0h2rcd13ifvqd50","pricing_plan_id":"free"},{"bike_id":"32ca0286-c3ad-4617-a680-4d06b07b1a4c","system_id":"levelo_inurba_marseille","lat":43.286961,"lon":5.373785,"is_reserved":false,"is_disabled":false,"rental_uris":{"android":"levelo://app?vid=32ca0286-c3ad-4617-a680-4d06b07b1a4c","ios":"levelo://app?vid=32ca0286-c3ad-4617-a680-4d06b07b1a4c"},"vehicle_type_id":"4","last_reported":1693512423,"current_range_meters":14400,"station_id":"ce4bh3p2rcd13ifvqdq0","pricing_plan_id":"free"},{"bike_id":"084f1bc6-c8e7-4c7b-a705-8d4e6081a5e1","system_id":"levelo_inurba_marseille","lat":43.290345,"lon":5.38646,"is_reserved":false,"is_disabled":false,"rental_uris":{"android":"levelo://app?vid=084f1bc6-c8e7-4c7b-a705-8d4e6081a5e1","ios":"levelo://app?vid=084f1bc6-c8e7-4c7b-a705-8d4e6081a5e1"},"vehicle_type_id":"4","last_reported":1693512423,"current_range_meters":7600,"station_id":"ce4bh4p2rcd13ifvqe0g","pricing_plan_id":"free"},{"bike_id":"b0277ea7-c754-4093-91ae-cf0b05b4cceb","system_id":"levelo_inurba_marseille","lat":43.290345,"lon":5.38646,"is_reserved":false,"is_disabled":false,"rental_uris":{"android":"levelo://app?vid=b0277ea7-c754-4093-91ae-cf0b05b4cceb","ios":"levelo://app?vid=b0277ea7-c754-4093-91ae-cf0b05b4cceb"},"vehicle_type_id":"4","last_reported":1693512423,"current_range_meters":31200,"station_id":"ce4bh4p2rcd13ifvqe0g","pricing_plan_id":"free"},{"bike_id":"1af1369d-8a72-46a6-babf-6011d52866d9","system_id":"levelo_inurba_marseille","lat":43.290345,"lon":5.38646,"is_reserved":false,"is_disabled":false,"rental_uris":{"android":"levelo://app?vid=1af1369d-8a72-46a6-babf-6011d52866d9","ios":"levelo://app?vid=1af1369d-8a72-46a6-babf-6011d52866d9"},"vehicle_type_id":"4","last_reported":1693512423,"current_range_meters":12000,"station_id":"ce4bh4p2rcd13ifvqe0g","pricing_plan_id":"free"},{"bike_id":"1ccc4168-6204-434d-beae-8fb3e824e524","system_id":"levelo_inurba_marseille","lat":43.290345,"lon":5.38646,"is_reserved":false,"is_disabled":false,"rental_uris":{"android":"levelo://app?vid=1ccc4168-6204-434d-beae-8fb3e824e524","ios":"levelo://app?vid=1ccc4168-6204-434d-beae-8fb3e824e524"},"vehicle_type_id":"4","last_reported":1693512423,"current_range_meters":31200,"station_id":"ce4bh4p2rcd13ifvqe0g","pricing_plan_id":"free"},{"bike_id":"a83d15d5-bc2c-430c-96b1-5822f847733b","system_id":"levelo_inurba_marseille","lat":43.290345,"lon":5.38646,"is_reserved":false,"is_disabled":false,"rental_uris":{"android":"levelo://app?vid=a83d15d5-bc2c-430c-96b1-5822f847733b","ios":"levelo://app?vid=a83d15d5-bc2c-430c-96b1-5822f847733b"},"vehicle_type_id":"4","last_reported":1693512423,"current_range_meters":31600,"station_id":"ce4bh4p2rcd13ifvqe0g","pricing_plan_id":"free"},{"bike_id":"60c9afac-2da8-4c8a-bade-994cb31ea964","system_id":"levelo_inurba_marseille","lat":43.290345,"lon":5.38646,"is_reserved":false,"is_disabled":false,"rental_uris":{"android":"levelo://app?vid=60c9afac-2da8-4c8a-bade-994cb31ea964","ios":"levelo://app?vid=60c9afac-2da8-4c8a-bade-994cb31ea964"},"vehicle_type_id":"4","last_reported":1693512423,"current_range_meters":24000,"station_id":"ce4bh4p2rcd13ifvqe0g","pricing_plan_id":"free"},{"bike_id":"2d6aaca1-7167-47a9-9992-68b9d42032a9","system_id":"levelo_inurba_marseille","lat":43.290345,"lon":5.38646,"is_reserved":false,"is_disabled":false,"rental_uris":{"android":"levelo://app?vid=2d6aaca1-7167-47a9-9992-68b9d42032a9","ios":"levelo://app?vid=2d6aaca1-7167-47a9-9992-68b9d42032a9"},"vehicle_type_id":"4","last_reported":1693512423,"current_range_meters":18000,"station_id":"ce4bh4p2rcd13ifvqe0g","pricing_plan_id":"free"},{"bike_id":"799c2e73-41ee-40f6-9a1b-d684fa4ac2ab","system_id":"levelo_inurba_marseille","lat":43.290345,"lon":5.38646,"is_reserved":false,"is_disabled":false,"rental_uris":{"android":"levelo://app?vid=799c2e73-41ee-40f6-9a1b-d684fa4ac2ab","ios":"levelo://app?vid=799c2e73-41ee-40f6-9a1b-d684fa4ac2ab"},"vehicle_type_id":"4","last_reported":1693512423,"current_range_meters":31600,"station_id":"ce4bh4p2rcd13ifvqe0g","pricing_plan_id":"free"},{"bike_id":"409549e2-63db-4d81-9278-c671ceac1415","system_id":"levelo_inurba_marseille","lat":43.302759,"lon":5.400793,"is_reserved":false,"is_disabled":false,"rental_uris":{"android":"levelo://app?vid=409549e2-63db-4d81-9278-c671ceac1415","ios":"levelo://app?vid=409549e2-63db-4d81-9278-c671ceac1415"},"vehicle_type_id":"4","last_reported":1693512423,"current_range_meters":27200,"station_id":"ce4bgvh2rcd13ifvqcs0","pricing_plan_id":"free"},{"bike_id":"c9c6edc2-afb6-40ee-8c05-c750f37ffe4c","system_id":"levelo_inurba_marseille","lat":43.302759,"lon":5.400793,"is_reserved":false,"is_disabled":false,"rental_uris":{"android":"levelo://app?vid=c9c6edc2-afb6-40ee-8c05-c750f37ffe4c","ios":"levelo://app?vid=c9c6edc2-afb6-40ee-8c05-c750f37ffe4c"},"vehicle_type_id":"4","last_reported":1693512423,"current_range_meters":20400,"station_id":"ce4bgvh2rcd13ifvqcs0","pricing_plan_id":"free"},{"bike_id":"4e304109-d600-4a1c-a2c9-57e85f8d7e16","system_id":"levelo_inurba_marseille","lat":43.290345,"lon":5.38646,"is_reserved":false,"is_disabled":false,"rental_uris":{"android":"levelo://app?vid=4e304109-d600-4a1c-a2c9-57e85f8d7e16","ios":"levelo://app?vid=4e304109-d600-4a1c-a2c9-57e85f8d7e16"},"vehicle_type_id":"4","last_reported":1693512423,"current_range_meters":31200,"station_id":"ce4bh4p2rcd13ifvqe0g","pricing_plan_id":"free"},{"bike_id":"06e8110f-a3dd-4a75-bbcb-c9b48e330528","system_id":"levelo_inurba_marseille","lat":43.286039,"lon":5.370679,"is_reserved":false,"is_disabled":false,"rental_uris":{"android":"levelo://app?vid=06e8110f-a3dd-4a75-bbcb-c9b48e330528","ios":"levelo://app?vid=06e8110f-a3dd-4a75-bbcb-c9b48e330528"},"vehicle_type_id":"4","last_reported":1693512423,"current_range_meters":28800,"station_id":"ce4bht12rcd13ifvqi60","pricing_plan_id":"free"},{"bike_id":"c25cf05c-2b54-4cd8-bc38-5438bcaf9cce","system_id":"levelo_inurba_marseille","lat":43.286039,"lon":5.370681,"is_reserved":false,"is_disabled":false,"rental_uris":{"android":"levelo://app?vid=c25cf05c-2b54-4cd8-bc38-5438bcaf9cce","ios":"levelo://app?vid=c25cf05c-2b54-4cd8-bc38-5438bcaf9cce"},"vehicle_type_id":"4","last_reported":1693512423,"current_range_meters":8000,"station_id":"ce4bht12rcd13ifvqi60","pricing_plan_id":"free"},{"bike_id":"6b3e56e8-6fff-4d4d-826c-6f5621ba6ec6","system_id":"levelo_inurba_marseille","lat":43.286039,"lon":5.370679,"is_reserved":false,"is_disabled":false,"rental_uris":{"android":"levelo://app?vid=6b3e56e8-6fff-4d4d-826c-6f5621ba6ec6","ios":"levelo://app?vid=6b3e56e8-6fff-4d4d-826c-6f5621ba6ec6"},"vehicle_type_id":"4","last_reported":1693512423,"current_range_meters":22400,"station_id":"ce4bht12rcd13ifvqi60","pricing_plan_id":"free"},{"bike_id":"6cace180-05cf-4233-bd9e-db135e373b27","system_id":"levelo_inurba_marseille","lat":43.287185,"lon":5.379373,"is_reserved":false,"is_disabled":false,"rental_uris":{"android":"levelo://app?vid=6cace180-05cf-4233-bd9e-db135e373b27","ios":"levelo://app?vid=6cace180-05cf-4233-bd9e-db135e373b27"},"vehicle_type_id":"4","last_reported":1693512423,"current_range_meters":5200,"station_id":"ce4bh9p2rcd13ifvqec0","pricing_plan_id":"free"},{"bike_id":"90f37433-9ae1-4b40-82fc-36e0ff8b1679","system_id":"levelo_inurba_marseille","lat":43.287184,"lon":5.37937,"is_reserved":false,"is_disabled":false,"rental_uris":{"android":"levelo://app?vid=90f37433-9ae1-4b40-82fc-36e0ff8b1679","ios":"levelo://app?vid=90f37433-9ae1-4b40-82fc-36e0ff8b1679"},"vehicle_type_id":"4","last_reported":1693512423,"current_range_meters":15200,"station_id":"ce4bh9p2rcd13ifvqec0","pricing_plan_id":"free"},{"bike_id":"2d9d9d94-77f1-440a-8c18-c528574d1035","system_id":"levelo_inurba_marseille","lat":43.31445,"lon":5.40483,"is_reserved":false,"is_disabled":false,"rental_uris":{"android":"levelo://app?vid=2d9d9d94-77f1-440a-8c18-c528574d1035","ios":"levelo://app?vid=2d9d9d94-77f1-440a-8c18-c528574d1035"},"vehicle_type_id":"4","last_reported":1693512423,"current_range_meters":24000,"station_id":"","pricing_plan_id":"free"},{"bike_id":"cf12bce4-a670-428f-932c-8ed3516901c3","system_id":"levelo_inurba_marseille","lat":43.291994,"lon":5.392907,"is_reserved":false,"is_disabled":false,"rental_uris":{"android":"levelo://app?vid=cf12bce4-a670-428f-932c-8ed3516901c3","ios":"levelo://app?vid=cf12bce4-a670-428f-932c-8ed3516901c3"},"vehicle_type_id":"4","last_reported":1693512423,"current_range_meters":1200,"station_id":"ce4bh192rcd13ifvqdd0","pricing_plan_id":"free"},{"bike_id":"f74331e3-eb48-4d17-b024-989d719bd070","system_id":"levelo_inurba_marseille","lat":43.284538,"lon":5.358657,"is_reserved":false,"is_disabled":false,"rental_uris":{"android":"levelo://app?vid=f74331e3-eb48-4d17-b024-989d719bd070","ios":"levelo://app?vid=f74331e3-eb48-4d17-b024-989d719bd070"},"vehicle_type_id":"4","last_reported":1693512423,"current_range_meters":26400,"station_id":"ce4bhah2rcd13ifvqei0","pricing_plan_id":"free"},{"bike_id":"f55c1db8-5c89-45c9-a83e-60e7e9def168","system_id":"levelo_inurba_marseille","lat":43.284534,"lon":5.358662,"is_reserved":false,"is_disabled":false,"rental_uris":{"android":"levelo://app?vid=f55c1db8-5c89-45c9-a83e-60e7e9def168","ios":"levelo://app?vid=f55c1db8-5c89-45c9-a83e-60e7e9def168"},"vehicle_type_id":"4","last_reported":1693512423,"current_range_meters":28800,"station_id":"ce4bhah2rcd13ifvqei0","pricing_plan_id":"free"},{"bike_id":"bc87bbec-560b-4fbb-a282-0d1cc3c0392f","system_id":"levelo_inurba_marseille","lat":43.28465,"lon":5.35889,"is_reserved":false,"is_disabled":false,"rental_uris":{"android":"levelo://app?vid=bc87bbec-560b-4fbb-a282-0d1cc3c0392f","ios":"levelo://app?vid=bc87bbec-560b-4fbb-a282-0d1cc3c0392f"},"vehicle_type_id":"4","last_reported":1693512423,"current_range_meters":7200,"station_id":"","pricing_plan_id":"free"},{"bike_id":"13c40963-7066-4fb4-97d6-0a68d6978631","system_id":"levelo_inurba_marseille","lat":43.284538,"lon":5.358657,"is_reserved":false,"is_disabled":false,"rental_uris":{"android":"levelo://app?vid=13c40963-7066-4fb4-97d6-0a68d6978631","ios":"levelo://app?vid=13c40963-7066-4fb4-97d6-0a68d6978631"},"vehicle_type_id":"4","last_reported":1693512423,"current_range_meters":4400,"station_id":"ce4bhah2rcd13ifvqei0","pricing_plan_id":"free"},{"bike_id":"fca61ddf-5086-4b84-bcda-2b5628d11dd0","system_id":"levelo_inurba_marseille","lat":43.284538,"lon":5.358657,"is_reserved":false,"is_disabled":false,"rental_uris":{"android":"levelo://app?vid=fca61ddf-5086-4b84-bcda-2b5628d11dd0","ios":"levelo://app?vid=fca61ddf-5086-4b84-bcda-2b5628d11dd0"},"vehicle_type_id":"4","last_reported":1693512423,"current_range_meters":27600,"station_id":"ce4bhah2rcd13ifvqei0","pricing_plan_id":"free"},{"bike_id":"46c0d71a-0d4a-45b9-8bf6-9dc4c701e0b6","system_id":"levelo_inurba_marseille","lat":43.284538,"lon":5.358657,"is_reserved":false,"is_disabled":false,"rental_uris":{"android":"levelo://app?vid=46c0d71a-0d4a-45b9-8bf6-9dc4c701e0b6","ios":"levelo://app?vid=46c0d71a-0d4a-45b9-8bf6-9dc4c701e0b6"},"vehicle_type_id":"4","last_reported":1693512423,"current_range_meters":7200,"station_id":"ce4bhah2rcd13ifvqei0","pricing_plan_id":"free"},{"bike_id":"c52af409-f309-4d2d-83ea-5ed934d88fdd","system_id":"levelo_inurba_marseille","lat":43.284534,"lon":5.358662,"is_reserved":false,"is_disabled":false,"rental_uris":{"android":"levelo://app?vid=c52af409-f309-4d2d-83ea-5ed934d88fdd","ios":"levelo://app?vid=c52af409-f309-4d2d-83ea-5ed934d88fdd"},"vehicle_type_id":"4","last_reported":1693512423,"current_range_meters":31600,"station_id":"ce4bhah2rcd13ifvqei0","pricing_plan_id":"free"},{"bike_id":"d62b2ca5-d3ea-4109-9b4f-1c777f66b098","system_id":"levelo_inurba_marseille","lat":43.284538,"lon":5.358657,"is_reserved":false,"is_disabled":false,"rental_uris":{"android":"levelo://app?vid=d62b2ca5-d3ea-4109-9b4f-1c777f66b098","ios":"levelo://app?vid=d62b2ca5-d3ea-4109-9b4f-1c777f66b098"},"vehicle_type_id":"4","last_reported":1693512423,"current_range_meters":10000,"station_id":"ce4bhah2rcd13ifvqei0","pricing_plan_id":"free"},{"bike_id":"c2df6584-17cf-4c13-b23e-779e9df97a22","system_id":"levelo_inurba_marseille","lat":43.284534,"lon":5.358662,"is_reserved":false,"is_disabled":false,"rental_uris":{"android":"levelo://app?vid=c2df6584-17cf-4c13-b23e-779e9df97a22","ios":"levelo://app?vid=c2df6584-17cf-4c13-b23e-779e9df97a22"},"vehicle_type_id":"4","last_reported":1693512423,"current_range_meters":26800,"station_id":"ce4bhah2rcd13ifvqei0","pricing_plan_id":"free"},