{"last_updated":1687028656,"ttl":30,"version":"2.2","data":{"bikes":[{"bike_id":"bea29baf-a0da-486c-a6e4-7dc370bd29b9","system_id":"levelo_inurba_marseille","lat":43.312239,"lon":5.368562,"is_reserved":false,"is_disabled":false,"rental_uris":{"android":"levelo://app?vid=bea29baf-a0da-486c-a6e4-7dc370bd29b9","ios":"levelo://app?vid=bea29baf-a0da-486c-a6e4-7dc370bd29b9"},"vehicle_type_id":"4","last_reported":1687028656,"current_range_meters":0,"station_id":"ce4bgl92rcd13ifvqbq0","pricing_plan_id":"free"},{"bike_id":"d9bc7ae2-df28-4631-a43f-02c745355e0d","system_id":"levelo_inurba_marseille","lat":43.309076,"lon":5.368465,"is_reserved":false,"is_disabled":false,"rental_uris":{"android":"levelo://app?vid=d9bc7ae2-df28-4631-a43f-02c745355e0d","ios":"levelo://app?vid=d9bc7ae2-df28-4631-a43f-02c745355e0d"},"vehicle_type_id":"4","last_reported":1687028656,"current_range_meters":4400,"station_id":"ce4bgn92rcd13ifvqbvg","pricing_plan_id":"free"},{"bike_id":"94e5ad52-47a2-4da8-a0b2-90a21167ab22","system_id":"levelo_inurba_marseille","lat":43.305368,"lon":5.367343,"is_reserved":false,"is_disabled":false,"rental_uris":{"android":"levelo://app?vid=94e5ad52-47a2-4da8-a0b2-90a21167ab22","ios":"levelo://app?vid=94e5ad52-47a2-4da8-a0b2-90a21167ab22"},"vehicle_type_id":"4","last_reported":1687028656,"current_range_meters":400,"station_id":"ce4bgrp2rcd13ifvqc9g","pricing_plan_id":"free"},{"bike_id":"9c746439-937e-436d-8c66-cb90c42aae7f","system_id":"levelo_inurba_marseille","lat":43.31169,"lon":5.37746,"is_reserved":false,"is_disabled":false,"rental_uris":{"android":"levelo://app?vid=9c746439-937e-436d-8c66-cb90c42aae7f","ios":"levelo://app?vid=9c746439-937e-436d-8c66-cb90c42aae7f"},"vehicle_type_id":"4","last_reported":1687028656,"current_range_meters":28800,"station_id":"","pricing_plan_id":"free"},{"bike_id":"2424216c-0462-4ad0-b127-d0366c91b61c","system_id":"levelo_inurba_marseille","lat":43.31721,"lon":5.37724,"is_reserved":false,"is_disabled":false,"rental_uris":{"android":"levelo://app?vid=2424216c-0462-4ad0-b127-d0366c91b61c","ios":"levelo://app?vid=2424216c-0462-4ad0-b127-d0366c91b61c"},"vehicle_type_id":"4","last_reported":1687028656,"current_range_meters":31200,"station_id":"ce4bgth2rcd13ifvqch0","pricing_plan_id":"free"},{"bike_id":"ae33307b-fcd5-479b-9ae1-9002ed226c6e","system_id":"levelo_inurba_marseille","lat":43.30804,"lon":5.38152,"is_reserved":false,"is_disabled":false,"rental_uris":{"android":"levelo://app?vid=ae33307b-fcd5-479b-9ae1-9002ed226c6e","ios":"levelo://app?vid=ae33307b-fcd5-479b-9ae1-9002ed226c6e"},"vehicle_type_id":"4","last_reported":1687028656,"current_range_meters":8400,"station_id":"ce4bgt12rcd13ifvqce0","pricing_plan_id":"free"},{"bike_id":"43fc693e-f2a9-4aec-8fd9-d094bb02cb70","system_id":"levelo_inurba_marseille","lat":43.304606,"lon":5.379026,"is_reserved":false,"is_disabled":false,"rental_uris":{"android":"levelo://app?vid=43fc693e-f2a9-4aec-8fd9-d094bb02cb70","ios":"levelo://app?vid=43fc693e-f2a9-4aec-8fd9-d094bb02cb70"},"vehicle_type_id":"4","last_reported":1687028656,"current_range_meters":20400,"station_id":"ce4bgup2rcd13ifvqcn0","pricing_plan_id":"free"},{"bike_id":"5003c2fa-8578-4b5b-aee0-bf9c6a52e3f5","system_id":"levelo_inurba_marseille","lat":43.31993,"lon":5.38142,"is_reserved":false,"is_disabled":false,"rental_uris":{"android":"levelo://app?vid=5003c2fa-8578-4b5b-aee0-bf9c6a52e3f5","ios":"levelo://app?vid=5003c2fa-8578-4b5b-aee0-bf9c6a52e3f5"},"vehicle_type_id":"4","last_reported":1687028656,"current_range_meters":0,"station_id":"ce4bhr12rcd13ifvqhpg","pricing_plan_id":"free"},{"bike_id":"5ca77738-6310-42c3-b6c3-d9668da647fe","system_id":"levelo_inurba_marseille","lat":43.319935,"lon":5.381699,"is_reserved":false,"is_disabled":false,"rental_uris":{"android":"levelo://app?vid=5ca77738-6310-42c3-b6c3-d9668da647fe","ios":"levelo://app?vid=5ca77738-6310-42c3-b6c3-d9668da647fe"},"vehicle_type_id":"4","last_reported":1687028656,"current_range_meters":19200,"station_id":"ce4bhr12rcd13ifvqhpg","pricing_plan_id":"free"},{"bike_id":"291c3a7b-140c-48f1-bcc5-0009e676a44b","system_id":"levelo_inurba_marseille","lat":43.299222,"lon":5.365554,"is_reserved":false,"is_disabled":false,"rental_uris":{"android":"levelo://app?vid=291c3a7b-140c-48f1-bcc5-0009e676a44b","ios":"levelo://app?vid=291c3a7b-140c-48f1-bcc5-0009e676a44b"},"vehicle_type_id":"4","last_reported":1687028656,"current_range_meters":0,"station_id":"ce4bgm92rcd13ifvqbr0","pricing_plan_id":"free"},{"bike_id":"330412da-b9eb-49fa-9ba0-9288ee9ddd31","system_id":"levelo_inurba_marseille","lat":43.30056,"lon":5.37528,"is_reserved":false,"is_disabled":false,"rental_uris":{"android":"levelo://app?vid=330412da-b9eb-49fa-9ba0-9288ee9ddd31","ios":"levelo://app?vid=330412da-b9eb-49fa-9ba0-9288ee9ddd31"},"vehicle_type_id":"4","last_reported":1687028656,"current_range_meters":18000,"station_id":"","pricing_plan_id":"free"},{"bike_id":"aeaa4914-76b6-42a5-bb1f-f78a435cabc7","system_id":"levelo_inurba_marseille","lat":43.298433,"lon":5.362774,"is_reserved":false,"is_disabled":false,"rental_uris":{"android":"levelo://app?vid=aeaa4914-76b6-42a5-bb1f-f78a435cabc7","ios":"levelo://app?vid=aeaa4914-76b6-42a5-bb1f-f78a435cabc7"},"vehicle_type_id":"4","last_reported":1687028656,"current_range_meters":28000,"station_id":"ce4bgpp2rcd13ifvqc3g","pricing_plan_id":"free"},{"bike_id":"8b882a54-c389-4379-ae9d-bc8b85d3407e","system_id":"levelo_inurba_marseille","lat":43.29851,"lon":5.36283,"is_reserved":false,"is_disabled":false,"rental_uris":{"android":"levelo://app?vid=8b882a54-c389-4379-ae9d-bc8b85d3407e","ios":"levelo://app?vid=8b882a54-c389-4379-ae9d-bc8b85d3407e"},"vehicle_type_id":"4","last_reported":1687028656,"current_range_meters":27600,"station_id":"ce4bgpp2rcd13ifvqc3g","pricing_plan_id":"free"},{"bike_id":"4dd415cb-ac72-4175-be73-64a8c90f4ede","system_id":"levelo_inurba_marseille","lat":43.298433,"lon":5.362774,"is_reserved":false,"is_disabled":false,"rental_uris":{"android":"levelo://app?vid=4dd415cb-ac72-4175-be73-64a8c90f4ede","ios":"levelo://app?vid=4dd415cb-ac72-4175-be73-64a8c90f4ede"},"vehicle_type_id":"4","last_reported":1687028656,"current_range_meters":7600,"station_id":"ce4bgpp2rcd13ifvqc3g","pricing_plan_id":"free"},{"bike_id":"d9dc6926-24fe-4bc4-9439-a2c02ce44da7","system_id":"levelo_inurba_marseille","lat":43.299243,"lon":5.37481,"is_reserved":false,"is_disabled":false,"rental_uris":{"android":"levelo://app?vid=d9dc6926-24fe-4bc4-9439-a2c02ce44da7","ios":"levelo://app?vid=d9dc6926-24fe-4bc4-9439-a2c02ce44da7"},"vehicle_type_id":"4","last_reported":1687028656,"current_range_meters":12800,"station_id":"ce4bgjh2rcd13ifvqbg0","pricing_plan_id":"free"},{"bike_id":"8344cfcc-47c6-468b-8ede-be25f336c7c3","system_id":"levelo_inurba_marseille","lat":43.29838,"lon":5.36283,"is_reserved":false,"is_disabled":false,"rental_uris":{"android":"levelo://app?vid=8344cfcc-47c6-468b-8ede-be25f336c7c3","ios":"levelo://app?vid=8344cfcc-47c6-468b-8ede-be25f336c7c3"},"vehicle_type_id":"4","last_reported":1687028656,"current_range_meters":13200,"station_id":"ce4bgpp2rcd13ifvqc3g","pricing_plan_id":"free"},{"bike_id":"68f8e491-1d26-4b10-9d04-6f91152b6388","system_id":"levelo_inurba_marseille","lat":43.299243,"lon":5.374807,"is_reserved":false,"is_disabled":false,"rental_uris":{"android":"levelo://app?vid=68f8e491-1d26-4b10-9d04-6f91152b6388","ios":"levelo://app?vid=68f8e491-1d26-4b10-9d04-6f91152b6388"},"vehicle_type_id":"4","last_reported":1687028656,"current_range_meters":31600,"station_id":"ce4bgjh2rcd13ifvqbg0","pricing_plan_id":"free"},{"bike_id":"ee06ff9c-8555-4363-9b8d-1042580c17dc","system_id":"levelo_inurba_marseille","lat":43.299243,"lon":5.374807,"is_reserved":false,"is_disabled":false,"rental_uris":{"android":"levelo://app?vid=ee06ff9c-8555-4363-9b8d-1042580c17dc","ios":"levelo://app?vid=ee06ff9c-8555-4363-9b8d-1042580c17dc"},"vehicle_type_id":"4","last_reported":1687028656,"current_range_meters":1200,"station_id":"ce4bgjh2rcd13ifvqbg0","pricing_plan_id":"free"},{"bike_id":"3be27c74-d28f-4e28-8bba-decc04de71c8","system_id":"levelo_inurba_marseille","lat":43.311722,"lon":5.387247,"is_reserved":false,"is_disabled":false,"rental_uris":{"android":"levelo://app?vid=3be27c74-d28f-4e28-8bba-decc04de71c8","ios":"levelo://app?vid=3be27c74-d28f-4e28-8bba-decc04de71c8"},"vehicle_type_id":"4","last_reported":1687028656,"current_range_meters":20000,"station_id":"ce4bgv12rcd13ifvqcp0","pricing_plan_id":"free"},{"bike_id":"4bf53da7-5b2e-4feb-ad64-d834c27b533d","system_id":"levelo_inurba_marseille","lat":43.32825,"lon":5.36678,"is_reserved":false,"is_disabled":false,"rental_uris":{"android":"levelo://app?vid=4bf53da7-5b2e-4feb-ad64-d834c27b533d","ios":"levelo://app?vid=4bf53da7-5b2e-4feb-ad64-d834c27b533d"},"vehicle_type_id":"4","last_reported":1687028656,"current_range_meters":24800,"station_id":"ce4bhs92rcd13ifvqi0g","pricing_plan_id":"free"},{"bike_id":"6d12bf08-ef93-4cae-ab6e-6233437e9a82","system_id":"levelo_inurba_marseille","lat":43.32826,"lon":5.36681,"is_reserved":false,"is_disabled":false,"rental_uris":{"android":"levelo://app?vid=6d12bf08-ef93-4cae-ab6e-6233437e9a82","ios":"levelo://app?vid=6d12bf08-ef93-4cae-ab6e-6233437e9a82"},"vehicle_type_id":"4","last_reported":1687028656,"current_range_meters":18000,"station_id":"ce4bhs92rcd13ifvqi0g","pricing_plan_id":"free"},{"bike_id":"4bb85f49-7f9a-477c-abaa-23a093d581e6","system_id":"levelo_inurba_marseille","lat":43.32828,"lon":5.36691,"is_reserved":false,"is_disabled":false,"rental_uris":{"android":"levelo://app?vid=4bb85f49-7f9a-477c-abaa-23a093d581e6","ios":"levelo://app?vid=4bb85f49-7f9a-477c-abaa-23a093d581e6"},"vehicle_type_id":"4","last_reported":1687028656,"current_range_meters":19200,"station_id":"ce4bhs92rcd13ifvqi0g","pricing_plan_id":"free"},{"bike_id":"950915b5-629a-4eab-80e0-866902263e48","system_id":"levelo_inurba_marseille","lat":43.328371,"lon":5.366909,"is_reserved":false,"is_disabled":false,"rental_uris":{"android":"levelo://app?vid=950915b5-629a-4eab-80e0-866902263e48","ios":"levelo://app?vid=950915b5-629a-4eab-80e0-866902263e48"},"vehicle_type_id":"4","last_reported":1687028656,"current_range_meters":1600,"station_id":"ce4bhs92rcd13ifvqi0g","pricing_plan_id":"free"},{"bike_id":"82d4e3d3-55c3-4fd4-a5dd-4f0cd8848280","system_id":"levelo_inurba_marseille","lat":43.29715,"lon":5.36625,"is_reserved":false,"is_disabled":false,"rental_uris":{"android":"levelo://app?vid=82d4e3d3-55c3-4fd4-a5dd-4f0cd8848280","ios":"levelo://app?vid=82d4e3d3-55c3-4fd4-a5dd-4f0cd8848280"},"vehicle_type_id":"4","last_reported":1687028656,"current_range_meters":23600,"station_id":"ce4bgn12rcd13ifvqbt0","pricing_plan_id":"free"},{"bike_id":"cb0989c5-ef0f-49ab-933f-9be341b8f004","system_id":"levelo_inurba_marseille","lat":43.328371,"lon":5.366909,"is_reserved":false,"is_disabled":false,"rental_uris":{"android":"levelo://app?vid=cb0989c5-ef0f-49ab-933f-9be341b8f004","ios":"levelo://app?vid=cb0989c5-ef0f-49ab-933f-9be341b8f004"},"vehicle_type_id":"4","last_reported":1687028656,"current_range_meters":21200,"station_id":"ce4bhs92rcd13ifvqi0g","pricing_plan_id":"free"},{"bike_id":"176f4894-d7fc-460e-aa5d-7c8c1e206dc3","system_id":"levelo_inurba_marseille","lat":43.297163,"lon":5.365866,"is_reserved":false,"is_disabled":false,"rental_uris":{"android":"levelo://app?vid=176f4894-d7fc-460e-aa5d-7c8c1e206dc3","ios":"levelo://app?vid=176f4894-d7fc-460e-aa5d-7c8c1e206dc3"},"vehicle_type_id":"4","last_reported":1687028656,"current_range_meters":14800,"station_id":"ce4bgn12rcd13ifvqbt0","pricing_plan_id":"free"},{"bike_id":"0851357a-94e1-4cf6-ad37-5a7a49d00988","system_id":"levelo_inurba_marseille","lat":43.32827,"lon":5.36193,"is_reserved":false,"is_disabled":false,"rental_uris":{"android":"levelo://app?vid=0851357a-94e1-4cf6-ad37-5a7a49d00988","ios":"levelo://app?vid=0851357a-94e1-4cf6-ad37-5a7a49d00988"},"vehicle_type_id":"4","last_reported":1687028656,"current_range_meters":31200,"station_id":"","pricing_plan_id":"free"},{"bike_id":"e25bbacf-225c-4f1a-a2b1-8f9c37a7c29f","system_id":"levelo_inurba_marseille","lat":43.29916,"lon":5.37874,"is_reserved":false,"is_disabled":false,"rental_uris":{"android":"levelo://app?vid=e25bbacf-225c-4f1a-a2b1-8f9c37a7c29f","ios":"levelo://app?vid=e25bbacf-225c-4f1a-a2b1-8f9c37a7c29f"},"vehicle_type_id":"4","last_reported":1687028656,"current_range_meters":11200,"station_id":"","pricing_plan_id":"free"},{"bike_id":"7a6c9e1e-a46e-423b-a617-48618d081e5c","system_id":"levelo_inurba_marseille","lat":43.29704,"lon":5.37344,"is_reserved":false,"is_disabled":false,"rental_uris":{"android":"levelo://app?vid=7a6c9e1e-a46e-423b-a617-48618d081e5c","ios":"levelo://app?vid=7a6c9e1e-a46e-423b-a617-48618d081e5c"},"vehicle_type_id":"4","last_reported":1687028656,"current_range_meters":0,"station_id":"ce4bhe12rcd13ifvqf30","pricing_plan_id":"free"},{"bike_id":"a5dd8c78-c327-4647-a9d7-9782f956331d","system_id":"levelo_inurba_marseille","lat":43.2968,"lon":5.37291,"is_reserved":false,"is_disabled":false,"rental_uris":{"android":"levelo://app?vid=a5dd8c78-c327-4647-a9d7-9782f956331d","ios":"levelo://app?vid=a5dd8c78-c327-4647-a9d7-9782f956331d"},"vehicle_type_id":"4","last_reported":1687028656,"current_range_meters":5600,"station_id":"ce4bgk12rcd13ifvqbj0","pricing_plan_id":"free"},{"bike_id":"88d0330c-5bb0-4a19-9b65-d4683b42e015","system_id":"levelo_inurba_marseille","lat":43.29683,"lon":5.36046,"is_reserved":false,"is_disabled":false,"rental_uris":{"android":"levelo://app?vid=88d0330c-5bb0-4a19-9b65-d4683b42e015","ios":"levelo://app?vid=88d0330c-5bb0-4a19-9b65-d4683b42e015"},"vehicle_type_id":"4","last_reported":1687028656,"current_range_meters":5600,"station_id":"ce4bgpp2rcd13ifvqc3g","pricing_plan_id":"free"},{"bike_id":"a412858d-d5f7-4a60-86de-622f63b25eb1","system_id":"levelo_inurba_marseille","lat":43.296131,"lon":5.370791,"is_reserved":false,"is_disabled":false,"rental_uris":{"android":"levelo://app?vid=a412858d-d5f7-4a60-86de-622f63b25eb1","ios":"levelo://app?vid=a412858d-d5f7-4a60-86de-622f63b25eb1"},"vehicle_type_id":"4","last_reported":1687028656,"current_range_meters":8800,"station_id":"ce4bgnh2rcd13ifvqc0g","pricing_plan_id":"free"},{"bike_id":"ade7564d-25c9-4a56-a995-e80073bfe03f","system_id":"levelo_inurba_marseille","lat":43.29573,"lon":5.367355,"is_reserved":false,"is_disabled":false,"rental_uris":{"android":"levelo://app?vid=ade7564d-25c9-4a56-a995-e80073bfe03f","ios":"levelo://app?vid=ade7564d-25c9-4a56-a995-e80073bfe03f"},"vehicle_type_id":"4","last_reported":1687028656,"current_range_meters":22400,"station_id":"ce4bgph2rcd13ifvqc2g","pricing_plan_id":"free"},{"bike_id":"24f41ca5-b432-4feb-a0c8-a15026b97306","system_id":"levelo_inurba_marseille","lat":43.296131,"lon":5.370773,"is_reserved":false,"is_disabled":false,"rental_uris":{"android":"levelo://app?vid=24f41ca5-b432-4feb-a0c8-a15026b97306","ios":"levelo://app?vid=24f41ca5-b432-4feb-a0c8-a15026b97306"},"vehicle_type_id":"4","last_reported":1687028656,"current_range_meters":15200,"station_id":"ce4bgnh2rcd13ifvqc0g","pricing_plan_id":"free"},{"bike_id":"3d7f94d0-af1d-4ca6-b8ce-75b1806013e4","system_id":"levelo_inurba_marseille","lat":43.309589,"lon":5.390258,"is_reserved":false,"is_disabled":false,"rental_uris":{"android":"levelo://app?vid=3d7f94d0-af1d-4ca6-b8ce-75b1806013e4","ios":"levelo://app?vid=3d7f94d0-af1d-4ca6-b8ce-75b1806013e4"},"vehicle_type_id":"4","last_reported":1687028656,"current_range_meters":19600,"station_id":"ce4bgup2rcd13ifvqco0","pricing_plan_id":"free"},{"bike_id":"07d1f31c-686c-4150-aa4a-5ac69fa4832b","system_id":"levelo_inurba_marseille","lat":43.31754,"lon":5.39015,"is_reserved":false,"is_disabled":false,"rental_uris":{"android":"levelo://app?vid=07d1f31c-686c-4150-aa4a-5ac69fa4832b","ios":"levelo://app?vid=07d1f31c-686c-4150-aa4a-5ac69fa4832b"},"vehicle_type_id":"4","last_reported":1687028656,"current_range_meters":9600,"station_id":"ce4bhqp2rcd13ifvqhng","pricing_plan_id":"free"},{"bike_id":"59c15363-8815-4fd6-be0a-db7a75366b70","system_id":"levelo_inurba_marseille","lat":43.317557,"lon":5.390173,"is_reserved":false,"is_disabled":false,"rental_uris":{"android":"levelo://app?vid=59c15363-8815-4fd6-be0a-db7a75366b70","ios":"levelo://app?vid=59c15363-8815-4fd6-be0a-db7a75366b70"},"vehicle_type_id":"4","last_reported":1687028656,"current_range_meters":6000,"station_id":"ce4bhqp2rcd13ifvqhng","pricing_plan_id":"free"},{"bike_id":"3b28960b-ab92-457e-be17-91eb85a1afbd","system_id":"levelo_inurba_marseille","lat":43.317557,"lon":5.390173,"is_reserved":false,"is_disabled":false,"rental_uris":{"android":"levelo://app?vid=3b28960b-ab92-457e-be17-91eb85a1afbd","ios":"levelo://app?vid=3b28960b-ab92-457e-be17-91eb85a1afbd"},"vehicle_type_id":"4","last_reported":1687028656,"current_range_meters":0,"station_id":"ce4bhqp2rcd13ifvqhng","pricing_plan_id":"free"},{"bike_id":"233f3bec-2260-4d0d-8c58-f44bf0bbdda2","system_id":"levelo_inurba_marseille","lat":43.295748,"lon":5.37522,"is_reserved":false,"is_disabled":false,"rental_uris":{"android":"levelo://app?vid=233f3bec-2260-4d0d-8c58-f44bf0bbdda2","ios":"levelo://app?vid=233f3bec-2260-4d0d-8c58-f44bf0bbdda2"},"vehicle_type_id":"4","last_reported":1687028656,"current_range_meters":7600,"station_id":"ce4bgh92rcd13ifvqb50","pricing_plan_id":"free"},{"bike_id":"250c8a96-8498-4211-b8f3-1b00a8d1fbaf","system_id":"levelo_inurba_marseille","lat":43.296477,"lon":5.37768,"is_reserved":false,"is_disabled":false,"rental_uris":{"android":"levelo://app?vid=250c8a96-8498-4211-b8f3-1b00a8d1fbaf","ios":"levelo://app?vid=250c8a96-8498-4211-b8f3-1b00a8d1fbaf"},"vehicle_type_id":"4","last_reported":1687028656,"current_range_meters":15600,"station_id":"","pricing_plan_id":"free"},{"bike_id":"eb56f040-d7e3-440c-9d05-82afe187dd21","system_id":"levelo_inurba_marseille","lat":43.299717,"lon":5.384845,"is_reserved":false,"is_disabled":false,"rental_uris":{"android":"levelo://app?vid=eb56f040-d7e3-440c-9d05-82afe187dd21","ios":"levelo://app?vid=eb56f040-d7e3-440c-9d05-82afe187dd21"},"vehicle_type_id":"4","last_reported":1687028656,"current_range_meters":31200,"station_id":"ce4bgj92rcd13ifvqbd0","pricing_plan_id":"free"},{"bike_id":"5bee7601-d4cb-4356-a55f-6881670342fa","system_id":"levelo_inurba_marseille","lat":43.29504,"lon":5.37512,"is_reserved":false,"is_disabled":false,"rental_uris":{"android":"levelo://app?vid=5bee7601-d4cb-4356-a55f-6881670342fa","ios":"levelo://app?vid=5bee7601-d4cb-4356-a55f-6881670342fa"},"vehicle_type_id":"4","last_reported":1687028656,"current_range_meters":29200,"station_id":"","pricing_plan_id":"free"},{"bike_id":"2c9ad911-25e0-4222-8751-d809dfadd582","system_id":"levelo_inurba_marseille","lat":43.32369,"lon":5.38861,"is_reserved":false,"is_disabled":false,"rental_uris":{"android":"levelo://app?vid=2c9ad911-25e0-4222-8751-d809dfadd582","ios":"levelo://app?vid=2c9ad911-25e0-4222-8751-d809dfadd582"},"vehicle_type_id":"4","last_reported":1687028656,"current_range_meters":24800,"station_id":"ce4bhqp2rcd13ifvqhog","pricing_plan_id":"free"},{"bike_id":"e6fc6795-dd49-45c2-a56c-a68d55cbd455","system_id":"levelo_inurba_marseille","lat":43.29411,"lon":5.37382,"is_reserved":false,"is_disabled":false,"rental_uris":{"android":"levelo://app?vid=e6fc6795-dd49-45c2-a56c-a68d55cbd455","ios":"levelo://app?vid=e6fc6795-dd49-45c2-a56c-a68d55cbd455"},"vehicle_type_id":"4","last_reported":1687028656,"current_range_meters":26000,"station_id":"","pricing_plan_id":"free"},{"bike_id":"6bf2229b-f534-4647-b322-42cb17c0e26c","system_id":"levelo_inurba_marseille","lat":43.32364,"lon":5.38885,"is_reserved":false,"is_disabled":false,"rental_uris":{"android":"levelo://app?vid=6bf2229b-f534-4647-b322-42cb17c0e26c","ios":"levelo://app?vid=6bf2229b-f534-4647-b322-42cb17c0e26c"},"vehicle_type_id":"4","last_reported":1687028656,"current_range_meters":18000,"station_id":"ce4bhqp2rcd13ifvqhog","pricing_plan_id":"free"},{"bike_id":"d7b6e362-a89e-426f-a0b9-fe4da9f36faf","system_id":"levelo_inurba_marseille","lat":43.32367,"lon":5.388836,"is_reserved":false,"is_disabled":false,"rental_uris":{"android":"levelo://app?vid=d7b6e362-a89e-426f-a0b9-fe4da9f36faf","ios":"levelo://app?vid=d7b6e362-a89e-426f-a0b9-fe4da9f36faf"},"vehicle_type_id":"4","last_reported":1687028656,"current_range_meters":21200,"station_id":"ce4bhqp2rcd13ifvqhog","pricing_plan_id":"free"},{"bike_id":"bd5e051b-6414-4247-b6a0-72183ead9f6c","system_id":"levelo_inurba_marseille","lat":43.31987,"lon":5.39201,"is_reserved":false,"is_disabled":false,"rental_uris":{"android":"levelo://app?vid=bd5e051b-6414-4247-b6a0-72183ead9f6c","ios":"levelo://app?vid=bd5e051b-6414-4247-b6a0-72183ead9f6c"},"vehicle_type_id":"4","last_reported":1687028656,"current_range_meters":9200,"station_id":"","pricing_plan_id":"free"},{"bike_id":"dabb0ed2-1393-4ee6-8918-784fbc533698","system_id":"levelo_inurba_marseille","lat":43.292749,"lon":5.368402,"is_reserved":false,"is_disabled":false,"rental_uris":{"android":"levelo://app?vid=dabb0ed2-1393-4ee6-8918-784fbc533698","ios":"levelo://app?vid=dabb0ed2-1393-4ee6-8918-784fbc533698"},"vehicle_type_id":"4","last_reported":1687028656,"current_range_meters":5200,"station_id":"ce4bhbp2rcd13ifvqesg","pricing_plan_id":"free"},{"bike_id":"e4627b37-eabc-4fa8-b182-c6605f312242","system_id":"levelo_inurba_marseille","lat":43.30299,"lon":5.39224,"is_reserved":false,"is_disabled":false,"rental_uris":{"android":"levelo://app?vid=e4627b37-eabc-4fa8-b182-c6605f312242","ios":"levelo://app?vid=e4627b37-eabc-4fa8-b182-c6605f312242"},"vehicle_type_id":"4","last_reported":1687028656,"current_range_meters":3200,"station_id":"ce4bgkh2rcd13ifvqbk0","pricing_plan_id":"free"},{"bike_id":"ac5db32b-5f86-46bb-8b7b-bac0963e9487","system_id":"levelo_inurba_marseille","lat":43.291994,"lon":5.357886,"is_reserved":false,"is_disabled":false,"rental_uris":{"android":"levelo://app?vid=ac5db32b-5f86-46bb-8b7b-bac0963e9487","ios":"levelo://app?vid=ac5db32b-5f86-46bb-8b7b-bac0963e9487"},"vehicle_type_id":"4","last_reported":1687028656,"current_range_meters":22800,"station_id":"ce4bhb12rcd13ifvqel0","pricing_plan_id":"free"},{"bike_id":"821b4814-8715-42d1-95fc-789f845f39dd","system_id":"levelo_inurba_marseille","lat":43.291994,"lon":5.357886,"is_reserved":false,"is_disabled":false,"rental_uris":{"android":"levelo://app?vid=821b4814-8715-42d1-95fc-789f845f39dd","ios":"levelo://app?vid=821b4814-8715-42d1-95fc-789f845f39dd"},"vehicle_type_id":"4","last_reported":1687028656,"current_range_meters":10800,"station_id":"ce4bhb12rcd13ifvqel0","pricing_plan_id":"free"},{"bike_id":"0349abfd-c32a-4a39-8358-68fe37dd4d4b","system_id":"levelo_inurba_marseille","lat":43.313291,"lon":5.396838,"is_reserved":false,"is_disabled":false,"rental_uris":{"android":"levelo://app?vid=0349abfd-c32a-4a39-8358-68fe37dd4d4b","ios":"levelo://app?vid=0349abfd-c32a-4a39-8358-68fe37dd4d4b"},"vehicle_type_id":"4","last_reported":1687028656,"current_range_meters":13600,"station_id":"ce4bgvp2rcd13ifvqcu0","pricing_plan_id":"free"},{"bike_id":"4e8dcd8a-8a1d-45d3-8a43-95f7d96039cc","system_id":"levelo_inurba_marseille","lat":43.30883,"lon":5.3966,"is_reserved":false,"is_disabled":false,"rental_uris":{"android":"levelo://app?vid=4e8dcd8a-8a1d-45d3-8a43-95f7d96039cc","ios":"levelo://app?vid=4e8dcd8a-8a1d-45d3-8a43-95f7d96039cc"},"vehicle_type_id":"4","last_reported":1687028656,"current_range_meters":24800,"station_id":"ce4bh012rcd13ifvqcv0","pricing_plan_id":"free"},{"bike_id":"69452cd0-c91e-4699-a929-ccdb458ea6ca","system_id":"levelo_inurba_marseille","lat":43.290327,"lon":5.375711,"is_reserved":false,"is_disabled":false,"rental_uris":{"android":"levelo://app?vid=69452cd0-c91e-4699-a929-ccdb458ea6ca","ios":"levelo://app?vid=69452cd0-c91e-4699-a929-ccdb458ea6ca"},"vehicle_type_id":"4","last_reported":1687028656,"current_range_meters":7200,"station_id":"ce4bh692rcd13ifvqe90","pricing_plan_id":"free"},{"bike_id":"0009c1e3-86ac-4c3d-b3c8-9be83c1fa496","system_id":"levelo_inurba_marseille","lat":43.289184,"lon":5.366408,"is_reserved":false,"is_disabled":false,"rental_uris":{"android":"levelo://app?vid=0009c1e3-86ac-4c3d-b3c8-9be83c1fa496","ios":"levelo://app?vid=0009c1e3-86ac-4c3d-b3c8-9be83c1fa496"},"vehicle_type_id":"4","last_reported":1687028656,"current_range_meters":31200,"station_id":"ce4bhap2rcd13ifvqek0","pricing_plan_id":"free"},{"bike_id":"b4266719-acc4-49f1-94b3-3e30c03c3801","system_id":"levelo_inurba_marseille","lat":43.289184,"lon":5.366408,"is_reserved":false,"is_disabled":false,"rental_uris":{"android":"levelo://app?vid=b4266719-acc4-49f1-94b3-3e30c03c3801","ios":"levelo://app?vid=b4266719-acc4-49f1-94b3-3e30c03c3801"},"vehicle_type_id":"4","last_reported":1687028656,"current_range_meters":31200,"station_id":"ce4bhap2rcd13ifvqek0","pricing_plan_id":"free"},{"bike_id":"13fe4bcc-d197-4764-ada0-15cfd35c571a","system_id":"levelo_inurba_marseille","lat":43.289184,"lon":5.366408,"is_reserved":false,"is_disabled":false,"rental_uris":{"android":"levelo://app?vid=13fe4bcc-d197-4764-ada0-15cfd35c571a","ios":"levelo://app?vid=13fe4bcc-d197-4764-ada0-15cfd35c571a"},"vehicle_type_id":"4","last_reported":1687028656,"current_range_meters":31200,"station_id":"ce4bhap2rcd13ifvqek0","pricing_plan_id":"free"},{"bike_id":"592519d5-d574-4b0d-99dc-4bcfe8f7ced4","system_id":"levelo_inurba_marseille","lat":43.289184,"lon":5.366408,"is_reserved":false,"is_disabled":false,"rental_uris":{"android":"levelo://app?vid=592519d5-d574-4b0d-99dc-4bcfe8f7ced4","ios":"levelo://app?vid=592519d5-d574-4b0d-99dc-4bcfe8f7ced4"},"vehicle_type_id":"4","last_reported":1687028656,"current_range_meters":28000,"station_id":"ce4bhap2rcd13ifvqek0","pricing_plan_id":"free"},{"bike_id":"9f595e4e-8971-4b36-bf96-7fcf49619e6b","system_id":"levelo_inurba_marseille","lat":43.289468,"lon":5.363719,"is_reserved":false,"is_disabled":false,"rental_uris":{"android":"levelo://app?vid=9f595e4e-8971-4b36-bf96-7fcf49619e6b","ios":"levelo://app?vid=9f595e4e-8971-4b36-bf96-7fcf49619e6b"},"vehicle_type_id":"4","last_reported":1687028656,"current_range_meters":0,"station_id":"ce4bhc92rcd13ifvqetg","pricing_plan_id":"free"},{"bike_id":"72fefcbd-321f-4cc4-87a4-a0ffa2b34843","system_id":"levelo_inurba_marseille","lat":43.292642,"lon":5.384254,"is_reserved":false,"is_disabled":false,"rental_uris":{"android":"levelo://app?vid=72fefcbd-321f-4cc4-87a4-a0ffa2b34843","ios":"levelo://app?vid=72fefcbd-321f-4cc4-87a4-a0ffa2b34843"},"vehicle_type_id":"4","last_reported":1687028656,"current_range_meters":1600,"station_id":"ce4bh692rcd13ifvqea0","pricing_plan_id":"free"},{"bike_id":"38eb09af-7166-42b9-865e-84246929498f","system_id":"levelo_inurba_marseille","lat":43.292642,"lon":5.384254,"is_reserved":false,"is_disabled":false,"rental_uris":{"android":"levelo://app?vid=38eb09af-7166-42b9-865e-84246929498f","ios":"levelo://app?vid=38eb09af-7166-42b9-865e-84246929498f"},"vehicle_type_id":"4","last_reported":1687028656,"current_range_meters":31600,"station_id":"ce4bh692rcd13ifvqea0","pricing_plan_id":"free"},{"bike_id":"805f70dc-8a4c-48fd-8d16-4ccfa03d2f0a","system_id":"levelo_inurba_marseille","lat":43.33043,"lon":5.38917,"is_reserved":false,"is_disabled":false,"rental_uris":{"android":"levelo://app?vid=805f70dc-8a4c-48fd-8d16-4ccfa03d2f0a","ios":"levelo://app?vid=805f70dc-8a4c-48fd-8d16-4ccfa03d2f0a"},"vehicle_type_id":"4","last_reported":1687028656,"current_range_meters":7600,"station_id":"ce4bhr92rcd13ifvqhrg","pricing_plan_id":"free"},{"bike_id":"888118d8-bc3a-4a82-a3b4-807dd1c39988","system_id":"levelo_inurba_marseille","lat":43.295169,"lon":5.390426,"is_reserved":false,"is_disabled":false,"rental_uris":{"android":"levelo://app?vid=888118d8-bc3a-4a82-a3b4-807dd1c39988","ios":"levelo://app?vid=888118d8-bc3a-4a82-a3b4-807dd1c39988"},"vehicle_type_id":"4","last_reported":1687028656,"current_range_meters":2000,"station_id":"ce4bh3p2rcd13ifvqdp0","pricing_plan_id":"free"},{"bike_id":"b9b44b37-7edf-4ab6-8685-17eb58a26dbc","system_id":"levelo_inurba_marseille","lat":43.295169,"lon":5.390426,"is_reserved":false,"is_disabled":false,"rental_uris":{"android":"levelo://app?vid=b9b44b37-7edf-4ab6-8685-17eb58a26dbc","ios":"levelo://app?vid=b9b44b37-7edf-4ab6-8685-17eb58a26dbc"},"vehicle_type_id":"4","last_reported":1687028656,"current_range_meters":30400,"station_id":"ce4bh3p2rcd13ifvqdp0","pricing_plan_id":"free"},{"bike_id":"94cc4dbb-e5f7-47c1-a70c-4b504d9c36a1","system_id":"levelo_inurba_marseille","lat":43.316517,"lon":5.404375,"is_reserved":false,"is_disabled":false,"rental_uris":{"android":"levelo://app?vid=94cc4dbb-e5f7-47c1-a70c-4b504d9c36a1","ios":"levelo://app?vid=94cc4dbb-e5f7-47c1-a70c-4b504d9c36a1"},"vehicle_type_id":"4","last_reported":1687028656,"current_range_meters":2000,"station_id":"ce4bh012rcd13ifvqd00","pricing_plan_id":"free"},{"bike_id":"c0fb8083-e02d-4dec-b1b9-fa095e6c5b75","system_id":"levelo_inurba_marseille","lat":43.337396,"lon":5.374526,"is_reserved":false,"is_disabled":false,"rental_uris":{"android":"levelo://app?vid=c0fb8083-e02d-4dec-b1b9-fa095e6c5b75","ios":"levelo://app?vid=c0fb8083-e02d-4dec-b1b9-fa095e6c5b75"},"vehicle_type_id":"4","last_reported":1687028656,"current_range_meters":0,"station_id":"ce4bhp92rcd13ifvqhag","pricing_plan_id":"free"},{"bike_id":"41a8749b-6d93-4d1b-8e52-c5f60f65ae7c","system_id":"levelo_inurba_marseille","lat":43.33752,"lon":5.37443,"is_reserved":false,"is_disabled":false,"rental_uris":{"android":"levelo://app?vid=41a8749b-6d93-4d1b-8e52-c5f60f65ae7c","ios":"levelo://app?vid=41a8749b-6d93-4d1b-8e52-c5f60f65ae7c"},"vehicle_type_id":"4","last_reported":1687028656,"current_range_meters":30000,"station_id":"","pricing_plan_id":"free"},{"bike_id":"31016bee-d4e3-4fbe-aaf3-21f7747b4853","system_id":"levelo_inurba_marseille","lat":43.301117,"lon":5.398795,"is_reserved":false,"is_disabled":false,"rental_uris":{"android":"levelo://app?vid=31016bee-d4e3-4fbe-aaf3-21f7747b4853","ios":"levelo://app?vid=31016bee-d4e3-4fbe-aaf3-21f7747b4853"},"vehicle_type_id":"4","last_reported":1687028656,"current_range_meters":0,"station_id":"ce4bh0h2rcd13ifvqd40","pricing_plan_id":"free"},{"bike_id":"fab32c9c-bd74-453f-888e-08ae03b4a1c4","system_id":"levelo_inurba_marseille","lat":43.286039,"lon":5.370679,"is_reserved":false,"is_disabled":false,"rental_uris":{"android":"levelo://app?vid=fab32c9c-bd74-453f-888e-08ae03b4a1c4","ios":"levelo://app?vid=fab32c9c-bd74-453f-888e-08ae03b4a1c4"},"vehicle_type_id":"4","last_reported":1687028656,"current_range_meters":25600,"station_id":"ce4bht12rcd13ifvqi60","pricing_plan_id":"free"},{"bike_id":"bc67aa88-e3ee-4697-b89a-1e140c885be3","system_id":"levelo_inurba_marseille","lat":43.286039,"lon":5.370681,"is_reserved":false,"is_disabled":false,"rental_uris":{"android":"levelo://app?vid=bc67aa88-e3ee-4697-b89a-1e140c885be3","ios":"levelo://app?vid=bc67aa88-e3ee-4697-b89a-1e140c885be3"},"vehicle_type_id":"4","last_reported":1687028656,"current_range_meters":2400,"station_id":"ce4bht12rcd13ifvqi60","pricing_plan_id":"free"},{"bike_id":"1c35ffd2-8b6a-4d5f-acf6-9bb1b2238727","system_id":"levelo_inurba_marseille","lat":43.286039,"lon":5.370681,"is_reserved":false,"is_disabled":false,"rental_uris":{"android":"levelo://app?vid=1c35ffd2-8b6a-4d5f-acf6-9bb1b2238727","ios":"levelo://app?vid=1c35ffd2-8b6a-4d5f-acf6-9bb1b2238727"},"vehicle_type_id":"4","last_reported":1687028656,"current_range_meters":0,"station_id":"ce4bht12rcd13ifvqi60","pricing_plan_id":"free"},{"bike_id":"e74fc74f-3724-41a9-b71b-7cf2495afa77","system_id":"levelo_inurba_marseille","lat":43.286039,"lon":5.370679,"is_reserved":false,"is_disabled":false,"rental_uris":{"android":"levelo://app?vid=e74fc74f-3724-41a9-b71b-7cf2495afa77","ios":"levelo://app?vid=e74fc74f-3724-41a9-b71b-7cf2495afa77"},"vehicle_type_id":"4","last_reported":1687028656,"current_range_meters":1200,"station_id":"ce4bht12rcd13ifvqi60","pricing_plan_id":"free"},{"bike_id":"1b458d9e-8c53-4ccc-b905-35e564e8fa8a","system_id":"levelo_inurba_marseille","lat":43.31645,"lon":5.40437,"is_reserved":false,"is_disabled":false,"rental_uris":{"android":"levelo://app?vid=1b458d9e-8c53-4ccc-b905-35e564e8fa8a","ios":"levelo://app?vid=1b458d9e-8c53-4ccc-b905-35e564e8fa8a"},"vehicle_type_id":"4","last_reported":1687028656,"current_range_meters":7600,"station_id":"ce4bh012rcd13ifvqd00","pricing_plan_id":"free"},{"bike_id":"4ed2d73a-aa37-43d0-bf28-1717e1fe9dce","system_id":"levelo_inurba_marseille","lat":43.291965,"lon":5.393062,"is_reserved":false,"is_disabled":false,"rental_uris":{"android":"levelo://app?vid=4ed2d73a-aa37-43d0-bf28-1717e1fe9dce","ios":"levelo://app?vid=4ed2d73a-aa37-43d0-bf28-1717e1fe9dce"},"vehicle_type_id":"4","last_reported":1687028656,"current_range_meters":0,"station_id":"","pricing_plan_id":"free"},{"bike_id":"d5c7a963-a72c-4c51-84c3-edf723f97d7f","system_id":"levelo_inurba_marseille","lat":43.284534,"lon":5.358662,"is_reserved":false,"is_disabled":false,"rental_uris":{"android":"levelo://app?vid=d5c7a963-a72c-4c51-84c3-edf723f97d7f","ios":"levelo://app?vid=d5c7a963-a72c-4c51-84c3-edf723f97d7f"},"vehicle_type_id":"4","last_reported":1687028656,"current_range_meters":2400,"station_id":"ce4bhah2rcd13ifvqei0","pricing_plan_id":"free"},{"bike_id":"a5af5733-b6c9-46c5-b1ca-d8b9149b2794","system_id":"levelo_inurba_marseille","lat":43.283998,"lon":5.375062,"is_reserved":false,"is_disabled":false,"rental_uris":{"android":"levelo://app?vid=a5af5733-b6c9-46c5-b1ca-d8b9149b2794","ios":"levelo://app?vid=a5af5733-b6c9-46c5-b1ca-d8b9149b2794"},"vehicle_type_id":"4","last_reported":1687028656,"current_range_meters":2000,"station_id":"ce4bh412rcd13ifvqds0","pricing_plan_id":"free"},{"bike_id":"e9853d38-a03c-4539-a2e4-abc40900a794","system_id":"levelo_inurba_marseille","lat":43.283998,"lon":5.375062,"is_reserved":false,"is_disabled":false,"rental_uris":{"android":"levelo://app?vid=e9853d38-a03c-4539-a2e4-abc40900a794","ios":"levelo://app?vid=e9853d38-a03c-4539-a2e4-abc40900a794"},"vehicle_type_id":"4","last_reported":1687028656,"current_range_meters":9200,"station_id":"ce4bh412rcd13ifvqds0","pricing_plan_id":"free"},{"bike_id":"43275ef6-770c-4f0e-926c-1c3aecd7abec","system_id":"levelo_inurba_marseille","lat":43.287909,"lon":5.390554,"is_reserved":false,"is_disabled":false,"rental_uris":{"android":"levelo://app?vid=43275ef6-770c-4f0e-926c-1c3aecd7abec","ios":"levelo://app?vid=43275ef6-770c-4f0e-926c-1c3aecd7abec"},"vehicle_type_id":"4","last_reported":1687028656,"current_range_meters":15600,"station_id":"","pricing_plan_id":"free"},{"bike_id":"16e5fedd-6e86-436a-a0a2-72c7cd60a6ea","system_id":"levelo_inurba_marseille","lat":43.323464,"lon":5.406297,"is_reserved":false,"is_disabled":false,"rental_uris":{"android":"levelo://app?vid=16e5fedd-6e86-436a-a0a2-72c7cd60a6ea","ios":"levelo://app?vid=16e5fedd-6e86-436a-a0a2-72c7cd60a6ea"},"vehicle_type_id":"4","last_reported":1687028656,"current_range_meters":30400,"station_id":"ce4bhq92rcd13ifvqhjg","pricing_plan_id":"free"},{"bike_id":"f29ec684-bc8e-4068-96d9-fdb3568498cf","system_id":"levelo_inurba_marseille","lat":43.284793,"lon":5.384113,"is_reserved":false,"is_disabled":false,"rental_uris":{"android":"levelo://app?vid=f29ec684-bc8e-4068-96d9-fdb3568498cf","ios":"levelo://app?vid=f29ec684-bc8e-4068-96d9-fdb3568498cf"},"vehicle_type_id":"4","last_reported":1687028656,"current_range_meters":8800,"station_id":"ce4bh512rcd13ifvqe3g","pricing_plan_id":"free"},{"bike_id":"86ca03dc-2e30-4a5f-92ea-b191e9ab2cf6","system_id":"levelo_inurba_marseille","lat":43.284787,"lon":5.384116,"is_reserved":false,"is_disabled":false,"rental_uris":{"android":"levelo://app?vid=86ca03dc-2e30-4a5f-92ea-b191e9ab2cf6","ios":"levelo://app?vid=86ca03dc-2e30-4a5f-92ea-b191e9ab2cf6"},"vehicle_type_id":"4","last_reported":1687028656,"current_range_meters":16000,"station_id":"ce4bh512rcd13ifvqe3g","pricing_plan_id":"free"},{"bike_id":"00b4d942-d645-4a17-a320-9c02b5ecca68","system_id":"levelo_inurba_marseille","lat":43.288501,"lon":5.393087,"is_reserved":false,"is_disabled":false,"rental_uris":{"android":"levelo://app?vid=00b4d942-d645-4a17-a320-9c02b5ecca68","ios":"levelo://app?vid=00b4d942-d645-4a17-a320-9c02b5ecca68"},"vehicle_type_id":"4","last_reported":1687028656,"current_range_meters":24800,"station_id":"ce4bh2p2rcd13ifvqdi0","pricing_plan_id":"free"},{"bike_id":"61269fff-65bc-415b-84f9-bd749d2c5744","system_id":"levelo_inurba_marseille","lat":43.283494,"lon":5.380945,"is_reserved":false,"is_disabled":false,"rental_uris":{"android":"levelo://app?vid=61269fff-65bc-415b-84f9-bd749d2c5744","ios":"levelo://app?vid=61269fff-65bc-415b-84f9-bd749d2c5744"},"vehicle_type_id":"4","last_reported":1687028656,"current_range_meters":19200,"station_id":"ce4bh412rcd13ifvqdr0","pricing_plan_id":"free"},{"bike_id":"a4e3d7ee-2aa2-4d75-aca5-0557adab5e1a","system_id":"levelo_inurba_marseille","lat":43.284219,"lon":5.3497,"is_reserved":false,"is_disabled":false,"rental_uris":{"android":"levelo://app?vid=a4e3d7ee-2aa2-4d75-aca5-0557adab5e1a","ios":"levelo://app?vid=a4e3d7ee-2aa2-4d75-aca5-0557adab5e1a"},"vehicle_type_id":"4","last_reported":1687028656,"current_range_meters":0,"station_id":"ce4bhbh2rcd13ifvqepg","pricing_plan_id":"free"},{"bike_id":"485fbe80-7791-47a3-874c-0d57ca2838f7","system_id":"levelo_inurba_marseille","lat":43.283281,"lon":5.381181,"is_reserved":false,"is_disabled":false,"rental_uris":{"android":"levelo://app?vid=485fbe80-7791-47a3-874c-0d57ca2838f7","ios":"levelo://app?vid=485fbe80-7791-47a3-874c-0d57ca2838f7"},"vehicle_type_id":"4","last_reported":1687028656,"current_range_meters":22800,"station_id":"","pricing_plan_id":"free"},{"bike_id":"0b31647d-aa77-4b79-be4b-deef6a3e12c9","system_id":"levelo_inurba_marseille","lat":43.289363,"lon":5.396322,"is_reserved":false,"is_disabled":false,"rental_uris":{"android":"levelo://app?vid=0b31647d-aa77-4b79-be4b-deef6a3e12c9","ios":"levelo://app?vid=0b31647d-aa77-4b79-be4b-deef6a3e12c9"},"vehicle_type_id":"4","last_reported":1687028656,"current_range_meters":0,"station_id":"ce4bh3h2rcd13ifvqdn0","pricing_plan_id":"free"},{"bike_id":"06ef5237-af0d-48c7-a442-90b5636db0d2","system_id":"levelo_inurba_marseille","lat":43.282744,"lon":5.350533,"is_reserved":false,"is_disabled":false,"rental_uris":{"android":"levelo://app?vid=06ef5237-af0d-48c7-a442-90b5636db0d2","ios":"levelo://app?vid=06ef5237-af0d-48c7-a442-90b5636db0d2"},"vehicle_type_id":"4","last_reported":1687028656,"current_range_meters":14000,"station_id":"ce4bhbp2rcd13ifvqerg","pricing_plan_id":"free"},{"bike_id":"ae92977c-9d9e-4103-8474-b46cb15087ab","system_id":"levelo_inurba_marseille","lat":43.290412,"lon":5.399633,"is_reserved":false,"is_disabled":false,"rental_uris":{"android":"levelo://app?vid=ae92977c-9d9e-4103-8474-b46cb15087ab","ios":"levelo://app?vid=ae92977c-9d9e-4103-8474-b46cb15087ab"},"vehicle_type_id":"4","last_reported":1687028656,"current_range_meters":16000,"station_id":"ce4bh392rcd13ifvqdm0","pricing_plan_id":"free"},{"bike_id":"a7e630ef-a9e9-4850-b89c-9726292250c5","system_id":"levelo_inurba_marseille","lat":43.316517,"lon":5.404375,"is_reserved":false,"is_disabled":false,"rental_uris":{"android":"levelo://app?vid=a7e630ef-a9e9-4850-b89c-9726292250c5","ios":"levelo://app?vid=a7e630ef-a9e9-4850-b89c-9726292250c5"},"vehicle_type_id":"4","last_reported":1687028656,"current_range_meters":18400,"station_id":"ce4bh012rcd13ifvqd00","pricing_plan_id":"free"},{"bike_id":"31ba955d-9dd5-44f0-a914-e2621b3daaf8","system_id":"levelo_inurba_marseille","lat":43.284462,"lon":5.392121,"is_reserved":false,"is_disabled":false,"rental_uris":{"android":"levelo://app?vid=31ba955d-9dd5-44f0-a914-e2621b3daaf8","ios":"levelo://app?vid=31ba955d-9dd5-44f0-a914-e2621b3daaf8"},"vehicle_type_id":"4","last_reported":1687028656,"current_range_meters":0,"station_id":"ce4bhoh2rcd13ifvqh5g","pricing_plan_id":"free"},{"bike_id":"fc7e7cfb-5133-4dcd-85a7-1038f641a195","system_id":"levelo_inurba_marseille","lat":43.287154,"lon":5.399979,"is_reserved":false,"is_disabled":false,"rental_uris":{"android":"levelo://app?vid=fc7e7cfb-5133-4dcd-85a7-1038f641a195","ios":"levelo://app?vid=fc7e7cfb-5133-4dcd-85a7-1038f641a195"},"vehicle_type_id":"4","last_reported":1687028656,"current_range_meters":0,"station_id":"ce4bho92rcd13ifvqh3g","pricing_plan_id":"free"},{"bike_id":"3c51583d-2b69-4140-a4e4-90ed7781c464","system_id":"levelo_inurba_marseille","lat":43.287154,"lon":5.399979,"is_reserved":false,"is_disabled":false,"rental_uris":{"android":"levelo://app?vid=3c51583d-2b69-4140-a4e4-90ed7781c464","ios":"levelo://app?vid=3c51583d-2b69-4140-a4e4-90ed7781c464"},"vehicle_type_id":"4","last_reported":1687028656,"current_range_meters":14800,"station_id":"ce4bho92rcd13ifvqh3g","pricing_plan_id":"free"},{"bike_id":"3afa5abb-0a64-479c-888a-cf99465cd00a","system_id":"levelo_inurba_marseille","lat":43.27835,"lon":5.38901,"is_reserved":false,"is_disabled":false,"rental_uris":{"android":"levelo://app?vid=3afa5abb-0a64-479c-888a-cf99465cd00a","ios":"levelo://app?vid=3afa5abb-0a64-479c-888a-cf99465cd00a"},"vehicle_type_id":"4","last_reported":1687028656,"current_range_meters":3200,"station_id":"","pricing_plan_id":"free"},{"bike_id":"e55d026e-10b4-46dc-8179-5ab02a06d6bd","system_id":"levelo_inurba_marseille","lat":43.280784,"lon":5.396622,"is_reserved":false,"is_disabled":false,"rental_uris":{"android":"levelo://app?vid=e55d026e-10b4-46dc-8179-5ab02a06d6bd","ios":"levelo://app?vid=e55d026e-10b4-46dc-8179-5ab02a06d6bd"},"vehicle_type_id":"4","last_reported":1687028656,"current_range_meters":11200,"station_id":"ce4bho12rcd13ifvqh2g","pricing_plan_id":"free"},{"bike_id":"2e11c4ae-2808-4e51-b34d-5e716871c61a","system_id":"levelo_inurba_marseille","lat":43.273609,"lon":5.362708,"is_reserved":false,"is_disabled":false,"rental_uris":{"android":"levelo://app?vid=2e11c4ae-2808-4e51-b34d-5e716871c61a","ios":"levelo://app?vid=2e11c4ae-2808-4e51-b34d-5e716871c61a"},"vehicle_type_id":"4","last_reported":1687028656,"current_range_meters":21200,"station_id":"ce4bhbh2rcd13ifvqeo0","pricing_plan_id":"free"},{"bike_id":"1ed24a88-d970-46fa-8564-4ee83b78dac4","system_id":"levelo_inurba_marseille","lat":43.317121,"lon":5.423936,"is_reserved":false,"is_disabled":false,"rental_uris":{"android":"levelo://app?vid=1ed24a88-d970-46fa-8564-4ee83b78dac4","ios":"levelo://app?vid=1ed24a88-d970-46fa-8564-4ee83b78dac4"},"vehicle_type_id":"4","last_reported":1687028656,"current_range_meters":30800,"station_id":"ce4bhp92rcd13ifvqhbg","pricing_plan_id":"free"},{"bike_id":"e3802016-3aa4-4eae-8bd7-be0d8fe1145f","system_id":"levelo_inurba_marseille","lat":43.27323,"lon":5.39088,"is_reserved":false,"is_disabled":false,"rental_uris":{"android":"levelo://app?vid=e3802016-3aa4-4eae-8bd7-be0d8fe1145f","ios":"levelo://app?vid=e3802016-3aa4-4eae-8bd7-be0d8fe1145f"},"vehicle_type_id":"4","last_reported":1687028656,"current_range_meters":2000,"station_id":"ce4bhgp2rcd13ifvqfe0","pricing_plan_id":"free"},{"bike_id":"6275aaca-a354-407f-be44-df40f2969d44","system_id":"levelo_inurba_marseille","lat":43.2732,"lon":5.39087,"is_reserved":false,"is_disabled":false,"rental_uris":{"android":"levelo://app?vid=6275aaca-a354-407f-be44-df40f2969d44","ios":"levelo://app?vid=6275aaca-a354-407f-be44-df40f2969d44"},"vehicle_type_id":"4","last_reported":1687028656,"current_range_meters":31200,"station_id":"ce4bhgp2rcd13ifvqfe0","pricing_plan_id":"free"},{"bike_id":"eccf7542-747e-4ae3-bde2-55f7842b0215","system_id":"levelo_inurba_marseille","lat":43.27423,"lon":5.39406,"is_reserved":false,"is_disabled":false,"rental_uris":{"android":"levelo://app?vid=eccf7542-747e-4ae3-bde2-55f7842b0215","ios":"levelo://app?vid=eccf7542-747e-4ae3-bde2-55f7842b0215"},"vehicle_type_id":"4","last_reported":1687028656,"current_range_meters":20400,"station_id":"","pricing_plan_id":"free"},{"bike_id":"f82c4e0b-ce86-4de4-962b-f266d6ba506e","system_id":"levelo_inurba_marseille","lat":43.273125,"lon":5.390731,"is_reserved":false,"is_disabled":false,"rental_uris":{"android":"levelo://app?vid=f82c4e0b-ce86-4de4-962b-f266d6ba506e","ios":"levelo://app?vid=f82c4e0b-ce86-4de4-962b-f266d6ba506e"},"vehicle_type_id":"4","last_reported":1687028656,"current_range_meters":30000,"station_id":"ce4bhgp2rcd13ifvqfe0","pricing_plan_id":"free"},{"bike_id":"a3c0b230-1ef1-4747-bc7a-9cae75611082","system_id":"levelo_inurba_marseille","lat":43.27423,"lon":5.39411,"is_reserved":false,"is_disabled":false,"rental_uris":{"android":"levelo://app?vid=a3c0b230-1ef1-4747-bc7a-9cae75611082","ios":"levelo://app?vid=a3c0b230-1ef1-4747-bc7a-9cae75611082"},"vehicle_type_id":"4","last_reported":1687028656,"current_range_meters":9600,"station_id":"","pricing_plan_id":"free"},{"bike_id":"cfba2fbe-9ed5-423f-b411-8d6c38451715","system_id":"levelo_inurba_marseille","lat":43.27309,"lon":5.39086,"is_reserved":false,"is_disabled":false,"rental_uris":{"android":"levelo://app?vid=cfba2fbe-9ed5-423f-b411-8d6c38451715","ios":"levelo://app?vid=cfba2fbe-9ed5-423f-b411-8d6c38451715"},"vehicle_type_id":"4","last_reported":1687028656,"current_range_meters":31200,"station_id":"ce4bhgp2rcd13ifvqfe0","pricing_plan_id":"free"},{"bike_id":"c2047bb5-22cd-49bd-b587-998080a823b4","system_id":"levelo_inurba_marseille","lat":43.27423,"lon":5.39417,"is_reserved":false,"is_disabled":false,"rental_uris":{"android":"levelo://app?vid=c2047bb5-22cd-49bd-b587-998080a823b4","ios":"levelo://app?vid=c2047bb5-22cd-49bd-b587-998080a823b4"},"vehicle_type_id":"4","last_reported":1687028656,"current_range_meters":23600,"station_id":"","pricing_plan_id":"free"},{"bike_id":"e0536311-af16-4052-8711-4d53940552fa","system_id":"levelo_inurba_marseille","lat":43.304096,"lon":5.425385,"is_reserved":false,"is_disabled":false,"rental_uris":{"android":"levelo://app?vid=e0536311-af16-4052-8711-4d53940552fa","ios":"levelo://app?vid=e0536311-af16-4052-8711-4d53940552fa"},"vehicle_type_id":"4","last_reported":1687028656,"current_range_meters":31200,"station_id":"ce4bhoh2rcd13ifvqh6g","pricing_plan_id":"free"},{"bike_id":"4a017716-8ca2-40f7-876e-fe6a53d69225","system_id":"levelo_inurba_marseille","lat":43.304096,"lon":5.425385,"is_reserved":false,"is_disabled":false,"rental_uris":{"android":"levelo://app?vid=4a017716-8ca2-40f7-876e-fe6a53d69225","ios":"levelo://app?vid=4a017716-8ca2-40f7-876e-fe6a53d69225"},"vehicle_type_id":"4","last_reported":1687028656,"current_range_meters":0,"station_id":"ce4bhoh2rcd13ifvqh6g","pricing_plan_id":"free"},{"bike_id":"c7c208a7-5834-4cc7-b9ad-617762a9327b","system_id":"levelo_inurba_marseille","lat":43.295523,"lon":5.422926,"is_reserved":false,"is_disabled":false,"rental_uris":{"android":"levelo://app?vid=c7c208a7-5834-4cc7-b9ad-617762a9327b","ios":"levelo://app?vid=c7c208a7-5834-4cc7-b9ad-617762a9327b"},"vehicle_type_id":"4","last_reported":1687028656,"current_range_meters":3200,"station_id":"ce4bhph2rcd13ifvqhdg","pricing_plan_id":"free"},{"bike_id":"17b54309-3065-4be1-a8b9-b08272f5856d","system_id":"levelo_inurba_marseille","lat":43.29554,"lon":5.42285,"is_reserved":false,"is_disabled":false,"rental_uris":{"android":"levelo://app?vid=17b54309-3065-4be1-a8b9-b08272f5856d","ios":"levelo://app?vid=17b54309-3065-4be1-a8b9-b08272f5856d"},"vehicle_type_id":"4","last_reported":1687028656,"current_range_meters":25600,"station_id":"ce4bhph2rcd13ifvqhdg","pricing_plan_id":"free"},{"bike_id":"b8de6e35-5ae1-444d-b75d-88b53e136a45","system_id":"levelo_inurba_marseille","lat":43.295523,"lon":5.422926,"is_reserved":false,"is_disabled":false,"rental_uris":{"android":"levelo://app?vid=b8de6e35-5ae1-444d-b75d-88b53e136a45","ios":"levelo://app?vid=b8de6e35-5ae1-444d-b75d-88b53e136a45"},"vehicle_type_id":"4","last_reported":1687028656,"current_range_meters":25600,"station_id":"ce4bhph2rcd13ifvqhdg","pricing_plan_id":"free"},{"bike_id":"90d6893a-f1b0-4703-883c-6fbf42830f17","system_id":"levelo_inurba_marseille","lat":43.27182,"lon":5.3907,"is_reserved":false,"is_disabled":false,"rental_uris":{"android":"levelo://app?vid=90d6893a-f1b0-4703-883c-6fbf42830f17","ios":"levelo://app?vid=90d6893a-f1b0-4703-883c-6fbf42830f17"},"vehicle_type_id":"4","last_reported":1687028656,"current_range_meters":25600,"station_id":"","pricing_plan_id":"free"},{"bike_id":"1c535f06-488b-41a2-bbf0-73861fcf0fae","system_id":"levelo_inurba_marseille","lat":43.27811,"lon":5.4072,"is_reserved":false,"is_disabled":false,"rental_uris":{"android":"levelo://app?vid=1c535f06-488b-41a2-bbf0-73861fcf0fae","ios":"levelo://app?vid=1c535f06-488b-41a2-bbf0-73861fcf0fae"},"vehicle_type_id":"4","last_reported":1687028656,"current_range_meters":6000,"station_id":"ce4bhnh2rcd13ifvqgtg","pricing_plan_id":"free"},{"bike_id":"baa4c0ca-f44c-424d-8d0f-b0ae130f45a7","system_id":"levelo_inurba_marseille","lat":43.26688,"lon":5.38273,"is_reserved":false,"is_disabled":false,"rental_uris":{"android":"levelo://app?vid=baa4c0ca-f44c-424d-8d0f-b0ae130f45a7","ios":"levelo://app?vid=baa4c0ca-f44c-424d-8d0f-b0ae130f45a7"},"vehicle_type_id":"4","last_reported":1687028656,"current_range_meters":31600,"station_id":"ce4bhg92rcd13ifvqf90","pricing_plan_id":"free"},{"bike_id":"efe69a54-7ac4-4197-aa31-bead5a356e62","system_id":"levelo_inurba_marseille","lat":43.26689,"lon":5.38281,"is_reserved":false,"is_disabled":false,"rental_uris":{"android":"levelo://app?vid=efe69a54-7ac4-4197-aa31-bead5a356e62","ios":"levelo://app?vid=efe69a54-7ac4-4197-aa31-bead5a356e62"},"vehicle_type_id":"4","last_reported":1687028656,"current_range_meters":25200,"station_id":"ce4bhg92rcd13ifvqf90","pricing_plan_id":"free"},{"bike_id":"65165479-2a84-481c-afff-7c23224eaf0a","system_id":"levelo_inurba_marseille","lat":43.26686,"lon":5.38265,"is_reserved":false,"is_disabled":false,"rental_uris":{"android":"levelo://app?vid=65165479-2a84-481c-afff-7c23224eaf0a","ios":"levelo://app?vid=65165479-2a84-481c-afff-7c23224eaf0a"},"vehicle_type_id":"4","last_reported":1687028656,"current_range_meters":6000,"station_id":"ce4bhg92rcd13ifvqf90","pricing_plan_id":"free"},{"bike_id":"f55dc3d1-24c3-40e5-b092-40c16580d48a","system_id":"levelo_inurba_marseille","lat":43.26686,"lon":5.38265,"is_reserved":false,"is_disabled":false,"rental_uris":{"android":"levelo://app?vid=f55dc3d1-24c3-40e5-b092-40c16580d48a","ios":"levelo://app?vid=f55dc3d1-24c3-40e5-b092-40c16580d48a"},"vehicle_type_id":"4","last_reported":1687028656,"current_range_meters":31200,"station_id":"ce4bhg92rcd13ifvqf90","pricing_plan_id":"free"},{"bike_id":"5ad0ee78-fec2-4c78-a5cb-c1d6a8dd58ab","system_id":"levelo_inurba_marseille","lat":43.26681,"lon":5.382694,"is_reserved":false,"is_disabled":false,"rental_uris":{"android":"levelo://app?vid=5ad0ee78-fec2-4c78-a5cb-c1d6a8dd58ab","ios":"levelo://app?vid=5ad0ee78-fec2-4c78-a5cb-c1d6a8dd58ab"},"vehicle_type_id":"4","last_reported":1687028656,"current_range_meters":12000,"station_id":"ce4bhg92rcd13ifvqf90","pricing_plan_id":"free"},{"bike_id":"243e7354-ba1b-4746-828d-c5de9cd6c538","system_id":"levelo_inurba_marseille","lat":43.26681,"lon":5.382694,"is_reserved":false,"is_disabled":false,"rental_uris":{"android":"levelo://app?vid=243e7354-ba1b-4746-828d-c5de9cd6c538","ios":"levelo://app?vid=243e7354-ba1b-4746-828d-c5de9cd6c538"},"vehicle_type_id":"4","last_reported":1687028656,"current_range_meters":18800,"station_id":"ce4bhg92rcd13ifvqf90","pricing_plan_id":"free"},{"bike_id":"0fc70891-18cb-4a21-950f-f0b149f9031c","system_id":"levelo_inurba_marseille","lat":43.26681,"lon":5.382694,"is_reserved":false,"is_disabled":false,"rental_uris":{"android":"levelo://app?vid=0fc70891-18cb-4a21-950f-f0b149f9031c","ios":"levelo://app?vid=0fc70891-18cb-4a21-950f-f0b149f9031c"},"vehicle_type_id":"4","last_reported":1687028656,"current_range_meters":27600,"station_id":"ce4bhg92rcd13ifvqf90","pricing_plan_id":"free"},{"bike_id":"7e80adc5-b785-4b7a-825f-001784eb8c70","system_id":"levelo_inurba_marseille","lat":43.26681,"lon":5.382694,"is_reserved":false,"is_disabled":false,"rental_uris":{"android":"levelo://app?vid=7e80adc5-b785-4b7a-825f-001784eb8c70","ios":"levelo://app?vid=7e80adc5-b785-4b7a-825f-001784eb8c70"},"vehicle_type_id":"4","last_reported":1687028656,"current_range_meters":18000,"station_id":"ce4bhg92rcd13ifvqf90","pricing_plan_id":"free"},{"bike_id":"e124e6c2-8f4f-42af-9cd2-d1ecb0550a04","system_id":"levelo_inurba_marseille","lat":43.2668,"lon":5.38264,"is_reserved":false,"is_disabled":false,"rental_uris":{"android":"levelo://app?vid=e124e6c2-8f4f-42af-9cd2-d1ecb0550a04","ios":"levelo://app?vid=e124e6c2-8f4f-42af-9cd2-d1ecb0550a04"},"vehicle_type_id":"4","last_reported":1687028656,"current_range_meters":31200,"station_id":"ce4bhg92rcd13ifvqf90","pricing_plan_id":"free"},{"bike_id":"c50523d7-bf6d-4294-b132-d51917413983","system_id":"levelo_inurba_marseille","lat":43.26683,"lon":5.38281,"is_reserved":false,"is_disabled":false,"rental_uris":{"android":"levelo://app?vid=c50523d7-bf6d-4294-b132-d51917413983","ios":"levelo://app?vid=c50523d7-bf6d-4294-b132-d51917413983"},"vehicle_type_id":"4","last_reported":1687028656,"current_range_meters":31200,"station_id":"ce4bhg92rcd13ifvqf90","pricing_plan_id":"free"},{"bike_id":"1966b9b1-41b4-46cf-a2b8-50f73c10f991","system_id":"levelo_inurba_marseille","lat":43.26681,"lon":5.382694,"is_reserved":false,"is_disabled":false,"rental_uris":{"android":"levelo://app?vid=1966b9b1-41b4-46cf-a2b8-50f73c10f991","ios":"levelo://app?vid=1966b9b1-41b4-46cf-a2b8-50f73c10f991"},"vehicle_type_id":"4","last_reported":1687028656,"current_range_meters":31600,"station_id":"ce4bhg92rcd13ifvqf90","pricing_plan_id":"free"},{"bike_id":"80b55d8c-7ac0-4e8b-8f62-d49781de8e9b","system_id":"levelo_inurba_marseille","lat":43.26681,"lon":5.38272,"is_reserved":false,"is_disabled":false,"rental_uris":{"android":"levelo://app?vid=80b55d8c-7ac0-4e8b-8f62-d49781de8e9b","ios":"levelo://app?vid=80b55d8c-7ac0-4e8b-8f62-d49781de8e9b"},"vehicle_type_id":"4","last_reported":1687028656,"current_range_meters":26000,"station_id":"ce4bhg92rcd13ifvqf90","pricing_plan_id":"free"},{"bike_id":"805dd294-8c9f-4366-bba0-c6bedbd1112d","system_id":"levelo_inurba_marseille","lat":43.26681,"lon":5.382694,"is_reserved":false,"is_disabled":false,"rental_uris":{"android":"levelo://app?vid=805dd294-8c9f-4366-bba0-c6bedbd1112d","ios":"levelo://app?vid=805dd294-8c9f-4366-bba0-c6bedbd1112d"},"vehicle_type_id":"4","last_reported":1687028656,"current_range_meters":31600,"station_id":"ce4bhg92rcd13ifvqf90","pricing_plan_id":"free"},{"bike_id":"1cc38e42-d238-435a-9d73-d79862600457","system_id":"levelo_inurba_marseille","lat":43.26681,"lon":5.382694,"is_reserved":false,"is_disabled":false,"rental_uris":{"android":"levelo://app?vid=1cc38e42-d238-435a-9d73-d79862600457","ios":"levelo://app?vid=1cc38e42-d238-435a-9d73-d79862600457"},"vehicle_type_id":"4","last_reported":1687028656,"current_range_meters":19600,"station_id":"ce4bhg92rcd13ifvqf90","pricing_plan_id":"free"},{"bike_id":"614add5d-4541-49c1-8641-a71a99a166a4","system_id":"levelo_inurba_marseille","lat":43.26681,"lon":5.382694,"is_reserved":false,"is_disabled":false,"rental_uris":{"android":"levelo://app?vid=614add5d-4541-49c1-8641-a71a99a166a4","ios":"levelo://app?vid=614add5d-4541-49c1-8641-a71a99a166a4"},"vehicle_type_id":"4","last_reported":1687028656,"current_range_meters":14800,"station_id":"ce4bhg92rcd13ifvqf90","pricing_plan_id":"free"},{"bike_id":"7ef6c87d-cefd-4a13-9160-2ffb84026963","system_id":"levelo_inurba_marseille","lat":43.28004,"lon":5.41664,"is_reserved":false,"is_disabled":false,"rental_uris":{"android":"levelo://app?vid=7ef6c87d-cefd-4a13-9160-2ffb84026963","ios":"levelo://app?vid=7ef6c87d-cefd-4a13-9160-2ffb84026963"},"vehicle_type_id":"4","last_reported":1687028656,"current_range_meters":21600,"station_id":"ce4bho12rcd13ifvqh1g","pricing_plan_id":"free"},{"bike_id":"825f3c70-304c-493a-8eee-e2387d46219f","system_id":"levelo_inurba_marseille","lat":43.27998,"lon":5.41668,"is_reserved":false,"is_disabled":false,"rental_uris":{"android":"levelo://app?vid=825f3c70-304c-493a-8eee-e2387d46219f","ios":"levelo://app?vid=825f3c70-304c-493a-8eee-e2387d46219f"},"vehicle_type_id":"4","last_reported":1687028656,"current_range_meters":12800,"station_id":"ce4bho12rcd13ifvqh1g","pricing_plan_id":"free"},{"bike_id":"d78d7ec5-f2d5-40b9-9ac0-deb985a7ead5","system_id":"levelo_inurba_marseille","lat":43.2799,"lon":5.41663,"is_reserved":false,"is_disabled":false,"rental_uris":{"android":"levelo://app?vid=d78d7ec5-f2d5-40b9-9ac0-deb985a7ead5","ios":"levelo://app?vid=d78d7ec5-f2d5-40b9-9ac0-deb985a7ead5"},"vehicle_type_id":"4","last_reported":1687028656,"current_range_meters":22000,"station_id":"ce4bho12rcd13ifvqh1g","pricing_plan_id":"free"},{"bike_id":"efcd4409-b407-4893-a081-8018deada33e","system_id":"levelo_inurba_marseille","lat":43.27987,"lon":5.41663,"is_reserved":false,"is_disabled":false,"rental_uris":{"android":"levelo://app?vid=efcd4409-b407-4893-a081-8018deada33e","ios":"levelo://app?vid=efcd4409-b407-4893-a081-8018deada33e"},"vehicle_type_id":"4","last_reported":1687028656,"current_range_meters":10800,"station_id":"ce4bho12rcd13ifvqh1g","pricing_plan_id":"free"},{"bike_id":"3987290e-fd4b-4f2b-81c0-57fca98f9cde","system_id":"levelo_inurba_marseille","lat":43.267966,"lon":5.393976,"is_reserved":false,"is_disabled":false,"rental_uris":{"android":"levelo://app?vid=3987290e-fd4b-4f2b-81c0-57fca98f9cde","ios":"levelo://app?vid=3987290e-fd4b-4f2b-81c0-57fca98f9cde"},"vehicle_type_id":"4","last_reported":1687028656,"current_range_meters":31600,"station_id":"ce4bhh12rcd13ifvqfg0","pricing_plan_id":"free"},{"bike_id":"0e299c5c-9575-437c-a33d-4e91a60b6600","system_id":"levelo_inurba_marseille","lat":43.262484,"lon":5.37467,"is_reserved":false,"is_disabled":false,"rental_uris":{"android":"levelo://app?vid=0e299c5c-9575-437c-a33d-4e91a60b6600","ios":"levelo://app?vid=0e299c5c-9575-437c-a33d-4e91a60b6600"},"vehicle_type_id":"4","last_reported":1687028656,"current_range_meters":26000,"station_id":"ce4bhgp2rcd13ifvqfc0","pricing_plan_id":"free"},{"bike_id":"f522bde3-59a4-4b18-ac64-faf803accafb","system_id":"levelo_inurba_marseille","lat":43.261915,"lon":5.374444,"is_reserved":false,"is_disabled":false,"rental_uris":{"android":"levelo://app?vid=f522bde3-59a4-4b18-ac64-faf803accafb","ios":"levelo://app?vid=f522bde3-59a4-4b18-ac64-faf803accafb"},"vehicle_type_id":"4","last_reported":1687028656,"current_range_meters":14800,"station_id":"ce4bhgp2rcd13ifvqfc0","pricing_plan_id":"free"},{"bike_id":"2c2a662f-d645-4a0d-89bf-13b7bb7ffadc","system_id":"levelo_inurba_marseille","lat":43.2619,"lon":5.374432,"is_reserved":false,"is_disabled":false,"rental_uris":{"android":"levelo://app?vid=2c2a662f-d645-4a0d-89bf-13b7bb7ffadc","ios":"levelo://app?vid=2c2a662f-d645-4a0d-89bf-13b7bb7ffadc"},"vehicle_type_id":"4","last_reported":1687028656,"current_range_meters":31200,"station_id":"ce4bhgp2rcd13ifvqfc0","pricing_plan_id":"free"},{"bike_id":"1b592c6b-5e66-41ea-a1e4-53337332346a","system_id":"levelo_inurba_marseille","lat":43.26188,"lon":5.37442,"is_reserved":false,"is_disabled":false,"rental_uris":{"android":"levelo://app?vid=1b592c6b-5e66-41ea-a1e4-53337332346a","ios":"levelo://app?vid=1b592c6b-5e66-41ea-a1e4-53337332346a"},"vehicle_type_id":"4","last_reported":1687028656,"current_range_meters":12400,"station_id":"ce4bhgp2rcd13ifvqfc0","pricing_plan_id":"free"},{"bike_id":"fdc27c93-2398-4427-969a-d5f9cbf527b1","system_id":"levelo_inurba_marseille","lat":43.26193,"lon":5.37538,"is_reserved":false,"is_disabled":false,"rental_uris":{"android":"levelo://app?vid=fdc27c93-2398-4427-969a-d5f9cbf527b1","ios":"levelo://app?vid=fdc27c93-2398-4427-969a-d5f9cbf527b1"},"vehicle_type_id":"4","last_reported":1687028656,"current_range_meters":16800,"station_id":"","pricing_plan_id":"free"},{"bike_id":"fa2b10b5-35aa-4947-87b8-8569b149e03b","system_id":"levelo_inurba_marseille","lat":43.26185,"lon":5.37444,"is_reserved":false,"is_disabled":false,"rental_uris":{"android":"levelo://app?vid=fa2b10b5-35aa-4947-87b8-8569b149e03b","ios":"levelo://app?vid=fa2b10b5-35aa-4947-87b8-8569b149e03b"},"vehicle_type_id":"4","last_reported":1687028656,"current_range_meters":30800,"station_id":"ce4bhgp2rcd13ifvqfc0","pricing_plan_id":"free"},{"bike_id":"20b12c86-b547-4dc8-8d93-badcbe0660e1","system_id":"levelo_inurba_marseille","lat":43.26185,"lon":5.37444,"is_reserved":false,"is_disabled":false,"rental_uris":{"android":"levelo://app?vid=20b12c86-b547-4dc8-8d93-badcbe0660e1","ios":"levelo://app?vid=20b12c86-b547-4dc8-8d93-badcbe0660e1"},"vehicle_type_id":"4","last_reported":1687028656,"current_range_meters":31200,"station_id":"ce4bhgp2rcd13ifvqfc0","pricing_plan_id":"free"},{"bike_id":"3afee902-8587-4f1a-becc-3539e002d548","system_id":"levelo_inurba_marseille","lat":43.26185,"lon":5.37445,"is_reserved":false,"is_disabled":false,"rental_uris":{"android":"levelo://app?vid=3afee902-8587-4f1a-becc-3539e002d548","ios":"levelo://app?vid=3afee902-8587-4f1a-becc-3539e002d548"},"vehicle_type_id":"4","last_reported":1687028656,"current_range_meters":23200,"station_id":"ce4bhgp2rcd13ifvqfc0","pricing_plan_id":"free"},{"bike_id":"0e00f73f-4ede-4cd7-83c9-223b42d0643b","system_id":"levelo_inurba_marseille","lat":43.26185,"lon":5.37448,"is_reserved":false,"is_disabled":false,"rental_uris":{"android":"levelo://app?vid=0e00f73f-4ede-4cd7-83c9-223b42d0643b","ios":"levelo://app?vid=0e00f73f-4ede-4cd7-83c9-223b42d0643b"},"vehicle_type_id":"4","last_reported":1687028656,"current_range_meters":23600,"station_id":"ce4bhgp2rcd13ifvqfc0","pricing_plan_id":"free"},{"bike_id":"9d9aeb15-d069-470d-8416-952b433ccd31","system_id":"levelo_inurba_marseille","lat":43.26182,"lon":5.37437,"is_reserved":false,"is_disabled":false,"rental_uris":{"android":"levelo://app?vid=9d9aeb15-d069-470d-8416-952b433ccd31","ios":"levelo://app?vid=9d9aeb15-d069-470d-8416-952b433ccd31"},"vehicle_type_id":"4","last_reported":1687028656,"current_range_meters":400,"station_id":"ce4bhgp2rcd13ifvqfc0","pricing_plan_id":"free"},{"bike_id":"8d9e8339-c23a-4de4-8dfd-2081afe6509d","system_id":"levelo_inurba_marseille","lat":43.26178,"lon":5.37444,"is_reserved":false,"is_disabled":false,"rental_uris":{"android":"levelo://app?vid=8d9e8339-c23a-4de4-8dfd-2081afe6509d","ios":"levelo://app?vid=8d9e8339-c23a-4de4-8dfd-2081afe6509d"},"vehicle_type_id":"4","last_reported":1687028656,"current_range_meters":31200,"station_id":"ce4bhgp2rcd13ifvqfc0","pricing_plan_id":"free"},{"bike_id":"14f91770-e5bd-49c9-ab9c-18d480a04fee","system_id":"levelo_inurba_marseille","lat":43.262189,"lon":5.379228,"is_reserved":false,"is_disabled":false,"rental_uris":{"android":"levelo://app?vid=14f91770-e5bd-49c9-ab9c-18d480a04fee","ios":"levelo://app?vid=14f91770-e5bd-49c9-ab9c-18d480a04fee"},"vehicle_type_id":"4","last_reported":1687028656,"current_range_meters":13200,"station_id":"ce4bhjp2rcd13ifvqg90","pricing_plan_id":"free"},{"bike_id":"c110e53b-cf0c-412d-9d86-cdc6d0024913","system_id":"levelo_inurba_marseille","lat":43.26216,"lon":5.37923,"is_reserved":false,"is_disabled":false,"rental_uris":{"android":"levelo://app?vid=c110e53b-cf0c-412d-9d86-cdc6d0024913","ios":"levelo://app?vid=c110e53b-cf0c-412d-9d86-cdc6d0024913"},"vehicle_type_id":"4","last_reported":1687028656,"current_range_meters":20400,"station_id":"ce4bhjp2rcd13ifvqg90","pricing_plan_id":"free"},{"bike_id":"8073b83a-1805-4797-9622-ee3f14f8f0cf","system_id":"levelo_inurba_marseille","lat":43.26215,"lon":5.37922,"is_reserved":false,"is_disabled":false,"rental_uris":{"android":"levelo://app?vid=8073b83a-1805-4797-9622-ee3f14f8f0cf","ios":"levelo://app?vid=8073b83a-1805-4797-9622-ee3f14f8f0cf"},"vehicle_type_id":"4","last_reported":1687028656,"current_range_meters":22000,"station_id":"ce4bhjp2rcd13ifvqg90","pricing_plan_id":"free"},{"bike_id":"511de726-445a-48f1-a41c-0b171f4678fa","system_id":"levelo_inurba_marseille","lat":43.26216,"lon":5.3793,"is_reserved":false,"is_disabled":false,"rental_uris":{"android":"levelo://app?vid=511de726-445a-48f1-a41c-0b171f4678fa","ios":"levelo://app?vid=511de726-445a-48f1-a41c-0b171f4678fa"},"vehicle_type_id":"4","last_reported":1687028656,"current_range_meters":31200,"station_id":"ce4bhjp2rcd13ifvqg90","pricing_plan_id":"free"},{"bike_id":"467df531-33c3-407c-936c-56836c8edfbc","system_id":"levelo_inurba_marseille","lat":43.26214,"lon":5.37923,"is_reserved":false,"is_disabled":false,"rental_uris":{"android":"levelo://app?vid=467df531-33c3-407c-936c-56836c8edfbc","ios":"levelo://app?vid=467df531-33c3-407c-936c-56836c8edfbc"},"vehicle_type_id":"4","last_reported":1687028656,"current_range_meters":31200,"station_id":"ce4bhjp2rcd13ifvqg90","pricing_plan_id":"free"},{"bike_id":"e8b6fafc-fab8-42a4-8ea0-9b2033819168","system_id":"levelo_inurba_marseille","lat":43.26213,"lon":5.37923,"is_reserved":false,"is_disabled":false,"rental_uris":{"android":"levelo://app?vid=e8b6fafc-fab8-42a4-8ea0-9b2033819168","ios":"levelo://app?vid=e8b6fafc-fab8-42a4-8ea0-9b2033819168"},"vehicle_type_id":"4","last_reported":1687028656,"current_range_meters":31200,"station_id":"ce4bhjp2rcd13ifvqg90","pricing_plan_id":"free"},{"bike_id":"2d65fd79-b97b-4cc7-927d-26081624c71c","system_id":"levelo_inurba_marseille","lat":43.262125,"lon":5.379196,"is_reserved":false,"is_disabled":false,"rental_uris":{"android":"levelo://app?vid=2d65fd79-b97b-4cc7-927d-26081624c71c","ios":"levelo://app?vid=2d65fd79-b97b-4cc7-927d-26081624c71c"},"vehicle_type_id":"4","last_reported":1687028656,"current_range_meters":18800,"station_id":"ce4bhjp2rcd13ifvqg90","pricing_plan_id":"free"},{"bike_id":"ea62e870-934e-46c7-b7e6-8e74ec0b9b90","system_id":"levelo_inurba_marseille","lat":43.26212,"lon":5.37916,"is_reserved":false,"is_disabled":false,"rental_uris":{"android":"levelo://app?vid=ea62e870-934e-46c7-b7e6-8e74ec0b9b90","ios":"levelo://app?vid=ea62e870-934e-46c7-b7e6-8e74ec0b9b90"},"vehicle_type_id":"4","last_reported":1687028656,"current_range_meters":25200,"station_id":"ce4bhjp2rcd13ifvqg90","pricing_plan_id":"free"},{"bike_id":"f242875e-e3c1-4064-a25f-e20f70dd64f2","system_id":"levelo_inurba_marseille","lat":43.26213,"lon":5.37924,"is_reserved":false,"is_disabled":false,"rental_uris":{"android":"levelo://app?vid=f242875e-e3c1-4064-a25f-e20f70dd64f2","ios":"levelo://app?vid=f242875e-e3c1-4064-a25f-e20f70dd64f2"},"vehicle_type_id":"4","last_reported":1687028656,"current_range_meters":28400,"station_id":"ce4bhjp2rcd13ifvqg90","pricing_plan_id":"free"},{"bike_id":"fc14b0b0-db18-45f8-ae29-152574302986","system_id":"levelo_inurba_marseille","lat":43.26211,"lon":5.37921,"is_reserved":false,"is_disabled":false,"rental_uris":{"android":"levelo://app?vid=fc14b0b0-db18-45f8-ae29-152574302986","ios":"levelo://app?vid=fc14b0b0-db18-45f8-ae29-152574302986"},"vehicle_type_id":"4","last_reported":1687028656,"current_range_meters":12800,"station_id":"ce4bhjp2rcd13ifvqg90","pricing_plan_id":"free"},{"bike_id":"9df76f25-1cd8-4d21-a4a1-42e690d94951","system_id":"levelo_inurba_marseille","lat":43.26211,"lon":5.37922,"is_reserved":false,"is_disabled":false,"rental_uris":{"android":"levelo://app?vid=9df76f25-1cd8-4d21-a4a1-42e690d94951","ios":"levelo://app?vid=9df76f25-1cd8-4d21-a4a1-42e690d94951"},"vehicle_type_id":"4","last_reported":1687028656,"current_range_meters":18000,"station_id":"ce4bhjp2rcd13ifvqg90","pricing_plan_id":"free"},{"bike_id":"3096f713-b093-493f-9a5b-0467126c255f","system_id":"levelo_inurba_marseille","lat":43.26211,"lon":5.37923,"is_reserved":false,"is_disabled":false,"rental_uris":{"android":"levelo://app?vid=3096f713-b093-493f-9a5b-0467126c255f","ios":"levelo://app?vid=3096f713-b093-493f-9a5b-0467126c255f"},"vehicle_type_id":"4","last_reported":1687028656,"current_range_meters":4800,"station_id":"ce4bhjp2rcd13ifvqg90","pricing_plan_id":"free"},{"bike_id":"ff0cd381-cf8f-40e5-a8fa-4669ac4eaee0","system_id":"levelo_inurba_marseille","lat":43.26211,"lon":5.37924,"is_reserved":false,"is_disabled":false,"rental_uris":{"android":"levelo://app?vid=ff0cd381-cf8f-40e5-a8fa-4669ac4eaee0","ios":"levelo://app?vid=ff0cd381-cf8f-40e5-a8fa-4669ac4eaee0"},"vehicle_type_id":"4","last_reported":1687028656,"current_range_meters":26800,"station_id":"ce4bhjp2rcd13ifvqg90","pricing_plan_id":"free"},{"bike_id":"2aa79ce7-fff8-4b93-bc10-41660464c642","system_id":"levelo_inurba_marseille","lat":43.26212,"lon":5.37932,"is_reserved":false,"is_disabled":false,"rental_uris":{"android":"levelo://app?vid=2aa79ce7-fff8-4b93-bc10-41660464c642","ios":"levelo://app?vid=2aa79ce7-fff8-4b93-bc10-41660464c642"},"vehicle_type_id":"4","last_reported":1687028656,"current_range_meters":23200,"station_id":"ce4bhjp2rcd13ifvqg90","pricing_plan_id":"free"},{"bike_id":"7d384896-0137-4921-acd3-bc3badb3d20e","system_id":"levelo_inurba_marseille","lat":43.26211,"lon":5.37926,"is_reserved":false,"is_disabled":false,"rental_uris":{"android":"levelo://app?vid=7d384896-0137-4921-acd3-bc3badb3d20e","ios":"levelo://app?vid=7d384896-0137-4921-acd3-bc3badb3d20e"},"vehicle_type_id":"4","last_reported":1687028656,"current_range_meters":21200,"station_id":"ce4bhjp2rcd13ifvqg90","pricing_plan_id":"free"},{"bike_id":"5c2e1f1a-4f2e-449d-bbe7-8a7b3cb59a51","system_id":"levelo_inurba_marseille","lat":43.2621,"lon":5.37925,"is_reserved":false,"is_disabled":false,"rental_uris":{"android":"levelo://app?vid=5c2e1f1a-4f2e-449d-bbe7-8a7b3cb59a51","ios":"levelo://app?vid=5c2e1f1a-4f2e-449d-bbe7-8a7b3cb59a51"},"vehicle_type_id":"4","last_reported":1687028656,"current_range_meters":13200,"station_id":"ce4bhjp2rcd13ifvqg90","pricing_plan_id":"free"},{"bike_id":"b76cc4f0-c162-477e-9775-3c477ba8fe87","system_id":"levelo_inurba_marseille","lat":43.2621,"lon":5.37929,"is_reserved":false,"is_disabled":false,"rental_uris":{"android":"levelo://app?vid=b76cc4f0-c162-477e-9775-3c477ba8fe87","ios":"levelo://app?vid=b76cc4f0-c162-477e-9775-3c477ba8fe87"},"vehicle_type_id":"4","last_reported":1687028656,"current_range_meters":30000,"station_id":"ce4bhjp2rcd13ifvqg90","pricing_plan_id":"free"},{"bike_id":"36f5ea99-8efe-4c9a-8ba9-504d0463ed54","system_id":"levelo_inurba_marseille","lat":43.26209,"lon":5.37925,"is_reserved":false,"is_disabled":false,"rental_uris":{"android":"levelo://app?vid=36f5ea99-8efe-4c9a-8ba9-504d0463ed54","ios":"levelo://app?vid=36f5ea99-8efe-4c9a-8ba9-504d0463ed54"},"vehicle_type_id":"4","last_reported":1687028656,"current_range_meters":14800,"station_id":"ce4bhjp2rcd13ifvqg90","pricing_plan_id":"free"},{"bike_id":"bddd26ce-6b5c-4b34-85fc-515db0a13eaf","system_id":"levelo_inurba_marseille","lat":43.26209,"lon":5.37926,"is_reserved":false,"is_disabled":false,"rental_uris":{"android":"levelo://app?vid=bddd26ce-6b5c-4b34-85fc-515db0a13eaf","ios":"levelo://app?vid=bddd26ce-6b5c-4b34-85fc-515db0a13eaf"},"vehicle_type_id":"4","last_reported":1687028656,"current_range_meters":31200,"station_id":"ce4bhjp2rcd13ifvqg90","pricing_plan_id":"free"},{"bike_id":"2d0f0fe2-9dc3-4547-b7a3-e036c026eb7c","system_id":"levelo_inurba_marseille","lat":43.262012,"lon":5.379307,"is_reserved":false,"is_disabled":false,"rental_uris":{"android":"levelo://app?vid=2d0f0fe2-9dc3-4547-b7a3-e036c026eb7c","ios":"levelo://app?vid=2d0f0fe2-9dc3-4547-b7a3-e036c026eb7c"},"vehicle_type_id":"4","last_reported":1687028656,"current_range_meters":14800,"station_id":"ce4bhjp2rcd13ifvqg90","pricing_plan_id":"free"},{"bike_id":"b405e01a-b660-44ad-9d22-7b92ff72c3bc","system_id":"levelo_inurba_marseille","lat":43.26208,"lon":5.37926,"is_reserved":false,"is_disabled":false,"rental_uris":{"android":"levelo://app?vid=b405e01a-b660-44ad-9d22-7b92ff72c3bc","ios":"levelo://app?vid=b405e01a-b660-44ad-9d22-7b92ff72c3bc"},"vehicle_type_id":"4","last_reported":1687028656,"current_range_meters":2000,"station_id":"ce4bhjp2rcd13ifvqg90","pricing_plan_id":"free"},{"bike_id":"4c07169e-f7cd-4bfb-b2d9-4391074dbead","system_id":"levelo_inurba_marseille","lat":43.26208,"lon":5.37926,"is_reserved":false,"is_disabled":false,"rental_uris":{"android":"levelo://app?vid=4c07169e-f7cd-4bfb-b2d9-4391074dbead","ios":"levelo://app?vid=4c07169e-f7cd-4bfb-b2d9-4391074dbead"},"vehicle_type_id":"4","last_reported":1687028656,"current_range_meters":6400,"station_id":"ce4bhjp2rcd13ifvqg90","pricing_plan_id":"free"},{"bike_id":"b6b5f1ac-8a63-4832-bdb8-c1700bac554d","system_id":"levelo_inurba_marseille","lat":43.26159,"lon":5.37455,"is_reserved":false,"is_disabled":false,"rental_uris":{"android":"levelo://app?vid=b6b5f1ac-8a63-4832-bdb8-c1700bac554d","ios":"levelo://app?vid=b6b5f1ac-8a63-4832-bdb8-c1700bac554d"},"vehicle_type_id":"4","last_reported":1687028656,"current_range_meters":16800,"station_id":"ce4bhgp2rcd13ifvqfc0","pricing_plan_id":"free"},{"bike_id":"e002c8e0-d3a4-45be-a015-e49dbcdde71d","system_id":"levelo_inurba_marseille","lat":43.26208,"lon":5.37929,"is_reserved":false,"is_disabled":false,"rental_uris":{"android":"levelo://app?vid=e002c8e0-d3a4-45be-a015-e49dbcdde71d","ios":"levelo://app?vid=e002c8e0-d3a4-45be-a015-e49dbcdde71d"},"vehicle_type_id":"4","last_reported":1687028656,"current_range_meters":29600,"station_id":"ce4bhjp2rcd13ifvqg90","pricing_plan_id":"free"},{"bike_id":"c39a453d-ea08-4fcb-9938-90dd3b7af212","system_id":"levelo_inurba_marseille","lat":43.26207,"lon":5.37922,"is_reserved":false,"is_disabled":false,"rental_uris":{"android":"levelo://app?vid=c39a453d-ea08-4fcb-9938-90dd3b7af212","ios":"levelo://app?vid=c39a453d-ea08-4fcb-9938-90dd3b7af212"},"vehicle_type_id":"4","last_reported":1687028656,"current_range_meters":12000,"station_id":"ce4bhjp2rcd13ifvqg90","pricing_plan_id":"free"},{"bike_id":"9d9d66d5-3cae-40ac-8709-6b524ba29811","system_id":"levelo_inurba_marseille","lat":43.26209,"lon":5.37938,"is_reserved":false,"is_disabled":false,"rental_uris":{"android":"levelo://app?vid=9d9d66d5-3cae-40ac-8709-6b524ba29811","ios":"levelo://app?vid=9d9d66d5-3cae-40ac-8709-6b524ba29811"},"vehicle_type_id":"4","last_reported":1687028656,"current_range_meters":18000,"station_id":"ce4bhjp2rcd13ifvqg90","pricing_plan_id":"free"},{"bike_id":"faab296f-48d1-46c5-b2d8-73e773fb8dde","system_id":"levelo_inurba_marseille","lat":43.26207,"lon":5.37924,"is_reserved":false,"is_disabled":false,"rental_uris":{"android":"levelo://app?vid=faab296f-48d1-46c5-b2d8-73e773fb8dde","ios":"levelo://app?vid=faab296f-48d1-46c5-b2d8-73e773fb8dde"},"vehicle_type_id":"4","last_reported":1687028656,"current_range_meters":22000,"station_id":"ce4bhjp2rcd13ifvqg90","pricing_plan_id":"free"},{"bike_id":"1e06eb7f-d33a-44ad-b658-e04700a25e6f","system_id":"levelo_inurba_marseille","lat":43.26207,"lon":5.37924,"is_reserved":false,"is_disabled":false,"rental_uris":{"android":"levelo://app?vid=1e06eb7f-d33a-44ad-b658-e04700a25e6f","ios":"levelo://app?vid=1e06eb7f-d33a-44ad-b658-e04700a25e6f"},"vehicle_type_id":"4","last_reported":1687028656,"current_range_meters":31200,"station_id":"ce4bhjp2rcd13ifvqg90","pricing_plan_id":"free"},{"bike_id":"ab511131-7c27-4778-8d24-a26196192374","system_id":"levelo_inurba_marseille","lat":43.26207,"lon":5.37926,"is_reserved":false,"is_disabled":false,"rental_uris":{"android":"levelo://app?vid=ab511131-7c27-4778-8d24-a26196192374","ios":"levelo://app?vid=ab511131-7c27-4778-8d24-a26196192374"},"vehicle_type_id":"4","last_reported":1687028656,"current_range_meters":11200,"station_id":"ce4bhjp2rcd13ifvqg90","pricing_plan_id":"free"},{"bike_id":"1fbcd0e5-2252-4e20-af10-fe84b5942d1d","system_id":"levelo_inurba_marseille","lat":43.26202,"lon":5.379299,"is_reserved":false,"is_disabled":false,"rental_uris":{"android":"levelo://app?vid=1fbcd0e5-2252-4e20-af10-fe84b5942d1d","ios":"levelo://app?vid=1fbcd0e5-2252-4e20-af10-fe84b5942d1d"},"vehicle_type_id":"4","last_reported":1687028656,"current_range_meters":31200,"station_id":"ce4bhjp2rcd13ifvqg90","pricing_plan_id":"free"},{"bike_id":"d6387107-c643-44c3-b3d3-cb93dfe84911","system_id":"levelo_inurba_marseille","lat":43.26206,"lon":5.37926,"is_reserved":false,"is_disabled":false,"rental_uris":{"android":"levelo://app?vid=d6387107-c643-44c3-b3d3-cb93dfe84911","ios":"levelo://app?vid=d6387107-c643-44c3-b3d3-cb93dfe84911"},"vehicle_type_id":"4","last_reported":1687028656,"current_range_meters":20400,"station_id":"ce4bhjp2rcd13ifvqg90","pricing_plan_id":"free"},{"bike_id":"2ef7ff39-20c6-4210-aa08-d4c911805bd9","system_id":"levelo_inurba_marseille","lat":43.26206,"lon":5.37929,"is_reserved":false,"is_disabled":false,"rental_uris":{"android":"levelo://app?vid=2ef7ff39-20c6-4210-aa08-d4c911805bd9","ios":"levelo://app?vid=2ef7ff39-20c6-4210-aa08-d4c911805bd9"},"vehicle_type_id":"4","last_reported":1687028656,"current_range_meters":7600,"station_id":"ce4bhjp2rcd13ifvqg90","pricing_plan_id":"free"},{"bike_id":"e12747e2-cb30-40ae-8ccc-5f1f274383f1","system_id":"levelo_inurba_marseille","lat":43.26202,"lon":5.379299,"is_reserved":false,"is_disabled":false,"rental_uris":{"android":"levelo://app?vid=e12747e2-cb30-40ae-8ccc-5f1f274383f1","ios":"levelo://app?vid=e12747e2-cb30-40ae-8ccc-5f1f274383f1"},"vehicle_type_id":"4","last_reported":1687028656,"current_range_meters":12800,"station_id":"ce4bhjp2rcd13ifvqg90","pricing_plan_id":"free"},{"bike_id":"abd9f73a-dd35-47ee-8053-6243488dbb0c","system_id":"levelo_inurba_marseille","lat":43.26205,"lon":5.37922,"is_reserved":false,"is_disabled":false,"rental_uris":{"android":"levelo://app?vid=abd9f73a-dd35-47ee-8053-6243488dbb0c","ios":"levelo://app?vid=abd9f73a-dd35-47ee-8053-6243488dbb0c"},"vehicle_type_id":"4","last_reported":1687028656,"current_range_meters":18800,"station_id":"ce4bhjp2rcd13ifvqg90","pricing_plan_id":"free"},{"bike_id":"c399ea41-3739-433c-8f2a-ffdd523ae783","system_id":"levelo_inurba_marseille","lat":43.26206,"lon":5.3793,"is_reserved":false,"is_disabled":false,"rental_uris":{"android":"levelo://app?vid=c399ea41-3739-433c-8f2a-ffdd523ae783","ios":"levelo://app?vid=c399ea41-3739-433c-8f2a-ffdd523ae783"},"vehicle_type_id":"4","last_reported":1687028656,"current_range_meters":30800,"station_id":"ce4bhjp2rcd13ifvqg90","pricing_plan_id":"free"},{"bike_id":"0f32807b-3989-43d0-8336-df89a6bbc3de","system_id":"levelo_inurba_marseille","lat":43.26206,"lon":5.3793,"is_reserved":false,"is_disabled":false,"rental_uris":{"android":"levelo://app?vid=0f32807b-3989-43d0-8336-df89a6bbc3de","ios":"levelo://app?vid=0f32807b-3989-43d0-8336-df89a6bbc3de"},"vehicle_type_id":"4","last_reported":1687028656,"current_range_meters":21200,"station_id":"ce4bhjp2rcd13ifvqg90","pricing_plan_id":"free"},{"bike_id":"1749bd2d-d715-454a-b1cb-929e4fa086ea","system_id":"levelo_inurba_marseille","lat":43.26205,"lon":5.37923,"is_reserved":false,"is_disabled":false,"rental_uris":{"android":"levelo://app?vid=1749bd2d-d715-454a-b1cb-929e4fa086ea","ios":"levelo://app?vid=1749bd2d-d715-454a-b1cb-929e4fa086ea"},"vehicle_type_id":"4","last_reported":1687028656,"current_range_meters":19600,"station_id":"ce4bhjp2rcd13ifvqg90","pricing_plan_id":"free"},{"bike_id":"703a8786-ddd0-4f61-843e-fadf0bf61061","system_id":"levelo_inurba_marseille","lat":43.26207,"lon":5.37939,"is_reserved":false,"is_disabled":false,"rental_uris":{"android":"levelo://app?vid=703a8786-ddd0-4f61-843e-fadf0bf61061","ios":"levelo://app?vid=703a8786-ddd0-4f61-843e-fadf0bf61061"},"vehicle_type_id":"4","last_reported":1687028656,"current_range_meters":14400,"station_id":"ce4bhjp2rcd13ifvqg90","pricing_plan_id":"free"},{"bike_id":"4d0f0de9-e360-4980-86a0-e12c39ac1f0a","system_id":"levelo_inurba_marseille","lat":43.26205,"lon":5.37924,"is_reserved":false,"is_disabled":false,"rental_uris":{"android":"levelo://app?vid=4d0f0de9-e360-4980-86a0-e12c39ac1f0a","ios":"levelo://app?vid=4d0f0de9-e360-4980-86a0-e12c39ac1f0a"},"vehicle_type_id":"4","last_reported":1687028656,"current_range_meters":14000,"station_id":"ce4bhjp2rcd13ifvqg90","pricing_plan_id":"free"},{"bike_id":"84b9db6e-3ff6-4fc5-9588-de39363ea0a4","system_id":"levelo_inurba_marseille","lat":43.26205,"lon":5.37924,"is_reserved":false,"is_disabled":false,"rental_uris":{"android":"levelo://app?vid=84b9db6e-3ff6-4fc5-9588-de39363ea0a4","ios":"levelo://app?vid=84b9db6e-3ff6-4fc5-9588-de39363ea0a4"},"vehicle_type_id":"4","last_reported":1687028656,"current_range_meters":30800,"station_id":"ce4bhjp2rcd13ifvqg90","pricing_plan_id":"free"},{"bike_id":"0c46b4e4-940f-4f8a-bdcc-8b0dcbac7d4d","system_id":"levelo_inurba_marseille","lat":43.26205,"lon":5.37924,"is_reserved":false,"is_disabled":false,"rental_uris":{"android":"levelo://app?vid=0c46b4e4-940f-4f8a-bdcc-8b0dcbac7d4d","ios":"levelo://app?vid=0c46b4e4-940f-4f8a-bdcc-8b0dcbac7d4d"},"vehicle_type_id":"4","last_reported":1687028656,"current_range_meters":31200,"station_id":"ce4bhjp2rcd13ifvqg90","pricing_plan_id":"free"},{"bike_id":"5746e080-6873-4825-a717-db5f29841bfa","system_id":"levelo_inurba_marseille","lat":43.26205,"lon":5.37925,"is_reserved":false,"is_disabled":false,"rental_uris":{"android":"levelo://app?vid=5746e080-6873-4825-a717-db5f29841bfa","ios":"levelo://app?vid=5746e080-6873-4825-a717-db5f29841bfa"},"vehicle_type_id":"4","last_reported":1687028656,"current_range_meters":30400,"station_id":"ce4bhjp2rcd13ifvqg90","pricing_plan_id":"free"},{"bike_id":"1e75134c-00b5-437a-be60-db87eb6c35a0","system_id":"levelo_inurba_marseille","lat":43.26204,"lon":5.37921,"is_reserved":false,"is_disabled":false,"rental_uris":{"android":"levelo://app?vid=1e75134c-00b5-437a-be60-db87eb6c35a0","ios":"levelo://app?vid=1e75134c-00b5-437a-be60-db87eb6c35a0"},"vehicle_type_id":"4","last_reported":1687028656,"current_range_meters":22400,"station_id":"ce4bhjp2rcd13ifvqg90","pricing_plan_id":"free"},{"bike_id":"eb82b6b3-daf9-4f09-bed8-2b784cf070fa","system_id":"levelo_inurba_marseille","lat":43.26205,"lon":5.3793,"is_reserved":false,"is_disabled":false,"rental_uris":{"android":"levelo://app?vid=eb82b6b3-daf9-4f09-bed8-2b784cf070fa","ios":"levelo://app?vid=eb82b6b3-daf9-4f09-bed8-2b784cf070fa"},"vehicle_type_id":"4","last_reported":1687028656,"current_range_meters":30400,"station_id":"ce4bhjp2rcd13ifvqg90","pricing_plan_id":"free"},{"bike_id":"f7cb5758-4319-474c-ab2b-9ffe590fb218","system_id":"levelo_inurba_marseille","lat":43.26204,"lon":5.37923,"is_reserved":false,"is_disabled":false,"rental_uris":{"android":"levelo://app?vid=f7cb5758-4319-474c-ab2b-9ffe590fb218","ios":"levelo://app?vid=f7cb5758-4319-474c-ab2b-9ffe590fb218"},"vehicle_type_id":"4","last_reported":1687028656,"current_range_meters":31200,"station_id":"ce4bhjp2rcd13ifvqg90","pricing_plan_id":"free"},{"bike_id":"cb819c0f-6ffa-4f80-a81f-88af8c3cc91d","system_id":"levelo_inurba_marseille","lat":43.26204,"lon":5.37926,"is_reserved":false,"is_disabled":false,"rental_uris":{"android":"levelo://app?vid=cb819c0f-6ffa-4f80-a81f-88af8c3cc91d","ios":"levelo://app?vid=cb819c0f-6ffa-4f80-a81f-88af8c3cc91d"},"vehicle_type_id":"4","last_reported":1687028656,"current_range_meters":9200,"station_id":"ce4bhjp2rcd13ifvqg90","pricing_plan_id":"free"},{"bike_id":"ea24ec08-e563-459b-8966-b31f0841148d","system_id":"levelo_inurba_marseille","lat":43.26204,"lon":5.37926,"is_reserved":false,"is_disabled":false,"rental_uris":{"android":"levelo://app?vid=ea24ec08-e563-459b-8966-b31f0841148d","ios":"levelo://app?vid=ea24ec08-e563-459b-8966-b31f0841148d"},"vehicle_type_id":"4","last_reported":1687028656,"current_range_meters":26000,"station_id":"ce4bhjp2rcd13ifvqg90","pricing_plan_id":"free"},{"bike_id":"a3a5017f-f229-4c95-a65f-5320b6a86295","system_id":"levelo_inurba_marseille","lat":43.262012,"lon":5.379307,"is_reserved":false,"is_disabled":false,"rental_uris":{"android":"levelo://app?vid=a3a5017f-f229-4c95-a65f-5320b6a86295","ios":"levelo://app?vid=a3a5017f-f229-4c95-a65f-5320b6a86295"},"vehicle_type_id":"4","last_reported":1687028656,"current_range_meters":31200,"station_id":"ce4bhjp2rcd13ifvqg90","pricing_plan_id":"free"},{"bike_id":"ab378214-b701-4916-8132-48240331f637","system_id":"levelo_inurba_marseille","lat":43.26204,"lon":5.37928,"is_reserved":false,"is_disabled":false,"rental_uris":{"android":"levelo://app?vid=ab378214-b701-4916-8132-48240331f637","ios":"levelo://app?vid=ab378214-b701-4916-8132-48240331f637"},"vehicle_type_id":"4","last_reported":1687028656,"current_range_meters":12400,"station_id":"ce4bhjp2rcd13ifvqg90","pricing_plan_id":"free"},{"bike_id":"350b9ea5-6643-4a3a-b826-0bf340ae4c16","system_id":"levelo_inurba_marseille","lat":43.26205,"lon":5.37936,"is_reserved":false,"is_disabled":false,"rental_uris":{"android":"levelo://app?vid=350b9ea5-6643-4a3a-b826-0bf340ae4c16","ios":"levelo://app?vid=350b9ea5-6643-4a3a-b826-0bf340ae4c16"},"vehicle_type_id":"4","last_reported":1687028656,"current_range_meters":21200,"station_id":"ce4bhjp2rcd13ifvqg90","pricing_plan_id":"free"},{"bike_id":"8e5bf5ff-cee7-4523-89bb-6e59c0fefa80","system_id":"levelo_inurba_marseille","lat":43.27182,"lon":5.40987,"is_reserved":false,"is_disabled":false,"rental_uris":{"android":"levelo://app?vid=8e5bf5ff-cee7-4523-89bb-6e59c0fefa80","ios":"levelo://app?vid=8e5bf5ff-cee7-4523-89bb-6e59c0fefa80"},"vehicle_type_id":"4","last_reported":1687028656,"current_range_meters":18800,"station_id":"","pricing_plan_id":"free"},{"bike_id":"b66ee968-f311-40a9-86d7-6297db3c3882","system_id":"levelo_inurba_marseille","lat":43.26203,"lon":5.37923,"is_reserved":false,"is_disabled":false,"rental_uris":{"android":"levelo://app?vid=b66ee968-f311-40a9-86d7-6297db3c3882","ios":"levelo://app?vid=b66ee968-f311-40a9-86d7-6297db3c3882"},"vehicle_type_id":"4","last_reported":1687028656,"current_range_meters":17200,"station_id":"ce4bhjp2rcd13ifvqg90","pricing_plan_id":"free"},{"bike_id":"3aaaae40-4715-472e-9fb3-833756e6b3c6","system_id":"levelo_inurba_marseille","lat":43.26204,"lon":5.37931,"is_reserved":false,"is_disabled":false,"rental_uris":{"android":"levelo://app?vid=3aaaae40-4715-472e-9fb3-833756e6b3c6","ios":"levelo://app?vid=3aaaae40-4715-472e-9fb3-833756e6b3c6"},"vehicle_type_id":"4","last_reported":1687028656,"current_range_meters":31200,"station_id":"ce4bhjp2rcd13ifvqg90","pricing_plan_id":"free"},{"bike_id":"7891bf97-4eb1-4cae-8d6e-efdfff2479a5","system_id":"levelo_inurba_marseille","lat":43.26202,"lon":5.379299,"is_reserved":false,"is_disabled":false,"rental_uris":{"android":"levelo://app?vid=7891bf97-4eb1-4cae-8d6e-efdfff2479a5","ios":"levelo://app?vid=7891bf97-4eb1-4cae-8d6e-efdfff2479a5"},"vehicle_type_id":"4","last_reported":1687028656,"current_range_meters":16000,"station_id":"ce4bhjp2rcd13ifvqg90","pricing_plan_id":"free"},{"bike_id":"4306d7f9-bcb9-4e12-876d-b11eeaacd898","system_id":"levelo_inurba_marseille","lat":43.26203,"lon":5.37927,"is_reserved":false,"is_disabled":false,"rental_uris":{"android":"levelo://app?vid=4306d7f9-bcb9-4e12-876d-b11eeaacd898","ios":"levelo://app?vid=4306d7f9-bcb9-4e12-876d-b11eeaacd898"},"vehicle_type_id":"4","last_reported":1687028656,"current_range_meters":18400,"station_id":"ce4bhjp2rcd13ifvqg90","pricing_plan_id":"free"},{"bike_id":"105aba82-4d29-4740-ae55-0a1d2d67eac8","system_id":"levelo_inurba_marseille","lat":43.26202,"lon":5.379299,"is_reserved":false,"is_disabled":false,"rental_uris":{"android":"levelo://app?vid=105aba82-4d29-4740-ae55-0a1d2d67eac8","ios":"levelo://app?vid=105aba82-4d29-4740-ae55-0a1d2d67eac8"},"vehicle_type_id":"4","last_reported":1687028656,"current_range_meters":9600,"station_id":"ce4bhjp2rcd13ifvqg90","pricing_plan_id":"free"},{"bike_id":"6d1a3faf-1927-444f-bd2c-108e22fab7ef","system_id":"levelo_inurba_marseille","lat":43.26202,"lon":5.379299,"is_reserved":false,"is_disabled":false,"rental_uris":{"android":"levelo://app?vid=6d1a3faf-1927-444f-bd2c-108e22fab7ef","ios":"levelo://app?vid=6d1a3faf-1927-444f-bd2c-108e22fab7ef"},"vehicle_type_id":"4","last_reported":1687028656,"current_range_meters":17600,"station_id":"ce4bhjp2rcd13ifvqg90","pricing_plan_id":"free"},{"bike_id":"60c9d739-5601-4d3c-8a49-d3d0a470fe73","system_id":"levelo_inurba_marseille","lat":43.26203,"lon":5.37929,"is_reserved":false,"is_disabled":false,"rental_uris":{"android":"levelo://app?vid=60c9d739-5601-4d3c-8a49-d3d0a470fe73","ios":"levelo://app?vid=60c9d739-5601-4d3c-8a49-d3d0a470fe73"},"vehicle_type_id":"4","last_reported":1687028656,"current_range_meters":20000,"station_id":"ce4bhjp2rcd13ifvqg90","pricing_plan_id":"free"},{"bike_id":"a979245b-5546-4539-97e4-67e7026c16d8","system_id":"levelo_inurba_marseille","lat":43.26202,"lon":5.37924,"is_reserved":false,"is_disabled":false,"rental_uris":{"android":"levelo://app?vid=a979245b-5546-4539-97e4-67e7026c16d8","ios":"levelo://app?vid=a979245b-5546-4539-97e4-67e7026c16d8"},"vehicle_type_id":"4","last_reported":1687028656,"current_range_meters":28800,"station_id":"ce4bhjp2rcd13ifvqg90","pricing_plan_id":"free"},{"bike_id":"7d4c1512-d870-4f23-bf5a-049a1c75566f","system_id":"levelo_inurba_marseille","lat":43.26202,"lon":5.37925,"is_reserved":false,"is_disabled":false,"rental_uris":{"android":"levelo://app?vid=7d4c1512-d870-4f23-bf5a-049a1c75566f","ios":"levelo://app?vid=7d4c1512-d870-4f23-bf5a-049a1c75566f"},"vehicle_type_id":"4","last_reported":1687028656,"current_range_meters":31200,"station_id":"ce4bhjp2rcd13ifvqg90","pricing_plan_id":"free"},{"bike_id":"183968b7-243d-42da-8863-0c3973fae87b","system_id":"levelo_inurba_marseille","lat":43.26202,"lon":5.37925,"is_reserved":false,"is_disabled":false,"rental_uris":{"android":"levelo://app?vid=183968b7-243d-42da-8863-0c3973fae87b","ios":"levelo://app?vid=183968b7-243d-42da-8863-0c3973fae87b"},"vehicle_type_id":"4","last_reported":1687028656,"current_range_meters":18000,"station_id":"ce4bhjp2rcd13ifvqg90","pricing_plan_id":"free"},{"bike_id":"5235f36c-90e9-47f4-8a63-79e0921267af","system_id":"levelo_inurba_marseille","lat":43.26202,"lon":5.37925,"is_reserved":false,"is_disabled":false,"rental_uris":{"android":"levelo://app?vid=5235f36c-90e9-47f4-8a63-79e0921267af","ios":"levelo://app?vid=5235f36c-90e9-47f4-8a63-79e0921267af"},"vehicle_type_id":"4","last_reported":1687028656,"current_range_meters":8400,"station_id":"ce4bhjp2rcd13ifvqg90","pricing_plan_id":"free"},{"bike_id":"c02d7797-b855-4777-9f2b-f73e85522ec9","system_id":"levelo_inurba_marseille","lat":43.26204,"lon":5.37944,"is_reserved":false,"is_disabled":false,"rental_uris":{"android":"levelo://app?vid=c02d7797-b855-4777-9f2b-f73e85522ec9","ios":"levelo://app?vid=c02d7797-b855-4777-9f2b-f73e85522ec9"},"vehicle_type_id":"4","last_reported":1687028656,"current_range_meters":16800,"station_id":"ce4bhjp2rcd13ifvqg90","pricing_plan_id":"free"},{"bike_id":"7d293a7c-72d8-4b17-bab4-f4281c7c5610","system_id":"levelo_inurba_marseille","lat":43.26202,"lon":5.37929,"is_reserved":false,"is_disabled":false,"rental_uris":{"android":"levelo://app?vid=7d293a7c-72d8-4b17-bab4-f4281c7c5610","ios":"levelo://app?vid=7d293a7c-72d8-4b17-bab4-f4281c7c5610"},"vehicle_type_id":"4","last_reported":1687028656,"current_range_meters":28000,"station_id":"ce4bhjp2rcd13ifvqg90","pricing_plan_id":"free"},{"bike_id":"3c5b1740-bc31-4744-acf7-44c3afca5eef","system_id":"levelo_inurba_marseille","lat":43.26202,"lon":5.37931,"is_reserved":false,"is_disabled":false,"rental_uris":{"android":"levelo://app?vid=3c5b1740-bc31-4744-acf7-44c3afca5eef","ios":"levelo://app?vid=3c5b1740-bc31-4744-acf7-44c3afca5eef"},"vehicle_type_id":"4","last_reported":1687028656,"current_range_meters":9600,"station_id":"ce4bhjp2rcd13ifvqg90","pricing_plan_id":"free"},{"bike_id":"34b78aa5-f66b-433e-848f-3a318f520e7b","system_id":"levelo_inurba_marseille","lat":43.26201,"lon":5.37925,"is_reserved":false,"is_disabled":false,"rental_uris":{"android":"levelo://app?vid=34b78aa5-f66b-433e-848f-3a318f520e7b","ios":"levelo://app?vid=34b78aa5-f66b-433e-848f-3a318f520e7b"},"vehicle_type_id":"4","last_reported":1687028656,"current_range_meters":14800,"station_id":"ce4bhjp2rcd13ifvqg90","pricing_plan_id":"free"},{"bike_id":"d5836418-4d7c-4c85-874a-fd3358660958","system_id":"levelo_inurba_marseille","lat":43.26201,"lon":5.37925,"is_reserved":false,"is_disabled":false,"rental_uris":{"android":"levelo://app?vid=d5836418-4d7c-4c85-874a-fd3358660958","ios":"levelo://app?vid=d5836418-4d7c-4c85-874a-fd3358660958"},"vehicle_type_id":"4","last_reported":1687028656,"current_range_meters":29200,"station_id":"ce4bhjp2rcd13ifvqg90","pricing_plan_id":"free"},{"bike_id":"7b97506e-ee8f-4885-a673-6a0a3edbcc6e","system_id":"levelo_inurba_marseille","lat":43.26202,"lon":5.379299,"is_reserved":false,"is_disabled":false,"rental_uris":{"android":"levelo://app?vid=7b97506e-ee8f-4885-a673-6a0a3edbcc6e","ios":"levelo://app?vid=7b97506e-ee8f-4885-a673-6a0a3edbcc6e"},"vehicle_type_id":"4","last_reported":1687028656,"current_range_meters":14000,"station_id":"ce4bhjp2rcd13ifvqg90","pricing_plan_id":"free"},{"bike_id":"56e1c853-c0f1-47d6-a0d8-3cde442fadf9","system_id":"levelo_inurba_marseille","lat":43.262,"lon":5.37922,"is_reserved":false,"is_disabled":false,"rental_uris":{"android":"levelo://app?vid=56e1c853-c0f1-47d6-a0d8-3cde442fadf9","ios":"levelo://app?vid=56e1c853-c0f1-47d6-a0d8-3cde442fadf9"},"vehicle_type_id":"4","last_reported":1687028656,"current_range_meters":31200,"station_id":"ce4bhjp2rcd13ifvqg90","pricing_plan_id":"free"},{"bike_id":"054cfede-5a42-4d0f-a983-73e96ac2748d","system_id":"levelo_inurba_marseille","lat":43.26202,"lon":5.37939,"is_reserved":false,"is_disabled":false,"rental_uris":{"android":"levelo://app?vid=054cfede-5a42-4d0f-a983-73e96ac2748d","ios":"levelo://app?vid=054cfede-5a42-4d0f-a983-73e96ac2748d"},"vehicle_type_id":"4","last_reported":1687028656,"current_range_meters":17600,"station_id":"ce4bhjp2rcd13ifvqg90","pricing_plan_id":"free"},{"bike_id":"169f9af3-aed2-4fdc-934f-663fee0188f6","system_id":"levelo_inurba_marseille","lat":43.26202,"lon":5.379299,"is_reserved":false,"is_disabled":false,"rental_uris":{"android":"levelo://app?vid=169f9af3-aed2-4fdc-934f-663fee0188f6","ios":"levelo://app?vid=169f9af3-aed2-4fdc-934f-663fee0188f6"},"vehicle_type_id":"4","last_reported":1687028656,"current_range_meters":20000,"station_id":"ce4bhjp2rcd13ifvqg90","pricing_plan_id":"free"},{"bike_id":"5ac8e4b0-f101-47d4-8cc2-401e59a35bb8","system_id":"levelo_inurba_marseille","lat":43.262011,"lon":5.379336,"is_reserved":false,"is_disabled":false,"rental_uris":{"android":"levelo://app?vid=5ac8e4b0-f101-47d4-8cc2-401e59a35bb8","ios":"levelo://app?vid=5ac8e4b0-f101-47d4-8cc2-401e59a35bb8"},"vehicle_type_id":"4","last_reported":1687028656,"current_range_meters":0,"station_id":"ce4bhjp2rcd13ifvqg90","pricing_plan_id":"free"},{"bike_id":"345386e5-0aa6-4b66-8386-c8304249d7e8","system_id":"levelo_inurba_marseille","lat":43.262,"lon":5.3793,"is_reserved":false,"is_disabled":false,"rental_uris":{"android":"levelo://app?vid=345386e5-0aa6-4b66-8386-c8304249d7e8","ios":"levelo://app?vid=345386e5-0aa6-4b66-8386-c8304249d7e8"},"vehicle_type_id":"4","last_reported":1687028656,"current_range_meters":18800,"station_id":"ce4bhjp2rcd13ifvqg90","pricing_plan_id":"free"},{"bike_id":"a0e19f69-ff46-4cd1-a2b9-64ea9a24cf5d","system_id":"levelo_inurba_marseille","lat":43.26198,"lon":5.37927,"is_reserved":false,"is_disabled":false,"rental_uris":{"android":"levelo://app?vid=a0e19f69-ff46-4cd1-a2b9-64ea9a24cf5d","ios":"levelo://app?vid=a0e19f69-ff46-4cd1-a2b9-64ea9a24cf5d"},"vehicle_type_id":"4","last_reported":1687028656,"current_range_meters":11200,"station_id":"ce4bhjp2rcd13ifvqg90","pricing_plan_id":"free"},{"bike_id":"fa11bb5b-8649-4d40-975e-6e9e9ac9a7ee","system_id":"levelo_inurba_marseille","lat":43.26198,"lon":5.37928,"is_reserved":false,"is_disabled":false,"rental_uris":{"android":"levelo://app?vid=fa11bb5b-8649-4d40-975e-6e9e9ac9a7ee","ios":"levelo://app?vid=fa11bb5b-8649-4d40-975e-6e9e9ac9a7ee"},"vehicle_type_id":"4","last_reported":1687028656,"current_range_meters":18000,"station_id":"ce4bhjp2rcd13ifvqg90","pricing_plan_id":"free"},{"bike_id":"f64f9c25-ba0f-4934-8b5e-83e02bbd4828","system_id":"levelo_inurba_marseille","lat":43.26198,"lon":5.37929,"is_reserved":false,"is_disabled":false,"rental_uris":{"android":"levelo://app?vid=f64f9c25-ba0f-4934-8b5e-83e02bbd4828","ios":"levelo://app?vid=f64f9c25-ba0f-4934-8b5e-83e02bbd4828"},"vehicle_type_id":"4","last_reported":1687028656,"current_range_meters":31200,"station_id":"ce4bhjp2rcd13ifvqg90","pricing_plan_id":"free"},{"bike_id":"1290350e-c139-492d-bc0a-49bd9a893d1f","system_id":"levelo_inurba_marseille","lat":43.26197,"lon":5.37922,"is_reserved":false,"is_disabled":false,"rental_uris":{"android":"levelo://app?vid=1290350e-c139-492d-bc0a-49bd9a893d1f","ios":"levelo://app?vid=1290350e-c139-492d-bc0a-49bd9a893d1f"},"vehicle_type_id":"4","last_reported":1687028656,"current_range_meters":18000,"station_id":"ce4bhjp2rcd13ifvqg90","pricing_plan_id":"free"},{"bike_id":"3ce3f8d5-822f-43c7-b878-d1de4963a2c5","system_id":"levelo_inurba_marseille","lat":43.26198,"lon":5.37935,"is_reserved":false,"is_disabled":false,"rental_uris":{"android":"levelo://app?vid=3ce3f8d5-822f-43c7-b878-d1de4963a2c5","ios":"levelo://app?vid=3ce3f8d5-822f-43c7-b878-d1de4963a2c5"},"vehicle_type_id":"4","last_reported":1687028656,"current_range_meters":31200,"station_id":"ce4bhjp2rcd13ifvqg90","pricing_plan_id":"free"},{"bike_id":"147de1b6-47ac-4c8a-a576-b040c57c3e49","system_id":"levelo_inurba_marseille","lat":43.26198,"lon":5.37937,"is_reserved":false,"is_disabled":false,"rental_uris":{"android":"levelo://app?vid=147de1b6-47ac-4c8a-a576-b040c57c3e49","ios":"levelo://app?vid=147de1b6-47ac-4c8a-a576-b040c57c3e49"},"vehicle_type_id":"4","last_reported":1687028656,"current_range_meters":8400,"station_id":"ce4bhjp2rcd13ifvqg90","pricing_plan_id":"free"},{"bike_id":"255f1d55-73f2-4691-adc3-2cc7cbe003f7","system_id":"levelo_inurba_marseille","lat":43.26196,"lon":5.37928,"is_reserved":false,"is_disabled":false,"rental_uris":{"android":"levelo://app?vid=255f1d55-73f2-4691-adc3-2cc7cbe003f7","ios":"levelo://app?vid=255f1d55-73f2-4691-adc3-2cc7cbe003f7"},"vehicle_type_id":"4","last_reported":1687028656,"current_range_meters":10400,"station_id":"ce4bhjp2rcd13ifvqg90","pricing_plan_id":"free"},{"bike_id":"d7292054-79ef-46c8-b12f-5831db458894","system_id":"levelo_inurba_marseille","lat":43.26196,"lon":5.37928,"is_reserved":false,"is_disabled":false,"rental_uris":{"android":"levelo://app?vid=d7292054-79ef-46c8-b12f-5831db458894","ios":"levelo://app?vid=d7292054-79ef-46c8-b12f-5831db458894"},"vehicle_type_id":"4","last_reported":1687028656,"current_range_meters":0,"station_id":"ce4bhjp2rcd13ifvqg90","pricing_plan_id":"free"},{"bike_id":"5adcf72d-a1a4-4e65-ac2c-0805baf51994","system_id":"levelo_inurba_marseille","lat":43.26196,"lon":5.37929,"is_reserved":false,"is_disabled":false,"rental_uris":{"android":"levelo://app?vid=5adcf72d-a1a4-4e65-ac2c-0805baf51994","ios":"levelo://app?vid=5adcf72d-a1a4-4e65-ac2c-0805baf51994"},"vehicle_type_id":"4","last_reported":1687028656,"current_range_meters":22400,"station_id":"ce4bhjp2rcd13ifvqg90","pricing_plan_id":"free"},{"bike_id":"6e57d335-6dd5-4de1-9798-f96614239d95","system_id":"levelo_inurba_marseille","lat":43.26195,"lon":5.37924,"is_reserved":false,"is_disabled":false,"rental_uris":{"android":"levelo://app?vid=6e57d335-6dd5-4de1-9798-f96614239d95","ios":"levelo://app?vid=6e57d335-6dd5-4de1-9798-f96614239d95"},"vehicle_type_id":"4","last_reported":1687028656,"current_range_meters":22400,"station_id":"ce4bhjp2rcd13ifvqg90","pricing_plan_id":"free"},{"bike_id":"03c63a22-5af4-4731-b58c-68faf2f7a292","system_id":"levelo_inurba_marseille","lat":43.26195,"lon":5.37928,"is_reserved":false,"is_disabled":false,"rental_uris":{"android":"levelo://app?vid=03c63a22-5af4-4731-b58c-68faf2f7a292","ios":"levelo://app?vid=03c63a22-5af4-4731-b58c-68faf2f7a292"},"vehicle_type_id":"4","last_reported":1687028656,"current_range_meters":30800,"station_id":"ce4bhjp2rcd13ifvqg90","pricing_plan_id":"free"},{"bike_id":"4221ef51-b6f7-48eb-89db-3c2c7f768117","system_id":"levelo_inurba_marseille","lat":43.26195,"lon":5.37928,"is_reserved":false,"is_disabled":false,"rental_uris":{"android":"levelo://app?vid=4221ef51-b6f7-48eb-89db-3c2c7f768117","ios":"levelo://app?vid=4221ef51-b6f7-48eb-89db-3c2c7f768117"},"vehicle_type_id":"4","last_reported":1687028656,"current_range_meters":30800,"station_id":"ce4bhjp2rcd13ifvqg90","pricing_plan_id":"free"},{"bike_id":"c2e574b9-974c-43e3-821e-6e687809d3ff","system_id":"levelo_inurba_marseille","lat":43.271388,"lon":5.409269,"is_reserved":false,"is_disabled":false,"rental_uris":{"android":"levelo://app?vid=c2e574b9-974c-43e3-821e-6e687809d3ff","ios":"levelo://app?vid=c2e574b9-974c-43e3-821e-6e687809d3ff"},"vehicle_type_id":"4","last_reported":1687028656,"current_range_meters":0,"station_id":"ce4bhl12rcd13ifvqgf0","pricing_plan_id":"free"},