{"last_updated":1752675065,"ttl":60,"version":"2.2","data":{"bikes":[{"bike_id":"53b742a7-31ae-4272-9bba-7740339e2a2f","system_id":"levelo_inurba_marseille","lat":43.33747,"lon":5.37463,"is_reserved":false,"is_disabled":false,"rental_uris":{"android":"levelo://app?vid=53b742a7-31ae-4272-9bba-7740339e2a2f","ios":"levelo://app?vid=53b742a7-31ae-4272-9bba-7740339e2a2f"},"vehicle_type_id":"1","last_reported":1752675065,"current_range_meters":28400,"station_id":"","pricing_plan_id":"cebpf4jnsgd1na2vs0mg"},{"bike_id":"668d5070-58e3-401b-a9e2-a256f7eed9c9","system_id":"levelo_inurba_marseille","lat":43.29895,"lon":5.43672,"is_reserved":false,"is_disabled":false,"rental_uris":{"android":"levelo://app?vid=668d5070-58e3-401b-a9e2-a256f7eed9c9","ios":"levelo://app?vid=668d5070-58e3-401b-a9e2-a256f7eed9c9"},"vehicle_type_id":"4","last_reported":1752675065,"current_range_meters":2800,"station_id":"ce4bhpp2rcd13ifvqhfg","pricing_plan_id":"cebpf4jnsgd1na2vs0mg"},{"bike_id":"f3be0cb3-d133-4851-a1f0-a04efb585ab7","system_id":"levelo_inurba_marseille","lat":43.312191,"lon":5.368563,"is_reserved":false,"is_disabled":false,"rental_uris":{"android":"levelo://app?vid=f3be0cb3-d133-4851-a1f0-a04efb585ab7","ios":"levelo://app?vid=f3be0cb3-d133-4851-a1f0-a04efb585ab7"},"vehicle_type_id":"4","last_reported":1752675065,"current_range_meters":2000,"station_id":"ce4bgl92rcd13ifvqbq0","pricing_plan_id":"cebpf4jnsgd1na2vs0mg"},{"bike_id":"2ecc4f9e-2b47-47d9-8313-518cca8a5cd3","system_id":"levelo_inurba_marseille","lat":43.267449,"lon":5.397966,"is_reserved":false,"is_disabled":false,"rental_uris":{"android":"levelo://app?vid=2ecc4f9e-2b47-47d9-8313-518cca8a5cd3","ios":"levelo://app?vid=2ecc4f9e-2b47-47d9-8313-518cca8a5cd3"},"vehicle_type_id":"4","last_reported":1752675065,"current_range_meters":2800,"station_id":"","pricing_plan_id":"cebpf4jnsgd1na2vs0mg"},{"bike_id":"0517f226-9c35-473e-b2c6-52179b326362","system_id":"levelo_inurba_marseille","lat":43.282639,"lon":5.350543,"is_reserved":false,"is_disabled":false,"rental_uris":{"android":"levelo://app?vid=0517f226-9c35-473e-b2c6-52179b326362","ios":"levelo://app?vid=0517f226-9c35-473e-b2c6-52179b326362"},"vehicle_type_id":"4","last_reported":1752675065,"current_range_meters":3600,"station_id":"","pricing_plan_id":"cebpf4jnsgd1na2vs0mg"},{"bike_id":"6368de16-d144-4f73-833e-ca19d2aeee12","system_id":"levelo_inurba_marseille","lat":43.22531,"lon":5.34767,"is_reserved":false,"is_disabled":false,"rental_uris":{"android":"levelo://app?vid=6368de16-d144-4f73-833e-ca19d2aeee12","ios":"levelo://app?vid=6368de16-d144-4f73-833e-ca19d2aeee12"},"vehicle_type_id":"4","last_reported":1752675065,"current_range_meters":3600,"station_id":"st_cvj5dfep6f1abm77gieg","pricing_plan_id":"cebpf4jnsgd1na2vs0mg"},{"bike_id":"99f40ade-a9a1-4ecd-8e3a-d42591531b8e","system_id":"levelo_inurba_marseille","lat":43.27372,"lon":5.36263,"is_reserved":false,"is_disabled":false,"rental_uris":{"android":"levelo://app?vid=99f40ade-a9a1-4ecd-8e3a-d42591531b8e","ios":"levelo://app?vid=99f40ade-a9a1-4ecd-8e3a-d42591531b8e"},"vehicle_type_id":"4","last_reported":1752675065,"current_range_meters":3600,"station_id":"ce4bhbh2rcd13ifvqeo0","pricing_plan_id":"cebpf4jnsgd1na2vs0mg"},{"bike_id":"63a37caa-2080-4103-b6d2-c73927e8c03c","system_id":"levelo_inurba_marseille","lat":43.28939,"lon":5.36637,"is_reserved":false,"is_disabled":false,"rental_uris":{"android":"levelo://app?vid=63a37caa-2080-4103-b6d2-c73927e8c03c","ios":"levelo://app?vid=63a37caa-2080-4103-b6d2-c73927e8c03c"},"vehicle_type_id":"4","last_reported":1752675065,"current_range_meters":4000,"station_id":"ce4bhap2rcd13ifvqek0","pricing_plan_id":"cebpf4jnsgd1na2vs0mg"},{"bike_id":"8467321d-3a8c-4f2a-a0b4-f3f2ba3bc6b2","system_id":"levelo_inurba_marseille","lat":43.28612,"lon":5.35107,"is_reserved":false,"is_disabled":false,"rental_uris":{"android":"levelo://app?vid=8467321d-3a8c-4f2a-a0b4-f3f2ba3bc6b2","ios":"levelo://app?vid=8467321d-3a8c-4f2a-a0b4-f3f2ba3bc6b2"},"vehicle_type_id":"4","last_reported":1752675065,"current_range_meters":4000,"station_id":"ce4bhch2rcd13ifvqeug","pricing_plan_id":"cebpf4jnsgd1na2vs0mg"},{"bike_id":"b10f26b5-be06-4881-b1dd-d027bf63fce3","system_id":"levelo_inurba_marseille","lat":43.28998,"lon":5.35608,"is_reserved":false,"is_disabled":false,"rental_uris":{"android":"levelo://app?vid=b10f26b5-be06-4881-b1dd-d027bf63fce3","ios":"levelo://app?vid=b10f26b5-be06-4881-b1dd-d027bf63fce3"},"vehicle_type_id":"4","last_reported":1752675065,"current_range_meters":4000,"station_id":"ce4bhb92rcd13ifvqen0","pricing_plan_id":"cebpf4jnsgd1na2vs0mg"},{"bike_id":"dc69c86a-64bb-4d69-b885-0301c86c3d0f","system_id":"levelo_inurba_marseille","lat":43.29928,"lon":5.36544,"is_reserved":false,"is_disabled":false,"rental_uris":{"android":"levelo://app?vid=dc69c86a-64bb-4d69-b885-0301c86c3d0f","ios":"levelo://app?vid=dc69c86a-64bb-4d69-b885-0301c86c3d0f"},"vehicle_type_id":"4","last_reported":1752675065,"current_range_meters":4000,"station_id":"ce4bgm92rcd13ifvqbr0","pricing_plan_id":"cebpf4jnsgd1na2vs0mg"},{"bike_id":"17c934c0-f0d3-4eb2-aeff-ba8dd88e16b8","system_id":"levelo_inurba_marseille","lat":43.292534,"lon":5.376396,"is_reserved":false,"is_disabled":false,"rental_uris":{"android":"levelo://app?vid=17c934c0-f0d3-4eb2-aeff-ba8dd88e16b8","ios":"levelo://app?vid=17c934c0-f0d3-4eb2-aeff-ba8dd88e16b8"},"vehicle_type_id":"4","last_reported":1752675065,"current_range_meters":4400,"station_id":"","pricing_plan_id":"cebpf4jnsgd1na2vs0mg"},{"bike_id":"d6832b6d-c617-4c03-a10b-de857b83d991","system_id":"levelo_inurba_marseille","lat":43.273836,"lon":5.362767,"is_reserved":false,"is_disabled":false,"rental_uris":{"android":"levelo://app?vid=d6832b6d-c617-4c03-a10b-de857b83d991","ios":"levelo://app?vid=d6832b6d-c617-4c03-a10b-de857b83d991"},"vehicle_type_id":"4","last_reported":1752675065,"current_range_meters":4400,"station_id":"ce4bhbh2rcd13ifvqeo0","pricing_plan_id":"cebpf4jnsgd1na2vs0mg"},{"bike_id":"138de04f-9d16-48f4-bc06-bbd0fd20fcad","system_id":"levelo_inurba_marseille","lat":43.28264,"lon":5.35078,"is_reserved":false,"is_disabled":false,"rental_uris":{"android":"levelo://app?vid=138de04f-9d16-48f4-bc06-bbd0fd20fcad","ios":"levelo://app?vid=138de04f-9d16-48f4-bc06-bbd0fd20fcad"},"vehicle_type_id":"4","last_reported":1752675065,"current_range_meters":4400,"station_id":"ce4bhbp2rcd13ifvqerg","pricing_plan_id":"cebpf4jnsgd1na2vs0mg"},{"bike_id":"e1a76524-e56f-459a-8ae7-1b4f7571e617","system_id":"levelo_inurba_marseille","lat":43.21747,"lon":5.346067,"is_reserved":false,"is_disabled":false,"rental_uris":{"android":"levelo://app?vid=e1a76524-e56f-459a-8ae7-1b4f7571e617","ios":"levelo://app?vid=e1a76524-e56f-459a-8ae7-1b4f7571e617"},"vehicle_type_id":"4","last_reported":1752675065,"current_range_meters":4800,"station_id":"st_cvj6r9ubvosntc0bgbag","pricing_plan_id":"cebpf4jnsgd1na2vs0mg"},{"bike_id":"4de4ea05-79f1-412e-8285-121eb8f6a9ce","system_id":"levelo_inurba_marseille","lat":43.29101,"lon":5.38128,"is_reserved":false,"is_disabled":false,"rental_uris":{"android":"levelo://app?vid=4de4ea05-79f1-412e-8285-121eb8f6a9ce","ios":"levelo://app?vid=4de4ea05-79f1-412e-8285-121eb8f6a9ce"},"vehicle_type_id":"4","last_reported":1752675065,"current_range_meters":4800,"station_id":"ce4bh512rcd13ifvqe2g","pricing_plan_id":"cebpf4jnsgd1na2vs0mg"},{"bike_id":"85176d6f-e2c9-40d8-884b-b8840304a19b","system_id":"levelo_inurba_marseille","lat":43.24669,"lon":5.38167,"is_reserved":false,"is_disabled":false,"rental_uris":{"android":"levelo://app?vid=85176d6f-e2c9-40d8-884b-b8840304a19b","ios":"levelo://app?vid=85176d6f-e2c9-40d8-884b-b8840304a19b"},"vehicle_type_id":"4","last_reported":1752675065,"current_range_meters":6000,"station_id":"ce4bhih2rcd13ifvqfr0","pricing_plan_id":"cebpf4jnsgd1na2vs0mg"},{"bike_id":"1ea0eee7-32dc-4a96-8226-e85e74faa157","system_id":"levelo_inurba_marseille","lat":43.24646,"lon":5.3889,"is_reserved":false,"is_disabled":false,"rental_uris":{"android":"levelo://app?vid=1ea0eee7-32dc-4a96-8226-e85e74faa157","ios":"levelo://app?vid=1ea0eee7-32dc-4a96-8226-e85e74faa157"},"vehicle_type_id":"4","last_reported":1752675065,"current_range_meters":6000,"station_id":"ce4bhg12rcd13ifvqf60","pricing_plan_id":"cebpf4jnsgd1na2vs0mg"},{"bike_id":"b37bbe18-8c28-46a5-960b-f87c2ba3f2fb","system_id":"levelo_inurba_marseille","lat":43.232216,"lon":5.436755,"is_reserved":false,"is_disabled":false,"rental_uris":{"android":"levelo://app?vid=b37bbe18-8c28-46a5-960b-f87c2ba3f2fb","ios":"levelo://app?vid=b37bbe18-8c28-46a5-960b-f87c2ba3f2fb"},"vehicle_type_id":"4","last_reported":1752675065,"current_range_meters":6400,"station_id":"","pricing_plan_id":"cebpf4jnsgd1na2vs0mg"},{"bike_id":"5d8c54b6-f935-4965-a2f7-8c1767a0c171","system_id":"levelo_inurba_marseille","lat":43.2941,"lon":5.38588,"is_reserved":false,"is_disabled":true,"rental_uris":{"android":"levelo://app?vid=5d8c54b6-f935-4965-a2f7-8c1767a0c171","ios":"levelo://app?vid=5d8c54b6-f935-4965-a2f7-8c1767a0c171"},"vehicle_type_id":"4","last_reported":1752675065,"current_range_meters":6400,"station_id":"ce4bh2h2rcd13ifvqdh0","pricing_plan_id":"cebpf4jnsgd1na2vs0mg"},{"bike_id":"5ff06d2e-1fcb-4f7f-b26f-494ef01051e2","system_id":"levelo_inurba_marseille","lat":43.26587,"lon":5.39483,"is_reserved":false,"is_disabled":true,"rental_uris":{"android":"levelo://app?vid=5ff06d2e-1fcb-4f7f-b26f-494ef01051e2","ios":"levelo://app?vid=5ff06d2e-1fcb-4f7f-b26f-494ef01051e2"},"vehicle_type_id":"4","last_reported":1752675065,"current_range_meters":6800,"station_id":"","pricing_plan_id":"cebpf4jnsgd1na2vs0mg"},{"bike_id":"5c45cf5e-22b0-4bf5-83b5-366fccb7856f","system_id":"levelo_inurba_marseille","lat":43.295787,"lon":5.367476,"is_reserved":false,"is_disabled":false,"rental_uris":{"android":"levelo://app?vid=5c45cf5e-22b0-4bf5-83b5-366fccb7856f","ios":"levelo://app?vid=5c45cf5e-22b0-4bf5-83b5-366fccb7856f"},"vehicle_type_id":"4","last_reported":1752675065,"current_range_meters":6800,"station_id":"ce4bgph2rcd13ifvqc2g","pricing_plan_id":"cebpf4jnsgd1na2vs0mg"},{"bike_id":"a8394133-7321-476d-9078-f942130fbf21","system_id":"levelo_inurba_marseille","lat":43.28426,"lon":5.34992,"is_reserved":false,"is_disabled":false,"rental_uris":{"android":"levelo://app?vid=a8394133-7321-476d-9078-f942130fbf21","ios":"levelo://app?vid=a8394133-7321-476d-9078-f942130fbf21"},"vehicle_type_id":"4","last_reported":1752675065,"current_range_meters":6800,"station_id":"ce4bhbh2rcd13ifvqepg","pricing_plan_id":"cebpf4jnsgd1na2vs0mg"},{"bike_id":"91eca04e-69fb-46a1-9544-292eb87430a3","system_id":"levelo_inurba_marseille","lat":43.25498,"lon":5.3765,"is_reserved":false,"is_disabled":false,"rental_uris":{"android":"levelo://app?vid=91eca04e-69fb-46a1-9544-292eb87430a3","ios":"levelo://app?vid=91eca04e-69fb-46a1-9544-292eb87430a3"},"vehicle_type_id":"4","last_reported":1752675065,"current_range_meters":6800,"station_id":"ce4bhh12rcd13ifvqff0","pricing_plan_id":"cebpf4jnsgd1na2vs0mg"},{"bike_id":"e2f2f893-16c7-42e5-8c51-893940a1136e","system_id":"levelo_inurba_marseille","lat":43.30129,"lon":5.36883,"is_reserved":false,"is_disabled":false,"rental_uris":{"android":"levelo://app?vid=e2f2f893-16c7-42e5-8c51-893940a1136e","ios":"levelo://app?vid=e2f2f893-16c7-42e5-8c51-893940a1136e"},"vehicle_type_id":"4","last_reported":1752675065,"current_range_meters":7200,"station_id":"","pricing_plan_id":"cebpf4jnsgd1na2vs0mg"},{"bike_id":"892165f6-25a5-4f0a-a9a6-cf4efe50c3be","system_id":"levelo_inurba_marseille","lat":43.24853,"lon":5.42527,"is_reserved":false,"is_disabled":false,"rental_uris":{"android":"levelo://app?vid=892165f6-25a5-4f0a-a9a6-cf4efe50c3be","ios":"levelo://app?vid=892165f6-25a5-4f0a-a9a6-cf4efe50c3be"},"vehicle_type_id":"4","last_reported":1752675065,"current_range_meters":7200,"station_id":"","pricing_plan_id":"cebpf4jnsgd1na2vs0mg"},{"bike_id":"dee06384-ed52-49d5-921a-8c88fd58cea5","system_id":"levelo_inurba_marseille","lat":43.24171,"lon":5.36399,"is_reserved":false,"is_disabled":false,"rental_uris":{"android":"levelo://app?vid=dee06384-ed52-49d5-921a-8c88fd58cea5","ios":"levelo://app?vid=dee06384-ed52-49d5-921a-8c88fd58cea5"},"vehicle_type_id":"4","last_reported":1752675065,"current_range_meters":7200,"station_id":"cpo36qri1sfpv3e86is0","pricing_plan_id":"cebpf4jnsgd1na2vs0mg"},{"bike_id":"dd5a6b61-3015-4289-bd28-bd6182572a68","system_id":"levelo_inurba_marseille","lat":43.2408,"lon":5.37754,"is_reserved":false,"is_disabled":false,"rental_uris":{"android":"levelo://app?vid=dd5a6b61-3015-4289-bd28-bd6182572a68","ios":"levelo://app?vid=dd5a6b61-3015-4289-bd28-bd6182572a68"},"vehicle_type_id":"4","last_reported":1752675065,"current_range_meters":8000,"station_id":"ce4bhnp2rcd13ifvqgvg","pricing_plan_id":"cebpf4jnsgd1na2vs0mg"},{"bike_id":"9a61f196-4a40-4de1-9b4f-ac35c77ecd3a","system_id":"levelo_inurba_marseille","lat":43.30146,"lon":5.38073,"is_reserved":false,"is_disabled":false,"rental_uris":{"android":"levelo://app?vid=9a61f196-4a40-4de1-9b4f-ac35c77ecd3a","ios":"levelo://app?vid=9a61f196-4a40-4de1-9b4f-ac35c77ecd3a"},"vehicle_type_id":"4","last_reported":1752675065,"current_range_meters":8000,"station_id":"ce4bgjp2rcd13ifvqbh0","pricing_plan_id":"cebpf4jnsgd1na2vs0mg"},{"bike_id":"e53b3c0b-8c33-4d47-ba77-d3ac85394bb3","system_id":"levelo_inurba_marseille","lat":43.23158,"lon":5.43704,"is_reserved":false,"is_disabled":false,"rental_uris":{"android":"levelo://app?vid=e53b3c0b-8c33-4d47-ba77-d3ac85394bb3","ios":"levelo://app?vid=e53b3c0b-8c33-4d47-ba77-d3ac85394bb3"},"vehicle_type_id":"4","last_reported":1752675065,"current_range_meters":8000,"station_id":"ce4bhmp2rcd13ifvqgog","pricing_plan_id":"cebpf4jnsgd1na2vs0mg"},{"bike_id":"207b7a8a-0a64-456e-be5e-f3f1d764a0f7","system_id":"levelo_inurba_marseille","lat":43.28263,"lon":5.35071,"is_reserved":false,"is_disabled":false,"rental_uris":{"android":"levelo://app?vid=207b7a8a-0a64-456e-be5e-f3f1d764a0f7","ios":"levelo://app?vid=207b7a8a-0a64-456e-be5e-f3f1d764a0f7"},"vehicle_type_id":"4","last_reported":1752675065,"current_range_meters":8400,"station_id":"ce4bhbp2rcd13ifvqerg","pricing_plan_id":"cebpf4jnsgd1na2vs0mg"},{"bike_id":"8cb3dc31-76c0-43f5-9f5e-08870f242ba4","system_id":"levelo_inurba_marseille","lat":43.312492,"lon":5.40163,"is_reserved":false,"is_disabled":false,"rental_uris":{"android":"levelo://app?vid=8cb3dc31-76c0-43f5-9f5e-08870f242ba4","ios":"levelo://app?vid=8cb3dc31-76c0-43f5-9f5e-08870f242ba4"},"vehicle_type_id":"4","last_reported":1752675065,"current_range_meters":8000,"station_id":"ce4bh092rcd13ifvqd30","pricing_plan_id":"cebpf4jnsgd1na2vs0mg"},{"bike_id":"e5ec4b25-dbcc-42eb-bf86-2cca309a0b15","system_id":"levelo_inurba_marseille","lat":43.264945,"lon":5.395365,"is_reserved":false,"is_disabled":true,"rental_uris":{"android":"levelo://app?vid=e5ec4b25-dbcc-42eb-bf86-2cca309a0b15","ios":"levelo://app?vid=e5ec4b25-dbcc-42eb-bf86-2cca309a0b15"},"vehicle_type_id":"4","last_reported":1752675065,"current_range_meters":8400,"station_id":"","pricing_plan_id":"cebpf4jnsgd1na2vs0mg"},{"bike_id":"4d7f7932-844e-4c4f-8861-e8ca557f7551","system_id":"levelo_inurba_marseille","lat":43.27179,"lon":5.409846,"is_reserved":false,"is_disabled":false,"rental_uris":{"android":"levelo://app?vid=4d7f7932-844e-4c4f-8861-e8ca557f7551","ios":"levelo://app?vid=4d7f7932-844e-4c4f-8861-e8ca557f7551"},"vehicle_type_id":"4","last_reported":1752675065,"current_range_meters":8800,"station_id":"ce4bhl12rcd13ifvqgf0","pricing_plan_id":"cebpf4jnsgd1na2vs0mg"},{"bike_id":"57d05b3d-f2a2-4b05-9268-cffce73cd703","system_id":"levelo_inurba_marseille","lat":43.26212,"lon":5.37441,"is_reserved":false,"is_disabled":false,"rental_uris":{"android":"levelo://app?vid=57d05b3d-f2a2-4b05-9268-cffce73cd703","ios":"levelo://app?vid=57d05b3d-f2a2-4b05-9268-cffce73cd703"},"vehicle_type_id":"4","last_reported":1752675065,"current_range_meters":8800,"station_id":"ce4bhgp2rcd13ifvqfc0","pricing_plan_id":"cebpf4jnsgd1na2vs0mg"},{"bike_id":"4aebfed3-7824-456f-9c15-faae5ddfe2c9","system_id":"levelo_inurba_marseille","lat":43.25821,"lon":5.39439,"is_reserved":false,"is_disabled":false,"rental_uris":{"android":"levelo://app?vid=4aebfed3-7824-456f-9c15-faae5ddfe2c9","ios":"levelo://app?vid=4aebfed3-7824-456f-9c15-faae5ddfe2c9"},"vehicle_type_id":"4","last_reported":1752675065,"current_range_meters":7200,"station_id":"ce4bhip2rcd13ifvqft0","pricing_plan_id":"cebpf4jnsgd1na2vs0mg"},{"bike_id":"a8ce6efe-50ae-4699-a953-570b09452efb","system_id":"levelo_inurba_marseille","lat":43.25015,"lon":5.38914,"is_reserved":false,"is_disabled":true,"rental_uris":{"android":"levelo://app?vid=a8ce6efe-50ae-4699-a953-570b09452efb","ios":"levelo://app?vid=a8ce6efe-50ae-4699-a953-570b09452efb"},"vehicle_type_id":"4","last_reported":1752675065,"current_range_meters":8800,"station_id":"ce4bhgp2rcd13ifvqfd0","pricing_plan_id":"cebpf4jnsgd1na2vs0mg"},{"bike_id":"8a11f174-da58-4934-bb69-d8a96ed4d11e","system_id":"levelo_inurba_marseille","lat":43.29013,"lon":5.35614,"is_reserved":false,"is_disabled":false,"rental_uris":{"android":"levelo://app?vid=8a11f174-da58-4934-bb69-d8a96ed4d11e","ios":"levelo://app?vid=8a11f174-da58-4934-bb69-d8a96ed4d11e"},"vehicle_type_id":"4","last_reported":1752675065,"current_range_meters":8800,"station_id":"ce4bhb92rcd13ifvqen0","pricing_plan_id":"cebpf4jnsgd1na2vs0mg"},{"bike_id":"4409158c-0e42-4505-b036-6f038dda32f6","system_id":"levelo_inurba_marseille","lat":43.30553,"lon":5.36566,"is_reserved":false,"is_disabled":false,"rental_uris":{"android":"levelo://app?vid=4409158c-0e42-4505-b036-6f038dda32f6","ios":"levelo://app?vid=4409158c-0e42-4505-b036-6f038dda32f6"},"vehicle_type_id":"4","last_reported":1752675065,"current_range_meters":9200,"station_id":"ce4bgs12rcd13ifvqcag","pricing_plan_id":"cebpf4jnsgd1na2vs0mg"},{"bike_id":"38193aff-d8cf-464e-98b9-b38895efd882","system_id":"levelo_inurba_marseille","lat":43.21743,"lon":5.3461,"is_reserved":false,"is_disabled":false,"rental_uris":{"android":"levelo://app?vid=38193aff-d8cf-464e-98b9-b38895efd882","ios":"levelo://app?vid=38193aff-d8cf-464e-98b9-b38895efd882"},"vehicle_type_id":"4","last_reported":1752675065,"current_range_meters":9200,"station_id":"","pricing_plan_id":"cebpf4jnsgd1na2vs0mg"},{"bike_id":"51396765-9ad0-4d1d-a813-68fff86b2907","system_id":"levelo_inurba_marseille","lat":43.30476,"lon":5.36689,"is_reserved":false,"is_disabled":false,"rental_uris":{"android":"levelo://app?vid=51396765-9ad0-4d1d-a813-68fff86b2907","ios":"levelo://app?vid=51396765-9ad0-4d1d-a813-68fff86b2907"},"vehicle_type_id":"4","last_reported":1752675065,"current_range_meters":9200,"station_id":"","pricing_plan_id":"cebpf4jnsgd1na2vs0mg"},{"bike_id":"f6b1703f-5b3d-466f-b148-49916432dd1d","system_id":"levelo_inurba_marseille","lat":43.29591,"lon":5.3811,"is_reserved":false,"is_disabled":false,"rental_uris":{"android":"levelo://app?vid=f6b1703f-5b3d-466f-b148-49916432dd1d","ios":"levelo://app?vid=f6b1703f-5b3d-466f-b148-49916432dd1d"},"vehicle_type_id":"4","last_reported":1752675065,"current_range_meters":9200,"station_id":"ce4bgl12rcd13ifvqbo0","pricing_plan_id":"cebpf4jnsgd1na2vs0mg"},{"bike_id":"63352cbb-ab13-4643-be00-5fc26cb4d2c3","system_id":"levelo_inurba_marseille","lat":43.22944,"lon":5.35363,"is_reserved":false,"is_disabled":true,"rental_uris":{"android":"levelo://app?vid=63352cbb-ab13-4643-be00-5fc26cb4d2c3","ios":"levelo://app?vid=63352cbb-ab13-4643-be00-5fc26cb4d2c3"},"vehicle_type_id":"4","last_reported":1752675065,"current_range_meters":9200,"station_id":"cpo3532slgdg3j2ikp40","pricing_plan_id":"cebpf4jnsgd1na2vs0mg"},{"bike_id":"080b0f22-14dd-4044-a18f-ee7f74366cea","system_id":"levelo_inurba_marseille","lat":43.31999,"lon":5.38136,"is_reserved":false,"is_disabled":true,"rental_uris":{"android":"levelo://app?vid=080b0f22-14dd-4044-a18f-ee7f74366cea","ios":"levelo://app?vid=080b0f22-14dd-4044-a18f-ee7f74366cea"},"vehicle_type_id":"4","last_reported":1752675065,"current_range_meters":9200,"station_id":"ce4bhr12rcd13ifvqhpg","pricing_plan_id":"cebpf4jnsgd1na2vs0mg"},{"bike_id":"9a110aab-9222-46d5-b5a4-4ee5c55e3117","system_id":"levelo_inurba_marseille","lat":43.29509,"lon":5.39403,"is_reserved":false,"is_disabled":false,"rental_uris":{"android":"levelo://app?vid=9a110aab-9222-46d5-b5a4-4ee5c55e3117","ios":"levelo://app?vid=9a110aab-9222-46d5-b5a4-4ee5c55e3117"},"vehicle_type_id":"4","last_reported":1752675065,"current_range_meters":9600,"station_id":"ce4bh292rcd13ifvqdf0","pricing_plan_id":"cebpf4jnsgd1na2vs0mg"},{"bike_id":"3127f4d3-2259-439a-b6c9-6b25fd4c5ca0","system_id":"levelo_inurba_marseille","lat":43.25498,"lon":5.37651,"is_reserved":false,"is_disabled":false,"rental_uris":{"android":"levelo://app?vid=3127f4d3-2259-439a-b6c9-6b25fd4c5ca0","ios":"levelo://app?vid=3127f4d3-2259-439a-b6c9-6b25fd4c5ca0"},"vehicle_type_id":"4","last_reported":1752675065,"current_range_meters":9600,"station_id":"ce4bhh12rcd13ifvqff0","pricing_plan_id":"cebpf4jnsgd1na2vs0mg"},{"bike_id":"c609b2d7-b70d-4111-8c8a-220e7f77dd25","system_id":"levelo_inurba_marseille","lat":43.29532,"lon":5.38559,"is_reserved":false,"is_disabled":false,"rental_uris":{"android":"levelo://app?vid=c609b2d7-b70d-4111-8c8a-220e7f77dd25","ios":"levelo://app?vid=c609b2d7-b70d-4111-8c8a-220e7f77dd25"},"vehicle_type_id":"4","last_reported":1752675065,"current_range_meters":9600,"station_id":"ce4bgih2rcd13ifvqba0","pricing_plan_id":"cebpf4jnsgd1na2vs0mg"},{"bike_id":"d98ef30e-38a0-41ef-a00a-304afa979a1e","system_id":"levelo_inurba_marseille","lat":43.29912,"lon":5.43645,"is_reserved":false,"is_disabled":true,"rental_uris":{"android":"levelo://app?vid=d98ef30e-38a0-41ef-a00a-304afa979a1e","ios":"levelo://app?vid=d98ef30e-38a0-41ef-a00a-304afa979a1e"},"vehicle_type_id":"4","last_reported":1752675065,"current_range_meters":10000,"station_id":"ce4bhpp2rcd13ifvqhfg","pricing_plan_id":"cebpf4jnsgd1na2vs0mg"},{"bike_id":"fd98485d-d049-4777-ad0b-170381c262c9","system_id":"levelo_inurba_marseille","lat":43.29058,"lon":5.37583,"is_reserved":false,"is_disabled":false,"rental_uris":{"android":"levelo://app?vid=fd98485d-d049-4777-ad0b-170381c262c9","ios":"levelo://app?vid=fd98485d-d049-4777-ad0b-170381c262c9"},"vehicle_type_id":"4","last_reported":1752675065,"current_range_meters":10000,"station_id":"ce4bh692rcd13ifvqe90","pricing_plan_id":"cebpf4jnsgd1na2vs0mg"},{"bike_id":"0011b263-5856-466d-abb3-7dcc94ac73d0","system_id":"levelo_inurba_marseille","lat":43.289406,"lon":5.364004,"is_reserved":false,"is_disabled":true,"rental_uris":{"android":"levelo://app?vid=0011b263-5856-466d-abb3-7dcc94ac73d0","ios":"levelo://app?vid=0011b263-5856-466d-abb3-7dcc94ac73d0"},"vehicle_type_id":"4","last_reported":1752675065,"current_range_meters":10000,"station_id":"ce4bhc92rcd13ifvqetg","pricing_plan_id":"cebpf4jnsgd1na2vs0mg"},{"bike_id":"adfe475e-4fad-42ce-985f-b88b312e5e64","system_id":"levelo_inurba_marseille","lat":43.29452,"lon":5.3754,"is_reserved":false,"is_disabled":false,"rental_uris":{"android":"levelo://app?vid=adfe475e-4fad-42ce-985f-b88b312e5e64","ios":"levelo://app?vid=adfe475e-4fad-42ce-985f-b88b312e5e64"},"vehicle_type_id":"4","last_reported":1752675065,"current_range_meters":10000,"station_id":"","pricing_plan_id":"cebpf4jnsgd1na2vs0mg"},{"bike_id":"e49560d1-e519-467e-8e64-11772df27d40","system_id":"levelo_inurba_marseille","lat":43.3083,"lon":5.37506,"is_reserved":false,"is_disabled":false,"rental_uris":{"android":"levelo://app?vid=e49560d1-e519-467e-8e64-11772df27d40","ios":"levelo://app?vid=e49560d1-e519-467e-8e64-11772df27d40"},"vehicle_type_id":"4","last_reported":1752675065,"current_range_meters":10000,"station_id":"","pricing_plan_id":"cebpf4jnsgd1na2vs0mg"},{"bike_id":"74b4390d-0242-429b-b32a-0523a3e24ef3","system_id":"levelo_inurba_marseille","lat":43.25446,"lon":5.37608,"is_reserved":false,"is_disabled":false,"rental_uris":{"android":"levelo://app?vid=74b4390d-0242-429b-b32a-0523a3e24ef3","ios":"levelo://app?vid=74b4390d-0242-429b-b32a-0523a3e24ef3"},"vehicle_type_id":"4","last_reported":1752675065,"current_range_meters":10800,"station_id":"","pricing_plan_id":"cebpf4jnsgd1na2vs0mg"},{"bike_id":"0cdfd922-f010-4505-b6cf-793d2eb7876c","system_id":"levelo_inurba_marseille","lat":43.30285,"lon":5.37708,"is_reserved":false,"is_disabled":false,"rental_uris":{"android":"levelo://app?vid=0cdfd922-f010-4505-b6cf-793d2eb7876c","ios":"levelo://app?vid=0cdfd922-f010-4505-b6cf-793d2eb7876c"},"vehicle_type_id":"4","last_reported":1752675065,"current_range_meters":10800,"station_id":"ce4bguh2rcd13ifvqcj0","pricing_plan_id":"cebpf4jnsgd1na2vs0mg"},{"bike_id":"ce206ae7-13ca-48a7-9057-4005edd7366a","system_id":"levelo_inurba_marseille","lat":43.30548,"lon":5.36551,"is_reserved":false,"is_disabled":false,"rental_uris":{"android":"levelo://app?vid=ce206ae7-13ca-48a7-9057-4005edd7366a","ios":"levelo://app?vid=ce206ae7-13ca-48a7-9057-4005edd7366a"},"vehicle_type_id":"4","last_reported":1752675065,"current_range_meters":10800,"station_id":"ce4bgs12rcd13ifvqcag","pricing_plan_id":"cebpf4jnsgd1na2vs0mg"},{"bike_id":"860358d7-ecde-4a81-807d-7cbabb744050","system_id":"levelo_inurba_marseille","lat":43.28858,"lon":5.35848,"is_reserved":false,"is_disabled":false,"rental_uris":{"android":"levelo://app?vid=860358d7-ecde-4a81-807d-7cbabb744050","ios":"levelo://app?vid=860358d7-ecde-4a81-807d-7cbabb744050"},"vehicle_type_id":"4","last_reported":1752675065,"current_range_meters":10800,"station_id":"ce4bhb12rcd13ifvqem0","pricing_plan_id":"cebpf4jnsgd1na2vs0mg"},{"bike_id":"b733d901-5f75-4493-9960-b987b87cd8f7","system_id":"levelo_inurba_marseille","lat":43.22544,"lon":5.34833,"is_reserved":false,"is_disabled":false,"rental_uris":{"android":"levelo://app?vid=b733d901-5f75-4493-9960-b987b87cd8f7","ios":"levelo://app?vid=b733d901-5f75-4493-9960-b987b87cd8f7"},"vehicle_type_id":"4","last_reported":1752675065,"current_range_meters":10800,"station_id":"","pricing_plan_id":"cebpf4jnsgd1na2vs0mg"},{"bike_id":"2dea1e72-5f49-4f71-8334-0b7b1b4fb68f","system_id":"levelo_inurba_marseille","lat":43.30537,"lon":5.36522,"is_reserved":false,"is_disabled":false,"rental_uris":{"android":"levelo://app?vid=2dea1e72-5f49-4f71-8334-0b7b1b4fb68f","ios":"levelo://app?vid=2dea1e72-5f49-4f71-8334-0b7b1b4fb68f"},"vehicle_type_id":"4","last_reported":1752675065,"current_range_meters":10800,"station_id":"ce4bgs12rcd13ifvqcag","pricing_plan_id":"cebpf4jnsgd1na2vs0mg"},{"bike_id":"3be42815-8edc-4ee6-be53-8ab0bec652b2","system_id":"levelo_inurba_marseille","lat":43.28272,"lon":5.3506,"is_reserved":false,"is_disabled":false,"rental_uris":{"android":"levelo://app?vid=3be42815-8edc-4ee6-be53-8ab0bec652b2","ios":"levelo://app?vid=3be42815-8edc-4ee6-be53-8ab0bec652b2"},"vehicle_type_id":"4","last_reported":1752675065,"current_range_meters":10800,"station_id":"ce4bhbp2rcd13ifvqerg","pricing_plan_id":"cebpf4jnsgd1na2vs0mg"},{"bike_id":"a8fa3032-6b80-4821-a5a5-27332eeffd22","system_id":"levelo_inurba_marseille","lat":43.28407,"lon":5.35,"is_reserved":false,"is_disabled":false,"rental_uris":{"android":"levelo://app?vid=a8fa3032-6b80-4821-a5a5-27332eeffd22","ios":"levelo://app?vid=a8fa3032-6b80-4821-a5a5-27332eeffd22"},"vehicle_type_id":"4","last_reported":1752675065,"current_range_meters":10800,"station_id":"ce4bhbh2rcd13ifvqepg","pricing_plan_id":"cebpf4jnsgd1na2vs0mg"},{"bike_id":"dcced21d-6d80-4713-9923-459fb5eb160b","system_id":"levelo_inurba_marseille","lat":43.26566,"lon":5.39022,"is_reserved":false,"is_disabled":false,"rental_uris":{"android":"levelo://app?vid=dcced21d-6d80-4713-9923-459fb5eb160b","ios":"levelo://app?vid=dcced21d-6d80-4713-9923-459fb5eb160b"},"vehicle_type_id":"4","last_reported":1752675065,"current_range_meters":11200,"station_id":"ce4bhe12rcd13ifvqf30","pricing_plan_id":"cebpf4jnsgd1na2vs0mg"},{"bike_id":"0a0159e0-e5eb-4bf0-870d-5196ffb1dabd","system_id":"levelo_inurba_marseille","lat":43.28865,"lon":5.35843,"is_reserved":false,"is_disabled":false,"rental_uris":{"android":"levelo://app?vid=0a0159e0-e5eb-4bf0-870d-5196ffb1dabd","ios":"levelo://app?vid=0a0159e0-e5eb-4bf0-870d-5196ffb1dabd"},"vehicle_type_id":"4","last_reported":1752675065,"current_range_meters":10800,"station_id":"ce4bhb12rcd13ifvqem0","pricing_plan_id":"cebpf4jnsgd1na2vs0mg"},{"bike_id":"5c46f87d-f5a6-45b1-b1bd-fa3380c1da78","system_id":"levelo_inurba_marseille","lat":43.23969,"lon":5.36624,"is_reserved":false,"is_disabled":false,"rental_uris":{"android":"levelo://app?vid=5c46f87d-f5a6-45b1-b1bd-fa3380c1da78","ios":"levelo://app?vid=5c46f87d-f5a6-45b1-b1bd-fa3380c1da78"},"vehicle_type_id":"4","last_reported":1752675065,"current_range_meters":11200,"station_id":"ce4bhi12rcd13ifvqfp0","pricing_plan_id":"cebpf4jnsgd1na2vs0mg"},{"bike_id":"5cde9e68-0b1a-4128-bdca-c73db29e24e3","system_id":"levelo_inurba_marseille","lat":43.26231,"lon":5.40475,"is_reserved":false,"is_disabled":false,"rental_uris":{"android":"levelo://app?vid=5cde9e68-0b1a-4128-bdca-c73db29e24e3","ios":"levelo://app?vid=5cde9e68-0b1a-4128-bdca-c73db29e24e3"},"vehicle_type_id":"4","last_reported":1752675065,"current_range_meters":11200,"station_id":"ce4bhmh2rcd13ifvqgmg","pricing_plan_id":"cebpf4jnsgd1na2vs0mg"},{"bike_id":"8b82d8ec-5eb0-4c33-8bb4-fca2e972545c","system_id":"levelo_inurba_marseille","lat":43.28613,"lon":5.35106,"is_reserved":false,"is_disabled":false,"rental_uris":{"android":"levelo://app?vid=8b82d8ec-5eb0-4c33-8bb4-fca2e972545c","ios":"levelo://app?vid=8b82d8ec-5eb0-4c33-8bb4-fca2e972545c"},"vehicle_type_id":"4","last_reported":1752675065,"current_range_meters":11600,"station_id":"ce4bhch2rcd13ifvqeug","pricing_plan_id":"cebpf4jnsgd1na2vs0mg"},{"bike_id":"0c87efc2-d716-4eb2-a6a1-3cfa014c925f","system_id":"levelo_inurba_marseille","lat":43.30922,"lon":5.40153,"is_reserved":false,"is_disabled":false,"rental_uris":{"android":"levelo://app?vid=0c87efc2-d716-4eb2-a6a1-3cfa014c925f","ios":"levelo://app?vid=0c87efc2-d716-4eb2-a6a1-3cfa014c925f"},"vehicle_type_id":"4","last_reported":1752675065,"current_range_meters":11200,"station_id":"ce4bgvp2rcd13ifvqct0","pricing_plan_id":"cebpf4jnsgd1na2vs0mg"},{"bike_id":"d1dab42f-d9be-40b0-b811-927312a34d0e","system_id":"levelo_inurba_marseille","lat":43.28927,"lon":5.38395,"is_reserved":false,"is_disabled":false,"rental_uris":{"android":"levelo://app?vid=d1dab42f-d9be-40b0-b811-927312a34d0e","ios":"levelo://app?vid=d1dab42f-d9be-40b0-b811-927312a34d0e"},"vehicle_type_id":"4","last_reported":1752675065,"current_range_meters":11200,"station_id":"ce4bh612rcd13ifvqe6g","pricing_plan_id":"cebpf4jnsgd1na2vs0mg"},{"bike_id":"54b283c6-c314-444c-b492-3e78ed7f2d30","system_id":"levelo_inurba_marseille","lat":43.329271,"lon":5.390526,"is_reserved":false,"is_disabled":false,"rental_uris":{"android":"levelo://app?vid=54b283c6-c314-444c-b492-3e78ed7f2d30","ios":"levelo://app?vid=54b283c6-c314-444c-b492-3e78ed7f2d30"},"vehicle_type_id":"4","last_reported":1752675065,"current_range_meters":12000,"station_id":"","pricing_plan_id":"cebpf4jnsgd1na2vs0mg"},{"bike_id":"18e63307-2e2f-4b10-807e-7a8ed91df0e5","system_id":"levelo_inurba_marseille","lat":43.30547,"lon":5.36534,"is_reserved":false,"is_disabled":false,"rental_uris":{"android":"levelo://app?vid=18e63307-2e2f-4b10-807e-7a8ed91df0e5","ios":"levelo://app?vid=18e63307-2e2f-4b10-807e-7a8ed91df0e5"},"vehicle_type_id":"4","last_reported":1752675065,"current_range_meters":12000,"station_id":"ce4bgs12rcd13ifvqcag","pricing_plan_id":"cebpf4jnsgd1na2vs0mg"},{"bike_id":"435b9434-4c5e-489a-bd2a-fabc2311df9d","system_id":"levelo_inurba_marseille","lat":43.30511,"lon":5.36644,"is_reserved":false,"is_disabled":false,"rental_uris":{"android":"levelo://app?vid=435b9434-4c5e-489a-bd2a-fabc2311df9d","ios":"levelo://app?vid=435b9434-4c5e-489a-bd2a-fabc2311df9d"},"vehicle_type_id":"4","last_reported":1752675065,"current_range_meters":12000,"station_id":"","pricing_plan_id":"cebpf4jnsgd1na2vs0mg"},{"bike_id":"c3ae7d25-674b-46b7-9c26-eec7812f322f","system_id":"levelo_inurba_marseille","lat":43.30322,"lon":5.36911,"is_reserved":false,"is_disabled":false,"rental_uris":{"android":"levelo://app?vid=c3ae7d25-674b-46b7-9c26-eec7812f322f","ios":"levelo://app?vid=c3ae7d25-674b-46b7-9c26-eec7812f322f"},"vehicle_type_id":"4","last_reported":1752675065,"current_range_meters":12400,"station_id":"ce4bgqh2rcd13ifvqc5g","pricing_plan_id":"cebpf4jnsgd1na2vs0mg"},{"bike_id":"499a8f92-a7c2-4691-9a19-d1914d0d110b","system_id":"levelo_inurba_marseille","lat":43.231882,"lon":5.399823,"is_reserved":false,"is_disabled":false,"rental_uris":{"android":"levelo://app?vid=499a8f92-a7c2-4691-9a19-d1914d0d110b","ios":"levelo://app?vid=499a8f92-a7c2-4691-9a19-d1914d0d110b"},"vehicle_type_id":"4","last_reported":1752675065,"current_range_meters":12400,"station_id":"ce4bhn12rcd13ifvqgqg","pricing_plan_id":"cebpf4jnsgd1na2vs0mg"},{"bike_id":"a1bf1b60-3e6f-404a-b752-6653d7e1a9bb","system_id":"levelo_inurba_marseille","lat":43.29713,"lon":5.36592,"is_reserved":false,"is_disabled":false,"rental_uris":{"android":"levelo://app?vid=a1bf1b60-3e6f-404a-b752-6653d7e1a9bb","ios":"levelo://app?vid=a1bf1b60-3e6f-404a-b752-6653d7e1a9bb"},"vehicle_type_id":"4","last_reported":1752675065,"current_range_meters":12400,"station_id":"ce4bgn12rcd13ifvqbt0","pricing_plan_id":"cebpf4jnsgd1na2vs0mg"},{"bike_id":"2fedaa59-d76c-486b-a308-342525122403","system_id":"levelo_inurba_marseille","lat":43.303125,"lon":5.36913,"is_reserved":false,"is_disabled":false,"rental_uris":{"android":"levelo://app?vid=2fedaa59-d76c-486b-a308-342525122403","ios":"levelo://app?vid=2fedaa59-d76c-486b-a308-342525122403"},"vehicle_type_id":"4","last_reported":1752675065,"current_range_meters":12400,"station_id":"ce4bgqh2rcd13ifvqc5g","pricing_plan_id":"cebpf4jnsgd1na2vs0mg"},{"bike_id":"794b998d-7e45-4d53-b270-ae51136a9420","system_id":"levelo_inurba_marseille","lat":43.31674,"lon":5.38156,"is_reserved":false,"is_disabled":false,"rental_uris":{"android":"levelo://app?vid=794b998d-7e45-4d53-b270-ae51136a9420","ios":"levelo://app?vid=794b998d-7e45-4d53-b270-ae51136a9420"},"vehicle_type_id":"4","last_reported":1752675065,"current_range_meters":12800,"station_id":"","pricing_plan_id":"cebpf4jnsgd1na2vs0mg"},{"bike_id":"f7b418e1-0255-4da7-9978-5c8cf84e1112","system_id":"levelo_inurba_marseille","lat":43.30419,"lon":5.39754,"is_reserved":false,"is_disabled":false,"rental_uris":{"android":"levelo://app?vid=f7b418e1-0255-4da7-9978-5c8cf84e1112","ios":"levelo://app?vid=f7b418e1-0255-4da7-9978-5c8cf84e1112"},"vehicle_type_id":"4","last_reported":1752675065,"current_range_meters":12400,"station_id":"ce4bh092rcd13ifvqd20","pricing_plan_id":"cebpf4jnsgd1na2vs0mg"},{"bike_id":"0f47a07f-39c5-4fea-a0ee-56d71688ebb3","system_id":"levelo_inurba_marseille","lat":43.24234,"lon":5.36954,"is_reserved":false,"is_disabled":false,"rental_uris":{"android":"levelo://app?vid=0f47a07f-39c5-4fea-a0ee-56d71688ebb3","ios":"levelo://app?vid=0f47a07f-39c5-4fea-a0ee-56d71688ebb3"},"vehicle_type_id":"4","last_reported":1752675065,"current_range_meters":12800,"station_id":"","pricing_plan_id":"cebpf4jnsgd1na2vs0mg"},{"bike_id":"f8e88d89-c6a8-409c-b0bc-54943a0331bb","system_id":"levelo_inurba_marseille","lat":43.28406,"lon":5.34995,"is_reserved":false,"is_disabled":false,"rental_uris":{"android":"levelo://app?vid=f8e88d89-c6a8-409c-b0bc-54943a0331bb","ios":"levelo://app?vid=f8e88d89-c6a8-409c-b0bc-54943a0331bb"},"vehicle_type_id":"4","last_reported":1752675065,"current_range_meters":12800,"station_id":"ce4bhbh2rcd13ifvqepg","pricing_plan_id":"cebpf4jnsgd1na2vs0mg"},{"bike_id":"da77c72b-cdd3-4a04-9067-682e2ab3af56","system_id":"levelo_inurba_marseille","lat":43.26059,"lon":5.39395,"is_reserved":false,"is_disabled":false,"rental_uris":{"android":"levelo://app?vid=da77c72b-cdd3-4a04-9067-682e2ab3af56","ios":"levelo://app?vid=da77c72b-cdd3-4a04-9067-682e2ab3af56"},"vehicle_type_id":"4","last_reported":1752675065,"current_range_meters":12800,"station_id":"ce4bhh92rcd13ifvqfj0","pricing_plan_id":"cebpf4jnsgd1na2vs0mg"},{"bike_id":"39f847f4-175c-48c7-9152-69ad6d123532","system_id":"levelo_inurba_marseille","lat":43.29182,"lon":5.35804,"is_reserved":false,"is_disabled":false,"rental_uris":{"android":"levelo://app?vid=39f847f4-175c-48c7-9152-69ad6d123532","ios":"levelo://app?vid=39f847f4-175c-48c7-9152-69ad6d123532"},"vehicle_type_id":"4","last_reported":1752675065,"current_range_meters":12800,"station_id":"ce4bhb12rcd13ifvqel0","pricing_plan_id":"cebpf4jnsgd1na2vs0mg"},{"bike_id":"0d14f441-7cc4-44b1-abf4-bbb5d100780b","system_id":"levelo_inurba_marseille","lat":43.32093,"lon":5.36784,"is_reserved":false,"is_disabled":false,"rental_uris":{"android":"levelo://app?vid=0d14f441-7cc4-44b1-abf4-bbb5d100780b","ios":"levelo://app?vid=0d14f441-7cc4-44b1-abf4-bbb5d100780b"},"vehicle_type_id":"4","last_reported":1752675065,"current_range_meters":13600,"station_id":"ce4bhrh2rcd13ifvqhug","pricing_plan_id":"cebpf4jnsgd1na2vs0mg"},{"bike_id":"f53ab926-2de1-4f3c-a7d9-6743ca1bfb1f","system_id":"levelo_inurba_marseille","lat":43.211869,"lon":5.350763,"is_reserved":false,"is_disabled":false,"rental_uris":{"android":"levelo://app?vid=f53ab926-2de1-4f3c-a7d9-6743ca1bfb1f","ios":"levelo://app?vid=f53ab926-2de1-4f3c-a7d9-6743ca1bfb1f"},"vehicle_type_id":"4","last_reported":1752675065,"current_range_meters":13600,"station_id":"st_cvj6sg6p6f1abm77japg","pricing_plan_id":"cebpf4jnsgd1na2vs0mg"},{"bike_id":"0b0f32fa-e494-4c91-8e71-b8202a4bed03","system_id":"levelo_inurba_marseille","lat":43.292723,"lon":5.368452,"is_reserved":false,"is_disabled":false,"rental_uris":{"android":"levelo://app?vid=0b0f32fa-e494-4c91-8e71-b8202a4bed03","ios":"levelo://app?vid=0b0f32fa-e494-4c91-8e71-b8202a4bed03"},"vehicle_type_id":"4","last_reported":1752675065,"current_range_meters":13600,"station_id":"ce4bhbp2rcd13ifvqesg","pricing_plan_id":"cebpf4jnsgd1na2vs0mg"},{"bike_id":"748a9d52-2037-49d5-8461-2cb1abbb06a2","system_id":"levelo_inurba_marseille","lat":43.25713,"lon":5.41097,"is_reserved":false,"is_disabled":false,"rental_uris":{"android":"levelo://app?vid=748a9d52-2037-49d5-8461-2cb1abbb06a2","ios":"levelo://app?vid=748a9d52-2037-49d5-8461-2cb1abbb06a2"},"vehicle_type_id":"4","last_reported":1752675065,"current_range_meters":13600,"station_id":"ce4bhkp2rcd13ifvqgd0","pricing_plan_id":"cebpf4jnsgd1na2vs0mg"},{"bike_id":"aacdded2-1089-4036-b5cc-b8640f5d5efe","system_id":"levelo_inurba_marseille","lat":43.29006,"lon":5.35607,"is_reserved":false,"is_disabled":false,"rental_uris":{"android":"levelo://app?vid=aacdded2-1089-4036-b5cc-b8640f5d5efe","ios":"levelo://app?vid=aacdded2-1089-4036-b5cc-b8640f5d5efe"},"vehicle_type_id":"4","last_reported":1752675065,"current_range_meters":14000,"station_id":"ce4bhb92rcd13ifvqen0","pricing_plan_id":"cebpf4jnsgd1na2vs0mg"},{"bike_id":"05d228c9-ea48-4e09-8d66-2f84dbf152e8","system_id":"levelo_inurba_marseille","lat":43.288475,"lon":5.357869,"is_reserved":false,"is_disabled":false,"rental_uris":{"android":"levelo://app?vid=05d228c9-ea48-4e09-8d66-2f84dbf152e8","ios":"levelo://app?vid=05d228c9-ea48-4e09-8d66-2f84dbf152e8"},"vehicle_type_id":"4","last_reported":1752675065,"current_range_meters":14000,"station_id":"ce4bhih2rcd13ifvqfs0","pricing_plan_id":"cebpf4jnsgd1na2vs0mg"},{"bike_id":"58f12626-7763-4c49-b2e3-71b1a185f4e1","system_id":"levelo_inurba_marseille","lat":43.27373,"lon":5.36256,"is_reserved":false,"is_disabled":false,"rental_uris":{"android":"levelo://app?vid=58f12626-7763-4c49-b2e3-71b1a185f4e1","ios":"levelo://app?vid=58f12626-7763-4c49-b2e3-71b1a185f4e1"},"vehicle_type_id":"4","last_reported":1752675065,"current_range_meters":13600,"station_id":"ce4bhbh2rcd13ifvqeo0","pricing_plan_id":"cebpf4jnsgd1na2vs0mg"},{"bike_id":"f1075752-88d8-46ab-97b3-4b28d2e669b1","system_id":"levelo_inurba_marseille","lat":43.32027,"lon":5.41578,"is_reserved":false,"is_disabled":false,"rental_uris":{"android":"levelo://app?vid=f1075752-88d8-46ab-97b3-4b28d2e669b1","ios":"levelo://app?vid=f1075752-88d8-46ab-97b3-4b28d2e669b1"},"vehicle_type_id":"4","last_reported":1752675065,"current_range_meters":14400,"station_id":"ce4bhq92rcd13ifvqhkg","pricing_plan_id":"cebpf4jnsgd1na2vs0mg"},{"bike_id":"4b4819bc-d02d-416f-917b-f9521294df7e","system_id":"levelo_inurba_marseille","lat":43.305398,"lon":5.365341,"is_reserved":false,"is_disabled":false,"rental_uris":{"android":"levelo://app?vid=4b4819bc-d02d-416f-917b-f9521294df7e","ios":"levelo://app?vid=4b4819bc-d02d-416f-917b-f9521294df7e"},"vehicle_type_id":"4","last_reported":1752675065,"current_range_meters":14400,"station_id":"ce4bgs12rcd13ifvqcag","pricing_plan_id":"cebpf4jnsgd1na2vs0mg"},{"bike_id":"ca779787-698d-4902-9c86-2533e9a955d5","system_id":"levelo_inurba_marseille","lat":43.2417,"lon":5.36393,"is_reserved":false,"is_disabled":false,"rental_uris":{"android":"levelo://app?vid=ca779787-698d-4902-9c86-2533e9a955d5","ios":"levelo://app?vid=ca779787-698d-4902-9c86-2533e9a955d5"},"vehicle_type_id":"4","last_reported":1752675065,"current_range_meters":14400,"station_id":"cpo36qri1sfpv3e86is0","pricing_plan_id":"cebpf4jnsgd1na2vs0mg"},{"bike_id":"9902d289-745e-423a-a750-1c3d2e283d12","system_id":"levelo_inurba_marseille","lat":43.31318,"lon":5.39686,"is_reserved":false,"is_disabled":false,"rental_uris":{"android":"levelo://app?vid=9902d289-745e-423a-a750-1c3d2e283d12","ios":"levelo://app?vid=9902d289-745e-423a-a750-1c3d2e283d12"},"vehicle_type_id":"4","last_reported":1752675065,"current_range_meters":14400,"station_id":"ce4bgvp2rcd13ifvqcu0","pricing_plan_id":"cebpf4jnsgd1na2vs0mg"},{"bike_id":"543e1f4d-6d09-456f-b184-3b44ea6f95c0","system_id":"levelo_inurba_marseille","lat":43.29006,"lon":5.35607,"is_reserved":false,"is_disabled":false,"rental_uris":{"android":"levelo://app?vid=543e1f4d-6d09-456f-b184-3b44ea6f95c0","ios":"levelo://app?vid=543e1f4d-6d09-456f-b184-3b44ea6f95c0"},"vehicle_type_id":"4","last_reported":1752675065,"current_range_meters":14400,"station_id":"ce4bhb92rcd13ifvqen0","pricing_plan_id":"cebpf4jnsgd1na2vs0mg"},{"bike_id":"61a9e916-b95f-4f2c-8dca-c5b11be80287","system_id":"levelo_inurba_marseille","lat":43.29225,"lon":5.36044,"is_reserved":false,"is_disabled":true,"rental_uris":{"android":"levelo://app?vid=61a9e916-b95f-4f2c-8dca-c5b11be80287","ios":"levelo://app?vid=61a9e916-b95f-4f2c-8dca-c5b11be80287"},"vehicle_type_id":"4","last_reported":1752675065,"current_range_meters":14400,"station_id":"ce4bhbh2rcd13ifvqeqg","pricing_plan_id":"cebpf4jnsgd1na2vs0mg"},{"bike_id":"00bb5af6-d5d6-42a4-b81b-50bfbf5511dd","system_id":"levelo_inurba_marseille","lat":43.295232,"lon":5.394075,"is_reserved":false,"is_disabled":false,"rental_uris":{"android":"levelo://app?vid=00bb5af6-d5d6-42a4-b81b-50bfbf5511dd","ios":"levelo://app?vid=00bb5af6-d5d6-42a4-b81b-50bfbf5511dd"},"vehicle_type_id":"4","last_reported":1752675065,"current_range_meters":14400,"station_id":"","pricing_plan_id":"cebpf4jnsgd1na2vs0mg"},{"bike_id":"7be57313-e988-4ff4-8a83-bc9468797846","system_id":"levelo_inurba_marseille","lat":43.27966,"lon":5.38754,"is_reserved":false,"is_disabled":false,"rental_uris":{"android":"levelo://app?vid=7be57313-e988-4ff4-8a83-bc9468797846","ios":"levelo://app?vid=7be57313-e988-4ff4-8a83-bc9468797846"},"vehicle_type_id":"4","last_reported":1752675065,"current_range_meters":14000,"station_id":"ce4bhg12rcd13ifvqf80","pricing_plan_id":"cebpf4jnsgd1na2vs0mg"},{"bike_id":"f6aa1602-52c9-4808-8645-f00bf2b9e6b6","system_id":"levelo_inurba_marseille","lat":43.21188,"lon":5.35071,"is_reserved":false,"is_disabled":false,"rental_uris":{"android":"levelo://app?vid=f6aa1602-52c9-4808-8645-f00bf2b9e6b6","ios":"levelo://app?vid=f6aa1602-52c9-4808-8645-f00bf2b9e6b6"},"vehicle_type_id":"4","last_reported":1752675065,"current_range_meters":14800,"station_id":"st_cvj6sg6p6f1abm77japg","pricing_plan_id":"cebpf4jnsgd1na2vs0mg"},{"bike_id":"a37d9495-6556-4138-8ff8-e2ca82375175","system_id":"levelo_inurba_marseille","lat":43.21725,"lon":5.34615,"is_reserved":false,"is_disabled":false,"rental_uris":{"android":"levelo://app?vid=a37d9495-6556-4138-8ff8-e2ca82375175","ios":"levelo://app?vid=a37d9495-6556-4138-8ff8-e2ca82375175"},"vehicle_type_id":"4","last_reported":1752675065,"current_range_meters":14800,"station_id":"st_cvj6r9ubvosntc0bgbag","pricing_plan_id":"cebpf4jnsgd1na2vs0mg"},{"bike_id":"c4100995-3c01-4ec0-9541-6d3928a99122","system_id":"levelo_inurba_marseille","lat":43.2825,"lon":5.3508,"is_reserved":false,"is_disabled":false,"rental_uris":{"android":"levelo://app?vid=c4100995-3c01-4ec0-9541-6d3928a99122","ios":"levelo://app?vid=c4100995-3c01-4ec0-9541-6d3928a99122"},"vehicle_type_id":"4","last_reported":1752675065,"current_range_meters":14800,"station_id":"ce4bhbp2rcd13ifvqerg","pricing_plan_id":"cebpf4jnsgd1na2vs0mg"},{"bike_id":"e5bec6b1-43e6-46f2-9810-affd93766dd8","system_id":"levelo_inurba_marseille","lat":43.21737,"lon":5.34612,"is_reserved":false,"is_disabled":true,"rental_uris":{"android":"levelo://app?vid=e5bec6b1-43e6-46f2-9810-affd93766dd8","ios":"levelo://app?vid=e5bec6b1-43e6-46f2-9810-affd93766dd8"},"vehicle_type_id":"4","last_reported":1752675065,"current_range_meters":15200,"station_id":"st_cvj6r9ubvosntc0bgbag","pricing_plan_id":"cebpf4jnsgd1na2vs0mg"},{"bike_id":"229a51b8-d35a-46ef-90d9-099d3d4f556b","system_id":"levelo_inurba_marseille","lat":43.29431,"lon":5.38618,"is_reserved":false,"is_disabled":true,"rental_uris":{"android":"levelo://app?vid=229a51b8-d35a-46ef-90d9-099d3d4f556b","ios":"levelo://app?vid=229a51b8-d35a-46ef-90d9-099d3d4f556b"},"vehicle_type_id":"4","last_reported":1752675065,"current_range_meters":15200,"station_id":"ce4bh2h2rcd13ifvqdh0","pricing_plan_id":"cebpf4jnsgd1na2vs0mg"},{"bike_id":"2b35441d-be12-43e5-8f1c-c4924e3cdace","system_id":"levelo_inurba_marseille","lat":43.24816,"lon":5.37439,"is_reserved":false,"is_disabled":false,"rental_uris":{"android":"levelo://app?vid=2b35441d-be12-43e5-8f1c-c4924e3cdace","ios":"levelo://app?vid=2b35441d-be12-43e5-8f1c-c4924e3cdace"},"vehicle_type_id":"4","last_reported":1752675065,"current_range_meters":15200,"station_id":"ce4bhgh2rcd13ifvqfb0","pricing_plan_id":"cebpf4jnsgd1na2vs0mg"},{"bike_id":"32d1218f-165c-441f-ad46-a226bdc8e1de","system_id":"levelo_inurba_marseille","lat":43.28622,"lon":5.35095,"is_reserved":false,"is_disabled":false,"rental_uris":{"android":"levelo://app?vid=32d1218f-165c-441f-ad46-a226bdc8e1de","ios":"levelo://app?vid=32d1218f-165c-441f-ad46-a226bdc8e1de"},"vehicle_type_id":"4","last_reported":1752675065,"current_range_meters":15200,"station_id":"ce4bhch2rcd13ifvqeug","pricing_plan_id":"cebpf4jnsgd1na2vs0mg"},{"bike_id":"64c7d058-dea1-4249-9d8c-3c21ca3a31f7","system_id":"levelo_inurba_marseille","lat":43.26566,"lon":5.39022,"is_reserved":false,"is_disabled":false,"rental_uris":{"android":"levelo://app?vid=64c7d058-dea1-4249-9d8c-3c21ca3a31f7","ios":"levelo://app?vid=64c7d058-dea1-4249-9d8c-3c21ca3a31f7"},"vehicle_type_id":"4","last_reported":1752675065,"current_range_meters":15200,"station_id":"ce4bhe12rcd13ifvqf30","pricing_plan_id":"cebpf4jnsgd1na2vs0mg"},{"bike_id":"554b0256-6c83-48a0-b234-b3b35034312f","system_id":"levelo_inurba_marseille","lat":43.28267,"lon":5.35065,"is_reserved":false,"is_disabled":false,"rental_uris":{"android":"levelo://app?vid=554b0256-6c83-48a0-b234-b3b35034312f","ios":"levelo://app?vid=554b0256-6c83-48a0-b234-b3b35034312f"},"vehicle_type_id":"4","last_reported":1752675065,"current_range_meters":15200,"station_id":"ce4bhbp2rcd13ifvqerg","pricing_plan_id":"cebpf4jnsgd1na2vs0mg"},{"bike_id":"bb91fdfd-e2e6-4861-a682-9985a5c5d97b","system_id":"levelo_inurba_marseille","lat":43.23192,"lon":5.3999,"is_reserved":false,"is_disabled":false,"rental_uris":{"android":"levelo://app?vid=bb91fdfd-e2e6-4861-a682-9985a5c5d97b","ios":"levelo://app?vid=bb91fdfd-e2e6-4861-a682-9985a5c5d97b"},"vehicle_type_id":"4","last_reported":1752675065,"current_range_meters":15200,"station_id":"ce4bhn12rcd13ifvqgqg","pricing_plan_id":"cebpf4jnsgd1na2vs0mg"},{"bike_id":"dcffc596-d13e-450d-b0a1-9418eec5cbad","system_id":"levelo_inurba_marseille","lat":43.27056,"lon":5.40255,"is_reserved":false,"is_disabled":false,"rental_uris":{"android":"levelo://app?vid=dcffc596-d13e-450d-b0a1-9418eec5cbad","ios":"levelo://app?vid=dcffc596-d13e-450d-b0a1-9418eec5cbad"},"vehicle_type_id":"4","last_reported":1752675065,"current_range_meters":15200,"station_id":"ce4bhk92rcd13ifvqgc0","pricing_plan_id":"cebpf4jnsgd1na2vs0mg"},{"bike_id":"d16fa7a9-fc63-4356-b134-c6cc92057fd4","system_id":"levelo_inurba_marseille","lat":43.289787,"lon":5.37838,"is_reserved":false,"is_disabled":false,"rental_uris":{"android":"levelo://app?vid=d16fa7a9-fc63-4356-b134-c6cc92057fd4","ios":"levelo://app?vid=d16fa7a9-fc63-4356-b134-c6cc92057fd4"},"vehicle_type_id":"4","last_reported":1752675065,"current_range_meters":16000,"station_id":"ce4bh9p2rcd13ifvqed0","pricing_plan_id":"cebpf4jnsgd1na2vs0mg"},{"bike_id":"b18c91ed-1137-464d-b9f6-22606474f7bb","system_id":"levelo_inurba_marseille","lat":43.31605,"lon":5.3683,"is_reserved":false,"is_disabled":false,"rental_uris":{"android":"levelo://app?vid=b18c91ed-1137-464d-b9f6-22606474f7bb","ios":"levelo://app?vid=b18c91ed-1137-464d-b9f6-22606474f7bb"},"vehicle_type_id":"4","last_reported":1752675065,"current_range_meters":16000,"station_id":"","pricing_plan_id":"cebpf4jnsgd1na2vs0mg"},{"bike_id":"84536aa9-7a3a-4baf-ad03-b8e16bcbbd9c","system_id":"levelo_inurba_marseille","lat":43.25921,"lon":5.4086,"is_reserved":false,"is_disabled":false,"rental_uris":{"android":"levelo://app?vid=84536aa9-7a3a-4baf-ad03-b8e16bcbbd9c","ios":"levelo://app?vid=84536aa9-7a3a-4baf-ad03-b8e16bcbbd9c"},"vehicle_type_id":"4","last_reported":1752675065,"current_range_meters":16000,"station_id":"ce4bhm92rcd13ifvqglg","pricing_plan_id":"cebpf4jnsgd1na2vs0mg"},{"bike_id":"f5817eae-0567-4a50-9665-23663a2ae4f8","system_id":"levelo_inurba_marseille","lat":43.28424,"lon":5.34989,"is_reserved":false,"is_disabled":false,"rental_uris":{"android":"levelo://app?vid=f5817eae-0567-4a50-9665-23663a2ae4f8","ios":"levelo://app?vid=f5817eae-0567-4a50-9665-23663a2ae4f8"},"vehicle_type_id":"4","last_reported":1752675065,"current_range_meters":16000,"station_id":"ce4bhbh2rcd13ifvqepg","pricing_plan_id":"cebpf4jnsgd1na2vs0mg"},{"bike_id":"aa6ae9db-dee7-4a9a-bf97-14fd9cddacf5","system_id":"levelo_inurba_marseille","lat":43.30558,"lon":5.36582,"is_reserved":false,"is_disabled":false,"rental_uris":{"android":"levelo://app?vid=aa6ae9db-dee7-4a9a-bf97-14fd9cddacf5","ios":"levelo://app?vid=aa6ae9db-dee7-4a9a-bf97-14fd9cddacf5"},"vehicle_type_id":"4","last_reported":1752675065,"current_range_meters":16000,"station_id":"ce4bgs12rcd13ifvqcag","pricing_plan_id":"cebpf4jnsgd1na2vs0mg"},{"bike_id":"7dee92bf-5b07-4927-aa41-9e9493644eeb","system_id":"levelo_inurba_marseille","lat":43.2116,"lon":5.35076,"is_reserved":false,"is_disabled":false,"rental_uris":{"android":"levelo://app?vid=7dee92bf-5b07-4927-aa41-9e9493644eeb","ios":"levelo://app?vid=7dee92bf-5b07-4927-aa41-9e9493644eeb"},"vehicle_type_id":"4","last_reported":1752675065,"current_range_meters":16000,"station_id":"st_cvj6sg6p6f1abm77japg","pricing_plan_id":"cebpf4jnsgd1na2vs0mg"},{"bike_id":"f2b5273e-88ec-4ec3-bf34-9d57642ad4a1","system_id":"levelo_inurba_marseille","lat":43.27993,"lon":5.40016,"is_reserved":false,"is_disabled":false,"rental_uris":{"android":"levelo://app?vid=f2b5273e-88ec-4ec3-bf34-9d57642ad4a1","ios":"levelo://app?vid=f2b5273e-88ec-4ec3-bf34-9d57642ad4a1"},"vehicle_type_id":"4","last_reported":1752675065,"current_range_meters":16400,"station_id":"ce4bho92rcd13ifvqh4g","pricing_plan_id":"cebpf4jnsgd1na2vs0mg"},{"bike_id":"2e52c340-5a15-427d-9501-98b544c14876","system_id":"levelo_inurba_marseille","lat":43.295629,"lon":5.399576,"is_reserved":false,"is_disabled":true,"rental_uris":{"android":"levelo://app?vid=2e52c340-5a15-427d-9501-98b544c14876","ios":"levelo://app?vid=2e52c340-5a15-427d-9501-98b544c14876"},"vehicle_type_id":"4","last_reported":1752675065,"current_range_meters":16400,"station_id":"ce4bh312rcd13ifvqdj0","pricing_plan_id":"cebpf4jnsgd1na2vs0mg"},{"bike_id":"47e84c87-4631-48fa-8064-ac43c2313bba","system_id":"levelo_inurba_marseille","lat":43.29304,"lon":5.37167,"is_reserved":false,"is_disabled":true,"rental_uris":{"android":"levelo://app?vid=47e84c87-4631-48fa-8064-ac43c2313bba","ios":"levelo://app?vid=47e84c87-4631-48fa-8064-ac43c2313bba"},"vehicle_type_id":"4","last_reported":1752675065,"current_range_meters":16800,"station_id":"ce4bgh92rcd13ifvqb40","pricing_plan_id":"cebpf4jnsgd1na2vs0mg"},{"bike_id":"d647170c-f548-45c4-bf20-d1db5fe65144","system_id":"levelo_inurba_marseille","lat":43.26229,"lon":5.37427,"is_reserved":false,"is_disabled":false,"rental_uris":{"android":"levelo://app?vid=d647170c-f548-45c4-bf20-d1db5fe65144","ios":"levelo://app?vid=d647170c-f548-45c4-bf20-d1db5fe65144"},"vehicle_type_id":"4","last_reported":1752675065,"current_range_meters":16400,"station_id":"ce4bhgp2rcd13ifvqfc0","pricing_plan_id":"cebpf4jnsgd1na2vs0mg"},{"bike_id":"85533ba0-eabb-47f1-8e2c-8d41b604dec0","system_id":"levelo_inurba_marseille","lat":43.26213,"lon":5.37441,"is_reserved":false,"is_disabled":false,"rental_uris":{"android":"levelo://app?vid=85533ba0-eabb-47f1-8e2c-8d41b604dec0","ios":"levelo://app?vid=85533ba0-eabb-47f1-8e2c-8d41b604dec0"},"vehicle_type_id":"4","last_reported":1752675065,"current_range_meters":16400,"station_id":"ce4bhgp2rcd13ifvqfc0","pricing_plan_id":"cebpf4jnsgd1na2vs0mg"},{"bike_id":"28379938-2546-4228-849e-3c4a2550fa28","system_id":"levelo_inurba_marseille","lat":43.279586,"lon":5.410466,"is_reserved":false,"is_disabled":false,"rental_uris":{"android":"levelo://app?vid=28379938-2546-4228-849e-3c4a2550fa28","ios":"levelo://app?vid=28379938-2546-4228-849e-3c4a2550fa28"},"vehicle_type_id":"4","last_reported":1752675065,"current_range_meters":16400,"station_id":"ce4bhnp2rcd13ifvqh0g","pricing_plan_id":"cebpf4jnsgd1na2vs0mg"},{"bike_id":"7afe90fd-50ca-4a5a-92b7-6532a65d28cc","system_id":"levelo_inurba_marseille","lat":43.28671,"lon":5.36342,"is_reserved":false,"is_disabled":false,"rental_uris":{"android":"levelo://app?vid=7afe90fd-50ca-4a5a-92b7-6532a65d28cc","ios":"levelo://app?vid=7afe90fd-50ca-4a5a-92b7-6532a65d28cc"},"vehicle_type_id":"4","last_reported":1752675065,"current_range_meters":16400,"station_id":"ce4bhah2rcd13ifvqej0","pricing_plan_id":"cebpf4jnsgd1na2vs0mg"},{"bike_id":"bbe987ec-8fe0-4323-97ab-21f7ae331fbd","system_id":"levelo_inurba_marseille","lat":43.30365,"lon":5.42492,"is_reserved":false,"is_disabled":false,"rental_uris":{"android":"levelo://app?vid=bbe987ec-8fe0-4323-97ab-21f7ae331fbd","ios":"levelo://app?vid=bbe987ec-8fe0-4323-97ab-21f7ae331fbd"},"vehicle_type_id":"4","last_reported":1752675065,"current_range_meters":16400,"station_id":"ce4bhoh2rcd13ifvqh6g","pricing_plan_id":"cebpf4jnsgd1na2vs0mg"},{"bike_id":"dd43e045-6313-4536-a083-812e1484d634","system_id":"levelo_inurba_marseille","lat":43.21751,"lon":5.34601,"is_reserved":false,"is_disabled":false,"rental_uris":{"android":"levelo://app?vid=dd43e045-6313-4536-a083-812e1484d634","ios":"levelo://app?vid=dd43e045-6313-4536-a083-812e1484d634"},"vehicle_type_id":"4","last_reported":1752675065,"current_range_meters":16400,"station_id":"st_cvj6r9ubvosntc0bgbag","pricing_plan_id":"cebpf4jnsgd1na2vs0mg"},{"bike_id":"d697e4f3-cf7d-45e9-b67b-45ee6d3593f5","system_id":"levelo_inurba_marseille","lat":43.28612,"lon":5.35095,"is_reserved":false,"is_disabled":false,"rental_uris":{"android":"levelo://app?vid=d697e4f3-cf7d-45e9-b67b-45ee6d3593f5","ios":"levelo://app?vid=d697e4f3-cf7d-45e9-b67b-45ee6d3593f5"},"vehicle_type_id":"4","last_reported":1752675065,"current_range_meters":16400,"station_id":"ce4bhch2rcd13ifvqeug","pricing_plan_id":"cebpf4jnsgd1na2vs0mg"},{"bike_id":"1a7efd10-9b2d-4f3d-974d-245d75d272b2","system_id":"levelo_inurba_marseille","lat":43.26063,"lon":5.394,"is_reserved":false,"is_disabled":false,"rental_uris":{"android":"levelo://app?vid=1a7efd10-9b2d-4f3d-974d-245d75d272b2","ios":"levelo://app?vid=1a7efd10-9b2d-4f3d-974d-245d75d272b2"},"vehicle_type_id":"4","last_reported":1752675065,"current_range_meters":16800,"station_id":"ce4bhh92rcd13ifvqfj0","pricing_plan_id":"cebpf4jnsgd1na2vs0mg"},{"bike_id":"742922c9-1b61-4753-a73c-0d5b4b131484","system_id":"levelo_inurba_marseille","lat":43.28284,"lon":5.35073,"is_reserved":false,"is_disabled":false,"rental_uris":{"android":"levelo://app?vid=742922c9-1b61-4753-a73c-0d5b4b131484","ios":"levelo://app?vid=742922c9-1b61-4753-a73c-0d5b4b131484"},"vehicle_type_id":"4","last_reported":1752675065,"current_range_meters":16800,"station_id":"ce4bhbp2rcd13ifvqerg","pricing_plan_id":"cebpf4jnsgd1na2vs0mg"},{"bike_id":"3bed6605-8166-4291-80ff-d2f4561e79c0","system_id":"levelo_inurba_marseille","lat":43.287266,"lon":5.36085,"is_reserved":false,"is_disabled":false,"rental_uris":{"android":"levelo://app?vid=3bed6605-8166-4291-80ff-d2f4561e79c0","ios":"levelo://app?vid=3bed6605-8166-4291-80ff-d2f4561e79c0"},"vehicle_type_id":"4","last_reported":1752675065,"current_range_meters":16800,"station_id":"cki0cbj6b192h4jlfktg","pricing_plan_id":"cebpf4jnsgd1na2vs0mg"},{"bike_id":"fba5080d-ba8a-498c-a2e1-06b10f551aca","system_id":"levelo_inurba_marseille","lat":43.3057,"lon":5.36557,"is_reserved":false,"is_disabled":false,"rental_uris":{"android":"levelo://app?vid=fba5080d-ba8a-498c-a2e1-06b10f551aca","ios":"levelo://app?vid=fba5080d-ba8a-498c-a2e1-06b10f551aca"},"vehicle_type_id":"4","last_reported":1752675065,"current_range_meters":16800,"station_id":"ce4bgs12rcd13ifvqcag","pricing_plan_id":"cebpf4jnsgd1na2vs0mg"},{"bike_id":"eeeb1525-8f55-4baa-8c13-97fb7ee269cd","system_id":"levelo_inurba_marseille","lat":43.29918,"lon":5.36526,"is_reserved":false,"is_disabled":false,"rental_uris":{"android":"levelo://app?vid=eeeb1525-8f55-4baa-8c13-97fb7ee269cd","ios":"levelo://app?vid=eeeb1525-8f55-4baa-8c13-97fb7ee269cd"},"vehicle_type_id":"4","last_reported":1752675065,"current_range_meters":16800,"station_id":"ce4bgm92rcd13ifvqbr0","pricing_plan_id":"cebpf4jnsgd1na2vs0mg"},{"bike_id":"285aaa26-07be-4c4a-9be9-3c0873597bc5","system_id":"levelo_inurba_marseille","lat":43.29597,"lon":5.3675,"is_reserved":false,"is_disabled":false,"rental_uris":{"android":"levelo://app?vid=285aaa26-07be-4c4a-9be9-3c0873597bc5","ios":"levelo://app?vid=285aaa26-07be-4c4a-9be9-3c0873597bc5"},"vehicle_type_id":"4","last_reported":1752675065,"current_range_meters":16800,"station_id":"ce4bgph2rcd13ifvqc2g","pricing_plan_id":"cebpf4jnsgd1na2vs0mg"},{"bike_id":"39c6203f-25ee-487c-9399-b36ef495fc6b","system_id":"levelo_inurba_marseille","lat":43.24067,"lon":5.37695,"is_reserved":false,"is_disabled":false,"rental_uris":{"android":"levelo://app?vid=39c6203f-25ee-487c-9399-b36ef495fc6b","ios":"levelo://app?vid=39c6203f-25ee-487c-9399-b36ef495fc6b"},"vehicle_type_id":"4","last_reported":1752675065,"current_range_meters":16800,"station_id":"ce4bhnp2rcd13ifvqgvg","pricing_plan_id":"cebpf4jnsgd1na2vs0mg"},{"bike_id":"0c20f48d-ae7d-4cbc-99b0-b36a177f2374","system_id":"levelo_inurba_marseille","lat":43.296172,"lon":5.37157,"is_reserved":false,"is_disabled":false,"rental_uris":{"android":"levelo://app?vid=0c20f48d-ae7d-4cbc-99b0-b36a177f2374","ios":"levelo://app?vid=0c20f48d-ae7d-4cbc-99b0-b36a177f2374"},"vehicle_type_id":"4","last_reported":1752675065,"current_range_meters":16800,"station_id":"ce4bgnh2rcd13ifvqc0g","pricing_plan_id":"cebpf4jnsgd1na2vs0mg"},{"bike_id":"c2437f44-59b1-4a11-be4c-45990fc66ea7","system_id":"levelo_inurba_marseille","lat":43.24171,"lon":5.36395,"is_reserved":false,"is_disabled":false,"rental_uris":{"android":"levelo://app?vid=c2437f44-59b1-4a11-be4c-45990fc66ea7","ios":"levelo://app?vid=c2437f44-59b1-4a11-be4c-45990fc66ea7"},"vehicle_type_id":"4","last_reported":1752675065,"current_range_meters":16800,"station_id":"cpo36qri1sfpv3e86is0","pricing_plan_id":"cebpf4jnsgd1na2vs0mg"},{"bike_id":"fb525274-8547-4e3a-b56c-c24363ba8d3c","system_id":"levelo_inurba_marseille","lat":43.26488,"lon":5.379108,"is_reserved":false,"is_disabled":false,"rental_uris":{"android":"levelo://app?vid=fb525274-8547-4e3a-b56c-c24363ba8d3c","ios":"levelo://app?vid=fb525274-8547-4e3a-b56c-c24363ba8d3c"},"vehicle_type_id":"4","last_reported":1752675065,"current_range_meters":16800,"station_id":"ce4bhh12rcd13ifvqff0","pricing_plan_id":"cebpf4jnsgd1na2vs0mg"},{"bike_id":"0398468c-6c0f-49fd-b525-08c45b6a4cd9","system_id":"levelo_inurba_marseille","lat":43.22499,"lon":5.3478,"is_reserved":false,"is_disabled":false,"rental_uris":{"android":"levelo://app?vid=0398468c-6c0f-49fd-b525-08c45b6a4cd9","ios":"levelo://app?vid=0398468c-6c0f-49fd-b525-08c45b6a4cd9"},"vehicle_type_id":"4","last_reported":1752675065,"current_range_meters":17200,"station_id":"st_cvj5dfep6f1abm77gieg","pricing_plan_id":"cebpf4jnsgd1na2vs0mg"},{"bike_id":"50e152cf-edc9-4bc9-8232-19cb41a00858","system_id":"levelo_inurba_marseille","lat":43.2842,"lon":5.34983,"is_reserved":false,"is_disabled":false,"rental_uris":{"android":"levelo://app?vid=50e152cf-edc9-4bc9-8232-19cb41a00858","ios":"levelo://app?vid=50e152cf-edc9-4bc9-8232-19cb41a00858"},"vehicle_type_id":"4","last_reported":1752675065,"current_range_meters":17200,"station_id":"ce4bhbh2rcd13ifvqepg","pricing_plan_id":"cebpf4jnsgd1na2vs0mg"},{"bike_id":"5990901e-3d72-4b04-8023-a9d52462102f","system_id":"levelo_inurba_marseille","lat":43.30132,"lon":5.37431,"is_reserved":false,"is_disabled":false,"rental_uris":{"android":"levelo://app?vid=5990901e-3d72-4b04-8023-a9d52462102f","ios":"levelo://app?vid=5990901e-3d72-4b04-8023-a9d52462102f"},"vehicle_type_id":"4","last_reported":1752675065,"current_range_meters":17200,"station_id":"ce4bgs92rcd13ifvqcc0","pricing_plan_id":"cebpf4jnsgd1na2vs0mg"},{"bike_id":"46b084b0-eb8b-4075-9346-f1061f12ac7a","system_id":"levelo_inurba_marseille","lat":43.292719,"lon":5.368377,"is_reserved":false,"is_disabled":false,"rental_uris":{"android":"levelo://app?vid=46b084b0-eb8b-4075-9346-f1061f12ac7a","ios":"levelo://app?vid=46b084b0-eb8b-4075-9346-f1061f12ac7a"},"vehicle_type_id":"4","last_reported":1752675065,"current_range_meters":17200,"station_id":"","pricing_plan_id":"cebpf4jnsgd1na2vs0mg"},{"bike_id":"3444bdc6-514a-4ba6-9650-f9073305e33d","system_id":"levelo_inurba_marseille","lat":43.29682,"lon":5.3698,"is_reserved":false,"is_disabled":false,"rental_uris":{"android":"levelo://app?vid=3444bdc6-514a-4ba6-9650-f9073305e33d","ios":"levelo://app?vid=3444bdc6-514a-4ba6-9650-f9073305e33d"},"vehicle_type_id":"4","last_reported":1752675065,"current_range_meters":17200,"station_id":"","pricing_plan_id":"cebpf4jnsgd1na2vs0mg"},{"bike_id":"34e62ee5-3131-428c-842a-9ad03de94ba5","system_id":"levelo_inurba_marseille","lat":43.22507,"lon":5.34785,"is_reserved":false,"is_disabled":false,"rental_uris":{"android":"levelo://app?vid=34e62ee5-3131-428c-842a-9ad03de94ba5","ios":"levelo://app?vid=34e62ee5-3131-428c-842a-9ad03de94ba5"},"vehicle_type_id":"4","last_reported":1752675065,"current_range_meters":17200,"station_id":"st_cvj5dfep6f1abm77gieg","pricing_plan_id":"cebpf4jnsgd1na2vs0mg"},{"bike_id":"f037781a-08bc-4746-8a4c-4bc939a127ba","system_id":"levelo_inurba_marseille","lat":43.26228,"lon":5.37423,"is_reserved":false,"is_disabled":false,"rental_uris":{"android":"levelo://app?vid=f037781a-08bc-4746-8a4c-4bc939a127ba","ios":"levelo://app?vid=f037781a-08bc-4746-8a4c-4bc939a127ba"},"vehicle_type_id":"4","last_reported":1752675065,"current_range_meters":17200,"station_id":"ce4bhgp2rcd13ifvqfc0","pricing_plan_id":"cebpf4jnsgd1na2vs0mg"},{"bike_id":"9fab3324-0e38-452a-b9c0-b8c91be3e410","system_id":"levelo_inurba_marseille","lat":43.25915,"lon":5.40878,"is_reserved":false,"is_disabled":false,"rental_uris":{"android":"levelo://app?vid=9fab3324-0e38-452a-b9c0-b8c91be3e410","ios":"levelo://app?vid=9fab3324-0e38-452a-b9c0-b8c91be3e410"},"vehicle_type_id":"4","last_reported":1752675065,"current_range_meters":17200,"station_id":"ce4bhm92rcd13ifvqglg","pricing_plan_id":"cebpf4jnsgd1na2vs0mg"},{"bike_id":"ede78f57-c381-404d-970b-0ebfde762310","system_id":"levelo_inurba_marseille","lat":43.217541,"lon":5.345954,"is_reserved":false,"is_disabled":false,"rental_uris":{"android":"levelo://app?vid=ede78f57-c381-404d-970b-0ebfde762310","ios":"levelo://app?vid=ede78f57-c381-404d-970b-0ebfde762310"},"vehicle_type_id":"4","last_reported":1752675065,"current_range_meters":17200,"station_id":"st_cvj6r9ubvosntc0bgbag","pricing_plan_id":"cebpf4jnsgd1na2vs0mg"},{"bike_id":"f422b7b8-0a5f-4910-9db9-b5a223c00e43","system_id":"levelo_inurba_marseille","lat":43.28422,"lon":5.34979,"is_reserved":false,"is_disabled":false,"rental_uris":{"android":"levelo://app?vid=f422b7b8-0a5f-4910-9db9-b5a223c00e43","ios":"levelo://app?vid=f422b7b8-0a5f-4910-9db9-b5a223c00e43"},"vehicle_type_id":"4","last_reported":1752675065,"current_range_meters":17200,"station_id":"ce4bhbh2rcd13ifvqepg","pricing_plan_id":"cebpf4jnsgd1na2vs0mg"},{"bike_id":"763b3051-8d49-418f-b56f-2e91a7764a9c","system_id":"levelo_inurba_marseille","lat":43.3043,"lon":5.38889,"is_reserved":false,"is_disabled":false,"rental_uris":{"android":"levelo://app?vid=763b3051-8d49-418f-b56f-2e91a7764a9c","ios":"levelo://app?vid=763b3051-8d49-418f-b56f-2e91a7764a9c"},"vehicle_type_id":"4","last_reported":1752675065,"current_range_meters":16800,"station_id":"ce4bgk12rcd13ifvqbi0","pricing_plan_id":"cebpf4jnsgd1na2vs0mg"},{"bike_id":"b399da78-cf63-4de2-b505-0740a1d1e170","system_id":"levelo_inurba_marseille","lat":43.22508,"lon":5.3478,"is_reserved":false,"is_disabled":false,"rental_uris":{"android":"levelo://app?vid=b399da78-cf63-4de2-b505-0740a1d1e170","ios":"levelo://app?vid=b399da78-cf63-4de2-b505-0740a1d1e170"},"vehicle_type_id":"4","last_reported":1752675065,"current_range_meters":17200,"station_id":"st_cvj5dfep6f1abm77gieg","pricing_plan_id":"cebpf4jnsgd1na2vs0mg"},{"bike_id":"b19ba177-7aca-4002-b440-4e2b9a122791","system_id":"levelo_inurba_marseille","lat":43.29938,"lon":5.36545,"is_reserved":false,"is_disabled":false,"rental_uris":{"android":"levelo://app?vid=b19ba177-7aca-4002-b440-4e2b9a122791","ios":"levelo://app?vid=b19ba177-7aca-4002-b440-4e2b9a122791"},"vehicle_type_id":"4","last_reported":1752675065,"current_range_meters":17200,"station_id":"ce4bgm92rcd13ifvqbr0","pricing_plan_id":"cebpf4jnsgd1na2vs0mg"},{"bike_id":"992636f1-2772-4270-ad86-6c9715eff7b4","system_id":"levelo_inurba_marseille","lat":43.28614,"lon":5.35109,"is_reserved":false,"is_disabled":false,"rental_uris":{"android":"levelo://app?vid=992636f1-2772-4270-ad86-6c9715eff7b4","ios":"levelo://app?vid=992636f1-2772-4270-ad86-6c9715eff7b4"},"vehicle_type_id":"4","last_reported":1752675065,"current_range_meters":17200,"station_id":"ce4bhch2rcd13ifvqeug","pricing_plan_id":"cebpf4jnsgd1na2vs0mg"},{"bike_id":"243ff24d-c224-4f6c-8766-a9a443123038","system_id":"levelo_inurba_marseille","lat":43.23964,"lon":5.36624,"is_reserved":false,"is_disabled":false,"rental_uris":{"android":"levelo://app?vid=243ff24d-c224-4f6c-8766-a9a443123038","ios":"levelo://app?vid=243ff24d-c224-4f6c-8766-a9a443123038"},"vehicle_type_id":"4","last_reported":1752675065,"current_range_meters":17200,"station_id":"ce4bhi12rcd13ifvqfp0","pricing_plan_id":"cebpf4jnsgd1na2vs0mg"},{"bike_id":"0225df2e-bee4-445b-87d9-507b02fc0fcb","system_id":"levelo_inurba_marseille","lat":43.32357,"lon":5.36758,"is_reserved":false,"is_disabled":false,"rental_uris":{"android":"levelo://app?vid=0225df2e-bee4-445b-87d9-507b02fc0fcb","ios":"levelo://app?vid=0225df2e-bee4-445b-87d9-507b02fc0fcb"},"vehicle_type_id":"4","last_reported":1752675065,"current_range_meters":17600,"station_id":"ce4bhsh2rcd13ifvqi2g","pricing_plan_id":"cebpf4jnsgd1na2vs0mg"},{"bike_id":"9c03d140-d592-45b5-8197-a2d68db89f56","system_id":"levelo_inurba_marseille","lat":43.26225,"lon":5.37443,"is_reserved":false,"is_disabled":false,"rental_uris":{"android":"levelo://app?vid=9c03d140-d592-45b5-8197-a2d68db89f56","ios":"levelo://app?vid=9c03d140-d592-45b5-8197-a2d68db89f56"},"vehicle_type_id":"4","last_reported":1752675065,"current_range_meters":17600,"station_id":"","pricing_plan_id":"cebpf4jnsgd1na2vs0mg"},{"bike_id":"14eccde2-d112-4ab8-9ecb-9540880d913b","system_id":"levelo_inurba_marseille","lat":43.24633,"lon":5.38904,"is_reserved":false,"is_disabled":false,"rental_uris":{"android":"levelo://app?vid=14eccde2-d112-4ab8-9ecb-9540880d913b","ios":"levelo://app?vid=14eccde2-d112-4ab8-9ecb-9540880d913b"},"vehicle_type_id":"4","last_reported":1752675065,"current_range_meters":17600,"station_id":"ce4bhg12rcd13ifvqf60","pricing_plan_id":"cebpf4jnsgd1na2vs0mg"},{"bike_id":"8acdf02c-787e-4a1e-956a-5c94a3dff06a","system_id":"levelo_inurba_marseille","lat":43.28515,"lon":5.40552,"is_reserved":false,"is_disabled":false,"rental_uris":{"android":"levelo://app?vid=8acdf02c-787e-4a1e-956a-5c94a3dff06a","ios":"levelo://app?vid=8acdf02c-787e-4a1e-956a-5c94a3dff06a"},"vehicle_type_id":"4","last_reported":1752675065,"current_range_meters":17600,"station_id":"","pricing_plan_id":"cebpf4jnsgd1na2vs0mg"},{"bike_id":"81f522cb-97be-4947-9705-84fda6832d4c","system_id":"levelo_inurba_marseille","lat":43.337444,"lon":5.374475,"is_reserved":false,"is_disabled":false,"rental_uris":{"android":"levelo://app?vid=81f522cb-97be-4947-9705-84fda6832d4c","ios":"levelo://app?vid=81f522cb-97be-4947-9705-84fda6832d4c"},"vehicle_type_id":"4","last_reported":1752675065,"current_range_meters":17600,"station_id":"ce4bhh92rcd13ifvqfj0","pricing_plan_id":"cebpf4jnsgd1na2vs0mg"},{"bike_id":"51463e2c-09cf-4fa5-a440-4b95eeeb90ab","system_id":"levelo_inurba_marseille","lat":43.23749,"lon":5.36649,"is_reserved":false,"is_disabled":false,"rental_uris":{"android":"levelo://app?vid=51463e2c-09cf-4fa5-a440-4b95eeeb90ab","ios":"levelo://app?vid=51463e2c-09cf-4fa5-a440-4b95eeeb90ab"},"vehicle_type_id":"4","last_reported":1752675065,"current_range_meters":17600,"station_id":"","pricing_plan_id":"cebpf4jnsgd1na2vs0mg"},{"bike_id":"def589f8-1927-40c7-bbb8-81631032d093","system_id":"levelo_inurba_marseille","lat":43.22496,"lon":5.34796,"is_reserved":false,"is_disabled":false,"rental_uris":{"android":"levelo://app?vid=def589f8-1927-40c7-bbb8-81631032d093","ios":"levelo://app?vid=def589f8-1927-40c7-bbb8-81631032d093"},"vehicle_type_id":"4","last_reported":1752675065,"current_range_meters":17600,"station_id":"st_cvj5dfep6f1abm77gieg","pricing_plan_id":"cebpf4jnsgd1na2vs0mg"},{"bike_id":"f7947e96-4d95-4c2a-b94f-12bda140a7ff","system_id":"levelo_inurba_marseille","lat":43.28419,"lon":5.34977,"is_reserved":false,"is_disabled":false,"rental_uris":{"android":"levelo://app?vid=f7947e96-4d95-4c2a-b94f-12bda140a7ff","ios":"levelo://app?vid=f7947e96-4d95-4c2a-b94f-12bda140a7ff"},"vehicle_type_id":"4","last_reported":1752675065,"current_range_meters":17600,"station_id":"ce4bhbh2rcd13ifvqepg","pricing_plan_id":"cebpf4jnsgd1na2vs0mg"},{"bike_id":"07f5ae19-0925-43ef-aab4-48ec58bc62b9","system_id":"levelo_inurba_marseille","lat":43.31466,"lon":5.37465,"is_reserved":false,"is_disabled":false,"rental_uris":{"android":"levelo://app?vid=07f5ae19-0925-43ef-aab4-48ec58bc62b9","ios":"levelo://app?vid=07f5ae19-0925-43ef-aab4-48ec58bc62b9"},"vehicle_type_id":"4","last_reported":1752675065,"current_range_meters":17600,"station_id":"","pricing_plan_id":"cebpf4jnsgd1na2vs0mg"},{"bike_id":"b0913f93-a684-4140-9689-82edfbc4235d","system_id":"levelo_inurba_marseille","lat":43.21189,"lon":5.35082,"is_reserved":false,"is_disabled":false,"rental_uris":{"android":"levelo://app?vid=b0913f93-a684-4140-9689-82edfbc4235d","ios":"levelo://app?vid=b0913f93-a684-4140-9689-82edfbc4235d"},"vehicle_type_id":"4","last_reported":1752675065,"current_range_meters":18000,"station_id":"st_cvj6sg6p6f1abm77japg","pricing_plan_id":"cebpf4jnsgd1na2vs0mg"},{"bike_id":"96011392-f348-4771-9fad-d43e460a9c38","system_id":"levelo_inurba_marseille","lat":43.24172,"lon":5.36393,"is_reserved":false,"is_disabled":false,"rental_uris":{"android":"levelo://app?vid=96011392-f348-4771-9fad-d43e460a9c38","ios":"levelo://app?vid=96011392-f348-4771-9fad-d43e460a9c38"},"vehicle_type_id":"4","last_reported":1752675065,"current_range_meters":18000,"station_id":"cpo36qri1sfpv3e86is0","pricing_plan_id":"cebpf4jnsgd1na2vs0mg"},{"bike_id":"0113d280-522b-4679-bde9-135a6a8591f2","system_id":"levelo_inurba_marseille","lat":43.21189,"lon":5.35066,"is_reserved":false,"is_disabled":false,"rental_uris":{"android":"levelo://app?vid=0113d280-522b-4679-bde9-135a6a8591f2","ios":"levelo://app?vid=0113d280-522b-4679-bde9-135a6a8591f2"},"vehicle_type_id":"4","last_reported":1752675065,"current_range_meters":18000,"station_id":"st_cvj6sg6p6f1abm77japg","pricing_plan_id":"cebpf4jnsgd1na2vs0mg"},{"bike_id":"a945d42c-2103-4a54-b2a2-7b0faf062bb9","system_id":"levelo_inurba_marseille","lat":43.30216,"lon":5.39466,"is_reserved":false,"is_disabled":false,"rental_uris":{"android":"levelo://app?vid=a945d42c-2103-4a54-b2a2-7b0faf062bb9","ios":"levelo://app?vid=a945d42c-2103-4a54-b2a2-7b0faf062bb9"},"vehicle_type_id":"4","last_reported":1752675065,"current_range_meters":17600,"station_id":"ce4bh0p2rcd13ifvqd70","pricing_plan_id":"cebpf4jnsgd1na2vs0mg"},{"bike_id":"1da7929e-d1d9-4147-a7cc-6a8b3faa7341","system_id":"levelo_inurba_marseille","lat":43.30367,"lon":5.42488,"is_reserved":false,"is_disabled":false,"rental_uris":{"android":"levelo://app?vid=1da7929e-d1d9-4147-a7cc-6a8b3faa7341","ios":"levelo://app?vid=1da7929e-d1d9-4147-a7cc-6a8b3faa7341"},"vehicle_type_id":"4","last_reported":1752675065,"current_range_meters":18000,"station_id":"ce4bhoh2rcd13ifvqh6g","pricing_plan_id":"cebpf4jnsgd1na2vs0mg"},{"bike_id":"78a2f65e-918a-4986-adb8-0f365b92d3cf","system_id":"levelo_inurba_marseille","lat":43.23068,"lon":5.35494,"is_reserved":false,"is_disabled":false,"rental_uris":{"android":"levelo://app?vid=78a2f65e-918a-4986-adb8-0f365b92d3cf","ios":"levelo://app?vid=78a2f65e-918a-4986-adb8-0f365b92d3cf"},"vehicle_type_id":"4","last_reported":1752675065,"current_range_meters":17600,"station_id":"cpo3342slgdg3j2ifvpg","pricing_plan_id":"cebpf4jnsgd1na2vs0mg"},{"bike_id":"8a279f60-3e24-428c-8165-c9a76bdb616c","system_id":"levelo_inurba_marseille","lat":43.27653,"lon":5.38908,"is_reserved":false,"is_disabled":false,"rental_uris":{"android":"levelo://app?vid=8a279f60-3e24-428c-8165-c9a76bdb616c","ios":"levelo://app?vid=8a279f60-3e24-428c-8165-c9a76bdb616c"},"vehicle_type_id":"4","last_reported":1752675065,"current_range_meters":18800,"station_id":"ce4bhi12rcd13ifvqfo0","pricing_plan_id":"cebpf4jnsgd1na2vs0mg"},{"bike_id":"f6e67167-3686-4cae-82da-4610049996dc","system_id":"levelo_inurba_marseille","lat":43.26928,"lon":5.38573,"is_reserved":false,"is_disabled":false,"rental_uris":{"android":"levelo://app?vid=f6e67167-3686-4cae-82da-4610049996dc","ios":"levelo://app?vid=f6e67167-3686-4cae-82da-4610049996dc"},"vehicle_type_id":"4","last_reported":1752675065,"current_range_meters":18800,"station_id":"","pricing_plan_id":"cebpf4jnsgd1na2vs0mg"},{"bike_id":"7889b704-b301-4414-b00b-fe99422cbed4","system_id":"levelo_inurba_marseille","lat":43.32335,"lon":5.40625,"is_reserved":false,"is_disabled":false,"rental_uris":{"android":"levelo://app?vid=7889b704-b301-4414-b00b-fe99422cbed4","ios":"levelo://app?vid=7889b704-b301-4414-b00b-fe99422cbed4"},"vehicle_type_id":"4","last_reported":1752675065,"current_range_meters":18800,"station_id":"ce4bhq92rcd13ifvqhjg","pricing_plan_id":"cebpf4jnsgd1na2vs0mg"},{"bike_id":"c4d7c0d3-3fa0-42f9-a775-3626a94c8e22","system_id":"levelo_inurba_marseille","lat":43.27382,"lon":5.36269,"is_reserved":false,"is_disabled":false,"rental_uris":{"android":"levelo://app?vid=c4d7c0d3-3fa0-42f9-a775-3626a94c8e22","ios":"levelo://app?vid=c4d7c0d3-3fa0-42f9-a775-3626a94c8e22"},"vehicle_type_id":"4","last_reported":1752675065,"current_range_meters":18800,"station_id":"ce4bhbh2rcd13ifvqeo0","pricing_plan_id":"cebpf4jnsgd1na2vs0mg"},{"bike_id":"79806c3a-6c29-4913-9ec9-93da135cc77d","system_id":"levelo_inurba_marseille","lat":43.33793,"lon":5.37428,"is_reserved":false,"is_disabled":false,"rental_uris":{"android":"levelo://app?vid=79806c3a-6c29-4913-9ec9-93da135cc77d","ios":"levelo://app?vid=79806c3a-6c29-4913-9ec9-93da135cc77d"},"vehicle_type_id":"4","last_reported":1752675065,"current_range_meters":18800,"station_id":"","pricing_plan_id":"cebpf4jnsgd1na2vs0mg"},{"bike_id":"736a3c85-000b-4194-9ce6-cb4a6b5b5d0b","system_id":"levelo_inurba_marseille","lat":43.29852,"lon":5.36286,"is_reserved":false,"is_disabled":false,"rental_uris":{"android":"levelo://app?vid=736a3c85-000b-4194-9ce6-cb4a6b5b5d0b","ios":"levelo://app?vid=736a3c85-000b-4194-9ce6-cb4a6b5b5d0b"},"vehicle_type_id":"4","last_reported":1752675065,"current_range_meters":18800,"station_id":"ce4bgpp2rcd13ifvqc3g","pricing_plan_id":"cebpf4jnsgd1na2vs0mg"},{"bike_id":"75203b7a-4b9e-4b6b-9201-44c4e1860c09","system_id":"levelo_inurba_marseille","lat":43.28611,"lon":5.35106,"is_reserved":false,"is_disabled":false,"rental_uris":{"android":"levelo://app?vid=75203b7a-4b9e-4b6b-9201-44c4e1860c09","ios":"levelo://app?vid=75203b7a-4b9e-4b6b-9201-44c4e1860c09"},"vehicle_type_id":"4","last_reported":1752675065,"current_range_meters":18800,"station_id":"ce4bhch2rcd13ifvqeug","pricing_plan_id":"cebpf4jnsgd1na2vs0mg"},{"bike_id":"3b4a2838-c5dc-4963-9eb2-0ed264a6f8ac","system_id":"levelo_inurba_marseille","lat":43.32037,"lon":5.41537,"is_reserved":false,"is_disabled":false,"rental_uris":{"android":"levelo://app?vid=3b4a2838-c5dc-4963-9eb2-0ed264a6f8ac","ios":"levelo://app?vid=3b4a2838-c5dc-4963-9eb2-0ed264a6f8ac"},"vehicle_type_id":"4","last_reported":1752675065,"current_range_meters":18800,"station_id":"ce4bhq92rcd13ifvqhkg","pricing_plan_id":"cebpf4jnsgd1na2vs0mg"},{"bike_id":"b87320bc-aa4e-4989-87b2-04c49885cabb","system_id":"levelo_inurba_marseille","lat":43.28669,"lon":5.38669,"is_reserved":false,"is_disabled":false,"rental_uris":{"android":"levelo://app?vid=b87320bc-aa4e-4989-87b2-04c49885cabb","ios":"levelo://app?vid=b87320bc-aa4e-4989-87b2-04c49885cabb"},"vehicle_type_id":"4","last_reported":1752675065,"current_range_meters":18800,"station_id":"ce4bh492rcd13ifvqdug","pricing_plan_id":"cebpf4jnsgd1na2vs0mg"},{"bike_id":"0feca23e-d248-45b9-b676-8aec975a6ea0","system_id":"levelo_inurba_marseille","lat":43.284076,"lon":5.349815,"is_reserved":false,"is_disabled":false,"rental_uris":{"android":"levelo://app?vid=0feca23e-d248-45b9-b676-8aec975a6ea0","ios":"levelo://app?vid=0feca23e-d248-45b9-b676-8aec975a6ea0"},"vehicle_type_id":"4","last_reported":1752675065,"current_range_meters":18800,"station_id":"ce4bhbh2rcd13ifvqepg","pricing_plan_id":"cebpf4jnsgd1na2vs0mg"},{"bike_id":"01162d63-eee9-44aa-b940-853d9bbeb099","system_id":"levelo_inurba_marseille","lat":43.32111,"lon":5.3681,"is_reserved":false,"is_disabled":false,"rental_uris":{"android":"levelo://app?vid=01162d63-eee9-44aa-b940-853d9bbeb099","ios":"levelo://app?vid=01162d63-eee9-44aa-b940-853d9bbeb099"},"vehicle_type_id":"4","last_reported":1752675065,"current_range_meters":18800,"station_id":"ce4bhrh2rcd13ifvqhug","pricing_plan_id":"cebpf4jnsgd1na2vs0mg"},{"bike_id":"bfda50f7-cc12-4b12-b5ae-76da8386c12a","system_id":"levelo_inurba_marseille","lat":43.31494,"lon":5.37306,"is_reserved":false,"is_disabled":false,"rental_uris":{"android":"levelo://app?vid=bfda50f7-cc12-4b12-b5ae-76da8386c12a","ios":"levelo://app?vid=bfda50f7-cc12-4b12-b5ae-76da8386c12a"},"vehicle_type_id":"4","last_reported":1752675065,"current_range_meters":18800,"station_id":"ce4bgt12rcd13ifvqcd0","pricing_plan_id":"cebpf4jnsgd1na2vs0mg"},{"bike_id":"8716a6dc-edc9-4ce8-b2db-da4e68c247be","system_id":"levelo_inurba_marseille","lat":43.29529,"lon":5.38554,"is_reserved":false,"is_disabled":true,"rental_uris":{"android":"levelo://app?vid=8716a6dc-edc9-4ce8-b2db-da4e68c247be","ios":"levelo://app?vid=8716a6dc-edc9-4ce8-b2db-da4e68c247be"},"vehicle_type_id":"4","last_reported":1752675065,"current_range_meters":19200,"station_id":"ce4bgih2rcd13ifvqba0","pricing_plan_id":"cebpf4jnsgd1na2vs0mg"},{"bike_id":"1a1de22c-864f-4087-990e-227151d55abc","system_id":"levelo_inurba_marseille","lat":43.212029,"lon":5.351033,"is_reserved":false,"is_disabled":false,"rental_uris":{"android":"levelo://app?vid=1a1de22c-864f-4087-990e-227151d55abc","ios":"levelo://app?vid=1a1de22c-864f-4087-990e-227151d55abc"},"vehicle_type_id":"4","last_reported":1752675065,"current_range_meters":19200,"station_id":"st_cvj6sg6p6f1abm77japg","pricing_plan_id":"cebpf4jnsgd1na2vs0mg"},{"bike_id":"855ff8f9-641c-41af-8e00-5d71e1a04e0f","system_id":"levelo_inurba_marseille","lat":43.22497,"lon":5.34768,"is_reserved":false,"is_disabled":false,"rental_uris":{"android":"levelo://app?vid=855ff8f9-641c-41af-8e00-5d71e1a04e0f","ios":"levelo://app?vid=855ff8f9-641c-41af-8e00-5d71e1a04e0f"},"vehicle_type_id":"4","last_reported":1752675065,"current_range_meters":19200,"station_id":"st_cvj5dfep6f1abm77gieg","pricing_plan_id":"cebpf4jnsgd1na2vs0mg"},{"bike_id":"32c3cff7-299e-476c-a859-a2dda56b020f","system_id":"levelo_inurba_marseille","lat":43.26543,"lon":5.37308,"is_reserved":false,"is_disabled":false,"rental_uris":{"android":"levelo://app?vid=32c3cff7-299e-476c-a859-a2dda56b020f","ios":"levelo://app?vid=32c3cff7-299e-476c-a859-a2dda56b020f"},"vehicle_type_id":"4","last_reported":1752675065,"current_range_meters":19200,"station_id":"ce4bhg12rcd13ifvqf70","pricing_plan_id":"cebpf4jnsgd1na2vs0mg"},{"bike_id":"9bafdc35-d4f9-4adf-b430-76595cda9ed5","system_id":"levelo_inurba_marseille","lat":43.24815,"lon":5.37444,"is_reserved":false,"is_disabled":false,"rental_uris":{"android":"levelo://app?vid=9bafdc35-d4f9-4adf-b430-76595cda9ed5","ios":"levelo://app?vid=9bafdc35-d4f9-4adf-b430-76595cda9ed5"},"vehicle_type_id":"4","last_reported":1752675065,"current_range_meters":19200,"station_id":"ce4bhgh2rcd13ifvqfb0","pricing_plan_id":"cebpf4jnsgd1na2vs0mg"},{"bike_id":"63362215-e6b0-499c-9a27-42bef6c7836f","system_id":"levelo_inurba_marseille","lat":43.21763,"lon":5.34585,"is_reserved":false,"is_disabled":false,"rental_uris":{"android":"levelo://app?vid=63362215-e6b0-499c-9a27-42bef6c7836f","ios":"levelo://app?vid=63362215-e6b0-499c-9a27-42bef6c7836f"},"vehicle_type_id":"4","last_reported":1752675065,"current_range_meters":19200,"station_id":"st_cvj6r9ubvosntc0bgbag","pricing_plan_id":"cebpf4jnsgd1na2vs0mg"},{"bike_id":"661e84fc-0a09-4456-9a81-eb895822c3c8","system_id":"levelo_inurba_marseille","lat":43.24072,"lon":5.37764,"is_reserved":false,"is_disabled":false,"rental_uris":{"android":"levelo://app?vid=661e84fc-0a09-4456-9a81-eb895822c3c8","ios":"levelo://app?vid=661e84fc-0a09-4456-9a81-eb895822c3c8"},"vehicle_type_id":"4","last_reported":1752675065,"current_range_meters":19200,"station_id":"ce4bhnp2rcd13ifvqgvg","pricing_plan_id":"cebpf4jnsgd1na2vs0mg"},{"bike_id":"e0b5d196-2f71-49fb-8402-6f9e1c0ab9fb","system_id":"levelo_inurba_marseille","lat":43.27381,"lon":5.36259,"is_reserved":false,"is_disabled":false,"rental_uris":{"android":"levelo://app?vid=e0b5d196-2f71-49fb-8402-6f9e1c0ab9fb","ios":"levelo://app?vid=e0b5d196-2f71-49fb-8402-6f9e1c0ab9fb"},"vehicle_type_id":"4","last_reported":1752675065,"current_range_meters":19200,"station_id":"ce4bhbh2rcd13ifvqeo0","pricing_plan_id":"cebpf4jnsgd1na2vs0mg"},{"bike_id":"e4676fa8-5edd-4497-ad3c-eacdab39aab8","system_id":"levelo_inurba_marseille","lat":43.2827,"lon":5.35057,"is_reserved":false,"is_disabled":false,"rental_uris":{"android":"levelo://app?vid=e4676fa8-5edd-4497-ad3c-eacdab39aab8","ios":"levelo://app?vid=e4676fa8-5edd-4497-ad3c-eacdab39aab8"},"vehicle_type_id":"4","last_reported":1752675065,"current_range_meters":19200,"station_id":"ce4bhbp2rcd13ifvqerg","pricing_plan_id":"cebpf4jnsgd1na2vs0mg"},{"bike_id":"b6cf70ea-673d-40f0-b95c-30f0736083f5","system_id":"levelo_inurba_marseille","lat":43.25498,"lon":5.37648,"is_reserved":false,"is_disabled":false,"rental_uris":{"android":"levelo://app?vid=b6cf70ea-673d-40f0-b95c-30f0736083f5","ios":"levelo://app?vid=b6cf70ea-673d-40f0-b95c-30f0736083f5"},"vehicle_type_id":"4","last_reported":1752675065,"current_range_meters":19600,"station_id":"ce4bhh12rcd13ifvqff0","pricing_plan_id":"cebpf4jnsgd1na2vs0mg"},{"bike_id":"bc5f68e7-e98c-4d80-a076-3d60d2077e79","system_id":"levelo_inurba_marseille","lat":43.30531,"lon":5.3656,"is_reserved":false,"is_disabled":false,"rental_uris":{"android":"levelo://app?vid=bc5f68e7-e98c-4d80-a076-3d60d2077e79","ios":"levelo://app?vid=bc5f68e7-e98c-4d80-a076-3d60d2077e79"},"vehicle_type_id":"4","last_reported":1752675065,"current_range_meters":19600,"station_id":"ce4bgs12rcd13ifvqcag","pricing_plan_id":"cebpf4jnsgd1na2vs0mg"},{"bike_id":"fd2d3058-1bfd-4d01-8f1a-659277b7a258","system_id":"levelo_inurba_marseille","lat":43.299356,"lon":5.365543,"is_reserved":false,"is_disabled":false,"rental_uris":{"android":"levelo://app?vid=fd2d3058-1bfd-4d01-8f1a-659277b7a258","ios":"levelo://app?vid=fd2d3058-1bfd-4d01-8f1a-659277b7a258"},"vehicle_type_id":"4","last_reported":1752675065,"current_range_meters":19600,"station_id":"ce4bgm92rcd13ifvqbr0","pricing_plan_id":"cebpf4jnsgd1na2vs0mg"},{"bike_id":"601d63f5-45ba-444b-ae10-7d4ee6339f76","system_id":"levelo_inurba_marseille","lat":43.29902,"lon":5.43681,"is_reserved":false,"is_disabled":false,"rental_uris":{"android":"levelo://app?vid=601d63f5-45ba-444b-ae10-7d4ee6339f76","ios":"levelo://app?vid=601d63f5-45ba-444b-ae10-7d4ee6339f76"},"vehicle_type_id":"4","last_reported":1752675065,"current_range_meters":19600,"station_id":"ce4bhpp2rcd13ifvqhfg","pricing_plan_id":"cebpf4jnsgd1na2vs0mg"},{"bike_id":"0d843d9a-b473-49f9-b0c6-1ad4e0ed7bbc","system_id":"levelo_inurba_marseille","lat":43.31528,"lon":5.38034,"is_reserved":false,"is_disabled":false,"rental_uris":{"android":"levelo://app?vid=0d843d9a-b473-49f9-b0c6-1ad4e0ed7bbc","ios":"levelo://app?vid=0d843d9a-b473-49f9-b0c6-1ad4e0ed7bbc"},"vehicle_type_id":"4","last_reported":1752675065,"current_range_meters":19600,"station_id":"ce4bhsp2rcd13ifvqi50","pricing_plan_id":"cebpf4jnsgd1na2vs0mg"},{"bike_id":"0def44e1-c1e0-408b-bc83-72838c29c860","system_id":"levelo_inurba_marseille","lat":43.2826,"lon":5.35073,"is_reserved":false,"is_disabled":false,"rental_uris":{"android":"levelo://app?vid=0def44e1-c1e0-408b-bc83-72838c29c860","ios":"levelo://app?vid=0def44e1-c1e0-408b-bc83-72838c29c860"},"vehicle_type_id":"4","last_reported":1752675065,"current_range_meters":19600,"station_id":"ce4bhbp2rcd13ifvqerg","pricing_plan_id":"cebpf4jnsgd1na2vs0mg"},{"bike_id":"2ac93549-5c94-4228-8eea-782a21384d10","system_id":"levelo_inurba_marseille","lat":43.29634,"lon":5.37793,"is_reserved":false,"is_disabled":false,"rental_uris":{"android":"levelo://app?vid=2ac93549-5c94-4228-8eea-782a21384d10","ios":"levelo://app?vid=2ac93549-5c94-4228-8eea-782a21384d10"},"vehicle_type_id":"4","last_reported":1752675065,"current_range_meters":19600,"station_id":"","pricing_plan_id":"cebpf4jnsgd1na2vs0mg"},{"bike_id":"1af876d9-6e0a-45cc-bed9-deae0b87ca9c","system_id":"levelo_inurba_marseille","lat":43.21195,"lon":5.35076,"is_reserved":false,"is_disabled":false,"rental_uris":{"android":"levelo://app?vid=1af876d9-6e0a-45cc-bed9-deae0b87ca9c","ios":"levelo://app?vid=1af876d9-6e0a-45cc-bed9-deae0b87ca9c"},"vehicle_type_id":"4","last_reported":1752675065,"current_range_meters":19600,"station_id":"st_cvj6sg6p6f1abm77japg","pricing_plan_id":"cebpf4jnsgd1na2vs0mg"},{"bike_id":"18ba8ab3-b10a-484a-81fc-2f6159070cc4","system_id":"levelo_inurba_marseille","lat":43.25499,"lon":5.37649,"is_reserved":false,"is_disabled":false,"rental_uris":{"android":"levelo://app?vid=18ba8ab3-b10a-484a-81fc-2f6159070cc4","ios":"levelo://app?vid=18ba8ab3-b10a-484a-81fc-2f6159070cc4"},"vehicle_type_id":"4","last_reported":1752675065,"current_range_meters":19600,"station_id":"ce4bhh12rcd13ifvqff0","pricing_plan_id":"cebpf4jnsgd1na2vs0mg"},{"bike_id":"531dca68-8617-41b0-a6cd-abffc94e1d45","system_id":"levelo_inurba_marseille","lat":43.31184,"lon":5.37355,"is_reserved":false,"is_disabled":false,"rental_uris":{"android":"levelo://app?vid=531dca68-8617-41b0-a6cd-abffc94e1d45","ios":"levelo://app?vid=531dca68-8617-41b0-a6cd-abffc94e1d45"},"vehicle_type_id":"4","last_reported":1752675065,"current_range_meters":19600,"station_id":"","pricing_plan_id":"cebpf4jnsgd1na2vs0mg"},{"bike_id":"eff08849-67d6-42c3-b44e-d8a470b40621","system_id":"levelo_inurba_marseille","lat":43.28632,"lon":5.35079,"is_reserved":false,"is_disabled":false,"rental_uris":{"android":"levelo://app?vid=eff08849-67d6-42c3-b44e-d8a470b40621","ios":"levelo://app?vid=eff08849-67d6-42c3-b44e-d8a470b40621"},"vehicle_type_id":"4","last_reported":1752675065,"current_range_meters":20000,"station_id":"ce4bhch2rcd13ifvqeug","pricing_plan_id":"cebpf4jnsgd1na2vs0mg"},{"bike_id":"33cfb75e-0a10-4832-bd8a-58f02f8f14f8","system_id":"levelo_inurba_marseille","lat":43.26216,"lon":5.3792,"is_reserved":false,"is_disabled":false,"rental_uris":{"android":"levelo://app?vid=33cfb75e-0a10-4832-bd8a-58f02f8f14f8","ios":"levelo://app?vid=33cfb75e-0a10-4832-bd8a-58f02f8f14f8"},"vehicle_type_id":"4","last_reported":1752675065,"current_range_meters":20000,"station_id":"ce4bhjp2rcd13ifvqg90","pricing_plan_id":"cebpf4jnsgd1na2vs0mg"},{"bike_id":"4cd186e0-473a-47b0-b3f4-181bb971dcd8","system_id":"levelo_inurba_marseille","lat":43.28857,"lon":5.35851,"is_reserved":false,"is_disabled":false,"rental_uris":{"android":"levelo://app?vid=4cd186e0-473a-47b0-b3f4-181bb971dcd8","ios":"levelo://app?vid=4cd186e0-473a-47b0-b3f4-181bb971dcd8"},"vehicle_type_id":"4","last_reported":1752675065,"current_range_meters":20000,"station_id":"ce4bhb12rcd13ifvqem0","pricing_plan_id":"cebpf4jnsgd1na2vs0mg"},{"bike_id":"80f24f7c-2f60-44c1-984d-9e9e9000c36b","system_id":"levelo_inurba_marseille","lat":43.23968,"lon":5.36624,"is_reserved":false,"is_disabled":false,"rental_uris":{"android":"levelo://app?vid=80f24f7c-2f60-44c1-984d-9e9e9000c36b","ios":"levelo://app?vid=80f24f7c-2f60-44c1-984d-9e9e9000c36b"},"vehicle_type_id":"4","last_reported":1752675065,"current_range_meters":20000,"station_id":"ce4bhi12rcd13ifvqfp0","pricing_plan_id":"cebpf4jnsgd1na2vs0mg"},{"bike_id":"93bbeab2-f70e-405b-b5b8-afd6f1e39470","system_id":"levelo_inurba_marseille","lat":43.26135,"lon":5.40472,"is_reserved":false,"is_disabled":false,"rental_uris":{"android":"levelo://app?vid=93bbeab2-f70e-405b-b5b8-afd6f1e39470","ios":"levelo://app?vid=93bbeab2-f70e-405b-b5b8-afd6f1e39470"},"vehicle_type_id":"4","last_reported":1752675065,"current_range_meters":20000,"station_id":"ce4bhmh2rcd13ifvqgmg","pricing_plan_id":"cebpf4jnsgd1na2vs0mg"},{"bike_id":"da891840-0cec-4ccc-961c-48903736c6fa","system_id":"levelo_inurba_marseille","lat":43.31139,"lon":5.37692,"is_reserved":false,"is_disabled":false,"rental_uris":{"android":"levelo://app?vid=da891840-0cec-4ccc-961c-48903736c6fa","ios":"levelo://app?vid=da891840-0cec-4ccc-961c-48903736c6fa"},"vehicle_type_id":"4","last_reported":1752675065,"current_range_meters":20000,"station_id":"","pricing_plan_id":"cebpf4jnsgd1na2vs0mg"},{"bike_id":"da24c495-bf0f-494f-9521-4e687db6d329","system_id":"levelo_inurba_marseille","lat":43.22497,"lon":5.34785,"is_reserved":false,"is_disabled":false,"rental_uris":{"android":"levelo://app?vid=da24c495-bf0f-494f-9521-4e687db6d329","ios":"levelo://app?vid=da24c495-bf0f-494f-9521-4e687db6d329"},"vehicle_type_id":"4","last_reported":1752675065,"current_range_meters":20000,"station_id":"st_cvj5dfep6f1abm77gieg","pricing_plan_id":"cebpf4jnsgd1na2vs0mg"},{"bike_id":"e02bf6aa-747e-493c-b6d2-76965ea485ef","system_id":"levelo_inurba_marseille","lat":43.295723,"lon":5.375196,"is_reserved":false,"is_disabled":false,"rental_uris":{"android":"levelo://app?vid=e02bf6aa-747e-493c-b6d2-76965ea485ef","ios":"levelo://app?vid=e02bf6aa-747e-493c-b6d2-76965ea485ef"},"vehicle_type_id":"4","last_reported":1752675065,"current_range_meters":20000,"station_id":"","pricing_plan_id":"cebpf4jnsgd1na2vs0mg"},{"bike_id":"ecb1ca29-d963-4d3e-8531-f59f0d2818d1","system_id":"levelo_inurba_marseille","lat":43.3022,"lon":5.39466,"is_reserved":false,"is_disabled":false,"rental_uris":{"android":"levelo://app?vid=ecb1ca29-d963-4d3e-8531-f59f0d2818d1","ios":"levelo://app?vid=ecb1ca29-d963-4d3e-8531-f59f0d2818d1"},"vehicle_type_id":"4","last_reported":1752675065,"current_range_meters":20000,"station_id":"ce4bh0p2rcd13ifvqd70","pricing_plan_id":"cebpf4jnsgd1na2vs0mg"},{"bike_id":"582d5e63-4946-44ff-8da5-cdf3e52be7b6","system_id":"levelo_inurba_marseille","lat":43.269612,"lon":5.402865,"is_reserved":false,"is_disabled":false,"rental_uris":{"android":"levelo://app?vid=582d5e63-4946-44ff-8da5-cdf3e52be7b6","ios":"levelo://app?vid=582d5e63-4946-44ff-8da5-cdf3e52be7b6"},"vehicle_type_id":"4","last_reported":1752675065,"current_range_meters":20000,"station_id":"ce4bhk92rcd13ifvqgc0","pricing_plan_id":"cebpf4jnsgd1na2vs0mg"},{"bike_id":"e5f51449-327c-4a36-b1e4-9180e51f9b99","system_id":"levelo_inurba_marseille","lat":43.21747,"lon":5.34612,"is_reserved":false,"is_disabled":false,"rental_uris":{"android":"levelo://app?vid=e5f51449-327c-4a36-b1e4-9180e51f9b99","ios":"levelo://app?vid=e5f51449-327c-4a36-b1e4-9180e51f9b99"},"vehicle_type_id":"4","last_reported":1752675065,"current_range_meters":20000,"station_id":"st_cvj6r9ubvosntc0bgbag","pricing_plan_id":"cebpf4jnsgd1na2vs0mg"},{"bike_id":"0fd2309f-47fa-4170-a3b8-485237487734","system_id":"levelo_inurba_marseille","lat":43.29529,"lon":5.38545,"is_reserved":false,"is_disabled":false,"rental_uris":{"android":"levelo://app?vid=0fd2309f-47fa-4170-a3b8-485237487734","ios":"levelo://app?vid=0fd2309f-47fa-4170-a3b8-485237487734"},"vehicle_type_id":"4","last_reported":1752675065,"current_range_meters":20000,"station_id":"ce4bgih2rcd13ifvqba0","pricing_plan_id":"cebpf4jnsgd1na2vs0mg"},{"bike_id":"2779a935-705c-4593-9426-693fa1d4b8c6","system_id":"levelo_inurba_marseille","lat":43.21193,"lon":5.35078,"is_reserved":false,"is_disabled":false,"rental_uris":{"android":"levelo://app?vid=2779a935-705c-4593-9426-693fa1d4b8c6","ios":"levelo://app?vid=2779a935-705c-4593-9426-693fa1d4b8c6"},"vehicle_type_id":"4","last_reported":1752675065,"current_range_meters":20000,"station_id":"st_cvj6sg6p6f1abm77japg","pricing_plan_id":"cebpf4jnsgd1na2vs0mg"},{"bike_id":"81f88721-00d0-431c-83bf-446e11578408","system_id":"levelo_inurba_marseille","lat":43.22498,"lon":5.34777,"is_reserved":false,"is_disabled":false,"rental_uris":{"android":"levelo://app?vid=81f88721-00d0-431c-83bf-446e11578408","ios":"levelo://app?vid=81f88721-00d0-431c-83bf-446e11578408"},"vehicle_type_id":"4","last_reported":1752675065,"current_range_meters":20000,"station_id":"st_cvj5dfep6f1abm77gieg","pricing_plan_id":"cebpf4jnsgd1na2vs0mg"},{"bike_id":"dd2dc8a3-a276-4710-a199-3e90d5e5f60b","system_id":"levelo_inurba_marseille","lat":43.24773,"lon":5.41176,"is_reserved":false,"is_disabled":false,"rental_uris":{"android":"levelo://app?vid=dd2dc8a3-a276-4710-a199-3e90d5e5f60b","ios":"levelo://app?vid=dd2dc8a3-a276-4710-a199-3e90d5e5f60b"},"vehicle_type_id":"4","last_reported":1752675065,"current_range_meters":20400,"station_id":"","pricing_plan_id":"cebpf4jnsgd1na2vs0mg"},{"bike_id":"a75d2eae-2284-4a25-8af0-ebc4b5fb32ca","system_id":"levelo_inurba_marseille","lat":43.21744,"lon":5.34605,"is_reserved":false,"is_disabled":false,"rental_uris":{"android":"levelo://app?vid=a75d2eae-2284-4a25-8af0-ebc4b5fb32ca","ios":"levelo://app?vid=a75d2eae-2284-4a25-8af0-ebc4b5fb32ca"},"vehicle_type_id":"4","last_reported":1752675065,"current_range_meters":20400,"station_id":"st_cvj6r9ubvosntc0bgbag","pricing_plan_id":"cebpf4jnsgd1na2vs0mg"},{"bike_id":"f1e56bc4-1c26-4209-91bd-7108312105fc","system_id":"levelo_inurba_marseille","lat":43.2706,"lon":5.40261,"is_reserved":false,"is_disabled":false,"rental_uris":{"android":"levelo://app?vid=f1e56bc4-1c26-4209-91bd-7108312105fc","ios":"levelo://app?vid=f1e56bc4-1c26-4209-91bd-7108312105fc"},"vehicle_type_id":"4","last_reported":1752675065,"current_range_meters":20400,"station_id":"ce4bhk92rcd13ifvqgc0","pricing_plan_id":"cebpf4jnsgd1na2vs0mg"},{"bike_id":"370b5495-4112-49cd-80ba-c31203562c50","system_id":"levelo_inurba_marseille","lat":43.30317,"lon":5.37918,"is_reserved":false,"is_disabled":false,"rental_uris":{"android":"levelo://app?vid=370b5495-4112-49cd-80ba-c31203562c50","ios":"levelo://app?vid=370b5495-4112-49cd-80ba-c31203562c50"},"vehicle_type_id":"4","last_reported":1752675065,"current_range_meters":20400,"station_id":"","pricing_plan_id":"cebpf4jnsgd1na2vs0mg"},{"bike_id":"a092d05c-8017-44f5-ba8a-35792463d6a3","system_id":"levelo_inurba_marseille","lat":43.225,"lon":5.34774,"is_reserved":false,"is_disabled":false,"rental_uris":{"android":"levelo://app?vid=a092d05c-8017-44f5-ba8a-35792463d6a3","ios":"levelo://app?vid=a092d05c-8017-44f5-ba8a-35792463d6a3"},"vehicle_type_id":"4","last_reported":1752675065,"current_range_meters":20400,"station_id":"st_cvj5dfep6f1abm77gieg","pricing_plan_id":"cebpf4jnsgd1na2vs0mg"},{"bike_id":"931f5d36-a2a6-4652-b3d1-8bfdab672c9e","system_id":"levelo_inurba_marseille","lat":43.23969,"lon":5.36623,"is_reserved":false,"is_disabled":false,"rental_uris":{"android":"levelo://app?vid=931f5d36-a2a6-4652-b3d1-8bfdab672c9e","ios":"levelo://app?vid=931f5d36-a2a6-4652-b3d1-8bfdab672c9e"},"vehicle_type_id":"4","last_reported":1752675065,"current_range_meters":20400,"station_id":"ce4bhi12rcd13ifvqfp0","pricing_plan_id":"cebpf4jnsgd1na2vs0mg"},{"bike_id":"ea3b0350-7574-4aaf-b8b9-db1a524fc48b","system_id":"levelo_inurba_marseille","lat":43.29937,"lon":5.36559,"is_reserved":false,"is_disabled":false,"rental_uris":{"android":"levelo://app?vid=ea3b0350-7574-4aaf-b8b9-db1a524fc48b","ios":"levelo://app?vid=ea3b0350-7574-4aaf-b8b9-db1a524fc48b"},"vehicle_type_id":"4","last_reported":1752675065,"current_range_meters":20400,"station_id":"ce4bgm92rcd13ifvqbr0","pricing_plan_id":"cebpf4jnsgd1na2vs0mg"},{"bike_id":"38264f39-519e-431d-a8e7-327e430cfc9f","system_id":"levelo_inurba_marseille","lat":43.25533,"lon":5.37266,"is_reserved":false,"is_disabled":false,"rental_uris":{"android":"levelo://app?vid=38264f39-519e-431d-a8e7-327e430cfc9f","ios":"levelo://app?vid=38264f39-519e-431d-a8e7-327e430cfc9f"},"vehicle_type_id":"4","last_reported":1752675065,"current_range_meters":20400,"station_id":"","pricing_plan_id":"cebpf4jnsgd1na2vs0mg"},{"bike_id":"7e5466eb-e538-4487-a9fc-27a4444ad3c1","system_id":"levelo_inurba_marseille","lat":43.21747,"lon":5.346113,"is_reserved":false,"is_disabled":false,"rental_uris":{"android":"levelo://app?vid=7e5466eb-e538-4487-a9fc-27a4444ad3c1","ios":"levelo://app?vid=7e5466eb-e538-4487-a9fc-27a4444ad3c1"},"vehicle_type_id":"4","last_reported":1752675065,"current_range_meters":20400,"station_id":"st_cvj6r9ubvosntc0bgbag","pricing_plan_id":"cebpf4jnsgd1na2vs0mg"},{"bike_id":"82280d14-7e16-4644-b891-13abbfee01e2","system_id":"levelo_inurba_marseille","lat":43.25582,"lon":5.38239,"is_reserved":false,"is_disabled":false,"rental_uris":{"android":"levelo://app?vid=82280d14-7e16-4644-b891-13abbfee01e2","ios":"levelo://app?vid=82280d14-7e16-4644-b891-13abbfee01e2"},"vehicle_type_id":"4","last_reported":1752675065,"current_range_meters":20400,"station_id":"ce4bhih2rcd13ifvqfs0","pricing_plan_id":"cebpf4jnsgd1na2vs0mg"},{"bike_id":"e706c0fb-54a0-4328-8e36-914401fd45e2","system_id":"levelo_inurba_marseille","lat":43.217528,"lon":5.346108,"is_reserved":false,"is_disabled":false,"rental_uris":{"android":"levelo://app?vid=e706c0fb-54a0-4328-8e36-914401fd45e2","ios":"levelo://app?vid=e706c0fb-54a0-4328-8e36-914401fd45e2"},"vehicle_type_id":"4","last_reported":1752675065,"current_range_meters":20400,"station_id":"st_cvj6r9ubvosntc0bgbag","pricing_plan_id":"cebpf4jnsgd1na2vs0mg"},{"bike_id":"cd0a0f79-5e03-44ca-a9e2-859252ab70ff","system_id":"levelo_inurba_marseille","lat":43.2119,"lon":5.35067,"is_reserved":false,"is_disabled":false,"rental_uris":{"android":"levelo://app?vid=cd0a0f79-5e03-44ca-a9e2-859252ab70ff","ios":"levelo://app?vid=cd0a0f79-5e03-44ca-a9e2-859252ab70ff"},"vehicle_type_id":"4","last_reported":1752675065,"current_range_meters":20400,"station_id":"st_cvj6sg6p6f1abm77japg","pricing_plan_id":"cebpf4jnsgd1na2vs0mg"},{"bike_id":"5d226300-d69f-47d5-95bb-5f979c090242","system_id":"levelo_inurba_marseille","lat":43.232,"lon":5.35558,"is_reserved":false,"is_disabled":false,"rental_uris":{"android":"levelo://app?vid=5d226300-d69f-47d5-95bb-5f979c090242","ios":"levelo://app?vid=5d226300-d69f-47d5-95bb-5f979c090242"},"vehicle_type_id":"4","last_reported":1752675065,"current_range_meters":20000,"station_id":"ce4bhu92rcd13ifvqi70","pricing_plan_id":"cebpf4jnsgd1na2vs0mg"},