{"last_updated":1727943153,"ttl":60,"version":"2.2","data":{"bikes":[{"bike_id":"026fe9bf-ce88-4fa9-8299-3d233227d68c","system_id":"levelo_inurba_marseille","lat":43.29224,"lon":5.36051,"is_reserved":false,"is_disabled":false,"rental_uris":{"android":"levelo://app?vid=026fe9bf-ce88-4fa9-8299-3d233227d68c","ios":"levelo://app?vid=026fe9bf-ce88-4fa9-8299-3d233227d68c"},"vehicle_type_id":"4","last_reported":1727943153,"current_range_meters":38800,"station_id":"ce4bhbh2rcd13ifvqeqg","pricing_plan_id":"cebpf4jnsgd1na2vs0mg"},{"bike_id":"8bc0aa01-1d61-49ab-973d-784704f64634","system_id":"levelo_inurba_marseille","lat":43.30123,"lon":5.3653,"is_reserved":false,"is_disabled":false,"rental_uris":{"android":"levelo://app?vid=8bc0aa01-1d61-49ab-973d-784704f64634","ios":"levelo://app?vid=8bc0aa01-1d61-49ab-973d-784704f64634"},"vehicle_type_id":"4","last_reported":1727943153,"current_range_meters":8400,"station_id":"","pricing_plan_id":"cebpf4jnsgd1na2vs0mg"},{"bike_id":"f5b25e81-add5-418a-9c66-f3bc141b9afd","system_id":"levelo_inurba_marseille","lat":43.25941,"lon":5.409,"is_reserved":false,"is_disabled":false,"rental_uris":{"android":"levelo://app?vid=f5b25e81-add5-418a-9c66-f3bc141b9afd","ios":"levelo://app?vid=f5b25e81-add5-418a-9c66-f3bc141b9afd"},"vehicle_type_id":"4","last_reported":1727943153,"current_range_meters":20000,"station_id":"ce4bhm92rcd13ifvqglg","pricing_plan_id":"cebpf4jnsgd1na2vs0mg"},{"bike_id":"14e3148b-eb6c-41c6-981c-d398f4db85af","system_id":"levelo_inurba_marseille","lat":43.27497,"lon":5.42447,"is_reserved":false,"is_disabled":false,"rental_uris":{"android":"levelo://app?vid=14e3148b-eb6c-41c6-981c-d398f4db85af","ios":"levelo://app?vid=14e3148b-eb6c-41c6-981c-d398f4db85af"},"vehicle_type_id":"4","last_reported":1727943153,"current_range_meters":19200,"station_id":"ce4bhn92rcd13ifvqgrg","pricing_plan_id":"cebpf4jnsgd1na2vs0mg"},{"bike_id":"f826c62b-2576-4075-bf19-c184a2ffb8db","system_id":"levelo_inurba_marseille","lat":43.30131,"lon":5.38058,"is_reserved":false,"is_disabled":false,"rental_uris":{"android":"levelo://app?vid=f826c62b-2576-4075-bf19-c184a2ffb8db","ios":"levelo://app?vid=f826c62b-2576-4075-bf19-c184a2ffb8db"},"vehicle_type_id":"4","last_reported":1727943153,"current_range_meters":28000,"station_id":"ce4bgjp2rcd13ifvqbh0","pricing_plan_id":"cebpf4jnsgd1na2vs0mg"},{"bike_id":"bc374655-6eae-4ab6-bb05-dda63ed6e782","system_id":"levelo_inurba_marseille","lat":43.30542,"lon":5.36532,"is_reserved":false,"is_disabled":false,"rental_uris":{"android":"levelo://app?vid=bc374655-6eae-4ab6-bb05-dda63ed6e782","ios":"levelo://app?vid=bc374655-6eae-4ab6-bb05-dda63ed6e782"},"vehicle_type_id":"4","last_reported":1727943153,"current_range_meters":38800,"station_id":"ce4bgs12rcd13ifvqcag","pricing_plan_id":"cebpf4jnsgd1na2vs0mg"},{"bike_id":"dfa316ed-31fe-4eb7-ae98-3312a562d760","system_id":"levelo_inurba_marseille","lat":43.27181,"lon":5.40989,"is_reserved":false,"is_disabled":false,"rental_uris":{"android":"levelo://app?vid=dfa316ed-31fe-4eb7-ae98-3312a562d760","ios":"levelo://app?vid=dfa316ed-31fe-4eb7-ae98-3312a562d760"},"vehicle_type_id":"4","last_reported":1727943153,"current_range_meters":36400,"station_id":"ce4bhl12rcd13ifvqgf0","pricing_plan_id":"cebpf4jnsgd1na2vs0mg"},{"bike_id":"df4ec099-b188-48ab-96c7-11a1ce7c7011","system_id":"levelo_inurba_marseille","lat":43.24659,"lon":5.38905,"is_reserved":false,"is_disabled":false,"rental_uris":{"android":"levelo://app?vid=df4ec099-b188-48ab-96c7-11a1ce7c7011","ios":"levelo://app?vid=df4ec099-b188-48ab-96c7-11a1ce7c7011"},"vehicle_type_id":"4","last_reported":1727943153,"current_range_meters":10000,"station_id":"ce4bhg12rcd13ifvqf60","pricing_plan_id":"cebpf4jnsgd1na2vs0mg"},{"bike_id":"2f2dac1b-1a7c-4a46-91b4-ab01373de409","system_id":"levelo_inurba_marseille","lat":43.2619,"lon":5.37457,"is_reserved":false,"is_disabled":false,"rental_uris":{"android":"levelo://app?vid=2f2dac1b-1a7c-4a46-91b4-ab01373de409","ios":"levelo://app?vid=2f2dac1b-1a7c-4a46-91b4-ab01373de409"},"vehicle_type_id":"4","last_reported":1727943153,"current_range_meters":28400,"station_id":"ce4bhgp2rcd13ifvqfc0","pricing_plan_id":"cebpf4jnsgd1na2vs0mg"},{"bike_id":"91dd8c22-d1e9-4d71-ae55-5dd7e65d7d5a","system_id":"levelo_inurba_marseille","lat":43.23153,"lon":5.4371,"is_reserved":false,"is_disabled":false,"rental_uris":{"android":"levelo://app?vid=91dd8c22-d1e9-4d71-ae55-5dd7e65d7d5a","ios":"levelo://app?vid=91dd8c22-d1e9-4d71-ae55-5dd7e65d7d5a"},"vehicle_type_id":"4","last_reported":1727943153,"current_range_meters":20400,"station_id":"ce4bhmp2rcd13ifvqgog","pricing_plan_id":"cebpf4jnsgd1na2vs0mg"},{"bike_id":"ff89b7e6-8dbb-4502-ae6b-954b46feae02","system_id":"levelo_inurba_marseille","lat":43.25005,"lon":5.38917,"is_reserved":false,"is_disabled":false,"rental_uris":{"android":"levelo://app?vid=ff89b7e6-8dbb-4502-ae6b-954b46feae02","ios":"levelo://app?vid=ff89b7e6-8dbb-4502-ae6b-954b46feae02"},"vehicle_type_id":"4","last_reported":1727943153,"current_range_meters":37600,"station_id":"ce4bhgp2rcd13ifvqfd0","pricing_plan_id":"cebpf4jnsgd1na2vs0mg"},{"bike_id":"bc41810d-3fc6-4e9c-bcc1-3b1d7bce3ce2","system_id":"levelo_inurba_marseille","lat":43.23193,"lon":5.39976,"is_reserved":false,"is_disabled":false,"rental_uris":{"android":"levelo://app?vid=bc41810d-3fc6-4e9c-bcc1-3b1d7bce3ce2","ios":"levelo://app?vid=bc41810d-3fc6-4e9c-bcc1-3b1d7bce3ce2"},"vehicle_type_id":"4","last_reported":1727943153,"current_range_meters":24800,"station_id":"ce4bhn12rcd13ifvqgqg","pricing_plan_id":"cebpf4jnsgd1na2vs0mg"},{"bike_id":"4b6721b8-1a28-4ce5-a9fa-1b893f7f0ac0","system_id":"levelo_inurba_marseille","lat":43.32487,"lon":5.36557,"is_reserved":false,"is_disabled":false,"rental_uris":{"android":"levelo://app?vid=4b6721b8-1a28-4ce5-a9fa-1b893f7f0ac0","ios":"levelo://app?vid=4b6721b8-1a28-4ce5-a9fa-1b893f7f0ac0"},"vehicle_type_id":"4","last_reported":1727943153,"current_range_meters":38800,"station_id":"ce4bhs12rcd13ifvqhvg","pricing_plan_id":"cebpf4jnsgd1na2vs0mg"},{"bike_id":"f0402554-d250-4a9b-bf9e-46e99b7d10ef","system_id":"levelo_inurba_marseille","lat":43.27489,"lon":5.42455,"is_reserved":false,"is_disabled":false,"rental_uris":{"android":"levelo://app?vid=f0402554-d250-4a9b-bf9e-46e99b7d10ef","ios":"levelo://app?vid=f0402554-d250-4a9b-bf9e-46e99b7d10ef"},"vehicle_type_id":"4","last_reported":1727943153,"current_range_meters":9600,"station_id":"ce4bhn92rcd13ifvqgrg","pricing_plan_id":"cebpf4jnsgd1na2vs0mg"},{"bike_id":"cd83069d-2fd2-446d-b833-e65fbf0c2ad5","system_id":"levelo_inurba_marseille","lat":43.24074,"lon":5.3776,"is_reserved":false,"is_disabled":false,"rental_uris":{"android":"levelo://app?vid=cd83069d-2fd2-446d-b833-e65fbf0c2ad5","ios":"levelo://app?vid=cd83069d-2fd2-446d-b833-e65fbf0c2ad5"},"vehicle_type_id":"4","last_reported":1727943153,"current_range_meters":24400,"station_id":"","pricing_plan_id":"cebpf4jnsgd1na2vs0mg"},{"bike_id":"58bdc306-5dae-4496-9cf1-abc7a1bd6a77","system_id":"levelo_inurba_marseille","lat":43.30885,"lon":5.37192,"is_reserved":false,"is_disabled":false,"rental_uris":{"android":"levelo://app?vid=58bdc306-5dae-4496-9cf1-abc7a1bd6a77","ios":"levelo://app?vid=58bdc306-5dae-4496-9cf1-abc7a1bd6a77"},"vehicle_type_id":"4","last_reported":1727943153,"current_range_meters":40000,"station_id":"ce4bguh2rcd13ifvqckg","pricing_plan_id":"cebpf4jnsgd1na2vs0mg"},{"bike_id":"5de7697b-ade3-4580-8008-2407cb9cb03c","system_id":"levelo_inurba_marseille","lat":43.30547,"lon":5.36536,"is_reserved":false,"is_disabled":false,"rental_uris":{"android":"levelo://app?vid=5de7697b-ade3-4580-8008-2407cb9cb03c","ios":"levelo://app?vid=5de7697b-ade3-4580-8008-2407cb9cb03c"},"vehicle_type_id":"4","last_reported":1727943153,"current_range_meters":36400,"station_id":"ce4bgs12rcd13ifvqcag","pricing_plan_id":"cebpf4jnsgd1na2vs0mg"},{"bike_id":"0a9918d7-41e5-40b7-a2f3-9509ab8baede","system_id":"levelo_inurba_marseille","lat":43.28338,"lon":5.41294,"is_reserved":false,"is_disabled":false,"rental_uris":{"android":"levelo://app?vid=0a9918d7-41e5-40b7-a2f3-9509ab8baede","ios":"levelo://app?vid=0a9918d7-41e5-40b7-a2f3-9509ab8baede"},"vehicle_type_id":"4","last_reported":1727943153,"current_range_meters":19200,"station_id":"","pricing_plan_id":"cebpf4jnsgd1na2vs0mg"},{"bike_id":"fd802ec6-87e9-40f7-8a8b-86140cac3ad3","system_id":"levelo_inurba_marseille","lat":43.29573,"lon":5.36741,"is_reserved":false,"is_disabled":false,"rental_uris":{"android":"levelo://app?vid=fd802ec6-87e9-40f7-8a8b-86140cac3ad3","ios":"levelo://app?vid=fd802ec6-87e9-40f7-8a8b-86140cac3ad3"},"vehicle_type_id":"4","last_reported":1727943153,"current_range_meters":37600,"station_id":"ce4bgph2rcd13ifvqc2g","pricing_plan_id":"cebpf4jnsgd1na2vs0mg"},{"bike_id":"16a714d4-56a8-49e7-92a3-debf531ddf74","system_id":"levelo_inurba_marseille","lat":43.24181,"lon":5.39732,"is_reserved":false,"is_disabled":false,"rental_uris":{"android":"levelo://app?vid=16a714d4-56a8-49e7-92a3-debf531ddf74","ios":"levelo://app?vid=16a714d4-56a8-49e7-92a3-debf531ddf74"},"vehicle_type_id":"4","last_reported":1727943153,"current_range_meters":25200,"station_id":"ce4bhn12rcd13ifvqgpg","pricing_plan_id":"cebpf4jnsgd1na2vs0mg"},{"bike_id":"1d1e8cc7-d25f-42a1-a894-13b7e09719b8","system_id":"levelo_inurba_marseille","lat":43.29631,"lon":5.377,"is_reserved":false,"is_disabled":false,"rental_uris":{"android":"levelo://app?vid=1d1e8cc7-d25f-42a1-a894-13b7e09719b8","ios":"levelo://app?vid=1d1e8cc7-d25f-42a1-a894-13b7e09719b8"},"vehicle_type_id":"4","last_reported":1727943153,"current_range_meters":16400,"station_id":"ce4bgi92rcd13ifvqb90","pricing_plan_id":"cebpf4jnsgd1na2vs0mg"},{"bike_id":"25454cee-75e1-4829-863e-96eae8fc3747","system_id":"levelo_inurba_marseille","lat":43.34146,"lon":5.40905,"is_reserved":false,"is_disabled":false,"rental_uris":{"android":"levelo://app?vid=25454cee-75e1-4829-863e-96eae8fc3747","ios":"levelo://app?vid=25454cee-75e1-4829-863e-96eae8fc3747"},"vehicle_type_id":"4","last_reported":1727943153,"current_range_meters":39200,"station_id":"ce4bhqh2rcd13ifvqhlg","pricing_plan_id":"cebpf4jnsgd1na2vs0mg"},{"bike_id":"3420bd34-edf4-4eb5-8c58-eee5e2170f9d","system_id":"levelo_inurba_marseille","lat":43.24075,"lon":5.37754,"is_reserved":false,"is_disabled":false,"rental_uris":{"android":"levelo://app?vid=3420bd34-edf4-4eb5-8c58-eee5e2170f9d","ios":"levelo://app?vid=3420bd34-edf4-4eb5-8c58-eee5e2170f9d"},"vehicle_type_id":"4","last_reported":1727943153,"current_range_meters":36400,"station_id":"ce4bhnp2rcd13ifvqgvg","pricing_plan_id":"cebpf4jnsgd1na2vs0mg"},{"bike_id":"4cd36742-2f26-4560-be12-4268a105ac20","system_id":"levelo_inurba_marseille","lat":43.30925,"lon":5.40146,"is_reserved":false,"is_disabled":false,"rental_uris":{"android":"levelo://app?vid=4cd36742-2f26-4560-be12-4268a105ac20","ios":"levelo://app?vid=4cd36742-2f26-4560-be12-4268a105ac20"},"vehicle_type_id":"4","last_reported":1727943153,"current_range_meters":8000,"station_id":"ce4bgvp2rcd13ifvqct0","pricing_plan_id":"cebpf4jnsgd1na2vs0mg"},{"bike_id":"5dfd2334-1db8-40c6-8656-62bbf1471e64","system_id":"levelo_inurba_marseille","lat":43.30134,"lon":5.37414,"is_reserved":false,"is_disabled":false,"rental_uris":{"android":"levelo://app?vid=5dfd2334-1db8-40c6-8656-62bbf1471e64","ios":"levelo://app?vid=5dfd2334-1db8-40c6-8656-62bbf1471e64"},"vehicle_type_id":"4","last_reported":1727943153,"current_range_meters":12400,"station_id":"ce4bgs92rcd13ifvqcc0","pricing_plan_id":"cebpf4jnsgd1na2vs0mg"},{"bike_id":"a666602a-0391-4ac0-8cb1-ef8e28610fe5","system_id":"levelo_inurba_marseille","lat":43.28672,"lon":5.3865,"is_reserved":false,"is_disabled":false,"rental_uris":{"android":"levelo://app?vid=a666602a-0391-4ac0-8cb1-ef8e28610fe5","ios":"levelo://app?vid=a666602a-0391-4ac0-8cb1-ef8e28610fe5"},"vehicle_type_id":"4","last_reported":1727943153,"current_range_meters":30000,"station_id":"ce4bh492rcd13ifvqdug","pricing_plan_id":"cebpf4jnsgd1na2vs0mg"},{"bike_id":"4742c689-0d3e-45a9-b482-2c8459a45220","system_id":"levelo_inurba_marseille","lat":43.29218,"lon":5.36064,"is_reserved":false,"is_disabled":false,"rental_uris":{"android":"levelo://app?vid=4742c689-0d3e-45a9-b482-2c8459a45220","ios":"levelo://app?vid=4742c689-0d3e-45a9-b482-2c8459a45220"},"vehicle_type_id":"4","last_reported":1727943153,"current_range_meters":38800,"station_id":"ce4bhbh2rcd13ifvqeqg","pricing_plan_id":"cebpf4jnsgd1na2vs0mg"},{"bike_id":"a96ae230-0477-4670-8590-efaa19277eae","system_id":"levelo_inurba_marseille","lat":43.26557,"lon":5.39013,"is_reserved":false,"is_disabled":false,"rental_uris":{"android":"levelo://app?vid=a96ae230-0477-4670-8590-efaa19277eae","ios":"levelo://app?vid=a96ae230-0477-4670-8590-efaa19277eae"},"vehicle_type_id":"4","last_reported":1727943153,"current_range_meters":7200,"station_id":"ce4bhe12rcd13ifvqf30","pricing_plan_id":"cebpf4jnsgd1na2vs0mg"},{"bike_id":"add76ba5-8541-479d-987c-2674a769bf7a","system_id":"levelo_inurba_marseille","lat":43.27489,"lon":5.42462,"is_reserved":false,"is_disabled":false,"rental_uris":{"android":"levelo://app?vid=add76ba5-8541-479d-987c-2674a769bf7a","ios":"levelo://app?vid=add76ba5-8541-479d-987c-2674a769bf7a"},"vehicle_type_id":"4","last_reported":1727943153,"current_range_meters":12000,"station_id":"ce4bhn92rcd13ifvqgrg","pricing_plan_id":"cebpf4jnsgd1na2vs0mg"},{"bike_id":"f20ea9d5-5ffd-4e93-9254-3415e729f736","system_id":"levelo_inurba_marseille","lat":43.26565,"lon":5.39018,"is_reserved":false,"is_disabled":false,"rental_uris":{"android":"levelo://app?vid=f20ea9d5-5ffd-4e93-9254-3415e729f736","ios":"levelo://app?vid=f20ea9d5-5ffd-4e93-9254-3415e729f736"},"vehicle_type_id":"4","last_reported":1727943153,"current_range_meters":32000,"station_id":"ce4bhe12rcd13ifvqf30","pricing_plan_id":"cebpf4jnsgd1na2vs0mg"},{"bike_id":"78f485d1-bf5b-445b-a57f-ee387d423c2a","system_id":"levelo_inurba_marseille","lat":43.24644,"lon":5.38901,"is_reserved":false,"is_disabled":false,"rental_uris":{"android":"levelo://app?vid=78f485d1-bf5b-445b-a57f-ee387d423c2a","ios":"levelo://app?vid=78f485d1-bf5b-445b-a57f-ee387d423c2a"},"vehicle_type_id":"4","last_reported":1727943153,"current_range_meters":36800,"station_id":"ce4bhg12rcd13ifvqf60","pricing_plan_id":"cebpf4jnsgd1na2vs0mg"},{"bike_id":"048a56f8-a044-4487-9303-92f19580068f","system_id":"levelo_inurba_marseille","lat":43.30535,"lon":5.38438,"is_reserved":false,"is_disabled":false,"rental_uris":{"android":"levelo://app?vid=048a56f8-a044-4487-9303-92f19580068f","ios":"levelo://app?vid=048a56f8-a044-4487-9303-92f19580068f"},"vehicle_type_id":"4","last_reported":1727943153,"current_range_meters":29600,"station_id":"ce4bgg92rcd13ifvqb30","pricing_plan_id":"cebpf4jnsgd1na2vs0mg"},{"bike_id":"5ae00acb-b644-4b4e-b6ca-99b1a5dfcf2c","system_id":"levelo_inurba_marseille","lat":43.31357,"lon":5.3849,"is_reserved":false,"is_disabled":false,"rental_uris":{"android":"levelo://app?vid=5ae00acb-b644-4b4e-b6ca-99b1a5dfcf2c","ios":"levelo://app?vid=5ae00acb-b644-4b4e-b6ca-99b1a5dfcf2c"},"vehicle_type_id":"4","last_reported":1727943153,"current_range_meters":27200,"station_id":"ce4bgt92rcd13ifvqcf0","pricing_plan_id":"cebpf4jnsgd1na2vs0mg"},{"bike_id":"70c09456-1d63-4cd9-b47f-0fef3d379fdd","system_id":"levelo_inurba_marseille","lat":43.26206,"lon":5.37437,"is_reserved":false,"is_disabled":false,"rental_uris":{"android":"levelo://app?vid=70c09456-1d63-4cd9-b47f-0fef3d379fdd","ios":"levelo://app?vid=70c09456-1d63-4cd9-b47f-0fef3d379fdd"},"vehicle_type_id":"4","last_reported":1727943153,"current_range_meters":32400,"station_id":"ce4bhgp2rcd13ifvqfc0","pricing_plan_id":"cebpf4jnsgd1na2vs0mg"},{"bike_id":"49d3e753-cd24-4ef3-8d08-09b0cc79ef94","system_id":"levelo_inurba_marseille","lat":43.26682,"lon":5.38269,"is_reserved":false,"is_disabled":false,"rental_uris":{"android":"levelo://app?vid=49d3e753-cd24-4ef3-8d08-09b0cc79ef94","ios":"levelo://app?vid=49d3e753-cd24-4ef3-8d08-09b0cc79ef94"},"vehicle_type_id":"4","last_reported":1727943153,"current_range_meters":18800,"station_id":"ce4bhg92rcd13ifvqf90","pricing_plan_id":"cebpf4jnsgd1na2vs0mg"},{"bike_id":"f0e3f5f8-581c-4df7-a37c-4b4ba34e6432","system_id":"levelo_inurba_marseille","lat":43.26941,"lon":5.38632,"is_reserved":false,"is_disabled":false,"rental_uris":{"android":"levelo://app?vid=f0e3f5f8-581c-4df7-a37c-4b4ba34e6432","ios":"levelo://app?vid=f0e3f5f8-581c-4df7-a37c-4b4ba34e6432"},"vehicle_type_id":"4","last_reported":1727943153,"current_range_meters":36000,"station_id":"ce4bhh92rcd13ifvqfh0","pricing_plan_id":"cebpf4jnsgd1na2vs0mg"},{"bike_id":"52cbff26-46f2-4ff8-880e-528cf396d7a2","system_id":"levelo_inurba_marseille","lat":43.33611,"lon":5.4104,"is_reserved":false,"is_disabled":false,"rental_uris":{"android":"levelo://app?vid=52cbff26-46f2-4ff8-880e-528cf396d7a2","ios":"levelo://app?vid=52cbff26-46f2-4ff8-880e-528cf396d7a2"},"vehicle_type_id":"4","last_reported":1727943153,"current_range_meters":9200,"station_id":"ce4bhqh2rcd13ifvqhmg","pricing_plan_id":"cebpf4jnsgd1na2vs0mg"},{"bike_id":"0254b970-14d7-4dfc-8d38-0171ca9ae025","system_id":"levelo_inurba_marseille","lat":43.26682,"lon":5.38268,"is_reserved":false,"is_disabled":false,"rental_uris":{"android":"levelo://app?vid=0254b970-14d7-4dfc-8d38-0171ca9ae025","ios":"levelo://app?vid=0254b970-14d7-4dfc-8d38-0171ca9ae025"},"vehicle_type_id":"4","last_reported":1727943153,"current_range_meters":20400,"station_id":"ce4bhg92rcd13ifvqf90","pricing_plan_id":"cebpf4jnsgd1na2vs0mg"},{"bike_id":"2b34ab53-1608-44b7-8aee-7f7771902ebd","system_id":"levelo_inurba_marseille","lat":43.30279,"lon":5.37693,"is_reserved":false,"is_disabled":false,"rental_uris":{"android":"levelo://app?vid=2b34ab53-1608-44b7-8aee-7f7771902ebd","ios":"levelo://app?vid=2b34ab53-1608-44b7-8aee-7f7771902ebd"},"vehicle_type_id":"4","last_reported":1727943153,"current_range_meters":14000,"station_id":"ce4bguh2rcd13ifvqcj0","pricing_plan_id":"cebpf4jnsgd1na2vs0mg"},{"bike_id":"f3ded537-2d94-4bf0-b696-14a43ed73f3a","system_id":"levelo_inurba_marseille","lat":43.31226,"lon":5.36852,"is_reserved":false,"is_disabled":false,"rental_uris":{"android":"levelo://app?vid=f3ded537-2d94-4bf0-b696-14a43ed73f3a","ios":"levelo://app?vid=f3ded537-2d94-4bf0-b696-14a43ed73f3a"},"vehicle_type_id":"4","last_reported":1727943153,"current_range_meters":29600,"station_id":"ce4bgl92rcd13ifvqbq0","pricing_plan_id":"cebpf4jnsgd1na2vs0mg"},{"bike_id":"5077e3da-46af-40a3-8277-cca140db96d3","system_id":"levelo_inurba_marseille","lat":43.33615,"lon":5.41036,"is_reserved":false,"is_disabled":false,"rental_uris":{"android":"levelo://app?vid=5077e3da-46af-40a3-8277-cca140db96d3","ios":"levelo://app?vid=5077e3da-46af-40a3-8277-cca140db96d3"},"vehicle_type_id":"4","last_reported":1727943153,"current_range_meters":24400,"station_id":"ce4bhqh2rcd13ifvqhmg","pricing_plan_id":"cebpf4jnsgd1na2vs0mg"},{"bike_id":"1645ee36-730f-4cfa-a916-24d9a0d96657","system_id":"levelo_inurba_marseille","lat":43.26932,"lon":5.38915,"is_reserved":false,"is_disabled":false,"rental_uris":{"android":"levelo://app?vid=1645ee36-730f-4cfa-a916-24d9a0d96657","ios":"levelo://app?vid=1645ee36-730f-4cfa-a916-24d9a0d96657"},"vehicle_type_id":"4","last_reported":1727943153,"current_range_meters":9600,"station_id":"ce4bhhh2rcd13ifvqfl0","pricing_plan_id":"cebpf4jnsgd1na2vs0mg"},{"bike_id":"22094e14-fe04-4f6d-940c-3e57c3ad82a9","system_id":"levelo_inurba_marseille","lat":43.23154,"lon":5.43706,"is_reserved":false,"is_disabled":false,"rental_uris":{"android":"levelo://app?vid=22094e14-fe04-4f6d-940c-3e57c3ad82a9","ios":"levelo://app?vid=22094e14-fe04-4f6d-940c-3e57c3ad82a9"},"vehicle_type_id":"4","last_reported":1727943153,"current_range_meters":26800,"station_id":"ce4bhmp2rcd13ifvqgog","pricing_plan_id":"cebpf4jnsgd1na2vs0mg"},{"bike_id":"713879b1-16a3-417a-be94-383dd0723ace","system_id":"levelo_inurba_marseille","lat":43.23151,"lon":5.43709,"is_reserved":false,"is_disabled":false,"rental_uris":{"android":"levelo://app?vid=713879b1-16a3-417a-be94-383dd0723ace","ios":"levelo://app?vid=713879b1-16a3-417a-be94-383dd0723ace"},"vehicle_type_id":"4","last_reported":1727943153,"current_range_meters":4800,"station_id":"ce4bhmp2rcd13ifvqgog","pricing_plan_id":"cebpf4jnsgd1na2vs0mg"},{"bike_id":"48d8e209-6dbd-4e89-89f5-acceb8bc2a66","system_id":"levelo_inurba_marseille","lat":43.31351,"lon":5.36716,"is_reserved":false,"is_disabled":false,"rental_uris":{"android":"levelo://app?vid=48d8e209-6dbd-4e89-89f5-acceb8bc2a66","ios":"levelo://app?vid=48d8e209-6dbd-4e89-89f5-acceb8bc2a66"},"vehicle_type_id":"4","last_reported":1727943153,"current_range_meters":15200,"station_id":"ce4bgr92rcd13ifvqc6g","pricing_plan_id":"cebpf4jnsgd1na2vs0mg"},{"bike_id":"24d92f51-0476-4c2e-838c-c91673ebb0c9","system_id":"levelo_inurba_marseille","lat":43.28155,"lon":5.42641,"is_reserved":false,"is_disabled":false,"rental_uris":{"android":"levelo://app?vid=24d92f51-0476-4c2e-838c-c91673ebb0c9","ios":"levelo://app?vid=24d92f51-0476-4c2e-838c-c91673ebb0c9"},"vehicle_type_id":"4","last_reported":1727943153,"current_range_meters":37600,"station_id":"ce4bhnh2rcd13ifvqgug","pricing_plan_id":"cebpf4jnsgd1na2vs0mg"},{"bike_id":"5176a661-b550-48a5-a1f8-fa2cbf4ebbce","system_id":"levelo_inurba_marseille","lat":43.31365,"lon":5.38489,"is_reserved":false,"is_disabled":false,"rental_uris":{"android":"levelo://app?vid=5176a661-b550-48a5-a1f8-fa2cbf4ebbce","ios":"levelo://app?vid=5176a661-b550-48a5-a1f8-fa2cbf4ebbce"},"vehicle_type_id":"4","last_reported":1727943153,"current_range_meters":38800,"station_id":"ce4bgt92rcd13ifvqcf0","pricing_plan_id":"cebpf4jnsgd1na2vs0mg"},{"bike_id":"b7046bd9-0899-4f40-956c-57be7242e42a","system_id":"levelo_inurba_marseille","lat":43.291725,"lon":5.369113,"is_reserved":false,"is_disabled":false,"rental_uris":{"android":"levelo://app?vid=b7046bd9-0899-4f40-956c-57be7242e42a","ios":"levelo://app?vid=b7046bd9-0899-4f40-956c-57be7242e42a"},"vehicle_type_id":"4","last_reported":1727943153,"current_range_meters":32400,"station_id":"","pricing_plan_id":"cebpf4jnsgd1na2vs0mg"},{"bike_id":"478f18b8-0e9b-49c5-a1be-a453a8397399","system_id":"levelo_inurba_marseille","lat":43.28857,"lon":5.39309,"is_reserved":false,"is_disabled":false,"rental_uris":{"android":"levelo://app?vid=478f18b8-0e9b-49c5-a1be-a453a8397399","ios":"levelo://app?vid=478f18b8-0e9b-49c5-a1be-a453a8397399"},"vehicle_type_id":"4","last_reported":1727943153,"current_range_meters":14800,"station_id":"ce4bh2p2rcd13ifvqdi0","pricing_plan_id":"cebpf4jnsgd1na2vs0mg"},{"bike_id":"0d38caac-4e1b-4bc6-8634-fba8549655ca","system_id":"levelo_inurba_marseille","lat":43.32109,"lon":5.36767,"is_reserved":false,"is_disabled":false,"rental_uris":{"android":"levelo://app?vid=0d38caac-4e1b-4bc6-8634-fba8549655ca","ios":"levelo://app?vid=0d38caac-4e1b-4bc6-8634-fba8549655ca"},"vehicle_type_id":"4","last_reported":1727943153,"current_range_meters":36800,"station_id":"ce4bhrh2rcd13ifvqhug","pricing_plan_id":"cebpf4jnsgd1na2vs0mg"},{"bike_id":"bbb27d72-0252-43c1-8bee-677ba4f1e987","system_id":"levelo_inurba_marseille","lat":43.23149,"lon":5.43716,"is_reserved":false,"is_disabled":false,"rental_uris":{"android":"levelo://app?vid=bbb27d72-0252-43c1-8bee-677ba4f1e987","ios":"levelo://app?vid=bbb27d72-0252-43c1-8bee-677ba4f1e987"},"vehicle_type_id":"4","last_reported":1727943153,"current_range_meters":11600,"station_id":"ce4bhmp2rcd13ifvqgog","pricing_plan_id":"cebpf4jnsgd1na2vs0mg"},{"bike_id":"4f012cc6-31d2-4caa-8f39-337ae9626f04","system_id":"levelo_inurba_marseille","lat":43.23145,"lon":5.43726,"is_reserved":false,"is_disabled":false,"rental_uris":{"android":"levelo://app?vid=4f012cc6-31d2-4caa-8f39-337ae9626f04","ios":"levelo://app?vid=4f012cc6-31d2-4caa-8f39-337ae9626f04"},"vehicle_type_id":"4","last_reported":1727943153,"current_range_meters":9200,"station_id":"ce4bhmp2rcd13ifvqgog","pricing_plan_id":"cebpf4jnsgd1na2vs0mg"},{"bike_id":"39a282a7-0607-4c61-97ee-36c5e7310441","system_id":"levelo_inurba_marseille","lat":43.29551,"lon":5.42282,"is_reserved":false,"is_disabled":false,"rental_uris":{"android":"levelo://app?vid=39a282a7-0607-4c61-97ee-36c5e7310441","ios":"levelo://app?vid=39a282a7-0607-4c61-97ee-36c5e7310441"},"vehicle_type_id":"4","last_reported":1727943153,"current_range_meters":38800,"station_id":"ce4bhph2rcd13ifvqhdg","pricing_plan_id":"cebpf4jnsgd1na2vs0mg"},{"bike_id":"3c7ad232-3a27-488f-9a95-36ebb8728742","system_id":"levelo_inurba_marseille","lat":43.31119,"lon":5.37753,"is_reserved":false,"is_disabled":false,"rental_uris":{"android":"levelo://app?vid=3c7ad232-3a27-488f-9a95-36ebb8728742","ios":"levelo://app?vid=3c7ad232-3a27-488f-9a95-36ebb8728742"},"vehicle_type_id":"4","last_reported":1727943153,"current_range_meters":25200,"station_id":"ce4bgt92rcd13ifvqcg0","pricing_plan_id":"cebpf4jnsgd1na2vs0mg"},{"bike_id":"00509870-9879-4a7b-9570-947399eae874","system_id":"levelo_inurba_marseille","lat":43.30915,"lon":5.36851,"is_reserved":false,"is_disabled":false,"rental_uris":{"android":"levelo://app?vid=00509870-9879-4a7b-9570-947399eae874","ios":"levelo://app?vid=00509870-9879-4a7b-9570-947399eae874"},"vehicle_type_id":"4","last_reported":1727943153,"current_range_meters":24800,"station_id":"ce4bgn92rcd13ifvqbvg","pricing_plan_id":"cebpf4jnsgd1na2vs0mg"},{"bike_id":"62858515-e13a-4648-bb13-18f7d9446e70","system_id":"levelo_inurba_marseille","lat":43.30206,"lon":5.39474,"is_reserved":false,"is_disabled":false,"rental_uris":{"android":"levelo://app?vid=62858515-e13a-4648-bb13-18f7d9446e70","ios":"levelo://app?vid=62858515-e13a-4648-bb13-18f7d9446e70"},"vehicle_type_id":"4","last_reported":1727943153,"current_range_meters":36400,"station_id":"ce4bh0p2rcd13ifvqd70","pricing_plan_id":"cebpf4jnsgd1na2vs0mg"},{"bike_id":"499cb64c-6fb8-4407-89d8-a118e3c5c28d","system_id":"levelo_inurba_marseille","lat":43.27989,"lon":5.4002,"is_reserved":false,"is_disabled":false,"rental_uris":{"android":"levelo://app?vid=499cb64c-6fb8-4407-89d8-a118e3c5c28d","ios":"levelo://app?vid=499cb64c-6fb8-4407-89d8-a118e3c5c28d"},"vehicle_type_id":"4","last_reported":1727943153,"current_range_meters":21600,"station_id":"ce4bho92rcd13ifvqh4g","pricing_plan_id":"cebpf4jnsgd1na2vs0mg"},{"bike_id":"e9cf35fd-4251-4273-89b9-6a255d8e3b48","system_id":"levelo_inurba_marseille","lat":43.23154,"lon":5.43702,"is_reserved":false,"is_disabled":false,"rental_uris":{"android":"levelo://app?vid=e9cf35fd-4251-4273-89b9-6a255d8e3b48","ios":"levelo://app?vid=e9cf35fd-4251-4273-89b9-6a255d8e3b48"},"vehicle_type_id":"4","last_reported":1727943153,"current_range_meters":32400,"station_id":"ce4bhmp2rcd13ifvqgog","pricing_plan_id":"cebpf4jnsgd1na2vs0mg"},{"bike_id":"73f66102-21cd-4be5-9fb3-258e3aabfc34","system_id":"levelo_inurba_marseille","lat":43.31229,"lon":5.36882,"is_reserved":false,"is_disabled":false,"rental_uris":{"android":"levelo://app?vid=73f66102-21cd-4be5-9fb3-258e3aabfc34","ios":"levelo://app?vid=73f66102-21cd-4be5-9fb3-258e3aabfc34"},"vehicle_type_id":"4","last_reported":1727943153,"current_range_meters":24800,"station_id":"ce4bgl92rcd13ifvqbq0","pricing_plan_id":"cebpf4jnsgd1na2vs0mg"},{"bike_id":"92ce0bf8-67ba-4c8f-84b0-53393051e52e","system_id":"levelo_inurba_marseille","lat":43.301453,"lon":5.374105,"is_reserved":false,"is_disabled":false,"rental_uris":{"android":"levelo://app?vid=92ce0bf8-67ba-4c8f-84b0-53393051e52e","ios":"levelo://app?vid=92ce0bf8-67ba-4c8f-84b0-53393051e52e"},"vehicle_type_id":"4","last_reported":1727943153,"current_range_meters":16000,"station_id":"ce4bgs92rcd13ifvqcc0","pricing_plan_id":"cebpf4jnsgd1na2vs0mg"},{"bike_id":"61d0f579-6f90-415d-bb85-e9564ceecbf4","system_id":"levelo_inurba_marseille","lat":43.24075,"lon":5.37754,"is_reserved":false,"is_disabled":false,"rental_uris":{"android":"levelo://app?vid=61d0f579-6f90-415d-bb85-e9564ceecbf4","ios":"levelo://app?vid=61d0f579-6f90-415d-bb85-e9564ceecbf4"},"vehicle_type_id":"4","last_reported":1727943153,"current_range_meters":24400,"station_id":"ce4bhnp2rcd13ifvqgvg","pricing_plan_id":"cebpf4jnsgd1na2vs0mg"},{"bike_id":"893a33ca-4d5e-4098-ae63-d5992779e7f0","system_id":"levelo_inurba_marseille","lat":43.28258,"lon":5.35076,"is_reserved":false,"is_disabled":false,"rental_uris":{"android":"levelo://app?vid=893a33ca-4d5e-4098-ae63-d5992779e7f0","ios":"levelo://app?vid=893a33ca-4d5e-4098-ae63-d5992779e7f0"},"vehicle_type_id":"4","last_reported":1727943153,"current_range_meters":37600,"station_id":"ce4bhbp2rcd13ifvqerg","pricing_plan_id":"cebpf4jnsgd1na2vs0mg"},{"bike_id":"73ab3d41-362e-4d86-a8c4-9bbdddb2c1d0","system_id":"levelo_inurba_marseille","lat":43.289673,"lon":5.365817,"is_reserved":false,"is_disabled":false,"rental_uris":{"android":"levelo://app?vid=73ab3d41-362e-4d86-a8c4-9bbdddb2c1d0","ios":"levelo://app?vid=73ab3d41-362e-4d86-a8c4-9bbdddb2c1d0"},"vehicle_type_id":"4","last_reported":1727943153,"current_range_meters":26000,"station_id":"ce4bho92rcd13ifvqh3g","pricing_plan_id":"cebpf4jnsgd1na2vs0mg"},{"bike_id":"92f2c1e8-86ac-4266-b288-eca339da92ea","system_id":"levelo_inurba_marseille","lat":43.29027,"lon":5.39957,"is_reserved":false,"is_disabled":false,"rental_uris":{"android":"levelo://app?vid=92f2c1e8-86ac-4266-b288-eca339da92ea","ios":"levelo://app?vid=92f2c1e8-86ac-4266-b288-eca339da92ea"},"vehicle_type_id":"4","last_reported":1727943153,"current_range_meters":14000,"station_id":"ce4bh392rcd13ifvqdm0","pricing_plan_id":"cebpf4jnsgd1na2vs0mg"},{"bike_id":"a8edbae9-085d-40e4-91c8-4030fc88999a","system_id":"levelo_inurba_marseille","lat":43.31154,"lon":5.37251,"is_reserved":false,"is_disabled":false,"rental_uris":{"android":"levelo://app?vid=a8edbae9-085d-40e4-91c8-4030fc88999a","ios":"levelo://app?vid=a8edbae9-085d-40e4-91c8-4030fc88999a"},"vehicle_type_id":"4","last_reported":1727943153,"current_range_meters":28000,"station_id":"","pricing_plan_id":"cebpf4jnsgd1na2vs0mg"},{"bike_id":"24461a75-e69e-4031-af52-6a797770636d","system_id":"levelo_inurba_marseille","lat":43.29194,"lon":5.35798,"is_reserved":false,"is_disabled":false,"rental_uris":{"android":"levelo://app?vid=24461a75-e69e-4031-af52-6a797770636d","ios":"levelo://app?vid=24461a75-e69e-4031-af52-6a797770636d"},"vehicle_type_id":"4","last_reported":1727943153,"current_range_meters":28800,"station_id":"ce4bhb12rcd13ifvqel0","pricing_plan_id":"cebpf4jnsgd1na2vs0mg"},{"bike_id":"3ce68716-1b73-4a80-adfe-4b6fe9cd1c07","system_id":"levelo_inurba_marseille","lat":43.28268,"lon":5.35076,"is_reserved":false,"is_disabled":false,"rental_uris":{"android":"levelo://app?vid=3ce68716-1b73-4a80-adfe-4b6fe9cd1c07","ios":"levelo://app?vid=3ce68716-1b73-4a80-adfe-4b6fe9cd1c07"},"vehicle_type_id":"4","last_reported":1727943153,"current_range_meters":29600,"station_id":"ce4bhbp2rcd13ifvqerg","pricing_plan_id":"cebpf4jnsgd1na2vs0mg"},{"bike_id":"2c8d3540-0189-432e-b41b-db978d23e4c6","system_id":"levelo_inurba_marseille","lat":43.26207,"lon":5.37937,"is_reserved":false,"is_disabled":false,"rental_uris":{"android":"levelo://app?vid=2c8d3540-0189-432e-b41b-db978d23e4c6","ios":"levelo://app?vid=2c8d3540-0189-432e-b41b-db978d23e4c6"},"vehicle_type_id":"4","last_reported":1727943153,"current_range_meters":28400,"station_id":"ce4bhjp2rcd13ifvqg90","pricing_plan_id":"cebpf4jnsgd1na2vs0mg"},{"bike_id":"7bfb5721-baf3-4893-bbf9-7c8112a113a1","system_id":"levelo_inurba_marseille","lat":43.27992,"lon":5.40009,"is_reserved":false,"is_disabled":false,"rental_uris":{"android":"levelo://app?vid=7bfb5721-baf3-4893-bbf9-7c8112a113a1","ios":"levelo://app?vid=7bfb5721-baf3-4893-bbf9-7c8112a113a1"},"vehicle_type_id":"4","last_reported":1727943153,"current_range_meters":35600,"station_id":"ce4bho92rcd13ifvqh4g","pricing_plan_id":"cebpf4jnsgd1na2vs0mg"},{"bike_id":"d687c7b2-af5d-49dd-ad55-0c16055ab42e","system_id":"levelo_inurba_marseille","lat":43.29307,"lon":5.37178,"is_reserved":false,"is_disabled":false,"rental_uris":{"android":"levelo://app?vid=d687c7b2-af5d-49dd-ad55-0c16055ab42e","ios":"levelo://app?vid=d687c7b2-af5d-49dd-ad55-0c16055ab42e"},"vehicle_type_id":"4","last_reported":1727943153,"current_range_meters":24800,"station_id":"ce4bgh92rcd13ifvqb40","pricing_plan_id":"cebpf4jnsgd1na2vs0mg"},{"bike_id":"552bf509-b6e1-4ac9-9428-630f86708366","system_id":"levelo_inurba_marseille","lat":43.309055,"lon":5.36855,"is_reserved":false,"is_disabled":false,"rental_uris":{"android":"levelo://app?vid=552bf509-b6e1-4ac9-9428-630f86708366","ios":"levelo://app?vid=552bf509-b6e1-4ac9-9428-630f86708366"},"vehicle_type_id":"4","last_reported":1727943153,"current_range_meters":32000,"station_id":"ce4bgn92rcd13ifvqbvg","pricing_plan_id":"cebpf4jnsgd1na2vs0mg"},{"bike_id":"69fdf13e-e66d-48a5-9ff4-6d874fa48a59","system_id":"levelo_inurba_marseille","lat":43.32537,"lon":5.41448,"is_reserved":false,"is_disabled":false,"rental_uris":{"android":"levelo://app?vid=69fdf13e-e66d-48a5-9ff4-6d874fa48a59","ios":"levelo://app?vid=69fdf13e-e66d-48a5-9ff4-6d874fa48a59"},"vehicle_type_id":"4","last_reported":1727943153,"current_range_meters":38800,"station_id":"ce4bhq12rcd13ifvqhhg","pricing_plan_id":"cebpf4jnsgd1na2vs0mg"},{"bike_id":"9ef89a1b-9e73-4459-ab02-7a0e2e0fc63b","system_id":"levelo_inurba_marseille","lat":43.29409,"lon":5.39826,"is_reserved":false,"is_disabled":false,"rental_uris":{"android":"levelo://app?vid=9ef89a1b-9e73-4459-ab02-7a0e2e0fc63b","ios":"levelo://app?vid=9ef89a1b-9e73-4459-ab02-7a0e2e0fc63b"},"vehicle_type_id":"4","last_reported":1727943153,"current_range_meters":38800,"station_id":"","pricing_plan_id":"cebpf4jnsgd1na2vs0mg"},{"bike_id":"aa7b18e1-6672-4c2b-a14b-b596f410ac2a","system_id":"levelo_inurba_marseille","lat":43.279734,"lon":5.394897,"is_reserved":false,"is_disabled":false,"rental_uris":{"android":"levelo://app?vid=aa7b18e1-6672-4c2b-a14b-b596f410ac2a","ios":"levelo://app?vid=aa7b18e1-6672-4c2b-a14b-b596f410ac2a"},"vehicle_type_id":"4","last_reported":1727943153,"current_range_meters":23200,"station_id":"ce4bhf92rcd13ifvqf40","pricing_plan_id":"cebpf4jnsgd1na2vs0mg"},{"bike_id":"71df8d68-d681-474c-bc91-c17849864970","system_id":"levelo_inurba_marseille","lat":43.31231,"lon":5.36887,"is_reserved":false,"is_disabled":false,"rental_uris":{"android":"levelo://app?vid=71df8d68-d681-474c-bc91-c17849864970","ios":"levelo://app?vid=71df8d68-d681-474c-bc91-c17849864970"},"vehicle_type_id":"4","last_reported":1727943153,"current_range_meters":21600,"station_id":"ce4bgl92rcd13ifvqbq0","pricing_plan_id":"cebpf4jnsgd1na2vs0mg"},{"bike_id":"6723a072-3ad5-47da-99be-bd70037c1ad4","system_id":"levelo_inurba_marseille","lat":43.27489,"lon":5.42457,"is_reserved":false,"is_disabled":false,"rental_uris":{"android":"levelo://app?vid=6723a072-3ad5-47da-99be-bd70037c1ad4","ios":"levelo://app?vid=6723a072-3ad5-47da-99be-bd70037c1ad4"},"vehicle_type_id":"4","last_reported":1727943153,"current_range_meters":24400,"station_id":"ce4bhn92rcd13ifvqgrg","pricing_plan_id":"cebpf4jnsgd1na2vs0mg"},{"bike_id":"56a35cae-4ce2-4bc2-b45e-1473038d1822","system_id":"levelo_inurba_marseille","lat":43.29371,"lon":5.37848,"is_reserved":false,"is_disabled":false,"rental_uris":{"android":"levelo://app?vid=56a35cae-4ce2-4bc2-b45e-1473038d1822","ios":"levelo://app?vid=56a35cae-4ce2-4bc2-b45e-1473038d1822"},"vehicle_type_id":"4","last_reported":1727943153,"current_range_meters":8000,"station_id":"ce4bgjh2rcd13ifvqbf0","pricing_plan_id":"cebpf4jnsgd1na2vs0mg"},{"bike_id":"4b717922-31ca-4f4b-9255-e35f9c805aa1","system_id":"levelo_inurba_marseille","lat":43.30541,"lon":5.36552,"is_reserved":false,"is_disabled":false,"rental_uris":{"android":"levelo://app?vid=4b717922-31ca-4f4b-9255-e35f9c805aa1","ios":"levelo://app?vid=4b717922-31ca-4f4b-9255-e35f9c805aa1"},"vehicle_type_id":"4","last_reported":1727943153,"current_range_meters":25200,"station_id":"ce4bgs12rcd13ifvqcag","pricing_plan_id":"cebpf4jnsgd1na2vs0mg"},{"bike_id":"3c98abdc-d787-4a22-bf72-59a990ee8d29","system_id":"levelo_inurba_marseille","lat":43.26943,"lon":5.38631,"is_reserved":false,"is_disabled":false,"rental_uris":{"android":"levelo://app?vid=3c98abdc-d787-4a22-bf72-59a990ee8d29","ios":"levelo://app?vid=3c98abdc-d787-4a22-bf72-59a990ee8d29"},"vehicle_type_id":"4","last_reported":1727943153,"current_range_meters":28000,"station_id":"ce4bhh92rcd13ifvqfh0","pricing_plan_id":"cebpf4jnsgd1na2vs0mg"},{"bike_id":"418a1e41-1e04-4f17-85ac-6c551299276f","system_id":"levelo_inurba_marseille","lat":43.3361,"lon":5.41028,"is_reserved":false,"is_disabled":false,"rental_uris":{"android":"levelo://app?vid=418a1e41-1e04-4f17-85ac-6c551299276f","ios":"levelo://app?vid=418a1e41-1e04-4f17-85ac-6c551299276f"},"vehicle_type_id":"4","last_reported":1727943153,"current_range_meters":35600,"station_id":"ce4bhqh2rcd13ifvqhmg","pricing_plan_id":"cebpf4jnsgd1na2vs0mg"},{"bike_id":"d8e3b8a2-e7e1-441c-8e29-fd0413f83165","system_id":"levelo_inurba_marseille","lat":43.25938,"lon":5.40902,"is_reserved":false,"is_disabled":false,"rental_uris":{"android":"levelo://app?vid=d8e3b8a2-e7e1-441c-8e29-fd0413f83165","ios":"levelo://app?vid=d8e3b8a2-e7e1-441c-8e29-fd0413f83165"},"vehicle_type_id":"4","last_reported":1727943153,"current_range_meters":20800,"station_id":"ce4bhm92rcd13ifvqglg","pricing_plan_id":"cebpf4jnsgd1na2vs0mg"},{"bike_id":"d22171a4-6ba7-4ecf-ae0e-4c879bdc4e93","system_id":"levelo_inurba_marseille","lat":43.29004,"lon":5.35607,"is_reserved":false,"is_disabled":false,"rental_uris":{"android":"levelo://app?vid=d22171a4-6ba7-4ecf-ae0e-4c879bdc4e93","ios":"levelo://app?vid=d22171a4-6ba7-4ecf-ae0e-4c879bdc4e93"},"vehicle_type_id":"4","last_reported":1727943153,"current_range_meters":38800,"station_id":"ce4bhb92rcd13ifvqen0","pricing_plan_id":"cebpf4jnsgd1na2vs0mg"},{"bike_id":"fab07bf1-09c2-4882-a9c1-73b120270859","system_id":"levelo_inurba_marseille","lat":43.26546,"lon":5.39014,"is_reserved":false,"is_disabled":false,"rental_uris":{"android":"levelo://app?vid=fab07bf1-09c2-4882-a9c1-73b120270859","ios":"levelo://app?vid=fab07bf1-09c2-4882-a9c1-73b120270859"},"vehicle_type_id":"4","last_reported":1727943153,"current_range_meters":37600,"station_id":"ce4bhe12rcd13ifvqf30","pricing_plan_id":"cebpf4jnsgd1na2vs0mg"},{"bike_id":"f0bee5e3-0e87-4116-b78d-bd3b3a38d639","system_id":"levelo_inurba_marseille","lat":43.298035,"lon":5.380938,"is_reserved":false,"is_disabled":false,"rental_uris":{"android":"levelo://app?vid=f0bee5e3-0e87-4116-b78d-bd3b3a38d639","ios":"levelo://app?vid=f0bee5e3-0e87-4116-b78d-bd3b3a38d639"},"vehicle_type_id":"4","last_reported":1727943153,"current_range_meters":9200,"station_id":"ce4bgip2rcd13ifvqbb0","pricing_plan_id":"cebpf4jnsgd1na2vs0mg"},{"bike_id":"d422d47c-ac21-471d-8cdd-ba47a7b92a76","system_id":"levelo_inurba_marseille","lat":43.29919,"lon":5.37474,"is_reserved":false,"is_disabled":false,"rental_uris":{"android":"levelo://app?vid=d422d47c-ac21-471d-8cdd-ba47a7b92a76","ios":"levelo://app?vid=d422d47c-ac21-471d-8cdd-ba47a7b92a76"},"vehicle_type_id":"4","last_reported":1727943153,"current_range_meters":34000,"station_id":"ce4bgjh2rcd13ifvqbg0","pricing_plan_id":"cebpf4jnsgd1na2vs0mg"},{"bike_id":"34035cb3-8ff9-4eb1-a981-e0964c96626b","system_id":"levelo_inurba_marseille","lat":43.23052,"lon":5.35496,"is_reserved":false,"is_disabled":false,"rental_uris":{"android":"levelo://app?vid=34035cb3-8ff9-4eb1-a981-e0964c96626b","ios":"levelo://app?vid=34035cb3-8ff9-4eb1-a981-e0964c96626b"},"vehicle_type_id":"4","last_reported":1727943153,"current_range_meters":35200,"station_id":"cpo3342slgdg3j2ifvpg","pricing_plan_id":"cebpf4jnsgd1na2vs0mg"},{"bike_id":"422a7c4b-04a2-4d7a-bb60-e21896c982e3","system_id":"levelo_inurba_marseille","lat":43.26683,"lon":5.38266,"is_reserved":false,"is_disabled":false,"rental_uris":{"android":"levelo://app?vid=422a7c4b-04a2-4d7a-bb60-e21896c982e3","ios":"levelo://app?vid=422a7c4b-04a2-4d7a-bb60-e21896c982e3"},"vehicle_type_id":"4","last_reported":1727943153,"current_range_meters":9200,"station_id":"ce4bhg92rcd13ifvqf90","pricing_plan_id":"cebpf4jnsgd1na2vs0mg"},{"bike_id":"5a0f938e-7252-4534-8bff-a4a5d62e0bce","system_id":"levelo_inurba_marseille","lat":43.32527,"lon":5.41452,"is_reserved":false,"is_disabled":false,"rental_uris":{"android":"levelo://app?vid=5a0f938e-7252-4534-8bff-a4a5d62e0bce","ios":"levelo://app?vid=5a0f938e-7252-4534-8bff-a4a5d62e0bce"},"vehicle_type_id":"4","last_reported":1727943153,"current_range_meters":33600,"station_id":"ce4bhq12rcd13ifvqhhg","pricing_plan_id":"cebpf4jnsgd1na2vs0mg"},{"bike_id":"6e9b0c54-5763-4428-9926-90e1ad4eb660","system_id":"levelo_inurba_marseille","lat":43.31698,"lon":5.37753,"is_reserved":false,"is_disabled":false,"rental_uris":{"android":"levelo://app?vid=6e9b0c54-5763-4428-9926-90e1ad4eb660","ios":"levelo://app?vid=6e9b0c54-5763-4428-9926-90e1ad4eb660"},"vehicle_type_id":"4","last_reported":1727943153,"current_range_meters":37600,"station_id":"ce4bgth2rcd13ifvqch0","pricing_plan_id":"cebpf4jnsgd1na2vs0mg"},{"bike_id":"085a7bee-7e09-4679-b1fc-007be1b2df7f","system_id":"levelo_inurba_marseille","lat":43.31111,"lon":5.37291,"is_reserved":false,"is_disabled":false,"rental_uris":{"android":"levelo://app?vid=085a7bee-7e09-4679-b1fc-007be1b2df7f","ios":"levelo://app?vid=085a7bee-7e09-4679-b1fc-007be1b2df7f"},"vehicle_type_id":"4","last_reported":1727943153,"current_range_meters":17600,"station_id":"","pricing_plan_id":"cebpf4jnsgd1na2vs0mg"},{"bike_id":"292285ad-bc7b-4f49-9034-34d355cb6891","system_id":"levelo_inurba_marseille","lat":43.30348,"lon":5.41877,"is_reserved":false,"is_disabled":false,"rental_uris":{"android":"levelo://app?vid=292285ad-bc7b-4f49-9034-34d355cb6891","ios":"levelo://app?vid=292285ad-bc7b-4f49-9034-34d355cb6891"},"vehicle_type_id":"4","last_reported":1727943153,"current_range_meters":24000,"station_id":"ce4bhop2rcd13ifvqh7g","pricing_plan_id":"cebpf4jnsgd1na2vs0mg"},{"bike_id":"89c13eae-fe12-42a7-9d2d-2d3eb5237e01","system_id":"levelo_inurba_marseille","lat":43.27494,"lon":5.42457,"is_reserved":false,"is_disabled":false,"rental_uris":{"android":"levelo://app?vid=89c13eae-fe12-42a7-9d2d-2d3eb5237e01","ios":"levelo://app?vid=89c13eae-fe12-42a7-9d2d-2d3eb5237e01"},"vehicle_type_id":"4","last_reported":1727943153,"current_range_meters":22400,"station_id":"ce4bhn92rcd13ifvqgrg","pricing_plan_id":"cebpf4jnsgd1na2vs0mg"},{"bike_id":"729fed04-95d8-4e8c-8a25-565465677bb0","system_id":"levelo_inurba_marseille","lat":43.24178,"lon":5.39728,"is_reserved":false,"is_disabled":false,"rental_uris":{"android":"levelo://app?vid=729fed04-95d8-4e8c-8a25-565465677bb0","ios":"levelo://app?vid=729fed04-95d8-4e8c-8a25-565465677bb0"},"vehicle_type_id":"4","last_reported":1727943153,"current_range_meters":14400,"station_id":"ce4bhn12rcd13ifvqgpg","pricing_plan_id":"cebpf4jnsgd1na2vs0mg"},{"bike_id":"99be9f83-4a9c-46cc-9a45-fda9573ca4b0","system_id":"levelo_inurba_marseille","lat":43.31348,"lon":5.36726,"is_reserved":false,"is_disabled":false,"rental_uris":{"android":"levelo://app?vid=99be9f83-4a9c-46cc-9a45-fda9573ca4b0","ios":"levelo://app?vid=99be9f83-4a9c-46cc-9a45-fda9573ca4b0"},"vehicle_type_id":"4","last_reported":1727943153,"current_range_meters":25200,"station_id":"ce4bgr92rcd13ifvqc6g","pricing_plan_id":"cebpf4jnsgd1na2vs0mg"},{"bike_id":"80e10b6b-b930-4216-a26e-cfd3b6068366","system_id":"levelo_inurba_marseille","lat":43.30546,"lon":5.367048,"is_reserved":false,"is_disabled":false,"rental_uris":{"android":"levelo://app?vid=80e10b6b-b930-4216-a26e-cfd3b6068366","ios":"levelo://app?vid=80e10b6b-b930-4216-a26e-cfd3b6068366"},"vehicle_type_id":"4","last_reported":1727943153,"current_range_meters":32000,"station_id":"ce4bgrp2rcd13ifvqc9g","pricing_plan_id":"cebpf4jnsgd1na2vs0mg"},{"bike_id":"a292cc6b-0b15-4b33-8f09-f41be692a4eb","system_id":"levelo_inurba_marseille","lat":43.24394,"lon":5.3707,"is_reserved":false,"is_disabled":false,"rental_uris":{"android":"levelo://app?vid=a292cc6b-0b15-4b33-8f09-f41be692a4eb","ios":"levelo://app?vid=a292cc6b-0b15-4b33-8f09-f41be692a4eb"},"vehicle_type_id":"4","last_reported":1727943153,"current_range_meters":38400,"station_id":"ce4bhhh2rcd13ifvqfk0","pricing_plan_id":"cebpf4jnsgd1na2vs0mg"},{"bike_id":"85ec660c-eef7-4d66-9c5e-4f3b3c272755","system_id":"levelo_inurba_marseille","lat":43.27319,"lon":5.39122,"is_reserved":false,"is_disabled":false,"rental_uris":{"android":"levelo://app?vid=85ec660c-eef7-4d66-9c5e-4f3b3c272755","ios":"levelo://app?vid=85ec660c-eef7-4d66-9c5e-4f3b3c272755"},"vehicle_type_id":"4","last_reported":1727943153,"current_range_meters":2800,"station_id":"ce4bhgp2rcd13ifvqfe0","pricing_plan_id":"cebpf4jnsgd1na2vs0mg"},{"bike_id":"c8679ab1-cd72-42e5-b36f-50f88f373f48","system_id":"levelo_inurba_marseille","lat":43.33777,"lon":5.37465,"is_reserved":false,"is_disabled":false,"rental_uris":{"android":"levelo://app?vid=c8679ab1-cd72-42e5-b36f-50f88f373f48","ios":"levelo://app?vid=c8679ab1-cd72-42e5-b36f-50f88f373f48"},"vehicle_type_id":"4","last_reported":1727943153,"current_range_meters":38400,"station_id":"","pricing_plan_id":"cebpf4jnsgd1na2vs0mg"},{"bike_id":"12d219fd-45bf-4813-a2fd-3ba51244ef60","system_id":"levelo_inurba_marseille","lat":43.30279,"lon":5.37701,"is_reserved":false,"is_disabled":false,"rental_uris":{"android":"levelo://app?vid=12d219fd-45bf-4813-a2fd-3ba51244ef60","ios":"levelo://app?vid=12d219fd-45bf-4813-a2fd-3ba51244ef60"},"vehicle_type_id":"4","last_reported":1727943153,"current_range_meters":25200,"station_id":"ce4bguh2rcd13ifvqcj0","pricing_plan_id":"cebpf4jnsgd1na2vs0mg"},{"bike_id":"3cf74a3f-8222-4d03-b2e6-c9d25d38cf35","system_id":"levelo_inurba_marseille","lat":43.24998,"lon":5.38928,"is_reserved":false,"is_disabled":false,"rental_uris":{"android":"levelo://app?vid=3cf74a3f-8222-4d03-b2e6-c9d25d38cf35","ios":"levelo://app?vid=3cf74a3f-8222-4d03-b2e6-c9d25d38cf35"},"vehicle_type_id":"4","last_reported":1727943153,"current_range_meters":37600,"station_id":"ce4bhgp2rcd13ifvqfd0","pricing_plan_id":"cebpf4jnsgd1na2vs0mg"},{"bike_id":"df35103d-0afb-4a29-bcb0-3d33b933f0f7","system_id":"levelo_inurba_marseille","lat":43.30546,"lon":5.36716,"is_reserved":false,"is_disabled":false,"rental_uris":{"android":"levelo://app?vid=df35103d-0afb-4a29-bcb0-3d33b933f0f7","ios":"levelo://app?vid=df35103d-0afb-4a29-bcb0-3d33b933f0f7"},"vehicle_type_id":"4","last_reported":1727943153,"current_range_meters":38000,"station_id":"ce4bgrp2rcd13ifvqc9g","pricing_plan_id":"cebpf4jnsgd1na2vs0mg"},{"bike_id":"275f11d2-3021-4eb0-ae5e-5515a094e8a0","system_id":"levelo_inurba_marseille","lat":43.23154,"lon":5.437,"is_reserved":false,"is_disabled":false,"rental_uris":{"android":"levelo://app?vid=275f11d2-3021-4eb0-ae5e-5515a094e8a0","ios":"levelo://app?vid=275f11d2-3021-4eb0-ae5e-5515a094e8a0"},"vehicle_type_id":"4","last_reported":1727943153,"current_range_meters":8800,"station_id":"ce4bhmp2rcd13ifvqgog","pricing_plan_id":"cebpf4jnsgd1na2vs0mg"},{"bike_id":"fc2906d0-db21-4fe8-851a-5aa5ec9b580a","system_id":"levelo_inurba_marseille","lat":43.33617,"lon":5.41035,"is_reserved":false,"is_disabled":false,"rental_uris":{"android":"levelo://app?vid=fc2906d0-db21-4fe8-851a-5aa5ec9b580a","ios":"levelo://app?vid=fc2906d0-db21-4fe8-851a-5aa5ec9b580a"},"vehicle_type_id":"4","last_reported":1727943153,"current_range_meters":22800,"station_id":"ce4bhqh2rcd13ifvqhmg","pricing_plan_id":"cebpf4jnsgd1na2vs0mg"},{"bike_id":"de302269-fdda-4ef3-9935-87f4834e17d5","system_id":"levelo_inurba_marseille","lat":43.25934,"lon":5.4092,"is_reserved":false,"is_disabled":false,"rental_uris":{"android":"levelo://app?vid=de302269-fdda-4ef3-9935-87f4834e17d5","ios":"levelo://app?vid=de302269-fdda-4ef3-9935-87f4834e17d5"},"vehicle_type_id":"4","last_reported":1727943153,"current_range_meters":9600,"station_id":"ce4bhm92rcd13ifvqglg","pricing_plan_id":"cebpf4jnsgd1na2vs0mg"},{"bike_id":"56715d0f-b93d-4967-837c-32f1303df248","system_id":"levelo_inurba_marseille","lat":43.3414,"lon":5.40896,"is_reserved":false,"is_disabled":false,"rental_uris":{"android":"levelo://app?vid=56715d0f-b93d-4967-837c-32f1303df248","ios":"levelo://app?vid=56715d0f-b93d-4967-837c-32f1303df248"},"vehicle_type_id":"4","last_reported":1727943153,"current_range_meters":27200,"station_id":"ce4bhqh2rcd13ifvqhlg","pricing_plan_id":"cebpf4jnsgd1na2vs0mg"},{"bike_id":"8f33b536-9cb2-431c-bc53-3e8b0f4b35d4","system_id":"levelo_inurba_marseille","lat":43.29959,"lon":5.41314,"is_reserved":false,"is_disabled":false,"rental_uris":{"android":"levelo://app?vid=8f33b536-9cb2-431c-bc53-3e8b0f4b35d4","ios":"levelo://app?vid=8f33b536-9cb2-431c-bc53-3e8b0f4b35d4"},"vehicle_type_id":"4","last_reported":1727943153,"current_range_meters":37600,"station_id":"ce4bhp12rcd13ifvqh9g","pricing_plan_id":"cebpf4jnsgd1na2vs0mg"},{"bike_id":"fbca8f14-1f5c-4ab4-933a-7af7fc9b4c2b","system_id":"levelo_inurba_marseille","lat":43.28042,"lon":5.3694,"is_reserved":false,"is_disabled":false,"rental_uris":{"android":"levelo://app?vid=fbca8f14-1f5c-4ab4-933a-7af7fc9b4c2b","ios":"levelo://app?vid=fbca8f14-1f5c-4ab4-933a-7af7fc9b4c2b"},"vehicle_type_id":"4","last_reported":1727943153,"current_range_meters":24800,"station_id":"ce4bha12rcd13ifvqef0","pricing_plan_id":"cebpf4jnsgd1na2vs0mg"},{"bike_id":"20c82b0d-1419-44d9-9a42-2c8891d18cff","system_id":"levelo_inurba_marseille","lat":43.24078,"lon":5.37757,"is_reserved":false,"is_disabled":false,"rental_uris":{"android":"levelo://app?vid=20c82b0d-1419-44d9-9a42-2c8891d18cff","ios":"levelo://app?vid=20c82b0d-1419-44d9-9a42-2c8891d18cff"},"vehicle_type_id":"4","last_reported":1727943153,"current_range_meters":30400,"station_id":"ce4bhnp2rcd13ifvqgvg","pricing_plan_id":"cebpf4jnsgd1na2vs0mg"},{"bike_id":"fde1a248-2072-4dff-9f45-162d1b347b92","system_id":"levelo_inurba_marseille","lat":43.33605,"lon":5.41045,"is_reserved":false,"is_disabled":false,"rental_uris":{"android":"levelo://app?vid=fde1a248-2072-4dff-9f45-162d1b347b92","ios":"levelo://app?vid=fde1a248-2072-4dff-9f45-162d1b347b92"},"vehicle_type_id":"4","last_reported":1727943153,"current_range_meters":26000,"station_id":"ce4bhqh2rcd13ifvqhmg","pricing_plan_id":"cebpf4jnsgd1na2vs0mg"},{"bike_id":"2b58fe52-cecf-4d77-847f-b40d2ae6cb7d","system_id":"levelo_inurba_marseille","lat":43.3136,"lon":5.36713,"is_reserved":false,"is_disabled":false,"rental_uris":{"android":"levelo://app?vid=2b58fe52-cecf-4d77-847f-b40d2ae6cb7d","ios":"levelo://app?vid=2b58fe52-cecf-4d77-847f-b40d2ae6cb7d"},"vehicle_type_id":"4","last_reported":1727943153,"current_range_meters":4800,"station_id":"ce4bgr92rcd13ifvqc6g","pricing_plan_id":"cebpf4jnsgd1na2vs0mg"},{"bike_id":"2b67794f-731a-4829-9f3b-a92efeded8d3","system_id":"levelo_inurba_marseille","lat":43.31486,"lon":5.37299,"is_reserved":false,"is_disabled":false,"rental_uris":{"android":"levelo://app?vid=2b67794f-731a-4829-9f3b-a92efeded8d3","ios":"levelo://app?vid=2b67794f-731a-4829-9f3b-a92efeded8d3"},"vehicle_type_id":"4","last_reported":1727943153,"current_range_meters":38800,"station_id":"ce4bgt12rcd13ifvqcd0","pricing_plan_id":"cebpf4jnsgd1na2vs0mg"},{"bike_id":"335c7a89-1d55-4ce1-b241-42587a78fd1b","system_id":"levelo_inurba_marseille","lat":43.255845,"lon":5.382369,"is_reserved":false,"is_disabled":false,"rental_uris":{"android":"levelo://app?vid=335c7a89-1d55-4ce1-b241-42587a78fd1b","ios":"levelo://app?vid=335c7a89-1d55-4ce1-b241-42587a78fd1b"},"vehicle_type_id":"4","last_reported":1727943153,"current_range_meters":38800,"station_id":"ce4bhih2rcd13ifvqfs0","pricing_plan_id":"cebpf4jnsgd1na2vs0mg"},{"bike_id":"f11ed684-3ea0-41ce-8b69-4ccab55f6941","system_id":"levelo_inurba_marseille","lat":43.30946,"lon":5.39021,"is_reserved":false,"is_disabled":false,"rental_uris":{"android":"levelo://app?vid=f11ed684-3ea0-41ce-8b69-4ccab55f6941","ios":"levelo://app?vid=f11ed684-3ea0-41ce-8b69-4ccab55f6941"},"vehicle_type_id":"4","last_reported":1727943153,"current_range_meters":38800,"station_id":"ce4bgup2rcd13ifvqco0","pricing_plan_id":"cebpf4jnsgd1na2vs0mg"},{"bike_id":"2b7620fb-cc81-4cc3-be55-15e73ddb89d7","system_id":"levelo_inurba_marseille","lat":43.28103,"lon":5.37847,"is_reserved":false,"is_disabled":false,"rental_uris":{"android":"levelo://app?vid=2b7620fb-cc81-4cc3-be55-15e73ddb89d7","ios":"levelo://app?vid=2b7620fb-cc81-4cc3-be55-15e73ddb89d7"},"vehicle_type_id":"4","last_reported":1727943153,"current_range_meters":38800,"station_id":"ce4bha12rcd13ifvqee0","pricing_plan_id":"cebpf4jnsgd1na2vs0mg"},{"bike_id":"0bf000b2-613c-487b-9f2e-bcc1947a452c","system_id":"levelo_inurba_marseille","lat":43.29573,"lon":5.36731,"is_reserved":false,"is_disabled":false,"rental_uris":{"android":"levelo://app?vid=0bf000b2-613c-487b-9f2e-bcc1947a452c","ios":"levelo://app?vid=0bf000b2-613c-487b-9f2e-bcc1947a452c"},"vehicle_type_id":"4","last_reported":1727943153,"current_range_meters":38400,"station_id":"ce4bgph2rcd13ifvqc2g","pricing_plan_id":"cebpf4jnsgd1na2vs0mg"},{"bike_id":"137d56b1-cdc7-4f99-ba23-c424b109461a","system_id":"levelo_inurba_marseille","lat":43.30141,"lon":5.3741,"is_reserved":false,"is_disabled":false,"rental_uris":{"android":"levelo://app?vid=137d56b1-cdc7-4f99-ba23-c424b109461a","ios":"levelo://app?vid=137d56b1-cdc7-4f99-ba23-c424b109461a"},"vehicle_type_id":"4","last_reported":1727943153,"current_range_meters":22800,"station_id":"ce4bgs92rcd13ifvqcc0","pricing_plan_id":"cebpf4jnsgd1na2vs0mg"},{"bike_id":"7d1b0a18-26e3-4b52-8a52-5424e1b3a5de","system_id":"levelo_inurba_marseille","lat":43.27485,"lon":5.42457,"is_reserved":false,"is_disabled":false,"rental_uris":{"android":"levelo://app?vid=7d1b0a18-26e3-4b52-8a52-5424e1b3a5de","ios":"levelo://app?vid=7d1b0a18-26e3-4b52-8a52-5424e1b3a5de"},"vehicle_type_id":"4","last_reported":1727943153,"current_range_meters":27200,"station_id":"ce4bhn92rcd13ifvqgrg","pricing_plan_id":"cebpf4jnsgd1na2vs0mg"},{"bike_id":"b482df99-7ee8-4eea-8d8b-1d22667db679","system_id":"levelo_inurba_marseille","lat":43.29343,"lon":5.4284,"is_reserved":false,"is_disabled":false,"rental_uris":{"android":"levelo://app?vid=b482df99-7ee8-4eea-8d8b-1d22667db679","ios":"levelo://app?vid=b482df99-7ee8-4eea-8d8b-1d22667db679"},"vehicle_type_id":"4","last_reported":1727943153,"current_range_meters":17200,"station_id":"","pricing_plan_id":"cebpf4jnsgd1na2vs0mg"},{"bike_id":"244b6997-38fb-47f1-be1e-1227dcbf11cf","system_id":"levelo_inurba_marseille","lat":43.25577,"lon":5.38236,"is_reserved":false,"is_disabled":false,"rental_uris":{"android":"levelo://app?vid=244b6997-38fb-47f1-be1e-1227dcbf11cf","ios":"levelo://app?vid=244b6997-38fb-47f1-be1e-1227dcbf11cf"},"vehicle_type_id":"4","last_reported":1727943153,"current_range_meters":35200,"station_id":"ce4bhih2rcd13ifvqfs0","pricing_plan_id":"cebpf4jnsgd1na2vs0mg"},{"bike_id":"71e3a2e5-1420-47f2-96a7-56b34a6616a6","system_id":"levelo_inurba_marseille","lat":43.31146,"lon":5.37259,"is_reserved":false,"is_disabled":false,"rental_uris":{"android":"levelo://app?vid=71e3a2e5-1420-47f2-96a7-56b34a6616a6","ios":"levelo://app?vid=71e3a2e5-1420-47f2-96a7-56b34a6616a6"},"vehicle_type_id":"4","last_reported":1727943153,"current_range_meters":14400,"station_id":"ce4bgr92rcd13ifvqc6g","pricing_plan_id":"cebpf4jnsgd1na2vs0mg"},{"bike_id":"b5af711b-6987-49f5-b695-0254279b63f4","system_id":"levelo_inurba_marseille","lat":43.30309,"lon":5.36897,"is_reserved":false,"is_disabled":false,"rental_uris":{"android":"levelo://app?vid=b5af711b-6987-49f5-b695-0254279b63f4","ios":"levelo://app?vid=b5af711b-6987-49f5-b695-0254279b63f4"},"vehicle_type_id":"4","last_reported":1727943153,"current_range_meters":36400,"station_id":"ce4bgqh2rcd13ifvqc5g","pricing_plan_id":"cebpf4jnsgd1na2vs0mg"},{"bike_id":"8f9f6b3b-6b48-492e-9abd-68d767c4f280","system_id":"levelo_inurba_marseille","lat":43.29901,"lon":5.38154,"is_reserved":false,"is_disabled":false,"rental_uris":{"android":"levelo://app?vid=8f9f6b3b-6b48-492e-9abd-68d767c4f280","ios":"levelo://app?vid=8f9f6b3b-6b48-492e-9abd-68d767c4f280"},"vehicle_type_id":"4","last_reported":1727943153,"current_range_meters":24400,"station_id":"ce4bgj12rcd13ifvqbc0","pricing_plan_id":"cebpf4jnsgd1na2vs0mg"},{"bike_id":"7e2c5630-b79c-4b21-bae5-6341647ed023","system_id":"levelo_inurba_marseille","lat":43.23151,"lon":5.43714,"is_reserved":false,"is_disabled":false,"rental_uris":{"android":"levelo://app?vid=7e2c5630-b79c-4b21-bae5-6341647ed023","ios":"levelo://app?vid=7e2c5630-b79c-4b21-bae5-6341647ed023"},"vehicle_type_id":"4","last_reported":1727943153,"current_range_meters":9600,"station_id":"ce4bhmp2rcd13ifvqgog","pricing_plan_id":"cebpf4jnsgd1na2vs0mg"},{"bike_id":"0a5ce12f-aef2-4655-86eb-0e4f89c69da4","system_id":"levelo_inurba_marseille","lat":43.26207,"lon":5.37923,"is_reserved":false,"is_disabled":false,"rental_uris":{"android":"levelo://app?vid=0a5ce12f-aef2-4655-86eb-0e4f89c69da4","ios":"levelo://app?vid=0a5ce12f-aef2-4655-86eb-0e4f89c69da4"},"vehicle_type_id":"4","last_reported":1727943153,"current_range_meters":27600,"station_id":"ce4bhjp2rcd13ifvqg90","pricing_plan_id":"cebpf4jnsgd1na2vs0mg"},{"bike_id":"97f69b04-580a-47fc-86b4-124ed7d7731e","system_id":"levelo_inurba_marseille","lat":43.31014,"lon":5.37348,"is_reserved":false,"is_disabled":false,"rental_uris":{"android":"levelo://app?vid=97f69b04-580a-47fc-86b4-124ed7d7731e","ios":"levelo://app?vid=97f69b04-580a-47fc-86b4-124ed7d7731e"},"vehicle_type_id":"4","last_reported":1727943153,"current_range_meters":18800,"station_id":"","pricing_plan_id":"cebpf4jnsgd1na2vs0mg"},{"bike_id":"fc4827cf-1384-4474-9e81-eba80f8ad490","system_id":"levelo_inurba_marseille","lat":43.33759,"lon":5.37446,"is_reserved":false,"is_disabled":false,"rental_uris":{"android":"levelo://app?vid=fc4827cf-1384-4474-9e81-eba80f8ad490","ios":"levelo://app?vid=fc4827cf-1384-4474-9e81-eba80f8ad490"},"vehicle_type_id":"4","last_reported":1727943153,"current_range_meters":38400,"station_id":"","pricing_plan_id":"cebpf4jnsgd1na2vs0mg"},{"bike_id":"43215cd2-65e6-47b8-9f40-8388f8c8b262","system_id":"levelo_inurba_marseille","lat":43.25932,"lon":5.40905,"is_reserved":false,"is_disabled":false,"rental_uris":{"android":"levelo://app?vid=43215cd2-65e6-47b8-9f40-8388f8c8b262","ios":"levelo://app?vid=43215cd2-65e6-47b8-9f40-8388f8c8b262"},"vehicle_type_id":"4","last_reported":1727943153,"current_range_meters":24800,"station_id":"ce4bhm92rcd13ifvqglg","pricing_plan_id":"cebpf4jnsgd1na2vs0mg"},{"bike_id":"2fda0553-a48f-48a6-aec8-435cc7e19117","system_id":"levelo_inurba_marseille","lat":43.31326,"lon":5.39693,"is_reserved":false,"is_disabled":false,"rental_uris":{"android":"levelo://app?vid=2fda0553-a48f-48a6-aec8-435cc7e19117","ios":"levelo://app?vid=2fda0553-a48f-48a6-aec8-435cc7e19117"},"vehicle_type_id":"4","last_reported":1727943153,"current_range_meters":27600,"station_id":"ce4bgvp2rcd13ifvqcu0","pricing_plan_id":"cebpf4jnsgd1na2vs0mg"},{"bike_id":"53c6fe7a-c5f0-4c29-bdb6-08c6c7db5c71","system_id":"levelo_inurba_marseille","lat":43.32102,"lon":5.36765,"is_reserved":false,"is_disabled":false,"rental_uris":{"android":"levelo://app?vid=53c6fe7a-c5f0-4c29-bdb6-08c6c7db5c71","ios":"levelo://app?vid=53c6fe7a-c5f0-4c29-bdb6-08c6c7db5c71"},"vehicle_type_id":"4","last_reported":1727943153,"current_range_meters":10800,"station_id":"ce4bhrh2rcd13ifvqhug","pricing_plan_id":"cebpf4jnsgd1na2vs0mg"},{"bike_id":"47bad5cf-049e-4aa2-a56e-9e05eb2bc09f","system_id":"levelo_inurba_marseille","lat":43.30543,"lon":5.36702,"is_reserved":false,"is_disabled":false,"rental_uris":{"android":"levelo://app?vid=47bad5cf-049e-4aa2-a56e-9e05eb2bc09f","ios":"levelo://app?vid=47bad5cf-049e-4aa2-a56e-9e05eb2bc09f"},"vehicle_type_id":"4","last_reported":1727943153,"current_range_meters":34000,"station_id":"ce4bgrp2rcd13ifvqc9g","pricing_plan_id":"cebpf4jnsgd1na2vs0mg"},{"bike_id":"8cd4967a-5c3b-494d-8d94-4caf3da84f74","system_id":"levelo_inurba_marseille","lat":43.25933,"lon":5.40911,"is_reserved":false,"is_disabled":false,"rental_uris":{"android":"levelo://app?vid=8cd4967a-5c3b-494d-8d94-4caf3da84f74","ios":"levelo://app?vid=8cd4967a-5c3b-494d-8d94-4caf3da84f74"},"vehicle_type_id":"4","last_reported":1727943153,"current_range_meters":8400,"station_id":"ce4bhm92rcd13ifvqglg","pricing_plan_id":"cebpf4jnsgd1na2vs0mg"},{"bike_id":"3bfeb359-d5a3-4e82-a8c1-2660f47a3245","system_id":"levelo_inurba_marseille","lat":43.30145,"lon":5.37416,"is_reserved":false,"is_disabled":false,"rental_uris":{"android":"levelo://app?vid=3bfeb359-d5a3-4e82-a8c1-2660f47a3245","ios":"levelo://app?vid=3bfeb359-d5a3-4e82-a8c1-2660f47a3245"},"vehicle_type_id":"4","last_reported":1727943153,"current_range_meters":20800,"station_id":"ce4bgs92rcd13ifvqcc0","pricing_plan_id":"cebpf4jnsgd1na2vs0mg"},{"bike_id":"6ce60676-3f86-4aaa-a5df-572436c32ad4","system_id":"levelo_inurba_marseille","lat":43.23193,"lon":5.35543,"is_reserved":false,"is_disabled":false,"rental_uris":{"android":"levelo://app?vid=6ce60676-3f86-4aaa-a5df-572436c32ad4","ios":"levelo://app?vid=6ce60676-3f86-4aaa-a5df-572436c32ad4"},"vehicle_type_id":"4","last_reported":1727943153,"current_range_meters":20800,"station_id":"ce4bhu92rcd13ifvqi70","pricing_plan_id":"cebpf4jnsgd1na2vs0mg"},{"bike_id":"724c82f6-f55e-4847-abb7-c6fdc1c318d2","system_id":"levelo_inurba_marseille","lat":43.24077,"lon":5.37747,"is_reserved":false,"is_disabled":false,"rental_uris":{"android":"levelo://app?vid=724c82f6-f55e-4847-abb7-c6fdc1c318d2","ios":"levelo://app?vid=724c82f6-f55e-4847-abb7-c6fdc1c318d2"},"vehicle_type_id":"4","last_reported":1727943153,"current_range_meters":26000,"station_id":"ce4bhnp2rcd13ifvqgvg","pricing_plan_id":"cebpf4jnsgd1na2vs0mg"},{"bike_id":"87d19301-70bc-477b-bfbb-938aa7da67ee","system_id":"levelo_inurba_marseille","lat":43.2984,"lon":5.36276,"is_reserved":false,"is_disabled":false,"rental_uris":{"android":"levelo://app?vid=87d19301-70bc-477b-bfbb-938aa7da67ee","ios":"levelo://app?vid=87d19301-70bc-477b-bfbb-938aa7da67ee"},"vehicle_type_id":"4","last_reported":1727943153,"current_range_meters":30000,"station_id":"ce4bgpp2rcd13ifvqc3g","pricing_plan_id":"cebpf4jnsgd1na2vs0mg"},{"bike_id":"f1a6c662-1f2f-43d3-bba4-20a506ee3ee3","system_id":"levelo_inurba_marseille","lat":43.30152,"lon":5.37418,"is_reserved":false,"is_disabled":false,"rental_uris":{"android":"levelo://app?vid=f1a6c662-1f2f-43d3-bba4-20a506ee3ee3","ios":"levelo://app?vid=f1a6c662-1f2f-43d3-bba4-20a506ee3ee3"},"vehicle_type_id":"4","last_reported":1727943153,"current_range_meters":31200,"station_id":"ce4bgs92rcd13ifvqcc0","pricing_plan_id":"cebpf4jnsgd1na2vs0mg"},{"bike_id":"345cf778-727f-4dcc-9a64-b314854ef80e","system_id":"levelo_inurba_marseille","lat":43.27674,"lon":5.38888,"is_reserved":false,"is_disabled":false,"rental_uris":{"android":"levelo://app?vid=345cf778-727f-4dcc-9a64-b314854ef80e","ios":"levelo://app?vid=345cf778-727f-4dcc-9a64-b314854ef80e"},"vehicle_type_id":"4","last_reported":1727943153,"current_range_meters":11600,"station_id":"ce4bhi12rcd13ifvqfo0","pricing_plan_id":"cebpf4jnsgd1na2vs0mg"},{"bike_id":"3698a977-a7b5-4b94-af60-6886ee2a328a","system_id":"levelo_inurba_marseille","lat":43.2315,"lon":5.43716,"is_reserved":false,"is_disabled":false,"rental_uris":{"android":"levelo://app?vid=3698a977-a7b5-4b94-af60-6886ee2a328a","ios":"levelo://app?vid=3698a977-a7b5-4b94-af60-6886ee2a328a"},"vehicle_type_id":"4","last_reported":1727943153,"current_range_meters":20400,"station_id":"ce4bhmp2rcd13ifvqgog","pricing_plan_id":"cebpf4jnsgd1na2vs0mg"},{"bike_id":"c44517f6-e519-4b9a-af41-7bba70751b24","system_id":"levelo_inurba_marseille","lat":43.24173,"lon":5.39735,"is_reserved":false,"is_disabled":false,"rental_uris":{"android":"levelo://app?vid=c44517f6-e519-4b9a-af41-7bba70751b24","ios":"levelo://app?vid=c44517f6-e519-4b9a-af41-7bba70751b24"},"vehicle_type_id":"4","last_reported":1727943153,"current_range_meters":31200,"station_id":"ce4bhn12rcd13ifvqgpg","pricing_plan_id":"cebpf4jnsgd1na2vs0mg"},{"bike_id":"18546fdf-b8ba-4aec-a245-1c584b1703fb","system_id":"levelo_inurba_marseille","lat":43.30156,"lon":5.38074,"is_reserved":false,"is_disabled":false,"rental_uris":{"android":"levelo://app?vid=18546fdf-b8ba-4aec-a245-1c584b1703fb","ios":"levelo://app?vid=18546fdf-b8ba-4aec-a245-1c584b1703fb"},"vehicle_type_id":"4","last_reported":1727943153,"current_range_meters":36400,"station_id":"ce4bgjp2rcd13ifvqbh0","pricing_plan_id":"cebpf4jnsgd1na2vs0mg"},{"bike_id":"2bd41e8f-595a-48d8-87d1-c39e3b02765b","system_id":"levelo_inurba_marseille","lat":43.337444,"lon":5.374475,"is_reserved":false,"is_disabled":false,"rental_uris":{"android":"levelo://app?vid=2bd41e8f-595a-48d8-87d1-c39e3b02765b","ios":"levelo://app?vid=2bd41e8f-595a-48d8-87d1-c39e3b02765b"},"vehicle_type_id":"4","last_reported":1727943153,"current_range_meters":36400,"station_id":"","pricing_plan_id":"cebpf4jnsgd1na2vs0mg"},{"bike_id":"1dc2281c-13e2-4912-83ce-c99fdc02def2","system_id":"levelo_inurba_marseille","lat":43.31357,"lon":5.36703,"is_reserved":false,"is_disabled":false,"rental_uris":{"android":"levelo://app?vid=1dc2281c-13e2-4912-83ce-c99fdc02def2","ios":"levelo://app?vid=1dc2281c-13e2-4912-83ce-c99fdc02def2"},"vehicle_type_id":"4","last_reported":1727943153,"current_range_meters":34000,"station_id":"ce4bgr92rcd13ifvqc6g","pricing_plan_id":"cebpf4jnsgd1na2vs0mg"},{"bike_id":"497c168a-cd40-42e9-b639-fd511b5d8c64","system_id":"levelo_inurba_marseille","lat":43.29193,"lon":5.39318,"is_reserved":false,"is_disabled":false,"rental_uris":{"android":"levelo://app?vid=497c168a-cd40-42e9-b639-fd511b5d8c64","ios":"levelo://app?vid=497c168a-cd40-42e9-b639-fd511b5d8c64"},"vehicle_type_id":"4","last_reported":1727943153,"current_range_meters":25600,"station_id":"ce4bh192rcd13ifvqdd0","pricing_plan_id":"cebpf4jnsgd1na2vs0mg"},{"bike_id":"83479c98-7be8-4719-a7f8-b4b72c598228","system_id":"levelo_inurba_marseille","lat":43.29598,"lon":5.38099,"is_reserved":false,"is_disabled":false,"rental_uris":{"android":"levelo://app?vid=83479c98-7be8-4719-a7f8-b4b72c598228","ios":"levelo://app?vid=83479c98-7be8-4719-a7f8-b4b72c598228"},"vehicle_type_id":"4","last_reported":1727943153,"current_range_meters":25600,"station_id":"ce4bgl12rcd13ifvqbo0","pricing_plan_id":"cebpf4jnsgd1na2vs0mg"},{"bike_id":"3912a1c4-384e-4583-ac3f-013e17809cc7","system_id":"levelo_inurba_marseille","lat":43.24819,"lon":5.39718,"is_reserved":false,"is_disabled":false,"rental_uris":{"android":"levelo://app?vid=3912a1c4-384e-4583-ac3f-013e17809cc7","ios":"levelo://app?vid=3912a1c4-384e-4583-ac3f-013e17809cc7"},"vehicle_type_id":"4","last_reported":1727943153,"current_range_meters":19600,"station_id":"ce4bhlh2rcd13ifvqgig","pricing_plan_id":"cebpf4jnsgd1na2vs0mg"},{"bike_id":"030fea47-5794-4c8a-af64-ab9ee9875a45","system_id":"levelo_inurba_marseille","lat":43.25826,"lon":5.39438,"is_reserved":false,"is_disabled":false,"rental_uris":{"android":"levelo://app?vid=030fea47-5794-4c8a-af64-ab9ee9875a45","ios":"levelo://app?vid=030fea47-5794-4c8a-af64-ab9ee9875a45"},"vehicle_type_id":"4","last_reported":1727943153,"current_range_meters":19200,"station_id":"ce4bhip2rcd13ifvqft0","pricing_plan_id":"cebpf4jnsgd1na2vs0mg"},{"bike_id":"9e0f3fae-960a-459e-9544-640ffabb4848","system_id":"levelo_inurba_marseille","lat":43.31995,"lon":5.38145,"is_reserved":false,"is_disabled":false,"rental_uris":{"android":"levelo://app?vid=9e0f3fae-960a-459e-9544-640ffabb4848","ios":"levelo://app?vid=9e0f3fae-960a-459e-9544-640ffabb4848"},"vehicle_type_id":"4","last_reported":1727943153,"current_range_meters":36800,"station_id":"ce4bhr12rcd13ifvqhpg","pricing_plan_id":"cebpf4jnsgd1na2vs0mg"},{"bike_id":"1218ff69-2b31-4821-b8bb-695b1c49eb23","system_id":"levelo_inurba_marseille","lat":43.2931,"lon":5.37456,"is_reserved":false,"is_disabled":false,"rental_uris":{"android":"levelo://app?vid=1218ff69-2b31-4821-b8bb-695b1c49eb23","ios":"levelo://app?vid=1218ff69-2b31-4821-b8bb-695b1c49eb23"},"vehicle_type_id":"4","last_reported":1727943153,"current_range_meters":38400,"station_id":"ce4bgi12rcd13ifvqb70","pricing_plan_id":"cebpf4jnsgd1na2vs0mg"},{"bike_id":"e57d32b7-b0e1-446c-8d90-f49af1bb2c2c","system_id":"levelo_inurba_marseille","lat":43.29508,"lon":5.39394,"is_reserved":false,"is_disabled":false,"rental_uris":{"android":"levelo://app?vid=e57d32b7-b0e1-446c-8d90-f49af1bb2c2c","ios":"levelo://app?vid=e57d32b7-b0e1-446c-8d90-f49af1bb2c2c"},"vehicle_type_id":"4","last_reported":1727943153,"current_range_meters":8000,"station_id":"ce4bh292rcd13ifvqdf0","pricing_plan_id":"cebpf4jnsgd1na2vs0mg"},{"bike_id":"0066c6b0-1057-4400-85b9-4677ce2f8905","system_id":"levelo_inurba_marseille","lat":43.29839,"lon":5.36273,"is_reserved":false,"is_disabled":false,"rental_uris":{"android":"levelo://app?vid=0066c6b0-1057-4400-85b9-4677ce2f8905","ios":"levelo://app?vid=0066c6b0-1057-4400-85b9-4677ce2f8905"},"vehicle_type_id":"4","last_reported":1727943153,"current_range_meters":16800,"station_id":"ce4bgpp2rcd13ifvqc3g","pricing_plan_id":"cebpf4jnsgd1na2vs0mg"},{"bike_id":"abfa74ce-ac56-4bd7-af8d-9fbafd2dc3d5","system_id":"levelo_inurba_marseille","lat":43.23964,"lon":5.36636,"is_reserved":false,"is_disabled":false,"rental_uris":{"android":"levelo://app?vid=abfa74ce-ac56-4bd7-af8d-9fbafd2dc3d5","ios":"levelo://app?vid=abfa74ce-ac56-4bd7-af8d-9fbafd2dc3d5"},"vehicle_type_id":"4","last_reported":1727943153,"current_range_meters":17200,"station_id":"ce4bhi12rcd13ifvqfp0","pricing_plan_id":"cebpf4jnsgd1na2vs0mg"},{"bike_id":"e1a289e3-9a3b-48ca-8adb-3428ce215cfc","system_id":"levelo_inurba_marseille","lat":43.26204,"lon":5.37927,"is_reserved":false,"is_disabled":false,"rental_uris":{"android":"levelo://app?vid=e1a289e3-9a3b-48ca-8adb-3428ce215cfc","ios":"levelo://app?vid=e1a289e3-9a3b-48ca-8adb-3428ce215cfc"},"vehicle_type_id":"4","last_reported":1727943153,"current_range_meters":37600,"station_id":"ce4bhjp2rcd13ifvqg90","pricing_plan_id":"cebpf4jnsgd1na2vs0mg"},{"bike_id":"1df334bf-3cad-41a3-ace7-9786f37bacb4","system_id":"levelo_inurba_marseille","lat":43.29787,"lon":5.37109,"is_reserved":false,"is_disabled":false,"rental_uris":{"android":"levelo://app?vid=1df334bf-3cad-41a3-ace7-9786f37bacb4","ios":"levelo://app?vid=1df334bf-3cad-41a3-ace7-9786f37bacb4"},"vehicle_type_id":"4","last_reported":1727943153,"current_range_meters":27200,"station_id":"ce4bgop2rcd13ifvqc1g","pricing_plan_id":"cebpf4jnsgd1na2vs0mg"},{"bike_id":"4b235121-83e4-4ee5-9935-963738e4dadd","system_id":"levelo_inurba_marseille","lat":43.29712,"lon":5.36592,"is_reserved":false,"is_disabled":false,"rental_uris":{"android":"levelo://app?vid=4b235121-83e4-4ee5-9935-963738e4dadd","ios":"levelo://app?vid=4b235121-83e4-4ee5-9935-963738e4dadd"},"vehicle_type_id":"4","last_reported":1727943153,"current_range_meters":22800,"station_id":"ce4bgn12rcd13ifvqbt0","pricing_plan_id":"cebpf4jnsgd1na2vs0mg"},{"bike_id":"f9a001dd-dda8-4793-9023-c66ab8dc3b99","system_id":"levelo_inurba_marseille","lat":43.31712,"lon":5.3778,"is_reserved":false,"is_disabled":false,"rental_uris":{"android":"levelo://app?vid=f9a001dd-dda8-4793-9023-c66ab8dc3b99","ios":"levelo://app?vid=f9a001dd-dda8-4793-9023-c66ab8dc3b99"},"vehicle_type_id":"4","last_reported":1727943153,"current_range_meters":38800,"station_id":"ce4bgth2rcd13ifvqch0","pricing_plan_id":"cebpf4jnsgd1na2vs0mg"},{"bike_id":"07a606c9-bd49-49e4-8147-96ccbd41efcd","system_id":"levelo_inurba_marseille","lat":43.25582,"lon":5.38231,"is_reserved":false,"is_disabled":false,"rental_uris":{"android":"levelo://app?vid=07a606c9-bd49-49e4-8147-96ccbd41efcd","ios":"levelo://app?vid=07a606c9-bd49-49e4-8147-96ccbd41efcd"},"vehicle_type_id":"4","last_reported":1727943153,"current_range_meters":30000,"station_id":"ce4bhih2rcd13ifvqfs0","pricing_plan_id":"cebpf4jnsgd1na2vs0mg"},{"bike_id":"6c5a26eb-ee07-4d34-9b92-1ad63d0731a1","system_id":"levelo_inurba_marseille","lat":43.30284,"lon":5.37696,"is_reserved":false,"is_disabled":false,"rental_uris":{"android":"levelo://app?vid=6c5a26eb-ee07-4d34-9b92-1ad63d0731a1","ios":"levelo://app?vid=6c5a26eb-ee07-4d34-9b92-1ad63d0731a1"},"vehicle_type_id":"4","last_reported":1727943153,"current_range_meters":35600,"station_id":"ce4bguh2rcd13ifvqcj0","pricing_plan_id":"cebpf4jnsgd1na2vs0mg"},{"bike_id":"c8fcda81-0951-4d20-92cc-cbc411b31747","system_id":"levelo_inurba_marseille","lat":43.29276,"lon":5.40113,"is_reserved":false,"is_disabled":false,"rental_uris":{"android":"levelo://app?vid=c8fcda81-0951-4d20-92cc-cbc411b31747","ios":"levelo://app?vid=c8fcda81-0951-4d20-92cc-cbc411b31747"},"vehicle_type_id":"4","last_reported":1727943153,"current_range_meters":32400,"station_id":"ce4bh312rcd13ifvqdk0","pricing_plan_id":"cebpf4jnsgd1na2vs0mg"},{"bike_id":"73a030cd-2f76-4a05-a1fc-f8524eb133f1","system_id":"levelo_inurba_marseille","lat":43.270854,"lon":5.392181,"is_reserved":false,"is_disabled":false,"rental_uris":{"android":"levelo://app?vid=73a030cd-2f76-4a05-a1fc-f8524eb133f1","ios":"levelo://app?vid=73a030cd-2f76-4a05-a1fc-f8524eb133f1"},"vehicle_type_id":"4","last_reported":1727943153,"current_range_meters":4400,"station_id":"","pricing_plan_id":"cebpf4jnsgd1na2vs0mg"},{"bike_id":"c8e4ff73-620c-4248-92f7-758d5098242c","system_id":"levelo_inurba_marseille","lat":43.22928,"lon":5.35353,"is_reserved":false,"is_disabled":false,"rental_uris":{"android":"levelo://app?vid=c8e4ff73-620c-4248-92f7-758d5098242c","ios":"levelo://app?vid=c8e4ff73-620c-4248-92f7-758d5098242c"},"vehicle_type_id":"4","last_reported":1727943153,"current_range_meters":28000,"station_id":"cpo3532slgdg3j2ikp40","pricing_plan_id":"cebpf4jnsgd1na2vs0mg"},{"bike_id":"17911561-5cc8-46a9-9c41-01e93a2eb9e7","system_id":"levelo_inurba_marseille","lat":43.295254,"lon":5.374944,"is_reserved":false,"is_disabled":false,"rental_uris":{"android":"levelo://app?vid=17911561-5cc8-46a9-9c41-01e93a2eb9e7","ios":"levelo://app?vid=17911561-5cc8-46a9-9c41-01e93a2eb9e7"},"vehicle_type_id":"4","last_reported":1727943153,"current_range_meters":18800,"station_id":"ce4bgn92rcd13ifvqbvg","pricing_plan_id":"cebpf4jnsgd1na2vs0mg"},{"bike_id":"94837b69-c913-4fde-9482-bbe41bc525ce","system_id":"levelo_inurba_marseille","lat":43.299262,"lon":5.37472,"is_reserved":false,"is_disabled":false,"rental_uris":{"android":"levelo://app?vid=94837b69-c913-4fde-9482-bbe41bc525ce","ios":"levelo://app?vid=94837b69-c913-4fde-9482-bbe41bc525ce"},"vehicle_type_id":"4","last_reported":1727943153,"current_range_meters":33200,"station_id":"ce4bgjh2rcd13ifvqbg0","pricing_plan_id":"cebpf4jnsgd1na2vs0mg"},{"bike_id":"5fd74767-be89-4d70-934d-0d640f37cdd6","system_id":"levelo_inurba_marseille","lat":43.23156,"lon":5.43712,"is_reserved":false,"is_disabled":false,"rental_uris":{"android":"levelo://app?vid=5fd74767-be89-4d70-934d-0d640f37cdd6","ios":"levelo://app?vid=5fd74767-be89-4d70-934d-0d640f37cdd6"},"vehicle_type_id":"4","last_reported":1727943153,"current_range_meters":18000,"station_id":"ce4bhmp2rcd13ifvqgog","pricing_plan_id":"cebpf4jnsgd1na2vs0mg"},{"bike_id":"7cb2765a-28eb-4267-aad1-8bc862f4be37","system_id":"levelo_inurba_marseille","lat":43.26679,"lon":5.38261,"is_reserved":false,"is_disabled":false,"rental_uris":{"android":"levelo://app?vid=7cb2765a-28eb-4267-aad1-8bc862f4be37","ios":"levelo://app?vid=7cb2765a-28eb-4267-aad1-8bc862f4be37"},"vehicle_type_id":"4","last_reported":1727943153,"current_range_meters":12000,"station_id":"ce4bhg92rcd13ifvqf90","pricing_plan_id":"cebpf4jnsgd1na2vs0mg"},{"bike_id":"bcac191a-fbe1-4ac8-a5fb-4d1555d274ef","system_id":"levelo_inurba_marseille","lat":43.30529,"lon":5.36716,"is_reserved":false,"is_disabled":false,"rental_uris":{"android":"levelo://app?vid=bcac191a-fbe1-4ac8-a5fb-4d1555d274ef","ios":"levelo://app?vid=bcac191a-fbe1-4ac8-a5fb-4d1555d274ef"},"vehicle_type_id":"4","last_reported":1727943153,"current_range_meters":26000,"station_id":"ce4bgrp2rcd13ifvqc9g","pricing_plan_id":"cebpf4jnsgd1na2vs0mg"},{"bike_id":"d9db239b-fde2-4cf3-b873-e13b09aa0304","system_id":"levelo_inurba_marseille","lat":43.31354,"lon":5.36702,"is_reserved":false,"is_disabled":false,"rental_uris":{"android":"levelo://app?vid=d9db239b-fde2-4cf3-b873-e13b09aa0304","ios":"levelo://app?vid=d9db239b-fde2-4cf3-b873-e13b09aa0304"},"vehicle_type_id":"4","last_reported":1727943153,"current_range_meters":36400,"station_id":"ce4bgr92rcd13ifvqc6g","pricing_plan_id":"cebpf4jnsgd1na2vs0mg"},{"bike_id":"2828d600-cada-4286-b851-a226d9ca67d5","system_id":"levelo_inurba_marseille","lat":43.32529,"lon":5.41452,"is_reserved":false,"is_disabled":false,"rental_uris":{"android":"levelo://app?vid=2828d600-cada-4286-b851-a226d9ca67d5","ios":"levelo://app?vid=2828d600-cada-4286-b851-a226d9ca67d5"},"vehicle_type_id":"4","last_reported":1727943153,"current_range_meters":27200,"station_id":"ce4bhq12rcd13ifvqhhg","pricing_plan_id":"cebpf4jnsgd1na2vs0mg"},{"bike_id":"279deea5-d960-4cac-a348-cfd072a8fdd8","system_id":"levelo_inurba_marseille","lat":43.30901,"lon":5.36849,"is_reserved":false,"is_disabled":false,"rental_uris":{"android":"levelo://app?vid=279deea5-d960-4cac-a348-cfd072a8fdd8","ios":"levelo://app?vid=279deea5-d960-4cac-a348-cfd072a8fdd8"},"vehicle_type_id":"4","last_reported":1727943153,"current_range_meters":31200,"station_id":"ce4bgn92rcd13ifvqbvg","pricing_plan_id":"cebpf4jnsgd1na2vs0mg"},{"bike_id":"89ca2ec5-3987-4fd3-a6a6-f358cec92f98","system_id":"levelo_inurba_marseille","lat":43.30476,"lon":5.37891,"is_reserved":false,"is_disabled":false,"rental_uris":{"android":"levelo://app?vid=89ca2ec5-3987-4fd3-a6a6-f358cec92f98","ios":"levelo://app?vid=89ca2ec5-3987-4fd3-a6a6-f358cec92f98"},"vehicle_type_id":"4","last_reported":1727943153,"current_range_meters":33600,"station_id":"ce4bgup2rcd13ifvqcn0","pricing_plan_id":"cebpf4jnsgd1na2vs0mg"},{"bike_id":"11f82713-584b-4be0-b631-a50b1fdc6fb6","system_id":"levelo_inurba_marseille","lat":43.30906,"lon":5.36861,"is_reserved":false,"is_disabled":false,"rental_uris":{"android":"levelo://app?vid=11f82713-584b-4be0-b631-a50b1fdc6fb6","ios":"levelo://app?vid=11f82713-584b-4be0-b631-a50b1fdc6fb6"},"vehicle_type_id":"4","last_reported":1727943153,"current_range_meters":37600,"station_id":"ce4bgn92rcd13ifvqbvg","pricing_plan_id":"cebpf4jnsgd1na2vs0mg"},{"bike_id":"75b6d23c-8e6a-4f18-bb07-ff063c93e683","system_id":"levelo_inurba_marseille","lat":43.30909,"lon":5.36852,"is_reserved":false,"is_disabled":false,"rental_uris":{"android":"levelo://app?vid=75b6d23c-8e6a-4f18-bb07-ff063c93e683","ios":"levelo://app?vid=75b6d23c-8e6a-4f18-bb07-ff063c93e683"},"vehicle_type_id":"4","last_reported":1727943153,"current_range_meters":38800,"station_id":"ce4bgn92rcd13ifvqbvg","pricing_plan_id":"cebpf4jnsgd1na2vs0mg"},{"bike_id":"499dc340-c172-4ad4-832d-6490b563aa82","system_id":"levelo_inurba_marseille","lat":43.26492,"lon":5.39548,"is_reserved":false,"is_disabled":false,"rental_uris":{"android":"levelo://app?vid=499dc340-c172-4ad4-832d-6490b563aa82","ios":"levelo://app?vid=499dc340-c172-4ad4-832d-6490b563aa82"},"vehicle_type_id":"4","last_reported":1727943153,"current_range_meters":38000,"station_id":"ce4bhi12rcd13ifvqfq0","pricing_plan_id":"cebpf4jnsgd1na2vs0mg"},{"bike_id":"41a8569d-8b64-4720-9c16-3bf3446a76f2","system_id":"levelo_inurba_marseille","lat":43.29931,"lon":5.38046,"is_reserved":false,"is_disabled":false,"rental_uris":{"android":"levelo://app?vid=41a8569d-8b64-4720-9c16-3bf3446a76f2","ios":"levelo://app?vid=41a8569d-8b64-4720-9c16-3bf3446a76f2"},"vehicle_type_id":"4","last_reported":1727943153,"current_range_meters":6000,"station_id":"","pricing_plan_id":"cebpf4jnsgd1na2vs0mg"},{"bike_id":"1fca1758-50fe-482c-9c88-42c4d06eb077","system_id":"levelo_inurba_marseille","lat":43.26192,"lon":5.37445,"is_reserved":false,"is_disabled":false,"rental_uris":{"android":"levelo://app?vid=1fca1758-50fe-482c-9c88-42c4d06eb077","ios":"levelo://app?vid=1fca1758-50fe-482c-9c88-42c4d06eb077"},"vehicle_type_id":"4","last_reported":1727943153,"current_range_meters":21600,"station_id":"ce4bhgp2rcd13ifvqfc0","pricing_plan_id":"cebpf4jnsgd1na2vs0mg"},{"bike_id":"4a18e28e-9bad-4e5c-9538-59a77d5e7b0c","system_id":"levelo_inurba_marseille","lat":43.23147,"lon":5.43718,"is_reserved":false,"is_disabled":false,"rental_uris":{"android":"levelo://app?vid=4a18e28e-9bad-4e5c-9538-59a77d5e7b0c","ios":"levelo://app?vid=4a18e28e-9bad-4e5c-9538-59a77d5e7b0c"},"vehicle_type_id":"4","last_reported":1727943153,"current_range_meters":8400,"station_id":"ce4bhmp2rcd13ifvqgog","pricing_plan_id":"cebpf4jnsgd1na2vs0mg"},{"bike_id":"7f8bee07-60d0-410a-897c-aa6d6b46d7b5","system_id":"levelo_inurba_marseille","lat":43.30288,"lon":5.37706,"is_reserved":false,"is_disabled":false,"rental_uris":{"android":"levelo://app?vid=7f8bee07-60d0-410a-897c-aa6d6b46d7b5","ios":"levelo://app?vid=7f8bee07-60d0-410a-897c-aa6d6b46d7b5"},"vehicle_type_id":"4","last_reported":1727943153,"current_range_meters":36000,"station_id":"ce4bguh2rcd13ifvqcj0","pricing_plan_id":"cebpf4jnsgd1na2vs0mg"},{"bike_id":"7e7091a9-a999-4555-bb09-8dd2d9ae0734","system_id":"levelo_inurba_marseille","lat":43.29302,"lon":5.38551,"is_reserved":false,"is_disabled":false,"rental_uris":{"android":"levelo://app?vid=7e7091a9-a999-4555-bb09-8dd2d9ae0734","ios":"levelo://app?vid=7e7091a9-a999-4555-bb09-8dd2d9ae0734"},"vehicle_type_id":"4","last_reported":1727943153,"current_range_meters":38800,"station_id":"ce4bh692rcd13ifvqea0","pricing_plan_id":"cebpf4jnsgd1na2vs0mg"},{"bike_id":"2b7b0848-4c2d-4d4e-ba86-9dcf7971875c","system_id":"levelo_inurba_marseille","lat":43.33747,"lon":5.3746,"is_reserved":false,"is_disabled":false,"rental_uris":{"android":"levelo://app?vid=2b7b0848-4c2d-4d4e-ba86-9dcf7971875c","ios":"levelo://app?vid=2b7b0848-4c2d-4d4e-ba86-9dcf7971875c"},"vehicle_type_id":"4","last_reported":1727943153,"current_range_meters":38400,"station_id":"","pricing_plan_id":"cebpf4jnsgd1na2vs0mg"},{"bike_id":"b6bf681e-ebb8-4c29-a568-b40a56d3b882","system_id":"levelo_inurba_marseille","lat":43.2607,"lon":5.39391,"is_reserved":false,"is_disabled":false,"rental_uris":{"android":"levelo://app?vid=b6bf681e-ebb8-4c29-a568-b40a56d3b882","ios":"levelo://app?vid=b6bf681e-ebb8-4c29-a568-b40a56d3b882"},"vehicle_type_id":"4","last_reported":1727943153,"current_range_meters":17200,"station_id":"ce4bhh92rcd13ifvqfj0","pricing_plan_id":"cebpf4jnsgd1na2vs0mg"},{"bike_id":"b4a3fa33-095e-4394-bb7c-ddc83eb83ed8","system_id":"levelo_inurba_marseille","lat":43.32485,"lon":5.36568,"is_reserved":false,"is_disabled":false,"rental_uris":{"android":"levelo://app?vid=b4a3fa33-095e-4394-bb7c-ddc83eb83ed8","ios":"levelo://app?vid=b4a3fa33-095e-4394-bb7c-ddc83eb83ed8"},"vehicle_type_id":"4","last_reported":1727943153,"current_range_meters":34800,"station_id":"ce4bhs12rcd13ifvqhvg","pricing_plan_id":"cebpf4jnsgd1na2vs0mg"},{"bike_id":"c4f0b626-16fd-40e4-8880-cd3ec05d2181","system_id":"levelo_inurba_marseille","lat":43.30532,"lon":5.38425,"is_reserved":false,"is_disabled":false,"rental_uris":{"android":"levelo://app?vid=c4f0b626-16fd-40e4-8880-cd3ec05d2181","ios":"levelo://app?vid=c4f0b626-16fd-40e4-8880-cd3ec05d2181"},"vehicle_type_id":"4","last_reported":1727943153,"current_range_meters":8400,"station_id":"ce4bgg92rcd13ifvqb30","pricing_plan_id":"cebpf4jnsgd1na2vs0mg"},{"bike_id":"81eda3eb-33d3-4cc5-8db3-507a0008778d","system_id":"levelo_inurba_marseille","lat":43.31359,"lon":5.36717,"is_reserved":false,"is_disabled":false,"rental_uris":{"android":"levelo://app?vid=81eda3eb-33d3-4cc5-8db3-507a0008778d","ios":"levelo://app?vid=81eda3eb-33d3-4cc5-8db3-507a0008778d"},"vehicle_type_id":"4","last_reported":1727943153,"current_range_meters":22000,"station_id":"ce4bgr92rcd13ifvqc6g","pricing_plan_id":"cebpf4jnsgd1na2vs0mg"},{"bike_id":"9005e603-eaee-4b75-8194-67715ec7fc55","system_id":"levelo_inurba_marseille","lat":43.31714,"lon":5.43704,"is_reserved":false,"is_disabled":false,"rental_uris":{"android":"levelo://app?vid=9005e603-eaee-4b75-8194-67715ec7fc55","ios":"levelo://app?vid=9005e603-eaee-4b75-8194-67715ec7fc55"},"vehicle_type_id":"4","last_reported":1727943153,"current_range_meters":30000,"station_id":"ce4bhp92rcd13ifvqhcg","pricing_plan_id":"cebpf4jnsgd1na2vs0mg"},{"bike_id":"b868d0a8-f18c-40e0-8a49-27f27af68cda","system_id":"levelo_inurba_marseille","lat":43.30151,"lon":5.37408,"is_reserved":false,"is_disabled":false,"rental_uris":{"android":"levelo://app?vid=b868d0a8-f18c-40e0-8a49-27f27af68cda","ios":"levelo://app?vid=b868d0a8-f18c-40e0-8a49-27f27af68cda"},"vehicle_type_id":"4","last_reported":1727943153,"current_range_meters":27600,"station_id":"ce4bgs92rcd13ifvqcc0","pricing_plan_id":"cebpf4jnsgd1na2vs0mg"},{"bike_id":"23fcd5dc-52e3-40b6-b601-8da82c35b64a","system_id":"levelo_inurba_marseille","lat":43.23194,"lon":5.35542,"is_reserved":false,"is_disabled":false,"rental_uris":{"android":"levelo://app?vid=23fcd5dc-52e3-40b6-b601-8da82c35b64a","ios":"levelo://app?vid=23fcd5dc-52e3-40b6-b601-8da82c35b64a"},"vehicle_type_id":"4","last_reported":1727943153,"current_range_meters":38000,"station_id":"ce4bhu92rcd13ifvqi70","pricing_plan_id":"cebpf4jnsgd1na2vs0mg"},{"bike_id":"4e96f5e5-51ad-40c7-a3fb-c7bccd283bdd","system_id":"levelo_inurba_marseille","lat":43.24544,"lon":5.39527,"is_reserved":false,"is_disabled":false,"rental_uris":{"android":"levelo://app?vid=4e96f5e5-51ad-40c7-a3fb-c7bccd283bdd","ios":"levelo://app?vid=4e96f5e5-51ad-40c7-a3fb-c7bccd283bdd"},"vehicle_type_id":"4","last_reported":1727943153,"current_range_meters":38000,"station_id":"ce4bhlp2rcd13ifvqgjg","pricing_plan_id":"cebpf4jnsgd1na2vs0mg"},{"bike_id":"f4d1402d-e441-432d-a09a-a111f1847214","system_id":"levelo_inurba_marseille","lat":43.31227,"lon":5.36872,"is_reserved":false,"is_disabled":false,"rental_uris":{"android":"levelo://app?vid=f4d1402d-e441-432d-a09a-a111f1847214","ios":"levelo://app?vid=f4d1402d-e441-432d-a09a-a111f1847214"},"vehicle_type_id":"4","last_reported":1727943153,"current_range_meters":25600,"station_id":"ce4bgl92rcd13ifvqbq0","pricing_plan_id":"cebpf4jnsgd1na2vs0mg"},{"bike_id":"b2b28579-23e1-4f67-a5a7-7fa4e6aff878","system_id":"levelo_inurba_marseille","lat":43.26676,"lon":5.3826,"is_reserved":false,"is_disabled":false,"rental_uris":{"android":"levelo://app?vid=b2b28579-23e1-4f67-a5a7-7fa4e6aff878","ios":"levelo://app?vid=b2b28579-23e1-4f67-a5a7-7fa4e6aff878"},"vehicle_type_id":"4","last_reported":1727943153,"current_range_meters":22800,"station_id":"ce4bhg92rcd13ifvqf90","pricing_plan_id":"cebpf4jnsgd1na2vs0mg"},{"bike_id":"8f103368-d02f-4f29-80da-1d3a34d8ebeb","system_id":"levelo_inurba_marseille","lat":43.25825,"lon":5.39436,"is_reserved":false,"is_disabled":false,"rental_uris":{"android":"levelo://app?vid=8f103368-d02f-4f29-80da-1d3a34d8ebeb","ios":"levelo://app?vid=8f103368-d02f-4f29-80da-1d3a34d8ebeb"},"vehicle_type_id":"4","last_reported":1727943153,"current_range_meters":37600,"station_id":"ce4bhip2rcd13ifvqft0","pricing_plan_id":"cebpf4jnsgd1na2vs0mg"},{"bike_id":"7d3e0c4d-ca7c-4de4-b417-1505937c7044","system_id":"levelo_inurba_marseille","lat":43.24391,"lon":5.37052,"is_reserved":false,"is_disabled":false,"rental_uris":{"android":"levelo://app?vid=7d3e0c4d-ca7c-4de4-b417-1505937c7044","ios":"levelo://app?vid=7d3e0c4d-ca7c-4de4-b417-1505937c7044"},"vehicle_type_id":"4","last_reported":1727943153,"current_range_meters":24400,"station_id":"ce4bhhh2rcd13ifvqfk0","pricing_plan_id":"cebpf4jnsgd1na2vs0mg"},{"bike_id":"7b3d7479-9627-4385-a440-dc35af5b8e6e","system_id":"levelo_inurba_marseille","lat":43.24072,"lon":5.37754,"is_reserved":false,"is_disabled":false,"rental_uris":{"android":"levelo://app?vid=7b3d7479-9627-4385-a440-dc35af5b8e6e","ios":"levelo://app?vid=7b3d7479-9627-4385-a440-dc35af5b8e6e"},"vehicle_type_id":"4","last_reported":1727943153,"current_range_meters":3200,"station_id":"ce4bhnp2rcd13ifvqgvg","pricing_plan_id":"cebpf4jnsgd1na2vs0mg"},{"bike_id":"d8046d6f-1cc4-499e-a281-c3325bd562b1","system_id":"levelo_inurba_marseille","lat":43.30795,"lon":5.3816,"is_reserved":false,"is_disabled":false,"rental_uris":{"android":"levelo://app?vid=d8046d6f-1cc4-499e-a281-c3325bd562b1","ios":"levelo://app?vid=d8046d6f-1cc4-499e-a281-c3325bd562b1"},"vehicle_type_id":"4","last_reported":1727943153,"current_range_meters":25200,"station_id":"ce4bgt12rcd13ifvqce0","pricing_plan_id":"cebpf4jnsgd1na2vs0mg"},{"bike_id":"b84c68c7-5cea-40fa-b6da-79f4dfc59a08","system_id":"levelo_inurba_marseille","lat":43.30539,"lon":5.36541,"is_reserved":false,"is_disabled":false,"rental_uris":{"android":"levelo://app?vid=b84c68c7-5cea-40fa-b6da-79f4dfc59a08","ios":"levelo://app?vid=b84c68c7-5cea-40fa-b6da-79f4dfc59a08"},"vehicle_type_id":"4","last_reported":1727943153,"current_range_meters":18000,"station_id":"ce4bgs12rcd13ifvqcag","pricing_plan_id":"cebpf4jnsgd1na2vs0mg"},{"bike_id":"f67219a2-689f-4901-bbe3-a0740cbfef69","system_id":"levelo_inurba_marseille","lat":43.3115,"lon":5.37248,"is_reserved":false,"is_disabled":false,"rental_uris":{"android":"levelo://app?vid=f67219a2-689f-4901-bbe3-a0740cbfef69","ios":"levelo://app?vid=f67219a2-689f-4901-bbe3-a0740cbfef69"},"vehicle_type_id":"4","last_reported":1727943153,"current_range_meters":4800,"station_id":"","pricing_plan_id":"cebpf4jnsgd1na2vs0mg"},{"bike_id":"97eb5edc-36e5-49cb-80b9-7628fc0c7cdd","system_id":"levelo_inurba_marseille","lat":43.23962,"lon":5.36626,"is_reserved":false,"is_disabled":false,"rental_uris":{"android":"levelo://app?vid=97eb5edc-36e5-49cb-80b9-7628fc0c7cdd","ios":"levelo://app?vid=97eb5edc-36e5-49cb-80b9-7628fc0c7cdd"},"vehicle_type_id":"4","last_reported":1727943153,"current_range_meters":23200,"station_id":"ce4bhi12rcd13ifvqfp0","pricing_plan_id":"cebpf4jnsgd1na2vs0mg"},{"bike_id":"afee6bf6-8074-4b9b-9ab2-ccdb5b4ae612","system_id":"levelo_inurba_marseille","lat":43.26951,"lon":5.38636,"is_reserved":false,"is_disabled":false,"rental_uris":{"android":"levelo://app?vid=afee6bf6-8074-4b9b-9ab2-ccdb5b4ae612","ios":"levelo://app?vid=afee6bf6-8074-4b9b-9ab2-ccdb5b4ae612"},"vehicle_type_id":"4","last_reported":1727943153,"current_range_meters":30800,"station_id":"ce4bhh92rcd13ifvqfh0","pricing_plan_id":"cebpf4jnsgd1na2vs0mg"},{"bike_id":"53c0cac3-947b-4cb1-a27f-49a1b43a7af3","system_id":"levelo_inurba_marseille","lat":43.31354,"lon":5.36718,"is_reserved":false,"is_disabled":false,"rental_uris":{"android":"levelo://app?vid=53c0cac3-947b-4cb1-a27f-49a1b43a7af3","ios":"levelo://app?vid=53c0cac3-947b-4cb1-a27f-49a1b43a7af3"},"vehicle_type_id":"4","last_reported":1727943153,"current_range_meters":6000,"station_id":"ce4bgr92rcd13ifvqc6g","pricing_plan_id":"cebpf4jnsgd1na2vs0mg"},{"bike_id":"eab6bc72-c065-4fdb-9201-d274992d3dcd","system_id":"levelo_inurba_marseille","lat":43.272064,"lon":5.39182,"is_reserved":false,"is_disabled":false,"rental_uris":{"android":"levelo://app?vid=eab6bc72-c065-4fdb-9201-d274992d3dcd","ios":"levelo://app?vid=eab6bc72-c065-4fdb-9201-d274992d3dcd"},"vehicle_type_id":"4","last_reported":1727943153,"current_range_meters":18000,"station_id":"ce4bhhp2rcd13ifvqfm0","pricing_plan_id":"cebpf4jnsgd1na2vs0mg"},{"bike_id":"b19a95d0-4f06-48c7-a685-218383959f98","system_id":"levelo_inurba_marseille","lat":43.30943,"lon":5.39041,"is_reserved":false,"is_disabled":false,"rental_uris":{"android":"levelo://app?vid=b19a95d0-4f06-48c7-a685-218383959f98","ios":"levelo://app?vid=b19a95d0-4f06-48c7-a685-218383959f98"},"vehicle_type_id":"4","last_reported":1727943153,"current_range_meters":24000,"station_id":"ce4bgup2rcd13ifvqco0","pricing_plan_id":"cebpf4jnsgd1na2vs0mg"},{"bike_id":"0200794a-de98-4010-a486-a2288ee10edd","system_id":"levelo_inurba_marseille","lat":43.31348,"lon":5.36713,"is_reserved":false,"is_disabled":false,"rental_uris":{"android":"levelo://app?vid=0200794a-de98-4010-a486-a2288ee10edd","ios":"levelo://app?vid=0200794a-de98-4010-a486-a2288ee10edd"},"vehicle_type_id":"4","last_reported":1727943153,"current_range_meters":36400,"station_id":"ce4bgr92rcd13ifvqc6g","pricing_plan_id":"cebpf4jnsgd1na2vs0mg"},{"bike_id":"d9513a24-3235-43a7-b9a5-1c5cfe37603f","system_id":"levelo_inurba_marseille","lat":43.23058,"lon":5.35495,"is_reserved":false,"is_disabled":false,"rental_uris":{"android":"levelo://app?vid=d9513a24-3235-43a7-b9a5-1c5cfe37603f","ios":"levelo://app?vid=d9513a24-3235-43a7-b9a5-1c5cfe37603f"},"vehicle_type_id":"4","last_reported":1727943153,"current_range_meters":30800,"station_id":"cpo3342slgdg3j2ifvpg","pricing_plan_id":"cebpf4jnsgd1na2vs0mg"},{"bike_id":"fa178e1e-e502-4f6a-b9fc-662003725e0e","system_id":"levelo_inurba_marseille","lat":43.30935,"lon":5.40157,"is_reserved":false,"is_disabled":false,"rental_uris":{"android":"levelo://app?vid=fa178e1e-e502-4f6a-b9fc-662003725e0e","ios":"levelo://app?vid=fa178e1e-e502-4f6a-b9fc-662003725e0e"},"vehicle_type_id":"4","last_reported":1727943153,"current_range_meters":18800,"station_id":"ce4bgvp2rcd13ifvqct0","pricing_plan_id":"cebpf4jnsgd1na2vs0mg"},{"bike_id":"f286867f-d26f-4f6a-8bdb-416a3f805843","system_id":"levelo_inurba_marseille","lat":43.30943,"lon":5.39033,"is_reserved":false,"is_disabled":false,"rental_uris":{"android":"levelo://app?vid=f286867f-d26f-4f6a-8bdb-416a3f805843","ios":"levelo://app?vid=f286867f-d26f-4f6a-8bdb-416a3f805843"},"vehicle_type_id":"4","last_reported":1727943153,"current_range_meters":35600,"station_id":"ce4bgup2rcd13ifvqco0","pricing_plan_id":"cebpf4jnsgd1na2vs0mg"},{"bike_id":"89f79560-9417-4d80-afea-9f3796d9baaf","system_id":"levelo_inurba_marseille","lat":43.337444,"lon":5.374475,"is_reserved":false,"is_disabled":false,"rental_uris":{"android":"levelo://app?vid=89f79560-9417-4d80-afea-9f3796d9baaf","ios":"levelo://app?vid=89f79560-9417-4d80-afea-9f3796d9baaf"},"vehicle_type_id":"4","last_reported":1727943153,"current_range_meters":11200,"station_id":"","pricing_plan_id":"cebpf4jnsgd1na2vs0mg"},{"bike_id":"7a6b4e75-1cb2-4959-8187-5691b78f74e7","system_id":"levelo_inurba_marseille","lat":43.32535,"lon":5.41452,"is_reserved":false,"is_disabled":false,"rental_uris":{"android":"levelo://app?vid=7a6b4e75-1cb2-4959-8187-5691b78f74e7","ios":"levelo://app?vid=7a6b4e75-1cb2-4959-8187-5691b78f74e7"},"vehicle_type_id":"4","last_reported":1727943153,"current_range_meters":38800,"station_id":"ce4bhq12rcd13ifvqhhg","pricing_plan_id":"cebpf4jnsgd1na2vs0mg"},{"bike_id":"764c6c33-8c6d-4196-afca-b4f9d900a3fe","system_id":"levelo_inurba_marseille","lat":43.30146,"lon":5.37421,"is_reserved":false,"is_disabled":false,"rental_uris":{"android":"levelo://app?vid=764c6c33-8c6d-4196-afca-b4f9d900a3fe","ios":"levelo://app?vid=764c6c33-8c6d-4196-afca-b4f9d900a3fe"},"vehicle_type_id":"4","last_reported":1727943153,"current_range_meters":32000,"station_id":"ce4bgs92rcd13ifvqcc0","pricing_plan_id":"cebpf4jnsgd1na2vs0mg"},{"bike_id":"b338f9ba-88ec-4609-8df1-ee6ac45b1cea","system_id":"levelo_inurba_marseille","lat":43.29974,"lon":5.38491,"is_reserved":false,"is_disabled":false,"rental_uris":{"android":"levelo://app?vid=b338f9ba-88ec-4609-8df1-ee6ac45b1cea","ios":"levelo://app?vid=b338f9ba-88ec-4609-8df1-ee6ac45b1cea"},"vehicle_type_id":"4","last_reported":1727943153,"current_range_meters":24400,"station_id":"ce4bgj92rcd13ifvqbd0","pricing_plan_id":"cebpf4jnsgd1na2vs0mg"},{"bike_id":"9bf124ee-5cc5-4a86-aaf0-0555a3177f69","system_id":"levelo_inurba_marseille","lat":43.30559,"lon":5.36546,"is_reserved":false,"is_disabled":false,"rental_uris":{"android":"levelo://app?vid=9bf124ee-5cc5-4a86-aaf0-0555a3177f69","ios":"levelo://app?vid=9bf124ee-5cc5-4a86-aaf0-0555a3177f69"},"vehicle_type_id":"4","last_reported":1727943153,"current_range_meters":9600,"station_id":"ce4bgs12rcd13ifvqcag","pricing_plan_id":"cebpf4jnsgd1na2vs0mg"},{"bike_id":"4cd4ba35-fcc6-4b78-ba23-2f7989c45f8d","system_id":"levelo_inurba_marseille","lat":43.31115,"lon":5.37768,"is_reserved":false,"is_disabled":false,"rental_uris":{"android":"levelo://app?vid=4cd4ba35-fcc6-4b78-ba23-2f7989c45f8d","ios":"levelo://app?vid=4cd4ba35-fcc6-4b78-ba23-2f7989c45f8d"},"vehicle_type_id":"4","last_reported":1727943153,"current_range_meters":29600,"station_id":"ce4bgt92rcd13ifvqcg0","pricing_plan_id":"cebpf4jnsgd1na2vs0mg"},{"bike_id":"0f0f5130-87c2-4f06-aa07-b0d0de3a37a9","system_id":"levelo_inurba_marseille","lat":43.30941,"lon":5.3904,"is_reserved":false,"is_disabled":false,"rental_uris":{"android":"levelo://app?vid=0f0f5130-87c2-4f06-aa07-b0d0de3a37a9","ios":"levelo://app?vid=0f0f5130-87c2-4f06-aa07-b0d0de3a37a9"},"vehicle_type_id":"4","last_reported":1727943153,"current_range_meters":38800,"station_id":"ce4bgup2rcd13ifvqco0","pricing_plan_id":"cebpf4jnsgd1na2vs0mg"},{"bike_id":"249ae226-c285-4223-a326-a98e19aea977","system_id":"levelo_inurba_marseille","lat":43.30311,"lon":5.36902,"is_reserved":false,"is_disabled":false,"rental_uris":{"android":"levelo://app?vid=249ae226-c285-4223-a326-a98e19aea977","ios":"levelo://app?vid=249ae226-c285-4223-a326-a98e19aea977"},"vehicle_type_id":"4","last_reported":1727943153,"current_range_meters":22400,"station_id":"ce4bgqh2rcd13ifvqc5g","pricing_plan_id":"cebpf4jnsgd1na2vs0mg"},{"bike_id":"c11e4bd0-e2c3-48ea-a4b3-91464161cb45","system_id":"levelo_inurba_marseille","lat":43.23964,"lon":5.36629,"is_reserved":false,"is_disabled":false,"rental_uris":{"android":"levelo://app?vid=c11e4bd0-e2c3-48ea-a4b3-91464161cb45","ios":"levelo://app?vid=c11e4bd0-e2c3-48ea-a4b3-91464161cb45"},"vehicle_type_id":"4","last_reported":1727943153,"current_range_meters":38800,"station_id":"ce4bhi12rcd13ifvqfp0","pricing_plan_id":"cebpf4jnsgd1na2vs0mg"},{"bike_id":"6969f528-4a62-42e3-84a6-9475bef01981","system_id":"levelo_inurba_marseille","lat":43.33603,"lon":5.41041,"is_reserved":false,"is_disabled":false,"rental_uris":{"android":"levelo://app?vid=6969f528-4a62-42e3-84a6-9475bef01981","ios":"levelo://app?vid=6969f528-4a62-42e3-84a6-9475bef01981"},"vehicle_type_id":"4","last_reported":1727943153,"current_range_meters":34800,"station_id":"ce4bhqh2rcd13ifvqhmg","pricing_plan_id":"cebpf4jnsgd1na2vs0mg"},{"bike_id":"1cafdceb-7139-457d-9845-f526a66b2589","system_id":"levelo_inurba_marseille","lat":43.29166,"lon":5.37158,"is_reserved":false,"is_disabled":false,"rental_uris":{"android":"levelo://app?vid=1cafdceb-7139-457d-9845-f526a66b2589","ios":"levelo://app?vid=1cafdceb-7139-457d-9845-f526a66b2589"},"vehicle_type_id":"4","last_reported":1727943153,"current_range_meters":38800,"station_id":"ce4bha92rcd13ifvqeh0","pricing_plan_id":"cebpf4jnsgd1na2vs0mg"},{"bike_id":"1430add3-d4f9-4c53-8101-19290ecfc468","system_id":"levelo_inurba_marseille","lat":43.29837,"lon":5.36266,"is_reserved":false,"is_disabled":false,"rental_uris":{"android":"levelo://app?vid=1430add3-d4f9-4c53-8101-19290ecfc468","ios":"levelo://app?vid=1430add3-d4f9-4c53-8101-19290ecfc468"},"vehicle_type_id":"4","last_reported":1727943153,"current_range_meters":16000,"station_id":"ce4bgpp2rcd13ifvqc3g","pricing_plan_id":"cebpf4jnsgd1na2vs0mg"},{"bike_id":"6741ba96-9e91-40e3-ba99-8343f03dbbd1","system_id":"levelo_inurba_marseille","lat":43.24077,"lon":5.3775,"is_reserved":false,"is_disabled":false,"rental_uris":{"android":"levelo://app?vid=6741ba96-9e91-40e3-ba99-8343f03dbbd1","ios":"levelo://app?vid=6741ba96-9e91-40e3-ba99-8343f03dbbd1"},"vehicle_type_id":"4","last_reported":1727943153,"current_range_meters":26800,"station_id":"ce4bhnp2rcd13ifvqgvg","pricing_plan_id":"cebpf4jnsgd1na2vs0mg"},{"bike_id":"301a9531-b57a-41ad-b290-af7e1482f165","system_id":"levelo_inurba_marseille","lat":43.32536,"lon":5.41415,"is_reserved":false,"is_disabled":false,"rental_uris":{"android":"levelo://app?vid=301a9531-b57a-41ad-b290-af7e1482f165","ios":"levelo://app?vid=301a9531-b57a-41ad-b290-af7e1482f165"},"vehicle_type_id":"4","last_reported":1727943153,"current_range_meters":8000,"station_id":"ce4bhq12rcd13ifvqhhg","pricing_plan_id":"cebpf4jnsgd1na2vs0mg"},{"bike_id":"3d672d98-e84e-4b43-9724-e11390f91194","system_id":"levelo_inurba_marseille","lat":43.29009,"lon":5.38652,"is_reserved":false,"is_disabled":false,"rental_uris":{"android":"levelo://app?vid=3d672d98-e84e-4b43-9724-e11390f91194","ios":"levelo://app?vid=3d672d98-e84e-4b43-9724-e11390f91194"},"vehicle_type_id":"4","last_reported":1727943153,"current_range_meters":30400,"station_id":"ce4bh4p2rcd13ifvqe0g","pricing_plan_id":"cebpf4jnsgd1na2vs0mg"},{"bike_id":"4da74137-ccad-4191-a80d-0dadc2264fec","system_id":"levelo_inurba_marseille","lat":43.30944,"lon":5.39046,"is_reserved":false,"is_disabled":false,"rental_uris":{"android":"levelo://app?vid=4da74137-ccad-4191-a80d-0dadc2264fec","ios":"levelo://app?vid=4da74137-ccad-4191-a80d-0dadc2264fec"},"vehicle_type_id":"4","last_reported":1727943153,"current_range_meters":28000,"station_id":"ce4bgup2rcd13ifvqco0","pricing_plan_id":"cebpf4jnsgd1na2vs0mg"},