{"last_updated":1736528879,"ttl":60,"version":"2.2","data":{"bikes":[{"bike_id":"14a8245a-9128-40d3-8265-cf1423d2fdc8","system_id":"levelo_inurba_marseille","lat":43.24815,"lon":5.37447,"is_reserved":false,"is_disabled":false,"rental_uris":{"android":"levelo://app?vid=14a8245a-9128-40d3-8265-cf1423d2fdc8","ios":"levelo://app?vid=14a8245a-9128-40d3-8265-cf1423d2fdc8"},"vehicle_type_id":"4","last_reported":1736528879,"current_range_meters":39200,"station_id":"ce4bhgh2rcd13ifvqfb0","pricing_plan_id":"cebpf4jnsgd1na2vs0mg"},{"bike_id":"9ff24b9e-60a3-48d4-8cde-0ae6dfde2dc8","system_id":"levelo_inurba_marseille","lat":43.330157,"lon":5.390375,"is_reserved":false,"is_disabled":false,"rental_uris":{"android":"levelo://app?vid=9ff24b9e-60a3-48d4-8cde-0ae6dfde2dc8","ios":"levelo://app?vid=9ff24b9e-60a3-48d4-8cde-0ae6dfde2dc8"},"vehicle_type_id":"4","last_reported":1736528879,"current_range_meters":33200,"station_id":"ce4bhr92rcd13ifvqhrg","pricing_plan_id":"cebpf4jnsgd1na2vs0mg"},{"bike_id":"3b123673-8d4f-4068-abd8-f46ee5ced2ff","system_id":"levelo_inurba_marseille","lat":43.28459,"lon":5.35886,"is_reserved":false,"is_disabled":false,"rental_uris":{"android":"levelo://app?vid=3b123673-8d4f-4068-abd8-f46ee5ced2ff","ios":"levelo://app?vid=3b123673-8d4f-4068-abd8-f46ee5ced2ff"},"vehicle_type_id":"4","last_reported":1736528879,"current_range_meters":15200,"station_id":"ce4bhah2rcd13ifvqei0","pricing_plan_id":"cebpf4jnsgd1na2vs0mg"},{"bike_id":"42034ff5-e6b0-40c2-8baa-a33bc13731d4","system_id":"levelo_inurba_marseille","lat":43.25929,"lon":5.40908,"is_reserved":false,"is_disabled":true,"rental_uris":{"android":"levelo://app?vid=42034ff5-e6b0-40c2-8baa-a33bc13731d4","ios":"levelo://app?vid=42034ff5-e6b0-40c2-8baa-a33bc13731d4"},"vehicle_type_id":"4","last_reported":1736528879,"current_range_meters":28400,"station_id":"ce4bhm92rcd13ifvqglg","pricing_plan_id":"cebpf4jnsgd1na2vs0mg"},{"bike_id":"162e8c09-a503-4904-be16-231bd952b8cf","system_id":"levelo_inurba_marseille","lat":43.29026,"lon":5.38646,"is_reserved":false,"is_disabled":false,"rental_uris":{"android":"levelo://app?vid=162e8c09-a503-4904-be16-231bd952b8cf","ios":"levelo://app?vid=162e8c09-a503-4904-be16-231bd952b8cf"},"vehicle_type_id":"4","last_reported":1736528879,"current_range_meters":17200,"station_id":"ce4bh4p2rcd13ifvqe0g","pricing_plan_id":"cebpf4jnsgd1na2vs0mg"},{"bike_id":"1ecf36f3-78ef-4170-9998-a2e0fc18265b","system_id":"levelo_inurba_marseille","lat":43.31711,"lon":5.37773,"is_reserved":false,"is_disabled":false,"rental_uris":{"android":"levelo://app?vid=1ecf36f3-78ef-4170-9998-a2e0fc18265b","ios":"levelo://app?vid=1ecf36f3-78ef-4170-9998-a2e0fc18265b"},"vehicle_type_id":"4","last_reported":1736528879,"current_range_meters":27600,"station_id":"ce4bgth2rcd13ifvqch0","pricing_plan_id":"cebpf4jnsgd1na2vs0mg"},{"bike_id":"402a470e-441d-4c56-9926-3001622e887a","system_id":"levelo_inurba_marseille","lat":43.27561,"lon":5.38435,"is_reserved":false,"is_disabled":false,"rental_uris":{"android":"levelo://app?vid=402a470e-441d-4c56-9926-3001622e887a","ios":"levelo://app?vid=402a470e-441d-4c56-9926-3001622e887a"},"vehicle_type_id":"4","last_reported":1736528879,"current_range_meters":12000,"station_id":"ce4bhh92rcd13ifvqfi0","pricing_plan_id":"cebpf4jnsgd1na2vs0mg"},{"bike_id":"cca8daa2-835d-4373-8bf2-da5672d50807","system_id":"levelo_inurba_marseille","lat":43.28566,"lon":5.39501,"is_reserved":false,"is_disabled":false,"rental_uris":{"android":"levelo://app?vid=cca8daa2-835d-4373-8bf2-da5672d50807","ios":"levelo://app?vid=cca8daa2-835d-4373-8bf2-da5672d50807"},"vehicle_type_id":"4","last_reported":1736528879,"current_range_meters":6800,"station_id":"ce4bh292rcd13ifvqdg0","pricing_plan_id":"cebpf4jnsgd1na2vs0mg"},{"bike_id":"a444a04d-7a75-4bb0-b921-23a4f692b157","system_id":"levelo_inurba_marseille","lat":43.24649,"lon":5.38896,"is_reserved":false,"is_disabled":false,"rental_uris":{"android":"levelo://app?vid=a444a04d-7a75-4bb0-b921-23a4f692b157","ios":"levelo://app?vid=a444a04d-7a75-4bb0-b921-23a4f692b157"},"vehicle_type_id":"4","last_reported":1736528879,"current_range_meters":23200,"station_id":"ce4bhg12rcd13ifvqf60","pricing_plan_id":"cebpf4jnsgd1na2vs0mg"},{"bike_id":"1adef1bb-6efb-42df-8b29-89dbf78c67a7","system_id":"levelo_inurba_marseille","lat":43.29986,"lon":5.38484,"is_reserved":false,"is_disabled":false,"rental_uris":{"android":"levelo://app?vid=1adef1bb-6efb-42df-8b29-89dbf78c67a7","ios":"levelo://app?vid=1adef1bb-6efb-42df-8b29-89dbf78c67a7"},"vehicle_type_id":"4","last_reported":1736528879,"current_range_meters":23200,"station_id":"ce4bgj92rcd13ifvqbd0","pricing_plan_id":"cebpf4jnsgd1na2vs0mg"},{"bike_id":"9b9f7a00-78fa-4c6e-9a55-5c7cdd99b601","system_id":"levelo_inurba_marseille","lat":43.2803,"lon":5.36945,"is_reserved":false,"is_disabled":false,"rental_uris":{"android":"levelo://app?vid=9b9f7a00-78fa-4c6e-9a55-5c7cdd99b601","ios":"levelo://app?vid=9b9f7a00-78fa-4c6e-9a55-5c7cdd99b601"},"vehicle_type_id":"4","last_reported":1736528879,"current_range_meters":39200,"station_id":"ce4bha12rcd13ifvqef0","pricing_plan_id":"cebpf4jnsgd1na2vs0mg"},{"bike_id":"13b473bc-816f-467e-ae12-cfad637a890c","system_id":"levelo_inurba_marseille","lat":43.27445,"lon":5.39403,"is_reserved":false,"is_disabled":true,"rental_uris":{"android":"levelo://app?vid=13b473bc-816f-467e-ae12-cfad637a890c","ios":"levelo://app?vid=13b473bc-816f-467e-ae12-cfad637a890c"},"vehicle_type_id":"4","last_reported":1736528879,"current_range_meters":1200,"station_id":"ce4bhdp2rcd13ifvqf20","pricing_plan_id":"cebpf4jnsgd1na2vs0mg"},{"bike_id":"1c40deab-fbff-4c5b-b64d-773745c63157","system_id":"levelo_inurba_marseille","lat":43.3093,"lon":5.40153,"is_reserved":false,"is_disabled":false,"rental_uris":{"android":"levelo://app?vid=1c40deab-fbff-4c5b-b64d-773745c63157","ios":"levelo://app?vid=1c40deab-fbff-4c5b-b64d-773745c63157"},"vehicle_type_id":"4","last_reported":1736528879,"current_range_meters":19200,"station_id":"ce4bgvp2rcd13ifvqct0","pricing_plan_id":"cebpf4jnsgd1na2vs0mg"},{"bike_id":"004c2ac5-7f25-4e48-8a80-9a02537f6ba6","system_id":"levelo_inurba_marseille","lat":43.321055,"lon":5.367894,"is_reserved":false,"is_disabled":false,"rental_uris":{"android":"levelo://app?vid=004c2ac5-7f25-4e48-8a80-9a02537f6ba6","ios":"levelo://app?vid=004c2ac5-7f25-4e48-8a80-9a02537f6ba6"},"vehicle_type_id":"4","last_reported":1736528879,"current_range_meters":35200,"station_id":"ce4bhrh2rcd13ifvqhug","pricing_plan_id":"cebpf4jnsgd1na2vs0mg"},{"bike_id":"80ed1c29-fc38-417d-b552-9a7c20a94412","system_id":"levelo_inurba_marseille","lat":43.26213,"lon":5.37448,"is_reserved":false,"is_disabled":false,"rental_uris":{"android":"levelo://app?vid=80ed1c29-fc38-417d-b552-9a7c20a94412","ios":"levelo://app?vid=80ed1c29-fc38-417d-b552-9a7c20a94412"},"vehicle_type_id":"4","last_reported":1736528879,"current_range_meters":30800,"station_id":"ce4bhgp2rcd13ifvqfc0","pricing_plan_id":"cebpf4jnsgd1na2vs0mg"},{"bike_id":"aca9d58c-8821-4d79-88c1-67c3a044952f","system_id":"levelo_inurba_marseille","lat":43.33045,"lon":5.39022,"is_reserved":false,"is_disabled":false,"rental_uris":{"android":"levelo://app?vid=aca9d58c-8821-4d79-88c1-67c3a044952f","ios":"levelo://app?vid=aca9d58c-8821-4d79-88c1-67c3a044952f"},"vehicle_type_id":"4","last_reported":1736528879,"current_range_meters":25200,"station_id":"ce4bhr92rcd13ifvqhrg","pricing_plan_id":"cebpf4jnsgd1na2vs0mg"},{"bike_id":"e43b46cd-442b-40dd-8db3-ba8a069bd60a","system_id":"levelo_inurba_marseille","lat":43.32038,"lon":5.41525,"is_reserved":false,"is_disabled":false,"rental_uris":{"android":"levelo://app?vid=e43b46cd-442b-40dd-8db3-ba8a069bd60a","ios":"levelo://app?vid=e43b46cd-442b-40dd-8db3-ba8a069bd60a"},"vehicle_type_id":"4","last_reported":1736528879,"current_range_meters":10000,"station_id":"ce4bhq92rcd13ifvqhkg","pricing_plan_id":"cebpf4jnsgd1na2vs0mg"},{"bike_id":"9f35e75c-ba6d-4f8b-b521-eefbbebfb95e","system_id":"levelo_inurba_marseille","lat":43.24697,"lon":5.38151,"is_reserved":false,"is_disabled":false,"rental_uris":{"android":"levelo://app?vid=9f35e75c-ba6d-4f8b-b521-eefbbebfb95e","ios":"levelo://app?vid=9f35e75c-ba6d-4f8b-b521-eefbbebfb95e"},"vehicle_type_id":"4","last_reported":1736528879,"current_range_meters":16000,"station_id":"ce4bhih2rcd13ifvqfr0","pricing_plan_id":"cebpf4jnsgd1na2vs0mg"},{"bike_id":"33965b49-c1c5-4ed5-8f57-f4fa27ed9992","system_id":"levelo_inurba_marseille","lat":43.3086,"lon":5.37216,"is_reserved":false,"is_disabled":false,"rental_uris":{"android":"levelo://app?vid=33965b49-c1c5-4ed5-8f57-f4fa27ed9992","ios":"levelo://app?vid=33965b49-c1c5-4ed5-8f57-f4fa27ed9992"},"vehicle_type_id":"4","last_reported":1736528879,"current_range_meters":25200,"station_id":"","pricing_plan_id":"cebpf4jnsgd1na2vs0mg"},{"bike_id":"c1dea8eb-dedb-48c3-82b9-ba4d059a0755","system_id":"levelo_inurba_marseille","lat":43.26557,"lon":5.37284,"is_reserved":false,"is_disabled":true,"rental_uris":{"android":"levelo://app?vid=c1dea8eb-dedb-48c3-82b9-ba4d059a0755","ios":"levelo://app?vid=c1dea8eb-dedb-48c3-82b9-ba4d059a0755"},"vehicle_type_id":"4","last_reported":1736528879,"current_range_meters":11200,"station_id":"ce4bhg12rcd13ifvqf70","pricing_plan_id":"cebpf4jnsgd1na2vs0mg"},{"bike_id":"666c0c92-428a-4f95-8531-2a4d6f4a5bb0","system_id":"levelo_inurba_marseille","lat":43.24664,"lon":5.38164,"is_reserved":false,"is_disabled":false,"rental_uris":{"android":"levelo://app?vid=666c0c92-428a-4f95-8531-2a4d6f4a5bb0","ios":"levelo://app?vid=666c0c92-428a-4f95-8531-2a4d6f4a5bb0"},"vehicle_type_id":"4","last_reported":1736528879,"current_range_meters":12400,"station_id":"ce4bhih2rcd13ifvqfr0","pricing_plan_id":"cebpf4jnsgd1na2vs0mg"},{"bike_id":"3e35ef7b-3237-4c6e-a7b1-693543e13672","system_id":"levelo_inurba_marseille","lat":43.24656,"lon":5.38881,"is_reserved":false,"is_disabled":false,"rental_uris":{"android":"levelo://app?vid=3e35ef7b-3237-4c6e-a7b1-693543e13672","ios":"levelo://app?vid=3e35ef7b-3237-4c6e-a7b1-693543e13672"},"vehicle_type_id":"4","last_reported":1736528879,"current_range_meters":32400,"station_id":"ce4bhg12rcd13ifvqf60","pricing_plan_id":"cebpf4jnsgd1na2vs0mg"},{"bike_id":"4d4bfeef-a0c2-46e7-aa7d-4029e91ebb61","system_id":"levelo_inurba_marseille","lat":43.31119,"lon":5.37766,"is_reserved":false,"is_disabled":false,"rental_uris":{"android":"levelo://app?vid=4d4bfeef-a0c2-46e7-aa7d-4029e91ebb61","ios":"levelo://app?vid=4d4bfeef-a0c2-46e7-aa7d-4029e91ebb61"},"vehicle_type_id":"4","last_reported":1736528879,"current_range_meters":24400,"station_id":"ce4bgt92rcd13ifvqcg0","pricing_plan_id":"cebpf4jnsgd1na2vs0mg"},{"bike_id":"33eb2f8b-4a40-48aa-95d8-4dc0f60b4791","system_id":"levelo_inurba_marseille","lat":43.29535,"lon":5.38542,"is_reserved":false,"is_disabled":false,"rental_uris":{"android":"levelo://app?vid=33eb2f8b-4a40-48aa-95d8-4dc0f60b4791","ios":"levelo://app?vid=33eb2f8b-4a40-48aa-95d8-4dc0f60b4791"},"vehicle_type_id":"4","last_reported":1736528879,"current_range_meters":25200,"station_id":"ce4bgih2rcd13ifvqba0","pricing_plan_id":"cebpf4jnsgd1na2vs0mg"},{"bike_id":"71cf82d9-2798-42b4-a4cc-4ab59dd88803","system_id":"levelo_inurba_marseille","lat":43.23181,"lon":5.399924,"is_reserved":false,"is_disabled":false,"rental_uris":{"android":"levelo://app?vid=71cf82d9-2798-42b4-a4cc-4ab59dd88803","ios":"levelo://app?vid=71cf82d9-2798-42b4-a4cc-4ab59dd88803"},"vehicle_type_id":"4","last_reported":1736528879,"current_range_meters":10800,"station_id":"ce4bhn12rcd13ifvqgqg","pricing_plan_id":"cebpf4jnsgd1na2vs0mg"},{"bike_id":"dcb2126a-d21d-4ccc-8dd5-f93c643abd4d","system_id":"levelo_inurba_marseille","lat":43.28915,"lon":5.38394,"is_reserved":false,"is_disabled":true,"rental_uris":{"android":"levelo://app?vid=dcb2126a-d21d-4ccc-8dd5-f93c643abd4d","ios":"levelo://app?vid=dcb2126a-d21d-4ccc-8dd5-f93c643abd4d"},"vehicle_type_id":"4","last_reported":1736528879,"current_range_meters":12000,"station_id":"ce4bh612rcd13ifvqe6g","pricing_plan_id":"cebpf4jnsgd1na2vs0mg"},{"bike_id":"40aa582d-815a-4ab4-b49f-d3b3d622ee04","system_id":"levelo_inurba_marseille","lat":43.2306,"lon":5.35496,"is_reserved":false,"is_disabled":false,"rental_uris":{"android":"levelo://app?vid=40aa582d-815a-4ab4-b49f-d3b3d622ee04","ios":"levelo://app?vid=40aa582d-815a-4ab4-b49f-d3b3d622ee04"},"vehicle_type_id":"4","last_reported":1736528879,"current_range_meters":7200,"station_id":"cpo3342slgdg3j2ifvpg","pricing_plan_id":"cebpf4jnsgd1na2vs0mg"},{"bike_id":"6b750947-fb43-40e2-9931-495446cc2b3f","system_id":"levelo_inurba_marseille","lat":43.2292,"lon":5.3538,"is_reserved":false,"is_disabled":false,"rental_uris":{"android":"levelo://app?vid=6b750947-fb43-40e2-9931-495446cc2b3f","ios":"levelo://app?vid=6b750947-fb43-40e2-9931-495446cc2b3f"},"vehicle_type_id":"4","last_reported":1736528879,"current_range_meters":38800,"station_id":"cpo3532slgdg3j2ikp40","pricing_plan_id":"cebpf4jnsgd1na2vs0mg"},{"bike_id":"a695196c-79fc-477c-ba43-5e8d0411f6ec","system_id":"levelo_inurba_marseille","lat":43.30212,"lon":5.39461,"is_reserved":false,"is_disabled":false,"rental_uris":{"android":"levelo://app?vid=a695196c-79fc-477c-ba43-5e8d0411f6ec","ios":"levelo://app?vid=a695196c-79fc-477c-ba43-5e8d0411f6ec"},"vehicle_type_id":"4","last_reported":1736528879,"current_range_meters":36800,"station_id":"ce4bh0p2rcd13ifvqd70","pricing_plan_id":"cebpf4jnsgd1na2vs0mg"},{"bike_id":"5b79b006-d7c3-4b04-9541-c9d77e2d63cb","system_id":"levelo_inurba_marseille","lat":43.31709,"lon":5.40444,"is_reserved":false,"is_disabled":true,"rental_uris":{"android":"levelo://app?vid=5b79b006-d7c3-4b04-9541-c9d77e2d63cb","ios":"levelo://app?vid=5b79b006-d7c3-4b04-9541-c9d77e2d63cb"},"vehicle_type_id":"4","last_reported":1736528879,"current_range_meters":16400,"station_id":"ce4bh012rcd13ifvqd00","pricing_plan_id":"cebpf4jnsgd1na2vs0mg"},{"bike_id":"1f5ef9f6-050f-4f79-a9ce-badba66ed461","system_id":"levelo_inurba_marseille","lat":43.28624,"lon":5.40047,"is_reserved":false,"is_disabled":false,"rental_uris":{"android":"levelo://app?vid=1f5ef9f6-050f-4f79-a9ce-badba66ed461","ios":"levelo://app?vid=1f5ef9f6-050f-4f79-a9ce-badba66ed461"},"vehicle_type_id":"4","last_reported":1736528879,"current_range_meters":24400,"station_id":"","pricing_plan_id":"cebpf4jnsgd1na2vs0mg"},{"bike_id":"4af16076-0c4c-4b77-bf13-a9dfad761f4a","system_id":"levelo_inurba_marseille","lat":43.26024,"lon":5.37549,"is_reserved":false,"is_disabled":false,"rental_uris":{"android":"levelo://app?vid=4af16076-0c4c-4b77-bf13-a9dfad761f4a","ios":"levelo://app?vid=4af16076-0c4c-4b77-bf13-a9dfad761f4a"},"vehicle_type_id":"4","last_reported":1736528879,"current_range_meters":34800,"station_id":"ce4bhgh2rcd13ifvqfa0","pricing_plan_id":"cebpf4jnsgd1na2vs0mg"},{"bike_id":"79da2544-1cc6-4479-aa5c-48161bc5839b","system_id":"levelo_inurba_marseille","lat":43.30414,"lon":5.39749,"is_reserved":false,"is_disabled":true,"rental_uris":{"android":"levelo://app?vid=79da2544-1cc6-4479-aa5c-48161bc5839b","ios":"levelo://app?vid=79da2544-1cc6-4479-aa5c-48161bc5839b"},"vehicle_type_id":"4","last_reported":1736528879,"current_range_meters":30400,"station_id":"ce4bh092rcd13ifvqd20","pricing_plan_id":"cebpf4jnsgd1na2vs0mg"},{"bike_id":"fe9fe356-7065-4b69-99a3-3803b702901c","system_id":"levelo_inurba_marseille","lat":43.2952,"lon":5.39039,"is_reserved":false,"is_disabled":false,"rental_uris":{"android":"levelo://app?vid=fe9fe356-7065-4b69-99a3-3803b702901c","ios":"levelo://app?vid=fe9fe356-7065-4b69-99a3-3803b702901c"},"vehicle_type_id":"4","last_reported":1736528879,"current_range_meters":25600,"station_id":"ce4bh3p2rcd13ifvqdp0","pricing_plan_id":"cebpf4jnsgd1na2vs0mg"},{"bike_id":"6d907632-b7a4-409f-98d5-031bae93ab87","system_id":"levelo_inurba_marseille","lat":43.23972,"lon":5.36606,"is_reserved":false,"is_disabled":false,"rental_uris":{"android":"levelo://app?vid=6d907632-b7a4-409f-98d5-031bae93ab87","ios":"levelo://app?vid=6d907632-b7a4-409f-98d5-031bae93ab87"},"vehicle_type_id":"4","last_reported":1736528879,"current_range_meters":38800,"station_id":"ce4bhi12rcd13ifvqfp0","pricing_plan_id":"cebpf4jnsgd1na2vs0mg"},{"bike_id":"0f5563d6-0941-46ef-98a9-a8cb65f72164","system_id":"levelo_inurba_marseille","lat":43.28457,"lon":5.35884,"is_reserved":false,"is_disabled":false,"rental_uris":{"android":"levelo://app?vid=0f5563d6-0941-46ef-98a9-a8cb65f72164","ios":"levelo://app?vid=0f5563d6-0941-46ef-98a9-a8cb65f72164"},"vehicle_type_id":"4","last_reported":1736528879,"current_range_meters":12000,"station_id":"ce4bhah2rcd13ifvqei0","pricing_plan_id":"cebpf4jnsgd1na2vs0mg"},{"bike_id":"a32b2dfc-af23-42dc-a0fd-205aa8242f3d","system_id":"levelo_inurba_marseille","lat":43.27581,"lon":5.38418,"is_reserved":false,"is_disabled":false,"rental_uris":{"android":"levelo://app?vid=a32b2dfc-af23-42dc-a0fd-205aa8242f3d","ios":"levelo://app?vid=a32b2dfc-af23-42dc-a0fd-205aa8242f3d"},"vehicle_type_id":"4","last_reported":1736528879,"current_range_meters":29600,"station_id":"ce4bhh92rcd13ifvqfi0","pricing_plan_id":"cebpf4jnsgd1na2vs0mg"},{"bike_id":"237b367f-69c6-422c-b184-44b6091e4d4e","system_id":"levelo_inurba_marseille","lat":43.23972,"lon":5.36605,"is_reserved":false,"is_disabled":false,"rental_uris":{"android":"levelo://app?vid=237b367f-69c6-422c-b184-44b6091e4d4e","ios":"levelo://app?vid=237b367f-69c6-422c-b184-44b6091e4d4e"},"vehicle_type_id":"4","last_reported":1736528879,"current_range_meters":27600,"station_id":"ce4bhi12rcd13ifvqfp0","pricing_plan_id":"cebpf4jnsgd1na2vs0mg"},{"bike_id":"effc1ad2-81ea-450d-94d8-ec07ff8f2ba0","system_id":"levelo_inurba_marseille","lat":43.24532,"lon":5.39516,"is_reserved":false,"is_disabled":false,"rental_uris":{"android":"levelo://app?vid=effc1ad2-81ea-450d-94d8-ec07ff8f2ba0","ios":"levelo://app?vid=effc1ad2-81ea-450d-94d8-ec07ff8f2ba0"},"vehicle_type_id":"4","last_reported":1736528879,"current_range_meters":37600,"station_id":"ce4bhlp2rcd13ifvqgjg","pricing_plan_id":"cebpf4jnsgd1na2vs0mg"},{"bike_id":"d8327471-e10e-4e1d-a46b-c43156fc0620","system_id":"levelo_inurba_marseille","lat":43.2678,"lon":5.39415,"is_reserved":false,"is_disabled":true,"rental_uris":{"android":"levelo://app?vid=d8327471-e10e-4e1d-a46b-c43156fc0620","ios":"levelo://app?vid=d8327471-e10e-4e1d-a46b-c43156fc0620"},"vehicle_type_id":"4","last_reported":1736528879,"current_range_meters":2800,"station_id":"ce4bhh12rcd13ifvqfg0","pricing_plan_id":"cebpf4jnsgd1na2vs0mg"},{"bike_id":"4dd40961-553c-4e5b-9458-ca01a1c97488","system_id":"levelo_inurba_marseille","lat":43.2962,"lon":5.37155,"is_reserved":false,"is_disabled":false,"rental_uris":{"android":"levelo://app?vid=4dd40961-553c-4e5b-9458-ca01a1c97488","ios":"levelo://app?vid=4dd40961-553c-4e5b-9458-ca01a1c97488"},"vehicle_type_id":"4","last_reported":1736528879,"current_range_meters":17200,"station_id":"ce4bgnh2rcd13ifvqc0g","pricing_plan_id":"cebpf4jnsgd1na2vs0mg"},{"bike_id":"4e1c5b28-4104-4a23-a66f-69a348ece67f","system_id":"levelo_inurba_marseille","lat":43.26065,"lon":5.39392,"is_reserved":false,"is_disabled":false,"rental_uris":{"android":"levelo://app?vid=4e1c5b28-4104-4a23-a66f-69a348ece67f","ios":"levelo://app?vid=4e1c5b28-4104-4a23-a66f-69a348ece67f"},"vehicle_type_id":"4","last_reported":1736528879,"current_range_meters":30000,"station_id":"ce4bhh92rcd13ifvqfj0","pricing_plan_id":"cebpf4jnsgd1na2vs0mg"},{"bike_id":"a7845fba-66e1-4bad-9c43-113a4fc581b4","system_id":"levelo_inurba_marseille","lat":43.26569,"lon":5.39016,"is_reserved":false,"is_disabled":false,"rental_uris":{"android":"levelo://app?vid=a7845fba-66e1-4bad-9c43-113a4fc581b4","ios":"levelo://app?vid=a7845fba-66e1-4bad-9c43-113a4fc581b4"},"vehicle_type_id":"4","last_reported":1736528879,"current_range_meters":23200,"station_id":"ce4bhe12rcd13ifvqf30","pricing_plan_id":"cebpf4jnsgd1na2vs0mg"},{"bike_id":"8a04762a-258a-4fb3-a79f-b05ea818229c","system_id":"levelo_inurba_marseille","lat":43.27938,"lon":5.4104,"is_reserved":false,"is_disabled":false,"rental_uris":{"android":"levelo://app?vid=8a04762a-258a-4fb3-a79f-b05ea818229c","ios":"levelo://app?vid=8a04762a-258a-4fb3-a79f-b05ea818229c"},"vehicle_type_id":"4","last_reported":1736528879,"current_range_meters":30400,"station_id":"ce4bhnp2rcd13ifvqh0g","pricing_plan_id":"cebpf4jnsgd1na2vs0mg"},{"bike_id":"f8f038bf-963e-4cc7-92aa-d346a08a0d6a","system_id":"levelo_inurba_marseille","lat":43.27409,"lon":5.39381,"is_reserved":false,"is_disabled":false,"rental_uris":{"android":"levelo://app?vid=f8f038bf-963e-4cc7-92aa-d346a08a0d6a","ios":"levelo://app?vid=f8f038bf-963e-4cc7-92aa-d346a08a0d6a"},"vehicle_type_id":"4","last_reported":1736528879,"current_range_meters":38000,"station_id":"ce4bhdp2rcd13ifvqf20","pricing_plan_id":"cebpf4jnsgd1na2vs0mg"},{"bike_id":"e581dae5-b6c3-42a2-a5f9-a10a564ff64d","system_id":"levelo_inurba_marseille","lat":43.30443,"lon":5.38892,"is_reserved":false,"is_disabled":false,"rental_uris":{"android":"levelo://app?vid=e581dae5-b6c3-42a2-a5f9-a10a564ff64d","ios":"levelo://app?vid=e581dae5-b6c3-42a2-a5f9-a10a564ff64d"},"vehicle_type_id":"4","last_reported":1736528879,"current_range_meters":14000,"station_id":"ce4bgk12rcd13ifvqbi0","pricing_plan_id":"cebpf4jnsgd1na2vs0mg"},{"bike_id":"7383fe03-1a21-4fff-a07f-ccbd7a32a88a","system_id":"levelo_inurba_marseille","lat":43.27976,"lon":5.38738,"is_reserved":false,"is_disabled":false,"rental_uris":{"android":"levelo://app?vid=7383fe03-1a21-4fff-a07f-ccbd7a32a88a","ios":"levelo://app?vid=7383fe03-1a21-4fff-a07f-ccbd7a32a88a"},"vehicle_type_id":"4","last_reported":1736528879,"current_range_meters":26800,"station_id":"ce4bhg12rcd13ifvqf80","pricing_plan_id":"cebpf4jnsgd1na2vs0mg"},{"bike_id":"426ee80e-06b0-4d0f-86a5-ea8ad64aaa11","system_id":"levelo_inurba_marseille","lat":43.28916,"lon":5.43771,"is_reserved":false,"is_disabled":false,"rental_uris":{"android":"levelo://app?vid=426ee80e-06b0-4d0f-86a5-ea8ad64aaa11","ios":"levelo://app?vid=426ee80e-06b0-4d0f-86a5-ea8ad64aaa11"},"vehicle_type_id":"4","last_reported":1736528879,"current_range_meters":20400,"station_id":"","pricing_plan_id":"cebpf4jnsgd1na2vs0mg"},{"bike_id":"d6004273-3da2-4617-8f25-db6852fc4e61","system_id":"levelo_inurba_marseille","lat":43.28679,"lon":5.3738,"is_reserved":false,"is_disabled":true,"rental_uris":{"android":"levelo://app?vid=d6004273-3da2-4617-8f25-db6852fc4e61","ios":"levelo://app?vid=d6004273-3da2-4617-8f25-db6852fc4e61"},"vehicle_type_id":"4","last_reported":1736528879,"current_range_meters":2000,"station_id":"ce4bh3p2rcd13ifvqdq0","pricing_plan_id":"cebpf4jnsgd1na2vs0mg"},{"bike_id":"5ca61d7c-4cce-4318-abf1-81f79230ef6c","system_id":"levelo_inurba_marseille","lat":43.31003,"lon":5.37531,"is_reserved":false,"is_disabled":false,"rental_uris":{"android":"levelo://app?vid=5ca61d7c-4cce-4318-abf1-81f79230ef6c","ios":"levelo://app?vid=5ca61d7c-4cce-4318-abf1-81f79230ef6c"},"vehicle_type_id":"4","last_reported":1736528879,"current_range_meters":26000,"station_id":"","pricing_plan_id":"cebpf4jnsgd1na2vs0mg"},{"bike_id":"314d0b94-da02-4586-aafe-32947b2151c1","system_id":"levelo_inurba_marseille","lat":43.25814,"lon":5.39419,"is_reserved":false,"is_disabled":false,"rental_uris":{"android":"levelo://app?vid=314d0b94-da02-4586-aafe-32947b2151c1","ios":"levelo://app?vid=314d0b94-da02-4586-aafe-32947b2151c1"},"vehicle_type_id":"4","last_reported":1736528879,"current_range_meters":8000,"station_id":"ce4bhip2rcd13ifvqft0","pricing_plan_id":"cebpf4jnsgd1na2vs0mg"},{"bike_id":"76f90d36-8e2f-4343-9ca4-240c099eb464","system_id":"levelo_inurba_marseille","lat":43.32366,"lon":5.38879,"is_reserved":false,"is_disabled":false,"rental_uris":{"android":"levelo://app?vid=76f90d36-8e2f-4343-9ca4-240c099eb464","ios":"levelo://app?vid=76f90d36-8e2f-4343-9ca4-240c099eb464"},"vehicle_type_id":"4","last_reported":1736528879,"current_range_meters":22800,"station_id":"ce4bhqp2rcd13ifvqhog","pricing_plan_id":"cebpf4jnsgd1na2vs0mg"},{"bike_id":"819e9877-d561-4552-865a-627808046d3d","system_id":"levelo_inurba_marseille","lat":43.29976,"lon":5.38488,"is_reserved":false,"is_disabled":true,"rental_uris":{"android":"levelo://app?vid=819e9877-d561-4552-865a-627808046d3d","ios":"levelo://app?vid=819e9877-d561-4552-865a-627808046d3d"},"vehicle_type_id":"4","last_reported":1736528879,"current_range_meters":27600,"station_id":"ce4bgj92rcd13ifvqbd0","pricing_plan_id":"cebpf4jnsgd1na2vs0mg"},{"bike_id":"64e22768-79ef-4593-847f-a621c4893945","system_id":"levelo_inurba_marseille","lat":43.31525,"lon":5.38041,"is_reserved":false,"is_disabled":false,"rental_uris":{"android":"levelo://app?vid=64e22768-79ef-4593-847f-a621c4893945","ios":"levelo://app?vid=64e22768-79ef-4593-847f-a621c4893945"},"vehicle_type_id":"4","last_reported":1736528879,"current_range_meters":38800,"station_id":"ce4bhsp2rcd13ifvqi50","pricing_plan_id":"cebpf4jnsgd1na2vs0mg"},{"bike_id":"f6f01d19-4721-43cb-97f3-af3a9a43751b","system_id":"levelo_inurba_marseille","lat":43.2418,"lon":5.39728,"is_reserved":false,"is_disabled":true,"rental_uris":{"android":"levelo://app?vid=f6f01d19-4721-43cb-97f3-af3a9a43751b","ios":"levelo://app?vid=f6f01d19-4721-43cb-97f3-af3a9a43751b"},"vehicle_type_id":"4","last_reported":1736528879,"current_range_meters":38800,"station_id":"ce4bhn12rcd13ifvqgpg","pricing_plan_id":"cebpf4jnsgd1na2vs0mg"},{"bike_id":"62dd21a1-19b6-409e-8eba-80c35218abba","system_id":"levelo_inurba_marseille","lat":43.31331,"lon":5.38558,"is_reserved":false,"is_disabled":false,"rental_uris":{"android":"levelo://app?vid=62dd21a1-19b6-409e-8eba-80c35218abba","ios":"levelo://app?vid=62dd21a1-19b6-409e-8eba-80c35218abba"},"vehicle_type_id":"4","last_reported":1736528879,"current_range_meters":38000,"station_id":"","pricing_plan_id":"cebpf4jnsgd1na2vs0mg"},{"bike_id":"30e6b310-ab6e-4c7c-8bb2-25e269fca799","system_id":"levelo_inurba_marseille","lat":43.24673,"lon":5.38138,"is_reserved":false,"is_disabled":false,"rental_uris":{"android":"levelo://app?vid=30e6b310-ab6e-4c7c-8bb2-25e269fca799","ios":"levelo://app?vid=30e6b310-ab6e-4c7c-8bb2-25e269fca799"},"vehicle_type_id":"4","last_reported":1736528879,"current_range_meters":27200,"station_id":"ce4bhih2rcd13ifvqfr0","pricing_plan_id":"cebpf4jnsgd1na2vs0mg"},{"bike_id":"afe1dfde-0d60-4886-b6a1-cd2ad9b42bf7","system_id":"levelo_inurba_marseille","lat":43.32187,"lon":5.37845,"is_reserved":false,"is_disabled":false,"rental_uris":{"android":"levelo://app?vid=afe1dfde-0d60-4886-b6a1-cd2ad9b42bf7","ios":"levelo://app?vid=afe1dfde-0d60-4886-b6a1-cd2ad9b42bf7"},"vehicle_type_id":"4","last_reported":1736528879,"current_range_meters":28800,"station_id":"","pricing_plan_id":"cebpf4jnsgd1na2vs0mg"},{"bike_id":"2acd9ed5-63bb-408c-a254-c6692f4bcf40","system_id":"levelo_inurba_marseille","lat":43.25591,"lon":5.38227,"is_reserved":false,"is_disabled":false,"rental_uris":{"android":"levelo://app?vid=2acd9ed5-63bb-408c-a254-c6692f4bcf40","ios":"levelo://app?vid=2acd9ed5-63bb-408c-a254-c6692f4bcf40"},"vehicle_type_id":"4","last_reported":1736528879,"current_range_meters":11200,"station_id":"ce4bhih2rcd13ifvqfs0","pricing_plan_id":"cebpf4jnsgd1na2vs0mg"},{"bike_id":"80609ff8-7d7d-4ae2-9159-aea837c7c52b","system_id":"levelo_inurba_marseille","lat":43.2396,"lon":5.36645,"is_reserved":false,"is_disabled":false,"rental_uris":{"android":"levelo://app?vid=80609ff8-7d7d-4ae2-9159-aea837c7c52b","ios":"levelo://app?vid=80609ff8-7d7d-4ae2-9159-aea837c7c52b"},"vehicle_type_id":"4","last_reported":1736528879,"current_range_meters":15200,"station_id":"ce4bhi12rcd13ifvqfp0","pricing_plan_id":"cebpf4jnsgd1na2vs0mg"},{"bike_id":"3531ee94-8deb-4954-88b3-7399fb9277d2","system_id":"levelo_inurba_marseille","lat":43.24644,"lon":5.3889,"is_reserved":false,"is_disabled":false,"rental_uris":{"android":"levelo://app?vid=3531ee94-8deb-4954-88b3-7399fb9277d2","ios":"levelo://app?vid=3531ee94-8deb-4954-88b3-7399fb9277d2"},"vehicle_type_id":"4","last_reported":1736528879,"current_range_meters":28000,"station_id":"ce4bhg12rcd13ifvqf60","pricing_plan_id":"cebpf4jnsgd1na2vs0mg"},{"bike_id":"f60782f4-8667-4260-932a-2f8255b4100f","system_id":"levelo_inurba_marseille","lat":43.32109,"lon":5.36765,"is_reserved":false,"is_disabled":false,"rental_uris":{"android":"levelo://app?vid=f60782f4-8667-4260-932a-2f8255b4100f","ios":"levelo://app?vid=f60782f4-8667-4260-932a-2f8255b4100f"},"vehicle_type_id":"4","last_reported":1736528879,"current_range_meters":20000,"station_id":"ce4bhrh2rcd13ifvqhug","pricing_plan_id":"cebpf4jnsgd1na2vs0mg"},{"bike_id":"5edb9b21-4917-4f45-9961-6635931db922","system_id":"levelo_inurba_marseille","lat":43.22929,"lon":5.35379,"is_reserved":false,"is_disabled":false,"rental_uris":{"android":"levelo://app?vid=5edb9b21-4917-4f45-9961-6635931db922","ios":"levelo://app?vid=5edb9b21-4917-4f45-9961-6635931db922"},"vehicle_type_id":"4","last_reported":1736528879,"current_range_meters":39200,"station_id":"cpo3532slgdg3j2ikp40","pricing_plan_id":"cebpf4jnsgd1na2vs0mg"},{"bike_id":"6c16b955-c13c-49a6-a5bb-29559922d02c","system_id":"levelo_inurba_marseille","lat":43.239573,"lon":5.36635,"is_reserved":false,"is_disabled":false,"rental_uris":{"android":"levelo://app?vid=6c16b955-c13c-49a6-a5bb-29559922d02c","ios":"levelo://app?vid=6c16b955-c13c-49a6-a5bb-29559922d02c"},"vehicle_type_id":"4","last_reported":1736528879,"current_range_meters":24800,"station_id":"ce4bhi12rcd13ifvqfp0","pricing_plan_id":"cebpf4jnsgd1na2vs0mg"},{"bike_id":"acc57c46-0c06-4767-b429-edb19e5dc1a2","system_id":"levelo_inurba_marseille","lat":43.30127,"lon":5.3988,"is_reserved":false,"is_disabled":false,"rental_uris":{"android":"levelo://app?vid=acc57c46-0c06-4767-b429-edb19e5dc1a2","ios":"levelo://app?vid=acc57c46-0c06-4767-b429-edb19e5dc1a2"},"vehicle_type_id":"4","last_reported":1736528879,"current_range_meters":30400,"station_id":"ce4bh0h2rcd13ifvqd40","pricing_plan_id":"cebpf4jnsgd1na2vs0mg"},{"bike_id":"0aa71507-4891-4e48-a1cb-9580c9181892","system_id":"levelo_inurba_marseille","lat":43.31333,"lon":5.39696,"is_reserved":false,"is_disabled":false,"rental_uris":{"android":"levelo://app?vid=0aa71507-4891-4e48-a1cb-9580c9181892","ios":"levelo://app?vid=0aa71507-4891-4e48-a1cb-9580c9181892"},"vehicle_type_id":"4","last_reported":1736528879,"current_range_meters":10800,"station_id":"ce4bgvp2rcd13ifvqcu0","pricing_plan_id":"cebpf4jnsgd1na2vs0mg"},{"bike_id":"2b9f9611-d71b-4f9a-b814-a64ed7dfc055","system_id":"levelo_inurba_marseille","lat":43.25121,"lon":5.40319,"is_reserved":false,"is_disabled":true,"rental_uris":{"android":"levelo://app?vid=2b9f9611-d71b-4f9a-b814-a64ed7dfc055","ios":"levelo://app?vid=2b9f9611-d71b-4f9a-b814-a64ed7dfc055"},"vehicle_type_id":"4","last_reported":1736528879,"current_range_meters":0,"station_id":"ce4bhlh2rcd13ifvqgig","pricing_plan_id":"cebpf4jnsgd1na2vs0mg"},{"bike_id":"4cbf2f69-4796-401f-aea5-81030062be5d","system_id":"levelo_inurba_marseille","lat":43.27808,"lon":5.40725,"is_reserved":false,"is_disabled":false,"rental_uris":{"android":"levelo://app?vid=4cbf2f69-4796-401f-aea5-81030062be5d","ios":"levelo://app?vid=4cbf2f69-4796-401f-aea5-81030062be5d"},"vehicle_type_id":"4","last_reported":1736528879,"current_range_meters":3200,"station_id":"ce4bhnh2rcd13ifvqgtg","pricing_plan_id":"cebpf4jnsgd1na2vs0mg"},{"bike_id":"066fc890-cce1-4b7e-a941-320c51e991c9","system_id":"levelo_inurba_marseille","lat":43.23957,"lon":5.36634,"is_reserved":false,"is_disabled":false,"rental_uris":{"android":"levelo://app?vid=066fc890-cce1-4b7e-a941-320c51e991c9","ios":"levelo://app?vid=066fc890-cce1-4b7e-a941-320c51e991c9"},"vehicle_type_id":"4","last_reported":1736528879,"current_range_meters":25200,"station_id":"ce4bhi12rcd13ifvqfp0","pricing_plan_id":"cebpf4jnsgd1na2vs0mg"},{"bike_id":"f2888929-f15e-43bd-be54-5d0bd47768da","system_id":"levelo_inurba_marseille","lat":43.30545,"lon":5.3655,"is_reserved":false,"is_disabled":false,"rental_uris":{"android":"levelo://app?vid=f2888929-f15e-43bd-be54-5d0bd47768da","ios":"levelo://app?vid=f2888929-f15e-43bd-be54-5d0bd47768da"},"vehicle_type_id":"4","last_reported":1736528879,"current_range_meters":36000,"station_id":"ce4bgs12rcd13ifvqcag","pricing_plan_id":"cebpf4jnsgd1na2vs0mg"},{"bike_id":"ea3a94db-ec18-4446-9d80-d220f0e661e9","system_id":"levelo_inurba_marseille","lat":43.28434,"lon":5.35003,"is_reserved":false,"is_disabled":false,"rental_uris":{"android":"levelo://app?vid=ea3a94db-ec18-4446-9d80-d220f0e661e9","ios":"levelo://app?vid=ea3a94db-ec18-4446-9d80-d220f0e661e9"},"vehicle_type_id":"4","last_reported":1736528879,"current_range_meters":25600,"station_id":"ce4bhbh2rcd13ifvqepg","pricing_plan_id":"cebpf4jnsgd1na2vs0mg"},{"bike_id":"b1cd05bd-cc6d-452b-8b8c-f24ee7fb627f","system_id":"levelo_inurba_marseille","lat":43.25817,"lon":5.39437,"is_reserved":false,"is_disabled":false,"rental_uris":{"android":"levelo://app?vid=b1cd05bd-cc6d-452b-8b8c-f24ee7fb627f","ios":"levelo://app?vid=b1cd05bd-cc6d-452b-8b8c-f24ee7fb627f"},"vehicle_type_id":"4","last_reported":1736528879,"current_range_meters":36400,"station_id":"ce4bhip2rcd13ifvqft0","pricing_plan_id":"cebpf4jnsgd1na2vs0mg"},{"bike_id":"9345a793-6819-47fb-8846-937cdd7041f6","system_id":"levelo_inurba_marseille","lat":43.29224,"lon":5.36056,"is_reserved":false,"is_disabled":false,"rental_uris":{"android":"levelo://app?vid=9345a793-6819-47fb-8846-937cdd7041f6","ios":"levelo://app?vid=9345a793-6819-47fb-8846-937cdd7041f6"},"vehicle_type_id":"4","last_reported":1736528879,"current_range_meters":30800,"station_id":"ce4bhbh2rcd13ifvqeqg","pricing_plan_id":"cebpf4jnsgd1na2vs0mg"},{"bike_id":"b6d6888e-7f2e-477f-a1e4-72d94af363b1","system_id":"levelo_inurba_marseille","lat":43.30933,"lon":5.40138,"is_reserved":false,"is_disabled":false,"rental_uris":{"android":"levelo://app?vid=b6d6888e-7f2e-477f-a1e4-72d94af363b1","ios":"levelo://app?vid=b6d6888e-7f2e-477f-a1e4-72d94af363b1"},"vehicle_type_id":"4","last_reported":1736528879,"current_range_meters":17600,"station_id":"ce4bgvp2rcd13ifvqct0","pricing_plan_id":"cebpf4jnsgd1na2vs0mg"},{"bike_id":"5cc98ad2-6f34-4e99-a1cb-e0f73ff602cd","system_id":"levelo_inurba_marseille","lat":43.28001,"lon":5.40002,"is_reserved":false,"is_disabled":false,"rental_uris":{"android":"levelo://app?vid=5cc98ad2-6f34-4e99-a1cb-e0f73ff602cd","ios":"levelo://app?vid=5cc98ad2-6f34-4e99-a1cb-e0f73ff602cd"},"vehicle_type_id":"4","last_reported":1736528879,"current_range_meters":25200,"station_id":"ce4bho92rcd13ifvqh4g","pricing_plan_id":"cebpf4jnsgd1na2vs0mg"},{"bike_id":"14260f59-5e6c-465e-be91-94b0442db1da","system_id":"levelo_inurba_marseille","lat":43.27835,"lon":5.39209,"is_reserved":false,"is_disabled":false,"rental_uris":{"android":"levelo://app?vid=14260f59-5e6c-465e-be91-94b0442db1da","ios":"levelo://app?vid=14260f59-5e6c-465e-be91-94b0442db1da"},"vehicle_type_id":"4","last_reported":1736528879,"current_range_meters":37600,"station_id":"ce4bhjp2rcd13ifvqga0","pricing_plan_id":"cebpf4jnsgd1na2vs0mg"},{"bike_id":"fb80e299-fb59-460b-98a4-021652a215f3","system_id":"levelo_inurba_marseille","lat":43.28441,"lon":5.39195,"is_reserved":false,"is_disabled":false,"rental_uris":{"android":"levelo://app?vid=fb80e299-fb59-460b-98a4-021652a215f3","ios":"levelo://app?vid=fb80e299-fb59-460b-98a4-021652a215f3"},"vehicle_type_id":"4","last_reported":1736528879,"current_range_meters":25600,"station_id":"ce4bhoh2rcd13ifvqh5g","pricing_plan_id":"cebpf4jnsgd1na2vs0mg"},{"bike_id":"177de369-3397-42af-a917-385db222f5c9","system_id":"levelo_inurba_marseille","lat":43.28564,"lon":5.39504,"is_reserved":false,"is_disabled":false,"rental_uris":{"android":"levelo://app?vid=177de369-3397-42af-a917-385db222f5c9","ios":"levelo://app?vid=177de369-3397-42af-a917-385db222f5c9"},"vehicle_type_id":"4","last_reported":1736528879,"current_range_meters":39200,"station_id":"ce4bh292rcd13ifvqdg0","pricing_plan_id":"cebpf4jnsgd1na2vs0mg"},{"bike_id":"bc72b692-fa80-4572-afe8-0e7949eae868","system_id":"levelo_inurba_marseille","lat":43.33739,"lon":5.37436,"is_reserved":false,"is_disabled":false,"rental_uris":{"android":"levelo://app?vid=bc72b692-fa80-4572-afe8-0e7949eae868","ios":"levelo://app?vid=bc72b692-fa80-4572-afe8-0e7949eae868"},"vehicle_type_id":"4","last_reported":1736528879,"current_range_meters":26800,"station_id":"","pricing_plan_id":"cebpf4jnsgd1na2vs0mg"},{"bike_id":"fd32224a-462e-48a3-aa9f-ea00040fb1e7","system_id":"levelo_inurba_marseille","lat":43.28683,"lon":5.38643,"is_reserved":false,"is_disabled":false,"rental_uris":{"android":"levelo://app?vid=fd32224a-462e-48a3-aa9f-ea00040fb1e7","ios":"levelo://app?vid=fd32224a-462e-48a3-aa9f-ea00040fb1e7"},"vehicle_type_id":"4","last_reported":1736528879,"current_range_meters":35600,"station_id":"ce4bh492rcd13ifvqdug","pricing_plan_id":"cebpf4jnsgd1na2vs0mg"},{"bike_id":"403b6456-c595-432f-9fb5-fe207e40ff7b","system_id":"levelo_inurba_marseille","lat":43.27181,"lon":5.40992,"is_reserved":false,"is_disabled":false,"rental_uris":{"android":"levelo://app?vid=403b6456-c595-432f-9fb5-fe207e40ff7b","ios":"levelo://app?vid=403b6456-c595-432f-9fb5-fe207e40ff7b"},"vehicle_type_id":"4","last_reported":1736528879,"current_range_meters":17200,"station_id":"ce4bhl12rcd13ifvqgf0","pricing_plan_id":"cebpf4jnsgd1na2vs0mg"},{"bike_id":"9ed1c0a7-5035-4dde-954f-378a0451f32a","system_id":"levelo_inurba_marseille","lat":43.23987,"lon":5.36607,"is_reserved":false,"is_disabled":false,"rental_uris":{"android":"levelo://app?vid=9ed1c0a7-5035-4dde-954f-378a0451f32a","ios":"levelo://app?vid=9ed1c0a7-5035-4dde-954f-378a0451f32a"},"vehicle_type_id":"4","last_reported":1736528879,"current_range_meters":38800,"station_id":"ce4bhi12rcd13ifvqfp0","pricing_plan_id":"cebpf4jnsgd1na2vs0mg"},{"bike_id":"f0e4deed-94ea-4281-b6e0-5908e42da7a6","system_id":"levelo_inurba_marseille","lat":43.30803,"lon":5.38146,"is_reserved":false,"is_disabled":false,"rental_uris":{"android":"levelo://app?vid=f0e4deed-94ea-4281-b6e0-5908e42da7a6","ios":"levelo://app?vid=f0e4deed-94ea-4281-b6e0-5908e42da7a6"},"vehicle_type_id":"4","last_reported":1736528879,"current_range_meters":22400,"station_id":"ce4bgt12rcd13ifvqce0","pricing_plan_id":"cebpf4jnsgd1na2vs0mg"},{"bike_id":"597c532c-555b-4a8a-8a0b-0cde1fec5b19","system_id":"levelo_inurba_marseille","lat":43.30645,"lon":5.40067,"is_reserved":false,"is_disabled":false,"rental_uris":{"android":"levelo://app?vid=597c532c-555b-4a8a-8a0b-0cde1fec5b19","ios":"levelo://app?vid=597c532c-555b-4a8a-8a0b-0cde1fec5b19"},"vehicle_type_id":"4","last_reported":1736528879,"current_range_meters":9600,"station_id":"ce4bh112rcd13ifvqda0","pricing_plan_id":"cebpf4jnsgd1na2vs0mg"},{"bike_id":"6545f8f3-3396-42a5-81ea-99aa7f31f542","system_id":"levelo_inurba_marseille","lat":43.29773,"lon":5.37111,"is_reserved":false,"is_disabled":false,"rental_uris":{"android":"levelo://app?vid=6545f8f3-3396-42a5-81ea-99aa7f31f542","ios":"levelo://app?vid=6545f8f3-3396-42a5-81ea-99aa7f31f542"},"vehicle_type_id":"4","last_reported":1736528879,"current_range_meters":14000,"station_id":"ce4bgop2rcd13ifvqc1g","pricing_plan_id":"cebpf4jnsgd1na2vs0mg"},{"bike_id":"e28483d1-4b50-47d3-8f68-bbbc48a67024","system_id":"levelo_inurba_marseille","lat":43.2906,"lon":5.37145,"is_reserved":false,"is_disabled":true,"rental_uris":{"android":"levelo://app?vid=e28483d1-4b50-47d3-8f68-bbbc48a67024","ios":"levelo://app?vid=e28483d1-4b50-47d3-8f68-bbbc48a67024"},"vehicle_type_id":"4","last_reported":1736528879,"current_range_meters":30800,"station_id":"ce4bh5p2rcd13ifvqe4g","pricing_plan_id":"cebpf4jnsgd1na2vs0mg"},{"bike_id":"af1d8654-7f66-4539-8667-313d56746f24","system_id":"levelo_inurba_marseille","lat":43.25072,"lon":5.39535,"is_reserved":false,"is_disabled":false,"rental_uris":{"android":"levelo://app?vid=af1d8654-7f66-4539-8667-313d56746f24","ios":"levelo://app?vid=af1d8654-7f66-4539-8667-313d56746f24"},"vehicle_type_id":"4","last_reported":1736528879,"current_range_meters":38800,"station_id":"ce4bhm12rcd13ifvqgkg","pricing_plan_id":"cebpf4jnsgd1na2vs0mg"},{"bike_id":"60271d0f-3a77-4626-8905-d712a41f6304","system_id":"levelo_inurba_marseille","lat":43.284586,"lon":5.35898,"is_reserved":false,"is_disabled":false,"rental_uris":{"android":"levelo://app?vid=60271d0f-3a77-4626-8905-d712a41f6304","ios":"levelo://app?vid=60271d0f-3a77-4626-8905-d712a41f6304"},"vehicle_type_id":"4","last_reported":1736528879,"current_range_meters":38000,"station_id":"ce4bhah2rcd13ifvqei0","pricing_plan_id":"cebpf4jnsgd1na2vs0mg"},{"bike_id":"ea85eaf0-fde0-43c4-b882-10e3bd598be8","system_id":"levelo_inurba_marseille","lat":43.25109,"lon":5.40328,"is_reserved":false,"is_disabled":true,"rental_uris":{"android":"levelo://app?vid=ea85eaf0-fde0-43c4-b882-10e3bd598be8","ios":"levelo://app?vid=ea85eaf0-fde0-43c4-b882-10e3bd598be8"},"vehicle_type_id":"4","last_reported":1736528879,"current_range_meters":8400,"station_id":"ce4bhlh2rcd13ifvqgig","pricing_plan_id":"cebpf4jnsgd1na2vs0mg"},{"bike_id":"ce3911f4-d940-41e3-a1b8-935c8c7794b9","system_id":"levelo_inurba_marseille","lat":43.29581,"lon":5.374965,"is_reserved":false,"is_disabled":true,"rental_uris":{"android":"levelo://app?vid=ce3911f4-d940-41e3-a1b8-935c8c7794b9","ios":"levelo://app?vid=ce3911f4-d940-41e3-a1b8-935c8c7794b9"},"vehicle_type_id":"4","last_reported":1736528879,"current_range_meters":0,"station_id":"ce4bgh92rcd13ifvqb50","pricing_plan_id":"cebpf4jnsgd1na2vs0mg"},{"bike_id":"7a0a8a69-615c-43f3-a001-073b74f4a57b","system_id":"levelo_inurba_marseille","lat":43.25565,"lon":5.38243,"is_reserved":false,"is_disabled":false,"rental_uris":{"android":"levelo://app?vid=7a0a8a69-615c-43f3-a001-073b74f4a57b","ios":"levelo://app?vid=7a0a8a69-615c-43f3-a001-073b74f4a57b"},"vehicle_type_id":"4","last_reported":1736528879,"current_range_meters":26000,"station_id":"ce4bhih2rcd13ifvqfs0","pricing_plan_id":"cebpf4jnsgd1na2vs0mg"},{"bike_id":"741a6077-95d1-45a2-bc95-7bbebd1218ff","system_id":"levelo_inurba_marseille","lat":43.28663,"lon":5.36356,"is_reserved":false,"is_disabled":false,"rental_uris":{"android":"levelo://app?vid=741a6077-95d1-45a2-bc95-7bbebd1218ff","ios":"levelo://app?vid=741a6077-95d1-45a2-bc95-7bbebd1218ff"},"vehicle_type_id":"4","last_reported":1736528879,"current_range_meters":35600,"station_id":"ce4bhah2rcd13ifvqej0","pricing_plan_id":"cebpf4jnsgd1na2vs0mg"},{"bike_id":"04b99ebe-7927-40e6-9554-a7aa6d8ff5da","system_id":"levelo_inurba_marseille","lat":43.33057,"lon":5.38996,"is_reserved":false,"is_disabled":false,"rental_uris":{"android":"levelo://app?vid=04b99ebe-7927-40e6-9554-a7aa6d8ff5da","ios":"levelo://app?vid=04b99ebe-7927-40e6-9554-a7aa6d8ff5da"},"vehicle_type_id":"4","last_reported":1736528879,"current_range_meters":38800,"station_id":"ce4bhr92rcd13ifvqhrg","pricing_plan_id":"cebpf4jnsgd1na2vs0mg"},{"bike_id":"ca3432ce-ad89-49a9-9719-22ff6eb6c609","system_id":"levelo_inurba_marseille","lat":43.28447,"lon":5.39205,"is_reserved":false,"is_disabled":false,"rental_uris":{"android":"levelo://app?vid=ca3432ce-ad89-49a9-9719-22ff6eb6c609","ios":"levelo://app?vid=ca3432ce-ad89-49a9-9719-22ff6eb6c609"},"vehicle_type_id":"4","last_reported":1736528879,"current_range_meters":24800,"station_id":"ce4bhoh2rcd13ifvqh5g","pricing_plan_id":"cebpf4jnsgd1na2vs0mg"},{"bike_id":"09a66bfe-2710-4c15-bafe-b69e36210fc5","system_id":"levelo_inurba_marseille","lat":43.29532,"lon":5.38539,"is_reserved":false,"is_disabled":true,"rental_uris":{"android":"levelo://app?vid=09a66bfe-2710-4c15-bafe-b69e36210fc5","ios":"levelo://app?vid=09a66bfe-2710-4c15-bafe-b69e36210fc5"},"vehicle_type_id":"4","last_reported":1736528879,"current_range_meters":0,"station_id":"ce4bgih2rcd13ifvqba0","pricing_plan_id":"cebpf4jnsgd1na2vs0mg"},{"bike_id":"e4730f12-66d5-446a-bdf5-18521f6ccf8f","system_id":"levelo_inurba_marseille","lat":43.30931,"lon":5.40139,"is_reserved":false,"is_disabled":false,"rental_uris":{"android":"levelo://app?vid=e4730f12-66d5-446a-bdf5-18521f6ccf8f","ios":"levelo://app?vid=e4730f12-66d5-446a-bdf5-18521f6ccf8f"},"vehicle_type_id":"4","last_reported":1736528879,"current_range_meters":38400,"station_id":"ce4bgvp2rcd13ifvqct0","pricing_plan_id":"cebpf4jnsgd1na2vs0mg"},{"bike_id":"55eb9098-c97c-4132-8244-dc99e4df2c54","system_id":"levelo_inurba_marseille","lat":43.29527,"lon":5.37498,"is_reserved":false,"is_disabled":false,"rental_uris":{"android":"levelo://app?vid=55eb9098-c97c-4132-8244-dc99e4df2c54","ios":"levelo://app?vid=55eb9098-c97c-4132-8244-dc99e4df2c54"},"vehicle_type_id":"4","last_reported":1736528879,"current_range_meters":17200,"station_id":"ce4bgkp2rcd13ifvqbmg","pricing_plan_id":"cebpf4jnsgd1na2vs0mg"},{"bike_id":"9d5e6a87-d396-46b3-9339-79ab1fb6cc47","system_id":"levelo_inurba_marseille","lat":43.30797,"lon":5.43539,"is_reserved":false,"is_disabled":false,"rental_uris":{"android":"levelo://app?vid=9d5e6a87-d396-46b3-9339-79ab1fb6cc47","ios":"levelo://app?vid=9d5e6a87-d396-46b3-9339-79ab1fb6cc47"},"vehicle_type_id":"4","last_reported":1736528879,"current_range_meters":28400,"station_id":"ce4bhph2rcd13ifvqheg","pricing_plan_id":"cebpf4jnsgd1na2vs0mg"},{"bike_id":"6b578fab-7509-4661-ad2b-e9a4cc5cc27e","system_id":"levelo_inurba_marseille","lat":43.25118,"lon":5.40335,"is_reserved":false,"is_disabled":false,"rental_uris":{"android":"levelo://app?vid=6b578fab-7509-4661-ad2b-e9a4cc5cc27e","ios":"levelo://app?vid=6b578fab-7509-4661-ad2b-e9a4cc5cc27e"},"vehicle_type_id":"4","last_reported":1736528879,"current_range_meters":22000,"station_id":"ce4bhlh2rcd13ifvqgig","pricing_plan_id":"cebpf4jnsgd1na2vs0mg"},{"bike_id":"d478618f-d0e8-4267-991e-115bd5d374bd","system_id":"levelo_inurba_marseille","lat":43.2695,"lon":5.38641,"is_reserved":false,"is_disabled":false,"rental_uris":{"android":"levelo://app?vid=d478618f-d0e8-4267-991e-115bd5d374bd","ios":"levelo://app?vid=d478618f-d0e8-4267-991e-115bd5d374bd"},"vehicle_type_id":"4","last_reported":1736528879,"current_range_meters":3200,"station_id":"ce4bhh92rcd13ifvqfh0","pricing_plan_id":"cebpf4jnsgd1na2vs0mg"},{"bike_id":"fae25706-b625-400e-b8c0-b50197067313","system_id":"levelo_inurba_marseille","lat":43.23197,"lon":5.39988,"is_reserved":false,"is_disabled":false,"rental_uris":{"android":"levelo://app?vid=fae25706-b625-400e-b8c0-b50197067313","ios":"levelo://app?vid=fae25706-b625-400e-b8c0-b50197067313"},"vehicle_type_id":"4","last_reported":1736528879,"current_range_meters":18800,"station_id":"ce4bhn12rcd13ifvqgqg","pricing_plan_id":"cebpf4jnsgd1na2vs0mg"},{"bike_id":"11f6b9b9-6690-43ce-8f3b-6593a03ea04b","system_id":"levelo_inurba_marseille","lat":43.2834,"lon":5.38116,"is_reserved":false,"is_disabled":false,"rental_uris":{"android":"levelo://app?vid=11f6b9b9-6690-43ce-8f3b-6593a03ea04b","ios":"levelo://app?vid=11f6b9b9-6690-43ce-8f3b-6593a03ea04b"},"vehicle_type_id":"4","last_reported":1736528879,"current_range_meters":30800,"station_id":"ce4bh412rcd13ifvqdr0","pricing_plan_id":"cebpf4jnsgd1na2vs0mg"},{"bike_id":"5fa2e3a5-e832-42e6-a5a6-81071c6ff0f0","system_id":"levelo_inurba_marseille","lat":43.28452,"lon":5.35888,"is_reserved":false,"is_disabled":false,"rental_uris":{"android":"levelo://app?vid=5fa2e3a5-e832-42e6-a5a6-81071c6ff0f0","ios":"levelo://app?vid=5fa2e3a5-e832-42e6-a5a6-81071c6ff0f0"},"vehicle_type_id":"4","last_reported":1736528879,"current_range_meters":33600,"station_id":"ce4bhah2rcd13ifvqei0","pricing_plan_id":"cebpf4jnsgd1na2vs0mg"},{"bike_id":"bb09aba3-e725-4db5-9d0b-860b910730c7","system_id":"levelo_inurba_marseille","lat":43.31329,"lon":5.3971,"is_reserved":false,"is_disabled":true,"rental_uris":{"android":"levelo://app?vid=bb09aba3-e725-4db5-9d0b-860b910730c7","ios":"levelo://app?vid=bb09aba3-e725-4db5-9d0b-860b910730c7"},"vehicle_type_id":"4","last_reported":1736528879,"current_range_meters":5600,"station_id":"ce4bgvp2rcd13ifvqcu0","pricing_plan_id":"cebpf4jnsgd1na2vs0mg"},{"bike_id":"1ff4d6af-d168-4206-80a1-8f85ab0c0a00","system_id":"levelo_inurba_marseille","lat":43.25865,"lon":5.39894,"is_reserved":false,"is_disabled":true,"rental_uris":{"android":"levelo://app?vid=1ff4d6af-d168-4206-80a1-8f85ab0c0a00","ios":"levelo://app?vid=1ff4d6af-d168-4206-80a1-8f85ab0c0a00"},"vehicle_type_id":"4","last_reported":1736528879,"current_range_meters":20400,"station_id":"ce4bhl92rcd13ifvqghg","pricing_plan_id":"cebpf4jnsgd1na2vs0mg"},{"bike_id":"2e93c354-325a-4054-a386-854b121ab358","system_id":"levelo_inurba_marseille","lat":43.26803,"lon":5.40254,"is_reserved":false,"is_disabled":false,"rental_uris":{"android":"levelo://app?vid=2e93c354-325a-4054-a386-854b121ab358","ios":"levelo://app?vid=2e93c354-325a-4054-a386-854b121ab358"},"vehicle_type_id":"4","last_reported":1736528879,"current_range_meters":31200,"station_id":"ce501612rcd8frsf0b60","pricing_plan_id":"cebpf4jnsgd1na2vs0mg"},{"bike_id":"8bec6a21-65c7-4332-932d-c24ff8b2a5e8","system_id":"levelo_inurba_marseille","lat":43.28003,"lon":5.40008,"is_reserved":false,"is_disabled":false,"rental_uris":{"android":"levelo://app?vid=8bec6a21-65c7-4332-932d-c24ff8b2a5e8","ios":"levelo://app?vid=8bec6a21-65c7-4332-932d-c24ff8b2a5e8"},"vehicle_type_id":"4","last_reported":1736528879,"current_range_meters":25200,"station_id":"ce4bho92rcd13ifvqh4g","pricing_plan_id":"cebpf4jnsgd1na2vs0mg"},{"bike_id":"1d174f3c-56fd-4bd2-841f-15687ff97534","system_id":"levelo_inurba_marseille","lat":43.30128,"lon":5.39853,"is_reserved":false,"is_disabled":true,"rental_uris":{"android":"levelo://app?vid=1d174f3c-56fd-4bd2-841f-15687ff97534","ios":"levelo://app?vid=1d174f3c-56fd-4bd2-841f-15687ff97534"},"vehicle_type_id":"4","last_reported":1736528879,"current_range_meters":400,"station_id":"ce4bh0h2rcd13ifvqd40","pricing_plan_id":"cebpf4jnsgd1na2vs0mg"},{"bike_id":"a71ca81b-e713-45f7-9cf4-bb6fb2381c98","system_id":"levelo_inurba_marseille","lat":43.24663,"lon":5.38166,"is_reserved":false,"is_disabled":false,"rental_uris":{"android":"levelo://app?vid=a71ca81b-e713-45f7-9cf4-bb6fb2381c98","ios":"levelo://app?vid=a71ca81b-e713-45f7-9cf4-bb6fb2381c98"},"vehicle_type_id":"4","last_reported":1736528879,"current_range_meters":15200,"station_id":"ce4bhih2rcd13ifvqfr0","pricing_plan_id":"cebpf4jnsgd1na2vs0mg"},{"bike_id":"d4b9ec52-492e-41b6-8dae-be3aec56cf81","system_id":"levelo_inurba_marseille","lat":43.286169,"lon":5.35095,"is_reserved":false,"is_disabled":false,"rental_uris":{"android":"levelo://app?vid=d4b9ec52-492e-41b6-8dae-be3aec56cf81","ios":"levelo://app?vid=d4b9ec52-492e-41b6-8dae-be3aec56cf81"},"vehicle_type_id":"4","last_reported":1736528879,"current_range_meters":9600,"station_id":"ce4bhch2rcd13ifvqeug","pricing_plan_id":"cebpf4jnsgd1na2vs0mg"},{"bike_id":"474ddd7e-595c-4d78-a27f-16e1f1028d30","system_id":"levelo_inurba_marseille","lat":43.30309,"lon":5.39214,"is_reserved":false,"is_disabled":false,"rental_uris":{"android":"levelo://app?vid=474ddd7e-595c-4d78-a27f-16e1f1028d30","ios":"levelo://app?vid=474ddd7e-595c-4d78-a27f-16e1f1028d30"},"vehicle_type_id":"4","last_reported":1736528879,"current_range_meters":2800,"station_id":"ce4bgkh2rcd13ifvqbk0","pricing_plan_id":"cebpf4jnsgd1na2vs0mg"},{"bike_id":"458c3d58-e6a5-4d1a-8df2-05d9cb3e0072","system_id":"levelo_inurba_marseille","lat":43.25583,"lon":5.3822,"is_reserved":false,"is_disabled":false,"rental_uris":{"android":"levelo://app?vid=458c3d58-e6a5-4d1a-8df2-05d9cb3e0072","ios":"levelo://app?vid=458c3d58-e6a5-4d1a-8df2-05d9cb3e0072"},"vehicle_type_id":"4","last_reported":1736528879,"current_range_meters":16000,"station_id":"ce4bhih2rcd13ifvqfs0","pricing_plan_id":"cebpf4jnsgd1na2vs0mg"},{"bike_id":"10f7d31a-ef8d-4e8a-acbf-8aa9a8c72143","system_id":"levelo_inurba_marseille","lat":43.24389,"lon":5.37063,"is_reserved":false,"is_disabled":false,"rental_uris":{"android":"levelo://app?vid=10f7d31a-ef8d-4e8a-acbf-8aa9a8c72143","ios":"levelo://app?vid=10f7d31a-ef8d-4e8a-acbf-8aa9a8c72143"},"vehicle_type_id":"4","last_reported":1736528879,"current_range_meters":22800,"station_id":"ce4bhhh2rcd13ifvqfk0","pricing_plan_id":"cebpf4jnsgd1na2vs0mg"},{"bike_id":"6e6dbc29-f312-4058-8890-f74d6b5e2ac3","system_id":"levelo_inurba_marseille","lat":43.262,"lon":5.37448,"is_reserved":false,"is_disabled":false,"rental_uris":{"android":"levelo://app?vid=6e6dbc29-f312-4058-8890-f74d6b5e2ac3","ios":"levelo://app?vid=6e6dbc29-f312-4058-8890-f74d6b5e2ac3"},"vehicle_type_id":"4","last_reported":1736528879,"current_range_meters":28000,"station_id":"ce4bhgp2rcd13ifvqfc0","pricing_plan_id":"cebpf4jnsgd1na2vs0mg"},{"bike_id":"6c9672bf-f199-48da-8402-1f61af011942","system_id":"levelo_inurba_marseille","lat":43.29023,"lon":5.38137,"is_reserved":false,"is_disabled":false,"rental_uris":{"android":"levelo://app?vid=6c9672bf-f199-48da-8402-1f61af011942","ios":"levelo://app?vid=6c9672bf-f199-48da-8402-1f61af011942"},"vehicle_type_id":"4","last_reported":1736528879,"current_range_meters":38400,"station_id":"ce4bh4p2rcd13ifvqe1g","pricing_plan_id":"cebpf4jnsgd1na2vs0mg"},{"bike_id":"ae29e0de-7b5a-45d6-ace3-313c5e88010a","system_id":"levelo_inurba_marseille","lat":43.27999,"lon":5.41656,"is_reserved":false,"is_disabled":true,"rental_uris":{"android":"levelo://app?vid=ae29e0de-7b5a-45d6-ace3-313c5e88010a","ios":"levelo://app?vid=ae29e0de-7b5a-45d6-ace3-313c5e88010a"},"vehicle_type_id":"4","last_reported":1736528879,"current_range_meters":4800,"station_id":"ce4bho12rcd13ifvqh1g","pricing_plan_id":"cebpf4jnsgd1na2vs0mg"},{"bike_id":"d4db72e1-9676-4e2e-8dd2-6bf44361481f","system_id":"levelo_inurba_marseille","lat":43.29299,"lon":5.37454,"is_reserved":false,"is_disabled":false,"rental_uris":{"android":"levelo://app?vid=d4db72e1-9676-4e2e-8dd2-6bf44361481f","ios":"levelo://app?vid=d4db72e1-9676-4e2e-8dd2-6bf44361481f"},"vehicle_type_id":"4","last_reported":1736528879,"current_range_meters":36000,"station_id":"ce4bgi12rcd13ifvqb70","pricing_plan_id":"cebpf4jnsgd1na2vs0mg"},{"bike_id":"572f0254-11cf-4ef2-b3f9-66737ed8298a","system_id":"levelo_inurba_marseille","lat":43.28424,"lon":5.34989,"is_reserved":false,"is_disabled":true,"rental_uris":{"android":"levelo://app?vid=572f0254-11cf-4ef2-b3f9-66737ed8298a","ios":"levelo://app?vid=572f0254-11cf-4ef2-b3f9-66737ed8298a"},"vehicle_type_id":"4","last_reported":1736528879,"current_range_meters":1600,"station_id":"ce4bhbh2rcd13ifvqepg","pricing_plan_id":"cebpf4jnsgd1na2vs0mg"},{"bike_id":"81e650fb-946f-4e41-a04f-8169232bb99d","system_id":"levelo_inurba_marseille","lat":43.23185,"lon":5.39972,"is_reserved":false,"is_disabled":false,"rental_uris":{"android":"levelo://app?vid=81e650fb-946f-4e41-a04f-8169232bb99d","ios":"levelo://app?vid=81e650fb-946f-4e41-a04f-8169232bb99d"},"vehicle_type_id":"4","last_reported":1736528879,"current_range_meters":38800,"station_id":"ce4bhn12rcd13ifvqgqg","pricing_plan_id":"cebpf4jnsgd1na2vs0mg"},{"bike_id":"c150f8af-fc8f-4eb5-ac98-0b06dadf4ce0","system_id":"levelo_inurba_marseille","lat":43.25587,"lon":5.38214,"is_reserved":false,"is_disabled":false,"rental_uris":{"android":"levelo://app?vid=c150f8af-fc8f-4eb5-ac98-0b06dadf4ce0","ios":"levelo://app?vid=c150f8af-fc8f-4eb5-ac98-0b06dadf4ce0"},"vehicle_type_id":"4","last_reported":1736528879,"current_range_meters":32800,"station_id":"ce4bhih2rcd13ifvqfs0","pricing_plan_id":"cebpf4jnsgd1na2vs0mg"},{"bike_id":"04af2dc9-a9de-4915-9c9c-207f374f346e","system_id":"levelo_inurba_marseille","lat":43.23195,"lon":5.35543,"is_reserved":false,"is_disabled":false,"rental_uris":{"android":"levelo://app?vid=04af2dc9-a9de-4915-9c9c-207f374f346e","ios":"levelo://app?vid=04af2dc9-a9de-4915-9c9c-207f374f346e"},"vehicle_type_id":"4","last_reported":1736528879,"current_range_meters":38800,"station_id":"ce4bhu92rcd13ifvqi70","pricing_plan_id":"cebpf4jnsgd1na2vs0mg"},{"bike_id":"83b954cb-b1cd-4e51-b5e1-c2bfd0e62ed1","system_id":"levelo_inurba_marseille","lat":43.28867,"lon":5.39315,"is_reserved":false,"is_disabled":false,"rental_uris":{"android":"levelo://app?vid=83b954cb-b1cd-4e51-b5e1-c2bfd0e62ed1","ios":"levelo://app?vid=83b954cb-b1cd-4e51-b5e1-c2bfd0e62ed1"},"vehicle_type_id":"4","last_reported":1736528879,"current_range_meters":21600,"station_id":"ce4bh2p2rcd13ifvqdi0","pricing_plan_id":"cebpf4jnsgd1na2vs0mg"},{"bike_id":"2699aa44-e054-4052-825f-54a662a06c6e","system_id":"levelo_inurba_marseille","lat":43.23191,"lon":5.39975,"is_reserved":false,"is_disabled":false,"rental_uris":{"android":"levelo://app?vid=2699aa44-e054-4052-825f-54a662a06c6e","ios":"levelo://app?vid=2699aa44-e054-4052-825f-54a662a06c6e"},"vehicle_type_id":"4","last_reported":1736528879,"current_range_meters":38800,"station_id":"ce4bhn12rcd13ifvqgqg","pricing_plan_id":"cebpf4jnsgd1na2vs0mg"},{"bike_id":"61754fba-3376-4768-8c7c-511ea5daf5e6","system_id":"levelo_inurba_marseille","lat":43.314435,"lon":5.373752,"is_reserved":false,"is_disabled":false,"rental_uris":{"android":"levelo://app?vid=61754fba-3376-4768-8c7c-511ea5daf5e6","ios":"levelo://app?vid=61754fba-3376-4768-8c7c-511ea5daf5e6"},"vehicle_type_id":"4","last_reported":1736528879,"current_range_meters":4800,"station_id":"","pricing_plan_id":"cebpf4jnsgd1na2vs0mg"},{"bike_id":"4eea0f9a-8371-44e1-8ec2-1b8667eafdd9","system_id":"levelo_inurba_marseille","lat":43.28625,"lon":5.35084,"is_reserved":false,"is_disabled":false,"rental_uris":{"android":"levelo://app?vid=4eea0f9a-8371-44e1-8ec2-1b8667eafdd9","ios":"levelo://app?vid=4eea0f9a-8371-44e1-8ec2-1b8667eafdd9"},"vehicle_type_id":"4","last_reported":1736528879,"current_range_meters":38800,"station_id":"ce4bhch2rcd13ifvqeug","pricing_plan_id":"cebpf4jnsgd1na2vs0mg"},{"bike_id":"30653996-9326-4bca-864c-21ac92f61041","system_id":"levelo_inurba_marseille","lat":43.24659,"lon":5.38888,"is_reserved":false,"is_disabled":false,"rental_uris":{"android":"levelo://app?vid=30653996-9326-4bca-864c-21ac92f61041","ios":"levelo://app?vid=30653996-9326-4bca-864c-21ac92f61041"},"vehicle_type_id":"4","last_reported":1736528879,"current_range_meters":36800,"station_id":"ce4bhg12rcd13ifvqf60","pricing_plan_id":"cebpf4jnsgd1na2vs0mg"},{"bike_id":"2f8ad459-3412-488c-8718-46949f130497","system_id":"levelo_inurba_marseille","lat":43.24381,"lon":5.37066,"is_reserved":false,"is_disabled":false,"rental_uris":{"android":"levelo://app?vid=2f8ad459-3412-488c-8718-46949f130497","ios":"levelo://app?vid=2f8ad459-3412-488c-8718-46949f130497"},"vehicle_type_id":"4","last_reported":1736528879,"current_range_meters":30800,"station_id":"ce4bhhh2rcd13ifvqfk0","pricing_plan_id":"cebpf4jnsgd1na2vs0mg"},{"bike_id":"98dc3769-3866-4e66-8cf4-d2a6b45113e8","system_id":"levelo_inurba_marseille","lat":43.29552,"lon":5.42293,"is_reserved":false,"is_disabled":true,"rental_uris":{"android":"levelo://app?vid=98dc3769-3866-4e66-8cf4-d2a6b45113e8","ios":"levelo://app?vid=98dc3769-3866-4e66-8cf4-d2a6b45113e8"},"vehicle_type_id":"4","last_reported":1736528879,"current_range_meters":0,"station_id":"ce4bhph2rcd13ifvqhdg","pricing_plan_id":"cebpf4jnsgd1na2vs0mg"},{"bike_id":"3f88488f-e6d7-4717-a65a-7f673d46acfd","system_id":"levelo_inurba_marseille","lat":43.25577,"lon":5.38229,"is_reserved":false,"is_disabled":false,"rental_uris":{"android":"levelo://app?vid=3f88488f-e6d7-4717-a65a-7f673d46acfd","ios":"levelo://app?vid=3f88488f-e6d7-4717-a65a-7f673d46acfd"},"vehicle_type_id":"4","last_reported":1736528879,"current_range_meters":24800,"station_id":"ce4bhih2rcd13ifvqfs0","pricing_plan_id":"cebpf4jnsgd1na2vs0mg"},{"bike_id":"cffdbb96-5acd-4130-9896-e23d0afde4e8","system_id":"levelo_inurba_marseille","lat":43.27585,"lon":5.38411,"is_reserved":false,"is_disabled":false,"rental_uris":{"android":"levelo://app?vid=cffdbb96-5acd-4130-9896-e23d0afde4e8","ios":"levelo://app?vid=cffdbb96-5acd-4130-9896-e23d0afde4e8"},"vehicle_type_id":"4","last_reported":1736528879,"current_range_meters":32400,"station_id":"ce4bhh92rcd13ifvqfi0","pricing_plan_id":"cebpf4jnsgd1na2vs0mg"},{"bike_id":"dbb21a8b-dc67-44ba-84d7-05f02306daa0","system_id":"levelo_inurba_marseille","lat":43.2846,"lon":5.35879,"is_reserved":false,"is_disabled":false,"rental_uris":{"android":"levelo://app?vid=dbb21a8b-dc67-44ba-84d7-05f02306daa0","ios":"levelo://app?vid=dbb21a8b-dc67-44ba-84d7-05f02306daa0"},"vehicle_type_id":"4","last_reported":1736528879,"current_range_meters":12000,"station_id":"ce4bhah2rcd13ifvqei0","pricing_plan_id":"cebpf4jnsgd1na2vs0mg"},{"bike_id":"b704bf42-2bc7-4506-b669-8ca7a3330fef","system_id":"levelo_inurba_marseille","lat":43.28157,"lon":5.42639,"is_reserved":false,"is_disabled":true,"rental_uris":{"android":"levelo://app?vid=b704bf42-2bc7-4506-b669-8ca7a3330fef","ios":"levelo://app?vid=b704bf42-2bc7-4506-b669-8ca7a3330fef"},"vehicle_type_id":"4","last_reported":1736528879,"current_range_meters":36400,"station_id":"ce4bhnh2rcd13ifvqgug","pricing_plan_id":"cebpf4jnsgd1na2vs0mg"},{"bike_id":"04c144bb-885d-4367-8bc8-e2ccfca26ca3","system_id":"levelo_inurba_marseille","lat":43.31334,"lon":5.39672,"is_reserved":false,"is_disabled":true,"rental_uris":{"android":"levelo://app?vid=04c144bb-885d-4367-8bc8-e2ccfca26ca3","ios":"levelo://app?vid=04c144bb-885d-4367-8bc8-e2ccfca26ca3"},"vehicle_type_id":"4","last_reported":1736528879,"current_range_meters":25200,"station_id":"ce4bgvp2rcd13ifvqcu0","pricing_plan_id":"cebpf4jnsgd1na2vs0mg"},{"bike_id":"c3589138-42a9-4b43-9cf4-77d53e9ddf3b","system_id":"levelo_inurba_marseille","lat":43.29205,"lon":5.35795,"is_reserved":false,"is_disabled":false,"rental_uris":{"android":"levelo://app?vid=c3589138-42a9-4b43-9cf4-77d53e9ddf3b","ios":"levelo://app?vid=c3589138-42a9-4b43-9cf4-77d53e9ddf3b"},"vehicle_type_id":"4","last_reported":1736528879,"current_range_meters":15200,"station_id":"ce4bhb12rcd13ifvqel0","pricing_plan_id":"cebpf4jnsgd1na2vs0mg"},{"bike_id":"5ac4cbe2-58bd-420e-b2e3-f723aa6d08fb","system_id":"levelo_inurba_marseille","lat":43.2856,"lon":5.39487,"is_reserved":false,"is_disabled":false,"rental_uris":{"android":"levelo://app?vid=5ac4cbe2-58bd-420e-b2e3-f723aa6d08fb","ios":"levelo://app?vid=5ac4cbe2-58bd-420e-b2e3-f723aa6d08fb"},"vehicle_type_id":"4","last_reported":1736528879,"current_range_meters":22400,"station_id":"ce4bh292rcd13ifvqdg0","pricing_plan_id":"cebpf4jnsgd1na2vs0mg"},{"bike_id":"ca2f36ca-8c74-4175-bef0-328d90f18754","system_id":"levelo_inurba_marseille","lat":43.28609,"lon":5.37052,"is_reserved":false,"is_disabled":false,"rental_uris":{"android":"levelo://app?vid=ca2f36ca-8c74-4175-bef0-328d90f18754","ios":"levelo://app?vid=ca2f36ca-8c74-4175-bef0-328d90f18754"},"vehicle_type_id":"4","last_reported":1736528879,"current_range_meters":28000,"station_id":"ce4bht12rcd13ifvqi60","pricing_plan_id":"cebpf4jnsgd1na2vs0mg"},{"bike_id":"38352b29-897c-4fa7-be31-9c23452e3a93","system_id":"levelo_inurba_marseille","lat":43.29883,"lon":5.39734,"is_reserved":false,"is_disabled":false,"rental_uris":{"android":"levelo://app?vid=38352b29-897c-4fa7-be31-9c23452e3a93","ios":"levelo://app?vid=38352b29-897c-4fa7-be31-9c23452e3a93"},"vehicle_type_id":"4","last_reported":1736528879,"current_range_meters":22800,"station_id":"ce4bh0h2rcd13ifvqd50","pricing_plan_id":"cebpf4jnsgd1na2vs0mg"},{"bike_id":"7475f743-fa68-4b23-ab37-60e01b01184f","system_id":"levelo_inurba_marseille","lat":43.32106,"lon":5.36786,"is_reserved":false,"is_disabled":false,"rental_uris":{"android":"levelo://app?vid=7475f743-fa68-4b23-ab37-60e01b01184f","ios":"levelo://app?vid=7475f743-fa68-4b23-ab37-60e01b01184f"},"vehicle_type_id":"4","last_reported":1736528879,"current_range_meters":30800,"station_id":"ce4bhrh2rcd13ifvqhug","pricing_plan_id":"cebpf4jnsgd1na2vs0mg"},{"bike_id":"e2744ec8-2f1a-4025-9ec0-6a07f5db3fc4","system_id":"levelo_inurba_marseille","lat":43.25496,"lon":5.37651,"is_reserved":false,"is_disabled":false,"rental_uris":{"android":"levelo://app?vid=e2744ec8-2f1a-4025-9ec0-6a07f5db3fc4","ios":"levelo://app?vid=e2744ec8-2f1a-4025-9ec0-6a07f5db3fc4"},"vehicle_type_id":"4","last_reported":1736528879,"current_range_meters":3600,"station_id":"ce4bhh12rcd13ifvqff0","pricing_plan_id":"cebpf4jnsgd1na2vs0mg"},{"bike_id":"39e8b8db-a45b-47ac-924f-708d2b3bef9a","system_id":"levelo_inurba_marseille","lat":43.28626,"lon":5.35103,"is_reserved":false,"is_disabled":false,"rental_uris":{"android":"levelo://app?vid=39e8b8db-a45b-47ac-924f-708d2b3bef9a","ios":"levelo://app?vid=39e8b8db-a45b-47ac-924f-708d2b3bef9a"},"vehicle_type_id":"4","last_reported":1736528879,"current_range_meters":17600,"station_id":"ce4bhch2rcd13ifvqeug","pricing_plan_id":"cebpf4jnsgd1na2vs0mg"},{"bike_id":"032ee595-cff4-4854-9fc8-ff8648911d95","system_id":"levelo_inurba_marseille","lat":43.284757,"lon":5.385505,"is_reserved":false,"is_disabled":false,"rental_uris":{"android":"levelo://app?vid=032ee595-cff4-4854-9fc8-ff8648911d95","ios":"levelo://app?vid=032ee595-cff4-4854-9fc8-ff8648911d95"},"vehicle_type_id":"4","last_reported":1736528879,"current_range_meters":16000,"station_id":"ce4bh8p2rcd13ifvqeb0","pricing_plan_id":"cebpf4jnsgd1na2vs0mg"},{"bike_id":"b95c326d-6fc3-495d-9b70-2a604b530640","system_id":"levelo_inurba_marseille","lat":43.29613,"lon":5.40603,"is_reserved":false,"is_disabled":false,"rental_uris":{"android":"levelo://app?vid=b95c326d-6fc3-495d-9b70-2a604b530640","ios":"levelo://app?vid=b95c326d-6fc3-495d-9b70-2a604b530640"},"vehicle_type_id":"4","last_reported":1736528879,"current_range_meters":37600,"station_id":"ce4bh0h2rcd13ifvqd60","pricing_plan_id":"cebpf4jnsgd1na2vs0mg"},{"bike_id":"9be01537-e054-45c4-92d8-0b0eb1e034b4","system_id":"levelo_inurba_marseille","lat":43.27814,"lon":5.4071,"is_reserved":false,"is_disabled":false,"rental_uris":{"android":"levelo://app?vid=9be01537-e054-45c4-92d8-0b0eb1e034b4","ios":"levelo://app?vid=9be01537-e054-45c4-92d8-0b0eb1e034b4"},"vehicle_type_id":"4","last_reported":1736528879,"current_range_meters":6000,"station_id":"ce4bhnh2rcd13ifvqgtg","pricing_plan_id":"cebpf4jnsgd1na2vs0mg"},{"bike_id":"e2544aba-a350-44bf-ba9f-d261b2f4eb98","system_id":"levelo_inurba_marseille","lat":43.27978,"lon":5.4099,"is_reserved":false,"is_disabled":true,"rental_uris":{"android":"levelo://app?vid=e2544aba-a350-44bf-ba9f-d261b2f4eb98","ios":"levelo://app?vid=e2544aba-a350-44bf-ba9f-d261b2f4eb98"},"vehicle_type_id":"4","last_reported":1736528879,"current_range_meters":1200,"station_id":"","pricing_plan_id":"cebpf4jnsgd1na2vs0mg"},{"bike_id":"4f8710ac-b7fe-46e2-9b85-89a2b91070fc","system_id":"levelo_inurba_marseille","lat":43.30936,"lon":5.40136,"is_reserved":false,"is_disabled":false,"rental_uris":{"android":"levelo://app?vid=4f8710ac-b7fe-46e2-9b85-89a2b91070fc","ios":"levelo://app?vid=4f8710ac-b7fe-46e2-9b85-89a2b91070fc"},"vehicle_type_id":"4","last_reported":1736528879,"current_range_meters":38800,"station_id":"ce4bgvp2rcd13ifvqct0","pricing_plan_id":"cebpf4jnsgd1na2vs0mg"},{"bike_id":"2eb264c8-1e8d-4f17-a831-3cda07857865","system_id":"levelo_inurba_marseille","lat":43.32085,"lon":5.36791,"is_reserved":false,"is_disabled":false,"rental_uris":{"android":"levelo://app?vid=2eb264c8-1e8d-4f17-a831-3cda07857865","ios":"levelo://app?vid=2eb264c8-1e8d-4f17-a831-3cda07857865"},"vehicle_type_id":"4","last_reported":1736528879,"current_range_meters":33600,"station_id":"ce4bhrh2rcd13ifvqhug","pricing_plan_id":"cebpf4jnsgd1na2vs0mg"},{"bike_id":"6f9f56a9-0ee8-4620-a583-081a2484f220","system_id":"levelo_inurba_marseille","lat":43.31086,"lon":5.42437,"is_reserved":false,"is_disabled":false,"rental_uris":{"android":"levelo://app?vid=6f9f56a9-0ee8-4620-a583-081a2484f220","ios":"levelo://app?vid=6f9f56a9-0ee8-4620-a583-081a2484f220"},"vehicle_type_id":"4","last_reported":1736528879,"current_range_meters":9200,"station_id":"ce4bhp92rcd13ifvqhag","pricing_plan_id":"cebpf4jnsgd1na2vs0mg"},{"bike_id":"cf8f9321-408b-469f-8deb-35935e4682b9","system_id":"levelo_inurba_marseille","lat":43.27959,"lon":5.38704,"is_reserved":false,"is_disabled":false,"rental_uris":{"android":"levelo://app?vid=cf8f9321-408b-469f-8deb-35935e4682b9","ios":"levelo://app?vid=cf8f9321-408b-469f-8deb-35935e4682b9"},"vehicle_type_id":"4","last_reported":1736528879,"current_range_meters":38800,"station_id":"ce4bhg12rcd13ifvqf80","pricing_plan_id":"cebpf4jnsgd1na2vs0mg"},{"bike_id":"1e2223a2-c032-49e7-8dbf-982df86a0520","system_id":"levelo_inurba_marseille","lat":43.22919,"lon":5.3537,"is_reserved":false,"is_disabled":false,"rental_uris":{"android":"levelo://app?vid=1e2223a2-c032-49e7-8dbf-982df86a0520","ios":"levelo://app?vid=1e2223a2-c032-49e7-8dbf-982df86a0520"},"vehicle_type_id":"4","last_reported":1736528879,"current_range_meters":31200,"station_id":"cpo3532slgdg3j2ikp40","pricing_plan_id":"cebpf4jnsgd1na2vs0mg"},{"bike_id":"129b6db2-1c87-4994-b2ac-4ebb49efeb04","system_id":"levelo_inurba_marseille","lat":43.29885,"lon":5.39769,"is_reserved":false,"is_disabled":false,"rental_uris":{"android":"levelo://app?vid=129b6db2-1c87-4994-b2ac-4ebb49efeb04","ios":"levelo://app?vid=129b6db2-1c87-4994-b2ac-4ebb49efeb04"},"vehicle_type_id":"4","last_reported":1736528879,"current_range_meters":38800,"station_id":"ce4bh0h2rcd13ifvqd50","pricing_plan_id":"cebpf4jnsgd1na2vs0mg"},{"bike_id":"aa8ac0ca-89b2-472c-abe3-0a86d5057c87","system_id":"levelo_inurba_marseille","lat":43.260765,"lon":5.393887,"is_reserved":false,"is_disabled":false,"rental_uris":{"android":"levelo://app?vid=aa8ac0ca-89b2-472c-abe3-0a86d5057c87","ios":"levelo://app?vid=aa8ac0ca-89b2-472c-abe3-0a86d5057c87"},"vehicle_type_id":"4","last_reported":1736528879,"current_range_meters":8800,"station_id":"ce4bhh92rcd13ifvqfj0","pricing_plan_id":"cebpf4jnsgd1na2vs0mg"},{"bike_id":"5f2cf356-122a-4d24-85ba-e38bc4612223","system_id":"levelo_inurba_marseille","lat":43.25576,"lon":5.38226,"is_reserved":false,"is_disabled":true,"rental_uris":{"android":"levelo://app?vid=5f2cf356-122a-4d24-85ba-e38bc4612223","ios":"levelo://app?vid=5f2cf356-122a-4d24-85ba-e38bc4612223"},"vehicle_type_id":"4","last_reported":1736528879,"current_range_meters":36800,"station_id":"ce4bhih2rcd13ifvqfs0","pricing_plan_id":"cebpf4jnsgd1na2vs0mg"},{"bike_id":"be8a233f-ad85-41b2-af03-bfa1e3033438","system_id":"levelo_inurba_marseille","lat":43.23195,"lon":5.35547,"is_reserved":false,"is_disabled":false,"rental_uris":{"android":"levelo://app?vid=be8a233f-ad85-41b2-af03-bfa1e3033438","ios":"levelo://app?vid=be8a233f-ad85-41b2-af03-bfa1e3033438"},"vehicle_type_id":"4","last_reported":1736528879,"current_range_meters":24000,"station_id":"ce4bhu92rcd13ifvqi70","pricing_plan_id":"cebpf4jnsgd1na2vs0mg"},{"bike_id":"d7284d59-0fa0-4e55-88c3-9102035d8a99","system_id":"levelo_inurba_marseille","lat":43.30248,"lon":5.4005,"is_reserved":false,"is_disabled":true,"rental_uris":{"android":"levelo://app?vid=d7284d59-0fa0-4e55-88c3-9102035d8a99","ios":"levelo://app?vid=d7284d59-0fa0-4e55-88c3-9102035d8a99"},"vehicle_type_id":"4","last_reported":1736528879,"current_range_meters":12800,"station_id":"ce4bgvh2rcd13ifvqcs0","pricing_plan_id":"cebpf4jnsgd1na2vs0mg"},{"bike_id":"85d264a3-0230-4ba2-8caf-0cfcab438f3a","system_id":"levelo_inurba_marseille","lat":43.2962,"lon":5.37718,"is_reserved":false,"is_disabled":false,"rental_uris":{"android":"levelo://app?vid=85d264a3-0230-4ba2-8caf-0cfcab438f3a","ios":"levelo://app?vid=85d264a3-0230-4ba2-8caf-0cfcab438f3a"},"vehicle_type_id":"4","last_reported":1736528879,"current_range_meters":22000,"station_id":"ce4bgi92rcd13ifvqb90","pricing_plan_id":"cebpf4jnsgd1na2vs0mg"},{"bike_id":"401ff55f-764c-4de4-a59d-3b941aac169a","system_id":"levelo_inurba_marseille","lat":43.26075,"lon":5.39373,"is_reserved":false,"is_disabled":false,"rental_uris":{"android":"levelo://app?vid=401ff55f-764c-4de4-a59d-3b941aac169a","ios":"levelo://app?vid=401ff55f-764c-4de4-a59d-3b941aac169a"},"vehicle_type_id":"4","last_reported":1736528879,"current_range_meters":9200,"station_id":"ce4bhh92rcd13ifvqfj0","pricing_plan_id":"cebpf4jnsgd1na2vs0mg"},{"bike_id":"6544b2f2-f353-4ffe-9f27-712065d39883","system_id":"levelo_inurba_marseille","lat":43.32048,"lon":5.41539,"is_reserved":false,"is_disabled":false,"rental_uris":{"android":"levelo://app?vid=6544b2f2-f353-4ffe-9f27-712065d39883","ios":"levelo://app?vid=6544b2f2-f353-4ffe-9f27-712065d39883"},"vehicle_type_id":"4","last_reported":1736528879,"current_range_meters":9200,"station_id":"ce4bhq92rcd13ifvqhkg","pricing_plan_id":"cebpf4jnsgd1na2vs0mg"},{"bike_id":"0751221b-37bf-4486-a78f-e3467767c553","system_id":"levelo_inurba_marseille","lat":43.25586,"lon":5.38234,"is_reserved":false,"is_disabled":false,"rental_uris":{"android":"levelo://app?vid=0751221b-37bf-4486-a78f-e3467767c553","ios":"levelo://app?vid=0751221b-37bf-4486-a78f-e3467767c553"},"vehicle_type_id":"4","last_reported":1736528879,"current_range_meters":38800,"station_id":"ce4bhih2rcd13ifvqfs0","pricing_plan_id":"cebpf4jnsgd1na2vs0mg"},{"bike_id":"87e8ff8a-18ce-46f6-b477-492606cd7412","system_id":"levelo_inurba_marseille","lat":43.30299,"lon":5.36878,"is_reserved":false,"is_disabled":false,"rental_uris":{"android":"levelo://app?vid=87e8ff8a-18ce-46f6-b477-492606cd7412","ios":"levelo://app?vid=87e8ff8a-18ce-46f6-b477-492606cd7412"},"vehicle_type_id":"4","last_reported":1736528879,"current_range_meters":38000,"station_id":"ce4bgqh2rcd13ifvqc5g","pricing_plan_id":"cebpf4jnsgd1na2vs0mg"},{"bike_id":"ca72bb38-6596-47b1-91c2-1d6f232cb29d","system_id":"levelo_inurba_marseille","lat":43.27367,"lon":5.36247,"is_reserved":false,"is_disabled":false,"rental_uris":{"android":"levelo://app?vid=ca72bb38-6596-47b1-91c2-1d6f232cb29d","ios":"levelo://app?vid=ca72bb38-6596-47b1-91c2-1d6f232cb29d"},"vehicle_type_id":"4","last_reported":1736528879,"current_range_meters":38800,"station_id":"ce4bhbh2rcd13ifvqeo0","pricing_plan_id":"cebpf4jnsgd1na2vs0mg"},{"bike_id":"878b0960-4fe8-42e9-a08f-8554dd85566e","system_id":"levelo_inurba_marseille","lat":43.29842,"lon":5.36264,"is_reserved":false,"is_disabled":false,"rental_uris":{"android":"levelo://app?vid=878b0960-4fe8-42e9-a08f-8554dd85566e","ios":"levelo://app?vid=878b0960-4fe8-42e9-a08f-8554dd85566e"},"vehicle_type_id":"4","last_reported":1736528879,"current_range_meters":18000,"station_id":"ce4bgpp2rcd13ifvqc3g","pricing_plan_id":"cebpf4jnsgd1na2vs0mg"},{"bike_id":"f5a009f5-7eed-4940-bc69-a67182f5bbf6","system_id":"levelo_inurba_marseille","lat":43.28669,"lon":5.38656,"is_reserved":false,"is_disabled":false,"rental_uris":{"android":"levelo://app?vid=f5a009f5-7eed-4940-bc69-a67182f5bbf6","ios":"levelo://app?vid=f5a009f5-7eed-4940-bc69-a67182f5bbf6"},"vehicle_type_id":"4","last_reported":1736528879,"current_range_meters":800,"station_id":"ce4bh492rcd13ifvqdug","pricing_plan_id":"cebpf4jnsgd1na2vs0mg"},{"bike_id":"ad28bd53-1c8c-44ea-9a1c-1e5a5b2498fe","system_id":"levelo_inurba_marseille","lat":43.24179,"lon":5.36381,"is_reserved":false,"is_disabled":false,"rental_uris":{"android":"levelo://app?vid=ad28bd53-1c8c-44ea-9a1c-1e5a5b2498fe","ios":"levelo://app?vid=ad28bd53-1c8c-44ea-9a1c-1e5a5b2498fe"},"vehicle_type_id":"4","last_reported":1736528879,"current_range_meters":9600,"station_id":"cpo36qri1sfpv3e86is0","pricing_plan_id":"cebpf4jnsgd1na2vs0mg"},{"bike_id":"30b4f19a-5b8b-4ac5-8a89-8b14fe041003","system_id":"levelo_inurba_marseille","lat":43.24808,"lon":5.37468,"is_reserved":false,"is_disabled":false,"rental_uris":{"android":"levelo://app?vid=30b4f19a-5b8b-4ac5-8a89-8b14fe041003","ios":"levelo://app?vid=30b4f19a-5b8b-4ac5-8a89-8b14fe041003"},"vehicle_type_id":"4","last_reported":1736528879,"current_range_meters":22400,"station_id":"ce4bhgh2rcd13ifvqfb0","pricing_plan_id":"cebpf4jnsgd1na2vs0mg"},{"bike_id":"aba43a61-117f-4229-b5a3-b7fde200cbb9","system_id":"levelo_inurba_marseille","lat":43.29974,"lon":5.38484,"is_reserved":false,"is_disabled":false,"rental_uris":{"android":"levelo://app?vid=aba43a61-117f-4229-b5a3-b7fde200cbb9","ios":"levelo://app?vid=aba43a61-117f-4229-b5a3-b7fde200cbb9"},"vehicle_type_id":"4","last_reported":1736528879,"current_range_meters":22000,"station_id":"ce4bgj92rcd13ifvqbd0","pricing_plan_id":"cebpf4jnsgd1na2vs0mg"},{"bike_id":"d29523dc-a85f-4049-92ef-b99974de0434","system_id":"levelo_inurba_marseille","lat":43.29566,"lon":5.3751,"is_reserved":false,"is_disabled":false,"rental_uris":{"android":"levelo://app?vid=d29523dc-a85f-4049-92ef-b99974de0434","ios":"levelo://app?vid=d29523dc-a85f-4049-92ef-b99974de0434"},"vehicle_type_id":"4","last_reported":1736528879,"current_range_meters":35200,"station_id":"ce4bgh92rcd13ifvqb50","pricing_plan_id":"cebpf4jnsgd1na2vs0mg"},{"bike_id":"1eb7c0e9-db78-4774-bd3c-6fa7fd0d97d0","system_id":"levelo_inurba_marseille","lat":43.2885,"lon":5.35855,"is_reserved":false,"is_disabled":false,"rental_uris":{"android":"levelo://app?vid=1eb7c0e9-db78-4774-bd3c-6fa7fd0d97d0","ios":"levelo://app?vid=1eb7c0e9-db78-4774-bd3c-6fa7fd0d97d0"},"vehicle_type_id":"4","last_reported":1736528879,"current_range_meters":28400,"station_id":"ce4bhb12rcd13ifvqem0","pricing_plan_id":"cebpf4jnsgd1na2vs0mg"},{"bike_id":"e2dab698-0f67-4975-bae4-e0aee614e17a","system_id":"levelo_inurba_marseille","lat":43.25576,"lon":5.38224,"is_reserved":false,"is_disabled":false,"rental_uris":{"android":"levelo://app?vid=e2dab698-0f67-4975-bae4-e0aee614e17a","ios":"levelo://app?vid=e2dab698-0f67-4975-bae4-e0aee614e17a"},"vehicle_type_id":"4","last_reported":1736528879,"current_range_meters":32800,"station_id":"ce4bhih2rcd13ifvqfs0","pricing_plan_id":"cebpf4jnsgd1na2vs0mg"},{"bike_id":"0208b712-2691-47c5-873b-b1063dec2acf","system_id":"levelo_inurba_marseille","lat":43.30885,"lon":5.39646,"is_reserved":false,"is_disabled":false,"rental_uris":{"android":"levelo://app?vid=0208b712-2691-47c5-873b-b1063dec2acf","ios":"levelo://app?vid=0208b712-2691-47c5-873b-b1063dec2acf"},"vehicle_type_id":"4","last_reported":1736528879,"current_range_meters":6000,"station_id":"ce4bh012rcd13ifvqcv0","pricing_plan_id":"cebpf4jnsgd1na2vs0mg"},{"bike_id":"71a3091e-3542-45c0-aafd-125914f1fcc9","system_id":"levelo_inurba_marseille","lat":43.28448,"lon":5.35894,"is_reserved":false,"is_disabled":false,"rental_uris":{"android":"levelo://app?vid=71a3091e-3542-45c0-aafd-125914f1fcc9","ios":"levelo://app?vid=71a3091e-3542-45c0-aafd-125914f1fcc9"},"vehicle_type_id":"4","last_reported":1736528879,"current_range_meters":38400,"station_id":"ce4bhah2rcd13ifvqei0","pricing_plan_id":"cebpf4jnsgd1na2vs0mg"},{"bike_id":"b8acbba0-a715-4ced-a2aa-0517db10ac9d","system_id":"levelo_inurba_marseille","lat":43.22922,"lon":5.35354,"is_reserved":false,"is_disabled":true,"rental_uris":{"android":"levelo://app?vid=b8acbba0-a715-4ced-a2aa-0517db10ac9d","ios":"levelo://app?vid=b8acbba0-a715-4ced-a2aa-0517db10ac9d"},"vehicle_type_id":"4","last_reported":1736528879,"current_range_meters":38800,"station_id":"cpo3532slgdg3j2ikp40","pricing_plan_id":"cebpf4jnsgd1na2vs0mg"},{"bike_id":"3ea451c7-0219-4ce2-a73b-612927dbeb96","system_id":"levelo_inurba_marseille","lat":43.248,"lon":5.37452,"is_reserved":false,"is_disabled":false,"rental_uris":{"android":"levelo://app?vid=3ea451c7-0219-4ce2-a73b-612927dbeb96","ios":"levelo://app?vid=3ea451c7-0219-4ce2-a73b-612927dbeb96"},"vehicle_type_id":"4","last_reported":1736528879,"current_range_meters":15200,"station_id":"ce4bhgh2rcd13ifvqfb0","pricing_plan_id":"cebpf4jnsgd1na2vs0mg"},{"bike_id":"ae06a8b8-c8ea-41a8-aa51-2e096adfc2a4","system_id":"levelo_inurba_marseille","lat":43.28567,"lon":5.39493,"is_reserved":false,"is_disabled":true,"rental_uris":{"android":"levelo://app?vid=ae06a8b8-c8ea-41a8-aa51-2e096adfc2a4","ios":"levelo://app?vid=ae06a8b8-c8ea-41a8-aa51-2e096adfc2a4"},"vehicle_type_id":"4","last_reported":1736528879,"current_range_meters":800,"station_id":"ce4bh292rcd13ifvqdg0","pricing_plan_id":"cebpf4jnsgd1na2vs0mg"},{"bike_id":"ad113f76-a766-497a-90be-d1902352af36","system_id":"levelo_inurba_marseille","lat":43.32107,"lon":5.36756,"is_reserved":false,"is_disabled":false,"rental_uris":{"android":"levelo://app?vid=ad113f76-a766-497a-90be-d1902352af36","ios":"levelo://app?vid=ad113f76-a766-497a-90be-d1902352af36"},"vehicle_type_id":"4","last_reported":1736528879,"current_range_meters":38000,"station_id":"ce4bhrh2rcd13ifvqhug","pricing_plan_id":"cebpf4jnsgd1na2vs0mg"},{"bike_id":"410de123-c3e7-4dfb-8a74-5b91ec3a8955","system_id":"levelo_inurba_marseille","lat":43.3016,"lon":5.38095,"is_reserved":false,"is_disabled":false,"rental_uris":{"android":"levelo://app?vid=410de123-c3e7-4dfb-8a74-5b91ec3a8955","ios":"levelo://app?vid=410de123-c3e7-4dfb-8a74-5b91ec3a8955"},"vehicle_type_id":"4","last_reported":1736528879,"current_range_meters":39200,"station_id":"ce4bgjp2rcd13ifvqbh0","pricing_plan_id":"cebpf4jnsgd1na2vs0mg"},{"bike_id":"492eaeaa-12ec-45d5-becd-2f0b35e16c8d","system_id":"levelo_inurba_marseille","lat":43.24169,"lon":5.3638,"is_reserved":false,"is_disabled":false,"rental_uris":{"android":"levelo://app?vid=492eaeaa-12ec-45d5-becd-2f0b35e16c8d","ios":"levelo://app?vid=492eaeaa-12ec-45d5-becd-2f0b35e16c8d"},"vehicle_type_id":"4","last_reported":1736528879,"current_range_meters":12800,"station_id":"cpo36qri1sfpv3e86is0","pricing_plan_id":"cebpf4jnsgd1na2vs0mg"},{"bike_id":"2c2cb5d2-6aa5-47b8-ac13-651fb4c647c2","system_id":"levelo_inurba_marseille","lat":43.28154,"lon":5.42656,"is_reserved":false,"is_disabled":false,"rental_uris":{"android":"levelo://app?vid=2c2cb5d2-6aa5-47b8-ac13-651fb4c647c2","ios":"levelo://app?vid=2c2cb5d2-6aa5-47b8-ac13-651fb4c647c2"},"vehicle_type_id":"4","last_reported":1736528879,"current_range_meters":29600,"station_id":"ce4bhnh2rcd13ifvqgug","pricing_plan_id":"cebpf4jnsgd1na2vs0mg"},{"bike_id":"377730c6-0336-4c78-9c46-cdee41ff19a9","system_id":"levelo_inurba_marseille","lat":43.28045,"lon":5.41097,"is_reserved":false,"is_disabled":false,"rental_uris":{"android":"levelo://app?vid=377730c6-0336-4c78-9c46-cdee41ff19a9","ios":"levelo://app?vid=377730c6-0336-4c78-9c46-cdee41ff19a9"},"vehicle_type_id":"4","last_reported":1736528879,"current_range_meters":5600,"station_id":"","pricing_plan_id":"cebpf4jnsgd1na2vs0mg"},{"bike_id":"c2feffc8-f094-4961-a2af-debf497d36c8","system_id":"levelo_inurba_marseille","lat":43.29169,"lon":5.37164,"is_reserved":false,"is_disabled":false,"rental_uris":{"android":"levelo://app?vid=c2feffc8-f094-4961-a2af-debf497d36c8","ios":"levelo://app?vid=c2feffc8-f094-4961-a2af-debf497d36c8"},"vehicle_type_id":"4","last_reported":1736528879,"current_range_meters":25200,"station_id":"ce4bha92rcd13ifvqeh0","pricing_plan_id":"cebpf4jnsgd1na2vs0mg"},{"bike_id":"69689a84-aa34-48e6-8abf-e56354e3d93c","system_id":"levelo_inurba_marseille","lat":43.295227,"lon":5.37511,"is_reserved":false,"is_disabled":true,"rental_uris":{"android":"levelo://app?vid=69689a84-aa34-48e6-8abf-e56354e3d93c","ios":"levelo://app?vid=69689a84-aa34-48e6-8abf-e56354e3d93c"},"vehicle_type_id":"4","last_reported":1736528879,"current_range_meters":33600,"station_id":"ce4bgkp2rcd13ifvqbmg","pricing_plan_id":"cebpf4jnsgd1na2vs0mg"},{"bike_id":"266859f2-18fe-482a-8c9f-5bdad982c716","system_id":"levelo_inurba_marseille","lat":43.28038,"lon":5.41124,"is_reserved":false,"is_disabled":false,"rental_uris":{"android":"levelo://app?vid=266859f2-18fe-482a-8c9f-5bdad982c716","ios":"levelo://app?vid=266859f2-18fe-482a-8c9f-5bdad982c716"},"vehicle_type_id":"4","last_reported":1736528879,"current_range_meters":3200,"station_id":"","pricing_plan_id":"cebpf4jnsgd1na2vs0mg"},{"bike_id":"91645d5b-9b63-4f6d-8ac0-5fcf10e0cc16","system_id":"levelo_inurba_marseille","lat":43.30099,"lon":5.39077,"is_reserved":false,"is_disabled":true,"rental_uris":{"android":"levelo://app?vid=91645d5b-9b63-4f6d-8ac0-5fcf10e0cc16","ios":"levelo://app?vid=91645d5b-9b63-4f6d-8ac0-5fcf10e0cc16"},"vehicle_type_id":"4","last_reported":1736528879,"current_range_meters":0,"station_id":"ce4bh192rcd13ifvqdb0","pricing_plan_id":"cebpf4jnsgd1na2vs0mg"},{"bike_id":"4094f5fd-b9d9-4687-af6b-3fab948c109e","system_id":"levelo_inurba_marseille","lat":43.28936,"lon":5.36634,"is_reserved":false,"is_disabled":false,"rental_uris":{"android":"levelo://app?vid=4094f5fd-b9d9-4687-af6b-3fab948c109e","ios":"levelo://app?vid=4094f5fd-b9d9-4687-af6b-3fab948c109e"},"vehicle_type_id":"4","last_reported":1736528879,"current_range_meters":16400,"station_id":"ce4bhap2rcd13ifvqek0","pricing_plan_id":"cebpf4jnsgd1na2vs0mg"},{"bike_id":"f5c8499a-47b3-4d36-a988-44f6fc9cf83b","system_id":"levelo_inurba_marseille","lat":43.3065,"lon":5.40071,"is_reserved":false,"is_disabled":false,"rental_uris":{"android":"levelo://app?vid=f5c8499a-47b3-4d36-a988-44f6fc9cf83b","ios":"levelo://app?vid=f5c8499a-47b3-4d36-a988-44f6fc9cf83b"},"vehicle_type_id":"4","last_reported":1736528879,"current_range_meters":32000,"station_id":"ce4bh112rcd13ifvqda0","pricing_plan_id":"cebpf4jnsgd1na2vs0mg"},{"bike_id":"79d4d31b-e814-4db1-9d24-013e65778338","system_id":"levelo_inurba_marseille","lat":43.26191,"lon":5.37457,"is_reserved":false,"is_disabled":false,"rental_uris":{"android":"levelo://app?vid=79d4d31b-e814-4db1-9d24-013e65778338","ios":"levelo://app?vid=79d4d31b-e814-4db1-9d24-013e65778338"},"vehicle_type_id":"4","last_reported":1736528879,"current_range_meters":21600,"station_id":"ce4bhgp2rcd13ifvqfc0","pricing_plan_id":"cebpf4jnsgd1na2vs0mg"},{"bike_id":"5827b4a9-1701-4e79-9f9b-d27c53e0bd82","system_id":"levelo_inurba_marseille","lat":43.28849,"lon":5.39319,"is_reserved":false,"is_disabled":true,"rental_uris":{"android":"levelo://app?vid=5827b4a9-1701-4e79-9f9b-d27c53e0bd82","ios":"levelo://app?vid=5827b4a9-1701-4e79-9f9b-d27c53e0bd82"},"vehicle_type_id":"4","last_reported":1736528879,"current_range_meters":4000,"station_id":"ce4bh2p2rcd13ifvqdi0","pricing_plan_id":"cebpf4jnsgd1na2vs0mg"},{"bike_id":"3f50118d-0a41-4958-a11e-8f27511725fc","system_id":"levelo_inurba_marseille","lat":43.30876,"lon":5.39642,"is_reserved":false,"is_disabled":false,"rental_uris":{"android":"levelo://app?vid=3f50118d-0a41-4958-a11e-8f27511725fc","ios":"levelo://app?vid=3f50118d-0a41-4958-a11e-8f27511725fc"},"vehicle_type_id":"4","last_reported":1736528879,"current_range_meters":13600,"station_id":"ce4bh012rcd13ifvqcv0","pricing_plan_id":"cebpf4jnsgd1na2vs0mg"},{"bike_id":"57d52bd2-d637-4c1a-afc6-170caa6d6459","system_id":"levelo_inurba_marseille","lat":43.29622,"lon":5.37686,"is_reserved":false,"is_disabled":false,"rental_uris":{"android":"levelo://app?vid=57d52bd2-d637-4c1a-afc6-170caa6d6459","ios":"levelo://app?vid=57d52bd2-d637-4c1a-afc6-170caa6d6459"},"vehicle_type_id":"4","last_reported":1736528879,"current_range_meters":34800,"station_id":"ce4bgi92rcd13ifvqb90","pricing_plan_id":"cebpf4jnsgd1na2vs0mg"},{"bike_id":"d5547491-1e73-4373-af6b-070158834c0a","system_id":"levelo_inurba_marseille","lat":43.31128,"lon":5.37758,"is_reserved":false,"is_disabled":false,"rental_uris":{"android":"levelo://app?vid=d5547491-1e73-4373-af6b-070158834c0a","ios":"levelo://app?vid=d5547491-1e73-4373-af6b-070158834c0a"},"vehicle_type_id":"4","last_reported":1736528879,"current_range_meters":28800,"station_id":"ce4bgt92rcd13ifvqcg0","pricing_plan_id":"cebpf4jnsgd1na2vs0mg"},{"bike_id":"ee03c07a-46b6-4e10-a2e5-0a3024c8c420","system_id":"levelo_inurba_marseille","lat":43.26196,"lon":5.37401,"is_reserved":false,"is_disabled":false,"rental_uris":{"android":"levelo://app?vid=ee03c07a-46b6-4e10-a2e5-0a3024c8c420","ios":"levelo://app?vid=ee03c07a-46b6-4e10-a2e5-0a3024c8c420"},"vehicle_type_id":"4","last_reported":1736528879,"current_range_meters":30400,"station_id":"ce4bhgp2rcd13ifvqfc0","pricing_plan_id":"cebpf4jnsgd1na2vs0mg"},{"bike_id":"3a9366c6-502a-444b-b374-6877acc3af2b","system_id":"levelo_inurba_marseille","lat":43.31725,"lon":5.42384,"is_reserved":false,"is_disabled":false,"rental_uris":{"android":"levelo://app?vid=3a9366c6-502a-444b-b374-6877acc3af2b","ios":"levelo://app?vid=3a9366c6-502a-444b-b374-6877acc3af2b"},"vehicle_type_id":"4","last_reported":1736528879,"current_range_meters":4800,"station_id":"ce4bhp92rcd13ifvqhbg","pricing_plan_id":"cebpf4jnsgd1na2vs0mg"},{"bike_id":"32681294-077a-4f75-9762-ccbbd1a4b704","system_id":"levelo_inurba_marseille","lat":43.28075,"lon":5.39654,"is_reserved":false,"is_disabled":false,"rental_uris":{"android":"levelo://app?vid=32681294-077a-4f75-9762-ccbbd1a4b704","ios":"levelo://app?vid=32681294-077a-4f75-9762-ccbbd1a4b704"},"vehicle_type_id":"4","last_reported":1736528879,"current_range_meters":30800,"station_id":"ce4bho12rcd13ifvqh2g","pricing_plan_id":"cebpf4jnsgd1na2vs0mg"},{"bike_id":"b9619dd7-91f7-432e-b0ef-695b4d3f299d","system_id":"levelo_inurba_marseille","lat":43.3199,"lon":5.38158,"is_reserved":false,"is_disabled":false,"rental_uris":{"android":"levelo://app?vid=b9619dd7-91f7-432e-b0ef-695b4d3f299d","ios":"levelo://app?vid=b9619dd7-91f7-432e-b0ef-695b4d3f299d"},"vehicle_type_id":"4","last_reported":1736528879,"current_range_meters":13600,"station_id":"ce4bhr12rcd13ifvqhpg","pricing_plan_id":"cebpf4jnsgd1na2vs0mg"},{"bike_id":"f13a541f-179f-4c41-addb-df4a1f69f0e1","system_id":"levelo_inurba_marseille","lat":43.28859,"lon":5.39321,"is_reserved":false,"is_disabled":false,"rental_uris":{"android":"levelo://app?vid=f13a541f-179f-4c41-addb-df4a1f69f0e1","ios":"levelo://app?vid=f13a541f-179f-4c41-addb-df4a1f69f0e1"},"vehicle_type_id":"4","last_reported":1736528879,"current_range_meters":10000,"station_id":"ce4bh2p2rcd13ifvqdi0","pricing_plan_id":"cebpf4jnsgd1na2vs0mg"},{"bike_id":"24f515b3-81f3-4d6f-ae7d-b430ec0e88f5","system_id":"levelo_inurba_marseille","lat":43.28868,"lon":5.39321,"is_reserved":false,"is_disabled":false,"rental_uris":{"android":"levelo://app?vid=24f515b3-81f3-4d6f-ae7d-b430ec0e88f5","ios":"levelo://app?vid=24f515b3-81f3-4d6f-ae7d-b430ec0e88f5"},"vehicle_type_id":"4","last_reported":1736528879,"current_range_meters":38800,"station_id":"ce4bh2p2rcd13ifvqdi0","pricing_plan_id":"cebpf4jnsgd1na2vs0mg"},{"bike_id":"a5d4e38e-e8c1-4232-aff4-4b14c827bb1d","system_id":"levelo_inurba_marseille","lat":43.30874,"lon":5.37164,"is_reserved":false,"is_disabled":false,"rental_uris":{"android":"levelo://app?vid=a5d4e38e-e8c1-4232-aff4-4b14c827bb1d","ios":"levelo://app?vid=a5d4e38e-e8c1-4232-aff4-4b14c827bb1d"},"vehicle_type_id":"4","last_reported":1736528879,"current_range_meters":32800,"station_id":"ce4bguh2rcd13ifvqckg","pricing_plan_id":"cebpf4jnsgd1na2vs0mg"},{"bike_id":"eb52c3cf-b740-48f9-a709-3686cb7379a9","system_id":"levelo_inurba_marseille","lat":43.29592,"lon":5.36746,"is_reserved":false,"is_disabled":false,"rental_uris":{"android":"levelo://app?vid=eb52c3cf-b740-48f9-a709-3686cb7379a9","ios":"levelo://app?vid=eb52c3cf-b740-48f9-a709-3686cb7379a9"},"vehicle_type_id":"4","last_reported":1736528879,"current_range_meters":38000,"station_id":"ce4bgph2rcd13ifvqc2g","pricing_plan_id":"cebpf4jnsgd1na2vs0mg"},{"bike_id":"ca2450e7-5c66-4bdc-b528-943118702b91","system_id":"levelo_inurba_marseille","lat":43.33757,"lon":5.3918,"is_reserved":false,"is_disabled":false,"rental_uris":{"android":"levelo://app?vid=ca2450e7-5c66-4bdc-b528-943118702b91","ios":"levelo://app?vid=ca2450e7-5c66-4bdc-b528-943118702b91"},"vehicle_type_id":"4","last_reported":1736528879,"current_range_meters":38800,"station_id":"ce4bhr92rcd13ifvqhsg","pricing_plan_id":"cebpf4jnsgd1na2vs0mg"},{"bike_id":"be97934a-efd5-43dc-a20c-fded1b4a0387","system_id":"levelo_inurba_marseille","lat":43.23961,"lon":5.36625,"is_reserved":false,"is_disabled":false,"rental_uris":{"android":"levelo://app?vid=be97934a-efd5-43dc-a20c-fded1b4a0387","ios":"levelo://app?vid=be97934a-efd5-43dc-a20c-fded1b4a0387"},"vehicle_type_id":"4","last_reported":1736528879,"current_range_meters":38800,"station_id":"ce4bhi12rcd13ifvqfp0","pricing_plan_id":"cebpf4jnsgd1na2vs0mg"},{"bike_id":"d5f7e953-050c-4cea-99af-495b991331e3","system_id":"levelo_inurba_marseille","lat":43.31761,"lon":5.37585,"is_reserved":false,"is_disabled":false,"rental_uris":{"android":"levelo://app?vid=d5f7e953-050c-4cea-99af-495b991331e3","ios":"levelo://app?vid=d5f7e953-050c-4cea-99af-495b991331e3"},"vehicle_type_id":"4","last_reported":1736528879,"current_range_meters":38800,"station_id":"","pricing_plan_id":"cebpf4jnsgd1na2vs0mg"},{"bike_id":"921f7bce-db66-47d0-a237-43d20d2a6e4d","system_id":"levelo_inurba_marseille","lat":43.30601,"lon":5.37225,"is_reserved":false,"is_disabled":false,"rental_uris":{"android":"levelo://app?vid=921f7bce-db66-47d0-a237-43d20d2a6e4d","ios":"levelo://app?vid=921f7bce-db66-47d0-a237-43d20d2a6e4d"},"vehicle_type_id":"4","last_reported":1736528879,"current_range_meters":37600,"station_id":"ce4bgqh2rcd13ifvqc4g","pricing_plan_id":"cebpf4jnsgd1na2vs0mg"},{"bike_id":"1cec384a-2245-418b-bfb6-36a0ec66f8d3","system_id":"levelo_inurba_marseille","lat":43.30098,"lon":5.39083,"is_reserved":false,"is_disabled":false,"rental_uris":{"android":"levelo://app?vid=1cec384a-2245-418b-bfb6-36a0ec66f8d3","ios":"levelo://app?vid=1cec384a-2245-418b-bfb6-36a0ec66f8d3"},"vehicle_type_id":"4","last_reported":1736528879,"current_range_meters":16400,"station_id":"ce4bh192rcd13ifvqdb0","pricing_plan_id":"cebpf4jnsgd1na2vs0mg"},{"bike_id":"a1164a90-2dc8-4478-8d43-814a6b95fb9e","system_id":"levelo_inurba_marseille","lat":43.33756,"lon":5.37457,"is_reserved":false,"is_disabled":false,"rental_uris":{"android":"levelo://app?vid=a1164a90-2dc8-4478-8d43-814a6b95fb9e","ios":"levelo://app?vid=a1164a90-2dc8-4478-8d43-814a6b95fb9e"},"vehicle_type_id":"4","last_reported":1736528879,"current_range_meters":38400,"station_id":"","pricing_plan_id":"cebpf4jnsgd1na2vs0mg"},{"bike_id":"70a39399-0f00-4712-86e7-26380e33837b","system_id":"levelo_inurba_marseille","lat":43.28446,"lon":5.39204,"is_reserved":false,"is_disabled":false,"rental_uris":{"android":"levelo://app?vid=70a39399-0f00-4712-86e7-26380e33837b","ios":"levelo://app?vid=70a39399-0f00-4712-86e7-26380e33837b"},"vehicle_type_id":"4","last_reported":1736528879,"current_range_meters":30400,"station_id":"ce4bhoh2rcd13ifvqh5g","pricing_plan_id":"cebpf4jnsgd1na2vs0mg"},{"bike_id":"b3cb95fb-9c38-4961-8032-9e7e1343adcd","system_id":"levelo_inurba_marseille","lat":43.32366,"lon":5.3888,"is_reserved":false,"is_disabled":false,"rental_uris":{"android":"levelo://app?vid=b3cb95fb-9c38-4961-8032-9e7e1343adcd","ios":"levelo://app?vid=b3cb95fb-9c38-4961-8032-9e7e1343adcd"},"vehicle_type_id":"4","last_reported":1736528879,"current_range_meters":26000,"station_id":"ce4bhqp2rcd13ifvqhog","pricing_plan_id":"cebpf4jnsgd1na2vs0mg"},{"bike_id":"edc5994e-f672-4beb-abd6-cf58610554e8","system_id":"levelo_inurba_marseille","lat":43.28462,"lon":5.35886,"is_reserved":false,"is_disabled":false,"rental_uris":{"android":"levelo://app?vid=edc5994e-f672-4beb-abd6-cf58610554e8","ios":"levelo://app?vid=edc5994e-f672-4beb-abd6-cf58610554e8"},"vehicle_type_id":"4","last_reported":1736528879,"current_range_meters":14800,"station_id":"ce4bhah2rcd13ifvqei0","pricing_plan_id":"cebpf4jnsgd1na2vs0mg"},{"bike_id":"6fdecff2-2545-405f-8c66-4d246590b289","system_id":"levelo_inurba_marseille","lat":43.24174,"lon":5.36382,"is_reserved":false,"is_disabled":false,"rental_uris":{"android":"levelo://app?vid=6fdecff2-2545-405f-8c66-4d246590b289","ios":"levelo://app?vid=6fdecff2-2545-405f-8c66-4d246590b289"},"vehicle_type_id":"4","last_reported":1736528879,"current_range_meters":13600,"station_id":"cpo36qri1sfpv3e86is0","pricing_plan_id":"cebpf4jnsgd1na2vs0mg"},{"bike_id":"b72bd1d7-4c39-4e5e-97aa-5aa72c212ff4","system_id":"levelo_inurba_marseille","lat":43.25071,"lon":5.39512,"is_reserved":false,"is_disabled":false,"rental_uris":{"android":"levelo://app?vid=b72bd1d7-4c39-4e5e-97aa-5aa72c212ff4","ios":"levelo://app?vid=b72bd1d7-4c39-4e5e-97aa-5aa72c212ff4"},"vehicle_type_id":"4","last_reported":1736528879,"current_range_meters":38800,"station_id":"ce4bhm12rcd13ifvqgkg","pricing_plan_id":"cebpf4jnsgd1na2vs0mg"},{"bike_id":"d40d9428-a2fe-4f4e-a58b-7e600af87521","system_id":"levelo_inurba_marseille","lat":43.26037,"lon":5.3939,"is_reserved":false,"is_disabled":false,"rental_uris":{"android":"levelo://app?vid=d40d9428-a2fe-4f4e-a58b-7e600af87521","ios":"levelo://app?vid=d40d9428-a2fe-4f4e-a58b-7e600af87521"},"vehicle_type_id":"4","last_reported":1736528879,"current_range_meters":4000,"station_id":"ce4bhh92rcd13ifvqfj0","pricing_plan_id":"cebpf4jnsgd1na2vs0mg"},{"bike_id":"cb3fcc9a-db4e-4110-b6dc-a684c13ad5c0","system_id":"levelo_inurba_marseille","lat":43.3344,"lon":5.40036,"is_reserved":false,"is_disabled":false,"rental_uris":{"android":"levelo://app?vid=cb3fcc9a-db4e-4110-b6dc-a684c13ad5c0","ios":"levelo://app?vid=cb3fcc9a-db4e-4110-b6dc-a684c13ad5c0"},"vehicle_type_id":"4","last_reported":1736528879,"current_range_meters":3200,"station_id":"","pricing_plan_id":"cebpf4jnsgd1na2vs0mg"},{"bike_id":"eabaf27b-72f2-4249-9a2c-a32234730eb2","system_id":"levelo_inurba_marseille","lat":43.30743,"lon":5.37881,"is_reserved":false,"is_disabled":false,"rental_uris":{"android":"levelo://app?vid=eabaf27b-72f2-4249-9a2c-a32234730eb2","ios":"levelo://app?vid=eabaf27b-72f2-4249-9a2c-a32234730eb2"},"vehicle_type_id":"4","last_reported":1736528879,"current_range_meters":6000,"station_id":"","pricing_plan_id":"cebpf4jnsgd1na2vs0mg"},{"bike_id":"e61f782f-cc78-4b45-8028-46b8dced4708","system_id":"levelo_inurba_marseille","lat":43.29801,"lon":5.38085,"is_reserved":false,"is_disabled":false,"rental_uris":{"android":"levelo://app?vid=e61f782f-cc78-4b45-8028-46b8dced4708","ios":"levelo://app?vid=e61f782f-cc78-4b45-8028-46b8dced4708"},"vehicle_type_id":"4","last_reported":1736528879,"current_range_meters":2800,"station_id":"ce4bgip2rcd13ifvqbb0","pricing_plan_id":"cebpf4jnsgd1na2vs0mg"},{"bike_id":"86699f67-6126-4e37-9985-de736b93d6ff","system_id":"levelo_inurba_marseille","lat":43.31273,"lon":5.40168,"is_reserved":false,"is_disabled":false,"rental_uris":{"android":"levelo://app?vid=86699f67-6126-4e37-9985-de736b93d6ff","ios":"levelo://app?vid=86699f67-6126-4e37-9985-de736b93d6ff"},"vehicle_type_id":"4","last_reported":1736528879,"current_range_meters":38800,"station_id":"ce4bh092rcd13ifvqd30","pricing_plan_id":"cebpf4jnsgd1na2vs0mg"},{"bike_id":"c19ac43c-25c8-47c2-9551-7bb58b5b5508","system_id":"levelo_inurba_marseille","lat":43.337561,"lon":5.374573,"is_reserved":false,"is_disabled":false,"rental_uris":{"android":"levelo://app?vid=c19ac43c-25c8-47c2-9551-7bb58b5b5508","ios":"levelo://app?vid=c19ac43c-25c8-47c2-9551-7bb58b5b5508"},"vehicle_type_id":"4","last_reported":1736528879,"current_range_meters":37600,"station_id":"","pricing_plan_id":"cebpf4jnsgd1na2vs0mg"},{"bike_id":"ebdefe38-dbc2-4948-b195-443a43ff1eb6","system_id":"levelo_inurba_marseille","lat":43.28439,"lon":5.39193,"is_reserved":false,"is_disabled":false,"rental_uris":{"android":"levelo://app?vid=ebdefe38-dbc2-4948-b195-443a43ff1eb6","ios":"levelo://app?vid=ebdefe38-dbc2-4948-b195-443a43ff1eb6"},"vehicle_type_id":"4","last_reported":1736528879,"current_range_meters":6800,"station_id":"ce4bhoh2rcd13ifvqh5g","pricing_plan_id":"cebpf4jnsgd1na2vs0mg"},{"bike_id":"481be151-b686-4bfc-9bf6-94f9e1495a02","system_id":"levelo_inurba_marseille","lat":43.29954,"lon":5.37173,"is_reserved":false,"is_disabled":false,"rental_uris":{"android":"levelo://app?vid=481be151-b686-4bfc-9bf6-94f9e1495a02","ios":"levelo://app?vid=481be151-b686-4bfc-9bf6-94f9e1495a02"},"vehicle_type_id":"4","last_reported":1736528879,"current_range_meters":36400,"station_id":"ce4bgr92rcd13ifvqc7g","pricing_plan_id":"cebpf4jnsgd1na2vs0mg"},{"bike_id":"a4ef590c-dac5-4147-b075-34093b0925a2","system_id":"levelo_inurba_marseille","lat":43.2944,"lon":5.39757,"is_reserved":false,"is_disabled":false,"rental_uris":{"android":"levelo://app?vid=a4ef590c-dac5-4147-b075-34093b0925a2","ios":"levelo://app?vid=a4ef590c-dac5-4147-b075-34093b0925a2"},"vehicle_type_id":"4","last_reported":1736528879,"current_range_meters":38400,"station_id":"ce4bh3h2rcd13ifvqdo0","pricing_plan_id":"cebpf4jnsgd1na2vs0mg"},{"bike_id":"1483ed74-2ac9-4360-a0b0-cd1b27122b84","system_id":"levelo_inurba_marseille","lat":43.246587,"lon":5.388867,"is_reserved":false,"is_disabled":false,"rental_uris":{"android":"levelo://app?vid=1483ed74-2ac9-4360-a0b0-cd1b27122b84","ios":"levelo://app?vid=1483ed74-2ac9-4360-a0b0-cd1b27122b84"},"vehicle_type_id":"4","last_reported":1736528879,"current_range_meters":16400,"station_id":"ce4bhg12rcd13ifvqf60","pricing_plan_id":"cebpf4jnsgd1na2vs0mg"},{"bike_id":"b0d66df1-2b6e-4bea-8fa5-c00fde2949c2","system_id":"levelo_inurba_marseille","lat":43.28456,"lon":5.35893,"is_reserved":false,"is_disabled":true,"rental_uris":{"android":"levelo://app?vid=b0d66df1-2b6e-4bea-8fa5-c00fde2949c2","ios":"levelo://app?vid=b0d66df1-2b6e-4bea-8fa5-c00fde2949c2"},"vehicle_type_id":"4","last_reported":1736528879,"current_range_meters":16000,"station_id":"ce4bhah2rcd13ifvqei0","pricing_plan_id":"cebpf4jnsgd1na2vs0mg"},