{"last_updated":1707246374,"ttl":30,"version":"2.2","data":{"bikes":[{"bike_id":"53897815-b524-41b3-9782-70b6f70b6d8a","system_id":"levelo_inurba_marseille","lat":43.309076,"lon":5.368465,"is_reserved":false,"is_disabled":false,"rental_uris":{"android":"levelo://app?vid=53897815-b524-41b3-9782-70b6f70b6d8a","ios":"levelo://app?vid=53897815-b524-41b3-9782-70b6f70b6d8a"},"vehicle_type_id":"4","last_reported":1707246374,"current_range_meters":26800,"station_id":"ce4bgn92rcd13ifvqbvg","pricing_plan_id":"free"},{"bike_id":"50b8c34b-090e-4bb3-9e53-f79a42129939","system_id":"levelo_inurba_marseille","lat":43.309039,"lon":5.371797,"is_reserved":false,"is_disabled":false,"rental_uris":{"android":"levelo://app?vid=50b8c34b-090e-4bb3-9e53-f79a42129939","ios":"levelo://app?vid=50b8c34b-090e-4bb3-9e53-f79a42129939"},"vehicle_type_id":"4","last_reported":1707246374,"current_range_meters":14400,"station_id":"ce4bguh2rcd13ifvqckg","pricing_plan_id":"free"},{"bike_id":"59da6869-5cef-4563-8a13-37ac21f7f3c1","system_id":"levelo_inurba_marseille","lat":43.30537,"lon":5.367345,"is_reserved":false,"is_disabled":false,"rental_uris":{"android":"levelo://app?vid=59da6869-5cef-4563-8a13-37ac21f7f3c1","ios":"levelo://app?vid=59da6869-5cef-4563-8a13-37ac21f7f3c1"},"vehicle_type_id":"4","last_reported":1707246374,"current_range_meters":0,"station_id":"ce4bgrp2rcd13ifvqc9g","pricing_plan_id":"free"},{"bike_id":"e7ac0c82-604e-471f-b2ad-0816ca3a3e08","system_id":"levelo_inurba_marseille","lat":43.305368,"lon":5.367343,"is_reserved":false,"is_disabled":false,"rental_uris":{"android":"levelo://app?vid=e7ac0c82-604e-471f-b2ad-0816ca3a3e08","ios":"levelo://app?vid=e7ac0c82-604e-471f-b2ad-0816ca3a3e08"},"vehicle_type_id":"4","last_reported":1707246374,"current_range_meters":0,"station_id":"ce4bgrp2rcd13ifvqc9g","pricing_plan_id":"free"},{"bike_id":"173dc07c-9175-413c-a9ea-3341b53a36f6","system_id":"levelo_inurba_marseille","lat":43.311131,"lon":5.377651,"is_reserved":false,"is_disabled":false,"rental_uris":{"android":"levelo://app?vid=173dc07c-9175-413c-a9ea-3341b53a36f6","ios":"levelo://app?vid=173dc07c-9175-413c-a9ea-3341b53a36f6"},"vehicle_type_id":"4","last_reported":1707246374,"current_range_meters":8800,"station_id":"ce4bgt92rcd13ifvqcg0","pricing_plan_id":"free"},{"bike_id":"39f6a757-6bdb-4df0-969a-5bd7f58161e3","system_id":"levelo_inurba_marseille","lat":43.311233,"lon":5.377797,"is_reserved":false,"is_disabled":false,"rental_uris":{"android":"levelo://app?vid=39f6a757-6bdb-4df0-969a-5bd7f58161e3","ios":"levelo://app?vid=39f6a757-6bdb-4df0-969a-5bd7f58161e3"},"vehicle_type_id":"4","last_reported":1707246374,"current_range_meters":0,"station_id":"ce4bgt92rcd13ifvqcg0","pricing_plan_id":"free"},{"bike_id":"92830461-3917-45f6-abf9-5ba13a242a80","system_id":"levelo_inurba_marseille","lat":43.298037,"lon":5.381066,"is_reserved":false,"is_disabled":false,"rental_uris":{"android":"levelo://app?vid=92830461-3917-45f6-abf9-5ba13a242a80","ios":"levelo://app?vid=92830461-3917-45f6-abf9-5ba13a242a80"},"vehicle_type_id":"4","last_reported":1707246374,"current_range_meters":28000,"station_id":"ce4bgip2rcd13ifvqbb0","pricing_plan_id":"free"},{"bike_id":"88aaa6f6-b84c-4386-b758-c512c01dff52","system_id":"levelo_inurba_marseille","lat":43.30776,"lon":5.37662,"is_reserved":false,"is_disabled":false,"rental_uris":{"android":"levelo://app?vid=88aaa6f6-b84c-4386-b758-c512c01dff52","ios":"levelo://app?vid=88aaa6f6-b84c-4386-b758-c512c01dff52"},"vehicle_type_id":"4","last_reported":1707246374,"current_range_meters":18800,"station_id":"ce4bgv92rcd13ifvqcq0","pricing_plan_id":"free"},{"bike_id":"0e9f86b7-3c9f-4316-a95a-adf781f349d9","system_id":"levelo_inurba_marseille","lat":43.317075,"lon":5.377367,"is_reserved":false,"is_disabled":false,"rental_uris":{"android":"levelo://app?vid=0e9f86b7-3c9f-4316-a95a-adf781f349d9","ios":"levelo://app?vid=0e9f86b7-3c9f-4316-a95a-adf781f349d9"},"vehicle_type_id":"4","last_reported":1707246374,"current_range_meters":10800,"station_id":"ce4bgth2rcd13ifvqch0","pricing_plan_id":"free"},{"bike_id":"bbfc5f52-17f3-4330-9c28-d0c8b2bcb37d","system_id":"levelo_inurba_marseille","lat":43.317075,"lon":5.377367,"is_reserved":false,"is_disabled":false,"rental_uris":{"android":"levelo://app?vid=bbfc5f52-17f3-4330-9c28-d0c8b2bcb37d","ios":"levelo://app?vid=bbfc5f52-17f3-4330-9c28-d0c8b2bcb37d"},"vehicle_type_id":"4","last_reported":1707246374,"current_range_meters":4000,"station_id":"ce4bgth2rcd13ifvqch0","pricing_plan_id":"free"},{"bike_id":"77073416-f815-46ad-b414-33ec95709bea","system_id":"levelo_inurba_marseille","lat":43.317075,"lon":5.377367,"is_reserved":false,"is_disabled":false,"rental_uris":{"android":"levelo://app?vid=77073416-f815-46ad-b414-33ec95709bea","ios":"levelo://app?vid=77073416-f815-46ad-b414-33ec95709bea"},"vehicle_type_id":"4","last_reported":1707246374,"current_range_meters":31600,"station_id":"ce4bgth2rcd13ifvqch0","pricing_plan_id":"free"},{"bike_id":"f2788439-d11b-4309-9a2d-20dce1197347","system_id":"levelo_inurba_marseille","lat":43.317075,"lon":5.377367,"is_reserved":false,"is_disabled":false,"rental_uris":{"android":"levelo://app?vid=f2788439-d11b-4309-9a2d-20dce1197347","ios":"levelo://app?vid=f2788439-d11b-4309-9a2d-20dce1197347"},"vehicle_type_id":"4","last_reported":1707246374,"current_range_meters":18400,"station_id":"ce4bgth2rcd13ifvqch0","pricing_plan_id":"free"},{"bike_id":"0c466ccc-d747-4327-be86-c3896d0bbba3","system_id":"levelo_inurba_marseille","lat":43.317075,"lon":5.377367,"is_reserved":false,"is_disabled":false,"rental_uris":{"android":"levelo://app?vid=0c466ccc-d747-4327-be86-c3896d0bbba3","ios":"levelo://app?vid=0c466ccc-d747-4327-be86-c3896d0bbba3"},"vehicle_type_id":"4","last_reported":1707246374,"current_range_meters":31200,"station_id":"ce4bgth2rcd13ifvqch0","pricing_plan_id":"free"},{"bike_id":"c3eb0486-c9f1-4610-978a-c48f7af8fd75","system_id":"levelo_inurba_marseille","lat":43.315293,"lon":5.380349,"is_reserved":false,"is_disabled":false,"rental_uris":{"android":"levelo://app?vid=c3eb0486-c9f1-4610-978a-c48f7af8fd75","ios":"levelo://app?vid=c3eb0486-c9f1-4610-978a-c48f7af8fd75"},"vehicle_type_id":"4","last_reported":1707246374,"current_range_meters":11600,"station_id":"ce4bhsp2rcd13ifvqi50","pricing_plan_id":"free"},{"bike_id":"32b3688b-c940-47a5-8354-60d524c82719","system_id":"levelo_inurba_marseille","lat":43.30193,"lon":5.3662,"is_reserved":false,"is_disabled":false,"rental_uris":{"android":"levelo://app?vid=32b3688b-c940-47a5-8354-60d524c82719","ios":"levelo://app?vid=32b3688b-c940-47a5-8354-60d524c82719"},"vehicle_type_id":"4","last_reported":1707246374,"current_range_meters":0,"station_id":"ce4bgrh2rcd13ifvqc8g","pricing_plan_id":"free"},{"bike_id":"d3ae3842-43bd-4cae-aaeb-96795e02ec56","system_id":"levelo_inurba_marseille","lat":43.308012,"lon":5.381511,"is_reserved":false,"is_disabled":false,"rental_uris":{"android":"levelo://app?vid=d3ae3842-43bd-4cae-aaeb-96795e02ec56","ios":"levelo://app?vid=d3ae3842-43bd-4cae-aaeb-96795e02ec56"},"vehicle_type_id":"4","last_reported":1707246374,"current_range_meters":8800,"station_id":"ce4bgt12rcd13ifvqce0","pricing_plan_id":"free"},{"bike_id":"a394aba6-316e-493c-898e-32b69ac36ef0","system_id":"levelo_inurba_marseille","lat":43.308624,"lon":5.381811,"is_reserved":false,"is_disabled":false,"rental_uris":{"android":"levelo://app?vid=a394aba6-316e-493c-898e-32b69ac36ef0","ios":"levelo://app?vid=a394aba6-316e-493c-898e-32b69ac36ef0"},"vehicle_type_id":"4","last_reported":1707246374,"current_range_meters":17600,"station_id":"","pricing_plan_id":"free"},{"bike_id":"3181a382-09c4-4686-a78d-57cc9c8da4ac","system_id":"levelo_inurba_marseille","lat":43.308012,"lon":5.381511,"is_reserved":false,"is_disabled":false,"rental_uris":{"android":"levelo://app?vid=3181a382-09c4-4686-a78d-57cc9c8da4ac","ios":"levelo://app?vid=3181a382-09c4-4686-a78d-57cc9c8da4ac"},"vehicle_type_id":"4","last_reported":1707246374,"current_range_meters":14400,"station_id":"ce4bgt12rcd13ifvqce0","pricing_plan_id":"free"},{"bike_id":"97f71f75-d414-4d74-9636-20377fab8590","system_id":"levelo_inurba_marseille","lat":43.324771,"lon":5.36557,"is_reserved":false,"is_disabled":false,"rental_uris":{"android":"levelo://app?vid=97f71f75-d414-4d74-9636-20377fab8590","ios":"levelo://app?vid=97f71f75-d414-4d74-9636-20377fab8590"},"vehicle_type_id":"4","last_reported":1707246374,"current_range_meters":30400,"station_id":"ce4bhs12rcd13ifvqhvg","pricing_plan_id":"free"},{"bike_id":"5e3f4117-bf71-4295-8fac-b33a9c44e6b6","system_id":"levelo_inurba_marseille","lat":43.324771,"lon":5.36557,"is_reserved":false,"is_disabled":false,"rental_uris":{"android":"levelo://app?vid=5e3f4117-bf71-4295-8fac-b33a9c44e6b6","ios":"levelo://app?vid=5e3f4117-bf71-4295-8fac-b33a9c44e6b6"},"vehicle_type_id":"4","last_reported":1707246374,"current_range_meters":24000,"station_id":"ce4bhs12rcd13ifvqhvg","pricing_plan_id":"free"},{"bike_id":"edf45dfe-91d7-407a-b7d3-81c40bcf1454","system_id":"levelo_inurba_marseille","lat":43.31075,"lon":5.38359,"is_reserved":false,"is_disabled":false,"rental_uris":{"android":"levelo://app?vid=edf45dfe-91d7-407a-b7d3-81c40bcf1454","ios":"levelo://app?vid=edf45dfe-91d7-407a-b7d3-81c40bcf1454"},"vehicle_type_id":"4","last_reported":1707246374,"current_range_meters":27200,"station_id":"ce4bgv92rcd13ifvqcr0","pricing_plan_id":"free"},{"bike_id":"ebd7ee89-2181-44db-b791-3ebb567a7d6b","system_id":"levelo_inurba_marseille","lat":43.310724,"lon":5.383601,"is_reserved":false,"is_disabled":false,"rental_uris":{"android":"levelo://app?vid=ebd7ee89-2181-44db-b791-3ebb567a7d6b","ios":"levelo://app?vid=ebd7ee89-2181-44db-b791-3ebb567a7d6b"},"vehicle_type_id":"4","last_reported":1707246374,"current_range_meters":7600,"station_id":"ce4bgv92rcd13ifvqcr0","pricing_plan_id":"free"},{"bike_id":"919e23f4-28e3-46c5-b282-0fa33d736570","system_id":"levelo_inurba_marseille","lat":43.310762,"lon":5.383614,"is_reserved":false,"is_disabled":false,"rental_uris":{"android":"levelo://app?vid=919e23f4-28e3-46c5-b282-0fa33d736570","ios":"levelo://app?vid=919e23f4-28e3-46c5-b282-0fa33d736570"},"vehicle_type_id":"4","last_reported":1707246374,"current_range_meters":30000,"station_id":"ce4bgv92rcd13ifvqcr0","pricing_plan_id":"free"},{"bike_id":"26d48d1a-153e-48d1-9ba8-55050d55d591","system_id":"levelo_inurba_marseille","lat":43.30284,"lon":5.37698,"is_reserved":false,"is_disabled":false,"rental_uris":{"android":"levelo://app?vid=26d48d1a-153e-48d1-9ba8-55050d55d591","ios":"levelo://app?vid=26d48d1a-153e-48d1-9ba8-55050d55d591"},"vehicle_type_id":"4","last_reported":1707246374,"current_range_meters":0,"station_id":"ce4bguh2rcd13ifvqcj0","pricing_plan_id":"free"},{"bike_id":"7c20e289-a25a-40af-994e-4d7947cbd0b5","system_id":"levelo_inurba_marseille","lat":43.31069,"lon":5.38371,"is_reserved":false,"is_disabled":false,"rental_uris":{"android":"levelo://app?vid=7c20e289-a25a-40af-994e-4d7947cbd0b5","ios":"levelo://app?vid=7c20e289-a25a-40af-994e-4d7947cbd0b5"},"vehicle_type_id":"4","last_reported":1707246374,"current_range_meters":800,"station_id":"ce4bgv92rcd13ifvqcr0","pricing_plan_id":"free"},{"bike_id":"4d8d5f62-6088-4037-b539-493086adce56","system_id":"levelo_inurba_marseille","lat":43.30281,"lon":5.37716,"is_reserved":false,"is_disabled":false,"rental_uris":{"android":"levelo://app?vid=4d8d5f62-6088-4037-b539-493086adce56","ios":"levelo://app?vid=4d8d5f62-6088-4037-b539-493086adce56"},"vehicle_type_id":"4","last_reported":1707246374,"current_range_meters":800,"station_id":"ce4bguh2rcd13ifvqcj0","pricing_plan_id":"free"},{"bike_id":"4505dd3b-e70e-4db9-b95e-a6d146ab3434","system_id":"levelo_inurba_marseille","lat":43.319935,"lon":5.381699,"is_reserved":false,"is_disabled":false,"rental_uris":{"android":"levelo://app?vid=4505dd3b-e70e-4db9-b95e-a6d146ab3434","ios":"levelo://app?vid=4505dd3b-e70e-4db9-b95e-a6d146ab3434"},"vehicle_type_id":"4","last_reported":1707246374,"current_range_meters":14400,"station_id":"ce4bhr12rcd13ifvqhpg","pricing_plan_id":"free"},{"bike_id":"ccf2a241-3d64-4fde-891f-1d3d7e7db1c1","system_id":"levelo_inurba_marseille","lat":43.319935,"lon":5.381699,"is_reserved":false,"is_disabled":false,"rental_uris":{"android":"levelo://app?vid=ccf2a241-3d64-4fde-891f-1d3d7e7db1c1","ios":"levelo://app?vid=ccf2a241-3d64-4fde-891f-1d3d7e7db1c1"},"vehicle_type_id":"4","last_reported":1707246374,"current_range_meters":26400,"station_id":"ce4bhr12rcd13ifvqhpg","pricing_plan_id":"free"},{"bike_id":"12ce1b51-e513-48d4-8826-d38689553faa","system_id":"levelo_inurba_marseille","lat":43.319935,"lon":5.381699,"is_reserved":false,"is_disabled":false,"rental_uris":{"android":"levelo://app?vid=12ce1b51-e513-48d4-8826-d38689553faa","ios":"levelo://app?vid=12ce1b51-e513-48d4-8826-d38689553faa"},"vehicle_type_id":"4","last_reported":1707246374,"current_range_meters":26000,"station_id":"ce4bhr12rcd13ifvqhpg","pricing_plan_id":"free"},{"bike_id":"0abbaad6-12a6-4f04-8257-739b9ff8f24b","system_id":"levelo_inurba_marseille","lat":43.319935,"lon":5.381699,"is_reserved":false,"is_disabled":false,"rental_uris":{"android":"levelo://app?vid=0abbaad6-12a6-4f04-8257-739b9ff8f24b","ios":"levelo://app?vid=0abbaad6-12a6-4f04-8257-739b9ff8f24b"},"vehicle_type_id":"4","last_reported":1707246374,"current_range_meters":9600,"station_id":"ce4bhr12rcd13ifvqhpg","pricing_plan_id":"free"},{"bike_id":"cd1697dc-c996-412f-9980-2785b058e155","system_id":"levelo_inurba_marseille","lat":43.319935,"lon":5.381699,"is_reserved":false,"is_disabled":false,"rental_uris":{"android":"levelo://app?vid=cd1697dc-c996-412f-9980-2785b058e155","ios":"levelo://app?vid=cd1697dc-c996-412f-9980-2785b058e155"},"vehicle_type_id":"4","last_reported":1707246374,"current_range_meters":17600,"station_id":"ce4bhr12rcd13ifvqhpg","pricing_plan_id":"free"},{"bike_id":"1c25a4cd-9cf0-4c3b-88f3-a47ab8939f20","system_id":"levelo_inurba_marseille","lat":43.319947,"lon":5.3816,"is_reserved":false,"is_disabled":false,"rental_uris":{"android":"levelo://app?vid=1c25a4cd-9cf0-4c3b-88f3-a47ab8939f20","ios":"levelo://app?vid=1c25a4cd-9cf0-4c3b-88f3-a47ab8939f20"},"vehicle_type_id":"4","last_reported":1707246374,"current_range_meters":15200,"station_id":"ce4bhr12rcd13ifvqhpg","pricing_plan_id":"free"},{"bike_id":"3b3ba378-a266-417c-9c43-cb829e6481c7","system_id":"levelo_inurba_marseille","lat":43.31998,"lon":5.38163,"is_reserved":false,"is_disabled":false,"rental_uris":{"android":"levelo://app?vid=3b3ba378-a266-417c-9c43-cb829e6481c7","ios":"levelo://app?vid=3b3ba378-a266-417c-9c43-cb829e6481c7"},"vehicle_type_id":"4","last_reported":1707246374,"current_range_meters":5600,"station_id":"ce4bhr12rcd13ifvqhpg","pricing_plan_id":"free"},{"bike_id":"cd930c75-f2d0-49f4-a962-1ba9d506628f","system_id":"levelo_inurba_marseille","lat":43.319935,"lon":5.381699,"is_reserved":false,"is_disabled":false,"rental_uris":{"android":"levelo://app?vid=cd930c75-f2d0-49f4-a962-1ba9d506628f","ios":"levelo://app?vid=cd930c75-f2d0-49f4-a962-1ba9d506628f"},"vehicle_type_id":"4","last_reported":1707246374,"current_range_meters":18000,"station_id":"ce4bhr12rcd13ifvqhpg","pricing_plan_id":"free"},{"bike_id":"aa2daeb2-6e2c-44e2-a71a-635c5683cc13","system_id":"levelo_inurba_marseille","lat":43.313571,"lon":5.384829,"is_reserved":false,"is_disabled":false,"rental_uris":{"android":"levelo://app?vid=aa2daeb2-6e2c-44e2-a71a-635c5683cc13","ios":"levelo://app?vid=aa2daeb2-6e2c-44e2-a71a-635c5683cc13"},"vehicle_type_id":"4","last_reported":1707246374,"current_range_meters":6000,"station_id":"ce4bgt92rcd13ifvqcf0","pricing_plan_id":"free"},{"bike_id":"8656c34f-ea84-4265-adeb-d0e88a2b6dd8","system_id":"levelo_inurba_marseille","lat":43.313571,"lon":5.384829,"is_reserved":false,"is_disabled":false,"rental_uris":{"android":"levelo://app?vid=8656c34f-ea84-4265-adeb-d0e88a2b6dd8","ios":"levelo://app?vid=8656c34f-ea84-4265-adeb-d0e88a2b6dd8"},"vehicle_type_id":"4","last_reported":1707246374,"current_range_meters":31600,"station_id":"ce4bgt92rcd13ifvqcf0","pricing_plan_id":"free"},{"bike_id":"391a364e-5b2c-4db0-8f40-3d54489e8218","system_id":"levelo_inurba_marseille","lat":43.313571,"lon":5.384829,"is_reserved":false,"is_disabled":false,"rental_uris":{"android":"levelo://app?vid=391a364e-5b2c-4db0-8f40-3d54489e8218","ios":"levelo://app?vid=391a364e-5b2c-4db0-8f40-3d54489e8218"},"vehicle_type_id":"4","last_reported":1707246374,"current_range_meters":19600,"station_id":"ce4bgt92rcd13ifvqcf0","pricing_plan_id":"free"},{"bike_id":"efc61b0c-df87-4e70-8118-edca778d83e8","system_id":"levelo_inurba_marseille","lat":43.313571,"lon":5.384829,"is_reserved":false,"is_disabled":false,"rental_uris":{"android":"levelo://app?vid=efc61b0c-df87-4e70-8118-edca778d83e8","ios":"levelo://app?vid=efc61b0c-df87-4e70-8118-edca778d83e8"},"vehicle_type_id":"4","last_reported":1707246374,"current_range_meters":4000,"station_id":"ce4bgt92rcd13ifvqcf0","pricing_plan_id":"free"},{"bike_id":"a0fdb0de-f985-4692-8e62-3b9211ee337b","system_id":"levelo_inurba_marseille","lat":43.313571,"lon":5.384829,"is_reserved":false,"is_disabled":false,"rental_uris":{"android":"levelo://app?vid=a0fdb0de-f985-4692-8e62-3b9211ee337b","ios":"levelo://app?vid=a0fdb0de-f985-4692-8e62-3b9211ee337b"},"vehicle_type_id":"4","last_reported":1707246374,"current_range_meters":7600,"station_id":"ce4bgt92rcd13ifvqcf0","pricing_plan_id":"free"},{"bike_id":"c296969d-2eb2-46f0-8d1c-d054b0c44ad2","system_id":"levelo_inurba_marseille","lat":43.313571,"lon":5.384829,"is_reserved":false,"is_disabled":false,"rental_uris":{"android":"levelo://app?vid=c296969d-2eb2-46f0-8d1c-d054b0c44ad2","ios":"levelo://app?vid=c296969d-2eb2-46f0-8d1c-d054b0c44ad2"},"vehicle_type_id":"4","last_reported":1707246374,"current_range_meters":11600,"station_id":"ce4bgt92rcd13ifvqcf0","pricing_plan_id":"free"},{"bike_id":"8494b8d9-df90-488c-8a15-6eb73b95cc93","system_id":"levelo_inurba_marseille","lat":43.299724,"lon":5.371829,"is_reserved":false,"is_disabled":false,"rental_uris":{"android":"levelo://app?vid=8494b8d9-df90-488c-8a15-6eb73b95cc93","ios":"levelo://app?vid=8494b8d9-df90-488c-8a15-6eb73b95cc93"},"vehicle_type_id":"4","last_reported":1707246374,"current_range_meters":4000,"station_id":"ce4bgr92rcd13ifvqc7g","pricing_plan_id":"free"},{"bike_id":"d73908e2-2bfd-489b-804e-d4e95fac72d2","system_id":"levelo_inurba_marseille","lat":43.326525,"lon":5.36078,"is_reserved":false,"is_disabled":false,"rental_uris":{"android":"levelo://app?vid=d73908e2-2bfd-489b-804e-d4e95fac72d2","ios":"levelo://app?vid=d73908e2-2bfd-489b-804e-d4e95fac72d2"},"vehicle_type_id":"4","last_reported":1707246374,"current_range_meters":13600,"station_id":"","pricing_plan_id":"free"},{"bike_id":"ab6f4146-1617-4710-a21b-833275f73a07","system_id":"levelo_inurba_marseille","lat":43.314811,"lon":5.373103,"is_reserved":false,"is_disabled":false,"rental_uris":{"android":"levelo://app?vid=ab6f4146-1617-4710-a21b-833275f73a07","ios":"levelo://app?vid=ab6f4146-1617-4710-a21b-833275f73a07"},"vehicle_type_id":"4","last_reported":1707246374,"current_range_meters":31200,"station_id":"ce4bgt12rcd13ifvqcd0","pricing_plan_id":"free"},{"bike_id":"ed1a8f78-103e-4917-abec-bf090a0d64db","system_id":"levelo_inurba_marseille","lat":43.305364,"lon":5.384119,"is_reserved":false,"is_disabled":false,"rental_uris":{"android":"levelo://app?vid=ed1a8f78-103e-4917-abec-bf090a0d64db","ios":"levelo://app?vid=ed1a8f78-103e-4917-abec-bf090a0d64db"},"vehicle_type_id":"4","last_reported":1707246374,"current_range_meters":6400,"station_id":"ce4bgg92rcd13ifvqb30","pricing_plan_id":"free"},{"bike_id":"3fc89cb6-4d16-4d17-a377-8cd0e30d3458","system_id":"levelo_inurba_marseille","lat":43.299243,"lon":5.37481,"is_reserved":false,"is_disabled":false,"rental_uris":{"android":"levelo://app?vid=3fc89cb6-4d16-4d17-a377-8cd0e30d3458","ios":"levelo://app?vid=3fc89cb6-4d16-4d17-a377-8cd0e30d3458"},"vehicle_type_id":"4","last_reported":1707246374,"current_range_meters":14400,"station_id":"ce4bgjh2rcd13ifvqbg0","pricing_plan_id":"free"},{"bike_id":"b2dc5fd2-5881-44cd-9b2a-09345192f507","system_id":"levelo_inurba_marseille","lat":43.311722,"lon":5.387247,"is_reserved":false,"is_disabled":false,"rental_uris":{"android":"levelo://app?vid=b2dc5fd2-5881-44cd-9b2a-09345192f507","ios":"levelo://app?vid=b2dc5fd2-5881-44cd-9b2a-09345192f507"},"vehicle_type_id":"4","last_reported":1707246374,"current_range_meters":25200,"station_id":"ce4bgv12rcd13ifvqcp0","pricing_plan_id":"free"},{"bike_id":"251db69b-0529-447c-ab49-508126bf452a","system_id":"levelo_inurba_marseille","lat":43.31168,"lon":5.38725,"is_reserved":false,"is_disabled":false,"rental_uris":{"android":"levelo://app?vid=251db69b-0529-447c-ab49-508126bf452a","ios":"levelo://app?vid=251db69b-0529-447c-ab49-508126bf452a"},"vehicle_type_id":"4","last_reported":1707246374,"current_range_meters":2800,"station_id":"ce4bgv12rcd13ifvqcp0","pricing_plan_id":"free"},{"bike_id":"a6be166a-e1f3-4327-ace1-0262da7aa811","system_id":"levelo_inurba_marseille","lat":43.311722,"lon":5.387247,"is_reserved":false,"is_disabled":false,"rental_uris":{"android":"levelo://app?vid=a6be166a-e1f3-4327-ace1-0262da7aa811","ios":"levelo://app?vid=a6be166a-e1f3-4327-ace1-0262da7aa811"},"vehicle_type_id":"4","last_reported":1707246374,"current_range_meters":20000,"station_id":"ce4bgv12rcd13ifvqcp0","pricing_plan_id":"free"},{"bike_id":"ff9df7f2-38d4-40d4-8978-393b3d40240f","system_id":"levelo_inurba_marseille","lat":43.297794,"lon":5.370888,"is_reserved":false,"is_disabled":false,"rental_uris":{"android":"levelo://app?vid=ff9df7f2-38d4-40d4-8978-393b3d40240f","ios":"levelo://app?vid=ff9df7f2-38d4-40d4-8978-393b3d40240f"},"vehicle_type_id":"4","last_reported":1707246374,"current_range_meters":7600,"station_id":"ce4bgop2rcd13ifvqc1g","pricing_plan_id":"free"},{"bike_id":"4b50cb6d-3640-4e6d-b9bb-f3b16fa03eef","system_id":"levelo_inurba_marseille","lat":43.297794,"lon":5.370888,"is_reserved":false,"is_disabled":false,"rental_uris":{"android":"levelo://app?vid=4b50cb6d-3640-4e6d-b9bb-f3b16fa03eef","ios":"levelo://app?vid=4b50cb6d-3640-4e6d-b9bb-f3b16fa03eef"},"vehicle_type_id":"4","last_reported":1707246374,"current_range_meters":28800,"station_id":"ce4bgop2rcd13ifvqc1g","pricing_plan_id":"free"},{"bike_id":"d2d7d484-2620-4c65-9789-ab842ad939f0","system_id":"levelo_inurba_marseille","lat":43.297794,"lon":5.370888,"is_reserved":false,"is_disabled":false,"rental_uris":{"android":"levelo://app?vid=d2d7d484-2620-4c65-9789-ab842ad939f0","ios":"levelo://app?vid=d2d7d484-2620-4c65-9789-ab842ad939f0"},"vehicle_type_id":"4","last_reported":1707246374,"current_range_meters":31200,"station_id":"ce4bgop2rcd13ifvqc1g","pricing_plan_id":"free"},{"bike_id":"068825c3-0e30-4039-9991-0f25d2c61d15","system_id":"levelo_inurba_marseille","lat":43.327895,"lon":5.366955,"is_reserved":false,"is_disabled":false,"rental_uris":{"android":"levelo://app?vid=068825c3-0e30-4039-9991-0f25d2c61d15","ios":"levelo://app?vid=068825c3-0e30-4039-9991-0f25d2c61d15"},"vehicle_type_id":"4","last_reported":1707246374,"current_range_meters":15200,"station_id":"","pricing_plan_id":"free"},{"bike_id":"6ca7be04-e074-470e-a7b8-73e95713f944","system_id":"levelo_inurba_marseille","lat":43.297774,"lon":5.370875,"is_reserved":false,"is_disabled":false,"rental_uris":{"android":"levelo://app?vid=6ca7be04-e074-470e-a7b8-73e95713f944","ios":"levelo://app?vid=6ca7be04-e074-470e-a7b8-73e95713f944"},"vehicle_type_id":"4","last_reported":1707246374,"current_range_meters":6400,"station_id":"ce4bgop2rcd13ifvqc1g","pricing_plan_id":"free"},{"bike_id":"f05ba268-8024-4397-b67e-d5d6848bf3c7","system_id":"levelo_inurba_marseille","lat":43.322872,"lon":5.382756,"is_reserved":false,"is_disabled":false,"rental_uris":{"android":"levelo://app?vid=f05ba268-8024-4397-b67e-d5d6848bf3c7","ios":"levelo://app?vid=f05ba268-8024-4397-b67e-d5d6848bf3c7"},"vehicle_type_id":"4","last_reported":1707246374,"current_range_meters":21200,"station_id":"ce4bhr12rcd13ifvqhqg","pricing_plan_id":"free"},{"bike_id":"aeda78ec-de39-407e-8a5b-89262fd5c123","system_id":"levelo_inurba_marseille","lat":43.322872,"lon":5.382756,"is_reserved":false,"is_disabled":false,"rental_uris":{"android":"levelo://app?vid=aeda78ec-de39-407e-8a5b-89262fd5c123","ios":"levelo://app?vid=aeda78ec-de39-407e-8a5b-89262fd5c123"},"vehicle_type_id":"4","last_reported":1707246374,"current_range_meters":30000,"station_id":"ce4bhr12rcd13ifvqhqg","pricing_plan_id":"free"},{"bike_id":"2e7d1277-a3ec-4c37-831b-c0b641935959","system_id":"levelo_inurba_marseille","lat":43.32817,"lon":5.36694,"is_reserved":false,"is_disabled":false,"rental_uris":{"android":"levelo://app?vid=2e7d1277-a3ec-4c37-831b-c0b641935959","ios":"levelo://app?vid=2e7d1277-a3ec-4c37-831b-c0b641935959"},"vehicle_type_id":"4","last_reported":1707246374,"current_range_meters":11600,"station_id":"ce4bhs92rcd13ifvqi0g","pricing_plan_id":"free"},{"bike_id":"1900e2ea-9239-49b1-933e-57903fa99707","system_id":"levelo_inurba_marseille","lat":43.32826,"lon":5.36695,"is_reserved":false,"is_disabled":false,"rental_uris":{"android":"levelo://app?vid=1900e2ea-9239-49b1-933e-57903fa99707","ios":"levelo://app?vid=1900e2ea-9239-49b1-933e-57903fa99707"},"vehicle_type_id":"4","last_reported":1707246374,"current_range_meters":2400,"station_id":"ce4bhs92rcd13ifvqi0g","pricing_plan_id":"free"},{"bike_id":"752b438a-8c6c-4573-b771-477e2c6e9126","system_id":"levelo_inurba_marseille","lat":43.32826,"lon":5.3668,"is_reserved":false,"is_disabled":false,"rental_uris":{"android":"levelo://app?vid=752b438a-8c6c-4573-b771-477e2c6e9126","ios":"levelo://app?vid=752b438a-8c6c-4573-b771-477e2c6e9126"},"vehicle_type_id":"4","last_reported":1707246374,"current_range_meters":20000,"station_id":"ce4bhs92rcd13ifvqi0g","pricing_plan_id":"free"},{"bike_id":"5c57f415-95d6-428c-9dfc-4fb51ef0c85b","system_id":"levelo_inurba_marseille","lat":43.32827,"lon":5.36695,"is_reserved":false,"is_disabled":false,"rental_uris":{"android":"levelo://app?vid=5c57f415-95d6-428c-9dfc-4fb51ef0c85b","ios":"levelo://app?vid=5c57f415-95d6-428c-9dfc-4fb51ef0c85b"},"vehicle_type_id":"4","last_reported":1707246374,"current_range_meters":18800,"station_id":"ce4bhs92rcd13ifvqi0g","pricing_plan_id":"free"},{"bike_id":"6cd6b889-8d57-4573-b2a2-aa0a2c9636a8","system_id":"levelo_inurba_marseille","lat":43.32827,"lon":5.36672,"is_reserved":false,"is_disabled":false,"rental_uris":{"android":"levelo://app?vid=6cd6b889-8d57-4573-b2a2-aa0a2c9636a8","ios":"levelo://app?vid=6cd6b889-8d57-4573-b2a2-aa0a2c9636a8"},"vehicle_type_id":"4","last_reported":1707246374,"current_range_meters":800,"station_id":"ce4bhs92rcd13ifvqi0g","pricing_plan_id":"free"},{"bike_id":"6a5b4a9f-7323-472e-b759-8dae709cba6c","system_id":"levelo_inurba_marseille","lat":43.3283,"lon":5.36674,"is_reserved":false,"is_disabled":false,"rental_uris":{"android":"levelo://app?vid=6a5b4a9f-7323-472e-b759-8dae709cba6c","ios":"levelo://app?vid=6a5b4a9f-7323-472e-b759-8dae709cba6c"},"vehicle_type_id":"4","last_reported":1707246374,"current_range_meters":14400,"station_id":"ce4bhs92rcd13ifvqi0g","pricing_plan_id":"free"},{"bike_id":"edc20a40-193c-4187-8cea-08e6765f7c9c","system_id":"levelo_inurba_marseille","lat":43.328304,"lon":5.366807,"is_reserved":false,"is_disabled":false,"rental_uris":{"android":"levelo://app?vid=edc20a40-193c-4187-8cea-08e6765f7c9c","ios":"levelo://app?vid=edc20a40-193c-4187-8cea-08e6765f7c9c"},"vehicle_type_id":"4","last_reported":1707246374,"current_range_meters":15600,"station_id":"ce4bhs92rcd13ifvqi0g","pricing_plan_id":"free"},{"bike_id":"46ffd311-8d24-4a9c-a424-d0bccfd813b8","system_id":"levelo_inurba_marseille","lat":43.328313,"lon":5.366848,"is_reserved":false,"is_disabled":false,"rental_uris":{"android":"levelo://app?vid=46ffd311-8d24-4a9c-a424-d0bccfd813b8","ios":"levelo://app?vid=46ffd311-8d24-4a9c-a424-d0bccfd813b8"},"vehicle_type_id":"4","last_reported":1707246374,"current_range_meters":4400,"station_id":"ce4bhs92rcd13ifvqi0g","pricing_plan_id":"free"},{"bike_id":"a7f79efb-1544-4a9c-90b1-63c97e52bce2","system_id":"levelo_inurba_marseille","lat":43.328328,"lon":5.366802,"is_reserved":false,"is_disabled":false,"rental_uris":{"android":"levelo://app?vid=a7f79efb-1544-4a9c-90b1-63c97e52bce2","ios":"levelo://app?vid=a7f79efb-1544-4a9c-90b1-63c97e52bce2"},"vehicle_type_id":"4","last_reported":1707246374,"current_range_meters":10400,"station_id":"ce4bhs92rcd13ifvqi0g","pricing_plan_id":"free"},{"bike_id":"36243836-0b62-45d5-b00e-078a5c9e3add","system_id":"levelo_inurba_marseille","lat":43.32835,"lon":5.36682,"is_reserved":false,"is_disabled":false,"rental_uris":{"android":"levelo://app?vid=36243836-0b62-45d5-b00e-078a5c9e3add","ios":"levelo://app?vid=36243836-0b62-45d5-b00e-078a5c9e3add"},"vehicle_type_id":"4","last_reported":1707246374,"current_range_meters":5200,"station_id":"ce4bhs92rcd13ifvqi0g","pricing_plan_id":"free"},{"bike_id":"655782ea-adc5-4c9e-a8c7-608dca9d4db8","system_id":"levelo_inurba_marseille","lat":43.328371,"lon":5.366912,"is_reserved":false,"is_disabled":false,"rental_uris":{"android":"levelo://app?vid=655782ea-adc5-4c9e-a8c7-608dca9d4db8","ios":"levelo://app?vid=655782ea-adc5-4c9e-a8c7-608dca9d4db8"},"vehicle_type_id":"4","last_reported":1707246374,"current_range_meters":21200,"station_id":"ce4bhs92rcd13ifvqi0g","pricing_plan_id":"free"},{"bike_id":"621aba33-e0ee-41a6-8352-82f8e5926791","system_id":"levelo_inurba_marseille","lat":43.296129,"lon":5.370777,"is_reserved":false,"is_disabled":false,"rental_uris":{"android":"levelo://app?vid=621aba33-e0ee-41a6-8352-82f8e5926791","ios":"levelo://app?vid=621aba33-e0ee-41a6-8352-82f8e5926791"},"vehicle_type_id":"4","last_reported":1707246374,"current_range_meters":2800,"station_id":"ce4bgnh2rcd13ifvqc0g","pricing_plan_id":"free"},{"bike_id":"6d641340-5ff6-48a4-960e-62bcb5d0c13f","system_id":"levelo_inurba_marseille","lat":43.296131,"lon":5.370791,"is_reserved":false,"is_disabled":false,"rental_uris":{"android":"levelo://app?vid=6d641340-5ff6-48a4-960e-62bcb5d0c13f","ios":"levelo://app?vid=6d641340-5ff6-48a4-960e-62bcb5d0c13f"},"vehicle_type_id":"4","last_reported":1707246374,"current_range_meters":10000,"station_id":"ce4bgnh2rcd13ifvqc0g","pricing_plan_id":"free"},{"bike_id":"9982bc20-d33e-48ff-a4e9-17b17faad8bd","system_id":"levelo_inurba_marseille","lat":43.296131,"lon":5.370791,"is_reserved":false,"is_disabled":false,"rental_uris":{"android":"levelo://app?vid=9982bc20-d33e-48ff-a4e9-17b17faad8bd","ios":"levelo://app?vid=9982bc20-d33e-48ff-a4e9-17b17faad8bd"},"vehicle_type_id":"4","last_reported":1707246374,"current_range_meters":27200,"station_id":"ce4bgnh2rcd13ifvqc0g","pricing_plan_id":"free"},{"bike_id":"72721b08-aa5c-4e8b-a0bc-6bf3c8f04ad1","system_id":"levelo_inurba_marseille","lat":43.29573,"lon":5.367355,"is_reserved":false,"is_disabled":false,"rental_uris":{"android":"levelo://app?vid=72721b08-aa5c-4e8b-a0bc-6bf3c8f04ad1","ios":"levelo://app?vid=72721b08-aa5c-4e8b-a0bc-6bf3c8f04ad1"},"vehicle_type_id":"4","last_reported":1707246374,"current_range_meters":30400,"station_id":"ce4bgph2rcd13ifvqc2g","pricing_plan_id":"free"},{"bike_id":"4fce755f-fbf8-4b65-bac2-7c715a42b871","system_id":"levelo_inurba_marseille","lat":43.29573,"lon":5.367355,"is_reserved":false,"is_disabled":false,"rental_uris":{"android":"levelo://app?vid=4fce755f-fbf8-4b65-bac2-7c715a42b871","ios":"levelo://app?vid=4fce755f-fbf8-4b65-bac2-7c715a42b871"},"vehicle_type_id":"4","last_reported":1707246374,"current_range_meters":5600,"station_id":"ce4bgph2rcd13ifvqc2g","pricing_plan_id":"free"},{"bike_id":"e2586598-a0c4-4ee3-b966-31497b432dd6","system_id":"levelo_inurba_marseille","lat":43.29573,"lon":5.367355,"is_reserved":false,"is_disabled":false,"rental_uris":{"android":"levelo://app?vid=e2586598-a0c4-4ee3-b966-31497b432dd6","ios":"levelo://app?vid=e2586598-a0c4-4ee3-b966-31497b432dd6"},"vehicle_type_id":"4","last_reported":1707246374,"current_range_meters":2800,"station_id":"ce4bgph2rcd13ifvqc2g","pricing_plan_id":"free"},{"bike_id":"e4bb53a1-da6a-45c5-a2b9-558cdf738964","system_id":"levelo_inurba_marseille","lat":43.299028,"lon":5.381509,"is_reserved":false,"is_disabled":false,"rental_uris":{"android":"levelo://app?vid=e4bb53a1-da6a-45c5-a2b9-558cdf738964","ios":"levelo://app?vid=e4bb53a1-da6a-45c5-a2b9-558cdf738964"},"vehicle_type_id":"4","last_reported":1707246374,"current_range_meters":6400,"station_id":"ce4bgj12rcd13ifvqbc0","pricing_plan_id":"free"},{"bike_id":"3f1e14a9-3609-40ba-a9c8-0c16ac302dc6","system_id":"levelo_inurba_marseille","lat":43.317557,"lon":5.390173,"is_reserved":false,"is_disabled":false,"rental_uris":{"android":"levelo://app?vid=3f1e14a9-3609-40ba-a9c8-0c16ac302dc6","ios":"levelo://app?vid=3f1e14a9-3609-40ba-a9c8-0c16ac302dc6"},"vehicle_type_id":"4","last_reported":1707246374,"current_range_meters":9200,"station_id":"ce4bhqp2rcd13ifvqhng","pricing_plan_id":"free"},{"bike_id":"b393e380-9b9a-4239-8934-e30e3f7bac4e","system_id":"levelo_inurba_marseille","lat":43.31738,"lon":5.3901,"is_reserved":false,"is_disabled":false,"rental_uris":{"android":"levelo://app?vid=b393e380-9b9a-4239-8934-e30e3f7bac4e","ios":"levelo://app?vid=b393e380-9b9a-4239-8934-e30e3f7bac4e"},"vehicle_type_id":"4","last_reported":1707246374,"current_range_meters":15600,"station_id":"ce4bhqp2rcd13ifvqhng","pricing_plan_id":"free"},{"bike_id":"acfb1a76-9d92-4e60-b5a5-bb928051e624","system_id":"levelo_inurba_marseille","lat":43.317557,"lon":5.390173,"is_reserved":false,"is_disabled":false,"rental_uris":{"android":"levelo://app?vid=acfb1a76-9d92-4e60-b5a5-bb928051e624","ios":"levelo://app?vid=acfb1a76-9d92-4e60-b5a5-bb928051e624"},"vehicle_type_id":"4","last_reported":1707246374,"current_range_meters":30000,"station_id":"ce4bhqp2rcd13ifvqhng","pricing_plan_id":"free"},{"bike_id":"8236458b-34ca-49b5-ab60-c4f12ac61945","system_id":"levelo_inurba_marseille","lat":43.31755,"lon":5.39015,"is_reserved":false,"is_disabled":false,"rental_uris":{"android":"levelo://app?vid=8236458b-34ca-49b5-ab60-c4f12ac61945","ios":"levelo://app?vid=8236458b-34ca-49b5-ab60-c4f12ac61945"},"vehicle_type_id":"4","last_reported":1707246374,"current_range_meters":16400,"station_id":"ce4bhqp2rcd13ifvqhng","pricing_plan_id":"free"},{"bike_id":"3ccd3931-8811-4b7f-a846-c32a0a6915a2","system_id":"levelo_inurba_marseille","lat":43.317557,"lon":5.390173,"is_reserved":false,"is_disabled":false,"rental_uris":{"android":"levelo://app?vid=3ccd3931-8811-4b7f-a846-c32a0a6915a2","ios":"levelo://app?vid=3ccd3931-8811-4b7f-a846-c32a0a6915a2"},"vehicle_type_id":"4","last_reported":1707246374,"current_range_meters":26000,"station_id":"ce4bhqp2rcd13ifvqhng","pricing_plan_id":"free"},{"bike_id":"cd483cf2-ddf7-4bc2-8846-13c380942b93","system_id":"levelo_inurba_marseille","lat":43.31758,"lon":5.39016,"is_reserved":false,"is_disabled":false,"rental_uris":{"android":"levelo://app?vid=cd483cf2-ddf7-4bc2-8846-13c380942b93","ios":"levelo://app?vid=cd483cf2-ddf7-4bc2-8846-13c380942b93"},"vehicle_type_id":"4","last_reported":1707246374,"current_range_meters":21200,"station_id":"ce4bhqp2rcd13ifvqhng","pricing_plan_id":"free"},{"bike_id":"3c453d5b-83dd-4499-9d12-a38d59d5c115","system_id":"levelo_inurba_marseille","lat":43.317576,"lon":5.390175,"is_reserved":false,"is_disabled":false,"rental_uris":{"android":"levelo://app?vid=3c453d5b-83dd-4499-9d12-a38d59d5c115","ios":"levelo://app?vid=3c453d5b-83dd-4499-9d12-a38d59d5c115"},"vehicle_type_id":"4","last_reported":1707246374,"current_range_meters":21200,"station_id":"ce4bhqp2rcd13ifvqhng","pricing_plan_id":"free"},{"bike_id":"cff55c77-7ebe-4284-bc48-2fbd9d0bf89e","system_id":"levelo_inurba_marseille","lat":43.31757,"lon":5.3902,"is_reserved":false,"is_disabled":false,"rental_uris":{"android":"levelo://app?vid=cff55c77-7ebe-4284-bc48-2fbd9d0bf89e","ios":"levelo://app?vid=cff55c77-7ebe-4284-bc48-2fbd9d0bf89e"},"vehicle_type_id":"4","last_reported":1707246374,"current_range_meters":18000,"station_id":"ce4bhqp2rcd13ifvqhng","pricing_plan_id":"free"},{"bike_id":"9268b101-79ac-4bcb-b66b-b3aa5eb7916b","system_id":"levelo_inurba_marseille","lat":43.31753,"lon":5.39024,"is_reserved":false,"is_disabled":false,"rental_uris":{"android":"levelo://app?vid=9268b101-79ac-4bcb-b66b-b3aa5eb7916b","ios":"levelo://app?vid=9268b101-79ac-4bcb-b66b-b3aa5eb7916b"},"vehicle_type_id":"4","last_reported":1707246374,"current_range_meters":18000,"station_id":"ce4bhqp2rcd13ifvqhng","pricing_plan_id":"free"},{"bike_id":"353a8076-fe4e-4941-bf3d-10e08d5bd46a","system_id":"levelo_inurba_marseille","lat":43.31754,"lon":5.39029,"is_reserved":false,"is_disabled":false,"rental_uris":{"android":"levelo://app?vid=353a8076-fe4e-4941-bf3d-10e08d5bd46a","ios":"levelo://app?vid=353a8076-fe4e-4941-bf3d-10e08d5bd46a"},"vehicle_type_id":"4","last_reported":1707246374,"current_range_meters":3600,"station_id":"ce4bhqp2rcd13ifvqhng","pricing_plan_id":"free"},{"bike_id":"211f186d-35fc-4407-a75f-a4e75d95c601","system_id":"levelo_inurba_marseille","lat":43.31757,"lon":5.39033,"is_reserved":false,"is_disabled":false,"rental_uris":{"android":"levelo://app?vid=211f186d-35fc-4407-a75f-a4e75d95c601","ios":"levelo://app?vid=211f186d-35fc-4407-a75f-a4e75d95c601"},"vehicle_type_id":"4","last_reported":1707246374,"current_range_meters":2400,"station_id":"ce4bhqp2rcd13ifvqhng","pricing_plan_id":"free"},{"bike_id":"7aef56eb-d693-4292-baae-a62fd37a6730","system_id":"levelo_inurba_marseille","lat":43.295803,"lon":5.375017,"is_reserved":false,"is_disabled":false,"rental_uris":{"android":"levelo://app?vid=7aef56eb-d693-4292-baae-a62fd37a6730","ios":"levelo://app?vid=7aef56eb-d693-4292-baae-a62fd37a6730"},"vehicle_type_id":"4","last_reported":1707246374,"current_range_meters":0,"station_id":"ce4bgh92rcd13ifvqb50","pricing_plan_id":"free"},{"bike_id":"9efa0dd4-d057-40ac-ac2d-68b20024c31c","system_id":"levelo_inurba_marseille","lat":43.298,"lon":5.38099,"is_reserved":false,"is_disabled":false,"rental_uris":{"android":"levelo://app?vid=9efa0dd4-d057-40ac-ac2d-68b20024c31c","ios":"levelo://app?vid=9efa0dd4-d057-40ac-ac2d-68b20024c31c"},"vehicle_type_id":"4","last_reported":1707246374,"current_range_meters":0,"station_id":"ce4bgip2rcd13ifvqbb0","pricing_plan_id":"free"},{"bike_id":"a06cdc39-6e1d-45a9-9686-ce34a6a12677","system_id":"levelo_inurba_marseille","lat":43.29577,"lon":5.37525,"is_reserved":false,"is_disabled":false,"rental_uris":{"android":"levelo://app?vid=a06cdc39-6e1d-45a9-9686-ce34a6a12677","ios":"levelo://app?vid=a06cdc39-6e1d-45a9-9686-ce34a6a12677"},"vehicle_type_id":"4","last_reported":1707246374,"current_range_meters":0,"station_id":"ce4bgh92rcd13ifvqb50","pricing_plan_id":"free"},{"bike_id":"bc971d59-4cad-44cc-b678-7fba9d9d01c1","system_id":"levelo_inurba_marseille","lat":43.304274,"lon":5.388873,"is_reserved":false,"is_disabled":false,"rental_uris":{"android":"levelo://app?vid=bc971d59-4cad-44cc-b678-7fba9d9d01c1","ios":"levelo://app?vid=bc971d59-4cad-44cc-b678-7fba9d9d01c1"},"vehicle_type_id":"4","last_reported":1707246374,"current_range_meters":8000,"station_id":"ce4bgk12rcd13ifvqbi0","pricing_plan_id":"free"},{"bike_id":"16cf5350-94d7-4f28-935e-f9bbb4a45752","system_id":"levelo_inurba_marseille","lat":43.30444,"lon":5.38895,"is_reserved":false,"is_disabled":false,"rental_uris":{"android":"levelo://app?vid=16cf5350-94d7-4f28-935e-f9bbb4a45752","ios":"levelo://app?vid=16cf5350-94d7-4f28-935e-f9bbb4a45752"},"vehicle_type_id":"4","last_reported":1707246374,"current_range_meters":29200,"station_id":"ce4bgk12rcd13ifvqbi0","pricing_plan_id":"free"},{"bike_id":"b41ee59d-63ff-4d47-ac16-848845685e71","system_id":"levelo_inurba_marseille","lat":43.304274,"lon":5.388873,"is_reserved":false,"is_disabled":false,"rental_uris":{"android":"levelo://app?vid=b41ee59d-63ff-4d47-ac16-848845685e71","ios":"levelo://app?vid=b41ee59d-63ff-4d47-ac16-848845685e71"},"vehicle_type_id":"4","last_reported":1707246374,"current_range_meters":6000,"station_id":"ce4bgk12rcd13ifvqbi0","pricing_plan_id":"free"},{"bike_id":"cd3b3dd6-b6c7-4ef7-9b7f-3feb8a84d13d","system_id":"levelo_inurba_marseille","lat":43.304274,"lon":5.388873,"is_reserved":false,"is_disabled":false,"rental_uris":{"android":"levelo://app?vid=cd3b3dd6-b6c7-4ef7-9b7f-3feb8a84d13d","ios":"levelo://app?vid=cd3b3dd6-b6c7-4ef7-9b7f-3feb8a84d13d"},"vehicle_type_id":"4","last_reported":1707246374,"current_range_meters":15200,"station_id":"ce4bgk12rcd13ifvqbi0","pricing_plan_id":"free"},{"bike_id":"3ba48370-fef9-4b57-98eb-bfa2a50b5a14","system_id":"levelo_inurba_marseille","lat":43.30424,"lon":5.38892,"is_reserved":false,"is_disabled":false,"rental_uris":{"android":"levelo://app?vid=3ba48370-fef9-4b57-98eb-bfa2a50b5a14","ios":"levelo://app?vid=3ba48370-fef9-4b57-98eb-bfa2a50b5a14"},"vehicle_type_id":"4","last_reported":1707246374,"current_range_meters":7600,"station_id":"ce4bgk12rcd13ifvqbi0","pricing_plan_id":"free"},{"bike_id":"fdbcd3a9-43d0-49d7-9330-85a6500ed82d","system_id":"levelo_inurba_marseille","lat":43.30432,"lon":5.38898,"is_reserved":false,"is_disabled":false,"rental_uris":{"android":"levelo://app?vid=fdbcd3a9-43d0-49d7-9330-85a6500ed82d","ios":"levelo://app?vid=fdbcd3a9-43d0-49d7-9330-85a6500ed82d"},"vehicle_type_id":"4","last_reported":1707246374,"current_range_meters":6400,"station_id":"ce4bgk12rcd13ifvqbi0","pricing_plan_id":"free"},{"bike_id":"2a77e1ae-5ec3-418d-8e99-0c62b4ebca27","system_id":"levelo_inurba_marseille","lat":43.30426,"lon":5.38894,"is_reserved":false,"is_disabled":false,"rental_uris":{"android":"levelo://app?vid=2a77e1ae-5ec3-418d-8e99-0c62b4ebca27","ios":"levelo://app?vid=2a77e1ae-5ec3-418d-8e99-0c62b4ebca27"},"vehicle_type_id":"4","last_reported":1707246374,"current_range_meters":6800,"station_id":"ce4bgk12rcd13ifvqbi0","pricing_plan_id":"free"},{"bike_id":"a5840176-9691-4c82-ba7c-d26d82407395","system_id":"levelo_inurba_marseille","lat":43.304274,"lon":5.388873,"is_reserved":false,"is_disabled":false,"rental_uris":{"android":"levelo://app?vid=a5840176-9691-4c82-ba7c-d26d82407395","ios":"levelo://app?vid=a5840176-9691-4c82-ba7c-d26d82407395"},"vehicle_type_id":"4","last_reported":1707246374,"current_range_meters":16000,"station_id":"ce4bgk12rcd13ifvqbi0","pricing_plan_id":"free"},{"bike_id":"c92648a0-07c2-4c03-8a41-edb88d69f0a3","system_id":"levelo_inurba_marseille","lat":43.304274,"lon":5.388873,"is_reserved":false,"is_disabled":false,"rental_uris":{"android":"levelo://app?vid=c92648a0-07c2-4c03-8a41-edb88d69f0a3","ios":"levelo://app?vid=c92648a0-07c2-4c03-8a41-edb88d69f0a3"},"vehicle_type_id":"4","last_reported":1707246374,"current_range_meters":1600,"station_id":"ce4bgk12rcd13ifvqbi0","pricing_plan_id":"free"},{"bike_id":"50c34e34-929e-476f-9b25-d9dc6dd969e9","system_id":"levelo_inurba_marseille","lat":43.30429,"lon":5.38901,"is_reserved":false,"is_disabled":false,"rental_uris":{"android":"levelo://app?vid=50c34e34-929e-476f-9b25-d9dc6dd969e9","ios":"levelo://app?vid=50c34e34-929e-476f-9b25-d9dc6dd969e9"},"vehicle_type_id":"4","last_reported":1707246374,"current_range_meters":18000,"station_id":"ce4bgk12rcd13ifvqbi0","pricing_plan_id":"free"},{"bike_id":"f24f4f23-d90e-4cbc-a105-35407d03b3e3","system_id":"levelo_inurba_marseille","lat":43.304274,"lon":5.388873,"is_reserved":false,"is_disabled":false,"rental_uris":{"android":"levelo://app?vid=f24f4f23-d90e-4cbc-a105-35407d03b3e3","ios":"levelo://app?vid=f24f4f23-d90e-4cbc-a105-35407d03b3e3"},"vehicle_type_id":"4","last_reported":1707246374,"current_range_meters":25200,"station_id":"ce4bgk12rcd13ifvqbi0","pricing_plan_id":"free"},{"bike_id":"b5141ba7-6874-4746-9b9f-00266101119c","system_id":"levelo_inurba_marseille","lat":43.304274,"lon":5.388873,"is_reserved":false,"is_disabled":false,"rental_uris":{"android":"levelo://app?vid=b5141ba7-6874-4746-9b9f-00266101119c","ios":"levelo://app?vid=b5141ba7-6874-4746-9b9f-00266101119c"},"vehicle_type_id":"4","last_reported":1707246374,"current_range_meters":21200,"station_id":"ce4bgk12rcd13ifvqbi0","pricing_plan_id":"free"},{"bike_id":"3b07cbfa-5c14-4621-b388-c4706716d335","system_id":"levelo_inurba_marseille","lat":43.29743,"lon":5.38099,"is_reserved":false,"is_disabled":false,"rental_uris":{"android":"levelo://app?vid=3b07cbfa-5c14-4621-b388-c4706716d335","ios":"levelo://app?vid=3b07cbfa-5c14-4621-b388-c4706716d335"},"vehicle_type_id":"4","last_reported":1707246374,"current_range_meters":1600,"station_id":"","pricing_plan_id":"free"},{"bike_id":"09c4a6e4-128a-4c18-887a-5545204c4a60","system_id":"levelo_inurba_marseille","lat":43.295254,"lon":5.37511,"is_reserved":false,"is_disabled":false,"rental_uris":{"android":"levelo://app?vid=09c4a6e4-128a-4c18-887a-5545204c4a60","ios":"levelo://app?vid=09c4a6e4-128a-4c18-887a-5545204c4a60"},"vehicle_type_id":"4","last_reported":1707246374,"current_range_meters":0,"station_id":"ce4bgk12rcd13ifvqbj0","pricing_plan_id":"free"},{"bike_id":"1fa86947-ff8a-40c3-b80c-29cad3680748","system_id":"levelo_inurba_marseille","lat":43.29524,"lon":5.37506,"is_reserved":false,"is_disabled":false,"rental_uris":{"android":"levelo://app?vid=1fa86947-ff8a-40c3-b80c-29cad3680748","ios":"levelo://app?vid=1fa86947-ff8a-40c3-b80c-29cad3680748"},"vehicle_type_id":"4","last_reported":1707246374,"current_range_meters":0,"station_id":"ce4bgkp2rcd13ifvqbmg","pricing_plan_id":"free"},{"bike_id":"70559c2d-8fe6-47aa-b4f0-4e39c3b91e2c","system_id":"levelo_inurba_marseille","lat":43.295748,"lon":5.37522,"is_reserved":false,"is_disabled":false,"rental_uris":{"android":"levelo://app?vid=70559c2d-8fe6-47aa-b4f0-4e39c3b91e2c","ios":"levelo://app?vid=70559c2d-8fe6-47aa-b4f0-4e39c3b91e2c"},"vehicle_type_id":"4","last_reported":1707246374,"current_range_meters":21600,"station_id":"ce4bgh92rcd13ifvqb50","pricing_plan_id":"free"},{"bike_id":"46d741ab-1984-46f1-a814-adb7cb454311","system_id":"levelo_inurba_marseille","lat":43.299717,"lon":5.384845,"is_reserved":false,"is_disabled":false,"rental_uris":{"android":"levelo://app?vid=46d741ab-1984-46f1-a814-adb7cb454311","ios":"levelo://app?vid=46d741ab-1984-46f1-a814-adb7cb454311"},"vehicle_type_id":"4","last_reported":1707246374,"current_range_meters":4800,"station_id":"ce4bgj92rcd13ifvqbd0","pricing_plan_id":"free"},{"bike_id":"dc2fe26c-ebf7-42b4-a832-56673387c633","system_id":"levelo_inurba_marseille","lat":43.299717,"lon":5.384845,"is_reserved":false,"is_disabled":false,"rental_uris":{"android":"levelo://app?vid=dc2fe26c-ebf7-42b4-a832-56673387c633","ios":"levelo://app?vid=dc2fe26c-ebf7-42b4-a832-56673387c633"},"vehicle_type_id":"4","last_reported":1707246374,"current_range_meters":18800,"station_id":"ce4bgj92rcd13ifvqbd0","pricing_plan_id":"free"},{"bike_id":"265cb0f4-3d8f-4916-a783-ac1888dc3e61","system_id":"levelo_inurba_marseille","lat":43.299724,"lon":5.384848,"is_reserved":false,"is_disabled":false,"rental_uris":{"android":"levelo://app?vid=265cb0f4-3d8f-4916-a783-ac1888dc3e61","ios":"levelo://app?vid=265cb0f4-3d8f-4916-a783-ac1888dc3e61"},"vehicle_type_id":"4","last_reported":1707246374,"current_range_meters":22000,"station_id":"ce4bgj92rcd13ifvqbd0","pricing_plan_id":"free"},{"bike_id":"ed5d3f68-f6ae-4628-a68b-31e6c4c8b97c","system_id":"levelo_inurba_marseille","lat":43.32367,"lon":5.388836,"is_reserved":false,"is_disabled":false,"rental_uris":{"android":"levelo://app?vid=ed5d3f68-f6ae-4628-a68b-31e6c4c8b97c","ios":"levelo://app?vid=ed5d3f68-f6ae-4628-a68b-31e6c4c8b97c"},"vehicle_type_id":"4","last_reported":1707246374,"current_range_meters":800,"station_id":"ce4bhqp2rcd13ifvqhog","pricing_plan_id":"free"},{"bike_id":"b2180001-e57d-42eb-b057-d6791a6c5f13","system_id":"levelo_inurba_marseille","lat":43.323616,"lon":5.388819,"is_reserved":false,"is_disabled":false,"rental_uris":{"android":"levelo://app?vid=b2180001-e57d-42eb-b057-d6791a6c5f13","ios":"levelo://app?vid=b2180001-e57d-42eb-b057-d6791a6c5f13"},"vehicle_type_id":"4","last_reported":1707246374,"current_range_meters":10000,"station_id":"ce4bhqp2rcd13ifvqhog","pricing_plan_id":"free"},{"bike_id":"606777c4-4d1f-4822-a9c7-ca190e9d7ac9","system_id":"levelo_inurba_marseille","lat":43.32367,"lon":5.388836,"is_reserved":false,"is_disabled":false,"rental_uris":{"android":"levelo://app?vid=606777c4-4d1f-4822-a9c7-ca190e9d7ac9","ios":"levelo://app?vid=606777c4-4d1f-4822-a9c7-ca190e9d7ac9"},"vehicle_type_id":"4","last_reported":1707246374,"current_range_meters":3600,"station_id":"ce4bhqp2rcd13ifvqhog","pricing_plan_id":"free"},{"bike_id":"0457b434-45e4-4e7f-8b13-ad3297283c5a","system_id":"levelo_inurba_marseille","lat":43.32359,"lon":5.38887,"is_reserved":false,"is_disabled":false,"rental_uris":{"android":"levelo://app?vid=0457b434-45e4-4e7f-8b13-ad3297283c5a","ios":"levelo://app?vid=0457b434-45e4-4e7f-8b13-ad3297283c5a"},"vehicle_type_id":"4","last_reported":1707246374,"current_range_meters":4000,"station_id":"ce4bhqp2rcd13ifvqhog","pricing_plan_id":"free"},{"bike_id":"27e7d923-81e0-4c18-9a4b-aeb5de43f55c","system_id":"levelo_inurba_marseille","lat":43.32367,"lon":5.388836,"is_reserved":false,"is_disabled":false,"rental_uris":{"android":"levelo://app?vid=27e7d923-81e0-4c18-9a4b-aeb5de43f55c","ios":"levelo://app?vid=27e7d923-81e0-4c18-9a4b-aeb5de43f55c"},"vehicle_type_id":"4","last_reported":1707246374,"current_range_meters":18800,"station_id":"ce4bhqp2rcd13ifvqhog","pricing_plan_id":"free"},{"bike_id":"e46e8ff3-6efb-422c-88bb-36c5e9ce66e4","system_id":"levelo_inurba_marseille","lat":43.32367,"lon":5.388836,"is_reserved":false,"is_disabled":false,"rental_uris":{"android":"levelo://app?vid=e46e8ff3-6efb-422c-88bb-36c5e9ce66e4","ios":"levelo://app?vid=e46e8ff3-6efb-422c-88bb-36c5e9ce66e4"},"vehicle_type_id":"4","last_reported":1707246374,"current_range_meters":12400,"station_id":"ce4bhqp2rcd13ifvqhog","pricing_plan_id":"free"},{"bike_id":"ff7066c7-aa1b-4d2c-a675-1a72e0d147ce","system_id":"levelo_inurba_marseille","lat":43.323666,"lon":5.388821,"is_reserved":false,"is_disabled":false,"rental_uris":{"android":"levelo://app?vid=ff7066c7-aa1b-4d2c-a675-1a72e0d147ce","ios":"levelo://app?vid=ff7066c7-aa1b-4d2c-a675-1a72e0d147ce"},"vehicle_type_id":"4","last_reported":1707246374,"current_range_meters":8000,"station_id":"ce4bhqp2rcd13ifvqhog","pricing_plan_id":"free"},{"bike_id":"2699b29a-e584-4936-892c-96f311fc0314","system_id":"levelo_inurba_marseille","lat":43.32367,"lon":5.388836,"is_reserved":false,"is_disabled":false,"rental_uris":{"android":"levelo://app?vid=2699b29a-e584-4936-892c-96f311fc0314","ios":"levelo://app?vid=2699b29a-e584-4936-892c-96f311fc0314"},"vehicle_type_id":"4","last_reported":1707246374,"current_range_meters":6800,"station_id":"ce4bhqp2rcd13ifvqhog","pricing_plan_id":"free"},{"bike_id":"8b53a42d-07d1-44d1-95b6-3a8a98cff51c","system_id":"levelo_inurba_marseille","lat":43.32365,"lon":5.38886,"is_reserved":false,"is_disabled":false,"rental_uris":{"android":"levelo://app?vid=8b53a42d-07d1-44d1-95b6-3a8a98cff51c","ios":"levelo://app?vid=8b53a42d-07d1-44d1-95b6-3a8a98cff51c"},"vehicle_type_id":"4","last_reported":1707246374,"current_range_meters":15200,"station_id":"ce4bhqp2rcd13ifvqhog","pricing_plan_id":"free"},{"bike_id":"593326ed-2cc1-41f5-9d97-b4674f983682","system_id":"levelo_inurba_marseille","lat":43.32367,"lon":5.388836,"is_reserved":false,"is_disabled":false,"rental_uris":{"android":"levelo://app?vid=593326ed-2cc1-41f5-9d97-b4674f983682","ios":"levelo://app?vid=593326ed-2cc1-41f5-9d97-b4674f983682"},"vehicle_type_id":"4","last_reported":1707246374,"current_range_meters":9200,"station_id":"ce4bhqp2rcd13ifvqhog","pricing_plan_id":"free"},{"bike_id":"3fe0c29f-f28e-40b2-905d-90d7cef8d959","system_id":"levelo_inurba_marseille","lat":43.29602,"lon":5.381084,"is_reserved":false,"is_disabled":false,"rental_uris":{"android":"levelo://app?vid=3fe0c29f-f28e-40b2-905d-90d7cef8d959","ios":"levelo://app?vid=3fe0c29f-f28e-40b2-905d-90d7cef8d959"},"vehicle_type_id":"4","last_reported":1707246374,"current_range_meters":7200,"station_id":"ce4bgl12rcd13ifvqbo0","pricing_plan_id":"free"},{"bike_id":"52c0111d-085c-4743-ad09-54a0c47e7ac1","system_id":"levelo_inurba_marseille","lat":43.29601,"lon":5.381084,"is_reserved":false,"is_disabled":false,"rental_uris":{"android":"levelo://app?vid=52c0111d-085c-4743-ad09-54a0c47e7ac1","ios":"levelo://app?vid=52c0111d-085c-4743-ad09-54a0c47e7ac1"},"vehicle_type_id":"4","last_reported":1707246374,"current_range_meters":3200,"station_id":"ce4bgl12rcd13ifvqbo0","pricing_plan_id":"free"},{"bike_id":"fe897604-19bd-4bc2-848f-a50d1d48e378","system_id":"levelo_inurba_marseille","lat":43.29308,"lon":5.37168,"is_reserved":false,"is_disabled":false,"rental_uris":{"android":"levelo://app?vid=fe897604-19bd-4bc2-848f-a50d1d48e378","ios":"levelo://app?vid=fe897604-19bd-4bc2-848f-a50d1d48e378"},"vehicle_type_id":"4","last_reported":1707246374,"current_range_meters":30000,"station_id":"ce4bgh92rcd13ifvqb40","pricing_plan_id":"free"},{"bike_id":"e15e7b3a-16c6-4d17-9453-8aa3ff55d2b2","system_id":"levelo_inurba_marseille","lat":43.293259,"lon":5.371586,"is_reserved":false,"is_disabled":false,"rental_uris":{"android":"levelo://app?vid=e15e7b3a-16c6-4d17-9453-8aa3ff55d2b2","ios":"levelo://app?vid=e15e7b3a-16c6-4d17-9453-8aa3ff55d2b2"},"vehicle_type_id":"4","last_reported":1707246374,"current_range_meters":1200,"station_id":"ce4bgh92rcd13ifvqb40","pricing_plan_id":"free"},{"bike_id":"79660a42-d39b-4560-a249-26ba4908e931","system_id":"levelo_inurba_marseille","lat":43.293259,"lon":5.371586,"is_reserved":false,"is_disabled":false,"rental_uris":{"android":"levelo://app?vid=79660a42-d39b-4560-a249-26ba4908e931","ios":"levelo://app?vid=79660a42-d39b-4560-a249-26ba4908e931"},"vehicle_type_id":"4","last_reported":1707246374,"current_range_meters":15600,"station_id":"ce4bgh92rcd13ifvqb40","pricing_plan_id":"free"},{"bike_id":"62b34a1f-443c-4da4-a03f-ca90de1b9600","system_id":"levelo_inurba_marseille","lat":43.293259,"lon":5.371586,"is_reserved":false,"is_disabled":false,"rental_uris":{"android":"levelo://app?vid=62b34a1f-443c-4da4-a03f-ca90de1b9600","ios":"levelo://app?vid=62b34a1f-443c-4da4-a03f-ca90de1b9600"},"vehicle_type_id":"4","last_reported":1707246374,"current_range_meters":4800,"station_id":"ce4bgh92rcd13ifvqb40","pricing_plan_id":"free"},{"bike_id":"6e6393a5-9ff5-4aec-b695-e3bb34499563","system_id":"levelo_inurba_marseille","lat":43.292757,"lon":5.368487,"is_reserved":false,"is_disabled":false,"rental_uris":{"android":"levelo://app?vid=6e6393a5-9ff5-4aec-b695-e3bb34499563","ios":"levelo://app?vid=6e6393a5-9ff5-4aec-b695-e3bb34499563"},"vehicle_type_id":"4","last_reported":1707246374,"current_range_meters":12800,"station_id":"","pricing_plan_id":"free"},{"bike_id":"4c3ddc08-8293-4c9e-9d66-1f1ed3249823","system_id":"levelo_inurba_marseille","lat":43.292749,"lon":5.368402,"is_reserved":false,"is_disabled":false,"rental_uris":{"android":"levelo://app?vid=4c3ddc08-8293-4c9e-9d66-1f1ed3249823","ios":"levelo://app?vid=4c3ddc08-8293-4c9e-9d66-1f1ed3249823"},"vehicle_type_id":"4","last_reported":1707246374,"current_range_meters":2800,"station_id":"ce4bhbp2rcd13ifvqesg","pricing_plan_id":"free"},{"bike_id":"76aa3ddb-9cd5-47e9-9670-6980963fbb45","system_id":"levelo_inurba_marseille","lat":43.293249,"lon":5.371578,"is_reserved":false,"is_disabled":false,"rental_uris":{"android":"levelo://app?vid=76aa3ddb-9cd5-47e9-9670-6980963fbb45","ios":"levelo://app?vid=76aa3ddb-9cd5-47e9-9670-6980963fbb45"},"vehicle_type_id":"4","last_reported":1707246374,"current_range_meters":18000,"station_id":"ce4bgh92rcd13ifvqb40","pricing_plan_id":"free"},{"bike_id":"969f5b8c-0771-4fd2-8969-d6a4a2923cb8","system_id":"levelo_inurba_marseille","lat":43.29269,"lon":5.36853,"is_reserved":false,"is_disabled":false,"rental_uris":{"android":"levelo://app?vid=969f5b8c-0771-4fd2-8969-d6a4a2923cb8","ios":"levelo://app?vid=969f5b8c-0771-4fd2-8969-d6a4a2923cb8"},"vehicle_type_id":"4","last_reported":1707246374,"current_range_meters":4800,"station_id":"","pricing_plan_id":"free"},{"bike_id":"58ce6322-a791-48f0-8bcc-95a1314180fc","system_id":"levelo_inurba_marseille","lat":43.29551,"lon":5.381633,"is_reserved":false,"is_disabled":false,"rental_uris":{"android":"levelo://app?vid=58ce6322-a791-48f0-8bcc-95a1314180fc","ios":"levelo://app?vid=58ce6322-a791-48f0-8bcc-95a1314180fc"},"vehicle_type_id":"4","last_reported":1707246374,"current_range_meters":30400,"station_id":"","pricing_plan_id":"free"},{"bike_id":"da409b75-d2e4-4442-b902-25f89852ce70","system_id":"levelo_inurba_marseille","lat":43.305994,"lon":5.393687,"is_reserved":false,"is_disabled":false,"rental_uris":{"android":"levelo://app?vid=da409b75-d2e4-4442-b902-25f89852ce70","ios":"levelo://app?vid=da409b75-d2e4-4442-b902-25f89852ce70"},"vehicle_type_id":"4","last_reported":1707246374,"current_range_meters":1600,"station_id":"ce4bh0p2rcd13ifvqd80","pricing_plan_id":"free"},{"bike_id":"dc776fb7-b13d-4622-ae3b-14e51fbc321a","system_id":"levelo_inurba_marseille","lat":43.29301,"lon":5.37457,"is_reserved":false,"is_disabled":false,"rental_uris":{"android":"levelo://app?vid=dc776fb7-b13d-4622-ae3b-14e51fbc321a","ios":"levelo://app?vid=dc776fb7-b13d-4622-ae3b-14e51fbc321a"},"vehicle_type_id":"4","last_reported":1707246374,"current_range_meters":0,"station_id":"ce4bgi12rcd13ifvqb70","pricing_plan_id":"free"},{"bike_id":"6ddbc76a-874a-42b7-bd1b-3739e1302dc2","system_id":"levelo_inurba_marseille","lat":43.30593,"lon":5.39351,"is_reserved":false,"is_disabled":false,"rental_uris":{"android":"levelo://app?vid=6ddbc76a-874a-42b7-bd1b-3739e1302dc2","ios":"levelo://app?vid=6ddbc76a-874a-42b7-bd1b-3739e1302dc2"},"vehicle_type_id":"4","last_reported":1707246374,"current_range_meters":1200,"station_id":"ce4bh0p2rcd13ifvqd80","pricing_plan_id":"free"},{"bike_id":"5fed27df-4206-47e2-8dc3-c388462ffe27","system_id":"levelo_inurba_marseille","lat":43.305994,"lon":5.393687,"is_reserved":false,"is_disabled":false,"rental_uris":{"android":"levelo://app?vid=5fed27df-4206-47e2-8dc3-c388462ffe27","ios":"levelo://app?vid=5fed27df-4206-47e2-8dc3-c388462ffe27"},"vehicle_type_id":"4","last_reported":1707246374,"current_range_meters":6800,"station_id":"ce4bh0p2rcd13ifvqd80","pricing_plan_id":"free"},{"bike_id":"87ba5c96-b187-4089-9325-82d68dbdbbd2","system_id":"levelo_inurba_marseille","lat":43.30591,"lon":5.39352,"is_reserved":false,"is_disabled":false,"rental_uris":{"android":"levelo://app?vid=87ba5c96-b187-4089-9325-82d68dbdbbd2","ios":"levelo://app?vid=87ba5c96-b187-4089-9325-82d68dbdbbd2"},"vehicle_type_id":"4","last_reported":1707246374,"current_range_meters":6400,"station_id":"ce4bh0p2rcd13ifvqd80","pricing_plan_id":"free"},{"bike_id":"2d26dcf2-03fb-4ead-a16b-7de14c3bedf7","system_id":"levelo_inurba_marseille","lat":43.293009,"lon":5.374584,"is_reserved":false,"is_disabled":false,"rental_uris":{"android":"levelo://app?vid=2d26dcf2-03fb-4ead-a16b-7de14c3bedf7","ios":"levelo://app?vid=2d26dcf2-03fb-4ead-a16b-7de14c3bedf7"},"vehicle_type_id":"4","last_reported":1707246374,"current_range_meters":8400,"station_id":"ce4bgi12rcd13ifvqb70","pricing_plan_id":"free"},{"bike_id":"afa5118c-02f9-4b96-8acf-de09767c2716","system_id":"levelo_inurba_marseille","lat":43.30599,"lon":5.39357,"is_reserved":false,"is_disabled":false,"rental_uris":{"android":"levelo://app?vid=afa5118c-02f9-4b96-8acf-de09767c2716","ios":"levelo://app?vid=afa5118c-02f9-4b96-8acf-de09767c2716"},"vehicle_type_id":"4","last_reported":1707246374,"current_range_meters":12800,"station_id":"ce4bh0p2rcd13ifvqd80","pricing_plan_id":"free"},{"bike_id":"e710aa62-bee5-430d-b515-0c082491c406","system_id":"levelo_inurba_marseille","lat":43.305994,"lon":5.393687,"is_reserved":false,"is_disabled":false,"rental_uris":{"android":"levelo://app?vid=e710aa62-bee5-430d-b515-0c082491c406","ios":"levelo://app?vid=e710aa62-bee5-430d-b515-0c082491c406"},"vehicle_type_id":"4","last_reported":1707246374,"current_range_meters":18400,"station_id":"ce4bh0p2rcd13ifvqd80","pricing_plan_id":"free"},{"bike_id":"1710e1a6-da8e-41ac-8eb4-42653750c2ea","system_id":"levelo_inurba_marseille","lat":43.293009,"lon":5.374584,"is_reserved":false,"is_disabled":false,"rental_uris":{"android":"levelo://app?vid=1710e1a6-da8e-41ac-8eb4-42653750c2ea","ios":"levelo://app?vid=1710e1a6-da8e-41ac-8eb4-42653750c2ea"},"vehicle_type_id":"4","last_reported":1707246374,"current_range_meters":10800,"station_id":"ce4bgi12rcd13ifvqb70","pricing_plan_id":"free"},{"bike_id":"e2e0e75b-a8e8-414b-9df0-f1c0eab311cd","system_id":"levelo_inurba_marseille","lat":43.293009,"lon":5.374584,"is_reserved":false,"is_disabled":false,"rental_uris":{"android":"levelo://app?vid=e2e0e75b-a8e8-414b-9df0-f1c0eab311cd","ios":"levelo://app?vid=e2e0e75b-a8e8-414b-9df0-f1c0eab311cd"},"vehicle_type_id":"4","last_reported":1707246374,"current_range_meters":4800,"station_id":"ce4bgi12rcd13ifvqb70","pricing_plan_id":"free"},{"bike_id":"e197a4cc-0242-4f03-8f3c-647c7e3e3cd2","system_id":"levelo_inurba_marseille","lat":43.293009,"lon":5.374584,"is_reserved":false,"is_disabled":false,"rental_uris":{"android":"levelo://app?vid=e197a4cc-0242-4f03-8f3c-647c7e3e3cd2","ios":"levelo://app?vid=e197a4cc-0242-4f03-8f3c-647c7e3e3cd2"},"vehicle_type_id":"4","last_reported":1707246374,"current_range_meters":12800,"station_id":"ce4bgi12rcd13ifvqb70","pricing_plan_id":"free"},{"bike_id":"42c68e63-aea3-4d55-95e8-6caaeefe2b8c","system_id":"levelo_inurba_marseille","lat":43.293009,"lon":5.374584,"is_reserved":false,"is_disabled":false,"rental_uris":{"android":"levelo://app?vid=42c68e63-aea3-4d55-95e8-6caaeefe2b8c","ios":"levelo://app?vid=42c68e63-aea3-4d55-95e8-6caaeefe2b8c"},"vehicle_type_id":"4","last_reported":1707246374,"current_range_meters":5200,"station_id":"ce4bgi12rcd13ifvqb70","pricing_plan_id":"free"},{"bike_id":"bbac393a-041e-4166-9786-1f2a65248fde","system_id":"levelo_inurba_marseille","lat":43.30351,"lon":5.39241,"is_reserved":false,"is_disabled":false,"rental_uris":{"android":"levelo://app?vid=bbac393a-041e-4166-9786-1f2a65248fde","ios":"levelo://app?vid=bbac393a-041e-4166-9786-1f2a65248fde"},"vehicle_type_id":"4","last_reported":1707246374,"current_range_meters":0,"station_id":"ce4bgup2rcd13ifvqco0","pricing_plan_id":"free"},{"bike_id":"0013219f-5d8a-4650-831e-8e508185c441","system_id":"levelo_inurba_marseille","lat":43.2936,"lon":5.37835,"is_reserved":false,"is_disabled":false,"rental_uris":{"android":"levelo://app?vid=0013219f-5d8a-4650-831e-8e508185c441","ios":"levelo://app?vid=0013219f-5d8a-4650-831e-8e508185c441"},"vehicle_type_id":"4","last_reported":1707246374,"current_range_meters":5200,"station_id":"ce4bgjh2rcd13ifvqbf0","pricing_plan_id":"free"},{"bike_id":"5b08f849-ad6d-481e-8168-8f7391220200","system_id":"levelo_inurba_marseille","lat":43.2936,"lon":5.37835,"is_reserved":false,"is_disabled":false,"rental_uris":{"android":"levelo://app?vid=5b08f849-ad6d-481e-8168-8f7391220200","ios":"levelo://app?vid=5b08f849-ad6d-481e-8168-8f7391220200"},"vehicle_type_id":"4","last_reported":1707246374,"current_range_meters":12800,"station_id":"ce4bgjh2rcd13ifvqbf0","pricing_plan_id":"free"},{"bike_id":"6b987cf1-9803-48ae-96cd-cb3760d32629","system_id":"levelo_inurba_marseille","lat":43.302992,"lon":5.392136,"is_reserved":false,"is_disabled":false,"rental_uris":{"android":"levelo://app?vid=6b987cf1-9803-48ae-96cd-cb3760d32629","ios":"levelo://app?vid=6b987cf1-9803-48ae-96cd-cb3760d32629"},"vehicle_type_id":"4","last_reported":1707246374,"current_range_meters":19600,"station_id":"ce4bgkh2rcd13ifvqbk0","pricing_plan_id":"free"},{"bike_id":"f69b4d12-00fd-473f-9c2b-3b4312339423","system_id":"levelo_inurba_marseille","lat":43.292311,"lon":5.360731,"is_reserved":false,"is_disabled":false,"rental_uris":{"android":"levelo://app?vid=f69b4d12-00fd-473f-9c2b-3b4312339423","ios":"levelo://app?vid=f69b4d12-00fd-473f-9c2b-3b4312339423"},"vehicle_type_id":"4","last_reported":1707246374,"current_range_meters":3600,"station_id":"ce4bhbh2rcd13ifvqeqg","pricing_plan_id":"free"},{"bike_id":"286b1a03-e549-4802-982a-242b9e310c4b","system_id":"levelo_inurba_marseille","lat":43.292311,"lon":5.360731,"is_reserved":false,"is_disabled":false,"rental_uris":{"android":"levelo://app?vid=286b1a03-e549-4802-982a-242b9e310c4b","ios":"levelo://app?vid=286b1a03-e549-4802-982a-242b9e310c4b"},"vehicle_type_id":"4","last_reported":1707246374,"current_range_meters":6000,"station_id":"ce4bhbh2rcd13ifvqeqg","pricing_plan_id":"free"},{"bike_id":"6801da67-275f-4e0b-bc8b-bf7308a5dbb8","system_id":"levelo_inurba_marseille","lat":43.292311,"lon":5.360731,"is_reserved":false,"is_disabled":false,"rental_uris":{"android":"levelo://app?vid=6801da67-275f-4e0b-bc8b-bf7308a5dbb8","ios":"levelo://app?vid=6801da67-275f-4e0b-bc8b-bf7308a5dbb8"},"vehicle_type_id":"4","last_reported":1707246374,"current_range_meters":9200,"station_id":"ce4bhbh2rcd13ifvqeqg","pricing_plan_id":"free"},{"bike_id":"9210730d-9b0c-430c-a7ce-345400d0b08b","system_id":"levelo_inurba_marseille","lat":43.292311,"lon":5.360731,"is_reserved":false,"is_disabled":false,"rental_uris":{"android":"levelo://app?vid=9210730d-9b0c-430c-a7ce-345400d0b08b","ios":"levelo://app?vid=9210730d-9b0c-430c-a7ce-345400d0b08b"},"vehicle_type_id":"4","last_reported":1707246374,"current_range_meters":4000,"station_id":"ce4bhbh2rcd13ifvqeqg","pricing_plan_id":"free"},{"bike_id":"aa8e04ba-be2e-4339-9795-206832de60ae","system_id":"levelo_inurba_marseille","lat":43.300852,"lon":5.390859,"is_reserved":false,"is_disabled":false,"rental_uris":{"android":"levelo://app?vid=aa8e04ba-be2e-4339-9795-206832de60ae","ios":"levelo://app?vid=aa8e04ba-be2e-4339-9795-206832de60ae"},"vehicle_type_id":"4","last_reported":1707246374,"current_range_meters":2800,"station_id":"ce4bh192rcd13ifvqdb0","pricing_plan_id":"free"},{"bike_id":"6c9be7ad-6ff9-4aad-ac53-6a802f19da0d","system_id":"levelo_inurba_marseille","lat":43.300852,"lon":5.390859,"is_reserved":false,"is_disabled":false,"rental_uris":{"android":"levelo://app?vid=6c9be7ad-6ff9-4aad-ac53-6a802f19da0d","ios":"levelo://app?vid=6c9be7ad-6ff9-4aad-ac53-6a802f19da0d"},"vehicle_type_id":"4","last_reported":1707246374,"current_range_meters":0,"station_id":"ce4bh192rcd13ifvqdb0","pricing_plan_id":"free"},{"bike_id":"4e65c051-f04e-4766-80a9-6ce07018b1ee","system_id":"levelo_inurba_marseille","lat":43.29224,"lon":5.36067,"is_reserved":false,"is_disabled":false,"rental_uris":{"android":"levelo://app?vid=4e65c051-f04e-4766-80a9-6ce07018b1ee","ios":"levelo://app?vid=4e65c051-f04e-4766-80a9-6ce07018b1ee"},"vehicle_type_id":"4","last_reported":1707246374,"current_range_meters":17200,"station_id":"ce4bhbh2rcd13ifvqeqg","pricing_plan_id":"free"},{"bike_id":"49290904-eddd-4a81-b37f-488b2ae83369","system_id":"levelo_inurba_marseille","lat":43.292717,"lon":5.37628,"is_reserved":false,"is_disabled":false,"rental_uris":{"android":"levelo://app?vid=49290904-eddd-4a81-b37f-488b2ae83369","ios":"levelo://app?vid=49290904-eddd-4a81-b37f-488b2ae83369"},"vehicle_type_id":"4","last_reported":1707246374,"current_range_meters":16800,"station_id":"","pricing_plan_id":"free"},{"bike_id":"cd21f8e0-3a7d-41aa-9b94-f81489a3b2d8","system_id":"levelo_inurba_marseille","lat":43.298764,"lon":5.388973,"is_reserved":false,"is_disabled":false,"rental_uris":{"android":"levelo://app?vid=cd21f8e0-3a7d-41aa-9b94-f81489a3b2d8","ios":"levelo://app?vid=cd21f8e0-3a7d-41aa-9b94-f81489a3b2d8"},"vehicle_type_id":"4","last_reported":1707246374,"current_range_meters":9600,"station_id":"ce4bh392rcd13ifvqdl0","pricing_plan_id":"free"},{"bike_id":"ef9a195a-2426-4756-a1cd-7077e67863c6","system_id":"levelo_inurba_marseille","lat":43.29264,"lon":5.37626,"is_reserved":false,"is_disabled":false,"rental_uris":{"android":"levelo://app?vid=ef9a195a-2426-4756-a1cd-7077e67863c6","ios":"levelo://app?vid=ef9a195a-2426-4756-a1cd-7077e67863c6"},"vehicle_type_id":"4","last_reported":1707246374,"current_range_meters":0,"station_id":"","pricing_plan_id":"free"},{"bike_id":"a1afe782-e9cb-47f0-9d01-892a158a0338","system_id":"levelo_inurba_marseille","lat":43.298764,"lon":5.388973,"is_reserved":false,"is_disabled":false,"rental_uris":{"android":"levelo://app?vid=a1afe782-e9cb-47f0-9d01-892a158a0338","ios":"levelo://app?vid=a1afe782-e9cb-47f0-9d01-892a158a0338"},"vehicle_type_id":"4","last_reported":1707246374,"current_range_meters":24800,"station_id":"ce4bh392rcd13ifvqdl0","pricing_plan_id":"free"},{"bike_id":"90239795-e499-4480-bc55-5cd64000e114","system_id":"levelo_inurba_marseille","lat":43.291671,"lon":5.371575,"is_reserved":false,"is_disabled":false,"rental_uris":{"android":"levelo://app?vid=90239795-e499-4480-bc55-5cd64000e114","ios":"levelo://app?vid=90239795-e499-4480-bc55-5cd64000e114"},"vehicle_type_id":"4","last_reported":1707246374,"current_range_meters":11600,"station_id":"ce4bha92rcd13ifvqeh0","pricing_plan_id":"free"},{"bike_id":"4fe50c59-7b96-4517-9276-3122e8a46f6c","system_id":"levelo_inurba_marseille","lat":43.291675,"lon":5.371583,"is_reserved":false,"is_disabled":false,"rental_uris":{"android":"levelo://app?vid=4fe50c59-7b96-4517-9276-3122e8a46f6c","ios":"levelo://app?vid=4fe50c59-7b96-4517-9276-3122e8a46f6c"},"vehicle_type_id":"4","last_reported":1707246374,"current_range_meters":16800,"station_id":"ce4bha92rcd13ifvqeh0","pricing_plan_id":"free"},{"bike_id":"ece43188-c299-4708-a837-951e82a81733","system_id":"levelo_inurba_marseille","lat":43.291675,"lon":5.371583,"is_reserved":false,"is_disabled":false,"rental_uris":{"android":"levelo://app?vid=ece43188-c299-4708-a837-951e82a81733","ios":"levelo://app?vid=ece43188-c299-4708-a837-951e82a81733"},"vehicle_type_id":"4","last_reported":1707246374,"current_range_meters":17600,"station_id":"ce4bha92rcd13ifvqeh0","pricing_plan_id":"free"},{"bike_id":"00bd8a87-0bf7-4dc0-ab09-76fbe6583ba7","system_id":"levelo_inurba_marseille","lat":43.298764,"lon":5.388973,"is_reserved":false,"is_disabled":false,"rental_uris":{"android":"levelo://app?vid=00bd8a87-0bf7-4dc0-ab09-76fbe6583ba7","ios":"levelo://app?vid=00bd8a87-0bf7-4dc0-ab09-76fbe6583ba7"},"vehicle_type_id":"4","last_reported":1707246374,"current_range_meters":18800,"station_id":"ce4bh392rcd13ifvqdl0","pricing_plan_id":"free"},{"bike_id":"faaa9245-b3a8-4524-a369-1a1ebff91b03","system_id":"levelo_inurba_marseille","lat":43.291675,"lon":5.371583,"is_reserved":false,"is_disabled":false,"rental_uris":{"android":"levelo://app?vid=faaa9245-b3a8-4524-a369-1a1ebff91b03","ios":"levelo://app?vid=faaa9245-b3a8-4524-a369-1a1ebff91b03"},"vehicle_type_id":"4","last_reported":1707246374,"current_range_meters":5600,"station_id":"ce4bha92rcd13ifvqeh0","pricing_plan_id":"free"},{"bike_id":"daf05c2b-0468-468a-bf21-c423a7a21505","system_id":"levelo_inurba_marseille","lat":43.291671,"lon":5.371575,"is_reserved":false,"is_disabled":false,"rental_uris":{"android":"levelo://app?vid=daf05c2b-0468-468a-bf21-c423a7a21505","ios":"levelo://app?vid=daf05c2b-0468-468a-bf21-c423a7a21505"},"vehicle_type_id":"4","last_reported":1707246374,"current_range_meters":30000,"station_id":"ce4bha92rcd13ifvqeh0","pricing_plan_id":"free"},{"bike_id":"de3ad7d1-98bd-49b5-8186-632a703a60e0","system_id":"levelo_inurba_marseille","lat":43.298764,"lon":5.388973,"is_reserved":false,"is_disabled":false,"rental_uris":{"android":"levelo://app?vid=de3ad7d1-98bd-49b5-8186-632a703a60e0","ios":"levelo://app?vid=de3ad7d1-98bd-49b5-8186-632a703a60e0"},"vehicle_type_id":"4","last_reported":1707246374,"current_range_meters":25600,"station_id":"ce4bh392rcd13ifvqdl0","pricing_plan_id":"free"},{"bike_id":"1d3218f6-d2d5-4898-9582-0918c32cb924","system_id":"levelo_inurba_marseille","lat":43.298764,"lon":5.388973,"is_reserved":false,"is_disabled":false,"rental_uris":{"android":"levelo://app?vid=1d3218f6-d2d5-4898-9582-0918c32cb924","ios":"levelo://app?vid=1d3218f6-d2d5-4898-9582-0918c32cb924"},"vehicle_type_id":"4","last_reported":1707246374,"current_range_meters":1200,"station_id":"ce4bh392rcd13ifvqdl0","pricing_plan_id":"free"},{"bike_id":"00561447-ee10-4eb0-b131-5a93bc3b9d70","system_id":"levelo_inurba_marseille","lat":43.29873,"lon":5.38917,"is_reserved":false,"is_disabled":false,"rental_uris":{"android":"levelo://app?vid=00561447-ee10-4eb0-b131-5a93bc3b9d70","ios":"levelo://app?vid=00561447-ee10-4eb0-b131-5a93bc3b9d70"},"vehicle_type_id":"4","last_reported":1707246374,"current_range_meters":7200,"station_id":"ce4bh392rcd13ifvqdl0","pricing_plan_id":"free"},{"bike_id":"a4d2c80f-fd7c-4538-a317-651c25819b59","system_id":"levelo_inurba_marseille","lat":43.291994,"lon":5.357886,"is_reserved":false,"is_disabled":false,"rental_uris":{"android":"levelo://app?vid=a4d2c80f-fd7c-4538-a317-651c25819b59","ios":"levelo://app?vid=a4d2c80f-fd7c-4538-a317-651c25819b59"},"vehicle_type_id":"4","last_reported":1707246374,"current_range_meters":10800,"station_id":"ce4bhb12rcd13ifvqel0","pricing_plan_id":"free"},{"bike_id":"d35e5a1f-caa2-40a6-acc0-a0667c5b74de","system_id":"levelo_inurba_marseille","lat":43.313291,"lon":5.396838,"is_reserved":false,"is_disabled":false,"rental_uris":{"android":"levelo://app?vid=d35e5a1f-caa2-40a6-acc0-a0667c5b74de","ios":"levelo://app?vid=d35e5a1f-caa2-40a6-acc0-a0667c5b74de"},"vehicle_type_id":"4","last_reported":1707246374,"current_range_meters":24400,"station_id":"ce4bgvp2rcd13ifvqcu0","pricing_plan_id":"free"},{"bike_id":"c0f3e4d9-3ac1-48a0-8f12-6fe148c7f075","system_id":"levelo_inurba_marseille","lat":43.31319,"lon":5.39691,"is_reserved":false,"is_disabled":false,"rental_uris":{"android":"levelo://app?vid=c0f3e4d9-3ac1-48a0-8f12-6fe148c7f075","ios":"levelo://app?vid=c0f3e4d9-3ac1-48a0-8f12-6fe148c7f075"},"vehicle_type_id":"4","last_reported":1707246374,"current_range_meters":20000,"station_id":"ce4bgvp2rcd13ifvqcu0","pricing_plan_id":"free"},{"bike_id":"37861716-6d5c-4ec8-be0a-fdf775ed8bb1","system_id":"levelo_inurba_marseille","lat":43.313291,"lon":5.396838,"is_reserved":false,"is_disabled":false,"rental_uris":{"android":"levelo://app?vid=37861716-6d5c-4ec8-be0a-fdf775ed8bb1","ios":"levelo://app?vid=37861716-6d5c-4ec8-be0a-fdf775ed8bb1"},"vehicle_type_id":"4","last_reported":1707246374,"current_range_meters":30400,"station_id":"ce4bgvp2rcd13ifvqcu0","pricing_plan_id":"free"},{"bike_id":"2b593266-fa57-48e1-abe3-84e731e5edd5","system_id":"levelo_inurba_marseille","lat":43.31327,"lon":5.39694,"is_reserved":false,"is_disabled":false,"rental_uris":{"android":"levelo://app?vid=2b593266-fa57-48e1-abe3-84e731e5edd5","ios":"levelo://app?vid=2b593266-fa57-48e1-abe3-84e731e5edd5"},"vehicle_type_id":"4","last_reported":1707246374,"current_range_meters":26400,"station_id":"ce4bgvp2rcd13ifvqcu0","pricing_plan_id":"free"},{"bike_id":"a5694600-38e4-4956-8e0a-9ad71ee47efb","system_id":"levelo_inurba_marseille","lat":43.31332,"lon":5.39694,"is_reserved":false,"is_disabled":false,"rental_uris":{"android":"levelo://app?vid=a5694600-38e4-4956-8e0a-9ad71ee47efb","ios":"levelo://app?vid=a5694600-38e4-4956-8e0a-9ad71ee47efb"},"vehicle_type_id":"4","last_reported":1707246374,"current_range_meters":2800,"station_id":"ce4bgvp2rcd13ifvqcu0","pricing_plan_id":"free"},{"bike_id":"6ff4414e-1536-41bd-926d-71c79dfc563e","system_id":"levelo_inurba_marseille","lat":43.31327,"lon":5.39695,"is_reserved":false,"is_disabled":false,"rental_uris":{"android":"levelo://app?vid=6ff4414e-1536-41bd-926d-71c79dfc563e","ios":"levelo://app?vid=6ff4414e-1536-41bd-926d-71c79dfc563e"},"vehicle_type_id":"4","last_reported":1707246374,"current_range_meters":31200,"station_id":"ce4bgvp2rcd13ifvqcu0","pricing_plan_id":"free"},{"bike_id":"dd2bb48a-1a28-49e0-a92a-4b79c31be3e4","system_id":"levelo_inurba_marseille","lat":43.313291,"lon":5.396838,"is_reserved":false,"is_disabled":false,"rental_uris":{"android":"levelo://app?vid=dd2bb48a-1a28-49e0-a92a-4b79c31be3e4","ios":"levelo://app?vid=dd2bb48a-1a28-49e0-a92a-4b79c31be3e4"},"vehicle_type_id":"4","last_reported":1707246374,"current_range_meters":1600,"station_id":"ce4bgvp2rcd13ifvqcu0","pricing_plan_id":"free"},{"bike_id":"5595d1f6-720f-4471-9e3d-e0255729bbee","system_id":"levelo_inurba_marseille","lat":43.313291,"lon":5.396838,"is_reserved":false,"is_disabled":false,"rental_uris":{"android":"levelo://app?vid=5595d1f6-720f-4471-9e3d-e0255729bbee","ios":"levelo://app?vid=5595d1f6-720f-4471-9e3d-e0255729bbee"},"vehicle_type_id":"4","last_reported":1707246374,"current_range_meters":31200,"station_id":"ce4bgvp2rcd13ifvqcu0","pricing_plan_id":"free"},{"bike_id":"6d436c31-e76c-4d61-9de3-9549ec74cb3f","system_id":"levelo_inurba_marseille","lat":43.31323,"lon":5.39701,"is_reserved":false,"is_disabled":false,"rental_uris":{"android":"levelo://app?vid=6d436c31-e76c-4d61-9de3-9549ec74cb3f","ios":"levelo://app?vid=6d436c31-e76c-4d61-9de3-9549ec74cb3f"},"vehicle_type_id":"4","last_reported":1707246374,"current_range_meters":15600,"station_id":"ce4bgvp2rcd13ifvqcu0","pricing_plan_id":"free"},{"bike_id":"0c7b6894-87eb-443c-9da3-dc9be332ca2d","system_id":"levelo_inurba_marseille","lat":43.313291,"lon":5.396838,"is_reserved":false,"is_disabled":false,"rental_uris":{"android":"levelo://app?vid=0c7b6894-87eb-443c-9da3-dc9be332ca2d","ios":"levelo://app?vid=0c7b6894-87eb-443c-9da3-dc9be332ca2d"},"vehicle_type_id":"4","last_reported":1707246374,"current_range_meters":31600,"station_id":"ce4bgvp2rcd13ifvqcu0","pricing_plan_id":"free"},{"bike_id":"a6509c96-19a6-4859-af4b-1a5ab9e55e3d","system_id":"levelo_inurba_marseille","lat":43.313291,"lon":5.396838,"is_reserved":false,"is_disabled":false,"rental_uris":{"android":"levelo://app?vid=a6509c96-19a6-4859-af4b-1a5ab9e55e3d","ios":"levelo://app?vid=a6509c96-19a6-4859-af4b-1a5ab9e55e3d"},"vehicle_type_id":"4","last_reported":1707246374,"current_range_meters":25600,"station_id":"ce4bgvp2rcd13ifvqcu0","pricing_plan_id":"free"},{"bike_id":"758d2b83-af7f-47ce-bf19-07e89f5993d8","system_id":"levelo_inurba_marseille","lat":43.309038,"lon":5.396546,"is_reserved":false,"is_disabled":false,"rental_uris":{"android":"levelo://app?vid=758d2b83-af7f-47ce-bf19-07e89f5993d8","ios":"levelo://app?vid=758d2b83-af7f-47ce-bf19-07e89f5993d8"},"vehicle_type_id":"4","last_reported":1707246374,"current_range_meters":20000,"station_id":"ce4bh012rcd13ifvqcv0","pricing_plan_id":"free"},{"bike_id":"79a58a09-dfa1-4255-8d58-d53efb1f4792","system_id":"levelo_inurba_marseille","lat":43.290779,"lon":5.371482,"is_reserved":false,"is_disabled":false,"rental_uris":{"android":"levelo://app?vid=79a58a09-dfa1-4255-8d58-d53efb1f4792","ios":"levelo://app?vid=79a58a09-dfa1-4255-8d58-d53efb1f4792"},"vehicle_type_id":"4","last_reported":1707246374,"current_range_meters":2400,"station_id":"ce4bh5p2rcd13ifvqe4g","pricing_plan_id":"free"},{"bike_id":"17f9ff87-0b77-4bac-8f46-35880cf4a433","system_id":"levelo_inurba_marseille","lat":43.290779,"lon":5.371482,"is_reserved":false,"is_disabled":false,"rental_uris":{"android":"levelo://app?vid=17f9ff87-0b77-4bac-8f46-35880cf4a433","ios":"levelo://app?vid=17f9ff87-0b77-4bac-8f46-35880cf4a433"},"vehicle_type_id":"4","last_reported":1707246374,"current_range_meters":0,"station_id":"ce4bh5p2rcd13ifvqe4g","pricing_plan_id":"free"},{"bike_id":"de8c70d6-5b4d-445c-926e-e39a64e45ff9","system_id":"levelo_inurba_marseille","lat":43.289184,"lon":5.366408,"is_reserved":false,"is_disabled":false,"rental_uris":{"android":"levelo://app?vid=de8c70d6-5b4d-445c-926e-e39a64e45ff9","ios":"levelo://app?vid=de8c70d6-5b4d-445c-926e-e39a64e45ff9"},"vehicle_type_id":"4","last_reported":1707246374,"current_range_meters":17600,"station_id":"ce4bhap2rcd13ifvqek0","pricing_plan_id":"free"},{"bike_id":"84bfd43e-983d-4c1d-8cc6-927513a83511","system_id":"levelo_inurba_marseille","lat":43.290624,"lon":5.359245,"is_reserved":false,"is_disabled":false,"rental_uris":{"android":"levelo://app?vid=84bfd43e-983d-4c1d-8cc6-927513a83511","ios":"levelo://app?vid=84bfd43e-983d-4c1d-8cc6-927513a83511"},"vehicle_type_id":"4","last_reported":1707246374,"current_range_meters":18800,"station_id":"ce4bha92rcd13ifvqeg0","pricing_plan_id":"free"},{"bike_id":"8845262b-d63f-4580-9bbd-b403c81a03f8","system_id":"levelo_inurba_marseille","lat":43.302008,"lon":5.394694,"is_reserved":false,"is_disabled":false,"rental_uris":{"android":"levelo://app?vid=8845262b-d63f-4580-9bbd-b403c81a03f8","ios":"levelo://app?vid=8845262b-d63f-4580-9bbd-b403c81a03f8"},"vehicle_type_id":"4","last_reported":1707246374,"current_range_meters":18400,"station_id":"ce4bh0p2rcd13ifvqd70","pricing_plan_id":"free"},{"bike_id":"58c76906-0c81-4a92-8e7e-b2ca5f6afe68","system_id":"levelo_inurba_marseille","lat":43.302008,"lon":5.394694,"is_reserved":false,"is_disabled":false,"rental_uris":{"android":"levelo://app?vid=58c76906-0c81-4a92-8e7e-b2ca5f6afe68","ios":"levelo://app?vid=58c76906-0c81-4a92-8e7e-b2ca5f6afe68"},"vehicle_type_id":"4","last_reported":1707246374,"current_range_meters":13200,"station_id":"ce4bh0p2rcd13ifvqd70","pricing_plan_id":"free"},{"bike_id":"bffe4743-6fce-4bdd-a040-9601c49a046c","system_id":"levelo_inurba_marseille","lat":43.302008,"lon":5.394694,"is_reserved":false,"is_disabled":false,"rental_uris":{"android":"levelo://app?vid=bffe4743-6fce-4bdd-a040-9601c49a046c","ios":"levelo://app?vid=bffe4743-6fce-4bdd-a040-9601c49a046c"},"vehicle_type_id":"4","last_reported":1707246374,"current_range_meters":11600,"station_id":"ce4bh0p2rcd13ifvqd70","pricing_plan_id":"free"},{"bike_id":"2237ef3f-8d51-4076-9347-9c53914273fe","system_id":"levelo_inurba_marseille","lat":43.290631,"lon":5.359244,"is_reserved":false,"is_disabled":false,"rental_uris":{"android":"levelo://app?vid=2237ef3f-8d51-4076-9347-9c53914273fe","ios":"levelo://app?vid=2237ef3f-8d51-4076-9347-9c53914273fe"},"vehicle_type_id":"4","last_reported":1707246374,"current_range_meters":8400,"station_id":"ce4bha92rcd13ifvqeg0","pricing_plan_id":"free"},{"bike_id":"5df12e7f-0e4e-416f-8a8a-457d67375289","system_id":"levelo_inurba_marseille","lat":43.29065,"lon":5.37568,"is_reserved":false,"is_disabled":false,"rental_uris":{"android":"levelo://app?vid=5df12e7f-0e4e-416f-8a8a-457d67375289","ios":"levelo://app?vid=5df12e7f-0e4e-416f-8a8a-457d67375289"},"vehicle_type_id":"4","last_reported":1707246374,"current_range_meters":22000,"station_id":"ce4bh692rcd13ifvqe90","pricing_plan_id":"free"},{"bike_id":"d1921a25-4a5c-41ec-8db9-23330f2618d2","system_id":"levelo_inurba_marseille","lat":43.289184,"lon":5.366408,"is_reserved":false,"is_disabled":false,"rental_uris":{"android":"levelo://app?vid=d1921a25-4a5c-41ec-8db9-23330f2618d2","ios":"levelo://app?vid=d1921a25-4a5c-41ec-8db9-23330f2618d2"},"vehicle_type_id":"4","last_reported":1707246374,"current_range_meters":12400,"station_id":"ce4bhap2rcd13ifvqek0","pricing_plan_id":"free"},{"bike_id":"57eb4608-f496-4ead-b71b-2e974aaaa6a3","system_id":"levelo_inurba_marseille","lat":43.289184,"lon":5.366408,"is_reserved":false,"is_disabled":false,"rental_uris":{"android":"levelo://app?vid=57eb4608-f496-4ead-b71b-2e974aaaa6a3","ios":"levelo://app?vid=57eb4608-f496-4ead-b71b-2e974aaaa6a3"},"vehicle_type_id":"4","last_reported":1707246374,"current_range_meters":15200,"station_id":"ce4bhap2rcd13ifvqek0","pricing_plan_id":"free"},{"bike_id":"c3ca4e3d-3e91-4125-9755-44cab5b27e11","system_id":"levelo_inurba_marseille","lat":43.290327,"lon":5.375711,"is_reserved":false,"is_disabled":false,"rental_uris":{"android":"levelo://app?vid=c3ca4e3d-3e91-4125-9755-44cab5b27e11","ios":"levelo://app?vid=c3ca4e3d-3e91-4125-9755-44cab5b27e11"},"vehicle_type_id":"4","last_reported":1707246374,"current_range_meters":17200,"station_id":"ce4bh692rcd13ifvqe90","pricing_plan_id":"free"},{"bike_id":"0759dbcd-4539-4eb5-851e-905e8b8e917e","system_id":"levelo_inurba_marseille","lat":43.294153,"lon":5.386305,"is_reserved":false,"is_disabled":false,"rental_uris":{"android":"levelo://app?vid=0759dbcd-4539-4eb5-851e-905e8b8e917e","ios":"levelo://app?vid=0759dbcd-4539-4eb5-851e-905e8b8e917e"},"vehicle_type_id":"4","last_reported":1707246374,"current_range_meters":0,"station_id":"ce4bh2h2rcd13ifvqdh0","pricing_plan_id":"free"},{"bike_id":"1dc2b201-9686-4181-855d-68ed844d468b","system_id":"levelo_inurba_marseille","lat":43.289743,"lon":5.378304,"is_reserved":false,"is_disabled":false,"rental_uris":{"android":"levelo://app?vid=1dc2b201-9686-4181-855d-68ed844d468b","ios":"levelo://app?vid=1dc2b201-9686-4181-855d-68ed844d468b"},"vehicle_type_id":"4","last_reported":1707246374,"current_range_meters":7200,"station_id":"ce4bh9p2rcd13ifvqed0","pricing_plan_id":"free"},{"bike_id":"f456d5dc-1f32-4ce0-bf68-a528ac033512","system_id":"levelo_inurba_marseille","lat":43.289184,"lon":5.366408,"is_reserved":false,"is_disabled":false,"rental_uris":{"android":"levelo://app?vid=f456d5dc-1f32-4ce0-bf68-a528ac033512","ios":"levelo://app?vid=f456d5dc-1f32-4ce0-bf68-a528ac033512"},"vehicle_type_id":"4","last_reported":1707246374,"current_range_meters":7600,"station_id":"ce4bhap2rcd13ifvqek0","pricing_plan_id":"free"},{"bike_id":"7dae3824-b781-4a9c-999e-c82bb17eb7cb","system_id":"levelo_inurba_marseille","lat":43.28939,"lon":5.36643,"is_reserved":false,"is_disabled":false,"rental_uris":{"android":"levelo://app?vid=7dae3824-b781-4a9c-999e-c82bb17eb7cb","ios":"levelo://app?vid=7dae3824-b781-4a9c-999e-c82bb17eb7cb"},"vehicle_type_id":"4","last_reported":1707246374,"current_range_meters":2800,"station_id":"ce4bhap2rcd13ifvqek0","pricing_plan_id":"free"},{"bike_id":"b991dd4f-3201-47e5-80c8-2807f1a68ef3","system_id":"levelo_inurba_marseille","lat":43.289184,"lon":5.366408,"is_reserved":false,"is_disabled":false,"rental_uris":{"android":"levelo://app?vid=b991dd4f-3201-47e5-80c8-2807f1a68ef3","ios":"levelo://app?vid=b991dd4f-3201-47e5-80c8-2807f1a68ef3"},"vehicle_type_id":"4","last_reported":1707246374,"current_range_meters":31600,"station_id":"ce4bhap2rcd13ifvqek0","pricing_plan_id":"free"},{"bike_id":"87c2f659-35af-42a6-88bf-28922e57d45e","system_id":"levelo_inurba_marseille","lat":43.289184,"lon":5.366408,"is_reserved":false,"is_disabled":false,"rental_uris":{"android":"levelo://app?vid=87c2f659-35af-42a6-88bf-28922e57d45e","ios":"levelo://app?vid=87c2f659-35af-42a6-88bf-28922e57d45e"},"vehicle_type_id":"4","last_reported":1707246374,"current_range_meters":17200,"station_id":"ce4bhap2rcd13ifvqek0","pricing_plan_id":"free"},{"bike_id":"c33b6452-daf1-4b96-b38f-b510fbf415d0","system_id":"levelo_inurba_marseille","lat":43.289184,"lon":5.366408,"is_reserved":false,"is_disabled":false,"rental_uris":{"android":"levelo://app?vid=c33b6452-daf1-4b96-b38f-b510fbf415d0","ios":"levelo://app?vid=c33b6452-daf1-4b96-b38f-b510fbf415d0"},"vehicle_type_id":"4","last_reported":1707246374,"current_range_meters":5600,"station_id":"ce4bhap2rcd13ifvqek0","pricing_plan_id":"free"},{"bike_id":"a9ec4cde-e9fa-41ef-a895-a50cbb532272","system_id":"levelo_inurba_marseille","lat":43.289468,"lon":5.363719,"is_reserved":false,"is_disabled":false,"rental_uris":{"android":"levelo://app?vid=a9ec4cde-e9fa-41ef-a895-a50cbb532272","ios":"levelo://app?vid=a9ec4cde-e9fa-41ef-a895-a50cbb532272"},"vehicle_type_id":"4","last_reported":1707246374,"current_range_meters":10400,"station_id":"ce4bhc92rcd13ifvqetg","pricing_plan_id":"free"},{"bike_id":"63a927a1-ddfa-4193-8ff4-a8d4900208d2","system_id":"levelo_inurba_marseille","lat":43.289468,"lon":5.363719,"is_reserved":false,"is_disabled":false,"rental_uris":{"android":"levelo://app?vid=63a927a1-ddfa-4193-8ff4-a8d4900208d2","ios":"levelo://app?vid=63a927a1-ddfa-4193-8ff4-a8d4900208d2"},"vehicle_type_id":"4","last_reported":1707246374,"current_range_meters":14000,"station_id":"ce4bhc92rcd13ifvqetg","pricing_plan_id":"free"},{"bike_id":"91804d8a-d0c4-4897-a8b9-98d36ade4c32","system_id":"levelo_inurba_marseille","lat":43.283494,"lon":5.380945,"is_reserved":false,"is_disabled":false,"rental_uris":{"android":"levelo://app?vid=91804d8a-d0c4-4897-a8b9-98d36ade4c32","ios":"levelo://app?vid=91804d8a-d0c4-4897-a8b9-98d36ade4c32"},"vehicle_type_id":"4","last_reported":1707246374,"current_range_meters":7200,"station_id":"ce4bh412rcd13ifvqdr0","pricing_plan_id":"free"},{"bike_id":"5a390a2a-98c9-48bf-8db5-5b62a8968f33","system_id":"levelo_inurba_marseille","lat":43.292644,"lon":5.384257,"is_reserved":false,"is_disabled":false,"rental_uris":{"android":"levelo://app?vid=5a390a2a-98c9-48bf-8db5-5b62a8968f33","ios":"levelo://app?vid=5a390a2a-98c9-48bf-8db5-5b62a8968f33"},"vehicle_type_id":"4","last_reported":1707246374,"current_range_meters":4800,"station_id":"ce4bh692rcd13ifvqea0","pricing_plan_id":"free"},{"bike_id":"5975a0d8-fa1d-4453-aad9-6158e127deb3","system_id":"levelo_inurba_marseille","lat":43.304274,"lon":5.397513,"is_reserved":false,"is_disabled":false,"rental_uris":{"android":"levelo://app?vid=5975a0d8-fa1d-4453-aad9-6158e127deb3","ios":"levelo://app?vid=5975a0d8-fa1d-4453-aad9-6158e127deb3"},"vehicle_type_id":"4","last_reported":1707246374,"current_range_meters":8400,"station_id":"ce4bh092rcd13ifvqd20","pricing_plan_id":"free"},{"bike_id":"38f30649-a3f5-4ae4-b9d3-5da4887bfe5a","system_id":"levelo_inurba_marseille","lat":43.292644,"lon":5.384257,"is_reserved":false,"is_disabled":false,"rental_uris":{"android":"levelo://app?vid=38f30649-a3f5-4ae4-b9d3-5da4887bfe5a","ios":"levelo://app?vid=38f30649-a3f5-4ae4-b9d3-5da4887bfe5a"},"vehicle_type_id":"4","last_reported":1707246374,"current_range_meters":17600,"station_id":"ce4bh692rcd13ifvqea0","pricing_plan_id":"free"},{"bike_id":"abe96542-976e-4fa2-bb24-838195773476","system_id":"levelo_inurba_marseille","lat":43.292642,"lon":5.384254,"is_reserved":false,"is_disabled":false,"rental_uris":{"android":"levelo://app?vid=abe96542-976e-4fa2-bb24-838195773476","ios":"levelo://app?vid=abe96542-976e-4fa2-bb24-838195773476"},"vehicle_type_id":"4","last_reported":1707246374,"current_range_meters":15200,"station_id":"ce4bh692rcd13ifvqea0","pricing_plan_id":"free"},{"bike_id":"01675e86-ad2a-45a9-aa0e-afbed2305d1c","system_id":"levelo_inurba_marseille","lat":43.292642,"lon":5.384254,"is_reserved":false,"is_disabled":false,"rental_uris":{"android":"levelo://app?vid=01675e86-ad2a-45a9-aa0e-afbed2305d1c","ios":"levelo://app?vid=01675e86-ad2a-45a9-aa0e-afbed2305d1c"},"vehicle_type_id":"4","last_reported":1707246374,"current_range_meters":8800,"station_id":"ce4bh692rcd13ifvqea0","pricing_plan_id":"free"},{"bike_id":"c00a7f70-6b27-47b2-8395-5c2fb7a4768b","system_id":"levelo_inurba_marseille","lat":43.292644,"lon":5.384257,"is_reserved":false,"is_disabled":false,"rental_uris":{"android":"levelo://app?vid=c00a7f70-6b27-47b2-8395-5c2fb7a4768b","ios":"levelo://app?vid=c00a7f70-6b27-47b2-8395-5c2fb7a4768b"},"vehicle_type_id":"4","last_reported":1707246374,"current_range_meters":11200,"station_id":"ce4bh692rcd13ifvqea0","pricing_plan_id":"free"},{"bike_id":"9f0de9e9-ae98-4b9f-a4f3-2acc94a17b54","system_id":"levelo_inurba_marseille","lat":43.2926,"lon":5.38451,"is_reserved":false,"is_disabled":false,"rental_uris":{"android":"levelo://app?vid=9f0de9e9-ae98-4b9f-a4f3-2acc94a17b54","ios":"levelo://app?vid=9f0de9e9-ae98-4b9f-a4f3-2acc94a17b54"},"vehicle_type_id":"4","last_reported":1707246374,"current_range_meters":0,"station_id":"ce4bh692rcd13ifvqea0","pricing_plan_id":"free"},{"bike_id":"0b161dd6-c3e8-4ab8-b745-eb97961921c4","system_id":"levelo_inurba_marseille","lat":43.29252,"lon":5.38445,"is_reserved":false,"is_disabled":false,"rental_uris":{"android":"levelo://app?vid=0b161dd6-c3e8-4ab8-b745-eb97961921c4","ios":"levelo://app?vid=0b161dd6-c3e8-4ab8-b745-eb97961921c4"},"vehicle_type_id":"4","last_reported":1707246374,"current_range_meters":0,"station_id":"ce4bh692rcd13ifvqea0","pricing_plan_id":"free"},{"bike_id":"a16ed651-407b-4687-9d17-89f266a474f8","system_id":"levelo_inurba_marseille","lat":43.304274,"lon":5.397513,"is_reserved":false,"is_disabled":false,"rental_uris":{"android":"levelo://app?vid=a16ed651-407b-4687-9d17-89f266a474f8","ios":"levelo://app?vid=a16ed651-407b-4687-9d17-89f266a474f8"},"vehicle_type_id":"4","last_reported":1707246374,"current_range_meters":6400,"station_id":"ce4bh092rcd13ifvqd20","pricing_plan_id":"free"},{"bike_id":"e5c5f877-4ba6-4751-bbf8-f3d0131b8281","system_id":"levelo_inurba_marseille","lat":43.290104,"lon":5.356111,"is_reserved":false,"is_disabled":false,"rental_uris":{"android":"levelo://app?vid=e5c5f877-4ba6-4751-bbf8-f3d0131b8281","ios":"levelo://app?vid=e5c5f877-4ba6-4751-bbf8-f3d0131b8281"},"vehicle_type_id":"4","last_reported":1707246374,"current_range_meters":7600,"station_id":"ce4bhb92rcd13ifvqen0","pricing_plan_id":"free"},{"bike_id":"c9c8ea09-9bec-4a95-b012-b86884d99b34","system_id":"levelo_inurba_marseille","lat":43.289743,"lon":5.378304,"is_reserved":false,"is_disabled":false,"rental_uris":{"android":"levelo://app?vid=c9c8ea09-9bec-4a95-b012-b86884d99b34","ios":"levelo://app?vid=c9c8ea09-9bec-4a95-b012-b86884d99b34"},"vehicle_type_id":"4","last_reported":1707246374,"current_range_meters":20800,"station_id":"ce4bh9p2rcd13ifvqed0","pricing_plan_id":"free"},{"bike_id":"6a3543be-f861-49e8-b10b-701a5ead90b0","system_id":"levelo_inurba_marseille","lat":43.289743,"lon":5.378304,"is_reserved":false,"is_disabled":false,"rental_uris":{"android":"levelo://app?vid=6a3543be-f861-49e8-b10b-701a5ead90b0","ios":"levelo://app?vid=6a3543be-f861-49e8-b10b-701a5ead90b0"},"vehicle_type_id":"4","last_reported":1707246374,"current_range_meters":12000,"station_id":"ce4bh9p2rcd13ifvqed0","pricing_plan_id":"free"},{"bike_id":"62ca35d7-f049-4885-9fd9-beb6af1eb797","system_id":"levelo_inurba_marseille","lat":43.33015,"lon":5.39035,"is_reserved":false,"is_disabled":false,"rental_uris":{"android":"levelo://app?vid=62ca35d7-f049-4885-9fd9-beb6af1eb797","ios":"levelo://app?vid=62ca35d7-f049-4885-9fd9-beb6af1eb797"},"vehicle_type_id":"4","last_reported":1707246374,"current_range_meters":12400,"station_id":"ce4bhr92rcd13ifvqhrg","pricing_plan_id":"free"},{"bike_id":"86ce9458-dfef-48e3-9a0a-c72f27f74003","system_id":"levelo_inurba_marseille","lat":43.290104,"lon":5.356111,"is_reserved":false,"is_disabled":false,"rental_uris":{"android":"levelo://app?vid=86ce9458-dfef-48e3-9a0a-c72f27f74003","ios":"levelo://app?vid=86ce9458-dfef-48e3-9a0a-c72f27f74003"},"vehicle_type_id":"4","last_reported":1707246374,"current_range_meters":25600,"station_id":"ce4bhb92rcd13ifvqen0","pricing_plan_id":"free"},{"bike_id":"99d996eb-3966-479b-9189-717f1528439c","system_id":"levelo_inurba_marseille","lat":43.295169,"lon":5.390426,"is_reserved":false,"is_disabled":false,"rental_uris":{"android":"levelo://app?vid=99d996eb-3966-479b-9189-717f1528439c","ios":"levelo://app?vid=99d996eb-3966-479b-9189-717f1528439c"},"vehicle_type_id":"4","last_reported":1707246374,"current_range_meters":8400,"station_id":"ce4bh3p2rcd13ifvqdp0","pricing_plan_id":"free"},{"bike_id":"9542efb3-2df3-45d9-bf71-83146880d169","system_id":"levelo_inurba_marseille","lat":43.29781,"lon":5.39343,"is_reserved":false,"is_disabled":false,"rental_uris":{"android":"levelo://app?vid=9542efb3-2df3-45d9-bf71-83146880d169","ios":"levelo://app?vid=9542efb3-2df3-45d9-bf71-83146880d169"},"vehicle_type_id":"4","last_reported":1707246374,"current_range_meters":23200,"station_id":"chh1huq6cuj3fo74tm60","pricing_plan_id":"free"},{"bike_id":"9be19af2-00eb-4adf-afc6-6b25dc013c2f","system_id":"levelo_inurba_marseille","lat":43.33015,"lon":5.39041,"is_reserved":false,"is_disabled":false,"rental_uris":{"android":"levelo://app?vid=9be19af2-00eb-4adf-afc6-6b25dc013c2f","ios":"levelo://app?vid=9be19af2-00eb-4adf-afc6-6b25dc013c2f"},"vehicle_type_id":"4","last_reported":1707246374,"current_range_meters":4400,"station_id":"ce4bhr92rcd13ifvqhrg","pricing_plan_id":"free"},{"bike_id":"e3cdd8db-1a8c-42b0-8a1d-74e27724a81e","system_id":"levelo_inurba_marseille","lat":43.33021,"lon":5.39035,"is_reserved":false,"is_disabled":false,"rental_uris":{"android":"levelo://app?vid=e3cdd8db-1a8c-42b0-8a1d-74e27724a81e","ios":"levelo://app?vid=e3cdd8db-1a8c-42b0-8a1d-74e27724a81e"},"vehicle_type_id":"4","last_reported":1707246374,"current_range_meters":29200,"station_id":"ce4bhr92rcd13ifvqhrg","pricing_plan_id":"free"},{"bike_id":"5415faed-a2cb-4609-b7b3-a03b164f90c2","system_id":"levelo_inurba_marseille","lat":43.29525,"lon":5.39034,"is_reserved":false,"is_disabled":false,"rental_uris":{"android":"levelo://app?vid=5415faed-a2cb-4609-b7b3-a03b164f90c2","ios":"levelo://app?vid=5415faed-a2cb-4609-b7b3-a03b164f90c2"},"vehicle_type_id":"4","last_reported":1707246374,"current_range_meters":18400,"station_id":"ce4bh3p2rcd13ifvqdp0","pricing_plan_id":"free"},{"bike_id":"b5c14bc8-0bdf-48a6-9a9f-af1b4756e3aa","system_id":"levelo_inurba_marseille","lat":43.297815,"lon":5.393548,"is_reserved":false,"is_disabled":false,"rental_uris":{"android":"levelo://app?vid=b5c14bc8-0bdf-48a6-9a9f-af1b4756e3aa","ios":"levelo://app?vid=b5c14bc8-0bdf-48a6-9a9f-af1b4756e3aa"},"vehicle_type_id":"4","last_reported":1707246374,"current_range_meters":17600,"station_id":"chh1huq6cuj3fo74tm60","pricing_plan_id":"free"},{"bike_id":"7d9c88cc-b379-4f7e-afa0-885a9a44585d","system_id":"levelo_inurba_marseille","lat":43.33023,"lon":5.39037,"is_reserved":false,"is_disabled":false,"rental_uris":{"android":"levelo://app?vid=7d9c88cc-b379-4f7e-afa0-885a9a44585d","ios":"levelo://app?vid=7d9c88cc-b379-4f7e-afa0-885a9a44585d"},"vehicle_type_id":"4","last_reported":1707246374,"current_range_meters":18000,"station_id":"ce4bhr92rcd13ifvqhrg","pricing_plan_id":"free"},{"bike_id":"191e5a48-25eb-42b2-aa0f-b63755aec4fc","system_id":"levelo_inurba_marseille","lat":43.33019,"lon":5.39043,"is_reserved":false,"is_disabled":false,"rental_uris":{"android":"levelo://app?vid=191e5a48-25eb-42b2-aa0f-b63755aec4fc","ios":"levelo://app?vid=191e5a48-25eb-42b2-aa0f-b63755aec4fc"},"vehicle_type_id":"4","last_reported":1707246374,"current_range_meters":16800,"station_id":"ce4bhr92rcd13ifvqhrg","pricing_plan_id":"free"},{"bike_id":"9f74ab4e-9d60-4afa-867a-49240bd6e097","system_id":"levelo_inurba_marseille","lat":43.3302,"lon":5.39042,"is_reserved":false,"is_disabled":false,"rental_uris":{"android":"levelo://app?vid=9f74ab4e-9d60-4afa-867a-49240bd6e097","ios":"levelo://app?vid=9f74ab4e-9d60-4afa-867a-49240bd6e097"},"vehicle_type_id":"4","last_reported":1707246374,"current_range_meters":18400,"station_id":"ce4bhr92rcd13ifvqhrg","pricing_plan_id":"free"},{"bike_id":"397db575-5859-4e88-b680-c446f72b852d","system_id":"levelo_inurba_marseille","lat":43.330442,"lon":5.389148,"is_reserved":false,"is_disabled":false,"rental_uris":{"android":"levelo://app?vid=397db575-5859-4e88-b680-c446f72b852d","ios":"levelo://app?vid=397db575-5859-4e88-b680-c446f72b852d"},"vehicle_type_id":"4","last_reported":1707246374,"current_range_meters":4000,"station_id":"ce4bhr92rcd13ifvqhrg","pricing_plan_id":"free"},{"bike_id":"fd72c297-d0df-4a2c-b38e-6177668e633b","system_id":"levelo_inurba_marseille","lat":43.33021,"lon":5.39044,"is_reserved":false,"is_disabled":false,"rental_uris":{"android":"levelo://app?vid=fd72c297-d0df-4a2c-b38e-6177668e633b","ios":"levelo://app?vid=fd72c297-d0df-4a2c-b38e-6177668e633b"},"vehicle_type_id":"4","last_reported":1707246374,"current_range_meters":4000,"station_id":"ce4bhr92rcd13ifvqhrg","pricing_plan_id":"free"},{"bike_id":"0dfdc511-3c86-4555-b382-fc47d53bf4a0","system_id":"levelo_inurba_marseille","lat":43.295169,"lon":5.390426,"is_reserved":false,"is_disabled":false,"rental_uris":{"android":"levelo://app?vid=0dfdc511-3c86-4555-b382-fc47d53bf4a0","ios":"levelo://app?vid=0dfdc511-3c86-4555-b382-fc47d53bf4a0"},"vehicle_type_id":"4","last_reported":1707246374,"current_range_meters":800,"station_id":"ce4bh3p2rcd13ifvqdp0","pricing_plan_id":"free"},{"bike_id":"dfb60f16-a911-40ad-9f9b-a42c84d5644e","system_id":"levelo_inurba_marseille","lat":43.289743,"lon":5.378304,"is_reserved":false,"is_disabled":false,"rental_uris":{"android":"levelo://app?vid=dfb60f16-a911-40ad-9f9b-a42c84d5644e","ios":"levelo://app?vid=dfb60f16-a911-40ad-9f9b-a42c84d5644e"},"vehicle_type_id":"4","last_reported":1707246374,"current_range_meters":23200,"station_id":"ce4bh9p2rcd13ifvqed0","pricing_plan_id":"free"},{"bike_id":"9a0e536f-fb44-4c19-9617-23c84acbfa6b","system_id":"levelo_inurba_marseille","lat":43.295169,"lon":5.390426,"is_reserved":false,"is_disabled":false,"rental_uris":{"android":"levelo://app?vid=9a0e536f-fb44-4c19-9617-23c84acbfa6b","ios":"levelo://app?vid=9a0e536f-fb44-4c19-9617-23c84acbfa6b"},"vehicle_type_id":"4","last_reported":1707246374,"current_range_meters":3600,"station_id":"ce4bh3p2rcd13ifvqdp0","pricing_plan_id":"free"},{"bike_id":"820e7ff6-eaa1-4288-a4c3-15e718a624b6","system_id":"levelo_inurba_marseille","lat":43.29518,"lon":5.39034,"is_reserved":false,"is_disabled":false,"rental_uris":{"android":"levelo://app?vid=820e7ff6-eaa1-4288-a4c3-15e718a624b6","ios":"levelo://app?vid=820e7ff6-eaa1-4288-a4c3-15e718a624b6"},