{"last_updated":1726988875,"ttl":30,"version":"2.2","data":{"bikes":[{"bike_id":"fd84f170-c075-4570-a556-c5e617e29406","system_id":"levelo_inurba_marseille","lat":43.28334,"lon":5.40902,"is_reserved":false,"is_disabled":false,"rental_uris":{"android":"levelo://app?vid=fd84f170-c075-4570-a556-c5e617e29406","ios":"levelo://app?vid=fd84f170-c075-4570-a556-c5e617e29406"},"vehicle_type_id":"4","last_reported":1726988875,"current_range_meters":19200,"station_id":"","pricing_plan_id":"cebpf4jnsgd1na2vs0mg"},{"bike_id":"7322c998-cc22-4396-aef7-57822e9e1df6","system_id":"levelo_inurba_marseille","lat":43.27912,"lon":5.39589,"is_reserved":false,"is_disabled":false,"rental_uris":{"android":"levelo://app?vid=7322c998-cc22-4396-aef7-57822e9e1df6","ios":"levelo://app?vid=7322c998-cc22-4396-aef7-57822e9e1df6"},"vehicle_type_id":"4","last_reported":1726988875,"current_range_meters":38000,"station_id":"ce4bhf92rcd13ifvqf40","pricing_plan_id":"cebpf4jnsgd1na2vs0mg"},{"bike_id":"09ef34b6-482f-4988-9331-10658115e1c1","system_id":"levelo_inurba_marseille","lat":43.31535,"lon":5.38028,"is_reserved":false,"is_disabled":false,"rental_uris":{"android":"levelo://app?vid=09ef34b6-482f-4988-9331-10658115e1c1","ios":"levelo://app?vid=09ef34b6-482f-4988-9331-10658115e1c1"},"vehicle_type_id":"4","last_reported":1726988875,"current_range_meters":19600,"station_id":"ce4bhsp2rcd13ifvqi50","pricing_plan_id":"cebpf4jnsgd1na2vs0mg"},{"bike_id":"1b71199d-0ac4-43db-900e-6c08a8688555","system_id":"levelo_inurba_marseille","lat":43.30893,"lon":5.39637,"is_reserved":false,"is_disabled":false,"rental_uris":{"android":"levelo://app?vid=1b71199d-0ac4-43db-900e-6c08a8688555","ios":"levelo://app?vid=1b71199d-0ac4-43db-900e-6c08a8688555"},"vehicle_type_id":"4","last_reported":1726988875,"current_range_meters":38000,"station_id":"ce4bh012rcd13ifvqcv0","pricing_plan_id":"cebpf4jnsgd1na2vs0mg"},{"bike_id":"04451a75-4336-4b76-826d-a2ef905a49e2","system_id":"levelo_inurba_marseille","lat":43.30815,"lon":5.38179,"is_reserved":false,"is_disabled":false,"rental_uris":{"android":"levelo://app?vid=04451a75-4336-4b76-826d-a2ef905a49e2","ios":"levelo://app?vid=04451a75-4336-4b76-826d-a2ef905a49e2"},"vehicle_type_id":"4","last_reported":1726988875,"current_range_meters":4400,"station_id":"ce4bgt12rcd13ifvqce0","pricing_plan_id":"cebpf4jnsgd1na2vs0mg"},{"bike_id":"fa40c179-cc76-4642-bd2c-df0bf2c367b9","system_id":"levelo_inurba_marseille","lat":43.30318,"lon":5.40431,"is_reserved":false,"is_disabled":false,"rental_uris":{"android":"levelo://app?vid=fa40c179-cc76-4642-bd2c-df0bf2c367b9","ios":"levelo://app?vid=fa40c179-cc76-4642-bd2c-df0bf2c367b9"},"vehicle_type_id":"4","last_reported":1726988875,"current_range_meters":21600,"station_id":"ce4bh012rcd13ifvqd10","pricing_plan_id":"cebpf4jnsgd1na2vs0mg"},{"bike_id":"2f1c1f35-c447-42bf-b6ea-c5eed2cc7d31","system_id":"levelo_inurba_marseille","lat":43.24666,"lon":5.38163,"is_reserved":false,"is_disabled":false,"rental_uris":{"android":"levelo://app?vid=2f1c1f35-c447-42bf-b6ea-c5eed2cc7d31","ios":"levelo://app?vid=2f1c1f35-c447-42bf-b6ea-c5eed2cc7d31"},"vehicle_type_id":"4","last_reported":1726988875,"current_range_meters":8000,"station_id":"ce4bhih2rcd13ifvqfr0","pricing_plan_id":"cebpf4jnsgd1na2vs0mg"},{"bike_id":"61bcbffc-3705-45c3-a04b-e155964ae429","system_id":"levelo_inurba_marseille","lat":43.32041,"lon":5.41555,"is_reserved":false,"is_disabled":false,"rental_uris":{"android":"levelo://app?vid=61bcbffc-3705-45c3-a04b-e155964ae429","ios":"levelo://app?vid=61bcbffc-3705-45c3-a04b-e155964ae429"},"vehicle_type_id":"4","last_reported":1726988875,"current_range_meters":28400,"station_id":"ce4bhq92rcd13ifvqhkg","pricing_plan_id":"cebpf4jnsgd1na2vs0mg"},{"bike_id":"9f38294e-12e2-4aea-b025-0df1d7948b00","system_id":"levelo_inurba_marseille","lat":43.24547,"lon":5.39529,"is_reserved":false,"is_disabled":false,"rental_uris":{"android":"levelo://app?vid=9f38294e-12e2-4aea-b025-0df1d7948b00","ios":"levelo://app?vid=9f38294e-12e2-4aea-b025-0df1d7948b00"},"vehicle_type_id":"4","last_reported":1726988875,"current_range_meters":39200,"station_id":"ce4bhlp2rcd13ifvqgjg","pricing_plan_id":"cebpf4jnsgd1na2vs0mg"},{"bike_id":"d27d6d39-36e7-4258-826b-c14cf480b164","system_id":"levelo_inurba_marseille","lat":43.29533,"lon":5.38549,"is_reserved":false,"is_disabled":false,"rental_uris":{"android":"levelo://app?vid=d27d6d39-36e7-4258-826b-c14cf480b164","ios":"levelo://app?vid=d27d6d39-36e7-4258-826b-c14cf480b164"},"vehicle_type_id":"4","last_reported":1726988875,"current_range_meters":38000,"station_id":"ce4bgih2rcd13ifvqba0","pricing_plan_id":"cebpf4jnsgd1na2vs0mg"},{"bike_id":"add3a9bb-89c0-4474-99ed-e918f5013f73","system_id":"levelo_inurba_marseille","lat":43.23967,"lon":5.36634,"is_reserved":false,"is_disabled":false,"rental_uris":{"android":"levelo://app?vid=add3a9bb-89c0-4474-99ed-e918f5013f73","ios":"levelo://app?vid=add3a9bb-89c0-4474-99ed-e918f5013f73"},"vehicle_type_id":"4","last_reported":1726988875,"current_range_meters":39200,"station_id":"ce4bhi12rcd13ifvqfp0","pricing_plan_id":"cebpf4jnsgd1na2vs0mg"},{"bike_id":"b28e87f5-e830-4cfe-a56f-42f0c061e6d5","system_id":"levelo_inurba_marseille","lat":43.24389,"lon":5.37057,"is_reserved":false,"is_disabled":false,"rental_uris":{"android":"levelo://app?vid=b28e87f5-e830-4cfe-a56f-42f0c061e6d5","ios":"levelo://app?vid=b28e87f5-e830-4cfe-a56f-42f0c061e6d5"},"vehicle_type_id":"4","last_reported":1726988875,"current_range_meters":24800,"station_id":"ce4bhhh2rcd13ifvqfk0","pricing_plan_id":"cebpf4jnsgd1na2vs0mg"},{"bike_id":"89cdcc83-7aab-4c78-8e76-aa0ccb30eb08","system_id":"levelo_inurba_marseille","lat":43.31711,"lon":5.43705,"is_reserved":false,"is_disabled":false,"rental_uris":{"android":"levelo://app?vid=89cdcc83-7aab-4c78-8e76-aa0ccb30eb08","ios":"levelo://app?vid=89cdcc83-7aab-4c78-8e76-aa0ccb30eb08"},"vehicle_type_id":"4","last_reported":1726988875,"current_range_meters":22400,"station_id":"ce4bhp92rcd13ifvqhcg","pricing_plan_id":"cebpf4jnsgd1na2vs0mg"},{"bike_id":"1b638497-666e-4076-91e4-214ae677f1e8","system_id":"levelo_inurba_marseille","lat":43.28358,"lon":5.38115,"is_reserved":false,"is_disabled":false,"rental_uris":{"android":"levelo://app?vid=1b638497-666e-4076-91e4-214ae677f1e8","ios":"levelo://app?vid=1b638497-666e-4076-91e4-214ae677f1e8"},"vehicle_type_id":"4","last_reported":1726988875,"current_range_meters":38800,"station_id":"ce4bh412rcd13ifvqdr0","pricing_plan_id":"cebpf4jnsgd1na2vs0mg"},{"bike_id":"dff3701d-b005-47ea-ace2-da2d45311a04","system_id":"levelo_inurba_marseille","lat":43.29007,"lon":5.35608,"is_reserved":false,"is_disabled":false,"rental_uris":{"android":"levelo://app?vid=dff3701d-b005-47ea-ace2-da2d45311a04","ios":"levelo://app?vid=dff3701d-b005-47ea-ace2-da2d45311a04"},"vehicle_type_id":"4","last_reported":1726988875,"current_range_meters":39200,"station_id":"ce4bhb92rcd13ifvqen0","pricing_plan_id":"cebpf4jnsgd1na2vs0mg"},{"bike_id":"bedab225-f351-4171-a869-119b3a01c5f3","system_id":"levelo_inurba_marseille","lat":43.28442,"lon":5.3918,"is_reserved":false,"is_disabled":false,"rental_uris":{"android":"levelo://app?vid=bedab225-f351-4171-a869-119b3a01c5f3","ios":"levelo://app?vid=bedab225-f351-4171-a869-119b3a01c5f3"},"vehicle_type_id":"4","last_reported":1726988875,"current_range_meters":38800,"station_id":"ce4bhoh2rcd13ifvqh5g","pricing_plan_id":"cebpf4jnsgd1na2vs0mg"},{"bike_id":"305f1fc7-cb34-4a07-a161-8cc3b8991030","system_id":"levelo_inurba_marseille","lat":43.30314,"lon":5.36891,"is_reserved":false,"is_disabled":false,"rental_uris":{"android":"levelo://app?vid=305f1fc7-cb34-4a07-a161-8cc3b8991030","ios":"levelo://app?vid=305f1fc7-cb34-4a07-a161-8cc3b8991030"},"vehicle_type_id":"4","last_reported":1726988875,"current_range_meters":30800,"station_id":"ce4bgqh2rcd13ifvqc5g","pricing_plan_id":"cebpf4jnsgd1na2vs0mg"},{"bike_id":"77e149ce-6306-410e-beb6-6d01ee452af8","system_id":"levelo_inurba_marseille","lat":43.2988,"lon":5.39748,"is_reserved":false,"is_disabled":false,"rental_uris":{"android":"levelo://app?vid=77e149ce-6306-410e-beb6-6d01ee452af8","ios":"levelo://app?vid=77e149ce-6306-410e-beb6-6d01ee452af8"},"vehicle_type_id":"4","last_reported":1726988875,"current_range_meters":39200,"station_id":"ce4bh0h2rcd13ifvqd50","pricing_plan_id":"cebpf4jnsgd1na2vs0mg"},{"bike_id":"8bffa745-3514-4e7b-9ce6-c0ab1287513e","system_id":"levelo_inurba_marseille","lat":43.27996,"lon":5.41658,"is_reserved":false,"is_disabled":false,"rental_uris":{"android":"levelo://app?vid=8bffa745-3514-4e7b-9ce6-c0ab1287513e","ios":"levelo://app?vid=8bffa745-3514-4e7b-9ce6-c0ab1287513e"},"vehicle_type_id":"4","last_reported":1726988875,"current_range_meters":30400,"station_id":"ce4bho12rcd13ifvqh1g","pricing_plan_id":"cebpf4jnsgd1na2vs0mg"},{"bike_id":"f1a1b266-38cd-4948-a071-219f89de7e58","system_id":"levelo_inurba_marseille","lat":43.28705,"lon":5.37389,"is_reserved":false,"is_disabled":false,"rental_uris":{"android":"levelo://app?vid=f1a1b266-38cd-4948-a071-219f89de7e58","ios":"levelo://app?vid=f1a1b266-38cd-4948-a071-219f89de7e58"},"vehicle_type_id":"4","last_reported":1726988875,"current_range_meters":40000,"station_id":"ce4bh3p2rcd13ifvqdq0","pricing_plan_id":"cebpf4jnsgd1na2vs0mg"},{"bike_id":"9fad6916-fb07-4adf-8dcf-0df96c90bf20","system_id":"levelo_inurba_marseille","lat":43.29191,"lon":5.35789,"is_reserved":false,"is_disabled":false,"rental_uris":{"android":"levelo://app?vid=9fad6916-fb07-4adf-8dcf-0df96c90bf20","ios":"levelo://app?vid=9fad6916-fb07-4adf-8dcf-0df96c90bf20"},"vehicle_type_id":"4","last_reported":1726988875,"current_range_meters":39200,"station_id":"ce4bhb12rcd13ifvqel0","pricing_plan_id":"cebpf4jnsgd1na2vs0mg"},{"bike_id":"29c3801a-7b4c-47aa-a6ad-d81b447de9a5","system_id":"levelo_inurba_marseille","lat":43.30423,"lon":5.41278,"is_reserved":false,"is_disabled":false,"rental_uris":{"android":"levelo://app?vid=29c3801a-7b4c-47aa-a6ad-d81b447de9a5","ios":"levelo://app?vid=29c3801a-7b4c-47aa-a6ad-d81b447de9a5"},"vehicle_type_id":"4","last_reported":1726988875,"current_range_meters":26800,"station_id":"ce4bhop2rcd13ifvqh8g","pricing_plan_id":"cebpf4jnsgd1na2vs0mg"},{"bike_id":"dd61549d-48e7-4a71-a4b7-6d238de3a967","system_id":"levelo_inurba_marseille","lat":43.28348,"lon":5.38104,"is_reserved":false,"is_disabled":false,"rental_uris":{"android":"levelo://app?vid=dd61549d-48e7-4a71-a4b7-6d238de3a967","ios":"levelo://app?vid=dd61549d-48e7-4a71-a4b7-6d238de3a967"},"vehicle_type_id":"4","last_reported":1726988875,"current_range_meters":36400,"station_id":"ce4bh412rcd13ifvqdr0","pricing_plan_id":"cebpf4jnsgd1na2vs0mg"},{"bike_id":"4c2a5d70-d824-4ea8-b926-48114de5a946","system_id":"levelo_inurba_marseille","lat":43.281533,"lon":5.426503,"is_reserved":false,"is_disabled":false,"rental_uris":{"android":"levelo://app?vid=4c2a5d70-d824-4ea8-b926-48114de5a946","ios":"levelo://app?vid=4c2a5d70-d824-4ea8-b926-48114de5a946"},"vehicle_type_id":"4","last_reported":1726988875,"current_range_meters":3200,"station_id":"ce4bhnh2rcd13ifvqgug","pricing_plan_id":"cebpf4jnsgd1na2vs0mg"},{"bike_id":"b9043ee7-1b51-4205-a7f8-061a93eb7c50","system_id":"levelo_inurba_marseille","lat":43.31889,"lon":5.40737,"is_reserved":false,"is_disabled":false,"rental_uris":{"android":"levelo://app?vid=b9043ee7-1b51-4205-a7f8-061a93eb7c50","ios":"levelo://app?vid=b9043ee7-1b51-4205-a7f8-061a93eb7c50"},"vehicle_type_id":"4","last_reported":1726988875,"current_range_meters":39200,"station_id":"ce4bhq12rcd13ifvqhig","pricing_plan_id":"cebpf4jnsgd1na2vs0mg"},{"bike_id":"3c168981-3815-461f-893b-90b4ce403053","system_id":"levelo_inurba_marseille","lat":43.25873,"lon":5.39899,"is_reserved":false,"is_disabled":false,"rental_uris":{"android":"levelo://app?vid=3c168981-3815-461f-893b-90b4ce403053","ios":"levelo://app?vid=3c168981-3815-461f-893b-90b4ce403053"},"vehicle_type_id":"4","last_reported":1726988875,"current_range_meters":25200,"station_id":"ce4bhl92rcd13ifvqghg","pricing_plan_id":"cebpf4jnsgd1na2vs0mg"},{"bike_id":"20a042f1-81aa-4cde-8548-4f002e395336","system_id":"levelo_inurba_marseille","lat":43.30191,"lon":5.3984,"is_reserved":false,"is_disabled":false,"rental_uris":{"android":"levelo://app?vid=20a042f1-81aa-4cde-8548-4f002e395336","ios":"levelo://app?vid=20a042f1-81aa-4cde-8548-4f002e395336"},"vehicle_type_id":"4","last_reported":1726988875,"current_range_meters":37600,"station_id":"ce4bgvp2rcd13ifvqct0","pricing_plan_id":"cebpf4jnsgd1na2vs0mg"},{"bike_id":"3f3a1968-161c-4281-9dac-b1f6f3f79cd0","system_id":"levelo_inurba_marseille","lat":43.27492,"lon":5.42456,"is_reserved":false,"is_disabled":false,"rental_uris":{"android":"levelo://app?vid=3f3a1968-161c-4281-9dac-b1f6f3f79cd0","ios":"levelo://app?vid=3f3a1968-161c-4281-9dac-b1f6f3f79cd0"},"vehicle_type_id":"4","last_reported":1726988875,"current_range_meters":17600,"station_id":"ce4bhn92rcd13ifvqgrg","pricing_plan_id":"cebpf4jnsgd1na2vs0mg"},{"bike_id":"5f38f5a0-6e06-47f1-b5a1-c36008ced2b5","system_id":"levelo_inurba_marseille","lat":43.28459,"lon":5.35893,"is_reserved":false,"is_disabled":false,"rental_uris":{"android":"levelo://app?vid=5f38f5a0-6e06-47f1-b5a1-c36008ced2b5","ios":"levelo://app?vid=5f38f5a0-6e06-47f1-b5a1-c36008ced2b5"},"vehicle_type_id":"4","last_reported":1726988875,"current_range_meters":17200,"station_id":"ce4bhah2rcd13ifvqei0","pricing_plan_id":"cebpf4jnsgd1na2vs0mg"},{"bike_id":"a4ae4f79-4648-4b4c-bac6-c78ecf3d57bc","system_id":"levelo_inurba_marseille","lat":43.31083,"lon":5.42429,"is_reserved":false,"is_disabled":false,"rental_uris":{"android":"levelo://app?vid=a4ae4f79-4648-4b4c-bac6-c78ecf3d57bc","ios":"levelo://app?vid=a4ae4f79-4648-4b4c-bac6-c78ecf3d57bc"},"vehicle_type_id":"4","last_reported":1726988875,"current_range_meters":10800,"station_id":"ce4bhp92rcd13ifvqhag","pricing_plan_id":"cebpf4jnsgd1na2vs0mg"},{"bike_id":"18005f0f-cb04-4552-ac34-a83d28760a6b","system_id":"levelo_inurba_marseille","lat":43.28103,"lon":5.37816,"is_reserved":false,"is_disabled":false,"rental_uris":{"android":"levelo://app?vid=18005f0f-cb04-4552-ac34-a83d28760a6b","ios":"levelo://app?vid=18005f0f-cb04-4552-ac34-a83d28760a6b"},"vehicle_type_id":"4","last_reported":1726988875,"current_range_meters":38400,"station_id":"ce4bha12rcd13ifvqee0","pricing_plan_id":"cebpf4jnsgd1na2vs0mg"},{"bike_id":"1613dd11-4b97-4896-85a3-73470be49a6a","system_id":"levelo_inurba_marseille","lat":43.3171,"lon":5.43704,"is_reserved":false,"is_disabled":false,"rental_uris":{"android":"levelo://app?vid=1613dd11-4b97-4896-85a3-73470be49a6a","ios":"levelo://app?vid=1613dd11-4b97-4896-85a3-73470be49a6a"},"vehicle_type_id":"4","last_reported":1726988875,"current_range_meters":36800,"station_id":"ce4bhp92rcd13ifvqhcg","pricing_plan_id":"cebpf4jnsgd1na2vs0mg"},{"bike_id":"d4c3c260-b3a8-4fe5-aec9-07f42c5f5835","system_id":"levelo_inurba_marseille","lat":43.29031,"lon":5.35911,"is_reserved":false,"is_disabled":false,"rental_uris":{"android":"levelo://app?vid=d4c3c260-b3a8-4fe5-aec9-07f42c5f5835","ios":"levelo://app?vid=d4c3c260-b3a8-4fe5-aec9-07f42c5f5835"},"vehicle_type_id":"4","last_reported":1726988875,"current_range_meters":38800,"station_id":"ce4bha92rcd13ifvqeg0","pricing_plan_id":"cebpf4jnsgd1na2vs0mg"},{"bike_id":"6eb7f0eb-b1d6-49fe-bba6-beac0362eedd","system_id":"levelo_inurba_marseille","lat":43.27173,"lon":5.40991,"is_reserved":false,"is_disabled":false,"rental_uris":{"android":"levelo://app?vid=6eb7f0eb-b1d6-49fe-bba6-beac0362eedd","ios":"levelo://app?vid=6eb7f0eb-b1d6-49fe-bba6-beac0362eedd"},"vehicle_type_id":"4","last_reported":1726988875,"current_range_meters":38800,"station_id":"ce4bhl12rcd13ifvqgf0","pricing_plan_id":"cebpf4jnsgd1na2vs0mg"},{"bike_id":"e1181a64-e0c5-44b6-a184-90a821734232","system_id":"levelo_inurba_marseille","lat":43.26495,"lon":5.39535,"is_reserved":false,"is_disabled":false,"rental_uris":{"android":"levelo://app?vid=e1181a64-e0c5-44b6-a184-90a821734232","ios":"levelo://app?vid=e1181a64-e0c5-44b6-a184-90a821734232"},"vehicle_type_id":"4","last_reported":1726988875,"current_range_meters":30000,"station_id":"ce4bhi12rcd13ifvqfq0","pricing_plan_id":"cebpf4jnsgd1na2vs0mg"},{"bike_id":"96247566-d518-4409-a232-ee6adf73b250","system_id":"levelo_inurba_marseille","lat":43.28619,"lon":5.35098,"is_reserved":false,"is_disabled":false,"rental_uris":{"android":"levelo://app?vid=96247566-d518-4409-a232-ee6adf73b250","ios":"levelo://app?vid=96247566-d518-4409-a232-ee6adf73b250"},"vehicle_type_id":"4","last_reported":1726988875,"current_range_meters":38800,"station_id":"ce4bhch2rcd13ifvqeug","pricing_plan_id":"cebpf4jnsgd1na2vs0mg"},{"bike_id":"ddef2735-203a-4460-8fe2-32d0d088e5d5","system_id":"levelo_inurba_marseille","lat":43.31246,"lon":5.37982,"is_reserved":false,"is_disabled":false,"rental_uris":{"android":"levelo://app?vid=ddef2735-203a-4460-8fe2-32d0d088e5d5","ios":"levelo://app?vid=ddef2735-203a-4460-8fe2-32d0d088e5d5"},"vehicle_type_id":"4","last_reported":1726988875,"current_range_meters":7200,"station_id":"","pricing_plan_id":"cebpf4jnsgd1na2vs0mg"},{"bike_id":"c2aeaa9f-95d3-46e1-a6df-c50d01326656","system_id":"levelo_inurba_marseille","lat":43.29039,"lon":5.3996,"is_reserved":false,"is_disabled":false,"rental_uris":{"android":"levelo://app?vid=c2aeaa9f-95d3-46e1-a6df-c50d01326656","ios":"levelo://app?vid=c2aeaa9f-95d3-46e1-a6df-c50d01326656"},"vehicle_type_id":"4","last_reported":1726988875,"current_range_meters":28400,"station_id":"ce4bh392rcd13ifvqdm0","pricing_plan_id":"cebpf4jnsgd1na2vs0mg"},{"bike_id":"765fcc44-248d-45e5-95bf-89cb71612a65","system_id":"levelo_inurba_marseille","lat":43.29252,"lon":5.40909,"is_reserved":false,"is_disabled":false,"rental_uris":{"android":"levelo://app?vid=765fcc44-248d-45e5-95bf-89cb71612a65","ios":"levelo://app?vid=765fcc44-248d-45e5-95bf-89cb71612a65"},"vehicle_type_id":"4","last_reported":1726988875,"current_range_meters":39200,"station_id":"ce4bh192rcd13ifvqdc0","pricing_plan_id":"cebpf4jnsgd1na2vs0mg"},{"bike_id":"6827b231-1d6c-4880-9e24-d675a65cf584","system_id":"levelo_inurba_marseille","lat":43.32341,"lon":5.40626,"is_reserved":false,"is_disabled":false,"rental_uris":{"android":"levelo://app?vid=6827b231-1d6c-4880-9e24-d675a65cf584","ios":"levelo://app?vid=6827b231-1d6c-4880-9e24-d675a65cf584"},"vehicle_type_id":"4","last_reported":1726988875,"current_range_meters":8800,"station_id":"ce4bhq92rcd13ifvqhjg","pricing_plan_id":"cebpf4jnsgd1na2vs0mg"},{"bike_id":"0306de8e-8a38-4268-bad8-568b2c2495b5","system_id":"levelo_inurba_marseille","lat":43.26793,"lon":5.39409,"is_reserved":false,"is_disabled":false,"rental_uris":{"android":"levelo://app?vid=0306de8e-8a38-4268-bad8-568b2c2495b5","ios":"levelo://app?vid=0306de8e-8a38-4268-bad8-568b2c2495b5"},"vehicle_type_id":"4","last_reported":1726988875,"current_range_meters":38000,"station_id":"ce4bhh12rcd13ifvqfg0","pricing_plan_id":"cebpf4jnsgd1na2vs0mg"},{"bike_id":"c720ec5e-0ab2-45a5-b25f-0a0c3d86f039","system_id":"levelo_inurba_marseille","lat":43.32659,"lon":5.40984,"is_reserved":false,"is_disabled":false,"rental_uris":{"android":"levelo://app?vid=c720ec5e-0ab2-45a5-b25f-0a0c3d86f039","ios":"levelo://app?vid=c720ec5e-0ab2-45a5-b25f-0a0c3d86f039"},"vehicle_type_id":"4","last_reported":1726988875,"current_range_meters":38000,"station_id":"ce4bhpp2rcd13ifvqhgg","pricing_plan_id":"cebpf4jnsgd1na2vs0mg"},{"bike_id":"a87efb8d-244d-4091-8c4d-f77c1e152fac","system_id":"levelo_inurba_marseille","lat":43.27057,"lon":5.40261,"is_reserved":false,"is_disabled":false,"rental_uris":{"android":"levelo://app?vid=a87efb8d-244d-4091-8c4d-f77c1e152fac","ios":"levelo://app?vid=a87efb8d-244d-4091-8c4d-f77c1e152fac"},"vehicle_type_id":"4","last_reported":1726988875,"current_range_meters":17600,"station_id":"ce4bhk92rcd13ifvqgc0","pricing_plan_id":"cebpf4jnsgd1na2vs0mg"},{"bike_id":"50a589cc-8e46-464d-bd05-af50bf705ac6","system_id":"levelo_inurba_marseille","lat":43.312678,"lon":5.401633,"is_reserved":false,"is_disabled":false,"rental_uris":{"android":"levelo://app?vid=50a589cc-8e46-464d-bd05-af50bf705ac6","ios":"levelo://app?vid=50a589cc-8e46-464d-bd05-af50bf705ac6"},"vehicle_type_id":"4","last_reported":1726988875,"current_range_meters":3200,"station_id":"ce4bh012rcd13ifvqd00","pricing_plan_id":"cebpf4jnsgd1na2vs0mg"},{"bike_id":"c85384e8-7ffe-4c1b-b8e3-bfed30ec9d77","system_id":"levelo_inurba_marseille","lat":43.28417,"lon":5.3751,"is_reserved":false,"is_disabled":false,"rental_uris":{"android":"levelo://app?vid=c85384e8-7ffe-4c1b-b8e3-bfed30ec9d77","ios":"levelo://app?vid=c85384e8-7ffe-4c1b-b8e3-bfed30ec9d77"},"vehicle_type_id":"4","last_reported":1726988875,"current_range_meters":38800,"station_id":"ce4bh412rcd13ifvqds0","pricing_plan_id":"cebpf4jnsgd1na2vs0mg"},{"bike_id":"6419325f-76c1-4392-9dbc-8446db0b27c5","system_id":"levelo_inurba_marseille","lat":43.30275,"lon":5.38376,"is_reserved":false,"is_disabled":false,"rental_uris":{"android":"levelo://app?vid=6419325f-76c1-4392-9dbc-8446db0b27c5","ios":"levelo://app?vid=6419325f-76c1-4392-9dbc-8446db0b27c5"},"vehicle_type_id":"4","last_reported":1726988875,"current_range_meters":16800,"station_id":"","pricing_plan_id":"cebpf4jnsgd1na2vs0mg"},{"bike_id":"9b7369cf-12ea-470b-a069-bd3af48648d1","system_id":"levelo_inurba_marseille","lat":43.30899,"lon":5.3684,"is_reserved":false,"is_disabled":false,"rental_uris":{"android":"levelo://app?vid=9b7369cf-12ea-470b-a069-bd3af48648d1","ios":"levelo://app?vid=9b7369cf-12ea-470b-a069-bd3af48648d1"},"vehicle_type_id":"4","last_reported":1726988875,"current_range_meters":38800,"station_id":"ce4bgn92rcd13ifvqbvg","pricing_plan_id":"cebpf4jnsgd1na2vs0mg"},{"bike_id":"5ffd1444-1006-4454-af5f-adca8169af7a","system_id":"levelo_inurba_marseille","lat":43.23965,"lon":5.36621,"is_reserved":false,"is_disabled":false,"rental_uris":{"android":"levelo://app?vid=5ffd1444-1006-4454-af5f-adca8169af7a","ios":"levelo://app?vid=5ffd1444-1006-4454-af5f-adca8169af7a"},"vehicle_type_id":"4","last_reported":1726988875,"current_range_meters":38400,"station_id":"ce4bhi12rcd13ifvqfp0","pricing_plan_id":"cebpf4jnsgd1na2vs0mg"},{"bike_id":"bda83ca7-9798-4a91-9454-79010960b865","system_id":"levelo_inurba_marseille","lat":43.25721,"lon":5.41107,"is_reserved":false,"is_disabled":false,"rental_uris":{"android":"levelo://app?vid=bda83ca7-9798-4a91-9454-79010960b865","ios":"levelo://app?vid=bda83ca7-9798-4a91-9454-79010960b865"},"vehicle_type_id":"4","last_reported":1726988875,"current_range_meters":31200,"station_id":"ce4bhkp2rcd13ifvqgd0","pricing_plan_id":"cebpf4jnsgd1na2vs0mg"},{"bike_id":"2abfd0da-52ff-49fd-a5cb-a8f4dd818089","system_id":"levelo_inurba_marseille","lat":43.28156,"lon":5.42651,"is_reserved":false,"is_disabled":false,"rental_uris":{"android":"levelo://app?vid=2abfd0da-52ff-49fd-a5cb-a8f4dd818089","ios":"levelo://app?vid=2abfd0da-52ff-49fd-a5cb-a8f4dd818089"},"vehicle_type_id":"4","last_reported":1726988875,"current_range_meters":38000,"station_id":"ce4bhnh2rcd13ifvqgug","pricing_plan_id":"cebpf4jnsgd1na2vs0mg"},{"bike_id":"edfb1ff5-b81b-4225-8da9-100a9115b1e3","system_id":"levelo_inurba_marseille","lat":43.29735,"lon":5.36561,"is_reserved":false,"is_disabled":false,"rental_uris":{"android":"levelo://app?vid=edfb1ff5-b81b-4225-8da9-100a9115b1e3","ios":"levelo://app?vid=edfb1ff5-b81b-4225-8da9-100a9115b1e3"},"vehicle_type_id":"4","last_reported":1726988875,"current_range_meters":4800,"station_id":"","pricing_plan_id":"cebpf4jnsgd1na2vs0mg"},{"bike_id":"f546244a-65eb-486c-a7af-0ba1eaebe8c5","system_id":"levelo_inurba_marseille","lat":43.29042,"lon":5.39962,"is_reserved":false,"is_disabled":false,"rental_uris":{"android":"levelo://app?vid=f546244a-65eb-486c-a7af-0ba1eaebe8c5","ios":"levelo://app?vid=f546244a-65eb-486c-a7af-0ba1eaebe8c5"},"vehicle_type_id":"4","last_reported":1726988875,"current_range_meters":24000,"station_id":"ce4bh392rcd13ifvqdm0","pricing_plan_id":"cebpf4jnsgd1na2vs0mg"},{"bike_id":"e183f995-1eb3-447f-981c-bd060460043d","system_id":"levelo_inurba_marseille","lat":43.28412,"lon":5.37509,"is_reserved":false,"is_disabled":false,"rental_uris":{"android":"levelo://app?vid=e183f995-1eb3-447f-981c-bd060460043d","ios":"levelo://app?vid=e183f995-1eb3-447f-981c-bd060460043d"},"vehicle_type_id":"4","last_reported":1726988875,"current_range_meters":37600,"station_id":"ce4bh412rcd13ifvqds0","pricing_plan_id":"cebpf4jnsgd1na2vs0mg"},{"bike_id":"fb6934fd-0f84-475c-a266-0c68b4eaf556","system_id":"levelo_inurba_marseille","lat":43.28412,"lon":5.3752,"is_reserved":false,"is_disabled":false,"rental_uris":{"android":"levelo://app?vid=fb6934fd-0f84-475c-a266-0c68b4eaf556","ios":"levelo://app?vid=fb6934fd-0f84-475c-a266-0c68b4eaf556"},"vehicle_type_id":"4","last_reported":1726988875,"current_range_meters":38800,"station_id":"ce4bh412rcd13ifvqds0","pricing_plan_id":"cebpf4jnsgd1na2vs0mg"},{"bike_id":"2ec63d0f-1fb9-49d0-9b49-38ec6ad1fbe0","system_id":"levelo_inurba_marseille","lat":43.30784,"lon":5.3766,"is_reserved":false,"is_disabled":false,"rental_uris":{"android":"levelo://app?vid=2ec63d0f-1fb9-49d0-9b49-38ec6ad1fbe0","ios":"levelo://app?vid=2ec63d0f-1fb9-49d0-9b49-38ec6ad1fbe0"},"vehicle_type_id":"4","last_reported":1726988875,"current_range_meters":39200,"station_id":"ce4bgv92rcd13ifvqcq0","pricing_plan_id":"cebpf4jnsgd1na2vs0mg"},{"bike_id":"c914526b-bc34-4a4c-8d27-ef89019aa801","system_id":"levelo_inurba_marseille","lat":43.29558,"lon":5.42291,"is_reserved":false,"is_disabled":false,"rental_uris":{"android":"levelo://app?vid=c914526b-bc34-4a4c-8d27-ef89019aa801","ios":"levelo://app?vid=c914526b-bc34-4a4c-8d27-ef89019aa801"},"vehicle_type_id":"4","last_reported":1726988875,"current_range_meters":16400,"station_id":"ce4bhph2rcd13ifvqhdg","pricing_plan_id":"cebpf4jnsgd1na2vs0mg"},{"bike_id":"1e36dc23-aa9d-4cac-91fc-380ccf78f185","system_id":"levelo_inurba_marseille","lat":43.2987,"lon":5.39738,"is_reserved":false,"is_disabled":false,"rental_uris":{"android":"levelo://app?vid=1e36dc23-aa9d-4cac-91fc-380ccf78f185","ios":"levelo://app?vid=1e36dc23-aa9d-4cac-91fc-380ccf78f185"},"vehicle_type_id":"4","last_reported":1726988875,"current_range_meters":39200,"station_id":"ce4bh0h2rcd13ifvqd50","pricing_plan_id":"cebpf4jnsgd1na2vs0mg"},{"bike_id":"14405408-a4af-4192-a5c2-bd91372c8ade","system_id":"levelo_inurba_marseille","lat":43.3015,"lon":5.39881,"is_reserved":false,"is_disabled":false,"rental_uris":{"android":"levelo://app?vid=14405408-a4af-4192-a5c2-bd91372c8ade","ios":"levelo://app?vid=14405408-a4af-4192-a5c2-bd91372c8ade"},"vehicle_type_id":"4","last_reported":1726988875,"current_range_meters":28400,"station_id":"ce4bh0h2rcd13ifvqd40","pricing_plan_id":"cebpf4jnsgd1na2vs0mg"},{"bike_id":"9a56137e-f4eb-44f4-a773-9bfcc24cf544","system_id":"levelo_inurba_marseille","lat":43.27211,"lon":5.39177,"is_reserved":false,"is_disabled":false,"rental_uris":{"android":"levelo://app?vid=9a56137e-f4eb-44f4-a773-9bfcc24cf544","ios":"levelo://app?vid=9a56137e-f4eb-44f4-a773-9bfcc24cf544"},"vehicle_type_id":"4","last_reported":1726988875,"current_range_meters":9600,"station_id":"ce4bhhp2rcd13ifvqfm0","pricing_plan_id":"cebpf4jnsgd1na2vs0mg"},{"bike_id":"9b270c0b-276d-47a0-b1ea-db76f7a1e4e2","system_id":"levelo_inurba_marseille","lat":43.27375,"lon":5.36252,"is_reserved":false,"is_disabled":false,"rental_uris":{"android":"levelo://app?vid=9b270c0b-276d-47a0-b1ea-db76f7a1e4e2","ios":"levelo://app?vid=9b270c0b-276d-47a0-b1ea-db76f7a1e4e2"},"vehicle_type_id":"4","last_reported":1726988875,"current_range_meters":39200,"station_id":"ce4bhbh2rcd13ifvqeo0","pricing_plan_id":"cebpf4jnsgd1na2vs0mg"},{"bike_id":"03bad859-4358-4bb4-9b18-007f8463f1b5","system_id":"levelo_inurba_marseille","lat":43.23186,"lon":5.39982,"is_reserved":false,"is_disabled":false,"rental_uris":{"android":"levelo://app?vid=03bad859-4358-4bb4-9b18-007f8463f1b5","ios":"levelo://app?vid=03bad859-4358-4bb4-9b18-007f8463f1b5"},"vehicle_type_id":"4","last_reported":1726988875,"current_range_meters":39200,"station_id":"ce4bhn12rcd13ifvqgqg","pricing_plan_id":"cebpf4jnsgd1na2vs0mg"},{"bike_id":"72893abd-c62a-46e9-b638-e54ec5476bce","system_id":"levelo_inurba_marseille","lat":43.30423,"lon":5.41273,"is_reserved":false,"is_disabled":false,"rental_uris":{"android":"levelo://app?vid=72893abd-c62a-46e9-b638-e54ec5476bce","ios":"levelo://app?vid=72893abd-c62a-46e9-b638-e54ec5476bce"},"vehicle_type_id":"4","last_reported":1726988875,"current_range_meters":24800,"station_id":"ce4bhop2rcd13ifvqh8g","pricing_plan_id":"cebpf4jnsgd1na2vs0mg"},{"bike_id":"ea219450-0551-484e-bdfc-3c198bec9523","system_id":"levelo_inurba_marseille","lat":43.25866,"lon":5.39901,"is_reserved":false,"is_disabled":false,"rental_uris":{"android":"levelo://app?vid=ea219450-0551-484e-bdfc-3c198bec9523","ios":"levelo://app?vid=ea219450-0551-484e-bdfc-3c198bec9523"},"vehicle_type_id":"4","last_reported":1726988875,"current_range_meters":22800,"station_id":"ce4bhl92rcd13ifvqghg","pricing_plan_id":"cebpf4jnsgd1na2vs0mg"},{"bike_id":"be4e3a6b-ebd3-49c9-9eb8-d3f1c777207e","system_id":"levelo_inurba_marseille","lat":43.25115,"lon":5.40317,"is_reserved":false,"is_disabled":false,"rental_uris":{"android":"levelo://app?vid=be4e3a6b-ebd3-49c9-9eb8-d3f1c777207e","ios":"levelo://app?vid=be4e3a6b-ebd3-49c9-9eb8-d3f1c777207e"},"vehicle_type_id":"4","last_reported":1726988875,"current_range_meters":9200,"station_id":"ce4bhlh2rcd13ifvqgig","pricing_plan_id":"cebpf4jnsgd1na2vs0mg"},{"bike_id":"850b08d8-ed42-4ad0-b0d6-020b1b8ae309","system_id":"levelo_inurba_marseille","lat":43.29558,"lon":5.42283,"is_reserved":false,"is_disabled":false,"rental_uris":{"android":"levelo://app?vid=850b08d8-ed42-4ad0-b0d6-020b1b8ae309","ios":"levelo://app?vid=850b08d8-ed42-4ad0-b0d6-020b1b8ae309"},"vehicle_type_id":"4","last_reported":1726988875,"current_range_meters":13600,"station_id":"ce4bhph2rcd13ifvqhdg","pricing_plan_id":"cebpf4jnsgd1na2vs0mg"},{"bike_id":"bc1149f7-f94a-4856-9e54-7257453ebd01","system_id":"levelo_inurba_marseille","lat":43.27176,"lon":5.40986,"is_reserved":false,"is_disabled":false,"rental_uris":{"android":"levelo://app?vid=bc1149f7-f94a-4856-9e54-7257453ebd01","ios":"levelo://app?vid=bc1149f7-f94a-4856-9e54-7257453ebd01"},"vehicle_type_id":"4","last_reported":1726988875,"current_range_meters":38800,"station_id":"ce4bhl12rcd13ifvqgf0","pricing_plan_id":"cebpf4jnsgd1na2vs0mg"},{"bike_id":"bc604d51-e3a3-428e-a3f1-ff462b3012dc","system_id":"levelo_inurba_marseille","lat":43.26565,"lon":5.38991,"is_reserved":false,"is_disabled":false,"rental_uris":{"android":"levelo://app?vid=bc604d51-e3a3-428e-a3f1-ff462b3012dc","ios":"levelo://app?vid=bc604d51-e3a3-428e-a3f1-ff462b3012dc"},"vehicle_type_id":"4","last_reported":1726988875,"current_range_meters":9600,"station_id":"ce4bhe12rcd13ifvqf30","pricing_plan_id":"cebpf4jnsgd1na2vs0mg"},{"bike_id":"0e80655c-5b3d-43d7-a3a0-9c317c246d02","system_id":"levelo_inurba_marseille","lat":43.25119,"lon":5.40318,"is_reserved":false,"is_disabled":false,"rental_uris":{"android":"levelo://app?vid=0e80655c-5b3d-43d7-a3a0-9c317c246d02","ios":"levelo://app?vid=0e80655c-5b3d-43d7-a3a0-9c317c246d02"},"vehicle_type_id":"4","last_reported":1726988875,"current_range_meters":39200,"station_id":"ce4bhlh2rcd13ifvqgig","pricing_plan_id":"cebpf4jnsgd1na2vs0mg"},{"bike_id":"3343ef3c-e354-48de-a3b4-a56cdf0ba7de","system_id":"levelo_inurba_marseille","lat":43.28669,"lon":5.36357,"is_reserved":false,"is_disabled":false,"rental_uris":{"android":"levelo://app?vid=3343ef3c-e354-48de-a3b4-a56cdf0ba7de","ios":"levelo://app?vid=3343ef3c-e354-48de-a3b4-a56cdf0ba7de"},"vehicle_type_id":"4","last_reported":1726988875,"current_range_meters":39200,"station_id":"ce4bhah2rcd13ifvqej0","pricing_plan_id":"cebpf4jnsgd1na2vs0mg"},{"bike_id":"d73cb9a1-7fa0-40ee-a7ea-89e46c73a80a","system_id":"levelo_inurba_marseille","lat":43.29277,"lon":5.40122,"is_reserved":false,"is_disabled":false,"rental_uris":{"android":"levelo://app?vid=d73cb9a1-7fa0-40ee-a7ea-89e46c73a80a","ios":"levelo://app?vid=d73cb9a1-7fa0-40ee-a7ea-89e46c73a80a"},"vehicle_type_id":"4","last_reported":1726988875,"current_range_meters":8800,"station_id":"ce4bh312rcd13ifvqdk0","pricing_plan_id":"cebpf4jnsgd1na2vs0mg"},{"bike_id":"2b174578-df82-4ffe-b419-3fc4fd87e22b","system_id":"levelo_inurba_marseille","lat":43.30894,"lon":5.372,"is_reserved":false,"is_disabled":false,"rental_uris":{"android":"levelo://app?vid=2b174578-df82-4ffe-b419-3fc4fd87e22b","ios":"levelo://app?vid=2b174578-df82-4ffe-b419-3fc4fd87e22b"},"vehicle_type_id":"4","last_reported":1726988875,"current_range_meters":2000,"station_id":"ce4bguh2rcd13ifvqckg","pricing_plan_id":"cebpf4jnsgd1na2vs0mg"},{"bike_id":"38c4787b-3262-4750-bd86-0d940a72a75e","system_id":"levelo_inurba_marseille","lat":43.28435,"lon":5.39185,"is_reserved":false,"is_disabled":false,"rental_uris":{"android":"levelo://app?vid=38c4787b-3262-4750-bd86-0d940a72a75e","ios":"levelo://app?vid=38c4787b-3262-4750-bd86-0d940a72a75e"},"vehicle_type_id":"4","last_reported":1726988875,"current_range_meters":25600,"station_id":"ce4bhoh2rcd13ifvqh5g","pricing_plan_id":"cebpf4jnsgd1na2vs0mg"},{"bike_id":"7f6c13e6-2b1e-406a-8e3b-b6e6ea68c1f8","system_id":"levelo_inurba_marseille","lat":43.29265,"lon":5.40131,"is_reserved":false,"is_disabled":false,"rental_uris":{"android":"levelo://app?vid=7f6c13e6-2b1e-406a-8e3b-b6e6ea68c1f8","ios":"levelo://app?vid=7f6c13e6-2b1e-406a-8e3b-b6e6ea68c1f8"},"vehicle_type_id":"4","last_reported":1726988875,"current_range_meters":19200,"station_id":"ce4bh312rcd13ifvqdk0","pricing_plan_id":"cebpf4jnsgd1na2vs0mg"},{"bike_id":"54b7f973-33ed-4b77-bfc3-7847058bc7a6","system_id":"levelo_inurba_marseille","lat":43.31725,"lon":5.42406,"is_reserved":false,"is_disabled":false,"rental_uris":{"android":"levelo://app?vid=54b7f973-33ed-4b77-bfc3-7847058bc7a6","ios":"levelo://app?vid=54b7f973-33ed-4b77-bfc3-7847058bc7a6"},"vehicle_type_id":"4","last_reported":1726988875,"current_range_meters":39200,"station_id":"ce4bhp92rcd13ifvqhbg","pricing_plan_id":"cebpf4jnsgd1na2vs0mg"},{"bike_id":"324838dc-eded-4141-be86-0d69b3166d8a","system_id":"levelo_inurba_marseille","lat":43.23467,"lon":5.38104,"is_reserved":false,"is_disabled":false,"rental_uris":{"android":"levelo://app?vid=324838dc-eded-4141-be86-0d69b3166d8a","ios":"levelo://app?vid=324838dc-eded-4141-be86-0d69b3166d8a"},"vehicle_type_id":"4","last_reported":1726988875,"current_range_meters":9200,"station_id":"","pricing_plan_id":"cebpf4jnsgd1na2vs0mg"},{"bike_id":"4ea8b4f4-c76c-442f-b7c8-05eff8f0c4da","system_id":"levelo_inurba_marseille","lat":43.26944,"lon":5.40244,"is_reserved":false,"is_disabled":false,"rental_uris":{"android":"levelo://app?vid=4ea8b4f4-c76c-442f-b7c8-05eff8f0c4da","ios":"levelo://app?vid=4ea8b4f4-c76c-442f-b7c8-05eff8f0c4da"},"vehicle_type_id":"4","last_reported":1726988875,"current_range_meters":38800,"station_id":"cjm6bp8fraef2m0cb0m0","pricing_plan_id":"cebpf4jnsgd1na2vs0mg"},{"bike_id":"beacb111-21d6-41d5-938a-51b7d1d64f42","system_id":"levelo_inurba_marseille","lat":43.280502,"lon":5.40069,"is_reserved":false,"is_disabled":false,"rental_uris":{"android":"levelo://app?vid=beacb111-21d6-41d5-938a-51b7d1d64f42","ios":"levelo://app?vid=beacb111-21d6-41d5-938a-51b7d1d64f42"},"vehicle_type_id":"4","last_reported":1726988875,"current_range_meters":400,"station_id":"","pricing_plan_id":"cebpf4jnsgd1na2vs0mg"},{"bike_id":"5419b1bf-d37c-4076-a34c-52ede101758e","system_id":"levelo_inurba_marseille","lat":43.337444,"lon":5.374475,"is_reserved":false,"is_disabled":false,"rental_uris":{"android":"levelo://app?vid=5419b1bf-d37c-4076-a34c-52ede101758e","ios":"levelo://app?vid=5419b1bf-d37c-4076-a34c-52ede101758e"},"vehicle_type_id":"4","last_reported":1726988875,"current_range_meters":28800,"station_id":"","pricing_plan_id":"cebpf4jnsgd1na2vs0mg"},{"bike_id":"013a1a54-8c71-4d7d-ad66-178705a1f09a","system_id":"levelo_inurba_marseille","lat":43.25874,"lon":5.39898,"is_reserved":false,"is_disabled":false,"rental_uris":{"android":"levelo://app?vid=013a1a54-8c71-4d7d-ad66-178705a1f09a","ios":"levelo://app?vid=013a1a54-8c71-4d7d-ad66-178705a1f09a"},"vehicle_type_id":"4","last_reported":1726988875,"current_range_meters":39200,"station_id":"ce4bhl92rcd13ifvqghg","pricing_plan_id":"cebpf4jnsgd1na2vs0mg"},{"bike_id":"3d11801b-4666-46ed-99aa-aabfb05b911e","system_id":"levelo_inurba_marseille","lat":43.31997,"lon":5.38146,"is_reserved":false,"is_disabled":false,"rental_uris":{"android":"levelo://app?vid=3d11801b-4666-46ed-99aa-aabfb05b911e","ios":"levelo://app?vid=3d11801b-4666-46ed-99aa-aabfb05b911e"},"vehicle_type_id":"4","last_reported":1726988875,"current_range_meters":39200,"station_id":"ce4bhr12rcd13ifvqhpg","pricing_plan_id":"cebpf4jnsgd1na2vs0mg"},{"bike_id":"2673b1af-9135-43a4-8271-b37cf775e47e","system_id":"levelo_inurba_marseille","lat":43.33604,"lon":5.41031,"is_reserved":false,"is_disabled":false,"rental_uris":{"android":"levelo://app?vid=2673b1af-9135-43a4-8271-b37cf775e47e","ios":"levelo://app?vid=2673b1af-9135-43a4-8271-b37cf775e47e"},"vehicle_type_id":"4","last_reported":1726988875,"current_range_meters":39200,"station_id":"ce4bhqh2rcd13ifvqhmg","pricing_plan_id":"cebpf4jnsgd1na2vs0mg"},{"bike_id":"1b037c9a-bb02-41f7-81f7-2761fe7dd92b","system_id":"levelo_inurba_marseille","lat":43.26216,"lon":5.37445,"is_reserved":false,"is_disabled":false,"rental_uris":{"android":"levelo://app?vid=1b037c9a-bb02-41f7-81f7-2761fe7dd92b","ios":"levelo://app?vid=1b037c9a-bb02-41f7-81f7-2761fe7dd92b"},"vehicle_type_id":"4","last_reported":1726988875,"current_range_meters":36000,"station_id":"ce4bhgp2rcd13ifvqfc0","pricing_plan_id":"cebpf4jnsgd1na2vs0mg"},{"bike_id":"9108d179-c0f8-4605-b738-c07adbfdb13a","system_id":"levelo_inurba_marseille","lat":43.28478,"lon":5.38405,"is_reserved":false,"is_disabled":false,"rental_uris":{"android":"levelo://app?vid=9108d179-c0f8-4605-b738-c07adbfdb13a","ios":"levelo://app?vid=9108d179-c0f8-4605-b738-c07adbfdb13a"},"vehicle_type_id":"4","last_reported":1726988875,"current_range_meters":24000,"station_id":"ce4bh512rcd13ifvqe3g","pricing_plan_id":"cebpf4jnsgd1na2vs0mg"},{"bike_id":"470259e3-b1c4-4a86-b9be-ae3f1006b367","system_id":"levelo_inurba_marseille","lat":43.3133,"lon":5.39695,"is_reserved":false,"is_disabled":false,"rental_uris":{"android":"levelo://app?vid=470259e3-b1c4-4a86-b9be-ae3f1006b367","ios":"levelo://app?vid=470259e3-b1c4-4a86-b9be-ae3f1006b367"},"vehicle_type_id":"4","last_reported":1726988875,"current_range_meters":38400,"station_id":"ce4bgvp2rcd13ifvqcu0","pricing_plan_id":"cebpf4jnsgd1na2vs0mg"},{"bike_id":"a56961ed-dc63-4ab6-b0b0-4375fdb3e8e1","system_id":"levelo_inurba_marseille","lat":43.28568,"lon":5.39498,"is_reserved":false,"is_disabled":false,"rental_uris":{"android":"levelo://app?vid=a56961ed-dc63-4ab6-b0b0-4375fdb3e8e1","ios":"levelo://app?vid=a56961ed-dc63-4ab6-b0b0-4375fdb3e8e1"},"vehicle_type_id":"4","last_reported":1726988875,"current_range_meters":30800,"station_id":"ce4bh292rcd13ifvqdg0","pricing_plan_id":"cebpf4jnsgd1na2vs0mg"},{"bike_id":"cac34d75-f381-4336-8309-a17a4a0c1d69","system_id":"levelo_inurba_marseille","lat":43.25717,"lon":5.41111,"is_reserved":false,"is_disabled":false,"rental_uris":{"android":"levelo://app?vid=cac34d75-f381-4336-8309-a17a4a0c1d69","ios":"levelo://app?vid=cac34d75-f381-4336-8309-a17a4a0c1d69"},"vehicle_type_id":"4","last_reported":1726988875,"current_range_meters":24800,"station_id":"ce4bhkp2rcd13ifvqgd0","pricing_plan_id":"cebpf4jnsgd1na2vs0mg"},{"bike_id":"5f970973-f4f4-4937-9fbe-7af0359838f0","system_id":"levelo_inurba_marseille","lat":43.32342,"lon":5.40617,"is_reserved":false,"is_disabled":false,"rental_uris":{"android":"levelo://app?vid=5f970973-f4f4-4937-9fbe-7af0359838f0","ios":"levelo://app?vid=5f970973-f4f4-4937-9fbe-7af0359838f0"},"vehicle_type_id":"4","last_reported":1726988875,"current_range_meters":27600,"station_id":"ce4bhq92rcd13ifvqhjg","pricing_plan_id":"cebpf4jnsgd1na2vs0mg"},{"bike_id":"f59f9f07-2020-454d-8f62-ca65292624a4","system_id":"levelo_inurba_marseille","lat":43.31329,"lon":5.39694,"is_reserved":false,"is_disabled":false,"rental_uris":{"android":"levelo://app?vid=f59f9f07-2020-454d-8f62-ca65292624a4","ios":"levelo://app?vid=f59f9f07-2020-454d-8f62-ca65292624a4"},"vehicle_type_id":"4","last_reported":1726988875,"current_range_meters":36800,"station_id":"ce4bgvp2rcd13ifvqcu0","pricing_plan_id":"cebpf4jnsgd1na2vs0mg"},{"bike_id":"4d6f1b65-a95d-4510-bfbf-2bbf8ac25c86","system_id":"levelo_inurba_marseille","lat":43.31533,"lon":5.38023,"is_reserved":false,"is_disabled":false,"rental_uris":{"android":"levelo://app?vid=4d6f1b65-a95d-4510-bfbf-2bbf8ac25c86","ios":"levelo://app?vid=4d6f1b65-a95d-4510-bfbf-2bbf8ac25c86"},"vehicle_type_id":"4","last_reported":1726988875,"current_range_meters":30800,"station_id":"ce4bhsp2rcd13ifvqi50","pricing_plan_id":"cebpf4jnsgd1na2vs0mg"},{"bike_id":"f6cc7d13-4456-4c38-8562-d14e0b0da3bc","system_id":"levelo_inurba_marseille","lat":43.29278,"lon":5.36848,"is_reserved":false,"is_disabled":false,"rental_uris":{"android":"levelo://app?vid=f6cc7d13-4456-4c38-8562-d14e0b0da3bc","ios":"levelo://app?vid=f6cc7d13-4456-4c38-8562-d14e0b0da3bc"},"vehicle_type_id":"4","last_reported":1726988875,"current_range_meters":32400,"station_id":"ce4bhbp2rcd13ifvqesg","pricing_plan_id":"cebpf4jnsgd1na2vs0mg"},{"bike_id":"e9519760-4bc9-4ccc-8913-faa65ced2e8f","system_id":"levelo_inurba_marseille","lat":43.28706,"lon":5.39974,"is_reserved":false,"is_disabled":false,"rental_uris":{"android":"levelo://app?vid=e9519760-4bc9-4ccc-8913-faa65ced2e8f","ios":"levelo://app?vid=e9519760-4bc9-4ccc-8913-faa65ced2e8f"},"vehicle_type_id":"4","last_reported":1726988875,"current_range_meters":38000,"station_id":"ce4bho92rcd13ifvqh3g","pricing_plan_id":"cebpf4jnsgd1na2vs0mg"},{"bike_id":"f196cae4-4da8-4191-8e3a-3f8fcdaa11a6","system_id":"levelo_inurba_marseille","lat":43.31074,"lon":5.3836,"is_reserved":false,"is_disabled":false,"rental_uris":{"android":"levelo://app?vid=f196cae4-4da8-4191-8e3a-3f8fcdaa11a6","ios":"levelo://app?vid=f196cae4-4da8-4191-8e3a-3f8fcdaa11a6"},"vehicle_type_id":"4","last_reported":1726988875,"current_range_meters":34800,"station_id":"ce4bgv92rcd13ifvqcr0","pricing_plan_id":"cebpf4jnsgd1na2vs0mg"},{"bike_id":"915340f7-a17f-44b0-ba7c-21f3b9d727ea","system_id":"levelo_inurba_marseille","lat":43.29556,"lon":5.42285,"is_reserved":false,"is_disabled":false,"rental_uris":{"android":"levelo://app?vid=915340f7-a17f-44b0-ba7c-21f3b9d727ea","ios":"levelo://app?vid=915340f7-a17f-44b0-ba7c-21f3b9d727ea"},"vehicle_type_id":"4","last_reported":1726988875,"current_range_meters":27600,"station_id":"ce4bhph2rcd13ifvqhdg","pricing_plan_id":"cebpf4jnsgd1na2vs0mg"},{"bike_id":"149779fc-bc45-458a-857f-33707eedaf6a","system_id":"levelo_inurba_marseille","lat":43.23197,"lon":5.35554,"is_reserved":false,"is_disabled":false,"rental_uris":{"android":"levelo://app?vid=149779fc-bc45-458a-857f-33707eedaf6a","ios":"levelo://app?vid=149779fc-bc45-458a-857f-33707eedaf6a"},"vehicle_type_id":"4","last_reported":1726988875,"current_range_meters":16800,"station_id":"ce4bhu92rcd13ifvqi70","pricing_plan_id":"cebpf4jnsgd1na2vs0mg"},{"bike_id":"886ef885-2e29-4a5a-9fda-6e6c4ef6282a","system_id":"levelo_inurba_marseille","lat":43.296,"lon":5.38103,"is_reserved":false,"is_disabled":false,"rental_uris":{"android":"levelo://app?vid=886ef885-2e29-4a5a-9fda-6e6c4ef6282a","ios":"levelo://app?vid=886ef885-2e29-4a5a-9fda-6e6c4ef6282a"},"vehicle_type_id":"4","last_reported":1726988875,"current_range_meters":38400,"station_id":"ce4bgl12rcd13ifvqbo0","pricing_plan_id":"cebpf4jnsgd1na2vs0mg"},{"bike_id":"cbed4723-8d01-44bc-9575-7e32d59f63ec","system_id":"levelo_inurba_marseille","lat":43.28085,"lon":5.3964,"is_reserved":false,"is_disabled":false,"rental_uris":{"android":"levelo://app?vid=cbed4723-8d01-44bc-9575-7e32d59f63ec","ios":"levelo://app?vid=cbed4723-8d01-44bc-9575-7e32d59f63ec"},"vehicle_type_id":"4","last_reported":1726988875,"current_range_meters":39200,"station_id":"ce4bho12rcd13ifvqh2g","pricing_plan_id":"cebpf4jnsgd1na2vs0mg"},{"bike_id":"080c27f8-449d-4325-a7d5-cc9e03b11a4f","system_id":"levelo_inurba_marseille","lat":43.23185,"lon":5.39982,"is_reserved":false,"is_disabled":false,"rental_uris":{"android":"levelo://app?vid=080c27f8-449d-4325-a7d5-cc9e03b11a4f","ios":"levelo://app?vid=080c27f8-449d-4325-a7d5-cc9e03b11a4f"},"vehicle_type_id":"4","last_reported":1726988875,"current_range_meters":25200,"station_id":"ce4bhn12rcd13ifvqgqg","pricing_plan_id":"cebpf4jnsgd1na2vs0mg"},{"bike_id":"9c953aea-1601-4259-a38b-3d5e06643e05","system_id":"levelo_inurba_marseille","lat":43.27623,"lon":5.36113,"is_reserved":false,"is_disabled":false,"rental_uris":{"android":"levelo://app?vid=9c953aea-1601-4259-a38b-3d5e06643e05","ios":"levelo://app?vid=9c953aea-1601-4259-a38b-3d5e06643e05"},"vehicle_type_id":"4","last_reported":1726988875,"current_range_meters":38800,"station_id":"ce4bgj92rcd13ifvqbe0","pricing_plan_id":"cebpf4jnsgd1na2vs0mg"},{"bike_id":"bbb13e8a-5e7e-44c9-afc9-214f1554592c","system_id":"levelo_inurba_marseille","lat":43.25108,"lon":5.40321,"is_reserved":false,"is_disabled":false,"rental_uris":{"android":"levelo://app?vid=bbb13e8a-5e7e-44c9-afc9-214f1554592c","ios":"levelo://app?vid=bbb13e8a-5e7e-44c9-afc9-214f1554592c"},"vehicle_type_id":"4","last_reported":1726988875,"current_range_meters":38400,"station_id":"ce4bhlh2rcd13ifvqgig","pricing_plan_id":"cebpf4jnsgd1na2vs0mg"},{"bike_id":"7d903340-b844-4bfb-bb1e-f140d594d2c5","system_id":"levelo_inurba_marseille","lat":43.3036,"lon":5.41872,"is_reserved":false,"is_disabled":false,"rental_uris":{"android":"levelo://app?vid=7d903340-b844-4bfb-bb1e-f140d594d2c5","ios":"levelo://app?vid=7d903340-b844-4bfb-bb1e-f140d594d2c5"},"vehicle_type_id":"4","last_reported":1726988875,"current_range_meters":36000,"station_id":"ce4bhop2rcd13ifvqh7g","pricing_plan_id":"cebpf4jnsgd1na2vs0mg"},{"bike_id":"3029a821-4f09-426b-9136-c97c9c0dcd3a","system_id":"levelo_inurba_marseille","lat":43.26493,"lon":5.39545,"is_reserved":false,"is_disabled":false,"rental_uris":{"android":"levelo://app?vid=3029a821-4f09-426b-9136-c97c9c0dcd3a","ios":"levelo://app?vid=3029a821-4f09-426b-9136-c97c9c0dcd3a"},"vehicle_type_id":"4","last_reported":1726988875,"current_range_meters":38000,"station_id":"ce4bhi12rcd13ifvqfq0","pricing_plan_id":"cebpf4jnsgd1na2vs0mg"},{"bike_id":"61437227-be5e-4999-bb29-38fdb6c6fcc9","system_id":"levelo_inurba_marseille","lat":43.30464,"lon":5.37899,"is_reserved":false,"is_disabled":false,"rental_uris":{"android":"levelo://app?vid=61437227-be5e-4999-bb29-38fdb6c6fcc9","ios":"levelo://app?vid=61437227-be5e-4999-bb29-38fdb6c6fcc9"},"vehicle_type_id":"4","last_reported":1726988875,"current_range_meters":39200,"station_id":"ce4bgup2rcd13ifvqcn0","pricing_plan_id":"cebpf4jnsgd1na2vs0mg"},{"bike_id":"604c9531-be4f-4974-bfe2-bd7828d7386f","system_id":"levelo_inurba_marseille","lat":43.29899,"lon":5.43667,"is_reserved":false,"is_disabled":false,"rental_uris":{"android":"levelo://app?vid=604c9531-be4f-4974-bfe2-bd7828d7386f","ios":"levelo://app?vid=604c9531-be4f-4974-bfe2-bd7828d7386f"},"vehicle_type_id":"4","last_reported":1726988875,"current_range_meters":18800,"station_id":"ce4bhpp2rcd13ifvqhfg","pricing_plan_id":"cebpf4jnsgd1na2vs0mg"},{"bike_id":"eec183a6-fbde-4115-8944-4e614e79191d","system_id":"levelo_inurba_marseille","lat":43.2694,"lon":5.40246,"is_reserved":false,"is_disabled":false,"rental_uris":{"android":"levelo://app?vid=eec183a6-fbde-4115-8944-4e614e79191d","ios":"levelo://app?vid=eec183a6-fbde-4115-8944-4e614e79191d"},"vehicle_type_id":"4","last_reported":1726988875,"current_range_meters":8400,"station_id":"cjm6bp8fraef2m0cb0m0","pricing_plan_id":"cebpf4jnsgd1na2vs0mg"},{"bike_id":"dffd4f54-b346-4788-86ea-8f518e84719a","system_id":"levelo_inurba_marseille","lat":43.31892,"lon":5.4073,"is_reserved":false,"is_disabled":false,"rental_uris":{"android":"levelo://app?vid=dffd4f54-b346-4788-86ea-8f518e84719a","ios":"levelo://app?vid=dffd4f54-b346-4788-86ea-8f518e84719a"},"vehicle_type_id":"4","last_reported":1726988875,"current_range_meters":20800,"station_id":"ce4bhq12rcd13ifvqhig","pricing_plan_id":"cebpf4jnsgd1na2vs0mg"},{"bike_id":"46121cc0-436d-4cf1-9853-45960b7d4d1b","system_id":"levelo_inurba_marseille","lat":43.23971,"lon":5.3662,"is_reserved":false,"is_disabled":false,"rental_uris":{"android":"levelo://app?vid=46121cc0-436d-4cf1-9853-45960b7d4d1b","ios":"levelo://app?vid=46121cc0-436d-4cf1-9853-45960b7d4d1b"},"vehicle_type_id":"4","last_reported":1726988875,"current_range_meters":36800,"station_id":"ce4bhi12rcd13ifvqfp0","pricing_plan_id":"cebpf4jnsgd1na2vs0mg"},{"bike_id":"90d8a09e-2181-4187-81ec-24698bc4e496","system_id":"levelo_inurba_marseille","lat":43.28703,"lon":5.39987,"is_reserved":false,"is_disabled":false,"rental_uris":{"android":"levelo://app?vid=90d8a09e-2181-4187-81ec-24698bc4e496","ios":"levelo://app?vid=90d8a09e-2181-4187-81ec-24698bc4e496"},"vehicle_type_id":"4","last_reported":1726988875,"current_range_meters":39200,"station_id":"ce4bho92rcd13ifvqh3g","pricing_plan_id":"cebpf4jnsgd1na2vs0mg"},{"bike_id":"a9c4e9fb-0f73-438a-824a-d6ee5d2dc395","system_id":"levelo_inurba_marseille","lat":43.23966,"lon":5.36632,"is_reserved":false,"is_disabled":false,"rental_uris":{"android":"levelo://app?vid=a9c4e9fb-0f73-438a-824a-d6ee5d2dc395","ios":"levelo://app?vid=a9c4e9fb-0f73-438a-824a-d6ee5d2dc395"},"vehicle_type_id":"4","last_reported":1726988875,"current_range_meters":17600,"station_id":"ce4bhi12rcd13ifvqfp0","pricing_plan_id":"cebpf4jnsgd1na2vs0mg"},{"bike_id":"226a0941-0c72-4b00-be32-622ea037304a","system_id":"levelo_inurba_marseille","lat":43.28621,"lon":5.35103,"is_reserved":false,"is_disabled":false,"rental_uris":{"android":"levelo://app?vid=226a0941-0c72-4b00-be32-622ea037304a","ios":"levelo://app?vid=226a0941-0c72-4b00-be32-622ea037304a"},"vehicle_type_id":"4","last_reported":1726988875,"current_range_meters":38800,"station_id":"ce4bhch2rcd13ifvqeug","pricing_plan_id":"cebpf4jnsgd1na2vs0mg"},{"bike_id":"7c45df27-7ef6-468e-b331-208ce3ceb575","system_id":"levelo_inurba_marseille","lat":43.28704,"lon":5.37385,"is_reserved":false,"is_disabled":false,"rental_uris":{"android":"levelo://app?vid=7c45df27-7ef6-468e-b331-208ce3ceb575","ios":"levelo://app?vid=7c45df27-7ef6-468e-b331-208ce3ceb575"},"vehicle_type_id":"4","last_reported":1726988875,"current_range_meters":26800,"station_id":"ce4bh3p2rcd13ifvqdq0","pricing_plan_id":"cebpf4jnsgd1na2vs0mg"},{"bike_id":"97f3b290-84c6-4932-8cf2-83c9b90d4817","system_id":"levelo_inurba_marseille","lat":43.2499,"lon":5.3894,"is_reserved":false,"is_disabled":false,"rental_uris":{"android":"levelo://app?vid=97f3b290-84c6-4932-8cf2-83c9b90d4817","ios":"levelo://app?vid=97f3b290-84c6-4932-8cf2-83c9b90d4817"},"vehicle_type_id":"4","last_reported":1726988875,"current_range_meters":2800,"station_id":"ce4bhgp2rcd13ifvqfd0","pricing_plan_id":"cebpf4jnsgd1na2vs0mg"},{"bike_id":"2617be26-f1ec-40c3-9b4a-a03c0efff170","system_id":"levelo_inurba_marseille","lat":43.29367,"lon":5.37853,"is_reserved":false,"is_disabled":false,"rental_uris":{"android":"levelo://app?vid=2617be26-f1ec-40c3-9b4a-a03c0efff170","ios":"levelo://app?vid=2617be26-f1ec-40c3-9b4a-a03c0efff170"},"vehicle_type_id":"4","last_reported":1726988875,"current_range_meters":38800,"station_id":"ce4bgjh2rcd13ifvqbf0","pricing_plan_id":"cebpf4jnsgd1na2vs0mg"},{"bike_id":"c750c22f-57e5-44e7-ab11-ab84ef9a0b5e","system_id":"levelo_inurba_marseille","lat":43.23183,"lon":5.39992,"is_reserved":false,"is_disabled":false,"rental_uris":{"android":"levelo://app?vid=c750c22f-57e5-44e7-ab11-ab84ef9a0b5e","ios":"levelo://app?vid=c750c22f-57e5-44e7-ab11-ab84ef9a0b5e"},"vehicle_type_id":"4","last_reported":1726988875,"current_range_meters":14800,"station_id":"ce4bhn12rcd13ifvqgqg","pricing_plan_id":"cebpf4jnsgd1na2vs0mg"},{"bike_id":"d4cd02a2-8196-45a0-ade7-083f2b1cddee","system_id":"levelo_inurba_marseille","lat":43.24183,"lon":5.39719,"is_reserved":false,"is_disabled":false,"rental_uris":{"android":"levelo://app?vid=d4cd02a2-8196-45a0-ade7-083f2b1cddee","ios":"levelo://app?vid=d4cd02a2-8196-45a0-ade7-083f2b1cddee"},"vehicle_type_id":"4","last_reported":1726988875,"current_range_meters":38800,"station_id":"ce4bhn12rcd13ifvqgpg","pricing_plan_id":"cebpf4jnsgd1na2vs0mg"},{"bike_id":"a8d42cf3-65fd-4e73-93d7-47142c435399","system_id":"levelo_inurba_marseille","lat":43.3439,"lon":5.40852,"is_reserved":false,"is_disabled":false,"rental_uris":{"android":"levelo://app?vid=a8d42cf3-65fd-4e73-93d7-47142c435399","ios":"levelo://app?vid=a8d42cf3-65fd-4e73-93d7-47142c435399"},"vehicle_type_id":"4","last_reported":1726988875,"current_range_meters":23200,"station_id":"","pricing_plan_id":"cebpf4jnsgd1na2vs0mg"},{"bike_id":"affeab95-004c-4559-a39d-9d9c7e294ed6","system_id":"levelo_inurba_marseille","lat":43.24179,"lon":5.39735,"is_reserved":false,"is_disabled":false,"rental_uris":{"android":"levelo://app?vid=affeab95-004c-4559-a39d-9d9c7e294ed6","ios":"levelo://app?vid=affeab95-004c-4559-a39d-9d9c7e294ed6"},"vehicle_type_id":"4","last_reported":1726988875,"current_range_meters":31200,"station_id":"ce4bhn12rcd13ifvqgpg","pricing_plan_id":"cebpf4jnsgd1na2vs0mg"},{"bike_id":"a4d43bb5-199e-4365-aa18-44dcac5c9979","system_id":"levelo_inurba_marseille","lat":43.280502,"lon":5.40069,"is_reserved":false,"is_disabled":false,"rental_uris":{"android":"levelo://app?vid=a4d43bb5-199e-4365-aa18-44dcac5c9979","ios":"levelo://app?vid=a4d43bb5-199e-4365-aa18-44dcac5c9979"},"vehicle_type_id":"4","last_reported":1726988875,"current_range_meters":39200,"station_id":"ce4bho92rcd13ifvqh4g","pricing_plan_id":"cebpf4jnsgd1na2vs0mg"},{"bike_id":"2e2efbfa-7349-45db-b5db-becef59caf10","system_id":"levelo_inurba_marseille","lat":43.30463,"lon":5.37901,"is_reserved":false,"is_disabled":false,"rental_uris":{"android":"levelo://app?vid=2e2efbfa-7349-45db-b5db-becef59caf10","ios":"levelo://app?vid=2e2efbfa-7349-45db-b5db-becef59caf10"},"vehicle_type_id":"4","last_reported":1726988875,"current_range_meters":28000,"station_id":"ce4bgup2rcd13ifvqcn0","pricing_plan_id":"cebpf4jnsgd1na2vs0mg"},{"bike_id":"ca6cfcad-1e5e-46e0-bcbd-4d4375771e42","system_id":"levelo_inurba_marseille","lat":43.29443,"lon":5.39739,"is_reserved":false,"is_disabled":false,"rental_uris":{"android":"levelo://app?vid=ca6cfcad-1e5e-46e0-bcbd-4d4375771e42","ios":"levelo://app?vid=ca6cfcad-1e5e-46e0-bcbd-4d4375771e42"},"vehicle_type_id":"4","last_reported":1726988875,"current_range_meters":39200,"station_id":"ce4bh3h2rcd13ifvqdo0","pricing_plan_id":"cebpf4jnsgd1na2vs0mg"},{"bike_id":"3232aa39-dc59-4e9f-bf92-1c3d58aff475","system_id":"levelo_inurba_marseille","lat":43.30549,"lon":5.38434,"is_reserved":false,"is_disabled":false,"rental_uris":{"android":"levelo://app?vid=3232aa39-dc59-4e9f-bf92-1c3d58aff475","ios":"levelo://app?vid=3232aa39-dc59-4e9f-bf92-1c3d58aff475"},"vehicle_type_id":"4","last_reported":1726988875,"current_range_meters":30000,"station_id":"ce4bgg92rcd13ifvqb30","pricing_plan_id":"cebpf4jnsgd1na2vs0mg"},{"bike_id":"488eab58-702a-49ef-b05e-83a9813536ca","system_id":"levelo_inurba_marseille","lat":43.28157,"lon":5.42639,"is_reserved":false,"is_disabled":false,"rental_uris":{"android":"levelo://app?vid=488eab58-702a-49ef-b05e-83a9813536ca","ios":"levelo://app?vid=488eab58-702a-49ef-b05e-83a9813536ca"},"vehicle_type_id":"4","last_reported":1726988875,"current_range_meters":36400,"station_id":"ce4bhnh2rcd13ifvqgug","pricing_plan_id":"cebpf4jnsgd1na2vs0mg"},{"bike_id":"eb0e566e-7d71-4cc0-bc76-de33a9fd73a8","system_id":"levelo_inurba_marseille","lat":43.2319,"lon":5.35543,"is_reserved":false,"is_disabled":false,"rental_uris":{"android":"levelo://app?vid=eb0e566e-7d71-4cc0-bc76-de33a9fd73a8","ios":"levelo://app?vid=eb0e566e-7d71-4cc0-bc76-de33a9fd73a8"},"vehicle_type_id":"4","last_reported":1726988875,"current_range_meters":38000,"station_id":"ce4bhu92rcd13ifvqi70","pricing_plan_id":"cebpf4jnsgd1na2vs0mg"},{"bike_id":"4e459762-d055-4270-9725-aa07084b04e3","system_id":"levelo_inurba_marseille","lat":43.274289,"lon":5.394207,"is_reserved":false,"is_disabled":false,"rental_uris":{"android":"levelo://app?vid=4e459762-d055-4270-9725-aa07084b04e3","ios":"levelo://app?vid=4e459762-d055-4270-9725-aa07084b04e3"},"vehicle_type_id":"4","last_reported":1726988875,"current_range_meters":33200,"station_id":"ce4bhdp2rcd13ifvqf20","pricing_plan_id":"cebpf4jnsgd1na2vs0mg"},{"bike_id":"ffe5547e-591f-451e-96a7-c5506be19d31","system_id":"levelo_inurba_marseille","lat":43.28657,"lon":5.36355,"is_reserved":false,"is_disabled":false,"rental_uris":{"android":"levelo://app?vid=ffe5547e-591f-451e-96a7-c5506be19d31","ios":"levelo://app?vid=ffe5547e-591f-451e-96a7-c5506be19d31"},"vehicle_type_id":"4","last_reported":1726988875,"current_range_meters":38000,"station_id":"ce4bhah2rcd13ifvqej0","pricing_plan_id":"cebpf4jnsgd1na2vs0mg"},{"bike_id":"ab0aef67-b404-482a-b9bc-386c5f426ba6","system_id":"levelo_inurba_marseille","lat":43.29526,"lon":5.37497,"is_reserved":false,"is_disabled":false,"rental_uris":{"android":"levelo://app?vid=ab0aef67-b404-482a-b9bc-386c5f426ba6","ios":"levelo://app?vid=ab0aef67-b404-482a-b9bc-386c5f426ba6"},"vehicle_type_id":"4","last_reported":1726988875,"current_range_meters":8000,"station_id":"ce4bgkp2rcd13ifvqbmg","pricing_plan_id":"cebpf4jnsgd1na2vs0mg"},{"bike_id":"04999a37-2436-4404-8c16-cd85cf9b7a10","system_id":"levelo_inurba_marseille","lat":43.33021,"lon":5.39043,"is_reserved":false,"is_disabled":false,"rental_uris":{"android":"levelo://app?vid=04999a37-2436-4404-8c16-cd85cf9b7a10","ios":"levelo://app?vid=04999a37-2436-4404-8c16-cd85cf9b7a10"},"vehicle_type_id":"4","last_reported":1726988875,"current_range_meters":38400,"station_id":"ce4bhr92rcd13ifvqhrg","pricing_plan_id":"cebpf4jnsgd1na2vs0mg"},{"bike_id":"daac0300-8060-4051-93be-51b98f75f5e1","system_id":"levelo_inurba_marseille","lat":43.292908,"lon":5.40149,"is_reserved":false,"is_disabled":false,"rental_uris":{"android":"levelo://app?vid=daac0300-8060-4051-93be-51b98f75f5e1","ios":"levelo://app?vid=daac0300-8060-4051-93be-51b98f75f5e1"},"vehicle_type_id":"4","last_reported":1726988875,"current_range_meters":30800,"station_id":"ce4bh312rcd13ifvqdk0","pricing_plan_id":"cebpf4jnsgd1na2vs0mg"},{"bike_id":"6030b138-4d5e-4345-aedc-73924c99e1f7","system_id":"levelo_inurba_marseille","lat":43.26217,"lon":5.37448,"is_reserved":false,"is_disabled":false,"rental_uris":{"android":"levelo://app?vid=6030b138-4d5e-4345-aedc-73924c99e1f7","ios":"levelo://app?vid=6030b138-4d5e-4345-aedc-73924c99e1f7"},"vehicle_type_id":"4","last_reported":1726988875,"current_range_meters":28800,"station_id":"","pricing_plan_id":"cebpf4jnsgd1na2vs0mg"},{"bike_id":"907c2fdf-319e-4324-beb3-d18b5e871601","system_id":"levelo_inurba_marseille","lat":43.29565,"lon":5.3996,"is_reserved":false,"is_disabled":false,"rental_uris":{"android":"levelo://app?vid=907c2fdf-319e-4324-beb3-d18b5e871601","ios":"levelo://app?vid=907c2fdf-319e-4324-beb3-d18b5e871601"},"vehicle_type_id":"4","last_reported":1726988875,"current_range_meters":11200,"station_id":"ce4bh312rcd13ifvqdj0","pricing_plan_id":"cebpf4jnsgd1na2vs0mg"},{"bike_id":"afd12134-e47a-4533-972a-e3fada79e0ff","system_id":"levelo_inurba_marseille","lat":43.28726,"lon":5.36084,"is_reserved":false,"is_disabled":false,"rental_uris":{"android":"levelo://app?vid=afd12134-e47a-4533-972a-e3fada79e0ff","ios":"levelo://app?vid=afd12134-e47a-4533-972a-e3fada79e0ff"},"vehicle_type_id":"4","last_reported":1726988875,"current_range_meters":38800,"station_id":"cki0cbj6b192h4jlfktg","pricing_plan_id":"cebpf4jnsgd1na2vs0mg"},{"bike_id":"a7a2630d-54d4-495a-8506-d0472b9b9a1a","system_id":"levelo_inurba_marseille","lat":43.29559,"lon":5.42295,"is_reserved":false,"is_disabled":false,"rental_uris":{"android":"levelo://app?vid=a7a2630d-54d4-495a-8506-d0472b9b9a1a","ios":"levelo://app?vid=a7a2630d-54d4-495a-8506-d0472b9b9a1a"},"vehicle_type_id":"4","last_reported":1726988875,"current_range_meters":39200,"station_id":"ce4bhph2rcd13ifvqhdg","pricing_plan_id":"cebpf4jnsgd1na2vs0mg"},{"bike_id":"3588ed4b-a839-4c36-8772-3fa913acb2d5","system_id":"levelo_inurba_marseille","lat":43.30327,"lon":5.40434,"is_reserved":false,"is_disabled":false,"rental_uris":{"android":"levelo://app?vid=3588ed4b-a839-4c36-8772-3fa913acb2d5","ios":"levelo://app?vid=3588ed4b-a839-4c36-8772-3fa913acb2d5"},"vehicle_type_id":"4","last_reported":1726988875,"current_range_meters":38000,"station_id":"ce4bh012rcd13ifvqd10","pricing_plan_id":"cebpf4jnsgd1na2vs0mg"},{"bike_id":"e9b7fdef-cb43-41e3-b6c7-0be3fc1935ad","system_id":"levelo_inurba_marseille","lat":43.29773,"lon":5.37107,"is_reserved":false,"is_disabled":false,"rental_uris":{"android":"levelo://app?vid=e9b7fdef-cb43-41e3-b6c7-0be3fc1935ad","ios":"levelo://app?vid=e9b7fdef-cb43-41e3-b6c7-0be3fc1935ad"},"vehicle_type_id":"4","last_reported":1726988875,"current_range_meters":33200,"station_id":"ce4bgop2rcd13ifvqc1g","pricing_plan_id":"cebpf4jnsgd1na2vs0mg"},{"bike_id":"a982284f-f60c-4b00-9cab-f8c260958a1e","system_id":"levelo_inurba_marseille","lat":43.284851,"lon":5.384427,"is_reserved":false,"is_disabled":false,"rental_uris":{"android":"levelo://app?vid=a982284f-f60c-4b00-9cab-f8c260958a1e","ios":"levelo://app?vid=a982284f-f60c-4b00-9cab-f8c260958a1e"},"vehicle_type_id":"4","last_reported":1726988875,"current_range_meters":22800,"station_id":"ce4bh512rcd13ifvqe3g","pricing_plan_id":"cebpf4jnsgd1na2vs0mg"},{"bike_id":"e5a1c0e7-6dbe-4fc0-91d4-a39431861126","system_id":"levelo_inurba_marseille","lat":43.26944,"lon":5.40246,"is_reserved":false,"is_disabled":false,"rental_uris":{"android":"levelo://app?vid=e5a1c0e7-6dbe-4fc0-91d4-a39431861126","ios":"levelo://app?vid=e5a1c0e7-6dbe-4fc0-91d4-a39431861126"},"vehicle_type_id":"4","last_reported":1726988875,"current_range_meters":39200,"station_id":"cjm6bp8fraef2m0cb0m0","pricing_plan_id":"cebpf4jnsgd1na2vs0mg"},{"bike_id":"7b9dd459-340b-4978-bfb0-6c163a5263e8","system_id":"levelo_inurba_marseille","lat":43.23189,"lon":5.3555,"is_reserved":false,"is_disabled":false,"rental_uris":{"android":"levelo://app?vid=7b9dd459-340b-4978-bfb0-6c163a5263e8","ios":"levelo://app?vid=7b9dd459-340b-4978-bfb0-6c163a5263e8"},"vehicle_type_id":"4","last_reported":1726988875,"current_range_meters":39200,"station_id":"ce4bhu92rcd13ifvqi70","pricing_plan_id":"cebpf4jnsgd1na2vs0mg"},{"bike_id":"3ed190c4-b362-418f-8459-214e721d0e34","system_id":"levelo_inurba_marseille","lat":43.29529,"lon":5.37494,"is_reserved":false,"is_disabled":false,"rental_uris":{"android":"levelo://app?vid=3ed190c4-b362-418f-8459-214e721d0e34","ios":"levelo://app?vid=3ed190c4-b362-418f-8459-214e721d0e34"},"vehicle_type_id":"4","last_reported":1726988875,"current_range_meters":32400,"station_id":"ce4bgkp2rcd13ifvqbmg","pricing_plan_id":"cebpf4jnsgd1na2vs0mg"},{"bike_id":"9eb342ac-6683-4b0e-9068-9b33551dfa85","system_id":"levelo_inurba_marseille","lat":43.27376,"lon":5.36251,"is_reserved":false,"is_disabled":false,"rental_uris":{"android":"levelo://app?vid=9eb342ac-6683-4b0e-9068-9b33551dfa85","ios":"levelo://app?vid=9eb342ac-6683-4b0e-9068-9b33551dfa85"},"vehicle_type_id":"4","last_reported":1726988875,"current_range_meters":38800,"station_id":"ce4bhbh2rcd13ifvqeo0","pricing_plan_id":"cebpf4jnsgd1na2vs0mg"},{"bike_id":"4d0b0c31-bba7-4fcb-872f-26cec37fccb3","system_id":"levelo_inurba_marseille","lat":43.27619,"lon":5.36118,"is_reserved":false,"is_disabled":false,"rental_uris":{"android":"levelo://app?vid=4d0b0c31-bba7-4fcb-872f-26cec37fccb3","ios":"levelo://app?vid=4d0b0c31-bba7-4fcb-872f-26cec37fccb3"},"vehicle_type_id":"4","last_reported":1726988875,"current_range_meters":38400,"station_id":"ce4bgj92rcd13ifvqbe0","pricing_plan_id":"cebpf4jnsgd1na2vs0mg"},{"bike_id":"82596a06-ff6c-4fb5-be3f-fd6ac5718f7c","system_id":"levelo_inurba_marseille","lat":43.31328,"lon":5.39689,"is_reserved":false,"is_disabled":false,"rental_uris":{"android":"levelo://app?vid=82596a06-ff6c-4fb5-be3f-fd6ac5718f7c","ios":"levelo://app?vid=82596a06-ff6c-4fb5-be3f-fd6ac5718f7c"},"vehicle_type_id":"4","last_reported":1726988875,"current_range_meters":20400,"station_id":"ce4bgvp2rcd13ifvqcu0","pricing_plan_id":"cebpf4jnsgd1na2vs0mg"},{"bike_id":"ddf28a51-7ad4-4373-b1c6-fb2f85aeca66","system_id":"levelo_inurba_marseille","lat":43.24075,"lon":5.37766,"is_reserved":false,"is_disabled":false,"rental_uris":{"android":"levelo://app?vid=ddf28a51-7ad4-4373-b1c6-fb2f85aeca66","ios":"levelo://app?vid=ddf28a51-7ad4-4373-b1c6-fb2f85aeca66"},"vehicle_type_id":"4","last_reported":1726988875,"current_range_meters":9600,"station_id":"ce4bhnp2rcd13ifvqgvg","pricing_plan_id":"cebpf4jnsgd1na2vs0mg"},{"bike_id":"695aecc5-47eb-42b6-b509-bb05dd03a93d","system_id":"levelo_inurba_marseille","lat":43.28354,"lon":5.38105,"is_reserved":false,"is_disabled":false,"rental_uris":{"android":"levelo://app?vid=695aecc5-47eb-42b6-b509-bb05dd03a93d","ios":"levelo://app?vid=695aecc5-47eb-42b6-b509-bb05dd03a93d"},"vehicle_type_id":"4","last_reported":1726988875,"current_range_meters":38000,"station_id":"ce4bh412rcd13ifvqdr0","pricing_plan_id":"cebpf4jnsgd1na2vs0mg"},{"bike_id":"4e7027a8-8717-47ad-9a4c-5e2a29170f8b","system_id":"levelo_inurba_marseille","lat":43.29205,"lon":5.40079,"is_reserved":false,"is_disabled":false,"rental_uris":{"android":"levelo://app?vid=4e7027a8-8717-47ad-9a4c-5e2a29170f8b","ios":"levelo://app?vid=4e7027a8-8717-47ad-9a4c-5e2a29170f8b"},"vehicle_type_id":"4","last_reported":1726988875,"current_range_meters":32400,"station_id":"","pricing_plan_id":"cebpf4jnsgd1na2vs0mg"},{"bike_id":"10389c6e-8de5-48f9-888f-d0f6efe49ebe","system_id":"levelo_inurba_marseille","lat":43.27496,"lon":5.42441,"is_reserved":false,"is_disabled":false,"rental_uris":{"android":"levelo://app?vid=10389c6e-8de5-48f9-888f-d0f6efe49ebe","ios":"levelo://app?vid=10389c6e-8de5-48f9-888f-d0f6efe49ebe"},"vehicle_type_id":"4","last_reported":1726988875,"current_range_meters":9600,"station_id":"ce4bhn92rcd13ifvqgrg","pricing_plan_id":"cebpf4jnsgd1na2vs0mg"},{"bike_id":"71aa8592-ddf7-4343-aed4-c00d3433340f","system_id":"levelo_inurba_marseille","lat":43.337444,"lon":5.374475,"is_reserved":false,"is_disabled":false,"rental_uris":{"android":"levelo://app?vid=71aa8592-ddf7-4343-aed4-c00d3433340f","ios":"levelo://app?vid=71aa8592-ddf7-4343-aed4-c00d3433340f"},"vehicle_type_id":"4","last_reported":1726988875,"current_range_meters":32800,"station_id":"","pricing_plan_id":"cebpf4jnsgd1na2vs0mg"},{"bike_id":"3740c6df-06cd-419b-9ae6-b8d9e5eff548","system_id":"levelo_inurba_marseille","lat":43.2753,"lon":5.40935,"is_reserved":false,"is_disabled":false,"rental_uris":{"android":"levelo://app?vid=3740c6df-06cd-419b-9ae6-b8d9e5eff548","ios":"levelo://app?vid=3740c6df-06cd-419b-9ae6-b8d9e5eff548"},"vehicle_type_id":"4","last_reported":1726988875,"current_range_meters":14400,"station_id":"","pricing_plan_id":"cebpf4jnsgd1na2vs0mg"},{"bike_id":"c416d47b-78f0-43eb-bd10-52cd2f01cf9a","system_id":"levelo_inurba_marseille","lat":43.31069,"lon":5.38361,"is_reserved":false,"is_disabled":false,"rental_uris":{"android":"levelo://app?vid=c416d47b-78f0-43eb-bd10-52cd2f01cf9a","ios":"levelo://app?vid=c416d47b-78f0-43eb-bd10-52cd2f01cf9a"},"vehicle_type_id":"4","last_reported":1726988875,"current_range_meters":9600,"station_id":"ce4bgv92rcd13ifvqcr0","pricing_plan_id":"cebpf4jnsgd1na2vs0mg"},{"bike_id":"63cb3e8e-e6da-4a66-83e4-12a4ec922468","system_id":"levelo_inurba_marseille","lat":43.26203,"lon":5.37922,"is_reserved":false,"is_disabled":false,"rental_uris":{"android":"levelo://app?vid=63cb3e8e-e6da-4a66-83e4-12a4ec922468","ios":"levelo://app?vid=63cb3e8e-e6da-4a66-83e4-12a4ec922468"},"vehicle_type_id":"4","last_reported":1726988875,"current_range_meters":13600,"station_id":"ce4bhjp2rcd13ifvqg90","pricing_plan_id":"cebpf4jnsgd1na2vs0mg"},{"bike_id":"33ef26f8-933d-4a23-a2fb-f3a05d501574","system_id":"levelo_inurba_marseille","lat":43.25086,"lon":5.39526,"is_reserved":false,"is_disabled":false,"rental_uris":{"android":"levelo://app?vid=33ef26f8-933d-4a23-a2fb-f3a05d501574","ios":"levelo://app?vid=33ef26f8-933d-4a23-a2fb-f3a05d501574"},"vehicle_type_id":"4","last_reported":1726988875,"current_range_meters":39200,"station_id":"ce4bhm12rcd13ifvqgkg","pricing_plan_id":"cebpf4jnsgd1na2vs0mg"},{"bike_id":"de474168-7d22-423b-8aa5-2f9882a9c626","system_id":"levelo_inurba_marseille","lat":43.30787,"lon":5.37654,"is_reserved":false,"is_disabled":false,"rental_uris":{"android":"levelo://app?vid=de474168-7d22-423b-8aa5-2f9882a9c626","ios":"levelo://app?vid=de474168-7d22-423b-8aa5-2f9882a9c626"},"vehicle_type_id":"4","last_reported":1726988875,"current_range_meters":39200,"station_id":"ce4bgv92rcd13ifvqcq0","pricing_plan_id":"cebpf4jnsgd1na2vs0mg"},{"bike_id":"28899bbf-43c6-44fe-bc87-11c1926b2ab8","system_id":"levelo_inurba_marseille","lat":43.26207,"lon":5.37924,"is_reserved":false,"is_disabled":false,"rental_uris":{"android":"levelo://app?vid=28899bbf-43c6-44fe-bc87-11c1926b2ab8","ios":"levelo://app?vid=28899bbf-43c6-44fe-bc87-11c1926b2ab8"},"vehicle_type_id":"4","last_reported":1726988875,"current_range_meters":38400,"station_id":"ce4bhjp2rcd13ifvqg90","pricing_plan_id":"cebpf4jnsgd1na2vs0mg"},{"bike_id":"df417bec-0e1b-489b-b644-46e0609b7a46","system_id":"levelo_inurba_marseille","lat":43.2845,"lon":5.35878,"is_reserved":false,"is_disabled":false,"rental_uris":{"android":"levelo://app?vid=df417bec-0e1b-489b-b644-46e0609b7a46","ios":"levelo://app?vid=df417bec-0e1b-489b-b644-46e0609b7a46"},"vehicle_type_id":"4","last_reported":1726988875,"current_range_meters":25600,"station_id":"ce4bhah2rcd13ifvqei0","pricing_plan_id":"cebpf4jnsgd1na2vs0mg"},{"bike_id":"7e26373e-c94b-4fe6-9081-b02ddebef345","system_id":"levelo_inurba_marseille","lat":43.29417,"lon":5.38626,"is_reserved":false,"is_disabled":false,"rental_uris":{"android":"levelo://app?vid=7e26373e-c94b-4fe6-9081-b02ddebef345","ios":"levelo://app?vid=7e26373e-c94b-4fe6-9081-b02ddebef345"},"vehicle_type_id":"4","last_reported":1726988875,"current_range_meters":38800,"station_id":"ce4bh2h2rcd13ifvqdh0","pricing_plan_id":"cebpf4jnsgd1na2vs0mg"},{"bike_id":"48cc16ec-4cea-4a8c-b13e-3ac95a0df700","system_id":"levelo_inurba_marseille","lat":43.30468,"lon":5.37896,"is_reserved":false,"is_disabled":false,"rental_uris":{"android":"levelo://app?vid=48cc16ec-4cea-4a8c-b13e-3ac95a0df700","ios":"levelo://app?vid=48cc16ec-4cea-4a8c-b13e-3ac95a0df700"},"vehicle_type_id":"4","last_reported":1726988875,"current_range_meters":8000,"station_id":"ce4bgup2rcd13ifvqcn0","pricing_plan_id":"cebpf4jnsgd1na2vs0mg"},{"bike_id":"314fbbe9-5fd9-4d9d-bd10-270759356c42","system_id":"levelo_inurba_marseille","lat":43.31364,"lon":5.38491,"is_reserved":false,"is_disabled":false,"rental_uris":{"android":"levelo://app?vid=314fbbe9-5fd9-4d9d-bd10-270759356c42","ios":"levelo://app?vid=314fbbe9-5fd9-4d9d-bd10-270759356c42"},"vehicle_type_id":"4","last_reported":1726988875,"current_range_meters":36800,"station_id":"ce4bgt92rcd13ifvqcf0","pricing_plan_id":"cebpf4jnsgd1na2vs0mg"},{"bike_id":"c6ece7c7-4ec5-4120-b681-3c568db59171","system_id":"levelo_inurba_marseille","lat":43.30593,"lon":5.37214,"is_reserved":false,"is_disabled":false,"rental_uris":{"android":"levelo://app?vid=c6ece7c7-4ec5-4120-b681-3c568db59171","ios":"levelo://app?vid=c6ece7c7-4ec5-4120-b681-3c568db59171"},"vehicle_type_id":"4","last_reported":1726988875,"current_range_meters":38000,"station_id":"ce4bgqh2rcd13ifvqc4g","pricing_plan_id":"cebpf4jnsgd1na2vs0mg"},{"bike_id":"5d85480d-82ea-4e77-8a66-2581b438824a","system_id":"levelo_inurba_marseille","lat":43.27674,"lon":5.38898,"is_reserved":false,"is_disabled":false,"rental_uris":{"android":"levelo://app?vid=5d85480d-82ea-4e77-8a66-2581b438824a","ios":"levelo://app?vid=5d85480d-82ea-4e77-8a66-2581b438824a"},"vehicle_type_id":"4","last_reported":1726988875,"current_range_meters":20400,"station_id":"ce4bhi12rcd13ifvqfo0","pricing_plan_id":"cebpf4jnsgd1na2vs0mg"},{"bike_id":"02415616-385e-4f14-93d0-2ad915d17a0f","system_id":"levelo_inurba_marseille","lat":43.31333,"lon":5.3969,"is_reserved":false,"is_disabled":false,"rental_uris":{"android":"levelo://app?vid=02415616-385e-4f14-93d0-2ad915d17a0f","ios":"levelo://app?vid=02415616-385e-4f14-93d0-2ad915d17a0f"},"vehicle_type_id":"4","last_reported":1726988875,"current_range_meters":37600,"station_id":"ce4bgvp2rcd13ifvqcu0","pricing_plan_id":"cebpf4jnsgd1na2vs0mg"},{"bike_id":"40f76e9d-c4d4-4e89-b102-5cd9a5126209","system_id":"levelo_inurba_marseille","lat":43.31278,"lon":5.40172,"is_reserved":false,"is_disabled":false,"rental_uris":{"android":"levelo://app?vid=40f76e9d-c4d4-4e89-b102-5cd9a5126209","ios":"levelo://app?vid=40f76e9d-c4d4-4e89-b102-5cd9a5126209"},"vehicle_type_id":"4","last_reported":1726988875,"current_range_meters":39200,"station_id":"ce4bh092rcd13ifvqd30","pricing_plan_id":"cebpf4jnsgd1na2vs0mg"},{"bike_id":"d83dc24c-aae8-4107-999e-bef389dd9504","system_id":"levelo_inurba_marseille","lat":43.29309,"lon":5.37187,"is_reserved":false,"is_disabled":false,"rental_uris":{"android":"levelo://app?vid=d83dc24c-aae8-4107-999e-bef389dd9504","ios":"levelo://app?vid=d83dc24c-aae8-4107-999e-bef389dd9504"},"vehicle_type_id":"4","last_reported":1726988875,"current_range_meters":36400,"station_id":"ce4bgh92rcd13ifvqb40","pricing_plan_id":"cebpf4jnsgd1na2vs0mg"},{"bike_id":"682b1a73-b7ae-430a-9f56-a8aac3579140","system_id":"levelo_inurba_marseille","lat":43.29878,"lon":5.39726,"is_reserved":false,"is_disabled":false,"rental_uris":{"android":"levelo://app?vid=682b1a73-b7ae-430a-9f56-a8aac3579140","ios":"levelo://app?vid=682b1a73-b7ae-430a-9f56-a8aac3579140"},"vehicle_type_id":"4","last_reported":1726988875,"current_range_meters":3600,"station_id":"ce4bh0h2rcd13ifvqd50","pricing_plan_id":"cebpf4jnsgd1na2vs0mg"},{"bike_id":"c2a23c04-e4cb-496b-a6e8-fbbf90c6064f","system_id":"levelo_inurba_marseille","lat":43.24543,"lon":5.39524,"is_reserved":false,"is_disabled":false,"rental_uris":{"android":"levelo://app?vid=c2a23c04-e4cb-496b-a6e8-fbbf90c6064f","ios":"levelo://app?vid=c2a23c04-e4cb-496b-a6e8-fbbf90c6064f"},"vehicle_type_id":"4","last_reported":1726988875,"current_range_meters":38800,"station_id":"ce4bhlp2rcd13ifvqgjg","pricing_plan_id":"cebpf4jnsgd1na2vs0mg"},{"bike_id":"bca0aa49-c7d2-4c11-88f5-f1e59b0dafbc","system_id":"levelo_inurba_marseille","lat":43.2761,"lon":5.3611,"is_reserved":false,"is_disabled":false,"rental_uris":{"android":"levelo://app?vid=bca0aa49-c7d2-4c11-88f5-f1e59b0dafbc","ios":"levelo://app?vid=bca0aa49-c7d2-4c11-88f5-f1e59b0dafbc"},"vehicle_type_id":"4","last_reported":1726988875,"current_range_meters":18000,"station_id":"ce4bgj92rcd13ifvqbe0","pricing_plan_id":"cebpf4jnsgd1na2vs0mg"},{"bike_id":"426daa47-bfc5-4503-bc56-880669d79926","system_id":"levelo_inurba_marseille","lat":43.29874,"lon":5.3974,"is_reserved":false,"is_disabled":false,"rental_uris":{"android":"levelo://app?vid=426daa47-bfc5-4503-bc56-880669d79926","ios":"levelo://app?vid=426daa47-bfc5-4503-bc56-880669d79926"},"vehicle_type_id":"4","last_reported":1726988875,"current_range_meters":39200,"station_id":"ce4bh0h2rcd13ifvqd50","pricing_plan_id":"cebpf4jnsgd1na2vs0mg"},{"bike_id":"1575e777-51f8-479e-bd95-714cef91a125","system_id":"levelo_inurba_marseille","lat":43.24179,"lon":5.39707,"is_reserved":false,"is_disabled":false,"rental_uris":{"android":"levelo://app?vid=1575e777-51f8-479e-bd95-714cef91a125","ios":"levelo://app?vid=1575e777-51f8-479e-bd95-714cef91a125"},"vehicle_type_id":"4","last_reported":1726988875,"current_range_meters":28000,"station_id":"ce4bhn12rcd13ifvqgpg","pricing_plan_id":"cebpf4jnsgd1na2vs0mg"},{"bike_id":"e9e6d9e2-3e2d-4420-a12d-dab77cbc6502","system_id":"levelo_inurba_marseille","lat":43.27616,"lon":5.36113,"is_reserved":false,"is_disabled":false,"rental_uris":{"android":"levelo://app?vid=e9e6d9e2-3e2d-4420-a12d-dab77cbc6502","ios":"levelo://app?vid=e9e6d9e2-3e2d-4420-a12d-dab77cbc6502"},"vehicle_type_id":"4","last_reported":1726988875,"current_range_meters":14000,"station_id":"ce4bgj92rcd13ifvqbe0","pricing_plan_id":"cebpf4jnsgd1na2vs0mg"},{"bike_id":"bd9f34a0-dc08-4657-9b7c-5589754bd8db","system_id":"levelo_inurba_marseille","lat":43.25,"lon":5.3892,"is_reserved":false,"is_disabled":false,"rental_uris":{"android":"levelo://app?vid=bd9f34a0-dc08-4657-9b7c-5589754bd8db","ios":"levelo://app?vid=bd9f34a0-dc08-4657-9b7c-5589754bd8db"},"vehicle_type_id":"4","last_reported":1726988875,"current_range_meters":38800,"station_id":"ce4bhgp2rcd13ifvqfd0","pricing_plan_id":"cebpf4jnsgd1na2vs0mg"},{"bike_id":"4f6cd953-65f5-4d4f-a052-70118d864e1d","system_id":"levelo_inurba_marseille","lat":43.29896,"lon":5.43657,"is_reserved":false,"is_disabled":false,"rental_uris":{"android":"levelo://app?vid=4f6cd953-65f5-4d4f-a052-70118d864e1d","ios":"levelo://app?vid=4f6cd953-65f5-4d4f-a052-70118d864e1d"},"vehicle_type_id":"4","last_reported":1726988875,"current_range_meters":4000,"station_id":"ce4bhpp2rcd13ifvqhfg","pricing_plan_id":"cebpf4jnsgd1na2vs0mg"},{"bike_id":"ab03fbd4-771e-4097-be15-28a0898ddabb","system_id":"levelo_inurba_marseille","lat":43.31894,"lon":5.40728,"is_reserved":false,"is_disabled":false,"rental_uris":{"android":"levelo://app?vid=ab03fbd4-771e-4097-be15-28a0898ddabb","ios":"levelo://app?vid=ab03fbd4-771e-4097-be15-28a0898ddabb"},"vehicle_type_id":"4","last_reported":1726988875,"current_range_meters":34800,"station_id":"ce4bhq12rcd13ifvqhig","pricing_plan_id":"cebpf4jnsgd1na2vs0mg"},{"bike_id":"776a1687-8659-4d17-8970-54743c1fad10","system_id":"levelo_inurba_marseille","lat":43.3107,"lon":5.38353,"is_reserved":false,"is_disabled":false,"rental_uris":{"android":"levelo://app?vid=776a1687-8659-4d17-8970-54743c1fad10","ios":"levelo://app?vid=776a1687-8659-4d17-8970-54743c1fad10"},"vehicle_type_id":"4","last_reported":1726988875,"current_range_meters":35600,"station_id":"ce4bgv92rcd13ifvqcr0","pricing_plan_id":"cebpf4jnsgd1na2vs0mg"},{"bike_id":"d9e213ca-e541-459d-93e9-f901cb508c67","system_id":"levelo_inurba_marseille","lat":43.31704,"lon":5.37748,"is_reserved":false,"is_disabled":false,"rental_uris":{"android":"levelo://app?vid=d9e213ca-e541-459d-93e9-f901cb508c67","ios":"levelo://app?vid=d9e213ca-e541-459d-93e9-f901cb508c67"},"vehicle_type_id":"4","last_reported":1726988875,"current_range_meters":39200,"station_id":"ce4bgth2rcd13ifvqch0","pricing_plan_id":"cebpf4jnsgd1na2vs0mg"},{"bike_id":"742fe014-1f5e-499c-bbc5-66a0cbb87904","system_id":"levelo_inurba_marseille","lat":43.23203,"lon":5.35554,"is_reserved":false,"is_disabled":false,"rental_uris":{"android":"levelo://app?vid=742fe014-1f5e-499c-bbc5-66a0cbb87904","ios":"levelo://app?vid=742fe014-1f5e-499c-bbc5-66a0cbb87904"},"vehicle_type_id":"4","last_reported":1726988875,"current_range_meters":35200,"station_id":"ce4bhu92rcd13ifvqi70","pricing_plan_id":"cebpf4jnsgd1na2vs0mg"},{"bike_id":"eaba8a86-b9c2-4d10-801f-fe492232c8c7","system_id":"levelo_inurba_marseille","lat":43.33025,"lon":5.39042,"is_reserved":false,"is_disabled":false,"rental_uris":{"android":"levelo://app?vid=eaba8a86-b9c2-4d10-801f-fe492232c8c7","ios":"levelo://app?vid=eaba8a86-b9c2-4d10-801f-fe492232c8c7"},"vehicle_type_id":"4","last_reported":1726988875,"current_range_meters":34000,"station_id":"ce4bhr92rcd13ifvqhrg","pricing_plan_id":"cebpf4jnsgd1na2vs0mg"},{"bike_id":"d535b7f1-2de7-4956-b510-47e203ad0753","system_id":"levelo_inurba_marseille","lat":43.29037,"lon":5.39964,"is_reserved":false,"is_disabled":false,"rental_uris":{"android":"levelo://app?vid=d535b7f1-2de7-4956-b510-47e203ad0753","ios":"levelo://app?vid=d535b7f1-2de7-4956-b510-47e203ad0753"},"vehicle_type_id":"4","last_reported":1726988875,"current_range_meters":30800,"station_id":"ce4bh392rcd13ifvqdm0","pricing_plan_id":"cebpf4jnsgd1na2vs0mg"},{"bike_id":"75d7cd87-0fe9-4688-9fbd-26e7b4e12c71","system_id":"levelo_inurba_marseille","lat":43.295623,"lon":5.37593,"is_reserved":false,"is_disabled":false,"rental_uris":{"android":"levelo://app?vid=75d7cd87-0fe9-4688-9fbd-26e7b4e12c71","ios":"levelo://app?vid=75d7cd87-0fe9-4688-9fbd-26e7b4e12c71"},"vehicle_type_id":"4","last_reported":1726988875,"current_range_meters":36000,"station_id":"","pricing_plan_id":"cebpf4jnsgd1na2vs0mg"},{"bike_id":"3b8b545d-d8ea-476d-80ab-67023cc4fc28","system_id":"levelo_inurba_marseille","lat":43.30308,"lon":5.36896,"is_reserved":false,"is_disabled":false,"rental_uris":{"android":"levelo://app?vid=3b8b545d-d8ea-476d-80ab-67023cc4fc28","ios":"levelo://app?vid=3b8b545d-d8ea-476d-80ab-67023cc4fc28"},"vehicle_type_id":"4","last_reported":1726988875,"current_range_meters":30400,"station_id":"ce4bgqh2rcd13ifvqc5g","pricing_plan_id":"cebpf4jnsgd1na2vs0mg"},{"bike_id":"feb42740-c719-4916-9efa-d99f861e0e6d","system_id":"levelo_inurba_marseille","lat":43.32482,"lon":5.36569,"is_reserved":false,"is_disabled":false,"rental_uris":{"android":"levelo://app?vid=feb42740-c719-4916-9efa-d99f861e0e6d","ios":"levelo://app?vid=feb42740-c719-4916-9efa-d99f861e0e6d"},"vehicle_type_id":"4","last_reported":1726988875,"current_range_meters":36800,"station_id":"ce4bhs12rcd13ifvqhvg","pricing_plan_id":"cebpf4jnsgd1na2vs0mg"},{"bike_id":"beb3335f-a034-46b7-9457-3756cdde1123","system_id":"levelo_inurba_marseille","lat":43.30462,"lon":5.37905,"is_reserved":false,"is_disabled":false,"rental_uris":{"android":"levelo://app?vid=beb3335f-a034-46b7-9457-3756cdde1123","ios":"levelo://app?vid=beb3335f-a034-46b7-9457-3756cdde1123"},"vehicle_type_id":"4","last_reported":1726988875,"current_range_meters":38000,"station_id":"ce4bgup2rcd13ifvqcn0","pricing_plan_id":"cebpf4jnsgd1na2vs0mg"},{"bike_id":"8e807fab-0b6e-4b49-a898-23602c2e442f","system_id":"levelo_inurba_marseille","lat":43.240784,"lon":5.377617,"is_reserved":false,"is_disabled":false,"rental_uris":{"android":"levelo://app?vid=8e807fab-0b6e-4b49-a898-23602c2e442f","ios":"levelo://app?vid=8e807fab-0b6e-4b49-a898-23602c2e442f"},"vehicle_type_id":"4","last_reported":1726988875,"current_range_meters":30800,"station_id":"ce4bhnp2rcd13ifvqgvg","pricing_plan_id":"cebpf4jnsgd1na2vs0mg"},{"bike_id":"f33483c1-3b2c-4303-843b-6554d88a9a5f","system_id":"levelo_inurba_marseille","lat":43.24067,"lon":5.37761,"is_reserved":false,"is_disabled":false,"rental_uris":{"android":"levelo://app?vid=f33483c1-3b2c-4303-843b-6554d88a9a5f","ios":"levelo://app?vid=f33483c1-3b2c-4303-843b-6554d88a9a5f"},"vehicle_type_id":"4","last_reported":1726988875,"current_range_meters":38400,"station_id":"ce4bhnp2rcd13ifvqgvg","pricing_plan_id":"cebpf4jnsgd1na2vs0mg"},{"bike_id":"5ce6ca70-38c1-446a-8e79-d58050d35527","system_id":"levelo_inurba_marseille","lat":43.26566,"lon":5.38991,"is_reserved":false,"is_disabled":false,"rental_uris":{"android":"levelo://app?vid=5ce6ca70-38c1-446a-8e79-d58050d35527","ios":"levelo://app?vid=5ce6ca70-38c1-446a-8e79-d58050d35527"},"vehicle_type_id":"4","last_reported":1726988875,"current_range_meters":26800,"station_id":"ce4bhe12rcd13ifvqf30","pricing_plan_id":"cebpf4jnsgd1na2vs0mg"},{"bike_id":"7cb29bfd-4acd-4998-a3ba-447f4906e2c9","system_id":"levelo_inurba_marseille","lat":43.27313,"lon":5.39106,"is_reserved":false,"is_disabled":false,"rental_uris":{"android":"levelo://app?vid=7cb29bfd-4acd-4998-a3ba-447f4906e2c9","ios":"levelo://app?vid=7cb29bfd-4acd-4998-a3ba-447f4906e2c9"},"vehicle_type_id":"4","last_reported":1726988875,"current_range_meters":15200,"station_id":"ce4bhgp2rcd13ifvqfe0","pricing_plan_id":"cebpf4jnsgd1na2vs0mg"},{"bike_id":"f0a747b7-b839-4524-81e5-2e65de0e5c0c","system_id":"levelo_inurba_marseille","lat":43.24392,"lon":5.37061,"is_reserved":false,"is_disabled":false,"rental_uris":{"android":"levelo://app?vid=f0a747b7-b839-4524-81e5-2e65de0e5c0c","ios":"levelo://app?vid=f0a747b7-b839-4524-81e5-2e65de0e5c0c"},"vehicle_type_id":"4","last_reported":1726988875,"current_range_meters":8400,"station_id":"ce4bhhh2rcd13ifvqfk0","pricing_plan_id":"cebpf4jnsgd1na2vs0mg"},{"bike_id":"fce734b4-6c36-4cb6-983c-c95238702258","system_id":"levelo_inurba_marseille","lat":43.31075,"lon":5.38109,"is_reserved":false,"is_disabled":false,"rental_uris":{"android":"levelo://app?vid=fce734b4-6c36-4cb6-983c-c95238702258","ios":"levelo://app?vid=fce734b4-6c36-4cb6-983c-c95238702258"},"vehicle_type_id":"4","last_reported":1726988875,"current_range_meters":14000,"station_id":"","pricing_plan_id":"cebpf4jnsgd1na2vs0mg"},{"bike_id":"ab164393-cd31-4221-b165-f26296d40d00","system_id":"levelo_inurba_marseille","lat":43.31083,"lon":5.42439,"is_reserved":false,"is_disabled":false,"rental_uris":{"android":"levelo://app?vid=ab164393-cd31-4221-b165-f26296d40d00","ios":"levelo://app?vid=ab164393-cd31-4221-b165-f26296d40d00"},"vehicle_type_id":"4","last_reported":1726988875,"current_range_meters":10800,"station_id":"ce4bhp92rcd13ifvqhag","pricing_plan_id":"cebpf4jnsgd1na2vs0mg"},{"bike_id":"4bf9bad2-5ff0-497e-80dc-91099f373503","system_id":"levelo_inurba_marseille","lat":43.25083,"lon":5.39513,"is_reserved":false,"is_disabled":false,"rental_uris":{"android":"levelo://app?vid=4bf9bad2-5ff0-497e-80dc-91099f373503","ios":"levelo://app?vid=4bf9bad2-5ff0-497e-80dc-91099f373503"},"vehicle_type_id":"4","last_reported":1726988875,"current_range_meters":33200,"station_id":"ce4bhm12rcd13ifvqgkg","pricing_plan_id":"cebpf4jnsgd1na2vs0mg"},{"bike_id":"641f5b3a-0958-49cd-babc-8214d157118d","system_id":"levelo_inurba_marseille","lat":43.28439,"lon":5.3918,"is_reserved":false,"is_disabled":false,"rental_uris":{"android":"levelo://app?vid=641f5b3a-0958-49cd-babc-8214d157118d","ios":"levelo://app?vid=641f5b3a-0958-49cd-babc-8214d157118d"},"vehicle_type_id":"4","last_reported":1726988875,"current_range_meters":39200,"station_id":"ce4bhoh2rcd13ifvqh5g","pricing_plan_id":"cebpf4jnsgd1na2vs0mg"},{"bike_id":"8f6a1d6c-f84f-499e-96d3-d7c45356c0a1","system_id":"levelo_inurba_marseille","lat":43.29781,"lon":5.371,"is_reserved":false,"is_disabled":false,"rental_uris":{"android":"levelo://app?vid=8f6a1d6c-f84f-499e-96d3-d7c45356c0a1","ios":"levelo://app?vid=8f6a1d6c-f84f-499e-96d3-d7c45356c0a1"},"vehicle_type_id":"4","last_reported":1726988875,"current_range_meters":8400,"station_id":"ce4bgop2rcd13ifvqc1g","pricing_plan_id":"cebpf4jnsgd1na2vs0mg"},{"bike_id":"a27dbfcf-fdb2-45f8-985f-42b146435a71","system_id":"levelo_inurba_marseille","lat":43.32338,"lon":5.40624,"is_reserved":false,"is_disabled":false,"rental_uris":{"android":"levelo://app?vid=a27dbfcf-fdb2-45f8-985f-42b146435a71","ios":"levelo://app?vid=a27dbfcf-fdb2-45f8-985f-42b146435a71"},"vehicle_type_id":"4","last_reported":1726988875,"current_range_meters":38000,"station_id":"ce4bhq92rcd13ifvqhjg","pricing_plan_id":"cebpf4jnsgd1na2vs0mg"},{"bike_id":"f74941be-f473-4ce7-9230-0799526567ae","system_id":"levelo_inurba_marseille","lat":43.23196,"lon":5.35542,"is_reserved":false,"is_disabled":false,"rental_uris":{"android":"levelo://app?vid=f74941be-f473-4ce7-9230-0799526567ae","ios":"levelo://app?vid=f74941be-f473-4ce7-9230-0799526567ae"},"vehicle_type_id":"4","last_reported":1726988875,"current_range_meters":38800,"station_id":"ce4bhu92rcd13ifvqi70","pricing_plan_id":"cebpf4jnsgd1na2vs0mg"},{"bike_id":"5ceaa9de-7835-4026-aaee-266d1382ab56","system_id":"levelo_inurba_marseille","lat":43.29938,"lon":5.36509,"is_reserved":false,"is_disabled":false,"rental_uris":{"android":"levelo://app?vid=5ceaa9de-7835-4026-aaee-266d1382ab56","ios":"levelo://app?vid=5ceaa9de-7835-4026-aaee-266d1382ab56"},"vehicle_type_id":"4","last_reported":1726988875,"current_range_meters":32800,"station_id":"ce4bgm92rcd13ifvqbr0","pricing_plan_id":"cebpf4jnsgd1na2vs0mg"},{"bike_id":"e9dbbbde-4807-485a-a383-2e7eb4a3324b","system_id":"levelo_inurba_marseille","lat":43.30589,"lon":5.3721,"is_reserved":false,"is_disabled":false,"rental_uris":{"android":"levelo://app?vid=e9dbbbde-4807-485a-a383-2e7eb4a3324b","ios":"levelo://app?vid=e9dbbbde-4807-485a-a383-2e7eb4a3324b"},"vehicle_type_id":"4","last_reported":1726988875,"current_range_meters":39200,"station_id":"ce4bgqh2rcd13ifvqc4g","pricing_plan_id":"cebpf4jnsgd1na2vs0mg"},{"bike_id":"e2a22653-bc09-45bf-a90e-0cf5f395397e","system_id":"levelo_inurba_marseille","lat":43.30149,"lon":5.39877,"is_reserved":false,"is_disabled":false,"rental_uris":{"android":"levelo://app?vid=e2a22653-bc09-45bf-a90e-0cf5f395397e","ios":"levelo://app?vid=e2a22653-bc09-45bf-a90e-0cf5f395397e"},"vehicle_type_id":"4","last_reported":1726988875,"current_range_meters":34800,"station_id":"ce4bh0h2rcd13ifvqd40","pricing_plan_id":"cebpf4jnsgd1na2vs0mg"},{"bike_id":"1d843a13-7297-42bd-88e3-7bc313e4a30a","system_id":"levelo_inurba_marseille","lat":43.30937,"lon":5.40143,"is_reserved":false,"is_disabled":false,"rental_uris":{"android":"levelo://app?vid=1d843a13-7297-42bd-88e3-7bc313e4a30a","ios":"levelo://app?vid=1d843a13-7297-42bd-88e3-7bc313e4a30a"},"vehicle_type_id":"4","last_reported":1726988875,"current_range_meters":11200,"station_id":"ce4bgvp2rcd13ifvqct0","pricing_plan_id":"cebpf4jnsgd1na2vs0mg"},{"bike_id":"b9503bfd-a2c9-491b-b8be-4c7c0bcc5cfa","system_id":"levelo_inurba_marseille","lat":43.27319,"lon":5.39069,"is_reserved":false,"is_disabled":false,"rental_uris":{"android":"levelo://app?vid=b9503bfd-a2c9-491b-b8be-4c7c0bcc5cfa","ios":"levelo://app?vid=b9503bfd-a2c9-491b-b8be-4c7c0bcc5cfa"},"vehicle_type_id":"4","last_reported":1726988875,"current_range_meters":39200,"station_id":"ce4bhgp2rcd13ifvqfe0","pricing_plan_id":"cebpf4jnsgd1na2vs0mg"},{"bike_id":"e61ade34-4f3f-4b26-88c0-d0b383b4dcc4","system_id":"levelo_inurba_marseille","lat":43.30548,"lon":5.38434,"is_reserved":false,"is_disabled":false,"rental_uris":{"android":"levelo://app?vid=e61ade34-4f3f-4b26-88c0-d0b383b4dcc4","ios":"levelo://app?vid=e61ade34-4f3f-4b26-88c0-d0b383b4dcc4"},"vehicle_type_id":"4","last_reported":1726988875,"current_range_meters":20400,"station_id":"ce4bgg92rcd13ifvqb30","pricing_plan_id":"cebpf4jnsgd1na2vs0mg"},{"bike_id":"bc2224ad-a18e-479e-9927-fa7d79220cd4","system_id":"levelo_inurba_marseille","lat":43.32339,"lon":5.40625,"is_reserved":false,"is_disabled":false,"rental_uris":{"android":"levelo://app?vid=bc2224ad-a18e-479e-9927-fa7d79220cd4","ios":"levelo://app?vid=bc2224ad-a18e-479e-9927-fa7d79220cd4"},"vehicle_type_id":"4","last_reported":1726988875,"current_range_meters":38000,"station_id":"ce4bhq92rcd13ifvqhjg","pricing_plan_id":"cebpf4jnsgd1na2vs0mg"},{"bike_id":"4f23fe08-671a-48a9-91ae-3739d38d97c0","system_id":"levelo_inurba_marseille","lat":43.30543,"lon":5.38429,"is_reserved":false,"is_disabled":false,"rental_uris":{"android":"levelo://app?vid=4f23fe08-671a-48a9-91ae-3739d38d97c0","ios":"levelo://app?vid=4f23fe08-671a-48a9-91ae-3739d38d97c0"},"vehicle_type_id":"4","last_reported":1726988875,"current_range_meters":39200,"station_id":"ce4bgg92rcd13ifvqb30","pricing_plan_id":"cebpf4jnsgd1na2vs0mg"},{"bike_id":"4bb7a675-da9b-4975-873c-414cafad6126","system_id":"levelo_inurba_marseille","lat":43.28459,"lon":5.35891,"is_reserved":false,"is_disabled":false,"rental_uris":{"android":"levelo://app?vid=4bb7a675-da9b-4975-873c-414cafad6126","ios":"levelo://app?vid=4bb7a675-da9b-4975-873c-414cafad6126"},"vehicle_type_id":"4","last_reported":1726988875,"current_range_meters":38400,"station_id":"ce4bhah2rcd13ifvqei0","pricing_plan_id":"cebpf4jnsgd1na2vs0mg"},{"bike_id":"6a27e725-2d8c-4144-8185-44daee5ca0de","system_id":"levelo_inurba_marseille","lat":43.31758,"lon":5.39017,"is_reserved":false,"is_disabled":false,"rental_uris":{"android":"levelo://app?vid=6a27e725-2d8c-4144-8185-44daee5ca0de","ios":"levelo://app?vid=6a27e725-2d8c-4144-8185-44daee5ca0de"},"vehicle_type_id":"4","last_reported":1726988875,"current_range_meters":22400,"station_id":"ce4bhqp2rcd13ifvqhng","pricing_plan_id":"cebpf4jnsgd1na2vs0mg"},{"bike_id":"aa18d1b9-803b-47fa-bea1-cb0edab5554a","system_id":"levelo_inurba_marseille","lat":43.28699,"lon":5.39985,"is_reserved":false,"is_disabled":false,"rental_uris":{"android":"levelo://app?vid=aa18d1b9-803b-47fa-bea1-cb0edab5554a","ios":"levelo://app?vid=aa18d1b9-803b-47fa-bea1-cb0edab5554a"},"vehicle_type_id":"4","last_reported":1726988875,"current_range_meters":30000,"station_id":"ce4bho92rcd13ifvqh3g","pricing_plan_id":"cebpf4jnsgd1na2vs0mg"},{"bike_id":"27be6f2f-1bc2-4192-a569-44eba2fb71ae","system_id":"levelo_inurba_marseille","lat":43.25942,"lon":5.409,"is_reserved":false,"is_disabled":false,"rental_uris":{"android":"levelo://app?vid=27be6f2f-1bc2-4192-a569-44eba2fb71ae","ios":"levelo://app?vid=27be6f2f-1bc2-4192-a569-44eba2fb71ae"},"vehicle_type_id":"4","last_reported":1726988875,"current_range_meters":14000,"station_id":"ce4bhm92rcd13ifvqglg","pricing_plan_id":"cebpf4jnsgd1na2vs0mg"},{"bike_id":"165b741a-2404-4624-b268-999183c6a48e","system_id":"levelo_inurba_marseille","lat":43.27492,"lon":5.42455,"is_reserved":false,"is_disabled":false,"rental_uris":{"android":"levelo://app?vid=165b741a-2404-4624-b268-999183c6a48e","ios":"levelo://app?vid=165b741a-2404-4624-b268-999183c6a48e"},"vehicle_type_id":"4","last_reported":1726988875,"current_range_meters":38000,"station_id":"ce4bhn92rcd13ifvqgrg","pricing_plan_id":"cebpf4jnsgd1na2vs0mg"},{"bike_id":"fb2b63d9-4a26-4602-9a57-d2caab531ee7","system_id":"levelo_inurba_marseille","lat":43.33718,"lon":5.39184,"is_reserved":false,"is_disabled":false,"rental_uris":{"android":"levelo://app?vid=fb2b63d9-4a26-4602-9a57-d2caab531ee7","ios":"levelo://app?vid=fb2b63d9-4a26-4602-9a57-d2caab531ee7"},"vehicle_type_id":"4","last_reported":1726988875,"current_range_meters":38000,"station_id":"ce4bhr92rcd13ifvqhsg","pricing_plan_id":"cebpf4jnsgd1na2vs0mg"},{"bike_id":"82e6fd96-a62a-435f-a86e-ecb925dd224a","system_id":"levelo_inurba_marseille","lat":43.28615,"lon":5.37068,"is_reserved":false,"is_disabled":false,"rental_uris":{"android":"levelo://app?vid=82e6fd96-a62a-435f-a86e-ecb925dd224a","ios":"levelo://app?vid=82e6fd96-a62a-435f-a86e-ecb925dd224a"},"vehicle_type_id":"4","last_reported":1726988875,"current_range_meters":38800,"station_id":"ce4bht12rcd13ifvqi60","pricing_plan_id":"cebpf4jnsgd1na2vs0mg"},{"bike_id":"b5f12779-aa23-4749-b423-f09d1ec099bf","system_id":"levelo_inurba_marseille","lat":43.27971,"lon":5.3875,"is_reserved":false,"is_disabled":false,"rental_uris":{"android":"levelo://app?vid=b5f12779-aa23-4749-b423-f09d1ec099bf","ios":"levelo://app?vid=b5f12779-aa23-4749-b423-f09d1ec099bf"},"vehicle_type_id":"4","last_reported":1726988875,"current_range_meters":36800,"station_id":"ce4bhg12rcd13ifvqf80","pricing_plan_id":"cebpf4jnsgd1na2vs0mg"},{"bike_id":"42031087-9761-47f2-8671-c068a2bd95a1","system_id":"levelo_inurba_marseille","lat":43.23184,"lon":5.39984,"is_reserved":false,"is_disabled":false,"rental_uris":{"android":"levelo://app?vid=42031087-9761-47f2-8671-c068a2bd95a1","ios":"levelo://app?vid=42031087-9761-47f2-8671-c068a2bd95a1"},"vehicle_type_id":"4","last_reported":1726988875,"current_range_meters":38400,"station_id":"ce4bhn12rcd13ifvqgqg","pricing_plan_id":"cebpf4jnsgd1na2vs0mg"},{"bike_id":"e8d9fcc7-4a1f-4d96-8ebf-5d7fd0b8bb85","system_id":"levelo_inurba_marseille","lat":43.23185,"lon":5.3998,"is_reserved":false,"is_disabled":false,"rental_uris":{"android":"levelo://app?vid=e8d9fcc7-4a1f-4d96-8ebf-5d7fd0b8bb85","ios":"levelo://app?vid=e8d9fcc7-4a1f-4d96-8ebf-5d7fd0b8bb85"},"vehicle_type_id":"4","last_reported":1726988875,"current_range_meters":24400,"station_id":"ce4bhn12rcd13ifvqgqg","pricing_plan_id":"cebpf4jnsgd1na2vs0mg"},{"bike_id":"ef8c4665-5ed2-4c55-a204-5049067fb8cf","system_id":"levelo_inurba_marseille","lat":43.31327,"lon":5.3969,"is_reserved":false,"is_disabled":false,"rental_uris":{"android":"levelo://app?vid=ef8c4665-5ed2-4c55-a204-5049067fb8cf","ios":"levelo://app?vid=ef8c4665-5ed2-4c55-a204-5049067fb8cf"},"vehicle_type_id":"4","last_reported":1726988875,"current_range_meters":39200,"station_id":"ce4bgvp2rcd13ifvqcu0","pricing_plan_id":"cebpf4jnsgd1na2vs0mg"},{"bike_id":"a9f970fa-8fa9-4f75-a9c9-ba0a24a4c539","system_id":"levelo_inurba_marseille","lat":43.28418,"lon":5.349768,"is_reserved":false,"is_disabled":false,"rental_uris":{"android":"levelo://app?vid=a9f970fa-8fa9-4f75-a9c9-ba0a24a4c539","ios":"levelo://app?vid=a9f970fa-8fa9-4f75-a9c9-ba0a24a4c539"},"vehicle_type_id":"4","last_reported":1726988875,"current_range_meters":36000,"station_id":"ce4bhbh2rcd13ifvqepg","pricing_plan_id":"cebpf4jnsgd1na2vs0mg"},{"bike_id":"493f6e11-6dfc-4ed1-86fc-5d03926df77c","system_id":"levelo_inurba_marseille","lat":43.31121,"lon":5.37758,"is_reserved":false,"is_disabled":false,"rental_uris":{"android":"levelo://app?vid=493f6e11-6dfc-4ed1-86fc-5d03926df77c","ios":"levelo://app?vid=493f6e11-6dfc-4ed1-86fc-5d03926df77c"},"vehicle_type_id":"4","last_reported":1726988875,"current_range_meters":33600,"station_id":"ce4bgt92rcd13ifvqcg0","pricing_plan_id":"cebpf4jnsgd1na2vs0mg"},{"bike_id":"954b06dc-9cf5-43b1-89c5-33c1bab61b2b","system_id":"levelo_inurba_marseille","lat":43.31486,"lon":5.37301,"is_reserved":false,"is_disabled":false,"rental_uris":{"android":"levelo://app?vid=954b06dc-9cf5-43b1-89c5-33c1bab61b2b","ios":"levelo://app?vid=954b06dc-9cf5-43b1-89c5-33c1bab61b2b"},"vehicle_type_id":"4","last_reported":1726988875,"current_range_meters":38800,"station_id":"ce4bgt12rcd13ifvqcd0","pricing_plan_id":"cebpf4jnsgd1na2vs0mg"},{"bike_id":"3aa7cfac-e0b3-478d-a36f-f0fd05c9a896","system_id":"levelo_inurba_marseille","lat":43.29069,"lon":5.37164,"is_reserved":false,"is_disabled":false,"rental_uris":{"android":"levelo://app?vid=3aa7cfac-e0b3-478d-a36f-f0fd05c9a896","ios":"levelo://app?vid=3aa7cfac-e0b3-478d-a36f-f0fd05c9a896"},"vehicle_type_id":"4","last_reported":1726988875,"current_range_meters":38400,"station_id":"ce4bh5p2rcd13ifvqe4g","pricing_plan_id":"cebpf4jnsgd1na2vs0mg"},{"bike_id":"64587697-05e9-4548-8588-ba3be5577708","system_id":"levelo_inurba_marseille","lat":43.29254,"lon":5.40898,"is_reserved":false,"is_disabled":false,"rental_uris":{"android":"levelo://app?vid=64587697-05e9-4548-8588-ba3be5577708","ios":"levelo://app?vid=64587697-05e9-4548-8588-ba3be5577708"},"vehicle_type_id":"4","last_reported":1726988875,"current_range_meters":39200,"station_id":"ce4bh192rcd13ifvqdc0","pricing_plan_id":"cebpf4jnsgd1na2vs0mg"},{"bike_id":"9db086ca-e7d0-4cbd-a8a0-00e1ea9007af","system_id":"levelo_inurba_marseille","lat":43.26204,"lon":5.37926,"is_reserved":false,"is_disabled":false,"rental_uris":{"android":"levelo://app?vid=9db086ca-e7d0-4cbd-a8a0-00e1ea9007af","ios":"levelo://app?vid=9db086ca-e7d0-4cbd-a8a0-00e1ea9007af"},"vehicle_type_id":"4","last_reported":1726988875,"current_range_meters":6400,"station_id":"ce4bhjp2rcd13ifvqg90","pricing_plan_id":"cebpf4jnsgd1na2vs0mg"},{"bike_id":"e95fdd8e-a2a3-4a7b-969a-fa0ebc672c7d","system_id":"levelo_inurba_marseille","lat":43.33725,"lon":5.39185,"is_reserved":false,"is_disabled":false,"rental_uris":{"android":"levelo://app?vid=e95fdd8e-a2a3-4a7b-969a-fa0ebc672c7d","ios":"levelo://app?vid=e95fdd8e-a2a3-4a7b-969a-fa0ebc672c7d"},"vehicle_type_id":"4","last_reported":1726988875,"current_range_meters":22800,"station_id":"ce4bhr92rcd13ifvqhsg","pricing_plan_id":"cebpf4jnsgd1na2vs0mg"},{"bike_id":"5e89eb86-04c1-4929-b3ce-44c08ecb21db","system_id":"levelo_inurba_marseille","lat":43.31077,"lon":5.38351,"is_reserved":false,"is_disabled":false,"rental_uris":{"android":"levelo://app?vid=5e89eb86-04c1-4929-b3ce-44c08ecb21db","ios":"levelo://app?vid=5e89eb86-04c1-4929-b3ce-44c08ecb21db"},"vehicle_type_id":"4","last_reported":1726988875,"current_range_meters":32400,"station_id":"ce4bgv92rcd13ifvqcr0","pricing_plan_id":"cebpf4jnsgd1na2vs0mg"},{"bike_id":"fa690805-233a-4a70-a9f3-33f1b67cdb1f","system_id":"levelo_inurba_marseille","lat":43.32285,"lon":5.38255,"is_reserved":false,"is_disabled":false,"rental_uris":{"android":"levelo://app?vid=fa690805-233a-4a70-a9f3-33f1b67cdb1f","ios":"levelo://app?vid=fa690805-233a-4a70-a9f3-33f1b67cdb1f"},"vehicle_type_id":"4","last_reported":1726988875,"current_range_meters":8400,"station_id":"ce4bhr12rcd13ifvqhqg","pricing_plan_id":"cebpf4jnsgd1na2vs0mg"},{"bike_id":"f6d53afc-4121-4dc7-9acf-b06309ffb8ff","system_id":"levelo_inurba_marseille","lat":43.27904,"lon":5.38017,"is_reserved":false,"is_disabled":false,"rental_uris":{"android":"levelo://app?vid=f6d53afc-4121-4dc7-9acf-b06309ffb8ff","ios":"levelo://app?vid=f6d53afc-4121-4dc7-9acf-b06309ffb8ff"},"vehicle_type_id":"4","last_reported":1726988875,"current_range_meters":2800,"station_id":"ce4bhf92rcd13ifvqf50","pricing_plan_id":"cebpf4jnsgd1na2vs0mg"},