{"last_updated":1738858205,"ttl":60,"version":"2.2","data":{"bikes":[{"bike_id":"708a4b17-b770-4df3-a1a7-03df134f8bf4","system_id":"levelo_inurba_marseille","lat":43.29628,"lon":5.37173,"is_reserved":false,"is_disabled":false,"rental_uris":{"android":"levelo://app?vid=708a4b17-b770-4df3-a1a7-03df134f8bf4","ios":"levelo://app?vid=708a4b17-b770-4df3-a1a7-03df134f8bf4"},"vehicle_type_id":"4","last_reported":1738858205,"current_range_meters":38800,"station_id":"ce4bgnh2rcd13ifvqc0g","pricing_plan_id":"cebpf4jnsgd1na2vs0mg"},{"bike_id":"7b27d184-8679-45a3-bbb7-e390453edbed","system_id":"levelo_inurba_marseille","lat":43.2293,"lon":5.35378,"is_reserved":false,"is_disabled":false,"rental_uris":{"android":"levelo://app?vid=7b27d184-8679-45a3-bbb7-e390453edbed","ios":"levelo://app?vid=7b27d184-8679-45a3-bbb7-e390453edbed"},"vehicle_type_id":"4","last_reported":1738858205,"current_range_meters":21600,"station_id":"cpo3532slgdg3j2ikp40","pricing_plan_id":"cebpf4jnsgd1na2vs0mg"},{"bike_id":"43ed1231-0b0d-413f-812b-afb9d05440b2","system_id":"levelo_inurba_marseille","lat":43.31329,"lon":5.39689,"is_reserved":false,"is_disabled":false,"rental_uris":{"android":"levelo://app?vid=43ed1231-0b0d-413f-812b-afb9d05440b2","ios":"levelo://app?vid=43ed1231-0b0d-413f-812b-afb9d05440b2"},"vehicle_type_id":"4","last_reported":1738858205,"current_range_meters":27200,"station_id":"ce4bgvp2rcd13ifvqcu0","pricing_plan_id":"cebpf4jnsgd1na2vs0mg"},{"bike_id":"439a80f2-376f-494c-a787-68e5bd0fd5f4","system_id":"levelo_inurba_marseille","lat":43.29626,"lon":5.37166,"is_reserved":false,"is_disabled":false,"rental_uris":{"android":"levelo://app?vid=439a80f2-376f-494c-a787-68e5bd0fd5f4","ios":"levelo://app?vid=439a80f2-376f-494c-a787-68e5bd0fd5f4"},"vehicle_type_id":"4","last_reported":1738858205,"current_range_meters":38800,"station_id":"ce4bgnh2rcd13ifvqc0g","pricing_plan_id":"cebpf4jnsgd1na2vs0mg"},{"bike_id":"6f1b8212-3f5a-4978-864e-5e174cc6fd25","system_id":"levelo_inurba_marseille","lat":43.29558,"lon":5.42269,"is_reserved":false,"is_disabled":false,"rental_uris":{"android":"levelo://app?vid=6f1b8212-3f5a-4978-864e-5e174cc6fd25","ios":"levelo://app?vid=6f1b8212-3f5a-4978-864e-5e174cc6fd25"},"vehicle_type_id":"4","last_reported":1738858205,"current_range_meters":39200,"station_id":"ce4bhph2rcd13ifvqhdg","pricing_plan_id":"cebpf4jnsgd1na2vs0mg"},{"bike_id":"062d8ef8-0af6-41aa-a21c-86d0474bf78a","system_id":"levelo_inurba_marseille","lat":43.28632,"lon":5.39138,"is_reserved":false,"is_disabled":false,"rental_uris":{"android":"levelo://app?vid=062d8ef8-0af6-41aa-a21c-86d0474bf78a","ios":"levelo://app?vid=062d8ef8-0af6-41aa-a21c-86d0474bf78a"},"vehicle_type_id":"4","last_reported":1738858205,"current_range_meters":18800,"station_id":"","pricing_plan_id":"cebpf4jnsgd1na2vs0mg"},{"bike_id":"cd961c39-a4a4-4744-b3c6-50c57c93b064","system_id":"levelo_inurba_marseille","lat":43.28628,"lon":5.35087,"is_reserved":false,"is_disabled":false,"rental_uris":{"android":"levelo://app?vid=cd961c39-a4a4-4744-b3c6-50c57c93b064","ios":"levelo://app?vid=cd961c39-a4a4-4744-b3c6-50c57c93b064"},"vehicle_type_id":"4","last_reported":1738858205,"current_range_meters":8800,"station_id":"ce4bhch2rcd13ifvqeug","pricing_plan_id":"cebpf4jnsgd1na2vs0mg"},{"bike_id":"9094078c-7c29-411d-8877-ca6848fb2f24","system_id":"levelo_inurba_marseille","lat":43.27894,"lon":5.38009,"is_reserved":false,"is_disabled":true,"rental_uris":{"android":"levelo://app?vid=9094078c-7c29-411d-8877-ca6848fb2f24","ios":"levelo://app?vid=9094078c-7c29-411d-8877-ca6848fb2f24"},"vehicle_type_id":"4","last_reported":1738858205,"current_range_meters":1200,"station_id":"ce4bhf92rcd13ifvqf50","pricing_plan_id":"cebpf4jnsgd1na2vs0mg"},{"bike_id":"e0b2e6e3-cf3f-43ff-a27b-9a7676c8271e","system_id":"levelo_inurba_marseille","lat":43.23187,"lon":5.3998,"is_reserved":false,"is_disabled":false,"rental_uris":{"android":"levelo://app?vid=e0b2e6e3-cf3f-43ff-a27b-9a7676c8271e","ios":"levelo://app?vid=e0b2e6e3-cf3f-43ff-a27b-9a7676c8271e"},"vehicle_type_id":"4","last_reported":1738858205,"current_range_meters":16800,"station_id":"ce4bhn12rcd13ifvqgqg","pricing_plan_id":"cebpf4jnsgd1na2vs0mg"},{"bike_id":"9aeddf54-e67a-43ce-8b86-752f5ea9c75f","system_id":"levelo_inurba_marseille","lat":43.28473,"lon":5.3843,"is_reserved":false,"is_disabled":false,"rental_uris":{"android":"levelo://app?vid=9aeddf54-e67a-43ce-8b86-752f5ea9c75f","ios":"levelo://app?vid=9aeddf54-e67a-43ce-8b86-752f5ea9c75f"},"vehicle_type_id":"4","last_reported":1738858205,"current_range_meters":2800,"station_id":"ce4bh512rcd13ifvqe3g","pricing_plan_id":"cebpf4jnsgd1na2vs0mg"},{"bike_id":"41c1cf47-37de-4159-b012-644d45dfb96d","system_id":"levelo_inurba_marseille","lat":43.25825,"lon":5.39418,"is_reserved":false,"is_disabled":false,"rental_uris":{"android":"levelo://app?vid=41c1cf47-37de-4159-b012-644d45dfb96d","ios":"levelo://app?vid=41c1cf47-37de-4159-b012-644d45dfb96d"},"vehicle_type_id":"4","last_reported":1738858205,"current_range_meters":10800,"station_id":"ce4bhip2rcd13ifvqft0","pricing_plan_id":"cebpf4jnsgd1na2vs0mg"},{"bike_id":"9a6c390a-9207-4796-b855-17826ae69ef5","system_id":"levelo_inurba_marseille","lat":43.32552,"lon":5.41434,"is_reserved":false,"is_disabled":false,"rental_uris":{"android":"levelo://app?vid=9a6c390a-9207-4796-b855-17826ae69ef5","ios":"levelo://app?vid=9a6c390a-9207-4796-b855-17826ae69ef5"},"vehicle_type_id":"4","last_reported":1738858205,"current_range_meters":32800,"station_id":"ce4bhq12rcd13ifvqhhg","pricing_plan_id":"cebpf4jnsgd1na2vs0mg"},{"bike_id":"7a626104-483c-4dd0-b245-189c49643f93","system_id":"levelo_inurba_marseille","lat":43.29201,"lon":5.39325,"is_reserved":false,"is_disabled":false,"rental_uris":{"android":"levelo://app?vid=7a626104-483c-4dd0-b245-189c49643f93","ios":"levelo://app?vid=7a626104-483c-4dd0-b245-189c49643f93"},"vehicle_type_id":"4","last_reported":1738858205,"current_range_meters":24800,"station_id":"ce4bh192rcd13ifvqdd0","pricing_plan_id":"cebpf4jnsgd1na2vs0mg"},{"bike_id":"475f847f-2abd-407e-85c1-23b5103f485f","system_id":"levelo_inurba_marseille","lat":43.26214,"lon":5.37442,"is_reserved":false,"is_disabled":false,"rental_uris":{"android":"levelo://app?vid=475f847f-2abd-407e-85c1-23b5103f485f","ios":"levelo://app?vid=475f847f-2abd-407e-85c1-23b5103f485f"},"vehicle_type_id":"4","last_reported":1738858205,"current_range_meters":38800,"station_id":"ce4bhgp2rcd13ifvqfc0","pricing_plan_id":"cebpf4jnsgd1na2vs0mg"},{"bike_id":"f71cfc37-58ac-4619-b554-407a661a0b99","system_id":"levelo_inurba_marseille","lat":43.29857,"lon":5.39726,"is_reserved":false,"is_disabled":false,"rental_uris":{"android":"levelo://app?vid=f71cfc37-58ac-4619-b554-407a661a0b99","ios":"levelo://app?vid=f71cfc37-58ac-4619-b554-407a661a0b99"},"vehicle_type_id":"4","last_reported":1738858205,"current_range_meters":16000,"station_id":"ce4bh0h2rcd13ifvqd50","pricing_plan_id":"cebpf4jnsgd1na2vs0mg"},{"bike_id":"aa874f21-4899-4c94-ac56-d6c355723cbb","system_id":"levelo_inurba_marseille","lat":43.23183,"lon":5.39979,"is_reserved":false,"is_disabled":false,"rental_uris":{"android":"levelo://app?vid=aa874f21-4899-4c94-ac56-d6c355723cbb","ios":"levelo://app?vid=aa874f21-4899-4c94-ac56-d6c355723cbb"},"vehicle_type_id":"4","last_reported":1738858205,"current_range_meters":36800,"station_id":"ce4bhn12rcd13ifvqgqg","pricing_plan_id":"cebpf4jnsgd1na2vs0mg"},{"bike_id":"19b11498-b7da-498a-a065-c091cc335a9f","system_id":"levelo_inurba_marseille","lat":43.23186,"lon":5.39978,"is_reserved":false,"is_disabled":false,"rental_uris":{"android":"levelo://app?vid=19b11498-b7da-498a-a065-c091cc335a9f","ios":"levelo://app?vid=19b11498-b7da-498a-a065-c091cc335a9f"},"vehicle_type_id":"4","last_reported":1738858205,"current_range_meters":24800,"station_id":"ce4bhn12rcd13ifvqgqg","pricing_plan_id":"cebpf4jnsgd1na2vs0mg"},{"bike_id":"1f9c3dec-3722-4e4a-ae65-add96f3de071","system_id":"levelo_inurba_marseille","lat":43.30787,"lon":5.37658,"is_reserved":false,"is_disabled":false,"rental_uris":{"android":"levelo://app?vid=1f9c3dec-3722-4e4a-ae65-add96f3de071","ios":"levelo://app?vid=1f9c3dec-3722-4e4a-ae65-add96f3de071"},"vehicle_type_id":"4","last_reported":1738858205,"current_range_meters":38400,"station_id":"ce4bgv92rcd13ifvqcq0","pricing_plan_id":"cebpf4jnsgd1na2vs0mg"},{"bike_id":"25444cf4-af72-4746-80ce-2844f587b387","system_id":"levelo_inurba_marseille","lat":43.29726,"lon":5.37666,"is_reserved":false,"is_disabled":false,"rental_uris":{"android":"levelo://app?vid=25444cf4-af72-4746-80ce-2844f587b387","ios":"levelo://app?vid=25444cf4-af72-4746-80ce-2844f587b387"},"vehicle_type_id":"4","last_reported":1738858205,"current_range_meters":38800,"station_id":"ce4bgkh2rcd13ifvqbl0","pricing_plan_id":"cebpf4jnsgd1na2vs0mg"},{"bike_id":"422d1ae9-3f23-4c23-952d-112dc4aaa449","system_id":"levelo_inurba_marseille","lat":43.29758,"lon":5.38066,"is_reserved":false,"is_disabled":false,"rental_uris":{"android":"levelo://app?vid=422d1ae9-3f23-4c23-952d-112dc4aaa449","ios":"levelo://app?vid=422d1ae9-3f23-4c23-952d-112dc4aaa449"},"vehicle_type_id":"4","last_reported":1738858205,"current_range_meters":14000,"station_id":"","pricing_plan_id":"cebpf4jnsgd1na2vs0mg"},{"bike_id":"d327d221-a4ae-4ce7-8941-3960805fc399","system_id":"levelo_inurba_marseille","lat":43.33804,"lon":5.37535,"is_reserved":false,"is_disabled":true,"rental_uris":{"android":"levelo://app?vid=d327d221-a4ae-4ce7-8941-3960805fc399","ios":"levelo://app?vid=d327d221-a4ae-4ce7-8941-3960805fc399"},"vehicle_type_id":"4","last_reported":1738858205,"current_range_meters":33600,"station_id":"","pricing_plan_id":"cebpf4jnsgd1na2vs0mg"},{"bike_id":"5f1e7994-9cde-4f2a-a54a-77f0c7205420","system_id":"levelo_inurba_marseille","lat":43.30168,"lon":5.38084,"is_reserved":false,"is_disabled":false,"rental_uris":{"android":"levelo://app?vid=5f1e7994-9cde-4f2a-a54a-77f0c7205420","ios":"levelo://app?vid=5f1e7994-9cde-4f2a-a54a-77f0c7205420"},"vehicle_type_id":"4","last_reported":1738858205,"current_range_meters":34000,"station_id":"ce4bgjp2rcd13ifvqbh0","pricing_plan_id":"cebpf4jnsgd1na2vs0mg"},{"bike_id":"098d220b-e449-43ea-8d6d-9fc78e0abad9","system_id":"levelo_inurba_marseille","lat":43.22931,"lon":5.35378,"is_reserved":false,"is_disabled":false,"rental_uris":{"android":"levelo://app?vid=098d220b-e449-43ea-8d6d-9fc78e0abad9","ios":"levelo://app?vid=098d220b-e449-43ea-8d6d-9fc78e0abad9"},"vehicle_type_id":"4","last_reported":1738858205,"current_range_meters":38800,"station_id":"cpo3532slgdg3j2ikp40","pricing_plan_id":"cebpf4jnsgd1na2vs0mg"},{"bike_id":"3de2a62f-ee8b-4633-8581-80f610f7d857","system_id":"levelo_inurba_marseille","lat":43.24564,"lon":5.39533,"is_reserved":false,"is_disabled":true,"rental_uris":{"android":"levelo://app?vid=3de2a62f-ee8b-4633-8581-80f610f7d857","ios":"levelo://app?vid=3de2a62f-ee8b-4633-8581-80f610f7d857"},"vehicle_type_id":"4","last_reported":1738858205,"current_range_meters":1200,"station_id":"ce4bhlp2rcd13ifvqgjg","pricing_plan_id":"cebpf4jnsgd1na2vs0mg"},{"bike_id":"d0aeec3a-2d3a-4c0b-b451-12c0d3a2c68c","system_id":"levelo_inurba_marseille","lat":43.29096,"lon":5.38118,"is_reserved":false,"is_disabled":false,"rental_uris":{"android":"levelo://app?vid=d0aeec3a-2d3a-4c0b-b451-12c0d3a2c68c","ios":"levelo://app?vid=d0aeec3a-2d3a-4c0b-b451-12c0d3a2c68c"},"vehicle_type_id":"4","last_reported":1738858205,"current_range_meters":24800,"station_id":"ce4bh512rcd13ifvqe2g","pricing_plan_id":"cebpf4jnsgd1na2vs0mg"},{"bike_id":"fd091c5e-7a5b-48dc-a17f-2379e1b4480b","system_id":"levelo_inurba_marseille","lat":43.29167,"lon":5.37155,"is_reserved":false,"is_disabled":false,"rental_uris":{"android":"levelo://app?vid=fd091c5e-7a5b-48dc-a17f-2379e1b4480b","ios":"levelo://app?vid=fd091c5e-7a5b-48dc-a17f-2379e1b4480b"},"vehicle_type_id":"4","last_reported":1738858205,"current_range_meters":36000,"station_id":"ce4bha92rcd13ifvqeh0","pricing_plan_id":"cebpf4jnsgd1na2vs0mg"},{"bike_id":"6359c5d0-b167-4b2c-8041-c73ccc4aa64a","system_id":"levelo_inurba_marseille","lat":43.30049,"lon":5.37148,"is_reserved":false,"is_disabled":false,"rental_uris":{"android":"levelo://app?vid=6359c5d0-b167-4b2c-8041-c73ccc4aa64a","ios":"levelo://app?vid=6359c5d0-b167-4b2c-8041-c73ccc4aa64a"},"vehicle_type_id":"4","last_reported":1738858205,"current_range_meters":24000,"station_id":"","pricing_plan_id":"cebpf4jnsgd1na2vs0mg"},{"bike_id":"1658a0ca-41ec-4f56-8ee5-d0dcdc0decda","system_id":"levelo_inurba_marseille","lat":43.29038,"lon":5.37582,"is_reserved":false,"is_disabled":false,"rental_uris":{"android":"levelo://app?vid=1658a0ca-41ec-4f56-8ee5-d0dcdc0decda","ios":"levelo://app?vid=1658a0ca-41ec-4f56-8ee5-d0dcdc0decda"},"vehicle_type_id":"4","last_reported":1738858205,"current_range_meters":38400,"station_id":"ce4bh692rcd13ifvqe90","pricing_plan_id":"cebpf4jnsgd1na2vs0mg"},{"bike_id":"edaf17a3-9fb8-4281-8efa-d1063bb06377","system_id":"levelo_inurba_marseille","lat":43.2792,"lon":5.39577,"is_reserved":false,"is_disabled":false,"rental_uris":{"android":"levelo://app?vid=edaf17a3-9fb8-4281-8efa-d1063bb06377","ios":"levelo://app?vid=edaf17a3-9fb8-4281-8efa-d1063bb06377"},"vehicle_type_id":"4","last_reported":1738858205,"current_range_meters":4400,"station_id":"ce4bhf92rcd13ifvqf40","pricing_plan_id":"cebpf4jnsgd1na2vs0mg"},{"bike_id":"12defe7e-c47c-4fa6-8dd3-f6f7f6deca0c","system_id":"levelo_inurba_marseille","lat":43.28946,"lon":5.36405,"is_reserved":false,"is_disabled":false,"rental_uris":{"android":"levelo://app?vid=12defe7e-c47c-4fa6-8dd3-f6f7f6deca0c","ios":"levelo://app?vid=12defe7e-c47c-4fa6-8dd3-f6f7f6deca0c"},"vehicle_type_id":"4","last_reported":1738858205,"current_range_meters":12800,"station_id":"ce4bhc92rcd13ifvqetg","pricing_plan_id":"cebpf4jnsgd1na2vs0mg"},{"bike_id":"b7a27109-196a-4b8d-95ce-2485f87dfad7","system_id":"levelo_inurba_marseille","lat":43.25484,"lon":5.37665,"is_reserved":false,"is_disabled":false,"rental_uris":{"android":"levelo://app?vid=b7a27109-196a-4b8d-95ce-2485f87dfad7","ios":"levelo://app?vid=b7a27109-196a-4b8d-95ce-2485f87dfad7"},"vehicle_type_id":"4","last_reported":1738858205,"current_range_meters":22000,"station_id":"ce4bhh12rcd13ifvqff0","pricing_plan_id":"cebpf4jnsgd1na2vs0mg"},{"bike_id":"1d7b63b6-82a4-4f06-95cb-7030f7da8659","system_id":"levelo_inurba_marseille","lat":43.26207,"lon":5.37449,"is_reserved":false,"is_disabled":false,"rental_uris":{"android":"levelo://app?vid=1d7b63b6-82a4-4f06-95cb-7030f7da8659","ios":"levelo://app?vid=1d7b63b6-82a4-4f06-95cb-7030f7da8659"},"vehicle_type_id":"4","last_reported":1738858205,"current_range_meters":31200,"station_id":"ce4bhgp2rcd13ifvqfc0","pricing_plan_id":"cebpf4jnsgd1na2vs0mg"},{"bike_id":"4ed068d3-7355-4fe3-983e-d958d680cef4","system_id":"levelo_inurba_marseille","lat":43.30802,"lon":5.43515,"is_reserved":false,"is_disabled":false,"rental_uris":{"android":"levelo://app?vid=4ed068d3-7355-4fe3-983e-d958d680cef4","ios":"levelo://app?vid=4ed068d3-7355-4fe3-983e-d958d680cef4"},"vehicle_type_id":"4","last_reported":1738858205,"current_range_meters":39200,"station_id":"ce4bhph2rcd13ifvqheg","pricing_plan_id":"cebpf4jnsgd1na2vs0mg"},{"bike_id":"3078e8ce-5d59-4082-8b1a-8d753b4f6935","system_id":"levelo_inurba_marseille","lat":43.23191,"lon":5.39983,"is_reserved":false,"is_disabled":false,"rental_uris":{"android":"levelo://app?vid=3078e8ce-5d59-4082-8b1a-8d753b4f6935","ios":"levelo://app?vid=3078e8ce-5d59-4082-8b1a-8d753b4f6935"},"vehicle_type_id":"4","last_reported":1738858205,"current_range_meters":38800,"station_id":"ce4bhn12rcd13ifvqgqg","pricing_plan_id":"cebpf4jnsgd1na2vs0mg"},{"bike_id":"b1e15155-8511-43e5-bd75-fed6364538ed","system_id":"levelo_inurba_marseille","lat":43.33031,"lon":5.39023,"is_reserved":false,"is_disabled":false,"rental_uris":{"android":"levelo://app?vid=b1e15155-8511-43e5-bd75-fed6364538ed","ios":"levelo://app?vid=b1e15155-8511-43e5-bd75-fed6364538ed"},"vehicle_type_id":"4","last_reported":1738858205,"current_range_meters":32800,"station_id":"ce4bhr92rcd13ifvqhrg","pricing_plan_id":"cebpf4jnsgd1na2vs0mg"},{"bike_id":"a8e76632-6d27-4a5d-bcf5-de064ffe9c8a","system_id":"levelo_inurba_marseille","lat":43.33763,"lon":5.3744,"is_reserved":false,"is_disabled":false,"rental_uris":{"android":"levelo://app?vid=a8e76632-6d27-4a5d-bcf5-de064ffe9c8a","ios":"levelo://app?vid=a8e76632-6d27-4a5d-bcf5-de064ffe9c8a"},"vehicle_type_id":"4","last_reported":1738858205,"current_range_meters":18000,"station_id":"","pricing_plan_id":"cebpf4jnsgd1na2vs0mg"},{"bike_id":"19ba1418-665e-44c1-9fd9-f40d6cdfe17b","system_id":"levelo_inurba_marseille","lat":43.29711,"lon":5.36609,"is_reserved":false,"is_disabled":false,"rental_uris":{"android":"levelo://app?vid=19ba1418-665e-44c1-9fd9-f40d6cdfe17b","ios":"levelo://app?vid=19ba1418-665e-44c1-9fd9-f40d6cdfe17b"},"vehicle_type_id":"4","last_reported":1738858205,"current_range_meters":34000,"station_id":"ce4bgn12rcd13ifvqbt0","pricing_plan_id":"cebpf4jnsgd1na2vs0mg"},{"bike_id":"12040d18-1054-4261-b22a-087b2e066e16","system_id":"levelo_inurba_marseille","lat":43.28621,"lon":5.35099,"is_reserved":false,"is_disabled":false,"rental_uris":{"android":"levelo://app?vid=12040d18-1054-4261-b22a-087b2e066e16","ios":"levelo://app?vid=12040d18-1054-4261-b22a-087b2e066e16"},"vehicle_type_id":"4","last_reported":1738858205,"current_range_meters":23200,"station_id":"ce4bhch2rcd13ifvqeug","pricing_plan_id":"cebpf4jnsgd1na2vs0mg"},{"bike_id":"34c894d6-f9e6-4841-b8d1-d5e681d7b632","system_id":"levelo_inurba_marseille","lat":43.27369,"lon":5.36246,"is_reserved":false,"is_disabled":false,"rental_uris":{"android":"levelo://app?vid=34c894d6-f9e6-4841-b8d1-d5e681d7b632","ios":"levelo://app?vid=34c894d6-f9e6-4841-b8d1-d5e681d7b632"},"vehicle_type_id":"4","last_reported":1738858205,"current_range_meters":32000,"station_id":"ce4bhbh2rcd13ifvqeo0","pricing_plan_id":"cebpf4jnsgd1na2vs0mg"},{"bike_id":"15d13832-3ae5-42e6-82d9-4929333906d9","system_id":"levelo_inurba_marseille","lat":43.33028,"lon":5.39052,"is_reserved":false,"is_disabled":false,"rental_uris":{"android":"levelo://app?vid=15d13832-3ae5-42e6-82d9-4929333906d9","ios":"levelo://app?vid=15d13832-3ae5-42e6-82d9-4929333906d9"},"vehicle_type_id":"4","last_reported":1738858205,"current_range_meters":27200,"station_id":"ce4bhr92rcd13ifvqhrg","pricing_plan_id":"cebpf4jnsgd1na2vs0mg"},{"bike_id":"f9bc7b10-8440-46aa-8f5e-477165c9a8f6","system_id":"levelo_inurba_marseille","lat":43.279982,"lon":5.400043,"is_reserved":false,"is_disabled":false,"rental_uris":{"android":"levelo://app?vid=f9bc7b10-8440-46aa-8f5e-477165c9a8f6","ios":"levelo://app?vid=f9bc7b10-8440-46aa-8f5e-477165c9a8f6"},"vehicle_type_id":"4","last_reported":1738858205,"current_range_meters":12400,"station_id":"ce4bho92rcd13ifvqh4g","pricing_plan_id":"cebpf4jnsgd1na2vs0mg"},{"bike_id":"40dc067b-4e2c-4e97-95a9-54d4531fc94d","system_id":"levelo_inurba_marseille","lat":43.30328,"lon":5.40443,"is_reserved":false,"is_disabled":false,"rental_uris":{"android":"levelo://app?vid=40dc067b-4e2c-4e97-95a9-54d4531fc94d","ios":"levelo://app?vid=40dc067b-4e2c-4e97-95a9-54d4531fc94d"},"vehicle_type_id":"4","last_reported":1738858205,"current_range_meters":39200,"station_id":"ce4bh012rcd13ifvqd10","pricing_plan_id":"cebpf4jnsgd1na2vs0mg"},{"bike_id":"5c57bbac-bf63-47c0-8ef7-e92217416071","system_id":"levelo_inurba_marseille","lat":43.26514,"lon":5.39552,"is_reserved":false,"is_disabled":true,"rental_uris":{"android":"levelo://app?vid=5c57bbac-bf63-47c0-8ef7-e92217416071","ios":"levelo://app?vid=5c57bbac-bf63-47c0-8ef7-e92217416071"},"vehicle_type_id":"4","last_reported":1738858205,"current_range_meters":800,"station_id":"ce4bhi12rcd13ifvqfq0","pricing_plan_id":"cebpf4jnsgd1na2vs0mg"},{"bike_id":"9119d2de-c7ba-426e-b197-48054681ace0","system_id":"levelo_inurba_marseille","lat":43.29989,"lon":5.37179,"is_reserved":false,"is_disabled":false,"rental_uris":{"android":"levelo://app?vid=9119d2de-c7ba-426e-b197-48054681ace0","ios":"levelo://app?vid=9119d2de-c7ba-426e-b197-48054681ace0"},"vehicle_type_id":"4","last_reported":1738858205,"current_range_meters":14400,"station_id":"ce4bgr92rcd13ifvqc7g","pricing_plan_id":"cebpf4jnsgd1na2vs0mg"},{"bike_id":"e7802528-49dd-4d3d-b167-2644eed671af","system_id":"levelo_inurba_marseille","lat":43.27204,"lon":5.39194,"is_reserved":false,"is_disabled":false,"rental_uris":{"android":"levelo://app?vid=e7802528-49dd-4d3d-b167-2644eed671af","ios":"levelo://app?vid=e7802528-49dd-4d3d-b167-2644eed671af"},"vehicle_type_id":"4","last_reported":1738858205,"current_range_meters":31200,"station_id":"ce4bhhp2rcd13ifvqfm0","pricing_plan_id":"cebpf4jnsgd1na2vs0mg"},{"bike_id":"b73937ba-05e4-41c7-8959-6f24613e2797","system_id":"levelo_inurba_marseille","lat":43.22935,"lon":5.35386,"is_reserved":false,"is_disabled":false,"rental_uris":{"android":"levelo://app?vid=b73937ba-05e4-41c7-8959-6f24613e2797","ios":"levelo://app?vid=b73937ba-05e4-41c7-8959-6f24613e2797"},"vehicle_type_id":"4","last_reported":1738858205,"current_range_meters":37600,"station_id":"cpo3532slgdg3j2ikp40","pricing_plan_id":"cebpf4jnsgd1na2vs0mg"},{"bike_id":"516b5c85-3f07-4846-9bbf-aa7f1cc4b2e1","system_id":"levelo_inurba_marseille","lat":43.31336,"lon":5.36723,"is_reserved":false,"is_disabled":false,"rental_uris":{"android":"levelo://app?vid=516b5c85-3f07-4846-9bbf-aa7f1cc4b2e1","ios":"levelo://app?vid=516b5c85-3f07-4846-9bbf-aa7f1cc4b2e1"},"vehicle_type_id":"4","last_reported":1738858205,"current_range_meters":6400,"station_id":"ce4bgr92rcd13ifvqc6g","pricing_plan_id":"cebpf4jnsgd1na2vs0mg"},{"bike_id":"ab54e2d0-4c2c-486a-84c7-811ed9008ddc","system_id":"levelo_inurba_marseille","lat":43.27845,"lon":5.42525,"is_reserved":false,"is_disabled":false,"rental_uris":{"android":"levelo://app?vid=ab54e2d0-4c2c-486a-84c7-811ed9008ddc","ios":"levelo://app?vid=ab54e2d0-4c2c-486a-84c7-811ed9008ddc"},"vehicle_type_id":"4","last_reported":1738858205,"current_range_meters":4000,"station_id":"","pricing_plan_id":"cebpf4jnsgd1na2vs0mg"},{"bike_id":"7fc9a553-2dc6-4f5d-b89a-337f3e79a319","system_id":"levelo_inurba_marseille","lat":43.27963,"lon":5.38753,"is_reserved":false,"is_disabled":false,"rental_uris":{"android":"levelo://app?vid=7fc9a553-2dc6-4f5d-b89a-337f3e79a319","ios":"levelo://app?vid=7fc9a553-2dc6-4f5d-b89a-337f3e79a319"},"vehicle_type_id":"4","last_reported":1738858205,"current_range_meters":26000,"station_id":"ce4bhg12rcd13ifvqf80","pricing_plan_id":"cebpf4jnsgd1na2vs0mg"},{"bike_id":"58913607-3d23-4376-841b-881c1361d437","system_id":"levelo_inurba_marseille","lat":43.31325,"lon":5.39685,"is_reserved":false,"is_disabled":false,"rental_uris":{"android":"levelo://app?vid=58913607-3d23-4376-841b-881c1361d437","ios":"levelo://app?vid=58913607-3d23-4376-841b-881c1361d437"},"vehicle_type_id":"4","last_reported":1738858205,"current_range_meters":20400,"station_id":"ce4bgvp2rcd13ifvqcu0","pricing_plan_id":"cebpf4jnsgd1na2vs0mg"},{"bike_id":"a6eccf9d-db31-4b30-946b-54b158db704d","system_id":"levelo_inurba_marseille","lat":43.30134,"lon":5.39866,"is_reserved":false,"is_disabled":false,"rental_uris":{"android":"levelo://app?vid=a6eccf9d-db31-4b30-946b-54b158db704d","ios":"levelo://app?vid=a6eccf9d-db31-4b30-946b-54b158db704d"},"vehicle_type_id":"4","last_reported":1738858205,"current_range_meters":37600,"station_id":"ce4bh0h2rcd13ifvqd40","pricing_plan_id":"cebpf4jnsgd1na2vs0mg"},{"bike_id":"9abb8541-f0e4-475d-8c17-01388cf984ad","system_id":"levelo_inurba_marseille","lat":43.27186,"lon":5.40965,"is_reserved":false,"is_disabled":false,"rental_uris":{"android":"levelo://app?vid=9abb8541-f0e4-475d-8c17-01388cf984ad","ios":"levelo://app?vid=9abb8541-f0e4-475d-8c17-01388cf984ad"},"vehicle_type_id":"4","last_reported":1738858205,"current_range_meters":38800,"station_id":"ce4bhl12rcd13ifvqgf0","pricing_plan_id":"cebpf4jnsgd1na2vs0mg"},{"bike_id":"3c0191ea-fe29-40e3-ba71-3b250be79011","system_id":"levelo_inurba_marseille","lat":43.29861,"lon":5.39719,"is_reserved":false,"is_disabled":false,"rental_uris":{"android":"levelo://app?vid=3c0191ea-fe29-40e3-ba71-3b250be79011","ios":"levelo://app?vid=3c0191ea-fe29-40e3-ba71-3b250be79011"},"vehicle_type_id":"4","last_reported":1738858205,"current_range_meters":38800,"station_id":"ce4bh0h2rcd13ifvqd50","pricing_plan_id":"cebpf4jnsgd1na2vs0mg"},{"bike_id":"d8e3ebf4-014a-423b-a74e-c8a4780a7348","system_id":"levelo_inurba_marseille","lat":43.32363,"lon":5.38882,"is_reserved":false,"is_disabled":false,"rental_uris":{"android":"levelo://app?vid=d8e3ebf4-014a-423b-a74e-c8a4780a7348","ios":"levelo://app?vid=d8e3ebf4-014a-423b-a74e-c8a4780a7348"},"vehicle_type_id":"4","last_reported":1738858205,"current_range_meters":32400,"station_id":"ce4bhqp2rcd13ifvqhog","pricing_plan_id":"cebpf4jnsgd1na2vs0mg"},{"bike_id":"49d1f8d8-94b5-48c0-a93f-6f56560604fc","system_id":"levelo_inurba_marseille","lat":43.23182,"lon":5.39998,"is_reserved":false,"is_disabled":false,"rental_uris":{"android":"levelo://app?vid=49d1f8d8-94b5-48c0-a93f-6f56560604fc","ios":"levelo://app?vid=49d1f8d8-94b5-48c0-a93f-6f56560604fc"},"vehicle_type_id":"4","last_reported":1738858205,"current_range_meters":16000,"station_id":"ce4bhn12rcd13ifvqgqg","pricing_plan_id":"cebpf4jnsgd1na2vs0mg"},{"bike_id":"49bea82c-bbec-457c-81e6-7e8aa3d4bf1d","system_id":"levelo_inurba_marseille","lat":43.28616,"lon":5.35105,"is_reserved":false,"is_disabled":false,"rental_uris":{"android":"levelo://app?vid=49bea82c-bbec-457c-81e6-7e8aa3d4bf1d","ios":"levelo://app?vid=49bea82c-bbec-457c-81e6-7e8aa3d4bf1d"},"vehicle_type_id":"4","last_reported":1738858205,"current_range_meters":11600,"station_id":"ce4bhch2rcd13ifvqeug","pricing_plan_id":"cebpf4jnsgd1na2vs0mg"},{"bike_id":"fb556a3c-6c94-4b6c-bee1-d43c3e7702f9","system_id":"levelo_inurba_marseille","lat":43.23147,"lon":5.43721,"is_reserved":false,"is_disabled":false,"rental_uris":{"android":"levelo://app?vid=fb556a3c-6c94-4b6c-bee1-d43c3e7702f9","ios":"levelo://app?vid=fb556a3c-6c94-4b6c-bee1-d43c3e7702f9"},"vehicle_type_id":"4","last_reported":1738858205,"current_range_meters":16800,"station_id":"ce4bhmp2rcd13ifvqgog","pricing_plan_id":"cebpf4jnsgd1na2vs0mg"},{"bike_id":"89ef4b0e-9935-40a8-b11a-d7c8da41f1e5","system_id":"levelo_inurba_marseille","lat":43.2873,"lon":5.36088,"is_reserved":false,"is_disabled":false,"rental_uris":{"android":"levelo://app?vid=89ef4b0e-9935-40a8-b11a-d7c8da41f1e5","ios":"levelo://app?vid=89ef4b0e-9935-40a8-b11a-d7c8da41f1e5"},"vehicle_type_id":"4","last_reported":1738858205,"current_range_meters":39200,"station_id":"cki0cbj6b192h4jlfktg","pricing_plan_id":"cebpf4jnsgd1na2vs0mg"},{"bike_id":"3b440f9f-c371-495c-9aec-3dca50e828a8","system_id":"levelo_inurba_marseille","lat":43.30297,"lon":5.3687,"is_reserved":false,"is_disabled":false,"rental_uris":{"android":"levelo://app?vid=3b440f9f-c371-495c-9aec-3dca50e828a8","ios":"levelo://app?vid=3b440f9f-c371-495c-9aec-3dca50e828a8"},"vehicle_type_id":"4","last_reported":1738858205,"current_range_meters":33600,"station_id":"ce4bgqh2rcd13ifvqc5g","pricing_plan_id":"cebpf4jnsgd1na2vs0mg"},{"bike_id":"519995c3-19b1-4cd7-a7b9-0de635868892","system_id":"levelo_inurba_marseille","lat":43.30531,"lon":5.36539,"is_reserved":false,"is_disabled":false,"rental_uris":{"android":"levelo://app?vid=519995c3-19b1-4cd7-a7b9-0de635868892","ios":"levelo://app?vid=519995c3-19b1-4cd7-a7b9-0de635868892"},"vehicle_type_id":"4","last_reported":1738858205,"current_range_meters":10800,"station_id":"ce4bgs12rcd13ifvqcag","pricing_plan_id":"cebpf4jnsgd1na2vs0mg"},{"bike_id":"39d26c9a-3efb-45bd-8a84-38617314252e","system_id":"levelo_inurba_marseille","lat":43.2512,"lon":5.40322,"is_reserved":false,"is_disabled":false,"rental_uris":{"android":"levelo://app?vid=39d26c9a-3efb-45bd-8a84-38617314252e","ios":"levelo://app?vid=39d26c9a-3efb-45bd-8a84-38617314252e"},"vehicle_type_id":"4","last_reported":1738858205,"current_range_meters":38400,"station_id":"ce4bhlh2rcd13ifvqgig","pricing_plan_id":"cebpf4jnsgd1na2vs0mg"},{"bike_id":"7ace1a1c-a215-42d8-aeda-4e716450b79a","system_id":"levelo_inurba_marseille","lat":43.25584,"lon":5.38232,"is_reserved":false,"is_disabled":false,"rental_uris":{"android":"levelo://app?vid=7ace1a1c-a215-42d8-aeda-4e716450b79a","ios":"levelo://app?vid=7ace1a1c-a215-42d8-aeda-4e716450b79a"},"vehicle_type_id":"4","last_reported":1738858205,"current_range_meters":22000,"station_id":"ce4bhih2rcd13ifvqfs0","pricing_plan_id":"cebpf4jnsgd1na2vs0mg"},{"bike_id":"30c11024-b96a-4c0a-8a3e-8b171049fe3d","system_id":"levelo_inurba_marseille","lat":43.27174,"lon":5.40997,"is_reserved":false,"is_disabled":true,"rental_uris":{"android":"levelo://app?vid=30c11024-b96a-4c0a-8a3e-8b171049fe3d","ios":"levelo://app?vid=30c11024-b96a-4c0a-8a3e-8b171049fe3d"},"vehicle_type_id":"4","last_reported":1738858205,"current_range_meters":0,"station_id":"ce4bhl12rcd13ifvqgf0","pricing_plan_id":"cebpf4jnsgd1na2vs0mg"},{"bike_id":"551da7d4-b8af-48ec-96b8-e95829a204e3","system_id":"levelo_inurba_marseille","lat":43.29717,"lon":5.37305,"is_reserved":false,"is_disabled":false,"rental_uris":{"android":"levelo://app?vid=551da7d4-b8af-48ec-96b8-e95829a204e3","ios":"levelo://app?vid=551da7d4-b8af-48ec-96b8-e95829a204e3"},"vehicle_type_id":"4","last_reported":1738858205,"current_range_meters":32000,"station_id":"ce4bgk12rcd13ifvqbj0","pricing_plan_id":"cebpf4jnsgd1na2vs0mg"},{"bike_id":"18d20254-e117-40cd-a81a-17b2ce45a29b","system_id":"levelo_inurba_marseille","lat":43.29854,"lon":5.36299,"is_reserved":false,"is_disabled":false,"rental_uris":{"android":"levelo://app?vid=18d20254-e117-40cd-a81a-17b2ce45a29b","ios":"levelo://app?vid=18d20254-e117-40cd-a81a-17b2ce45a29b"},"vehicle_type_id":"4","last_reported":1738858205,"current_range_meters":29600,"station_id":"ce4bgpp2rcd13ifvqc3g","pricing_plan_id":"cebpf4jnsgd1na2vs0mg"},{"bike_id":"7261bf49-976b-46a3-9419-0b8948003cde","system_id":"levelo_inurba_marseille","lat":43.25586,"lon":5.38236,"is_reserved":false,"is_disabled":false,"rental_uris":{"android":"levelo://app?vid=7261bf49-976b-46a3-9419-0b8948003cde","ios":"levelo://app?vid=7261bf49-976b-46a3-9419-0b8948003cde"},"vehicle_type_id":"4","last_reported":1738858205,"current_range_meters":13600,"station_id":"ce4bhih2rcd13ifvqfs0","pricing_plan_id":"cebpf4jnsgd1na2vs0mg"},{"bike_id":"72dd2df4-7477-40cb-a0d3-25540c248c3f","system_id":"levelo_inurba_marseille","lat":43.26205,"lon":5.37445,"is_reserved":false,"is_disabled":false,"rental_uris":{"android":"levelo://app?vid=72dd2df4-7477-40cb-a0d3-25540c248c3f","ios":"levelo://app?vid=72dd2df4-7477-40cb-a0d3-25540c248c3f"},"vehicle_type_id":"4","last_reported":1738858205,"current_range_meters":32000,"station_id":"ce4bhgp2rcd13ifvqfc0","pricing_plan_id":"cebpf4jnsgd1na2vs0mg"},{"bike_id":"681f0398-5278-4355-9a4d-6effc6d85f62","system_id":"levelo_inurba_marseille","lat":43.29278,"lon":5.3685,"is_reserved":false,"is_disabled":false,"rental_uris":{"android":"levelo://app?vid=681f0398-5278-4355-9a4d-6effc6d85f62","ios":"levelo://app?vid=681f0398-5278-4355-9a4d-6effc6d85f62"},"vehicle_type_id":"4","last_reported":1738858205,"current_range_meters":8000,"station_id":"ce4bhbp2rcd13ifvqesg","pricing_plan_id":"cebpf4jnsgd1na2vs0mg"},{"bike_id":"ccc0d99a-4f06-4847-88ea-bfbf26a9a708","system_id":"levelo_inurba_marseille","lat":43.27359,"lon":5.36244,"is_reserved":false,"is_disabled":false,"rental_uris":{"android":"levelo://app?vid=ccc0d99a-4f06-4847-88ea-bfbf26a9a708","ios":"levelo://app?vid=ccc0d99a-4f06-4847-88ea-bfbf26a9a708"},"vehicle_type_id":"4","last_reported":1738858205,"current_range_meters":38800,"station_id":"ce4bhbh2rcd13ifvqeo0","pricing_plan_id":"cebpf4jnsgd1na2vs0mg"},{"bike_id":"d90800d2-0b28-4666-b04d-68e5f6c3e9ab","system_id":"levelo_inurba_marseille","lat":43.23192,"lon":5.39987,"is_reserved":false,"is_disabled":false,"rental_uris":{"android":"levelo://app?vid=d90800d2-0b28-4666-b04d-68e5f6c3e9ab","ios":"levelo://app?vid=d90800d2-0b28-4666-b04d-68e5f6c3e9ab"},"vehicle_type_id":"4","last_reported":1738858205,"current_range_meters":38800,"station_id":"ce4bhn12rcd13ifvqgqg","pricing_plan_id":"cebpf4jnsgd1na2vs0mg"},{"bike_id":"bf4e2eaf-780c-4039-986a-ec339e802cbb","system_id":"levelo_inurba_marseille","lat":43.31779,"lon":5.38998,"is_reserved":false,"is_disabled":false,"rental_uris":{"android":"levelo://app?vid=bf4e2eaf-780c-4039-986a-ec339e802cbb","ios":"levelo://app?vid=bf4e2eaf-780c-4039-986a-ec339e802cbb"},"vehicle_type_id":"4","last_reported":1738858205,"current_range_meters":39200,"station_id":"ce4bhqp2rcd13ifvqhng","pricing_plan_id":"cebpf4jnsgd1na2vs0mg"},{"bike_id":"f1838652-77bb-4cd2-9338-f1a2ea3fed80","system_id":"levelo_inurba_marseille","lat":43.29205,"lon":5.39319,"is_reserved":false,"is_disabled":false,"rental_uris":{"android":"levelo://app?vid=f1838652-77bb-4cd2-9338-f1a2ea3fed80","ios":"levelo://app?vid=f1838652-77bb-4cd2-9338-f1a2ea3fed80"},"vehicle_type_id":"4","last_reported":1738858205,"current_range_meters":36400,"station_id":"ce4bh192rcd13ifvqdd0","pricing_plan_id":"cebpf4jnsgd1na2vs0mg"},{"bike_id":"55c531ba-cb99-413a-81f9-84f3b3d5979e","system_id":"levelo_inurba_marseille","lat":43.22925,"lon":5.35379,"is_reserved":false,"is_disabled":false,"rental_uris":{"android":"levelo://app?vid=55c531ba-cb99-413a-81f9-84f3b3d5979e","ios":"levelo://app?vid=55c531ba-cb99-413a-81f9-84f3b3d5979e"},"vehicle_type_id":"4","last_reported":1738858205,"current_range_meters":24800,"station_id":"cpo3532slgdg3j2ikp40","pricing_plan_id":"cebpf4jnsgd1na2vs0mg"},{"bike_id":"2d82d37f-cef3-4bf9-a768-10b5ce35b3fc","system_id":"levelo_inurba_marseille","lat":43.30379,"lon":5.41863,"is_reserved":false,"is_disabled":false,"rental_uris":{"android":"levelo://app?vid=2d82d37f-cef3-4bf9-a768-10b5ce35b3fc","ios":"levelo://app?vid=2d82d37f-cef3-4bf9-a768-10b5ce35b3fc"},"vehicle_type_id":"4","last_reported":1738858205,"current_range_meters":38800,"station_id":"ce4bhop2rcd13ifvqh7g","pricing_plan_id":"cebpf4jnsgd1na2vs0mg"},{"bike_id":"5354080c-156c-4650-b9ef-8f142763101f","system_id":"levelo_inurba_marseille","lat":43.32099,"lon":5.36776,"is_reserved":false,"is_disabled":false,"rental_uris":{"android":"levelo://app?vid=5354080c-156c-4650-b9ef-8f142763101f","ios":"levelo://app?vid=5354080c-156c-4650-b9ef-8f142763101f"},"vehicle_type_id":"4","last_reported":1738858205,"current_range_meters":37600,"station_id":"ce4bhrh2rcd13ifvqhug","pricing_plan_id":"cebpf4jnsgd1na2vs0mg"},{"bike_id":"25584dfc-d5ff-4811-85c5-933f3dfbdae8","system_id":"levelo_inurba_marseille","lat":43.23961,"lon":5.36627,"is_reserved":false,"is_disabled":false,"rental_uris":{"android":"levelo://app?vid=25584dfc-d5ff-4811-85c5-933f3dfbdae8","ios":"levelo://app?vid=25584dfc-d5ff-4811-85c5-933f3dfbdae8"},"vehicle_type_id":"4","last_reported":1738858205,"current_range_meters":37600,"station_id":"ce4bhi12rcd13ifvqfp0","pricing_plan_id":"cebpf4jnsgd1na2vs0mg"},{"bike_id":"3b6fc1a1-1e64-4698-a113-588a2563418f","system_id":"levelo_inurba_marseille","lat":43.28034,"lon":5.36936,"is_reserved":false,"is_disabled":true,"rental_uris":{"android":"levelo://app?vid=3b6fc1a1-1e64-4698-a113-588a2563418f","ios":"levelo://app?vid=3b6fc1a1-1e64-4698-a113-588a2563418f"},"vehicle_type_id":"4","last_reported":1738858205,"current_range_meters":0,"station_id":"ce4bha12rcd13ifvqef0","pricing_plan_id":"cebpf4jnsgd1na2vs0mg"},{"bike_id":"cab5c314-7cee-4155-983f-1efe90e3bed7","system_id":"levelo_inurba_marseille","lat":43.27562,"lon":5.38421,"is_reserved":false,"is_disabled":false,"rental_uris":{"android":"levelo://app?vid=cab5c314-7cee-4155-983f-1efe90e3bed7","ios":"levelo://app?vid=cab5c314-7cee-4155-983f-1efe90e3bed7"},"vehicle_type_id":"4","last_reported":1738858205,"current_range_meters":38800,"station_id":"ce4bhh92rcd13ifvqfi0","pricing_plan_id":"cebpf4jnsgd1na2vs0mg"},{"bike_id":"7abe1a61-87b0-4131-94db-b94f677927a9","system_id":"levelo_inurba_marseille","lat":43.27419,"lon":5.39419,"is_reserved":false,"is_disabled":false,"rental_uris":{"android":"levelo://app?vid=7abe1a61-87b0-4131-94db-b94f677927a9","ios":"levelo://app?vid=7abe1a61-87b0-4131-94db-b94f677927a9"},"vehicle_type_id":"4","last_reported":1738858205,"current_range_meters":33600,"station_id":"ce4bhdp2rcd13ifvqf20","pricing_plan_id":"cebpf4jnsgd1na2vs0mg"},{"bike_id":"b3cefb82-0dc0-4c70-aa37-c863be7a600e","system_id":"levelo_inurba_marseille","lat":43.27996,"lon":5.40011,"is_reserved":false,"is_disabled":false,"rental_uris":{"android":"levelo://app?vid=b3cefb82-0dc0-4c70-aa37-c863be7a600e","ios":"levelo://app?vid=b3cefb82-0dc0-4c70-aa37-c863be7a600e"},"vehicle_type_id":"4","last_reported":1738858205,"current_range_meters":39200,"station_id":"ce4bho92rcd13ifvqh4g","pricing_plan_id":"cebpf4jnsgd1na2vs0mg"},{"bike_id":"c130fff7-2faf-4f2e-82f9-62c219cfeda5","system_id":"levelo_inurba_marseille","lat":43.28154,"lon":5.42639,"is_reserved":false,"is_disabled":false,"rental_uris":{"android":"levelo://app?vid=c130fff7-2faf-4f2e-82f9-62c219cfeda5","ios":"levelo://app?vid=c130fff7-2faf-4f2e-82f9-62c219cfeda5"},"vehicle_type_id":"4","last_reported":1738858205,"current_range_meters":28000,"station_id":"ce4bhnh2rcd13ifvqgug","pricing_plan_id":"cebpf4jnsgd1na2vs0mg"},{"bike_id":"317d72d2-2e51-46f0-8731-17b6093664ea","system_id":"levelo_inurba_marseille","lat":43.24173,"lon":5.3972,"is_reserved":false,"is_disabled":false,"rental_uris":{"android":"levelo://app?vid=317d72d2-2e51-46f0-8731-17b6093664ea","ios":"levelo://app?vid=317d72d2-2e51-46f0-8731-17b6093664ea"},"vehicle_type_id":"4","last_reported":1738858205,"current_range_meters":38000,"station_id":"ce4bhn12rcd13ifvqgpg","pricing_plan_id":"cebpf4jnsgd1na2vs0mg"},{"bike_id":"d314b7a3-40b1-4381-8d4f-11ceea6ddfbb","system_id":"levelo_inurba_marseille","lat":43.30938,"lon":5.40142,"is_reserved":false,"is_disabled":false,"rental_uris":{"android":"levelo://app?vid=d314b7a3-40b1-4381-8d4f-11ceea6ddfbb","ios":"levelo://app?vid=d314b7a3-40b1-4381-8d4f-11ceea6ddfbb"},"vehicle_type_id":"4","last_reported":1738858205,"current_range_meters":26000,"station_id":"ce4bgvp2rcd13ifvqct0","pricing_plan_id":"cebpf4jnsgd1na2vs0mg"},{"bike_id":"5eb997aa-ba06-470a-b7fd-cd40e9642b35","system_id":"levelo_inurba_marseille","lat":43.23189,"lon":5.39993,"is_reserved":false,"is_disabled":false,"rental_uris":{"android":"levelo://app?vid=5eb997aa-ba06-470a-b7fd-cd40e9642b35","ios":"levelo://app?vid=5eb997aa-ba06-470a-b7fd-cd40e9642b35"},"vehicle_type_id":"4","last_reported":1738858205,"current_range_meters":38800,"station_id":"ce4bhn12rcd13ifvqgqg","pricing_plan_id":"cebpf4jnsgd1na2vs0mg"},{"bike_id":"1da8b17b-ad28-4780-a711-431647c244ed","system_id":"levelo_inurba_marseille","lat":43.23961,"lon":5.36633,"is_reserved":false,"is_disabled":false,"rental_uris":{"android":"levelo://app?vid=1da8b17b-ad28-4780-a711-431647c244ed","ios":"levelo://app?vid=1da8b17b-ad28-4780-a711-431647c244ed"},"vehicle_type_id":"4","last_reported":1738858205,"current_range_meters":31200,"station_id":"ce4bhi12rcd13ifvqfp0","pricing_plan_id":"cebpf4jnsgd1na2vs0mg"},{"bike_id":"c1acb419-6d79-49bc-a78f-2b28afca0e96","system_id":"levelo_inurba_marseille","lat":43.29006,"lon":5.35606,"is_reserved":false,"is_disabled":false,"rental_uris":{"android":"levelo://app?vid=c1acb419-6d79-49bc-a78f-2b28afca0e96","ios":"levelo://app?vid=c1acb419-6d79-49bc-a78f-2b28afca0e96"},"vehicle_type_id":"4","last_reported":1738858205,"current_range_meters":25200,"station_id":"ce4bhb92rcd13ifvqen0","pricing_plan_id":"cebpf4jnsgd1na2vs0mg"},{"bike_id":"ec2c2252-1018-4e9b-97e8-a13ee67c1293","system_id":"levelo_inurba_marseille","lat":43.3033,"lon":5.40432,"is_reserved":false,"is_disabled":false,"rental_uris":{"android":"levelo://app?vid=ec2c2252-1018-4e9b-97e8-a13ee67c1293","ios":"levelo://app?vid=ec2c2252-1018-4e9b-97e8-a13ee67c1293"},"vehicle_type_id":"4","last_reported":1738858205,"current_range_meters":2800,"station_id":"ce4bh012rcd13ifvqd10","pricing_plan_id":"cebpf4jnsgd1na2vs0mg"},{"bike_id":"1c187044-f156-4dbb-83f4-3d328cf05e97","system_id":"levelo_inurba_marseille","lat":43.29708,"lon":5.37289,"is_reserved":false,"is_disabled":false,"rental_uris":{"android":"levelo://app?vid=1c187044-f156-4dbb-83f4-3d328cf05e97","ios":"levelo://app?vid=1c187044-f156-4dbb-83f4-3d328cf05e97"},"vehicle_type_id":"4","last_reported":1738858205,"current_range_meters":39200,"station_id":"ce4bgk12rcd13ifvqbj0","pricing_plan_id":"cebpf4jnsgd1na2vs0mg"},{"bike_id":"05e3e712-a180-4890-b6e3-1fa8dcce263e","system_id":"levelo_inurba_marseille","lat":43.23179,"lon":5.39993,"is_reserved":false,"is_disabled":false,"rental_uris":{"android":"levelo://app?vid=05e3e712-a180-4890-b6e3-1fa8dcce263e","ios":"levelo://app?vid=05e3e712-a180-4890-b6e3-1fa8dcce263e"},"vehicle_type_id":"4","last_reported":1738858205,"current_range_meters":16000,"station_id":"ce4bhn12rcd13ifvqgqg","pricing_plan_id":"cebpf4jnsgd1na2vs0mg"},{"bike_id":"be81c371-6f2b-405a-ac77-7a4aa90d032a","system_id":"levelo_inurba_marseille","lat":43.28405,"lon":5.34983,"is_reserved":false,"is_disabled":false,"rental_uris":{"android":"levelo://app?vid=be81c371-6f2b-405a-ac77-7a4aa90d032a","ios":"levelo://app?vid=be81c371-6f2b-405a-ac77-7a4aa90d032a"},"vehicle_type_id":"4","last_reported":1738858205,"current_range_meters":38400,"station_id":"ce4bhbh2rcd13ifvqepg","pricing_plan_id":"cebpf4jnsgd1na2vs0mg"},{"bike_id":"39c1e9e3-f1bf-4a83-bd06-62f23997ed13","system_id":"levelo_inurba_marseille","lat":43.25006,"lon":5.38939,"is_reserved":false,"is_disabled":false,"rental_uris":{"android":"levelo://app?vid=39c1e9e3-f1bf-4a83-bd06-62f23997ed13","ios":"levelo://app?vid=39c1e9e3-f1bf-4a83-bd06-62f23997ed13"},"vehicle_type_id":"4","last_reported":1738858205,"current_range_meters":17600,"station_id":"ce4bhgp2rcd13ifvqfd0","pricing_plan_id":"cebpf4jnsgd1na2vs0mg"},{"bike_id":"1a39c200-67b8-4c60-9e03-ceb72328893d","system_id":"levelo_inurba_marseille","lat":43.2791,"lon":5.38016,"is_reserved":false,"is_disabled":false,"rental_uris":{"android":"levelo://app?vid=1a39c200-67b8-4c60-9e03-ceb72328893d","ios":"levelo://app?vid=1a39c200-67b8-4c60-9e03-ceb72328893d"},"vehicle_type_id":"4","last_reported":1738858205,"current_range_meters":20000,"station_id":"ce4bhf92rcd13ifvqf50","pricing_plan_id":"cebpf4jnsgd1na2vs0mg"},{"bike_id":"02475cfb-0ab5-4dbe-a950-abba74b1c272","system_id":"levelo_inurba_marseille","lat":43.24799,"lon":5.37455,"is_reserved":false,"is_disabled":false,"rental_uris":{"android":"levelo://app?vid=02475cfb-0ab5-4dbe-a950-abba74b1c272","ios":"levelo://app?vid=02475cfb-0ab5-4dbe-a950-abba74b1c272"},"vehicle_type_id":"4","last_reported":1738858205,"current_range_meters":38800,"station_id":"ce4bhgh2rcd13ifvqfb0","pricing_plan_id":"cebpf4jnsgd1na2vs0mg"},{"bike_id":"0243d4c3-2a64-4fe4-9b8e-f3ba6d5dd101","system_id":"levelo_inurba_marseille","lat":43.33026,"lon":5.39032,"is_reserved":false,"is_disabled":false,"rental_uris":{"android":"levelo://app?vid=0243d4c3-2a64-4fe4-9b8e-f3ba6d5dd101","ios":"levelo://app?vid=0243d4c3-2a64-4fe4-9b8e-f3ba6d5dd101"},"vehicle_type_id":"4","last_reported":1738858205,"current_range_meters":38800,"station_id":"ce4bhr92rcd13ifvqhrg","pricing_plan_id":"cebpf4jnsgd1na2vs0mg"},{"bike_id":"09982f54-da2a-4bdc-8caa-fc3d44cd6081","system_id":"levelo_inurba_marseille","lat":43.32695,"lon":5.39007,"is_reserved":false,"is_disabled":false,"rental_uris":{"android":"levelo://app?vid=09982f54-da2a-4bdc-8caa-fc3d44cd6081","ios":"levelo://app?vid=09982f54-da2a-4bdc-8caa-fc3d44cd6081"},"vehicle_type_id":"4","last_reported":1738858205,"current_range_meters":35200,"station_id":"","pricing_plan_id":"cebpf4jnsgd1na2vs0mg"},{"bike_id":"cbeb1f3d-ef6f-458f-a5b1-c0855ea3f818","system_id":"levelo_inurba_marseille","lat":43.32548,"lon":5.41435,"is_reserved":false,"is_disabled":false,"rental_uris":{"android":"levelo://app?vid=cbeb1f3d-ef6f-458f-a5b1-c0855ea3f818","ios":"levelo://app?vid=cbeb1f3d-ef6f-458f-a5b1-c0855ea3f818"},"vehicle_type_id":"4","last_reported":1738858205,"current_range_meters":38400,"station_id":"ce4bhq12rcd13ifvqhhg","pricing_plan_id":"cebpf4jnsgd1na2vs0mg"},{"bike_id":"38c47b95-ad7d-4d74-ab3c-fbd6a0ae4207","system_id":"levelo_inurba_marseille","lat":43.28412,"lon":5.3753,"is_reserved":false,"is_disabled":false,"rental_uris":{"android":"levelo://app?vid=38c47b95-ad7d-4d74-ab3c-fbd6a0ae4207","ios":"levelo://app?vid=38c47b95-ad7d-4d74-ab3c-fbd6a0ae4207"},"vehicle_type_id":"4","last_reported":1738858205,"current_range_meters":38800,"station_id":"ce4bh412rcd13ifvqds0","pricing_plan_id":"cebpf4jnsgd1na2vs0mg"},{"bike_id":"a9540ad5-3d7c-4a90-9cfc-b4e05b313910","system_id":"levelo_inurba_marseille","lat":43.31074,"lon":5.38343,"is_reserved":false,"is_disabled":false,"rental_uris":{"android":"levelo://app?vid=a9540ad5-3d7c-4a90-9cfc-b4e05b313910","ios":"levelo://app?vid=a9540ad5-3d7c-4a90-9cfc-b4e05b313910"},"vehicle_type_id":"4","last_reported":1738858205,"current_range_meters":36800,"station_id":"ce4bgv92rcd13ifvqcr0","pricing_plan_id":"cebpf4jnsgd1na2vs0mg"},{"bike_id":"7f97dcbd-eb40-473f-a7f4-d224182d9f99","system_id":"levelo_inurba_marseille","lat":43.29709,"lon":5.36612,"is_reserved":false,"is_disabled":false,"rental_uris":{"android":"levelo://app?vid=7f97dcbd-eb40-473f-a7f4-d224182d9f99","ios":"levelo://app?vid=7f97dcbd-eb40-473f-a7f4-d224182d9f99"},"vehicle_type_id":"4","last_reported":1738858205,"current_range_meters":38000,"station_id":"ce4bgn12rcd13ifvqbt0","pricing_plan_id":"cebpf4jnsgd1na2vs0mg"},{"bike_id":"c67d1aec-dc8e-4ad8-a977-4df7435801a9","system_id":"levelo_inurba_marseille","lat":43.33617,"lon":5.37446,"is_reserved":false,"is_disabled":false,"rental_uris":{"android":"levelo://app?vid=c67d1aec-dc8e-4ad8-a977-4df7435801a9","ios":"levelo://app?vid=c67d1aec-dc8e-4ad8-a977-4df7435801a9"},"vehicle_type_id":"4","last_reported":1738858205,"current_range_meters":33600,"station_id":"","pricing_plan_id":"cebpf4jnsgd1na2vs0mg"},{"bike_id":"6068af08-8983-4255-8380-a1917fd17497","system_id":"levelo_inurba_marseille","lat":43.28408,"lon":5.34989,"is_reserved":false,"is_disabled":false,"rental_uris":{"android":"levelo://app?vid=6068af08-8983-4255-8380-a1917fd17497","ios":"levelo://app?vid=6068af08-8983-4255-8380-a1917fd17497"},"vehicle_type_id":"4","last_reported":1738858205,"current_range_meters":31200,"station_id":"ce4bhbh2rcd13ifvqepg","pricing_plan_id":"cebpf4jnsgd1na2vs0mg"},{"bike_id":"1e64c20b-4c2f-4196-850e-d991a4590467","system_id":"levelo_inurba_marseille","lat":43.24173,"lon":5.39729,"is_reserved":false,"is_disabled":false,"rental_uris":{"android":"levelo://app?vid=1e64c20b-4c2f-4196-850e-d991a4590467","ios":"levelo://app?vid=1e64c20b-4c2f-4196-850e-d991a4590467"},"vehicle_type_id":"4","last_reported":1738858205,"current_range_meters":19200,"station_id":"ce4bhn12rcd13ifvqgpg","pricing_plan_id":"cebpf4jnsgd1na2vs0mg"},{"bike_id":"c73e9aba-ed51-4e64-aa90-a18f98fb3525","system_id":"levelo_inurba_marseille","lat":43.31723,"lon":5.424,"is_reserved":false,"is_disabled":false,"rental_uris":{"android":"levelo://app?vid=c73e9aba-ed51-4e64-aa90-a18f98fb3525","ios":"levelo://app?vid=c73e9aba-ed51-4e64-aa90-a18f98fb3525"},"vehicle_type_id":"4","last_reported":1738858205,"current_range_meters":38000,"station_id":"ce4bhp92rcd13ifvqhbg","pricing_plan_id":"cebpf4jnsgd1na2vs0mg"},{"bike_id":"d3b6aa38-245d-490f-9423-71d024f7e46f","system_id":"levelo_inurba_marseille","lat":43.25105,"lon":5.40325,"is_reserved":false,"is_disabled":false,"rental_uris":{"android":"levelo://app?vid=d3b6aa38-245d-490f-9423-71d024f7e46f","ios":"levelo://app?vid=d3b6aa38-245d-490f-9423-71d024f7e46f"},"vehicle_type_id":"4","last_reported":1738858205,"current_range_meters":20800,"station_id":"ce4bhlh2rcd13ifvqgig","pricing_plan_id":"cebpf4jnsgd1na2vs0mg"},{"bike_id":"d24de62b-f43d-4ee9-8636-eae3f9e1d596","system_id":"levelo_inurba_marseille","lat":43.27179,"lon":5.40998,"is_reserved":false,"is_disabled":false,"rental_uris":{"android":"levelo://app?vid=d24de62b-f43d-4ee9-8636-eae3f9e1d596","ios":"levelo://app?vid=d24de62b-f43d-4ee9-8636-eae3f9e1d596"},"vehicle_type_id":"4","last_reported":1738858205,"current_range_meters":36400,"station_id":"ce4bhl12rcd13ifvqgf0","pricing_plan_id":"cebpf4jnsgd1na2vs0mg"},{"bike_id":"5bb34246-7df1-4035-9dc2-a0a5a607a1fa","system_id":"levelo_inurba_marseille","lat":43.31761,"lon":5.38996,"is_reserved":false,"is_disabled":false,"rental_uris":{"android":"levelo://app?vid=5bb34246-7df1-4035-9dc2-a0a5a607a1fa","ios":"levelo://app?vid=5bb34246-7df1-4035-9dc2-a0a5a607a1fa"},"vehicle_type_id":"4","last_reported":1738858205,"current_range_meters":39200,"station_id":"ce4bhqp2rcd13ifvqhng","pricing_plan_id":"cebpf4jnsgd1na2vs0mg"},{"bike_id":"c61a31ca-a4e4-4367-bf3a-26699e452208","system_id":"levelo_inurba_marseille","lat":43.30536,"lon":5.36715,"is_reserved":false,"is_disabled":false,"rental_uris":{"android":"levelo://app?vid=c61a31ca-a4e4-4367-bf3a-26699e452208","ios":"levelo://app?vid=c61a31ca-a4e4-4367-bf3a-26699e452208"},"vehicle_type_id":"4","last_reported":1738858205,"current_range_meters":37600,"station_id":"ce4bgrp2rcd13ifvqc9g","pricing_plan_id":"cebpf4jnsgd1na2vs0mg"},{"bike_id":"e4b4456d-65ec-442c-82f3-3ca443f28438","system_id":"levelo_inurba_marseille","lat":43.3015,"lon":5.37415,"is_reserved":false,"is_disabled":false,"rental_uris":{"android":"levelo://app?vid=e4b4456d-65ec-442c-82f3-3ca443f28438","ios":"levelo://app?vid=e4b4456d-65ec-442c-82f3-3ca443f28438"},"vehicle_type_id":"4","last_reported":1738858205,"current_range_meters":38800,"station_id":"ce4bgs92rcd13ifvqcc0","pricing_plan_id":"cebpf4jnsgd1na2vs0mg"},{"bike_id":"91b75b53-4179-4453-ae92-abec31b8fd37","system_id":"levelo_inurba_marseille","lat":43.31756,"lon":5.39025,"is_reserved":false,"is_disabled":false,"rental_uris":{"android":"levelo://app?vid=91b75b53-4179-4453-ae92-abec31b8fd37","ios":"levelo://app?vid=91b75b53-4179-4453-ae92-abec31b8fd37"},"vehicle_type_id":"4","last_reported":1738858205,"current_range_meters":35600,"station_id":"ce4bhqp2rcd13ifvqhng","pricing_plan_id":"cebpf4jnsgd1na2vs0mg"},{"bike_id":"33aa4f66-c44e-435c-99d5-1fa32069242d","system_id":"levelo_inurba_marseille","lat":43.26032,"lon":5.37553,"is_reserved":false,"is_disabled":false,"rental_uris":{"android":"levelo://app?vid=33aa4f66-c44e-435c-99d5-1fa32069242d","ios":"levelo://app?vid=33aa4f66-c44e-435c-99d5-1fa32069242d"},"vehicle_type_id":"4","last_reported":1738858205,"current_range_meters":3600,"station_id":"ce4bhgh2rcd13ifvqfa0","pricing_plan_id":"cebpf4jnsgd1na2vs0mg"},{"bike_id":"6c8da517-3f53-4dca-8613-d56443d9822a","system_id":"levelo_inurba_marseille","lat":43.28158,"lon":5.42638,"is_reserved":false,"is_disabled":false,"rental_uris":{"android":"levelo://app?vid=6c8da517-3f53-4dca-8613-d56443d9822a","ios":"levelo://app?vid=6c8da517-3f53-4dca-8613-d56443d9822a"},"vehicle_type_id":"4","last_reported":1738858205,"current_range_meters":23200,"station_id":"ce4bhnh2rcd13ifvqgug","pricing_plan_id":"cebpf4jnsgd1na2vs0mg"},{"bike_id":"afc5a89b-3d60-4347-8635-42003f9393d8","system_id":"levelo_inurba_marseille","lat":43.30215,"lon":5.39461,"is_reserved":false,"is_disabled":false,"rental_uris":{"android":"levelo://app?vid=afc5a89b-3d60-4347-8635-42003f9393d8","ios":"levelo://app?vid=afc5a89b-3d60-4347-8635-42003f9393d8"},"vehicle_type_id":"4","last_reported":1738858205,"current_range_meters":28400,"station_id":"ce4bh0p2rcd13ifvqd70","pricing_plan_id":"cebpf4jnsgd1na2vs0mg"},{"bike_id":"52a7a368-3a5c-400e-b396-dd6a4efd0a80","system_id":"levelo_inurba_marseille","lat":43.303,"lon":5.3921,"is_reserved":false,"is_disabled":false,"rental_uris":{"android":"levelo://app?vid=52a7a368-3a5c-400e-b396-dd6a4efd0a80","ios":"levelo://app?vid=52a7a368-3a5c-400e-b396-dd6a4efd0a80"},"vehicle_type_id":"4","last_reported":1738858205,"current_range_meters":14000,"station_id":"ce4bgkh2rcd13ifvqbk0","pricing_plan_id":"cebpf4jnsgd1na2vs0mg"},{"bike_id":"9d6582f8-c122-4226-9ed0-05b750fc50bf","system_id":"levelo_inurba_marseille","lat":43.26206,"lon":5.37442,"is_reserved":false,"is_disabled":false,"rental_uris":{"android":"levelo://app?vid=9d6582f8-c122-4226-9ed0-05b750fc50bf","ios":"levelo://app?vid=9d6582f8-c122-4226-9ed0-05b750fc50bf"},"vehicle_type_id":"4","last_reported":1738858205,"current_range_meters":33200,"station_id":"ce4bhgp2rcd13ifvqfc0","pricing_plan_id":"cebpf4jnsgd1na2vs0mg"},{"bike_id":"4750f32c-ea10-4260-b7a0-e4079fc3adf7","system_id":"levelo_inurba_marseille","lat":43.27205,"lon":5.39178,"is_reserved":false,"is_disabled":false,"rental_uris":{"android":"levelo://app?vid=4750f32c-ea10-4260-b7a0-e4079fc3adf7","ios":"levelo://app?vid=4750f32c-ea10-4260-b7a0-e4079fc3adf7"},"vehicle_type_id":"4","last_reported":1738858205,"current_range_meters":20400,"station_id":"ce4bhhp2rcd13ifvqfm0","pricing_plan_id":"cebpf4jnsgd1na2vs0mg"},{"bike_id":"a6b4f428-8d14-4dc9-b3bb-8bc731f54abd","system_id":"levelo_inurba_marseille","lat":43.27812,"lon":5.407,"is_reserved":false,"is_disabled":false,"rental_uris":{"android":"levelo://app?vid=a6b4f428-8d14-4dc9-b3bb-8bc731f54abd","ios":"levelo://app?vid=a6b4f428-8d14-4dc9-b3bb-8bc731f54abd"},"vehicle_type_id":"4","last_reported":1738858205,"current_range_meters":38800,"station_id":"ce4bhnh2rcd13ifvqgtg","pricing_plan_id":"cebpf4jnsgd1na2vs0mg"},{"bike_id":"eef57110-ad5d-4a20-90d3-877af4175835","system_id":"levelo_inurba_marseille","lat":43.29458,"lon":5.39744,"is_reserved":false,"is_disabled":false,"rental_uris":{"android":"levelo://app?vid=eef57110-ad5d-4a20-90d3-877af4175835","ios":"levelo://app?vid=eef57110-ad5d-4a20-90d3-877af4175835"},"vehicle_type_id":"4","last_reported":1738858205,"current_range_meters":38800,"station_id":"ce4bh3h2rcd13ifvqdo0","pricing_plan_id":"cebpf4jnsgd1na2vs0mg"},{"bike_id":"504f5ed2-4121-4fce-a743-61572b70b490","system_id":"levelo_inurba_marseille","lat":43.284,"lon":5.37518,"is_reserved":false,"is_disabled":false,"rental_uris":{"android":"levelo://app?vid=504f5ed2-4121-4fce-a743-61572b70b490","ios":"levelo://app?vid=504f5ed2-4121-4fce-a743-61572b70b490"},"vehicle_type_id":"4","last_reported":1738858205,"current_range_meters":11200,"station_id":"ce4bh412rcd13ifvqds0","pricing_plan_id":"cebpf4jnsgd1na2vs0mg"},{"bike_id":"f2fc9926-f7c8-4322-9163-fb8461df3e26","system_id":"levelo_inurba_marseille","lat":43.29709,"lon":5.37697,"is_reserved":false,"is_disabled":false,"rental_uris":{"android":"levelo://app?vid=f2fc9926-f7c8-4322-9163-fb8461df3e26","ios":"levelo://app?vid=f2fc9926-f7c8-4322-9163-fb8461df3e26"},"vehicle_type_id":"4","last_reported":1738858205,"current_range_meters":30000,"station_id":"ce4bgkh2rcd13ifvqbl0","pricing_plan_id":"cebpf4jnsgd1na2vs0mg"},{"bike_id":"b84b1eed-a7a2-41ae-a41a-45c86bb41a79","system_id":"levelo_inurba_marseille","lat":43.32545,"lon":5.41447,"is_reserved":false,"is_disabled":false,"rental_uris":{"android":"levelo://app?vid=b84b1eed-a7a2-41ae-a41a-45c86bb41a79","ios":"levelo://app?vid=b84b1eed-a7a2-41ae-a41a-45c86bb41a79"},"vehicle_type_id":"4","last_reported":1738858205,"current_range_meters":26000,"station_id":"ce4bhq12rcd13ifvqhhg","pricing_plan_id":"cebpf4jnsgd1na2vs0mg"},{"bike_id":"1e6bd623-b9e9-4650-9f6f-8b4d5252096e","system_id":"levelo_inurba_marseille","lat":43.30802,"lon":5.43525,"is_reserved":false,"is_disabled":false,"rental_uris":{"android":"levelo://app?vid=1e6bd623-b9e9-4650-9f6f-8b4d5252096e","ios":"levelo://app?vid=1e6bd623-b9e9-4650-9f6f-8b4d5252096e"},"vehicle_type_id":"4","last_reported":1738858205,"current_range_meters":39200,"station_id":"ce4bhph2rcd13ifvqheg","pricing_plan_id":"cebpf4jnsgd1na2vs0mg"},{"bike_id":"e2f55a13-505c-4b0a-b562-d053d8e549d1","system_id":"levelo_inurba_marseille","lat":43.32536,"lon":5.41442,"is_reserved":false,"is_disabled":false,"rental_uris":{"android":"levelo://app?vid=e2f55a13-505c-4b0a-b562-d053d8e549d1","ios":"levelo://app?vid=e2f55a13-505c-4b0a-b562-d053d8e549d1"},"vehicle_type_id":"4","last_reported":1738858205,"current_range_meters":38800,"station_id":"ce4bhq12rcd13ifvqhhg","pricing_plan_id":"cebpf4jnsgd1na2vs0mg"},{"bike_id":"5f637f24-6e34-4f46-912d-56b4d090c451","system_id":"levelo_inurba_marseille","lat":43.30457,"lon":5.37904,"is_reserved":false,"is_disabled":true,"rental_uris":{"android":"levelo://app?vid=5f637f24-6e34-4f46-912d-56b4d090c451","ios":"levelo://app?vid=5f637f24-6e34-4f46-912d-56b4d090c451"},"vehicle_type_id":"4","last_reported":1738858205,"current_range_meters":12800,"station_id":"ce4bho92rcd13ifvqh3g","pricing_plan_id":"cebpf4jnsgd1na2vs0mg"},{"bike_id":"b461e7a4-d96d-46da-90bc-b23e17086420","system_id":"levelo_inurba_marseille","lat":43.27379,"lon":5.36246,"is_reserved":false,"is_disabled":false,"rental_uris":{"android":"levelo://app?vid=b461e7a4-d96d-46da-90bc-b23e17086420","ios":"levelo://app?vid=b461e7a4-d96d-46da-90bc-b23e17086420"},"vehicle_type_id":"4","last_reported":1738858205,"current_range_meters":8400,"station_id":"ce4bhbh2rcd13ifvqeo0","pricing_plan_id":"cebpf4jnsgd1na2vs0mg"},{"bike_id":"adea3fe0-0d5f-493f-bc7a-8db19cd779cc","system_id":"levelo_inurba_marseille","lat":43.26188,"lon":5.3792,"is_reserved":false,"is_disabled":false,"rental_uris":{"android":"levelo://app?vid=adea3fe0-0d5f-493f-bc7a-8db19cd779cc","ios":"levelo://app?vid=adea3fe0-0d5f-493f-bc7a-8db19cd779cc"},"vehicle_type_id":"4","last_reported":1738858205,"current_range_meters":38800,"station_id":"ce4bhjp2rcd13ifvqg90","pricing_plan_id":"cebpf4jnsgd1na2vs0mg"},{"bike_id":"19f196e4-d216-443a-b6ce-4bcc2ca76f2e","system_id":"levelo_inurba_marseille","lat":43.29838,"lon":5.36281,"is_reserved":false,"is_disabled":false,"rental_uris":{"android":"levelo://app?vid=19f196e4-d216-443a-b6ce-4bcc2ca76f2e","ios":"levelo://app?vid=19f196e4-d216-443a-b6ce-4bcc2ca76f2e"},"vehicle_type_id":"4","last_reported":1738858205,"current_range_meters":33600,"station_id":"ce4bgpp2rcd13ifvqc3g","pricing_plan_id":"cebpf4jnsgd1na2vs0mg"},{"bike_id":"681642bf-9494-4407-bca7-9b3eaecda7bb","system_id":"levelo_inurba_marseille","lat":43.25752,"lon":5.41084,"is_reserved":false,"is_disabled":false,"rental_uris":{"android":"levelo://app?vid=681642bf-9494-4407-bca7-9b3eaecda7bb","ios":"levelo://app?vid=681642bf-9494-4407-bca7-9b3eaecda7bb"},"vehicle_type_id":"4","last_reported":1738858205,"current_range_meters":20400,"station_id":"","pricing_plan_id":"cebpf4jnsgd1na2vs0mg"},{"bike_id":"d23c7b00-facb-4ee8-b980-597eb067bf60","system_id":"levelo_inurba_marseille","lat":43.25744,"lon":5.41084,"is_reserved":false,"is_disabled":false,"rental_uris":{"android":"levelo://app?vid=d23c7b00-facb-4ee8-b980-597eb067bf60","ios":"levelo://app?vid=d23c7b00-facb-4ee8-b980-597eb067bf60"},"vehicle_type_id":"4","last_reported":1738858205,"current_range_meters":38800,"station_id":"ce4bhkp2rcd13ifvqgd0","pricing_plan_id":"cebpf4jnsgd1na2vs0mg"},{"bike_id":"f9cc3301-55f7-490b-8131-a32d55a7eb3e","system_id":"levelo_inurba_marseille","lat":43.3036,"lon":5.41878,"is_reserved":false,"is_disabled":false,"rental_uris":{"android":"levelo://app?vid=f9cc3301-55f7-490b-8131-a32d55a7eb3e","ios":"levelo://app?vid=f9cc3301-55f7-490b-8131-a32d55a7eb3e"},"vehicle_type_id":"4","last_reported":1738858205,"current_range_meters":11200,"station_id":"ce4bhop2rcd13ifvqh7g","pricing_plan_id":"cebpf4jnsgd1na2vs0mg"},{"bike_id":"a805fefd-5776-4c15-9bbd-87cc220ea725","system_id":"levelo_inurba_marseille","lat":43.29358,"lon":5.37837,"is_reserved":false,"is_disabled":false,"rental_uris":{"android":"levelo://app?vid=a805fefd-5776-4c15-9bbd-87cc220ea725","ios":"levelo://app?vid=a805fefd-5776-4c15-9bbd-87cc220ea725"},"vehicle_type_id":"4","last_reported":1738858205,"current_range_meters":35200,"station_id":"ce4bgjh2rcd13ifvqbf0","pricing_plan_id":"cebpf4jnsgd1na2vs0mg"},{"bike_id":"8be3cc54-4003-45a0-8f57-0d7b7693ed6c","system_id":"levelo_inurba_marseille","lat":43.29897,"lon":5.36372,"is_reserved":false,"is_disabled":false,"rental_uris":{"android":"levelo://app?vid=8be3cc54-4003-45a0-8f57-0d7b7693ed6c","ios":"levelo://app?vid=8be3cc54-4003-45a0-8f57-0d7b7693ed6c"},"vehicle_type_id":"4","last_reported":1738858205,"current_range_meters":20400,"station_id":"ce4bgpp2rcd13ifvqc3g","pricing_plan_id":"cebpf4jnsgd1na2vs0mg"},{"bike_id":"cb015bb1-2965-4757-8e20-d158f917c854","system_id":"levelo_inurba_marseille","lat":43.28611,"lon":5.35099,"is_reserved":false,"is_disabled":false,"rental_uris":{"android":"levelo://app?vid=cb015bb1-2965-4757-8e20-d158f917c854","ios":"levelo://app?vid=cb015bb1-2965-4757-8e20-d158f917c854"},"vehicle_type_id":"4","last_reported":1738858205,"current_range_meters":24000,"station_id":"ce4bhch2rcd13ifvqeug","pricing_plan_id":"cebpf4jnsgd1na2vs0mg"},{"bike_id":"59db9156-837c-4bef-bdf0-6cb05d00fb23","system_id":"levelo_inurba_marseille","lat":43.24171,"lon":5.36399,"is_reserved":false,"is_disabled":false,"rental_uris":{"android":"levelo://app?vid=59db9156-837c-4bef-bdf0-6cb05d00fb23","ios":"levelo://app?vid=59db9156-837c-4bef-bdf0-6cb05d00fb23"},"vehicle_type_id":"4","last_reported":1738858205,"current_range_meters":35600,"station_id":"cpo36qri1sfpv3e86is0","pricing_plan_id":"cebpf4jnsgd1na2vs0mg"},{"bike_id":"d7080149-7e59-4a17-b2d0-4462637b5ebd","system_id":"levelo_inurba_marseille","lat":43.24168,"lon":5.39726,"is_reserved":false,"is_disabled":false,"rental_uris":{"android":"levelo://app?vid=d7080149-7e59-4a17-b2d0-4462637b5ebd","ios":"levelo://app?vid=d7080149-7e59-4a17-b2d0-4462637b5ebd"},"vehicle_type_id":"4","last_reported":1738858205,"current_range_meters":36000,"station_id":"ce4bhn12rcd13ifvqgpg","pricing_plan_id":"cebpf4jnsgd1na2vs0mg"},{"bike_id":"19c91191-64ee-4803-94d7-14a4a66340df","system_id":"levelo_inurba_marseille","lat":43.31721,"lon":5.42402,"is_reserved":false,"is_disabled":true,"rental_uris":{"android":"levelo://app?vid=19c91191-64ee-4803-94d7-14a4a66340df","ios":"levelo://app?vid=19c91191-64ee-4803-94d7-14a4a66340df"},"vehicle_type_id":"4","last_reported":1738858205,"current_range_meters":0,"station_id":"ce4bhp92rcd13ifvqhbg","pricing_plan_id":"cebpf4jnsgd1na2vs0mg"},{"bike_id":"0a6a90a0-b9a1-4553-942b-9cc8f0c94f66","system_id":"levelo_inurba_marseille","lat":43.29266,"lon":5.40919,"is_reserved":false,"is_disabled":true,"rental_uris":{"android":"levelo://app?vid=0a6a90a0-b9a1-4553-942b-9cc8f0c94f66","ios":"levelo://app?vid=0a6a90a0-b9a1-4553-942b-9cc8f0c94f66"},"vehicle_type_id":"4","last_reported":1738858205,"current_range_meters":18800,"station_id":"ce4bh192rcd13ifvqdc0","pricing_plan_id":"cebpf4jnsgd1na2vs0mg"},{"bike_id":"fef1bd1d-2ad2-48f6-a1bb-d87aafe8c512","system_id":"levelo_inurba_marseille","lat":43.28946,"lon":5.36403,"is_reserved":false,"is_disabled":true,"rental_uris":{"android":"levelo://app?vid=fef1bd1d-2ad2-48f6-a1bb-d87aafe8c512","ios":"levelo://app?vid=fef1bd1d-2ad2-48f6-a1bb-d87aafe8c512"},"vehicle_type_id":"4","last_reported":1738858205,"current_range_meters":0,"station_id":"ce4bhc92rcd13ifvqetg","pricing_plan_id":"cebpf4jnsgd1na2vs0mg"},{"bike_id":"d4603b7b-9274-4e2c-9ca1-db3da1976d9f","system_id":"levelo_inurba_marseille","lat":43.29995,"lon":5.38482,"is_reserved":false,"is_disabled":false,"rental_uris":{"android":"levelo://app?vid=d4603b7b-9274-4e2c-9ca1-db3da1976d9f","ios":"levelo://app?vid=d4603b7b-9274-4e2c-9ca1-db3da1976d9f"},"vehicle_type_id":"4","last_reported":1738858205,"current_range_meters":9600,"station_id":"ce4bgj92rcd13ifvqbd0","pricing_plan_id":"cebpf4jnsgd1na2vs0mg"},{"bike_id":"1fbe1720-9950-435d-a616-dac56179eae5","system_id":"levelo_inurba_marseille","lat":43.24666,"lon":5.38163,"is_reserved":false,"is_disabled":false,"rental_uris":{"android":"levelo://app?vid=1fbe1720-9950-435d-a616-dac56179eae5","ios":"levelo://app?vid=1fbe1720-9950-435d-a616-dac56179eae5"},"vehicle_type_id":"4","last_reported":1738858205,"current_range_meters":20000,"station_id":"ce4bhih2rcd13ifvqfr0","pricing_plan_id":"cebpf4jnsgd1na2vs0mg"},{"bike_id":"8fb9aae9-540f-4998-9d9a-5aafc80ee879","system_id":"levelo_inurba_marseille","lat":43.29597,"lon":5.36721,"is_reserved":false,"is_disabled":false,"rental_uris":{"android":"levelo://app?vid=8fb9aae9-540f-4998-9d9a-5aafc80ee879","ios":"levelo://app?vid=8fb9aae9-540f-4998-9d9a-5aafc80ee879"},"vehicle_type_id":"4","last_reported":1738858205,"current_range_meters":38000,"station_id":"ce4bgph2rcd13ifvqc2g","pricing_plan_id":"cebpf4jnsgd1na2vs0mg"},{"bike_id":"67f7e0b1-3243-4edf-a352-67de8bb285e8","system_id":"levelo_inurba_marseille","lat":43.27947,"lon":5.38717,"is_reserved":false,"is_disabled":false,"rental_uris":{"android":"levelo://app?vid=67f7e0b1-3243-4edf-a352-67de8bb285e8","ios":"levelo://app?vid=67f7e0b1-3243-4edf-a352-67de8bb285e8"},"vehicle_type_id":"4","last_reported":1738858205,"current_range_meters":39200,"station_id":"ce4bhg12rcd13ifvqf80","pricing_plan_id":"cebpf4jnsgd1na2vs0mg"},{"bike_id":"5d1dacf3-3fa1-40ba-8373-ce163dd2d283","system_id":"levelo_inurba_marseille","lat":43.26193,"lon":5.37928,"is_reserved":false,"is_disabled":false,"rental_uris":{"android":"levelo://app?vid=5d1dacf3-3fa1-40ba-8373-ce163dd2d283","ios":"levelo://app?vid=5d1dacf3-3fa1-40ba-8373-ce163dd2d283"},"vehicle_type_id":"4","last_reported":1738858205,"current_range_meters":38800,"station_id":"ce4bhjp2rcd13ifvqg90","pricing_plan_id":"cebpf4jnsgd1na2vs0mg"},{"bike_id":"22a1aca8-7237-4f72-9ad2-37a4dc8763d5","system_id":"levelo_inurba_marseille","lat":43.31726,"lon":5.42405,"is_reserved":false,"is_disabled":false,"rental_uris":{"android":"levelo://app?vid=22a1aca8-7237-4f72-9ad2-37a4dc8763d5","ios":"levelo://app?vid=22a1aca8-7237-4f72-9ad2-37a4dc8763d5"},"vehicle_type_id":"4","last_reported":1738858205,"current_range_meters":38800,"station_id":"ce4bhp92rcd13ifvqhbg","pricing_plan_id":"cebpf4jnsgd1na2vs0mg"},{"bike_id":"53407726-3ca3-4dc7-b23c-d204f09a40e0","system_id":"levelo_inurba_marseille","lat":43.27182,"lon":5.40996,"is_reserved":false,"is_disabled":false,"rental_uris":{"android":"levelo://app?vid=53407726-3ca3-4dc7-b23c-d204f09a40e0","ios":"levelo://app?vid=53407726-3ca3-4dc7-b23c-d204f09a40e0"},"vehicle_type_id":"4","last_reported":1738858205,"current_range_meters":38800,"station_id":"ce4bhl12rcd13ifvqgf0","pricing_plan_id":"cebpf4jnsgd1na2vs0mg"},{"bike_id":"5194b8c1-f9f1-4a58-8351-17181c1efd2b","system_id":"levelo_inurba_marseille","lat":43.27966,"lon":5.38751,"is_reserved":false,"is_disabled":false,"rental_uris":{"android":"levelo://app?vid=5194b8c1-f9f1-4a58-8351-17181c1efd2b","ios":"levelo://app?vid=5194b8c1-f9f1-4a58-8351-17181c1efd2b"},"vehicle_type_id":"4","last_reported":1738858205,"current_range_meters":9600,"station_id":"ce4bhg12rcd13ifvqf80","pricing_plan_id":"cebpf4jnsgd1na2vs0mg"},{"bike_id":"8f775b03-0f36-4f58-a516-b1e5f1a07e8e","system_id":"levelo_inurba_marseille","lat":43.23185,"lon":5.35557,"is_reserved":false,"is_disabled":false,"rental_uris":{"android":"levelo://app?vid=8f775b03-0f36-4f58-a516-b1e5f1a07e8e","ios":"levelo://app?vid=8f775b03-0f36-4f58-a516-b1e5f1a07e8e"},"vehicle_type_id":"4","last_reported":1738858205,"current_range_meters":23200,"station_id":"ce4bhu92rcd13ifvqi70","pricing_plan_id":"cebpf4jnsgd1na2vs0mg"},{"bike_id":"ce457943-8796-4fc8-b051-ba3a0eda9b81","system_id":"levelo_inurba_marseille","lat":43.23964,"lon":5.36637,"is_reserved":false,"is_disabled":false,"rental_uris":{"android":"levelo://app?vid=ce457943-8796-4fc8-b051-ba3a0eda9b81","ios":"levelo://app?vid=ce457943-8796-4fc8-b051-ba3a0eda9b81"},"vehicle_type_id":"4","last_reported":1738858205,"current_range_meters":18000,"station_id":"ce4bhi12rcd13ifvqfp0","pricing_plan_id":"cebpf4jnsgd1na2vs0mg"},{"bike_id":"a4318989-c62f-4e19-8928-1599525afab8","system_id":"levelo_inurba_marseille","lat":43.24667,"lon":5.38163,"is_reserved":false,"is_disabled":false,"rental_uris":{"android":"levelo://app?vid=a4318989-c62f-4e19-8928-1599525afab8","ios":"levelo://app?vid=a4318989-c62f-4e19-8928-1599525afab8"},"vehicle_type_id":"4","last_reported":1738858205,"current_range_meters":10800,"station_id":"ce4bhih2rcd13ifvqfr0","pricing_plan_id":"cebpf4jnsgd1na2vs0mg"},{"bike_id":"d9d46ce6-4774-42c1-9654-aadcbb4cdfbf","system_id":"levelo_inurba_marseille","lat":43.26548,"lon":5.3729,"is_reserved":false,"is_disabled":true,"rental_uris":{"android":"levelo://app?vid=d9d46ce6-4774-42c1-9654-aadcbb4cdfbf","ios":"levelo://app?vid=d9d46ce6-4774-42c1-9654-aadcbb4cdfbf"},"vehicle_type_id":"4","last_reported":1738858205,"current_range_meters":0,"station_id":"ce4bhg12rcd13ifvqf70","pricing_plan_id":"cebpf4jnsgd1na2vs0mg"},{"bike_id":"c98dac74-8ef2-440f-bb69-0af2b3220a11","system_id":"levelo_inurba_marseille","lat":43.29872,"lon":5.363,"is_reserved":false,"is_disabled":true,"rental_uris":{"android":"levelo://app?vid=c98dac74-8ef2-440f-bb69-0af2b3220a11","ios":"levelo://app?vid=c98dac74-8ef2-440f-bb69-0af2b3220a11"},"vehicle_type_id":"4","last_reported":1738858205,"current_range_meters":37600,"station_id":"ce4bgpp2rcd13ifvqc3g","pricing_plan_id":"cebpf4jnsgd1na2vs0mg"},{"bike_id":"f10185ed-89b2-4796-a0b4-b52ba86c9b83","system_id":"levelo_inurba_marseille","lat":43.28423,"lon":5.34985,"is_reserved":false,"is_disabled":false,"rental_uris":{"android":"levelo://app?vid=f10185ed-89b2-4796-a0b4-b52ba86c9b83","ios":"levelo://app?vid=f10185ed-89b2-4796-a0b4-b52ba86c9b83"},"vehicle_type_id":"4","last_reported":1738858205,"current_range_meters":28800,"station_id":"ce4bhbh2rcd13ifvqepg","pricing_plan_id":"cebpf4jnsgd1na2vs0mg"},{"bike_id":"2127a6be-4a36-46f6-acef-9d6a5a39543f","system_id":"levelo_inurba_marseille","lat":43.27316,"lon":5.39075,"is_reserved":false,"is_disabled":false,"rental_uris":{"android":"levelo://app?vid=2127a6be-4a36-46f6-acef-9d6a5a39543f","ios":"levelo://app?vid=2127a6be-4a36-46f6-acef-9d6a5a39543f"},"vehicle_type_id":"4","last_reported":1738858205,"current_range_meters":38800,"station_id":"ce4bhgp2rcd13ifvqfe0","pricing_plan_id":"cebpf4jnsgd1na2vs0mg"},{"bike_id":"f0705a66-4217-43ef-a147-c777cd662faf","system_id":"levelo_inurba_marseille","lat":43.28451,"lon":5.35898,"is_reserved":false,"is_disabled":false,"rental_uris":{"android":"levelo://app?vid=f0705a66-4217-43ef-a147-c777cd662faf","ios":"levelo://app?vid=f0705a66-4217-43ef-a147-c777cd662faf"},"vehicle_type_id":"4","last_reported":1738858205,"current_range_meters":27600,"station_id":"ce4bhah2rcd13ifvqei0","pricing_plan_id":"cebpf4jnsgd1na2vs0mg"},{"bike_id":"7385bff2-e41b-4fa7-a9c5-324e50518a48","system_id":"levelo_inurba_marseille","lat":43.27184,"lon":5.40986,"is_reserved":false,"is_disabled":false,"rental_uris":{"android":"levelo://app?vid=7385bff2-e41b-4fa7-a9c5-324e50518a48","ios":"levelo://app?vid=7385bff2-e41b-4fa7-a9c5-324e50518a48"},"vehicle_type_id":"4","last_reported":1738858205,"current_range_meters":38800,"station_id":"ce4bhl12rcd13ifvqgf0","pricing_plan_id":"cebpf4jnsgd1na2vs0mg"},{"bike_id":"6cc3ff1d-e1da-4f9b-a8cd-7da031b375e7","system_id":"levelo_inurba_marseille","lat":43.29034,"lon":5.3864,"is_reserved":false,"is_disabled":false,"rental_uris":{"android":"levelo://app?vid=6cc3ff1d-e1da-4f9b-a8cd-7da031b375e7","ios":"levelo://app?vid=6cc3ff1d-e1da-4f9b-a8cd-7da031b375e7"},"vehicle_type_id":"4","last_reported":1738858205,"current_range_meters":36400,"station_id":"ce4bh4p2rcd13ifvqe0g","pricing_plan_id":"cebpf4jnsgd1na2vs0mg"},{"bike_id":"79eab85b-411d-47b7-ba8c-c70679ea549f","system_id":"levelo_inurba_marseille","lat":43.23191,"lon":5.39979,"is_reserved":false,"is_disabled":false,"rental_uris":{"android":"levelo://app?vid=79eab85b-411d-47b7-ba8c-c70679ea549f","ios":"levelo://app?vid=79eab85b-411d-47b7-ba8c-c70679ea549f"},"vehicle_type_id":"4","last_reported":1738858205,"current_range_meters":19200,"station_id":"ce4bhn12rcd13ifvqgqg","pricing_plan_id":"cebpf4jnsgd1na2vs0mg"},{"bike_id":"590a6991-0f24-48a8-bdda-8dc6a5cd5953","system_id":"levelo_inurba_marseille","lat":43.3064,"lon":5.40091,"is_reserved":false,"is_disabled":false,"rental_uris":{"android":"levelo://app?vid=590a6991-0f24-48a8-bdda-8dc6a5cd5953","ios":"levelo://app?vid=590a6991-0f24-48a8-bdda-8dc6a5cd5953"},"vehicle_type_id":"4","last_reported":1738858205,"current_range_meters":23200,"station_id":"ce4bh112rcd13ifvqda0","pricing_plan_id":"cebpf4jnsgd1na2vs0mg"},{"bike_id":"bc155850-c407-469a-b778-f12e1ee5e59e","system_id":"levelo_inurba_marseille","lat":43.27988,"lon":5.41656,"is_reserved":false,"is_disabled":false,"rental_uris":{"android":"levelo://app?vid=bc155850-c407-469a-b778-f12e1ee5e59e","ios":"levelo://app?vid=bc155850-c407-469a-b778-f12e1ee5e59e"},"vehicle_type_id":"4","last_reported":1738858205,"current_range_meters":34000,"station_id":"ce4bho12rcd13ifvqh1g","pricing_plan_id":"cebpf4jnsgd1na2vs0mg"},{"bike_id":"341067f4-d7ed-4f99-954f-691c64a92e97","system_id":"levelo_inurba_marseille","lat":43.23183,"lon":5.3999,"is_reserved":false,"is_disabled":false,"rental_uris":{"android":"levelo://app?vid=341067f4-d7ed-4f99-954f-691c64a92e97","ios":"levelo://app?vid=341067f4-d7ed-4f99-954f-691c64a92e97"},"vehicle_type_id":"4","last_reported":1738858205,"current_range_meters":17600,"station_id":"ce4bhn12rcd13ifvqgqg","pricing_plan_id":"cebpf4jnsgd1na2vs0mg"},{"bike_id":"881d3c1d-a4bd-4145-89d3-a6198dff5249","system_id":"levelo_inurba_marseille","lat":43.28473,"lon":5.38412,"is_reserved":false,"is_disabled":false,"rental_uris":{"android":"levelo://app?vid=881d3c1d-a4bd-4145-89d3-a6198dff5249","ios":"levelo://app?vid=881d3c1d-a4bd-4145-89d3-a6198dff5249"},"vehicle_type_id":"4","last_reported":1738858205,"current_range_meters":36400,"station_id":"ce4bh512rcd13ifvqe3g","pricing_plan_id":"cebpf4jnsgd1na2vs0mg"},{"bike_id":"e4adf93d-6d82-4e1d-8391-a8ec7be13712","system_id":"levelo_inurba_marseille","lat":43.27374,"lon":5.36255,"is_reserved":false,"is_disabled":false,"rental_uris":{"android":"levelo://app?vid=e4adf93d-6d82-4e1d-8391-a8ec7be13712","ios":"levelo://app?vid=e4adf93d-6d82-4e1d-8391-a8ec7be13712"},"vehicle_type_id":"4","last_reported":1738858205,"current_range_meters":38800,"station_id":"ce4bhbh2rcd13ifvqeo0","pricing_plan_id":"cebpf4jnsgd1na2vs0mg"},{"bike_id":"946eaf92-51c4-4d88-8782-59679a38c905","system_id":"levelo_inurba_marseille","lat":43.2997,"lon":5.37177,"is_reserved":false,"is_disabled":false,"rental_uris":{"android":"levelo://app?vid=946eaf92-51c4-4d88-8782-59679a38c905","ios":"levelo://app?vid=946eaf92-51c4-4d88-8782-59679a38c905"},"vehicle_type_id":"4","last_reported":1738858205,"current_range_meters":39200,"station_id":"ce4bgr92rcd13ifvqc7g","pricing_plan_id":"cebpf4jnsgd1na2vs0mg"},{"bike_id":"3c47b9ec-138f-4ea0-9516-2148ffa11d88","system_id":"levelo_inurba_marseille","lat":43.30893,"lon":5.37191,"is_reserved":false,"is_disabled":false,"rental_uris":{"android":"levelo://app?vid=3c47b9ec-138f-4ea0-9516-2148ffa11d88","ios":"levelo://app?vid=3c47b9ec-138f-4ea0-9516-2148ffa11d88"},"vehicle_type_id":"4","last_reported":1738858205,"current_range_meters":23200,"station_id":"ce4bguh2rcd13ifvqckg","pricing_plan_id":"cebpf4jnsgd1na2vs0mg"},{"bike_id":"761f712b-2943-4f7e-8795-a6ac1db47a14","system_id":"levelo_inurba_marseille","lat":43.29035,"lon":5.37558,"is_reserved":false,"is_disabled":false,"rental_uris":{"android":"levelo://app?vid=761f712b-2943-4f7e-8795-a6ac1db47a14","ios":"levelo://app?vid=761f712b-2943-4f7e-8795-a6ac1db47a14"},"vehicle_type_id":"4","last_reported":1738858205,"current_range_meters":10000,"station_id":"ce4bh692rcd13ifvqe90","pricing_plan_id":"cebpf4jnsgd1na2vs0mg"},{"bike_id":"157ffd01-fddc-43aa-b7a2-d44b47a08bf0","system_id":"levelo_inurba_marseille","lat":43.2959,"lon":5.39973,"is_reserved":false,"is_disabled":false,"rental_uris":{"android":"levelo://app?vid=157ffd01-fddc-43aa-b7a2-d44b47a08bf0","ios":"levelo://app?vid=157ffd01-fddc-43aa-b7a2-d44b47a08bf0"},"vehicle_type_id":"4","last_reported":1738858205,"current_range_meters":30800,"station_id":"ce4bh312rcd13ifvqdj0","pricing_plan_id":"cebpf4jnsgd1na2vs0mg"},{"bike_id":"8882147b-b10a-4a1b-aa0f-b0b1354d72fe","system_id":"levelo_inurba_marseille","lat":43.31356,"lon":5.36694,"is_reserved":false,"is_disabled":false,"rental_uris":{"android":"levelo://app?vid=8882147b-b10a-4a1b-aa0f-b0b1354d72fe","ios":"levelo://app?vid=8882147b-b10a-4a1b-aa0f-b0b1354d72fe"},"vehicle_type_id":"4","last_reported":1738858205,"current_range_meters":14800,"station_id":"ce4bgr92rcd13ifvqc6g","pricing_plan_id":"cebpf4jnsgd1na2vs0mg"},{"bike_id":"94fb97b2-5328-4e7e-8610-ef7db7fc2bbd","system_id":"levelo_inurba_marseille","lat":43.26212,"lon":5.37439,"is_reserved":false,"is_disabled":false,"rental_uris":{"android":"levelo://app?vid=94fb97b2-5328-4e7e-8610-ef7db7fc2bbd","ios":"levelo://app?vid=94fb97b2-5328-4e7e-8610-ef7db7fc2bbd"},"vehicle_type_id":"4","last_reported":1738858205,"current_range_meters":9200,"station_id":"ce4bhgp2rcd13ifvqfc0","pricing_plan_id":"cebpf4jnsgd1na2vs0mg"},{"bike_id":"6ecf131f-7690-4b39-a6f2-249a433e8b09","system_id":"levelo_inurba_marseille","lat":43.267859,"lon":5.394168,"is_reserved":false,"is_disabled":false,"rental_uris":{"android":"levelo://app?vid=6ecf131f-7690-4b39-a6f2-249a433e8b09","ios":"levelo://app?vid=6ecf131f-7690-4b39-a6f2-249a433e8b09"},"vehicle_type_id":"4","last_reported":1738858205,"current_range_meters":30400,"station_id":"ce4bhh12rcd13ifvqfg0","pricing_plan_id":"cebpf4jnsgd1na2vs0mg"},{"bike_id":"256092bc-078b-4030-8c03-5319e474c3b7","system_id":"levelo_inurba_marseille","lat":43.2845,"lon":5.35887,"is_reserved":false,"is_disabled":false,"rental_uris":{"android":"levelo://app?vid=256092bc-078b-4030-8c03-5319e474c3b7","ios":"levelo://app?vid=256092bc-078b-4030-8c03-5319e474c3b7"},"vehicle_type_id":"4","last_reported":1738858205,"current_range_meters":23200,"station_id":"ce4bhah2rcd13ifvqei0","pricing_plan_id":"cebpf4jnsgd1na2vs0mg"},{"bike_id":"8461dcb5-f99b-425c-9064-bd0f19db3c15","system_id":"levelo_inurba_marseille","lat":43.27672,"lon":5.38888,"is_reserved":false,"is_disabled":false,"rental_uris":{"android":"levelo://app?vid=8461dcb5-f99b-425c-9064-bd0f19db3c15","ios":"levelo://app?vid=8461dcb5-f99b-425c-9064-bd0f19db3c15"},"vehicle_type_id":"4","last_reported":1738858205,"current_range_meters":10800,"station_id":"ce4bhi12rcd13ifvqfo0","pricing_plan_id":"cebpf4jnsgd1na2vs0mg"},{"bike_id":"40eb2776-2b9f-40cd-827e-eff8260e4b24","system_id":"levelo_inurba_marseille","lat":43.29375,"lon":5.37862,"is_reserved":false,"is_disabled":false,"rental_uris":{"android":"levelo://app?vid=40eb2776-2b9f-40cd-827e-eff8260e4b24","ios":"levelo://app?vid=40eb2776-2b9f-40cd-827e-eff8260e4b24"},"vehicle_type_id":"4","last_reported":1738858205,"current_range_meters":6800,"station_id":"ce4bgjh2rcd13ifvqbf0","pricing_plan_id":"cebpf4jnsgd1na2vs0mg"},{"bike_id":"d9e1746e-fb35-4488-8bed-3a26bd5c5605","system_id":"levelo_inurba_marseille","lat":43.30291,"lon":5.39804,"is_reserved":false,"is_disabled":true,"rental_uris":{"android":"levelo://app?vid=d9e1746e-fb35-4488-8bed-3a26bd5c5605","ios":"levelo://app?vid=d9e1746e-fb35-4488-8bed-3a26bd5c5605"},"vehicle_type_id":"4","last_reported":1738858205,"current_range_meters":0,"station_id":"","pricing_plan_id":"cebpf4jnsgd1na2vs0mg"},{"bike_id":"07225e0e-df21-4c79-be24-cbaddd957366","system_id":"levelo_inurba_marseille","lat":43.25501,"lon":5.37652,"is_reserved":false,"is_disabled":false,"rental_uris":{"android":"levelo://app?vid=07225e0e-df21-4c79-be24-cbaddd957366","ios":"levelo://app?vid=07225e0e-df21-4c79-be24-cbaddd957366"},"vehicle_type_id":"4","last_reported":1738858205,"current_range_meters":36400,"station_id":"ce4bhh12rcd13ifvqff0","pricing_plan_id":"cebpf4jnsgd1na2vs0mg"},{"bike_id":"7fbda91b-0102-40be-9e2a-bf3405dc2abc","system_id":"levelo_inurba_marseille","lat":43.2582,"lon":5.39438,"is_reserved":false,"is_disabled":false,"rental_uris":{"android":"levelo://app?vid=7fbda91b-0102-40be-9e2a-bf3405dc2abc","ios":"levelo://app?vid=7fbda91b-0102-40be-9e2a-bf3405dc2abc"},"vehicle_type_id":"4","last_reported":1738858205,"current_range_meters":35200,"station_id":"ce4bhip2rcd13ifvqft0","pricing_plan_id":"cebpf4jnsgd1na2vs0mg"},{"bike_id":"d16efe30-0ef6-48b7-b43d-44ff27dca54d","system_id":"levelo_inurba_marseille","lat":43.29451,"lon":5.39752,"is_reserved":false,"is_disabled":false,"rental_uris":{"android":"levelo://app?vid=d16efe30-0ef6-48b7-b43d-44ff27dca54d","ios":"levelo://app?vid=d16efe30-0ef6-48b7-b43d-44ff27dca54d"},"vehicle_type_id":"4","last_reported":1738858205,"current_range_meters":32000,"station_id":"ce4bh3h2rcd13ifvqdo0","pricing_plan_id":"cebpf4jnsgd1na2vs0mg"},{"bike_id":"5d63b754-b540-4fe2-9609-85f510551f48","system_id":"levelo_inurba_marseille","lat":43.29199,"lon":5.35802,"is_reserved":false,"is_disabled":false,"rental_uris":{"android":"levelo://app?vid=5d63b754-b540-4fe2-9609-85f510551f48","ios":"levelo://app?vid=5d63b754-b540-4fe2-9609-85f510551f48"},"vehicle_type_id":"4","last_reported":1738858205,"current_range_meters":38800,"station_id":"ce4bhb12rcd13ifvqel0","pricing_plan_id":"cebpf4jnsgd1na2vs0mg"},{"bike_id":"0ae7beaa-00f4-40f6-bfa7-6b4d92723ad7","system_id":"levelo_inurba_marseille","lat":43.29539,"lon":5.42276,"is_reserved":false,"is_disabled":true,"rental_uris":{"android":"levelo://app?vid=0ae7beaa-00f4-40f6-bfa7-6b4d92723ad7","ios":"levelo://app?vid=0ae7beaa-00f4-40f6-bfa7-6b4d92723ad7"},"vehicle_type_id":"4","last_reported":1738858205,"current_range_meters":0,"station_id":"ce4bhph2rcd13ifvqhdg","pricing_plan_id":"cebpf4jnsgd1na2vs0mg"},{"bike_id":"5d6072c5-2d7f-435a-81e5-1964361168f9","system_id":"levelo_inurba_marseille","lat":43.30882,"lon":5.37197,"is_reserved":false,"is_disabled":false,"rental_uris":{"android":"levelo://app?vid=5d6072c5-2d7f-435a-81e5-1964361168f9","ios":"levelo://app?vid=5d6072c5-2d7f-435a-81e5-1964361168f9"},"vehicle_type_id":"4","last_reported":1738858205,"current_range_meters":38800,"station_id":"ce4bguh2rcd13ifvqckg","pricing_plan_id":"cebpf4jnsgd1na2vs0mg"},{"bike_id":"63c8956c-b2b5-4faa-8b7d-f821c05dd8c4","system_id":"levelo_inurba_marseille","lat":43.260275,"lon":5.37551,"is_reserved":false,"is_disabled":true,"rental_uris":{"android":"levelo://app?vid=63c8956c-b2b5-4faa-8b7d-f821c05dd8c4","ios":"levelo://app?vid=63c8956c-b2b5-4faa-8b7d-f821c05dd8c4"},"vehicle_type_id":"4","last_reported":1738858205,"current_range_meters":8400,"station_id":"","pricing_plan_id":"cebpf4jnsgd1na2vs0mg"},{"bike_id":"42560082-9214-4ebe-bc19-3059c44cc283","system_id":"levelo_inurba_marseille","lat":43.25837,"lon":5.39422,"is_reserved":false,"is_disabled":false,"rental_uris":{"android":"levelo://app?vid=42560082-9214-4ebe-bc19-3059c44cc283","ios":"levelo://app?vid=42560082-9214-4ebe-bc19-3059c44cc283"},"vehicle_type_id":"4","last_reported":1738858205,"current_range_meters":36000,"station_id":"ce4bhip2rcd13ifvqft0","pricing_plan_id":"cebpf4jnsgd1na2vs0mg"},{"bike_id":"022d784d-dd76-4c5d-8dc0-0955b60145d2","system_id":"levelo_inurba_marseille","lat":43.30144,"lon":5.38788,"is_reserved":false,"is_disabled":false,"rental_uris":{"android":"levelo://app?vid=022d784d-dd76-4c5d-8dc0-0955b60145d2","ios":"levelo://app?vid=022d784d-dd76-4c5d-8dc0-0955b60145d2"},"vehicle_type_id":"4","last_reported":1738858205,"current_range_meters":25200,"station_id":"ce4bghh2rcd13ifvqb60","pricing_plan_id":"cebpf4jnsgd1na2vs0mg"},{"bike_id":"3f7ff96d-9623-4aad-b4cc-175dc1dfc2c0","system_id":"levelo_inurba_marseille","lat":43.28443,"lon":5.39208,"is_reserved":false,"is_disabled":false,"rental_uris":{"android":"levelo://app?vid=3f7ff96d-9623-4aad-b4cc-175dc1dfc2c0","ios":"levelo://app?vid=3f7ff96d-9623-4aad-b4cc-175dc1dfc2c0"},"vehicle_type_id":"4","last_reported":1738858205,"current_range_meters":14000,"station_id":"ce4bhoh2rcd13ifvqh5g","pricing_plan_id":"cebpf4jnsgd1na2vs0mg"},{"bike_id":"a7b647d9-1a4b-4ec5-8bea-7b331389070f","system_id":"levelo_inurba_marseille","lat":43.32471,"lon":5.45546,"is_reserved":false,"is_disabled":true,"rental_uris":{"android":"levelo://app?vid=a7b647d9-1a4b-4ec5-8bea-7b331389070f","ios":"levelo://app?vid=a7b647d9-1a4b-4ec5-8bea-7b331389070f"},"vehicle_type_id":"4","last_reported":1738858205,"current_range_meters":15200,"station_id":"","pricing_plan_id":"cebpf4jnsgd1na2vs0mg"},{"bike_id":"982f85c5-1a13-4a94-80d4-b8ba54dad086","system_id":"levelo_inurba_marseille","lat":43.28272,"lon":5.35073,"is_reserved":false,"is_disabled":false,"rental_uris":{"android":"levelo://app?vid=982f85c5-1a13-4a94-80d4-b8ba54dad086","ios":"levelo://app?vid=982f85c5-1a13-4a94-80d4-b8ba54dad086"},"vehicle_type_id":"4","last_reported":1738858205,"current_range_meters":36000,"station_id":"ce4bhbp2rcd13ifvqerg","pricing_plan_id":"cebpf4jnsgd1na2vs0mg"},{"bike_id":"507b15d5-ba45-48e8-80b2-0da7459d7c29","system_id":"levelo_inurba_marseille","lat":43.28146,"lon":5.42632,"is_reserved":false,"is_disabled":false,"rental_uris":{"android":"levelo://app?vid=507b15d5-ba45-48e8-80b2-0da7459d7c29","ios":"levelo://app?vid=507b15d5-ba45-48e8-80b2-0da7459d7c29"},"vehicle_type_id":"4","last_reported":1738858205,"current_range_meters":36800,"station_id":"ce4bhnh2rcd13ifvqgug","pricing_plan_id":"cebpf4jnsgd1na2vs0mg"},{"bike_id":"4e2b8af9-cc2e-4655-a0a5-1d7d885bae0e","system_id":"levelo_inurba_marseille","lat":43.29235,"lon":5.3608,"is_reserved":false,"is_disabled":false,"rental_uris":{"android":"levelo://app?vid=4e2b8af9-cc2e-4655-a0a5-1d7d885bae0e","ios":"levelo://app?vid=4e2b8af9-cc2e-4655-a0a5-1d7d885bae0e"},"vehicle_type_id":"4","last_reported":1738858205,"current_range_meters":38800,"station_id":"ce4bhbh2rcd13ifvqeqg","pricing_plan_id":"cebpf4jnsgd1na2vs0mg"},{"bike_id":"969feaef-4bde-4003-b492-3c860b94d6b9","system_id":"levelo_inurba_marseille","lat":43.24168,"lon":5.36393,"is_reserved":false,"is_disabled":false,"rental_uris":{"android":"levelo://app?vid=969feaef-4bde-4003-b492-3c860b94d6b9","ios":"levelo://app?vid=969feaef-4bde-4003-b492-3c860b94d6b9"},"vehicle_type_id":"4","last_reported":1738858205,"current_range_meters":26000,"station_id":"cpo36qri1sfpv3e86is0","pricing_plan_id":"cebpf4jnsgd1na2vs0mg"},{"bike_id":"99c1809b-d2c9-4bbb-8e75-87d758ab24ad","system_id":"levelo_inurba_marseille","lat":43.23072,"lon":5.35482,"is_reserved":false,"is_disabled":false,"rental_uris":{"android":"levelo://app?vid=99c1809b-d2c9-4bbb-8e75-87d758ab24ad","ios":"levelo://app?vid=99c1809b-d2c9-4bbb-8e75-87d758ab24ad"},"vehicle_type_id":"4","last_reported":1738858205,"current_range_meters":17600,"station_id":"cpo3342slgdg3j2ifvpg","pricing_plan_id":"cebpf4jnsgd1na2vs0mg"},{"bike_id":"4a1417c6-c7e2-459c-b42e-c2ff6df54614","system_id":"levelo_inurba_marseille","lat":43.2721,"lon":5.39188,"is_reserved":false,"is_disabled":false,"rental_uris":{"android":"levelo://app?vid=4a1417c6-c7e2-459c-b42e-c2ff6df54614","ios":"levelo://app?vid=4a1417c6-c7e2-459c-b42e-c2ff6df54614"},"vehicle_type_id":"4","last_reported":1738858205,"current_range_meters":3200,"station_id":"ce4bhhp2rcd13ifvqfm0","pricing_plan_id":"cebpf4jnsgd1na2vs0mg"},{"bike_id":"335f4342-bbca-4c03-b6b1-738712832e20","system_id":"levelo_inurba_marseille","lat":43.28726,"lon":5.36078,"is_reserved":false,"is_disabled":false,"rental_uris":{"android":"levelo://app?vid=335f4342-bbca-4c03-b6b1-738712832e20","ios":"levelo://app?vid=335f4342-bbca-4c03-b6b1-738712832e20"},"vehicle_type_id":"4","last_reported":1738858205,"current_range_meters":39200,"station_id":"cki0cbj6b192h4jlfktg","pricing_plan_id":"cebpf4jnsgd1na2vs0mg"},{"bike_id":"71fa0b49-5022-4226-a851-b27cd3ebce8b","system_id":"levelo_inurba_marseille","lat":43.31758,"lon":5.39016,"is_reserved":false,"is_disabled":false,"rental_uris":{"android":"levelo://app?vid=71fa0b49-5022-4226-a851-b27cd3ebce8b","ios":"levelo://app?vid=71fa0b49-5022-4226-a851-b27cd3ebce8b"},"vehicle_type_id":"4","last_reported":1738858205,"current_range_meters":20800,"station_id":"ce4bhqp2rcd13ifvqhng","pricing_plan_id":"cebpf4jnsgd1na2vs0mg"},{"bike_id":"d795a45e-215d-4f94-b2ce-e726828b49a5","system_id":"levelo_inurba_marseille","lat":43.2417,"lon":5.36389,"is_reserved":false,"is_disabled":false,"rental_uris":{"android":"levelo://app?vid=d795a45e-215d-4f94-b2ce-e726828b49a5","ios":"levelo://app?vid=d795a45e-215d-4f94-b2ce-e726828b49a5"},"vehicle_type_id":"4","last_reported":1738858205,"current_range_meters":30000,"station_id":"cpo36qri1sfpv3e86is0","pricing_plan_id":"cebpf4jnsgd1na2vs0mg"},{"bike_id":"ee5ccade-f238-41c4-b536-d0ebb9724bf7","system_id":"levelo_inurba_marseille","lat":43.26032,"lon":5.37557,"is_reserved":false,"is_disabled":false,"rental_uris":{"android":"levelo://app?vid=ee5ccade-f238-41c4-b536-d0ebb9724bf7","ios":"levelo://app?vid=ee5ccade-f238-41c4-b536-d0ebb9724bf7"},"vehicle_type_id":"4","last_reported":1738858205,"current_range_meters":37600,"station_id":"ce4bhgh2rcd13ifvqfa0","pricing_plan_id":"cebpf4jnsgd1na2vs0mg"},{"bike_id":"4e19cff8-873a-443a-9f71-358916e3d391","system_id":"levelo_inurba_marseille","lat":43.23186,"lon":5.39982,"is_reserved":false,"is_disabled":false,"rental_uris":{"android":"levelo://app?vid=4e19cff8-873a-443a-9f71-358916e3d391","ios":"levelo://app?vid=4e19cff8-873a-443a-9f71-358916e3d391"},"vehicle_type_id":"4","last_reported":1738858205,"current_range_meters":39200,"station_id":"ce4bhn12rcd13ifvqgqg","pricing_plan_id":"cebpf4jnsgd1na2vs0mg"},{"bike_id":"39a6b381-d477-4dc2-b0ea-4d3a0b487463","system_id":"levelo_inurba_marseille","lat":43.23962,"lon":5.36645,"is_reserved":false,"is_disabled":false,"rental_uris":{"android":"levelo://app?vid=39a6b381-d477-4dc2-b0ea-4d3a0b487463","ios":"levelo://app?vid=39a6b381-d477-4dc2-b0ea-4d3a0b487463"},"vehicle_type_id":"4","last_reported":1738858205,"current_range_meters":22800,"station_id":"ce4bhi12rcd13ifvqfp0","pricing_plan_id":"cebpf4jnsgd1na2vs0mg"},{"bike_id":"3edd8387-1e3c-40a0-abd8-8204bd59b20c","system_id":"levelo_inurba_marseille","lat":43.28116,"lon":5.37844,"is_reserved":false,"is_disabled":true,"rental_uris":{"android":"levelo://app?vid=3edd8387-1e3c-40a0-abd8-8204bd59b20c","ios":"levelo://app?vid=3edd8387-1e3c-40a0-abd8-8204bd59b20c"},"vehicle_type_id":"4","last_reported":1738858205,"current_range_meters":400,"station_id":"ce4bha12rcd13ifvqee0","pricing_plan_id":"cebpf4jnsgd1na2vs0mg"},{"bike_id":"b489a2fb-f21a-44df-86a6-3caf5e62ae78","system_id":"levelo_inurba_marseille","lat":43.27196,"lon":5.40987,"is_reserved":false,"is_disabled":false,"rental_uris":{"android":"levelo://app?vid=b489a2fb-f21a-44df-86a6-3caf5e62ae78","ios":"levelo://app?vid=b489a2fb-f21a-44df-86a6-3caf5e62ae78"},"vehicle_type_id":"4","last_reported":1738858205,"current_range_meters":38400,"station_id":"ce4bhl12rcd13ifvqgf0","pricing_plan_id":"cebpf4jnsgd1na2vs0mg"},{"bike_id":"17625ad2-e0e5-481a-b0cb-a49193c04b17","system_id":"levelo_inurba_marseille","lat":43.26793,"lon":5.3942,"is_reserved":false,"is_disabled":true,"rental_uris":{"android":"levelo://app?vid=17625ad2-e0e5-481a-b0cb-a49193c04b17","ios":"levelo://app?vid=17625ad2-e0e5-481a-b0cb-a49193c04b17"},"vehicle_type_id":"4","last_reported":1738858205,"current_range_meters":2000,"station_id":"ce4bhh12rcd13ifvqfg0","pricing_plan_id":"cebpf4jnsgd1na2vs0mg"},{"bike_id":"4885d723-ed97-43b7-a2b4-1328c8319fda","system_id":"levelo_inurba_marseille","lat":43.29634,"lon":5.40602,"is_reserved":false,"is_disabled":false,"rental_uris":{"android":"levelo://app?vid=4885d723-ed97-43b7-a2b4-1328c8319fda","ios":"levelo://app?vid=4885d723-ed97-43b7-a2b4-1328c8319fda"},"vehicle_type_id":"4","last_reported":1738858205,"current_range_meters":33600,"station_id":"ce4bh0h2rcd13ifvqd60","pricing_plan_id":"cebpf4jnsgd1na2vs0mg"},{"bike_id":"2665e358-7ffb-43e3-92ff-5ff082a11d6c","system_id":"levelo_inurba_marseille","lat":43.3053,"lon":5.36547,"is_reserved":false,"is_disabled":false,"rental_uris":{"android":"levelo://app?vid=2665e358-7ffb-43e3-92ff-5ff082a11d6c","ios":"levelo://app?vid=2665e358-7ffb-43e3-92ff-5ff082a11d6c"},"vehicle_type_id":"4","last_reported":1738858205,"current_range_meters":19600,"station_id":"ce4bgs12rcd13ifvqcag","pricing_plan_id":"cebpf4jnsgd1na2vs0mg"},{"bike_id":"8c4c0a1f-86a5-493c-a421-e52733a9b61a","system_id":"levelo_inurba_marseille","lat":43.2959,"lon":5.36728,"is_reserved":false,"is_disabled":false,"rental_uris":{"android":"levelo://app?vid=8c4c0a1f-86a5-493c-a421-e52733a9b61a","ios":"levelo://app?vid=8c4c0a1f-86a5-493c-a421-e52733a9b61a"},"vehicle_type_id":"4","last_reported":1738858205,"current_range_meters":22400,"station_id":"ce4bgph2rcd13ifvqc2g","pricing_plan_id":"cebpf4jnsgd1na2vs0mg"},{"bike_id":"148598a0-b065-471e-9b7e-2275f609637a","system_id":"levelo_inurba_marseille","lat":43.30779,"lon":5.37656,"is_reserved":false,"is_disabled":false,"rental_uris":{"android":"levelo://app?vid=148598a0-b065-471e-9b7e-2275f609637a","ios":"levelo://app?vid=148598a0-b065-471e-9b7e-2275f609637a"},"vehicle_type_id":"4","last_reported":1738858205,"current_range_meters":28400,"station_id":"ce4bgv92rcd13ifvqcq0","pricing_plan_id":"cebpf4jnsgd1na2vs0mg"},{"bike_id":"303bbea2-df9e-4c93-b3a7-f50e14be254b","system_id":"levelo_inurba_marseille","lat":43.27202,"lon":5.39186,"is_reserved":false,"is_disabled":true,"rental_uris":{"android":"levelo://app?vid=303bbea2-df9e-4c93-b3a7-f50e14be254b","ios":"levelo://app?vid=303bbea2-df9e-4c93-b3a7-f50e14be254b"},"vehicle_type_id":"4","last_reported":1738858205,"current_range_meters":2000,"station_id":"ce4bhhp2rcd13ifvqfm0","pricing_plan_id":"cebpf4jnsgd1na2vs0mg"},{"bike_id":"5923a651-f715-48a6-bf47-e3802fbf4639","system_id":"levelo_inurba_marseille","lat":43.27375,"lon":5.36254,"is_reserved":false,"is_disabled":false,"rental_uris":{"android":"levelo://app?vid=5923a651-f715-48a6-bf47-e3802fbf4639","ios":"levelo://app?vid=5923a651-f715-48a6-bf47-e3802fbf4639"},"vehicle_type_id":"4","last_reported":1738858205,"current_range_meters":30000,"station_id":"ce4bhbh2rcd13ifvqeo0","pricing_plan_id":"cebpf4jnsgd1na2vs0mg"},{"bike_id":"23f32bf8-a7e5-42c6-9028-529e9efed07b","system_id":"levelo_inurba_marseille","lat":43.32543,"lon":5.41433,"is_reserved":false,"is_disabled":false,"rental_uris":{"android":"levelo://app?vid=23f32bf8-a7e5-42c6-9028-529e9efed07b","ios":"levelo://app?vid=23f32bf8-a7e5-42c6-9028-529e9efed07b"},"vehicle_type_id":"4","last_reported":1738858205,"current_range_meters":26000,"station_id":"ce4bhq12rcd13ifvqhhg","pricing_plan_id":"cebpf4jnsgd1na2vs0mg"},{"bike_id":"3daa41e9-ab09-4260-acd6-8556ac30abf4","system_id":"levelo_inurba_marseille","lat":43.30321,"lon":5.36912,"is_reserved":false,"is_disabled":false,"rental_uris":{"android":"levelo://app?vid=3daa41e9-ab09-4260-acd6-8556ac30abf4","ios":"levelo://app?vid=3daa41e9-ab09-4260-acd6-8556ac30abf4"},"vehicle_type_id":"4","last_reported":1738858205,"current_range_meters":26800,"station_id":"ce4bgqh2rcd13ifvqc5g","pricing_plan_id":"cebpf4jnsgd1na2vs0mg"},{"bike_id":"cff4da4d-58d5-4475-acbf-8575356acc9b","system_id":"levelo_inurba_marseille","lat":43.284,"lon":5.37514,"is_reserved":false,"is_disabled":false,"rental_uris":{"android":"levelo://app?vid=cff4da4d-58d5-4475-acbf-8575356acc9b","ios":"levelo://app?vid=cff4da4d-58d5-4475-acbf-8575356acc9b"},"vehicle_type_id":"4","last_reported":1738858205,"current_range_meters":19600,"station_id":"ce4bh412rcd13ifvqds0","pricing_plan_id":"cebpf4jnsgd1na2vs0mg"},{"bike_id":"946b6bd7-2916-434a-ba64-87482edaa09b","system_id":"levelo_inurba_marseille","lat":43.27064,"lon":5.42283,"is_reserved":false,"is_disabled":false,"rental_uris":{"android":"levelo://app?vid=946b6bd7-2916-434a-ba64-87482edaa09b","ios":"levelo://app?vid=946b6bd7-2916-434a-ba64-87482edaa09b"},"vehicle_type_id":"4","last_reported":1738858205,"current_range_meters":6800,"station_id":"ce4bhk92rcd13ifvqgb0","pricing_plan_id":"cebpf4jnsgd1na2vs0mg"},{"bike_id":"07b90e51-3a85-4ca0-8482-308f3b5c89d7","system_id":"levelo_inurba_marseille","lat":43.29029,"lon":5.38627,"is_reserved":false,"is_disabled":false,"rental_uris":{"android":"levelo://app?vid=07b90e51-3a85-4ca0-8482-308f3b5c89d7","ios":"levelo://app?vid=07b90e51-3a85-4ca0-8482-308f3b5c89d7"},"vehicle_type_id":"4","last_reported":1738858205,"current_range_meters":39200,"station_id":"ce4bh4p2rcd13ifvqe0g","pricing_plan_id":"cebpf4jnsgd1na2vs0mg"},{"bike_id":"88748372-33ff-4d0b-984b-b75d8915cde0","system_id":"levelo_inurba_marseille","lat":43.28701,"lon":5.37404,"is_reserved":false,"is_disabled":false,"rental_uris":{"android":"levelo://app?vid=88748372-33ff-4d0b-984b-b75d8915cde0","ios":"levelo://app?vid=88748372-33ff-4d0b-984b-b75d8915cde0"},"vehicle_type_id":"4","last_reported":1738858205,"current_range_meters":39200,"station_id":"ce4bh3p2rcd13ifvqdq0","pricing_plan_id":"cebpf4jnsgd1na2vs0mg"},{"bike_id":"9d576308-6012-4313-bb09-296ad86e00b2","system_id":"levelo_inurba_marseille","lat":43.30884,"lon":5.39636,"is_reserved":false,"is_disabled":false,"rental_uris":{"android":"levelo://app?vid=9d576308-6012-4313-bb09-296ad86e00b2","ios":"levelo://app?vid=9d576308-6012-4313-bb09-296ad86e00b2"},"vehicle_type_id":"4","last_reported":1738858205,"current_range_meters":38800,"station_id":"ce4bh012rcd13ifvqcv0","pricing_plan_id":"cebpf4jnsgd1na2vs0mg"},{"bike_id":"9430d780-d972-4df5-b653-a3ac3f87e18d","system_id":"levelo_inurba_marseille","lat":43.32719,"lon":5.41814,"is_reserved":false,"is_disabled":false,"rental_uris":{"android":"levelo://app?vid=9430d780-d972-4df5-b653-a3ac3f87e18d","ios":"levelo://app?vid=9430d780-d972-4df5-b653-a3ac3f87e18d"},"vehicle_type_id":"4","last_reported":1738858205,"current_range_meters":28400,"station_id":"","pricing_plan_id":"cebpf4jnsgd1na2vs0mg"},{"bike_id":"ae0a9ce2-2dd1-4b0e-b033-acceee703c88","system_id":"levelo_inurba_marseille","lat":43.262146,"lon":5.374451,"is_reserved":false,"is_disabled":false,"rental_uris":{"android":"levelo://app?vid=ae0a9ce2-2dd1-4b0e-b033-acceee703c88","ios":"levelo://app?vid=ae0a9ce2-2dd1-4b0e-b033-acceee703c88"},"vehicle_type_id":"4","last_reported":1738858205,"current_range_meters":9200,"station_id":"ce4bhgp2rcd13ifvqfc0","pricing_plan_id":"cebpf4jnsgd1na2vs0mg"},{"bike_id":"864bb057-a7d0-4ea8-9ab3-8d88a3f1188a","system_id":"levelo_inurba_marseille","lat":43.2919,"lon":5.35809,"is_reserved":false,"is_disabled":false,"rental_uris":{"android":"levelo://app?vid=864bb057-a7d0-4ea8-9ab3-8d88a3f1188a","ios":"levelo://app?vid=864bb057-a7d0-4ea8-9ab3-8d88a3f1188a"},"vehicle_type_id":"4","last_reported":1738858205,"current_range_meters":8400,"station_id":"ce4bhb12rcd13ifvqel0","pricing_plan_id":"cebpf4jnsgd1na2vs0mg"},{"bike_id":"ba17695b-e6e7-41a4-b9a6-87914f765db4","system_id":"levelo_inurba_marseille","lat":43.24679,"lon":5.38168,"is_reserved":false,"is_disabled":false,"rental_uris":{"android":"levelo://app?vid=ba17695b-e6e7-41a4-b9a6-87914f765db4","ios":"levelo://app?vid=ba17695b-e6e7-41a4-b9a6-87914f765db4"},"vehicle_type_id":"4","last_reported":1738858205,"current_range_meters":39200,"station_id":"ce4bhih2rcd13ifvqfr0","pricing_plan_id":"cebpf4jnsgd1na2vs0mg"},{"bike_id":"38ea1dca-cbd9-4c66-942d-abc0c4c5d7b0","system_id":"levelo_inurba_marseille","lat":43.26033,"lon":5.37549,"is_reserved":false,"is_disabled":false,"rental_uris":{"android":"levelo://app?vid=38ea1dca-cbd9-4c66-942d-abc0c4c5d7b0","ios":"levelo://app?vid=38ea1dca-cbd9-4c66-942d-abc0c4c5d7b0"},"vehicle_type_id":"4","last_reported":1738858205,"current_range_meters":24800,"station_id":"ce4bhgh2rcd13ifvqfa0","pricing_plan_id":"cebpf4jnsgd1na2vs0mg"},{"bike_id":"4dfa3098-c053-42b8-8649-cfa1d02d6188","system_id":"levelo_inurba_marseille","lat":43.22938,"lon":5.35377,"is_reserved":false,"is_disabled":false,"rental_uris":{"android":"levelo://app?vid=4dfa3098-c053-42b8-8649-cfa1d02d6188","ios":"levelo://app?vid=4dfa3098-c053-42b8-8649-cfa1d02d6188"},"vehicle_type_id":"4","last_reported":1738858205,"current_range_meters":30000,"station_id":"cpo3532slgdg3j2ikp40","pricing_plan_id":"cebpf4jnsgd1na2vs0mg"},{"bike_id":"de23fbe0-29dd-469c-bf96-01cb0e82a1ed","system_id":"levelo_inurba_marseille","lat":43.28104,"lon":5.3786,"is_reserved":false,"is_disabled":false,"rental_uris":{"android":"levelo://app?vid=de23fbe0-29dd-469c-bf96-01cb0e82a1ed","ios":"levelo://app?vid=de23fbe0-29dd-469c-bf96-01cb0e82a1ed"},"vehicle_type_id":"4","last_reported":1738858205,"current_range_meters":24400,"station_id":"ce4bha12rcd13ifvqee0","pricing_plan_id":"cebpf4jnsgd1na2vs0mg"},{"bike_id":"8487d24b-6b15-4c56-952a-e928cc9f0389","system_id":"levelo_inurba_marseille","lat":43.26032,"lon":5.37545,"is_reserved":false,"is_disabled":false,"rental_uris":{"android":"levelo://app?vid=8487d24b-6b15-4c56-952a-e928cc9f0389","ios":"levelo://app?vid=8487d24b-6b15-4c56-952a-e928cc9f0389"},"vehicle_type_id":"4","last_reported":1738858205,"current_range_meters":24000,"station_id":"ce4bhgh2rcd13ifvqfa0","pricing_plan_id":"cebpf4jnsgd1na2vs0mg"},