{"last_updated":1739437786,"ttl":60,"version":"2.2","data":{"bikes":[{"bike_id":"9ae4959d-6de9-4c98-bb63-3a430a52595d","system_id":"levelo_inurba_marseille","lat":43.31328,"lon":5.36741,"is_reserved":false,"is_disabled":false,"rental_uris":{"android":"levelo://app?vid=9ae4959d-6de9-4c98-bb63-3a430a52595d","ios":"levelo://app?vid=9ae4959d-6de9-4c98-bb63-3a430a52595d"},"vehicle_type_id":"4","last_reported":1739437786,"current_range_meters":12400,"station_id":"ce4bgr92rcd13ifvqc6g","pricing_plan_id":"cebpf4jnsgd1na2vs0mg"},{"bike_id":"c7879b09-9000-4a4c-a8f3-fea2123e3999","system_id":"levelo_inurba_marseille","lat":43.28074,"lon":5.39648,"is_reserved":false,"is_disabled":false,"rental_uris":{"android":"levelo://app?vid=c7879b09-9000-4a4c-a8f3-fea2123e3999","ios":"levelo://app?vid=c7879b09-9000-4a4c-a8f3-fea2123e3999"},"vehicle_type_id":"4","last_reported":1739437786,"current_range_meters":32800,"station_id":"ce4bho12rcd13ifvqh2g","pricing_plan_id":"cebpf4jnsgd1na2vs0mg"},{"bike_id":"7803dd1a-a242-4883-848b-e4cbfccf197b","system_id":"levelo_inurba_marseille","lat":43.31341,"lon":5.36727,"is_reserved":false,"is_disabled":true,"rental_uris":{"android":"levelo://app?vid=7803dd1a-a242-4883-848b-e4cbfccf197b","ios":"levelo://app?vid=7803dd1a-a242-4883-848b-e4cbfccf197b"},"vehicle_type_id":"4","last_reported":1739437786,"current_range_meters":4400,"station_id":"ce4bgr92rcd13ifvqc6g","pricing_plan_id":"cebpf4jnsgd1na2vs0mg"},{"bike_id":"30910155-0cba-4983-a322-7c62d29cba67","system_id":"levelo_inurba_marseille","lat":43.30949,"lon":5.39048,"is_reserved":false,"is_disabled":false,"rental_uris":{"android":"levelo://app?vid=30910155-0cba-4983-a322-7c62d29cba67","ios":"levelo://app?vid=30910155-0cba-4983-a322-7c62d29cba67"},"vehicle_type_id":"4","last_reported":1739437786,"current_range_meters":24000,"station_id":"","pricing_plan_id":"cebpf4jnsgd1na2vs0mg"},{"bike_id":"67e16df0-e52d-464d-8701-e3df7d96574d","system_id":"levelo_inurba_marseille","lat":43.29601,"lon":5.38094,"is_reserved":false,"is_disabled":false,"rental_uris":{"android":"levelo://app?vid=67e16df0-e52d-464d-8701-e3df7d96574d","ios":"levelo://app?vid=67e16df0-e52d-464d-8701-e3df7d96574d"},"vehicle_type_id":"4","last_reported":1739437786,"current_range_meters":36800,"station_id":"ce4bgl12rcd13ifvqbo0","pricing_plan_id":"cebpf4jnsgd1na2vs0mg"},{"bike_id":"9c9e6dfa-122e-4154-8057-4016db8e7671","system_id":"levelo_inurba_marseille","lat":43.33727,"lon":5.39192,"is_reserved":false,"is_disabled":false,"rental_uris":{"android":"levelo://app?vid=9c9e6dfa-122e-4154-8057-4016db8e7671","ios":"levelo://app?vid=9c9e6dfa-122e-4154-8057-4016db8e7671"},"vehicle_type_id":"4","last_reported":1739437786,"current_range_meters":38800,"station_id":"ce4bhr92rcd13ifvqhsg","pricing_plan_id":"cebpf4jnsgd1na2vs0mg"},{"bike_id":"35c96b0b-eb3c-4787-a379-c8c27196e8bc","system_id":"levelo_inurba_marseille","lat":43.3245,"lon":5.3661,"is_reserved":false,"is_disabled":false,"rental_uris":{"android":"levelo://app?vid=35c96b0b-eb3c-4787-a379-c8c27196e8bc","ios":"levelo://app?vid=35c96b0b-eb3c-4787-a379-c8c27196e8bc"},"vehicle_type_id":"4","last_reported":1739437786,"current_range_meters":39200,"station_id":"ce4bhs12rcd13ifvqhvg","pricing_plan_id":"cebpf4jnsgd1na2vs0mg"},{"bike_id":"1d4165b9-e8af-42e7-8e88-54a0f84b4f26","system_id":"levelo_inurba_marseille","lat":43.23211,"lon":5.40001,"is_reserved":false,"is_disabled":false,"rental_uris":{"android":"levelo://app?vid=1d4165b9-e8af-42e7-8e88-54a0f84b4f26","ios":"levelo://app?vid=1d4165b9-e8af-42e7-8e88-54a0f84b4f26"},"vehicle_type_id":"4","last_reported":1739437786,"current_range_meters":35600,"station_id":"ce4bhn12rcd13ifvqgqg","pricing_plan_id":"cebpf4jnsgd1na2vs0mg"},{"bike_id":"f6ef4f9a-c914-4d4b-a06e-00485b64285e","system_id":"levelo_inurba_marseille","lat":43.32419,"lon":5.36564,"is_reserved":false,"is_disabled":false,"rental_uris":{"android":"levelo://app?vid=f6ef4f9a-c914-4d4b-a06e-00485b64285e","ios":"levelo://app?vid=f6ef4f9a-c914-4d4b-a06e-00485b64285e"},"vehicle_type_id":"4","last_reported":1739437786,"current_range_meters":39200,"station_id":"ce4bhs12rcd13ifvqhvg","pricing_plan_id":"cebpf4jnsgd1na2vs0mg"},{"bike_id":"fc307c26-016b-4cf5-bcc1-e7a2a92d4399","system_id":"levelo_inurba_marseille","lat":43.30945,"lon":5.39036,"is_reserved":false,"is_disabled":false,"rental_uris":{"android":"levelo://app?vid=fc307c26-016b-4cf5-bcc1-e7a2a92d4399","ios":"levelo://app?vid=fc307c26-016b-4cf5-bcc1-e7a2a92d4399"},"vehicle_type_id":"4","last_reported":1739437786,"current_range_meters":16400,"station_id":"ce4bgup2rcd13ifvqco0","pricing_plan_id":"cebpf4jnsgd1na2vs0mg"},{"bike_id":"988bbda5-f775-47fb-8c30-4f6e37e64228","system_id":"levelo_inurba_marseille","lat":43.34141,"lon":5.40911,"is_reserved":false,"is_disabled":false,"rental_uris":{"android":"levelo://app?vid=988bbda5-f775-47fb-8c30-4f6e37e64228","ios":"levelo://app?vid=988bbda5-f775-47fb-8c30-4f6e37e64228"},"vehicle_type_id":"4","last_reported":1739437786,"current_range_meters":39200,"station_id":"ce4bhqh2rcd13ifvqhlg","pricing_plan_id":"cebpf4jnsgd1na2vs0mg"},{"bike_id":"8390feee-0735-4b8f-90c8-f81c741ca7d5","system_id":"levelo_inurba_marseille","lat":43.24811,"lon":5.37455,"is_reserved":false,"is_disabled":false,"rental_uris":{"android":"levelo://app?vid=8390feee-0735-4b8f-90c8-f81c741ca7d5","ios":"levelo://app?vid=8390feee-0735-4b8f-90c8-f81c741ca7d5"},"vehicle_type_id":"4","last_reported":1739437786,"current_range_meters":38400,"station_id":"ce4bhgh2rcd13ifvqfb0","pricing_plan_id":"cebpf4jnsgd1na2vs0mg"},{"bike_id":"0e32f314-de1c-43d6-9735-aad0bdcd1c6f","system_id":"levelo_inurba_marseille","lat":43.28618,"lon":5.35122,"is_reserved":false,"is_disabled":false,"rental_uris":{"android":"levelo://app?vid=0e32f314-de1c-43d6-9735-aad0bdcd1c6f","ios":"levelo://app?vid=0e32f314-de1c-43d6-9735-aad0bdcd1c6f"},"vehicle_type_id":"4","last_reported":1739437786,"current_range_meters":36800,"station_id":"ce4bhch2rcd13ifvqeug","pricing_plan_id":"cebpf4jnsgd1na2vs0mg"},{"bike_id":"9e4564f0-0519-46c9-beea-73f529a3ce6a","system_id":"levelo_inurba_marseille","lat":43.24806,"lon":5.37457,"is_reserved":false,"is_disabled":false,"rental_uris":{"android":"levelo://app?vid=9e4564f0-0519-46c9-beea-73f529a3ce6a","ios":"levelo://app?vid=9e4564f0-0519-46c9-beea-73f529a3ce6a"},"vehicle_type_id":"4","last_reported":1739437786,"current_range_meters":25200,"station_id":"ce4bhgh2rcd13ifvqfb0","pricing_plan_id":"cebpf4jnsgd1na2vs0mg"},{"bike_id":"b44c1318-afe6-4125-8c53-9a713065e4fc","system_id":"levelo_inurba_marseille","lat":43.30307,"lon":5.36893,"is_reserved":false,"is_disabled":false,"rental_uris":{"android":"levelo://app?vid=b44c1318-afe6-4125-8c53-9a713065e4fc","ios":"levelo://app?vid=b44c1318-afe6-4125-8c53-9a713065e4fc"},"vehicle_type_id":"4","last_reported":1739437786,"current_range_meters":38400,"station_id":"ce4bgqh2rcd13ifvqc5g","pricing_plan_id":"cebpf4jnsgd1na2vs0mg"},{"bike_id":"5f72a820-1d02-49bc-8a87-8183592cb3a9","system_id":"levelo_inurba_marseille","lat":43.29782,"lon":5.37096,"is_reserved":false,"is_disabled":false,"rental_uris":{"android":"levelo://app?vid=5f72a820-1d02-49bc-8a87-8183592cb3a9","ios":"levelo://app?vid=5f72a820-1d02-49bc-8a87-8183592cb3a9"},"vehicle_type_id":"4","last_reported":1739437786,"current_range_meters":30800,"station_id":"ce4bgop2rcd13ifvqc1g","pricing_plan_id":"cebpf4jnsgd1na2vs0mg"},{"bike_id":"50b20612-9c8d-462d-9d8c-91db4ccfbb88","system_id":"levelo_inurba_marseille","lat":43.30933,"lon":5.40148,"is_reserved":false,"is_disabled":false,"rental_uris":{"android":"levelo://app?vid=50b20612-9c8d-462d-9d8c-91db4ccfbb88","ios":"levelo://app?vid=50b20612-9c8d-462d-9d8c-91db4ccfbb88"},"vehicle_type_id":"4","last_reported":1739437786,"current_range_meters":33600,"station_id":"ce4bgvp2rcd13ifvqct0","pricing_plan_id":"cebpf4jnsgd1na2vs0mg"},{"bike_id":"56bc7c1b-51a3-4197-99ff-21720caa162f","system_id":"levelo_inurba_marseille","lat":43.29931,"lon":5.37464,"is_reserved":false,"is_disabled":false,"rental_uris":{"android":"levelo://app?vid=56bc7c1b-51a3-4197-99ff-21720caa162f","ios":"levelo://app?vid=56bc7c1b-51a3-4197-99ff-21720caa162f"},"vehicle_type_id":"4","last_reported":1739437786,"current_range_meters":38800,"station_id":"ce4bgjh2rcd13ifvqbg0","pricing_plan_id":"cebpf4jnsgd1na2vs0mg"},{"bike_id":"ac2f5c21-615f-4f60-8b2b-9954adc8ad1d","system_id":"levelo_inurba_marseille","lat":43.29875,"lon":5.36271,"is_reserved":false,"is_disabled":false,"rental_uris":{"android":"levelo://app?vid=ac2f5c21-615f-4f60-8b2b-9954adc8ad1d","ios":"levelo://app?vid=ac2f5c21-615f-4f60-8b2b-9954adc8ad1d"},"vehicle_type_id":"4","last_reported":1739437786,"current_range_meters":38800,"station_id":"ce4bgpp2rcd13ifvqc3g","pricing_plan_id":"cebpf4jnsgd1na2vs0mg"},{"bike_id":"f19b3f6f-e3c3-4220-818d-e5482b0b43b6","system_id":"levelo_inurba_marseille","lat":43.25009,"lon":5.38929,"is_reserved":false,"is_disabled":false,"rental_uris":{"android":"levelo://app?vid=f19b3f6f-e3c3-4220-818d-e5482b0b43b6","ios":"levelo://app?vid=f19b3f6f-e3c3-4220-818d-e5482b0b43b6"},"vehicle_type_id":"4","last_reported":1739437786,"current_range_meters":28000,"station_id":"ce4bhgp2rcd13ifvqfd0","pricing_plan_id":"cebpf4jnsgd1na2vs0mg"},{"bike_id":"a0ee630e-14b0-4d5e-933c-ecd409ee390b","system_id":"levelo_inurba_marseille","lat":43.29044,"lon":5.359,"is_reserved":false,"is_disabled":false,"rental_uris":{"android":"levelo://app?vid=a0ee630e-14b0-4d5e-933c-ecd409ee390b","ios":"levelo://app?vid=a0ee630e-14b0-4d5e-933c-ecd409ee390b"},"vehicle_type_id":"4","last_reported":1739437786,"current_range_meters":39200,"station_id":"ce4bha92rcd13ifvqeg0","pricing_plan_id":"cebpf4jnsgd1na2vs0mg"},{"bike_id":"f8b505a9-4219-46e1-bffd-6bc6b42ac6da","system_id":"levelo_inurba_marseille","lat":43.28997,"lon":5.35598,"is_reserved":false,"is_disabled":false,"rental_uris":{"android":"levelo://app?vid=f8b505a9-4219-46e1-bffd-6bc6b42ac6da","ios":"levelo://app?vid=f8b505a9-4219-46e1-bffd-6bc6b42ac6da"},"vehicle_type_id":"4","last_reported":1739437786,"current_range_meters":7200,"station_id":"ce4bhb92rcd13ifvqen0","pricing_plan_id":"cebpf4jnsgd1na2vs0mg"},{"bike_id":"eb773fff-5437-40ba-ad00-6941189c7543","system_id":"levelo_inurba_marseille","lat":43.30899,"lon":5.36855,"is_reserved":false,"is_disabled":false,"rental_uris":{"android":"levelo://app?vid=eb773fff-5437-40ba-ad00-6941189c7543","ios":"levelo://app?vid=eb773fff-5437-40ba-ad00-6941189c7543"},"vehicle_type_id":"4","last_reported":1739437786,"current_range_meters":30400,"station_id":"ce4bgn92rcd13ifvqbvg","pricing_plan_id":"cebpf4jnsgd1na2vs0mg"},{"bike_id":"39e55a90-fe76-4904-bf9c-9841fe168f13","system_id":"levelo_inurba_marseille","lat":43.33727,"lon":5.39175,"is_reserved":false,"is_disabled":false,"rental_uris":{"android":"levelo://app?vid=39e55a90-fe76-4904-bf9c-9841fe168f13","ios":"levelo://app?vid=39e55a90-fe76-4904-bf9c-9841fe168f13"},"vehicle_type_id":"4","last_reported":1739437786,"current_range_meters":38400,"station_id":"ce4bhr92rcd13ifvqhsg","pricing_plan_id":"cebpf4jnsgd1na2vs0mg"},{"bike_id":"f183ca70-ec2a-42ee-b090-fa9948a69e9f","system_id":"levelo_inurba_marseille","lat":43.3044,"lon":5.37929,"is_reserved":false,"is_disabled":false,"rental_uris":{"android":"levelo://app?vid=f183ca70-ec2a-42ee-b090-fa9948a69e9f","ios":"levelo://app?vid=f183ca70-ec2a-42ee-b090-fa9948a69e9f"},"vehicle_type_id":"4","last_reported":1739437786,"current_range_meters":26800,"station_id":"ce4bgup2rcd13ifvqcn0","pricing_plan_id":"cebpf4jnsgd1na2vs0mg"},{"bike_id":"3c1530a7-718c-4463-a9bc-88472caca1ad","system_id":"levelo_inurba_marseille","lat":43.2922,"lon":5.36093,"is_reserved":false,"is_disabled":false,"rental_uris":{"android":"levelo://app?vid=3c1530a7-718c-4463-a9bc-88472caca1ad","ios":"levelo://app?vid=3c1530a7-718c-4463-a9bc-88472caca1ad"},"vehicle_type_id":"4","last_reported":1739437786,"current_range_meters":4400,"station_id":"ce4bhbh2rcd13ifvqeqg","pricing_plan_id":"cebpf4jnsgd1na2vs0mg"},{"bike_id":"2a5c1b07-7008-4f6d-9a02-f1ed29550b44","system_id":"levelo_inurba_marseille","lat":43.32408,"lon":5.36557,"is_reserved":false,"is_disabled":false,"rental_uris":{"android":"levelo://app?vid=2a5c1b07-7008-4f6d-9a02-f1ed29550b44","ios":"levelo://app?vid=2a5c1b07-7008-4f6d-9a02-f1ed29550b44"},"vehicle_type_id":"4","last_reported":1739437786,"current_range_meters":27200,"station_id":"ce4bhs12rcd13ifvqhvg","pricing_plan_id":"cebpf4jnsgd1na2vs0mg"},{"bike_id":"8292432b-ffe7-4134-a1fa-801fa6c43494","system_id":"levelo_inurba_marseille","lat":43.30953,"lon":5.39037,"is_reserved":false,"is_disabled":false,"rental_uris":{"android":"levelo://app?vid=8292432b-ffe7-4134-a1fa-801fa6c43494","ios":"levelo://app?vid=8292432b-ffe7-4134-a1fa-801fa6c43494"},"vehicle_type_id":"4","last_reported":1739437786,"current_range_meters":39200,"station_id":"ce4bgup2rcd13ifvqco0","pricing_plan_id":"cebpf4jnsgd1na2vs0mg"},{"bike_id":"a46f118c-ca3e-41c1-a093-2530129f21b5","system_id":"levelo_inurba_marseille","lat":43.264893,"lon":5.395424,"is_reserved":false,"is_disabled":false,"rental_uris":{"android":"levelo://app?vid=a46f118c-ca3e-41c1-a093-2530129f21b5","ios":"levelo://app?vid=a46f118c-ca3e-41c1-a093-2530129f21b5"},"vehicle_type_id":"4","last_reported":1739437786,"current_range_meters":24400,"station_id":"ce4bhi12rcd13ifvqfq0","pricing_plan_id":"cebpf4jnsgd1na2vs0mg"},{"bike_id":"8054137f-c573-408f-9225-3700b33ee09c","system_id":"levelo_inurba_marseille","lat":43.30281,"lon":5.36929,"is_reserved":false,"is_disabled":false,"rental_uris":{"android":"levelo://app?vid=8054137f-c573-408f-9225-3700b33ee09c","ios":"levelo://app?vid=8054137f-c573-408f-9225-3700b33ee09c"},"vehicle_type_id":"4","last_reported":1739437786,"current_range_meters":16000,"station_id":"ce4bgqh2rcd13ifvqc5g","pricing_plan_id":"cebpf4jnsgd1na2vs0mg"},{"bike_id":"2d79938e-d10e-45d3-ba07-b945d73be0b2","system_id":"levelo_inurba_marseille","lat":43.29783,"lon":5.39346,"is_reserved":false,"is_disabled":false,"rental_uris":{"android":"levelo://app?vid=2d79938e-d10e-45d3-ba07-b945d73be0b2","ios":"levelo://app?vid=2d79938e-d10e-45d3-ba07-b945d73be0b2"},"vehicle_type_id":"4","last_reported":1739437786,"current_range_meters":28000,"station_id":"chh1huq6cuj3fo74tm60","pricing_plan_id":"cebpf4jnsgd1na2vs0mg"},{"bike_id":"436d3abf-4b4e-47cc-808b-66f0620d4915","system_id":"levelo_inurba_marseille","lat":43.30907,"lon":5.36858,"is_reserved":false,"is_disabled":false,"rental_uris":{"android":"levelo://app?vid=436d3abf-4b4e-47cc-808b-66f0620d4915","ios":"levelo://app?vid=436d3abf-4b4e-47cc-808b-66f0620d4915"},"vehicle_type_id":"4","last_reported":1739437786,"current_range_meters":32000,"station_id":"ce4bgn92rcd13ifvqbvg","pricing_plan_id":"cebpf4jnsgd1na2vs0mg"},{"bike_id":"55fa0fd1-4793-4372-94cc-c9ee5bd4ca87","system_id":"levelo_inurba_marseille","lat":43.28686,"lon":5.38662,"is_reserved":false,"is_disabled":true,"rental_uris":{"android":"levelo://app?vid=55fa0fd1-4793-4372-94cc-c9ee5bd4ca87","ios":"levelo://app?vid=55fa0fd1-4793-4372-94cc-c9ee5bd4ca87"},"vehicle_type_id":"4","last_reported":1739437786,"current_range_meters":33600,"station_id":"ce4bh492rcd13ifvqdug","pricing_plan_id":"cebpf4jnsgd1na2vs0mg"},{"bike_id":"0876cf87-23b9-47ad-a446-660f1f709b34","system_id":"levelo_inurba_marseille","lat":43.25913,"lon":5.40892,"is_reserved":false,"is_disabled":false,"rental_uris":{"android":"levelo://app?vid=0876cf87-23b9-47ad-a446-660f1f709b34","ios":"levelo://app?vid=0876cf87-23b9-47ad-a446-660f1f709b34"},"vehicle_type_id":"4","last_reported":1739437786,"current_range_meters":38800,"station_id":"ce4bhm92rcd13ifvqglg","pricing_plan_id":"cebpf4jnsgd1na2vs0mg"},{"bike_id":"379a5608-bae7-4073-bc0d-fd88bf86b5be","system_id":"levelo_inurba_marseille","lat":43.25701,"lon":5.41123,"is_reserved":false,"is_disabled":false,"rental_uris":{"android":"levelo://app?vid=379a5608-bae7-4073-bc0d-fd88bf86b5be","ios":"levelo://app?vid=379a5608-bae7-4073-bc0d-fd88bf86b5be"},"vehicle_type_id":"4","last_reported":1739437786,"current_range_meters":38800,"station_id":"ce4bhkp2rcd13ifvqgd0","pricing_plan_id":"cebpf4jnsgd1na2vs0mg"},{"bike_id":"679b51a7-0864-4c79-a75b-8b937ab8b8fc","system_id":"levelo_inurba_marseille","lat":43.24547,"lon":5.39535,"is_reserved":false,"is_disabled":false,"rental_uris":{"android":"levelo://app?vid=679b51a7-0864-4c79-a75b-8b937ab8b8fc","ios":"levelo://app?vid=679b51a7-0864-4c79-a75b-8b937ab8b8fc"},"vehicle_type_id":"4","last_reported":1739437786,"current_range_meters":32400,"station_id":"ce4bhlp2rcd13ifvqgjg","pricing_plan_id":"cebpf4jnsgd1na2vs0mg"},{"bike_id":"03197daf-a8bc-458e-bc76-c614f0d2efea","system_id":"levelo_inurba_marseille","lat":43.26232,"lon":5.40447,"is_reserved":false,"is_disabled":false,"rental_uris":{"android":"levelo://app?vid=03197daf-a8bc-458e-bc76-c614f0d2efea","ios":"levelo://app?vid=03197daf-a8bc-458e-bc76-c614f0d2efea"},"vehicle_type_id":"4","last_reported":1739437786,"current_range_meters":6000,"station_id":"ce4bhmh2rcd13ifvqgmg","pricing_plan_id":"cebpf4jnsgd1na2vs0mg"},{"bike_id":"bc8d1112-ae53-4c38-adcb-f3293ac02832","system_id":"levelo_inurba_marseille","lat":43.29598,"lon":5.37413,"is_reserved":false,"is_disabled":false,"rental_uris":{"android":"levelo://app?vid=bc8d1112-ae53-4c38-adcb-f3293ac02832","ios":"levelo://app?vid=bc8d1112-ae53-4c38-adcb-f3293ac02832"},"vehicle_type_id":"4","last_reported":1739437786,"current_range_meters":12400,"station_id":"ce4bgh92rcd13ifvqb50","pricing_plan_id":"cebpf4jnsgd1na2vs0mg"},{"bike_id":"2c6d46bc-15d7-408b-8dbb-d8c4ad5bbf49","system_id":"levelo_inurba_marseille","lat":43.29741,"lon":5.37674,"is_reserved":false,"is_disabled":false,"rental_uris":{"android":"levelo://app?vid=2c6d46bc-15d7-408b-8dbb-d8c4ad5bbf49","ios":"levelo://app?vid=2c6d46bc-15d7-408b-8dbb-d8c4ad5bbf49"},"vehicle_type_id":"4","last_reported":1739437786,"current_range_meters":35600,"station_id":"ce4bgkh2rcd13ifvqbl0","pricing_plan_id":"cebpf4jnsgd1na2vs0mg"},{"bike_id":"a8db9a09-e196-4798-af4f-41e3d476e74e","system_id":"levelo_inurba_marseille","lat":43.27802,"lon":5.40743,"is_reserved":false,"is_disabled":false,"rental_uris":{"android":"levelo://app?vid=a8db9a09-e196-4798-af4f-41e3d476e74e","ios":"levelo://app?vid=a8db9a09-e196-4798-af4f-41e3d476e74e"},"vehicle_type_id":"4","last_reported":1739437786,"current_range_meters":34000,"station_id":"ce4bhnh2rcd13ifvqgtg","pricing_plan_id":"cebpf4jnsgd1na2vs0mg"},{"bike_id":"83f86852-939d-4ba2-8006-31400717194c","system_id":"levelo_inurba_marseille","lat":43.27817,"lon":5.40728,"is_reserved":false,"is_disabled":false,"rental_uris":{"android":"levelo://app?vid=83f86852-939d-4ba2-8006-31400717194c","ios":"levelo://app?vid=83f86852-939d-4ba2-8006-31400717194c"},"vehicle_type_id":"4","last_reported":1739437786,"current_range_meters":26800,"station_id":"ce4bhnh2rcd13ifvqgtg","pricing_plan_id":"cebpf4jnsgd1na2vs0mg"},{"bike_id":"981ea2ee-6b2f-4074-b60f-af968b54a537","system_id":"levelo_inurba_marseille","lat":43.26937,"lon":5.38917,"is_reserved":false,"is_disabled":false,"rental_uris":{"android":"levelo://app?vid=981ea2ee-6b2f-4074-b60f-af968b54a537","ios":"levelo://app?vid=981ea2ee-6b2f-4074-b60f-af968b54a537"},"vehicle_type_id":"4","last_reported":1739437786,"current_range_meters":24000,"station_id":"ce4bhhh2rcd13ifvqfl0","pricing_plan_id":"cebpf4jnsgd1na2vs0mg"},{"bike_id":"704ec19d-e7c0-4858-a423-dcfa560220a5","system_id":"levelo_inurba_marseille","lat":43.23188,"lon":5.39991,"is_reserved":false,"is_disabled":false,"rental_uris":{"android":"levelo://app?vid=704ec19d-e7c0-4858-a423-dcfa560220a5","ios":"levelo://app?vid=704ec19d-e7c0-4858-a423-dcfa560220a5"},"vehicle_type_id":"4","last_reported":1739437786,"current_range_meters":36800,"station_id":"ce4bhn12rcd13ifvqgqg","pricing_plan_id":"cebpf4jnsgd1na2vs0mg"},{"bike_id":"aa9010f5-ddb8-40ac-92f7-6cf7d13e88ae","system_id":"levelo_inurba_marseille","lat":43.26686,"lon":5.38275,"is_reserved":false,"is_disabled":true,"rental_uris":{"android":"levelo://app?vid=aa9010f5-ddb8-40ac-92f7-6cf7d13e88ae","ios":"levelo://app?vid=aa9010f5-ddb8-40ac-92f7-6cf7d13e88ae"},"vehicle_type_id":"4","last_reported":1739437786,"current_range_meters":38400,"station_id":"ce4bhg92rcd13ifvqf90","pricing_plan_id":"cebpf4jnsgd1na2vs0mg"},{"bike_id":"a963d31a-9d3b-4fa1-8726-ac466c109492","system_id":"levelo_inurba_marseille","lat":43.33597,"lon":5.41025,"is_reserved":false,"is_disabled":false,"rental_uris":{"android":"levelo://app?vid=a963d31a-9d3b-4fa1-8726-ac466c109492","ios":"levelo://app?vid=a963d31a-9d3b-4fa1-8726-ac466c109492"},"vehicle_type_id":"4","last_reported":1739437786,"current_range_meters":34000,"station_id":"ce4bhqh2rcd13ifvqhmg","pricing_plan_id":"cebpf4jnsgd1na2vs0mg"},{"bike_id":"7f922148-2ec9-4ffb-81da-2699ff8cc00b","system_id":"levelo_inurba_marseille","lat":43.2318,"lon":5.40001,"is_reserved":false,"is_disabled":false,"rental_uris":{"android":"levelo://app?vid=7f922148-2ec9-4ffb-81da-2699ff8cc00b","ios":"levelo://app?vid=7f922148-2ec9-4ffb-81da-2699ff8cc00b"},"vehicle_type_id":"4","last_reported":1739437786,"current_range_meters":38800,"station_id":"ce4bhn12rcd13ifvqgqg","pricing_plan_id":"cebpf4jnsgd1na2vs0mg"},{"bike_id":"8b301010-c1b7-4bf5-be73-26b4bca92fe7","system_id":"levelo_inurba_marseille","lat":43.24812,"lon":5.37457,"is_reserved":false,"is_disabled":false,"rental_uris":{"android":"levelo://app?vid=8b301010-c1b7-4bf5-be73-26b4bca92fe7","ios":"levelo://app?vid=8b301010-c1b7-4bf5-be73-26b4bca92fe7"},"vehicle_type_id":"4","last_reported":1739437786,"current_range_meters":21600,"station_id":"ce4bhgh2rcd13ifvqfb0","pricing_plan_id":"cebpf4jnsgd1na2vs0mg"},{"bike_id":"df7fbce5-46cc-4d7b-9035-fbd5759def8e","system_id":"levelo_inurba_marseille","lat":43.28437,"lon":5.39224,"is_reserved":false,"is_disabled":false,"rental_uris":{"android":"levelo://app?vid=df7fbce5-46cc-4d7b-9035-fbd5759def8e","ios":"levelo://app?vid=df7fbce5-46cc-4d7b-9035-fbd5759def8e"},"vehicle_type_id":"4","last_reported":1739437786,"current_range_meters":38800,"station_id":"ce4bhoh2rcd13ifvqh5g","pricing_plan_id":"cebpf4jnsgd1na2vs0mg"},{"bike_id":"775fb4a7-e4da-43c6-bb17-b77073a72814","system_id":"levelo_inurba_marseille","lat":43.25936,"lon":5.40909,"is_reserved":false,"is_disabled":false,"rental_uris":{"android":"levelo://app?vid=775fb4a7-e4da-43c6-bb17-b77073a72814","ios":"levelo://app?vid=775fb4a7-e4da-43c6-bb17-b77073a72814"},"vehicle_type_id":"4","last_reported":1739437786,"current_range_meters":32800,"station_id":"ce4bhm92rcd13ifvqglg","pricing_plan_id":"cebpf4jnsgd1na2vs0mg"},{"bike_id":"9cf8e6d9-67b8-441b-8ab4-08ef8560d2b0","system_id":"levelo_inurba_marseille","lat":43.33189,"lon":5.35576,"is_reserved":false,"is_disabled":false,"rental_uris":{"android":"levelo://app?vid=9cf8e6d9-67b8-441b-8ab4-08ef8560d2b0","ios":"levelo://app?vid=9cf8e6d9-67b8-441b-8ab4-08ef8560d2b0"},"vehicle_type_id":"4","last_reported":1739437786,"current_range_meters":6400,"station_id":"","pricing_plan_id":"cebpf4jnsgd1na2vs0mg"},{"bike_id":"d8b67452-476a-4a1d-b761-635b8f48fdff","system_id":"levelo_inurba_marseille","lat":43.31806,"lon":5.38957,"is_reserved":false,"is_disabled":false,"rental_uris":{"android":"levelo://app?vid=d8b67452-476a-4a1d-b761-635b8f48fdff","ios":"levelo://app?vid=d8b67452-476a-4a1d-b761-635b8f48fdff"},"vehicle_type_id":"4","last_reported":1739437786,"current_range_meters":35200,"station_id":"ce4bhqp2rcd13ifvqhng","pricing_plan_id":"cebpf4jnsgd1na2vs0mg"},{"bike_id":"3abedfca-25c6-4fd1-82d7-ebda09d1c9b5","system_id":"levelo_inurba_marseille","lat":43.30908,"lon":5.36857,"is_reserved":false,"is_disabled":false,"rental_uris":{"android":"levelo://app?vid=3abedfca-25c6-4fd1-82d7-ebda09d1c9b5","ios":"levelo://app?vid=3abedfca-25c6-4fd1-82d7-ebda09d1c9b5"},"vehicle_type_id":"4","last_reported":1739437786,"current_range_meters":37600,"station_id":"ce4bgn92rcd13ifvqbvg","pricing_plan_id":"cebpf4jnsgd1na2vs0mg"},{"bike_id":"73672ad0-aab9-42fb-bc4f-9f3ef24e20d5","system_id":"levelo_inurba_marseille","lat":43.24391,"lon":5.37055,"is_reserved":false,"is_disabled":false,"rental_uris":{"android":"levelo://app?vid=73672ad0-aab9-42fb-bc4f-9f3ef24e20d5","ios":"levelo://app?vid=73672ad0-aab9-42fb-bc4f-9f3ef24e20d5"},"vehicle_type_id":"4","last_reported":1739437786,"current_range_meters":35200,"station_id":"ce4bhhh2rcd13ifvqfk0","pricing_plan_id":"cebpf4jnsgd1na2vs0mg"},{"bike_id":"bc235a4c-617d-46ba-8c7a-21502f4b2aaf","system_id":"levelo_inurba_marseille","lat":43.23186,"lon":5.39977,"is_reserved":false,"is_disabled":false,"rental_uris":{"android":"levelo://app?vid=bc235a4c-617d-46ba-8c7a-21502f4b2aaf","ios":"levelo://app?vid=bc235a4c-617d-46ba-8c7a-21502f4b2aaf"},"vehicle_type_id":"4","last_reported":1739437786,"current_range_meters":17200,"station_id":"ce4bhn12rcd13ifvqgqg","pricing_plan_id":"cebpf4jnsgd1na2vs0mg"},{"bike_id":"7e4baaff-43df-45ac-ba99-60d4ee3b5a14","system_id":"levelo_inurba_marseille","lat":43.32439,"lon":5.3661,"is_reserved":false,"is_disabled":false,"rental_uris":{"android":"levelo://app?vid=7e4baaff-43df-45ac-ba99-60d4ee3b5a14","ios":"levelo://app?vid=7e4baaff-43df-45ac-ba99-60d4ee3b5a14"},"vehicle_type_id":"4","last_reported":1739437786,"current_range_meters":37600,"station_id":"ce4bhs12rcd13ifvqhvg","pricing_plan_id":"cebpf4jnsgd1na2vs0mg"},{"bike_id":"5bf7b31a-f643-4d39-ac8f-028588cb3b5d","system_id":"levelo_inurba_marseille","lat":43.24057,"lon":5.37771,"is_reserved":false,"is_disabled":false,"rental_uris":{"android":"levelo://app?vid=5bf7b31a-f643-4d39-ac8f-028588cb3b5d","ios":"levelo://app?vid=5bf7b31a-f643-4d39-ac8f-028588cb3b5d"},"vehicle_type_id":"4","last_reported":1739437786,"current_range_meters":38800,"station_id":"ce4bhnp2rcd13ifvqgvg","pricing_plan_id":"cebpf4jnsgd1na2vs0mg"},{"bike_id":"b03fd7e9-5604-4ddf-8507-029c6e1eb1c8","system_id":"levelo_inurba_marseille","lat":43.25913,"lon":5.4091,"is_reserved":false,"is_disabled":false,"rental_uris":{"android":"levelo://app?vid=b03fd7e9-5604-4ddf-8507-029c6e1eb1c8","ios":"levelo://app?vid=b03fd7e9-5604-4ddf-8507-029c6e1eb1c8"},"vehicle_type_id":"4","last_reported":1739437786,"current_range_meters":38800,"station_id":"ce4bhm92rcd13ifvqglg","pricing_plan_id":"cebpf4jnsgd1na2vs0mg"},{"bike_id":"51ab7186-5043-4bed-baca-73708608a302","system_id":"levelo_inurba_marseille","lat":43.29584,"lon":5.37026,"is_reserved":false,"is_disabled":true,"rental_uris":{"android":"levelo://app?vid=51ab7186-5043-4bed-baca-73708608a302","ios":"levelo://app?vid=51ab7186-5043-4bed-baca-73708608a302"},"vehicle_type_id":"4","last_reported":1739437786,"current_range_meters":0,"station_id":"","pricing_plan_id":"cebpf4jnsgd1na2vs0mg"},{"bike_id":"3805dbda-7f8b-42bc-88e5-790bc5dec4cf","system_id":"levelo_inurba_marseille","lat":43.30119,"lon":5.38811,"is_reserved":false,"is_disabled":true,"rental_uris":{"android":"levelo://app?vid=3805dbda-7f8b-42bc-88e5-790bc5dec4cf","ios":"levelo://app?vid=3805dbda-7f8b-42bc-88e5-790bc5dec4cf"},"vehicle_type_id":"4","last_reported":1739437786,"current_range_meters":38800,"station_id":"ce4bghh2rcd13ifvqb60","pricing_plan_id":"cebpf4jnsgd1na2vs0mg"},{"bike_id":"c2bdac20-a0f7-4f82-b642-0af1291d1fb8","system_id":"levelo_inurba_marseille","lat":43.31116,"lon":5.37763,"is_reserved":false,"is_disabled":false,"rental_uris":{"android":"levelo://app?vid=c2bdac20-a0f7-4f82-b642-0af1291d1fb8","ios":"levelo://app?vid=c2bdac20-a0f7-4f82-b642-0af1291d1fb8"},"vehicle_type_id":"4","last_reported":1739437786,"current_range_meters":27600,"station_id":"ce4bgt92rcd13ifvqcg0","pricing_plan_id":"cebpf4jnsgd1na2vs0mg"},{"bike_id":"58848a09-ca0a-4d84-bea7-e3a9d59d0740","system_id":"levelo_inurba_marseille","lat":43.31222,"lon":5.3686,"is_reserved":false,"is_disabled":false,"rental_uris":{"android":"levelo://app?vid=58848a09-ca0a-4d84-bea7-e3a9d59d0740","ios":"levelo://app?vid=58848a09-ca0a-4d84-bea7-e3a9d59d0740"},"vehicle_type_id":"4","last_reported":1739437786,"current_range_meters":26800,"station_id":"ce4bgl92rcd13ifvqbq0","pricing_plan_id":"cebpf4jnsgd1na2vs0mg"},{"bike_id":"d3fc5f7e-9983-4343-a9af-f36df7d45f29","system_id":"levelo_inurba_marseille","lat":43.23188,"lon":5.39978,"is_reserved":false,"is_disabled":false,"rental_uris":{"android":"levelo://app?vid=d3fc5f7e-9983-4343-a9af-f36df7d45f29","ios":"levelo://app?vid=d3fc5f7e-9983-4343-a9af-f36df7d45f29"},"vehicle_type_id":"4","last_reported":1739437786,"current_range_meters":24800,"station_id":"ce4bhn12rcd13ifvqgqg","pricing_plan_id":"cebpf4jnsgd1na2vs0mg"},{"bike_id":"9f273670-15eb-4b22-9f2f-8564846efece","system_id":"levelo_inurba_marseille","lat":43.30523,"lon":5.36539,"is_reserved":false,"is_disabled":false,"rental_uris":{"android":"levelo://app?vid=9f273670-15eb-4b22-9f2f-8564846efece","ios":"levelo://app?vid=9f273670-15eb-4b22-9f2f-8564846efece"},"vehicle_type_id":"4","last_reported":1739437786,"current_range_meters":39200,"station_id":"ce4bgs12rcd13ifvqcag","pricing_plan_id":"cebpf4jnsgd1na2vs0mg"},{"bike_id":"ed5be376-d944-4c2e-8646-34330dc15545","system_id":"levelo_inurba_marseille","lat":43.24067,"lon":5.37751,"is_reserved":false,"is_disabled":false,"rental_uris":{"android":"levelo://app?vid=ed5be376-d944-4c2e-8646-34330dc15545","ios":"levelo://app?vid=ed5be376-d944-4c2e-8646-34330dc15545"},"vehicle_type_id":"4","last_reported":1739437786,"current_range_meters":38800,"station_id":"ce4bhnp2rcd13ifvqgvg","pricing_plan_id":"cebpf4jnsgd1na2vs0mg"},{"bike_id":"c9355e7e-ea79-406f-9bd0-d9c9c75f0bdd","system_id":"levelo_inurba_marseille","lat":43.29529,"lon":5.3903,"is_reserved":false,"is_disabled":false,"rental_uris":{"android":"levelo://app?vid=c9355e7e-ea79-406f-9bd0-d9c9c75f0bdd","ios":"levelo://app?vid=c9355e7e-ea79-406f-9bd0-d9c9c75f0bdd"},"vehicle_type_id":"4","last_reported":1739437786,"current_range_meters":38800,"station_id":"ce4bh3p2rcd13ifvqdp0","pricing_plan_id":"cebpf4jnsgd1na2vs0mg"},{"bike_id":"ea956940-002b-4f91-ba19-ec5e520a98fd","system_id":"levelo_inurba_marseille","lat":43.25115,"lon":5.40323,"is_reserved":false,"is_disabled":false,"rental_uris":{"android":"levelo://app?vid=ea956940-002b-4f91-ba19-ec5e520a98fd","ios":"levelo://app?vid=ea956940-002b-4f91-ba19-ec5e520a98fd"},"vehicle_type_id":"4","last_reported":1739437786,"current_range_meters":24400,"station_id":"ce4bhlh2rcd13ifvqgig","pricing_plan_id":"cebpf4jnsgd1na2vs0mg"},{"bike_id":"de77abfa-6f74-40e9-8131-b7884eda37eb","system_id":"levelo_inurba_marseille","lat":43.29918,"lon":5.39412,"is_reserved":false,"is_disabled":false,"rental_uris":{"android":"levelo://app?vid=de77abfa-6f74-40e9-8131-b7884eda37eb","ios":"levelo://app?vid=de77abfa-6f74-40e9-8131-b7884eda37eb"},"vehicle_type_id":"4","last_reported":1739437786,"current_range_meters":22800,"station_id":"","pricing_plan_id":"cebpf4jnsgd1na2vs0mg"},{"bike_id":"1ca31b8c-9e59-466f-a067-f3a891cefc42","system_id":"levelo_inurba_marseille","lat":43.29521,"lon":5.39404,"is_reserved":false,"is_disabled":false,"rental_uris":{"android":"levelo://app?vid=1ca31b8c-9e59-466f-a067-f3a891cefc42","ios":"levelo://app?vid=1ca31b8c-9e59-466f-a067-f3a891cefc42"},"vehicle_type_id":"4","last_reported":1739437786,"current_range_meters":38800,"station_id":"ce4bh292rcd13ifvqdf0","pricing_plan_id":"cebpf4jnsgd1na2vs0mg"},{"bike_id":"cc52de08-6269-47c1-a07a-43a30514493b","system_id":"levelo_inurba_marseille","lat":43.30139,"lon":5.37415,"is_reserved":false,"is_disabled":false,"rental_uris":{"android":"levelo://app?vid=cc52de08-6269-47c1-a07a-43a30514493b","ios":"levelo://app?vid=cc52de08-6269-47c1-a07a-43a30514493b"},"vehicle_type_id":"4","last_reported":1739437786,"current_range_meters":32400,"station_id":"ce4bgs92rcd13ifvqcc0","pricing_plan_id":"cebpf4jnsgd1na2vs0mg"},{"bike_id":"ee079ffa-4416-4a91-bc98-3bd665acea3b","system_id":"levelo_inurba_marseille","lat":43.337304,"lon":5.391948,"is_reserved":false,"is_disabled":false,"rental_uris":{"android":"levelo://app?vid=ee079ffa-4416-4a91-bc98-3bd665acea3b","ios":"levelo://app?vid=ee079ffa-4416-4a91-bc98-3bd665acea3b"},"vehicle_type_id":"4","last_reported":1739437786,"current_range_meters":39200,"station_id":"ce4bhr92rcd13ifvqhsg","pricing_plan_id":"cebpf4jnsgd1na2vs0mg"},{"bike_id":"1fa82dc6-47d4-4356-bbca-393bf4461726","system_id":"levelo_inurba_marseille","lat":43.23955,"lon":5.36641,"is_reserved":false,"is_disabled":false,"rental_uris":{"android":"levelo://app?vid=1fa82dc6-47d4-4356-bbca-393bf4461726","ios":"levelo://app?vid=1fa82dc6-47d4-4356-bbca-393bf4461726"},"vehicle_type_id":"4","last_reported":1739437786,"current_range_meters":38800,"station_id":"ce4bhi12rcd13ifvqfp0","pricing_plan_id":"cebpf4jnsgd1na2vs0mg"},{"bike_id":"2355c6e5-09c3-4950-a7a8-dbebf456e6b5","system_id":"levelo_inurba_marseille","lat":43.30798,"lon":5.36686,"is_reserved":false,"is_disabled":false,"rental_uris":{"android":"levelo://app?vid=2355c6e5-09c3-4950-a7a8-dbebf456e6b5","ios":"levelo://app?vid=2355c6e5-09c3-4950-a7a8-dbebf456e6b5"},"vehicle_type_id":"4","last_reported":1739437786,"current_range_meters":23200,"station_id":"","pricing_plan_id":"cebpf4jnsgd1na2vs0mg"},{"bike_id":"0c236953-fa85-4107-b794-04c5d553375e","system_id":"levelo_inurba_marseille","lat":43.24811,"lon":5.37473,"is_reserved":false,"is_disabled":false,"rental_uris":{"android":"levelo://app?vid=0c236953-fa85-4107-b794-04c5d553375e","ios":"levelo://app?vid=0c236953-fa85-4107-b794-04c5d553375e"},"vehicle_type_id":"4","last_reported":1739437786,"current_range_meters":38800,"station_id":"ce4bhgh2rcd13ifvqfb0","pricing_plan_id":"cebpf4jnsgd1na2vs0mg"},{"bike_id":"3c49c1df-faee-4718-ab8d-b0222f6f1d2f","system_id":"levelo_inurba_marseille","lat":43.31302,"lon":5.40609,"is_reserved":false,"is_disabled":true,"rental_uris":{"android":"levelo://app?vid=3c49c1df-faee-4718-ab8d-b0222f6f1d2f","ios":"levelo://app?vid=3c49c1df-faee-4718-ab8d-b0222f6f1d2f"},"vehicle_type_id":"4","last_reported":1739437786,"current_range_meters":0,"station_id":"","pricing_plan_id":"cebpf4jnsgd1na2vs0mg"},{"bike_id":"f1877b9c-2b99-43eb-829e-ccf976e09f80","system_id":"levelo_inurba_marseille","lat":43.24383,"lon":5.37066,"is_reserved":false,"is_disabled":false,"rental_uris":{"android":"levelo://app?vid=f1877b9c-2b99-43eb-829e-ccf976e09f80","ios":"levelo://app?vid=f1877b9c-2b99-43eb-829e-ccf976e09f80"},"vehicle_type_id":"4","last_reported":1739437786,"current_range_meters":30400,"station_id":"ce4bhhh2rcd13ifvqfk0","pricing_plan_id":"cebpf4jnsgd1na2vs0mg"},{"bike_id":"73204b29-ec32-4146-8fea-bcca13682a2a","system_id":"levelo_inurba_marseille","lat":43.24807,"lon":5.37458,"is_reserved":false,"is_disabled":false,"rental_uris":{"android":"levelo://app?vid=73204b29-ec32-4146-8fea-bcca13682a2a","ios":"levelo://app?vid=73204b29-ec32-4146-8fea-bcca13682a2a"},"vehicle_type_id":"4","last_reported":1739437786,"current_range_meters":22800,"station_id":"ce4bhgh2rcd13ifvqfb0","pricing_plan_id":"cebpf4jnsgd1na2vs0mg"},{"bike_id":"476efa06-ff76-4710-9c45-8a07585e8d77","system_id":"levelo_inurba_marseille","lat":43.29556,"lon":5.42282,"is_reserved":false,"is_disabled":true,"rental_uris":{"android":"levelo://app?vid=476efa06-ff76-4710-9c45-8a07585e8d77","ios":"levelo://app?vid=476efa06-ff76-4710-9c45-8a07585e8d77"},"vehicle_type_id":"4","last_reported":1739437786,"current_range_meters":25600,"station_id":"ce4bhph2rcd13ifvqhdg","pricing_plan_id":"cebpf4jnsgd1na2vs0mg"},{"bike_id":"b85f089e-bcba-493c-8108-fb98e760e842","system_id":"levelo_inurba_marseille","lat":43.32484,"lon":5.36568,"is_reserved":false,"is_disabled":false,"rental_uris":{"android":"levelo://app?vid=b85f089e-bcba-493c-8108-fb98e760e842","ios":"levelo://app?vid=b85f089e-bcba-493c-8108-fb98e760e842"},"vehicle_type_id":"4","last_reported":1739437786,"current_range_meters":39200,"station_id":"ce4bhs12rcd13ifvqhvg","pricing_plan_id":"cebpf4jnsgd1na2vs0mg"},{"bike_id":"d1e6b517-b6c2-4320-8222-419cb00ef868","system_id":"levelo_inurba_marseille","lat":43.30303,"lon":5.36898,"is_reserved":false,"is_disabled":false,"rental_uris":{"android":"levelo://app?vid=d1e6b517-b6c2-4320-8222-419cb00ef868","ios":"levelo://app?vid=d1e6b517-b6c2-4320-8222-419cb00ef868"},"vehicle_type_id":"4","last_reported":1739437786,"current_range_meters":20400,"station_id":"ce4bgqh2rcd13ifvqc5g","pricing_plan_id":"cebpf4jnsgd1na2vs0mg"},{"bike_id":"3aa56574-ac16-400e-a4ad-514a7082ffbd","system_id":"levelo_inurba_marseille","lat":43.25492,"lon":5.37648,"is_reserved":false,"is_disabled":false,"rental_uris":{"android":"levelo://app?vid=3aa56574-ac16-400e-a4ad-514a7082ffbd","ios":"levelo://app?vid=3aa56574-ac16-400e-a4ad-514a7082ffbd"},"vehicle_type_id":"4","last_reported":1739437786,"current_range_meters":38000,"station_id":"ce4bhh12rcd13ifvqff0","pricing_plan_id":"cebpf4jnsgd1na2vs0mg"},{"bike_id":"28d12733-0b2b-4ca2-98aa-2a52ccb2f019","system_id":"levelo_inurba_marseille","lat":43.30309,"lon":5.36937,"is_reserved":false,"is_disabled":false,"rental_uris":{"android":"levelo://app?vid=28d12733-0b2b-4ca2-98aa-2a52ccb2f019","ios":"levelo://app?vid=28d12733-0b2b-4ca2-98aa-2a52ccb2f019"},"vehicle_type_id":"4","last_reported":1739437786,"current_range_meters":39200,"station_id":"ce4bgqh2rcd13ifvqc5g","pricing_plan_id":"cebpf4jnsgd1na2vs0mg"},{"bike_id":"d674d394-04ab-4838-a267-bcdd8affd803","system_id":"levelo_inurba_marseille","lat":43.30798,"lon":5.43526,"is_reserved":false,"is_disabled":false,"rental_uris":{"android":"levelo://app?vid=d674d394-04ab-4838-a267-bcdd8affd803","ios":"levelo://app?vid=d674d394-04ab-4838-a267-bcdd8affd803"},"vehicle_type_id":"4","last_reported":1739437786,"current_range_meters":38800,"station_id":"ce4bhph2rcd13ifvqheg","pricing_plan_id":"cebpf4jnsgd1na2vs0mg"},{"bike_id":"913e0512-8d5e-417e-a1c8-28b2a58a5297","system_id":"levelo_inurba_marseille","lat":43.304667,"lon":5.378971,"is_reserved":false,"is_disabled":false,"rental_uris":{"android":"levelo://app?vid=913e0512-8d5e-417e-a1c8-28b2a58a5297","ios":"levelo://app?vid=913e0512-8d5e-417e-a1c8-28b2a58a5297"},"vehicle_type_id":"4","last_reported":1739437786,"current_range_meters":39200,"station_id":"ce4bgup2rcd13ifvqcn0","pricing_plan_id":"cebpf4jnsgd1na2vs0mg"},{"bike_id":"4c240304-0447-4210-9848-9a342186a152","system_id":"levelo_inurba_marseille","lat":43.23197,"lon":5.35539,"is_reserved":false,"is_disabled":false,"rental_uris":{"android":"levelo://app?vid=4c240304-0447-4210-9848-9a342186a152","ios":"levelo://app?vid=4c240304-0447-4210-9848-9a342186a152"},"vehicle_type_id":"4","last_reported":1739437786,"current_range_meters":12000,"station_id":"ce4bhu92rcd13ifvqi70","pricing_plan_id":"cebpf4jnsgd1na2vs0mg"},{"bike_id":"3c972bc6-571f-4946-9dde-c7f43d4c71a0","system_id":"levelo_inurba_marseille","lat":43.32379,"lon":5.36689,"is_reserved":false,"is_disabled":false,"rental_uris":{"android":"levelo://app?vid=3c972bc6-571f-4946-9dde-c7f43d4c71a0","ios":"levelo://app?vid=3c972bc6-571f-4946-9dde-c7f43d4c71a0"},"vehicle_type_id":"4","last_reported":1739437786,"current_range_meters":25200,"station_id":"ce4bhs12rcd13ifvqhvg","pricing_plan_id":"cebpf4jnsgd1na2vs0mg"},{"bike_id":"5eef6852-455d-4fcb-8644-4ed32b8e22f4","system_id":"levelo_inurba_marseille","lat":43.25932,"lon":5.40911,"is_reserved":false,"is_disabled":true,"rental_uris":{"android":"levelo://app?vid=5eef6852-455d-4fcb-8644-4ed32b8e22f4","ios":"levelo://app?vid=5eef6852-455d-4fcb-8644-4ed32b8e22f4"},"vehicle_type_id":"4","last_reported":1739437786,"current_range_meters":38800,"station_id":"ce4bhm92rcd13ifvqglg","pricing_plan_id":"cebpf4jnsgd1na2vs0mg"},{"bike_id":"76ed4e97-7fa9-4836-bcd3-e52753ef31b4","system_id":"levelo_inurba_marseille","lat":43.29856,"lon":5.36299,"is_reserved":false,"is_disabled":false,"rental_uris":{"android":"levelo://app?vid=76ed4e97-7fa9-4836-bcd3-e52753ef31b4","ios":"levelo://app?vid=76ed4e97-7fa9-4836-bcd3-e52753ef31b4"},"vehicle_type_id":"4","last_reported":1739437786,"current_range_meters":37600,"station_id":"ce4bgpp2rcd13ifvqc3g","pricing_plan_id":"cebpf4jnsgd1na2vs0mg"},{"bike_id":"08a86ebb-b290-4f14-9520-6a5a716f26bd","system_id":"levelo_inurba_marseille","lat":43.23959,"lon":5.3663,"is_reserved":false,"is_disabled":false,"rental_uris":{"android":"levelo://app?vid=08a86ebb-b290-4f14-9520-6a5a716f26bd","ios":"levelo://app?vid=08a86ebb-b290-4f14-9520-6a5a716f26bd"},"vehicle_type_id":"4","last_reported":1739437786,"current_range_meters":38800,"station_id":"ce4bhi12rcd13ifvqfp0","pricing_plan_id":"cebpf4jnsgd1na2vs0mg"},{"bike_id":"60a53aa1-c3fc-4d44-9250-2f1552d66749","system_id":"levelo_inurba_marseille","lat":43.30461,"lon":5.37919,"is_reserved":false,"is_disabled":false,"rental_uris":{"android":"levelo://app?vid=60a53aa1-c3fc-4d44-9250-2f1552d66749","ios":"levelo://app?vid=60a53aa1-c3fc-4d44-9250-2f1552d66749"},"vehicle_type_id":"4","last_reported":1739437786,"current_range_meters":38800,"station_id":"ce4bgup2rcd13ifvqcn0","pricing_plan_id":"cebpf4jnsgd1na2vs0mg"},{"bike_id":"d32849cf-4c14-4032-9063-172d06d3f04f","system_id":"levelo_inurba_marseille","lat":43.231983,"lon":5.355473,"is_reserved":false,"is_disabled":false,"rental_uris":{"android":"levelo://app?vid=d32849cf-4c14-4032-9063-172d06d3f04f","ios":"levelo://app?vid=d32849cf-4c14-4032-9063-172d06d3f04f"},"vehicle_type_id":"4","last_reported":1739437786,"current_range_meters":28400,"station_id":"ce4bhu92rcd13ifvqi70","pricing_plan_id":"cebpf4jnsgd1na2vs0mg"},{"bike_id":"2ff86c0c-69fd-4294-8842-114f3593748f","system_id":"levelo_inurba_marseille","lat":43.3142,"lon":5.36662,"is_reserved":false,"is_disabled":true,"rental_uris":{"android":"levelo://app?vid=2ff86c0c-69fd-4294-8842-114f3593748f","ios":"levelo://app?vid=2ff86c0c-69fd-4294-8842-114f3593748f"},"vehicle_type_id":"4","last_reported":1739437786,"current_range_meters":32800,"station_id":"","pricing_plan_id":"cebpf4jnsgd1na2vs0mg"},{"bike_id":"77e60b2f-ce6b-4aae-a0a0-d5666429a96e","system_id":"levelo_inurba_marseille","lat":43.29077,"lon":5.37171,"is_reserved":false,"is_disabled":false,"rental_uris":{"android":"levelo://app?vid=77e60b2f-ce6b-4aae-a0a0-d5666429a96e","ios":"levelo://app?vid=77e60b2f-ce6b-4aae-a0a0-d5666429a96e"},"vehicle_type_id":"4","last_reported":1739437786,"current_range_meters":20800,"station_id":"ce4bh5p2rcd13ifvqe4g","pricing_plan_id":"cebpf4jnsgd1na2vs0mg"},{"bike_id":"d2341cb3-b365-4cee-886d-fc65b850bf5a","system_id":"levelo_inurba_marseille","lat":43.32062,"lon":5.36815,"is_reserved":false,"is_disabled":true,"rental_uris":{"android":"levelo://app?vid=d2341cb3-b365-4cee-886d-fc65b850bf5a","ios":"levelo://app?vid=d2341cb3-b365-4cee-886d-fc65b850bf5a"},"vehicle_type_id":"4","last_reported":1739437786,"current_range_meters":38400,"station_id":"ce4bhrh2rcd13ifvqhug","pricing_plan_id":"cebpf4jnsgd1na2vs0mg"},{"bike_id":"89b847eb-8b72-48a7-8017-2936b33a5c9b","system_id":"levelo_inurba_marseille","lat":43.27818,"lon":5.40699,"is_reserved":false,"is_disabled":false,"rental_uris":{"android":"levelo://app?vid=89b847eb-8b72-48a7-8017-2936b33a5c9b","ios":"levelo://app?vid=89b847eb-8b72-48a7-8017-2936b33a5c9b"},"vehicle_type_id":"4","last_reported":1739437786,"current_range_meters":20400,"station_id":"ce4bhnh2rcd13ifvqgtg","pricing_plan_id":"cebpf4jnsgd1na2vs0mg"},{"bike_id":"333565d4-d936-4c8b-8e39-38e602549b4f","system_id":"levelo_inurba_marseille","lat":43.33722,"lon":5.39195,"is_reserved":false,"is_disabled":false,"rental_uris":{"android":"levelo://app?vid=333565d4-d936-4c8b-8e39-38e602549b4f","ios":"levelo://app?vid=333565d4-d936-4c8b-8e39-38e602549b4f"},"vehicle_type_id":"4","last_reported":1739437786,"current_range_meters":35600,"station_id":"ce4bhr92rcd13ifvqhsg","pricing_plan_id":"cebpf4jnsgd1na2vs0mg"},{"bike_id":"0720224f-bce1-4028-8166-c7cf581646dc","system_id":"levelo_inurba_marseille","lat":43.313629,"lon":5.384932,"is_reserved":false,"is_disabled":false,"rental_uris":{"android":"levelo://app?vid=0720224f-bce1-4028-8166-c7cf581646dc","ios":"levelo://app?vid=0720224f-bce1-4028-8166-c7cf581646dc"},"vehicle_type_id":"4","last_reported":1739437786,"current_range_meters":38000,"station_id":"ce4bgt92rcd13ifvqcf0","pricing_plan_id":"cebpf4jnsgd1na2vs0mg"},{"bike_id":"280a6051-95ab-4183-8c70-acd1a1df3fe5","system_id":"levelo_inurba_marseille","lat":43.24388,"lon":5.3706,"is_reserved":false,"is_disabled":false,"rental_uris":{"android":"levelo://app?vid=280a6051-95ab-4183-8c70-acd1a1df3fe5","ios":"levelo://app?vid=280a6051-95ab-4183-8c70-acd1a1df3fe5"},"vehicle_type_id":"4","last_reported":1739437786,"current_range_meters":36800,"station_id":"ce4bhhh2rcd13ifvqfk0","pricing_plan_id":"cebpf4jnsgd1na2vs0mg"},{"bike_id":"24d2a29b-fa24-4c85-a726-541b11d56bc0","system_id":"levelo_inurba_marseille","lat":43.31377,"lon":5.36708,"is_reserved":false,"is_disabled":false,"rental_uris":{"android":"levelo://app?vid=24d2a29b-fa24-4c85-a726-541b11d56bc0","ios":"levelo://app?vid=24d2a29b-fa24-4c85-a726-541b11d56bc0"},"vehicle_type_id":"4","last_reported":1739437786,"current_range_meters":38400,"station_id":"ce4bgr92rcd13ifvqc6g","pricing_plan_id":"cebpf4jnsgd1na2vs0mg"},{"bike_id":"c421a42d-2002-4311-8d59-3994041711c6","system_id":"levelo_inurba_marseille","lat":43.24067,"lon":5.37762,"is_reserved":false,"is_disabled":false,"rental_uris":{"android":"levelo://app?vid=c421a42d-2002-4311-8d59-3994041711c6","ios":"levelo://app?vid=c421a42d-2002-4311-8d59-3994041711c6"},"vehicle_type_id":"4","last_reported":1739437786,"current_range_meters":38800,"station_id":"ce4bhnp2rcd13ifvqgvg","pricing_plan_id":"cebpf4jnsgd1na2vs0mg"},{"bike_id":"d3ae4d79-e06b-45b4-b75f-6a337e7717f6","system_id":"levelo_inurba_marseille","lat":43.30914,"lon":5.36855,"is_reserved":false,"is_disabled":false,"rental_uris":{"android":"levelo://app?vid=d3ae4d79-e06b-45b4-b75f-6a337e7717f6","ios":"levelo://app?vid=d3ae4d79-e06b-45b4-b75f-6a337e7717f6"},"vehicle_type_id":"4","last_reported":1739437786,"current_range_meters":28000,"station_id":"ce4bgn92rcd13ifvqbvg","pricing_plan_id":"cebpf4jnsgd1na2vs0mg"},{"bike_id":"f0195f21-e6c5-42cd-95a8-243cbb17e446","system_id":"levelo_inurba_marseille","lat":43.336119,"lon":5.410301,"is_reserved":false,"is_disabled":false,"rental_uris":{"android":"levelo://app?vid=f0195f21-e6c5-42cd-95a8-243cbb17e446","ios":"levelo://app?vid=f0195f21-e6c5-42cd-95a8-243cbb17e446"},"vehicle_type_id":"4","last_reported":1739437786,"current_range_meters":39200,"station_id":"ce4bhqh2rcd13ifvqhmg","pricing_plan_id":"cebpf4jnsgd1na2vs0mg"},{"bike_id":"14b2070b-6ddc-42e3-b1e8-9c0cbc081f72","system_id":"levelo_inurba_marseille","lat":43.337289,"lon":5.391897,"is_reserved":false,"is_disabled":false,"rental_uris":{"android":"levelo://app?vid=14b2070b-6ddc-42e3-b1e8-9c0cbc081f72","ios":"levelo://app?vid=14b2070b-6ddc-42e3-b1e8-9c0cbc081f72"},"vehicle_type_id":"4","last_reported":1739437786,"current_range_meters":38800,"station_id":"ce4bhr92rcd13ifvqhsg","pricing_plan_id":"cebpf4jnsgd1na2vs0mg"},{"bike_id":"a63b3dbf-2ec7-4c27-8651-82243ede9ec2","system_id":"levelo_inurba_marseille","lat":43.29708,"lon":5.37688,"is_reserved":false,"is_disabled":false,"rental_uris":{"android":"levelo://app?vid=a63b3dbf-2ec7-4c27-8651-82243ede9ec2","ios":"levelo://app?vid=a63b3dbf-2ec7-4c27-8651-82243ede9ec2"},"vehicle_type_id":"4","last_reported":1739437786,"current_range_meters":27600,"station_id":"ce4bgkh2rcd13ifvqbl0","pricing_plan_id":"cebpf4jnsgd1na2vs0mg"},{"bike_id":"39caa847-b837-4440-a510-689edd01525f","system_id":"levelo_inurba_marseille","lat":43.23959,"lon":5.36631,"is_reserved":false,"is_disabled":false,"rental_uris":{"android":"levelo://app?vid=39caa847-b837-4440-a510-689edd01525f","ios":"levelo://app?vid=39caa847-b837-4440-a510-689edd01525f"},"vehicle_type_id":"4","last_reported":1739437786,"current_range_meters":25200,"station_id":"ce4bhi12rcd13ifvqfp0","pricing_plan_id":"cebpf4jnsgd1na2vs0mg"},{"bike_id":"90069231-8d02-46fd-ba3f-d8e7e83900ee","system_id":"levelo_inurba_marseille","lat":43.28847,"lon":5.43809,"is_reserved":false,"is_disabled":true,"rental_uris":{"android":"levelo://app?vid=90069231-8d02-46fd-ba3f-d8e7e83900ee","ios":"levelo://app?vid=90069231-8d02-46fd-ba3f-d8e7e83900ee"},"vehicle_type_id":"4","last_reported":1739437786,"current_range_meters":0,"station_id":"","pricing_plan_id":"cebpf4jnsgd1na2vs0mg"},{"bike_id":"d9eebae9-2f5a-4625-9943-9a56702e61a6","system_id":"levelo_inurba_marseille","lat":43.30497,"lon":5.37893,"is_reserved":false,"is_disabled":false,"rental_uris":{"android":"levelo://app?vid=d9eebae9-2f5a-4625-9943-9a56702e61a6","ios":"levelo://app?vid=d9eebae9-2f5a-4625-9943-9a56702e61a6"},"vehicle_type_id":"4","last_reported":1739437786,"current_range_meters":38800,"station_id":"ce4bgup2rcd13ifvqcn0","pricing_plan_id":"cebpf4jnsgd1na2vs0mg"},{"bike_id":"02d4d811-6e8e-4705-b31c-397c1d3dc54e","system_id":"levelo_inurba_marseille","lat":43.27056,"lon":5.42269,"is_reserved":false,"is_disabled":false,"rental_uris":{"android":"levelo://app?vid=02d4d811-6e8e-4705-b31c-397c1d3dc54e","ios":"levelo://app?vid=02d4d811-6e8e-4705-b31c-397c1d3dc54e"},"vehicle_type_id":"4","last_reported":1739437786,"current_range_meters":38000,"station_id":"ce4bhk92rcd13ifvqgb0","pricing_plan_id":"cebpf4jnsgd1na2vs0mg"},{"bike_id":"16bd5de3-5f64-415a-a506-b81ecdd5d1e8","system_id":"levelo_inurba_marseille","lat":43.31185,"lon":5.36924,"is_reserved":false,"is_disabled":false,"rental_uris":{"android":"levelo://app?vid=16bd5de3-5f64-415a-a506-b81ecdd5d1e8","ios":"levelo://app?vid=16bd5de3-5f64-415a-a506-b81ecdd5d1e8"},"vehicle_type_id":"4","last_reported":1739437786,"current_range_meters":34000,"station_id":"ce4bgl92rcd13ifvqbq0","pricing_plan_id":"cebpf4jnsgd1na2vs0mg"},{"bike_id":"00053a72-9207-4b4c-b59b-20606453610f","system_id":"levelo_inurba_marseille","lat":43.32461,"lon":5.36557,"is_reserved":false,"is_disabled":false,"rental_uris":{"android":"levelo://app?vid=00053a72-9207-4b4c-b59b-20606453610f","ios":"levelo://app?vid=00053a72-9207-4b4c-b59b-20606453610f"},"vehicle_type_id":"4","last_reported":1739437786,"current_range_meters":32000,"station_id":"ce4bhs12rcd13ifvqhvg","pricing_plan_id":"cebpf4jnsgd1na2vs0mg"},{"bike_id":"27a1dde1-97d4-4101-ac97-48a2e3dd8af4","system_id":"levelo_inurba_marseille","lat":43.28432,"lon":5.39197,"is_reserved":false,"is_disabled":false,"rental_uris":{"android":"levelo://app?vid=27a1dde1-97d4-4101-ac97-48a2e3dd8af4","ios":"levelo://app?vid=27a1dde1-97d4-4101-ac97-48a2e3dd8af4"},"vehicle_type_id":"4","last_reported":1739437786,"current_range_meters":38000,"station_id":"ce4bhoh2rcd13ifvqh5g","pricing_plan_id":"cebpf4jnsgd1na2vs0mg"},{"bike_id":"acd088e7-dc82-4cb8-8e19-47754c61567c","system_id":"levelo_inurba_marseille","lat":43.31381,"lon":5.36735,"is_reserved":false,"is_disabled":false,"rental_uris":{"android":"levelo://app?vid=acd088e7-dc82-4cb8-8e19-47754c61567c","ios":"levelo://app?vid=acd088e7-dc82-4cb8-8e19-47754c61567c"},"vehicle_type_id":"4","last_reported":1739437786,"current_range_meters":30000,"station_id":"","pricing_plan_id":"cebpf4jnsgd1na2vs0mg"},{"bike_id":"5e18cfea-941b-48ff-890d-a1f4908301e6","system_id":"levelo_inurba_marseille","lat":43.2572,"lon":5.41101,"is_reserved":false,"is_disabled":false,"rental_uris":{"android":"levelo://app?vid=5e18cfea-941b-48ff-890d-a1f4908301e6","ios":"levelo://app?vid=5e18cfea-941b-48ff-890d-a1f4908301e6"},"vehicle_type_id":"4","last_reported":1739437786,"current_range_meters":38000,"station_id":"ce4bhkp2rcd13ifvqgd0","pricing_plan_id":"cebpf4jnsgd1na2vs0mg"},{"bike_id":"304880fa-faca-4371-bf06-52f12d04636e","system_id":"levelo_inurba_marseille","lat":43.31476,"lon":5.3731,"is_reserved":false,"is_disabled":true,"rental_uris":{"android":"levelo://app?vid=304880fa-faca-4371-bf06-52f12d04636e","ios":"levelo://app?vid=304880fa-faca-4371-bf06-52f12d04636e"},"vehicle_type_id":"4","last_reported":1739437786,"current_range_meters":1600,"station_id":"ce4bgt12rcd13ifvqcd0","pricing_plan_id":"cebpf4jnsgd1na2vs0mg"},{"bike_id":"12a72a5b-6a8e-4f16-bf69-fdfe87e75f67","system_id":"levelo_inurba_marseille","lat":43.30457,"lon":5.37907,"is_reserved":false,"is_disabled":false,"rental_uris":{"android":"levelo://app?vid=12a72a5b-6a8e-4f16-bf69-fdfe87e75f67","ios":"levelo://app?vid=12a72a5b-6a8e-4f16-bf69-fdfe87e75f67"},"vehicle_type_id":"4","last_reported":1739437786,"current_range_meters":38800,"station_id":"ce4bgup2rcd13ifvqcn0","pricing_plan_id":"cebpf4jnsgd1na2vs0mg"},{"bike_id":"70617585-289d-477e-b3bd-01213e273ed0","system_id":"levelo_inurba_marseille","lat":43.2481,"lon":5.37451,"is_reserved":false,"is_disabled":false,"rental_uris":{"android":"levelo://app?vid=70617585-289d-477e-b3bd-01213e273ed0","ios":"levelo://app?vid=70617585-289d-477e-b3bd-01213e273ed0"},"vehicle_type_id":"4","last_reported":1739437786,"current_range_meters":37600,"station_id":"ce4bhgh2rcd13ifvqfb0","pricing_plan_id":"cebpf4jnsgd1na2vs0mg"},{"bike_id":"7b35ec91-75d0-476a-8303-ae83c6d3cb50","system_id":"levelo_inurba_marseille","lat":43.248,"lon":5.37466,"is_reserved":false,"is_disabled":false,"rental_uris":{"android":"levelo://app?vid=7b35ec91-75d0-476a-8303-ae83c6d3cb50","ios":"levelo://app?vid=7b35ec91-75d0-476a-8303-ae83c6d3cb50"},"vehicle_type_id":"4","last_reported":1739437786,"current_range_meters":38800,"station_id":"ce4bhgh2rcd13ifvqfb0","pricing_plan_id":"cebpf4jnsgd1na2vs0mg"},{"bike_id":"94a1fe7e-a459-4400-9162-bfbba846c26a","system_id":"levelo_inurba_marseille","lat":43.27163,"lon":5.40997,"is_reserved":false,"is_disabled":false,"rental_uris":{"android":"levelo://app?vid=94a1fe7e-a459-4400-9162-bfbba846c26a","ios":"levelo://app?vid=94a1fe7e-a459-4400-9162-bfbba846c26a"},"vehicle_type_id":"4","last_reported":1739437786,"current_range_meters":38800,"station_id":"ce4bhl12rcd13ifvqgf0","pricing_plan_id":"cebpf4jnsgd1na2vs0mg"},{"bike_id":"8ef88fad-304a-4cbf-8a48-0c7bb01aeee8","system_id":"levelo_inurba_marseille","lat":43.29503,"lon":5.37509,"is_reserved":false,"is_disabled":false,"rental_uris":{"android":"levelo://app?vid=8ef88fad-304a-4cbf-8a48-0c7bb01aeee8","ios":"levelo://app?vid=8ef88fad-304a-4cbf-8a48-0c7bb01aeee8"},"vehicle_type_id":"4","last_reported":1739437786,"current_range_meters":38000,"station_id":"ce4bgkp2rcd13ifvqbmg","pricing_plan_id":"cebpf4jnsgd1na2vs0mg"},{"bike_id":"0bb74977-bdfe-4159-ba67-be7e22ae2761","system_id":"levelo_inurba_marseille","lat":43.2962,"lon":5.38086,"is_reserved":false,"is_disabled":true,"rental_uris":{"android":"levelo://app?vid=0bb74977-bdfe-4159-ba67-be7e22ae2761","ios":"levelo://app?vid=0bb74977-bdfe-4159-ba67-be7e22ae2761"},"vehicle_type_id":"4","last_reported":1739437786,"current_range_meters":37600,"station_id":"ce4bgl12rcd13ifvqbo0","pricing_plan_id":"cebpf4jnsgd1na2vs0mg"},{"bike_id":"7fc783a9-e2c2-438a-9e0c-07b3b66395a9","system_id":"levelo_inurba_marseille","lat":43.29776,"lon":5.39368,"is_reserved":false,"is_disabled":false,"rental_uris":{"android":"levelo://app?vid=7fc783a9-e2c2-438a-9e0c-07b3b66395a9","ios":"levelo://app?vid=7fc783a9-e2c2-438a-9e0c-07b3b66395a9"},"vehicle_type_id":"4","last_reported":1739437786,"current_range_meters":20800,"station_id":"chh1huq6cuj3fo74tm60","pricing_plan_id":"cebpf4jnsgd1na2vs0mg"},{"bike_id":"746bd82f-b444-4f0e-bbcf-06757cdf85d8","system_id":"levelo_inurba_marseille","lat":43.24664,"lon":5.38158,"is_reserved":false,"is_disabled":true,"rental_uris":{"android":"levelo://app?vid=746bd82f-b444-4f0e-bbcf-06757cdf85d8","ios":"levelo://app?vid=746bd82f-b444-4f0e-bbcf-06757cdf85d8"},"vehicle_type_id":"4","last_reported":1739437786,"current_range_meters":32000,"station_id":"ce4bhih2rcd13ifvqfr0","pricing_plan_id":"cebpf4jnsgd1na2vs0mg"},{"bike_id":"8fa2c838-e786-432d-89c0-ea57bc9058f2","system_id":"levelo_inurba_marseille","lat":43.26194,"lon":5.37455,"is_reserved":false,"is_disabled":false,"rental_uris":{"android":"levelo://app?vid=8fa2c838-e786-432d-89c0-ea57bc9058f2","ios":"levelo://app?vid=8fa2c838-e786-432d-89c0-ea57bc9058f2"},"vehicle_type_id":"4","last_reported":1739437786,"current_range_meters":38000,"station_id":"ce4bhgp2rcd13ifvqfc0","pricing_plan_id":"cebpf4jnsgd1na2vs0mg"},{"bike_id":"c2250f20-2283-4e17-b7ce-382f2f740aa1","system_id":"levelo_inurba_marseille","lat":43.24811,"lon":5.37448,"is_reserved":false,"is_disabled":false,"rental_uris":{"android":"levelo://app?vid=c2250f20-2283-4e17-b7ce-382f2f740aa1","ios":"levelo://app?vid=c2250f20-2283-4e17-b7ce-382f2f740aa1"},"vehicle_type_id":"4","last_reported":1739437786,"current_range_meters":38800,"station_id":"ce4bhgh2rcd13ifvqfb0","pricing_plan_id":"cebpf4jnsgd1na2vs0mg"},{"bike_id":"0603b9e7-3602-4079-a5d2-708141588b3b","system_id":"levelo_inurba_marseille","lat":43.28989,"lon":5.37834,"is_reserved":false,"is_disabled":false,"rental_uris":{"android":"levelo://app?vid=0603b9e7-3602-4079-a5d2-708141588b3b","ios":"levelo://app?vid=0603b9e7-3602-4079-a5d2-708141588b3b"},"vehicle_type_id":"4","last_reported":1739437786,"current_range_meters":28400,"station_id":"ce4bh9p2rcd13ifvqed0","pricing_plan_id":"cebpf4jnsgd1na2vs0mg"},{"bike_id":"45c45ae2-e1df-4277-80aa-633f0f8bf8a2","system_id":"levelo_inurba_marseille","lat":43.28857,"lon":5.35839,"is_reserved":false,"is_disabled":false,"rental_uris":{"android":"levelo://app?vid=45c45ae2-e1df-4277-80aa-633f0f8bf8a2","ios":"levelo://app?vid=45c45ae2-e1df-4277-80aa-633f0f8bf8a2"},"vehicle_type_id":"4","last_reported":1739437786,"current_range_meters":8000,"station_id":"ce4bhb12rcd13ifvqem0","pricing_plan_id":"cebpf4jnsgd1na2vs0mg"},{"bike_id":"d1ca47a4-4f95-4fe7-8197-2b6a9f50b586","system_id":"levelo_inurba_marseille","lat":43.29018,"lon":5.38133,"is_reserved":false,"is_disabled":false,"rental_uris":{"android":"levelo://app?vid=d1ca47a4-4f95-4fe7-8197-2b6a9f50b586","ios":"levelo://app?vid=d1ca47a4-4f95-4fe7-8197-2b6a9f50b586"},"vehicle_type_id":"4","last_reported":1739437786,"current_range_meters":27200,"station_id":"ce4bh4p2rcd13ifvqe1g","pricing_plan_id":"cebpf4jnsgd1na2vs0mg"},{"bike_id":"606b880a-d89b-4a11-a0e7-f33eb4a6d328","system_id":"levelo_inurba_marseille","lat":43.29047,"lon":5.39936,"is_reserved":false,"is_disabled":false,"rental_uris":{"android":"levelo://app?vid=606b880a-d89b-4a11-a0e7-f33eb4a6d328","ios":"levelo://app?vid=606b880a-d89b-4a11-a0e7-f33eb4a6d328"},"vehicle_type_id":"4","last_reported":1739437786,"current_range_meters":24000,"station_id":"ce4bh392rcd13ifvqdm0","pricing_plan_id":"cebpf4jnsgd1na2vs0mg"},{"bike_id":"492e558b-0ce5-4984-b6b1-1d33f225a96b","system_id":"levelo_inurba_marseille","lat":43.24166,"lon":5.36402,"is_reserved":false,"is_disabled":false,"rental_uris":{"android":"levelo://app?vid=492e558b-0ce5-4984-b6b1-1d33f225a96b","ios":"levelo://app?vid=492e558b-0ce5-4984-b6b1-1d33f225a96b"},"vehicle_type_id":"4","last_reported":1739437786,"current_range_meters":8000,"station_id":"cpo36qri1sfpv3e86is0","pricing_plan_id":"cebpf4jnsgd1na2vs0mg"},{"bike_id":"60352018-711b-489c-a69c-d4f8f08b0a26","system_id":"levelo_inurba_marseille","lat":43.30138,"lon":5.37415,"is_reserved":false,"is_disabled":false,"rental_uris":{"android":"levelo://app?vid=60352018-711b-489c-a69c-d4f8f08b0a26","ios":"levelo://app?vid=60352018-711b-489c-a69c-d4f8f08b0a26"},"vehicle_type_id":"4","last_reported":1739437786,"current_range_meters":13600,"station_id":"ce4bgs92rcd13ifvqcc0","pricing_plan_id":"cebpf4jnsgd1na2vs0mg"},{"bike_id":"c6ab2079-aa0d-4c6d-8608-a1cea0571a2d","system_id":"levelo_inurba_marseille","lat":43.32663,"lon":5.43075,"is_reserved":false,"is_disabled":false,"rental_uris":{"android":"levelo://app?vid=c6ab2079-aa0d-4c6d-8608-a1cea0571a2d","ios":"levelo://app?vid=c6ab2079-aa0d-4c6d-8608-a1cea0571a2d"},"vehicle_type_id":"4","last_reported":1739437786,"current_range_meters":37600,"station_id":"","pricing_plan_id":"cebpf4jnsgd1na2vs0mg"},{"bike_id":"8455191a-ef21-4fdf-87ff-7349e5e84aa7","system_id":"levelo_inurba_marseille","lat":43.33601,"lon":5.41037,"is_reserved":false,"is_disabled":false,"rental_uris":{"android":"levelo://app?vid=8455191a-ef21-4fdf-87ff-7349e5e84aa7","ios":"levelo://app?vid=8455191a-ef21-4fdf-87ff-7349e5e84aa7"},"vehicle_type_id":"4","last_reported":1739437786,"current_range_meters":2800,"station_id":"ce4bhqh2rcd13ifvqhmg","pricing_plan_id":"cebpf4jnsgd1na2vs0mg"},{"bike_id":"bcb118e3-504a-4d57-82aa-a2840fbf518c","system_id":"levelo_inurba_marseille","lat":43.302573,"lon":5.37718,"is_reserved":false,"is_disabled":false,"rental_uris":{"android":"levelo://app?vid=bcb118e3-504a-4d57-82aa-a2840fbf518c","ios":"levelo://app?vid=bcb118e3-504a-4d57-82aa-a2840fbf518c"},"vehicle_type_id":"4","last_reported":1739437786,"current_range_meters":39200,"station_id":"ce4bguh2rcd13ifvqcj0","pricing_plan_id":"cebpf4jnsgd1na2vs0mg"},{"bike_id":"6258e9b2-17a7-48cb-aa3e-155109fda8aa","system_id":"levelo_inurba_marseille","lat":43.27796,"lon":5.40739,"is_reserved":false,"is_disabled":false,"rental_uris":{"android":"levelo://app?vid=6258e9b2-17a7-48cb-aa3e-155109fda8aa","ios":"levelo://app?vid=6258e9b2-17a7-48cb-aa3e-155109fda8aa"},"vehicle_type_id":"4","last_reported":1739437786,"current_range_meters":34800,"station_id":"ce4bhnh2rcd13ifvqgtg","pricing_plan_id":"cebpf4jnsgd1na2vs0mg"},{"bike_id":"f15a5a6a-8b48-4682-9d36-8df28ad14388","system_id":"levelo_inurba_marseille","lat":43.30276,"lon":5.36979,"is_reserved":false,"is_disabled":false,"rental_uris":{"android":"levelo://app?vid=f15a5a6a-8b48-4682-9d36-8df28ad14388","ios":"levelo://app?vid=f15a5a6a-8b48-4682-9d36-8df28ad14388"},"vehicle_type_id":"4","last_reported":1739437786,"current_range_meters":38800,"station_id":"","pricing_plan_id":"cebpf4jnsgd1na2vs0mg"},{"bike_id":"9ca15d3b-ba9a-4073-8d6f-7a5850909f50","system_id":"levelo_inurba_marseille","lat":43.30285,"lon":5.37711,"is_reserved":false,"is_disabled":false,"rental_uris":{"android":"levelo://app?vid=9ca15d3b-ba9a-4073-8d6f-7a5850909f50","ios":"levelo://app?vid=9ca15d3b-ba9a-4073-8d6f-7a5850909f50"},"vehicle_type_id":"4","last_reported":1739437786,"current_range_meters":38800,"station_id":"ce4bguh2rcd13ifvqcj0","pricing_plan_id":"cebpf4jnsgd1na2vs0mg"},{"bike_id":"e2d93e0d-7395-446d-8d1a-7af27d05116e","system_id":"levelo_inurba_marseille","lat":43.26554,"lon":5.37283,"is_reserved":false,"is_disabled":false,"rental_uris":{"android":"levelo://app?vid=e2d93e0d-7395-446d-8d1a-7af27d05116e","ios":"levelo://app?vid=e2d93e0d-7395-446d-8d1a-7af27d05116e"},"vehicle_type_id":"4","last_reported":1739437786,"current_range_meters":28400,"station_id":"ce4bhg12rcd13ifvqf70","pricing_plan_id":"cebpf4jnsgd1na2vs0mg"},{"bike_id":"fa094bf9-1d6a-4ba6-aa88-1151a5efd2ad","system_id":"levelo_inurba_marseille","lat":43.30531,"lon":5.36708,"is_reserved":false,"is_disabled":false,"rental_uris":{"android":"levelo://app?vid=fa094bf9-1d6a-4ba6-aa88-1151a5efd2ad","ios":"levelo://app?vid=fa094bf9-1d6a-4ba6-aa88-1151a5efd2ad"},"vehicle_type_id":"4","last_reported":1739437786,"current_range_meters":6400,"station_id":"ce4bgrp2rcd13ifvqc9g","pricing_plan_id":"cebpf4jnsgd1na2vs0mg"},{"bike_id":"786687c7-e4ff-4ff9-8656-9627b4ede65e","system_id":"levelo_inurba_marseille","lat":43.26677,"lon":5.38329,"is_reserved":false,"is_disabled":true,"rental_uris":{"android":"levelo://app?vid=786687c7-e4ff-4ff9-8656-9627b4ede65e","ios":"levelo://app?vid=786687c7-e4ff-4ff9-8656-9627b4ede65e"},"vehicle_type_id":"4","last_reported":1739437786,"current_range_meters":39200,"station_id":"ce4bhg92rcd13ifvqf90","pricing_plan_id":"cebpf4jnsgd1na2vs0mg"},{"bike_id":"08634a18-9b40-4dde-a0fd-26d520c0b308","system_id":"levelo_inurba_marseille","lat":43.29274,"lon":5.40123,"is_reserved":false,"is_disabled":false,"rental_uris":{"android":"levelo://app?vid=08634a18-9b40-4dde-a0fd-26d520c0b308","ios":"levelo://app?vid=08634a18-9b40-4dde-a0fd-26d520c0b308"},"vehicle_type_id":"4","last_reported":1739437786,"current_range_meters":24000,"station_id":"ce4bh312rcd13ifvqdk0","pricing_plan_id":"cebpf4jnsgd1na2vs0mg"},{"bike_id":"d3b08dc3-c275-4205-81ec-92c19cf71022","system_id":"levelo_inurba_marseille","lat":43.25006,"lon":5.3894,"is_reserved":false,"is_disabled":false,"rental_uris":{"android":"levelo://app?vid=d3b08dc3-c275-4205-81ec-92c19cf71022","ios":"levelo://app?vid=d3b08dc3-c275-4205-81ec-92c19cf71022"},"vehicle_type_id":"4","last_reported":1739437786,"current_range_meters":36000,"station_id":"ce4bhgp2rcd13ifvqfd0","pricing_plan_id":"cebpf4jnsgd1na2vs0mg"},{"bike_id":"ddf15ab0-51a2-4077-bb64-1e3061630adb","system_id":"levelo_inurba_marseille","lat":43.25118,"lon":5.40326,"is_reserved":false,"is_disabled":true,"rental_uris":{"android":"levelo://app?vid=ddf15ab0-51a2-4077-bb64-1e3061630adb","ios":"levelo://app?vid=ddf15ab0-51a2-4077-bb64-1e3061630adb"},"vehicle_type_id":"4","last_reported":1739437786,"current_range_meters":17200,"station_id":"ce4bhlh2rcd13ifvqgig","pricing_plan_id":"cebpf4jnsgd1na2vs0mg"},{"bike_id":"55780c50-6a84-4e88-bef1-f348e4c19a48","system_id":"levelo_inurba_marseille","lat":43.311791,"lon":5.387203,"is_reserved":false,"is_disabled":true,"rental_uris":{"android":"levelo://app?vid=55780c50-6a84-4e88-bef1-f348e4c19a48","ios":"levelo://app?vid=55780c50-6a84-4e88-bef1-f348e4c19a48"},"vehicle_type_id":"4","last_reported":1739437786,"current_range_meters":33600,"station_id":"ce4bgv12rcd13ifvqcp0","pricing_plan_id":"cebpf4jnsgd1na2vs0mg"},{"bike_id":"53844b2d-ae37-4b7d-bb84-c85515797542","system_id":"levelo_inurba_marseille","lat":43.27208,"lon":5.3918,"is_reserved":false,"is_disabled":false,"rental_uris":{"android":"levelo://app?vid=53844b2d-ae37-4b7d-bb84-c85515797542","ios":"levelo://app?vid=53844b2d-ae37-4b7d-bb84-c85515797542"},"vehicle_type_id":"4","last_reported":1739437786,"current_range_meters":18000,"station_id":"ce4bhhp2rcd13ifvqfm0","pricing_plan_id":"cebpf4jnsgd1na2vs0mg"},{"bike_id":"b1b93a49-25bc-4589-b584-866c5f20cedd","system_id":"levelo_inurba_marseille","lat":43.3163,"lon":5.37674,"is_reserved":false,"is_disabled":true,"rental_uris":{"android":"levelo://app?vid=b1b93a49-25bc-4589-b584-866c5f20cedd","ios":"levelo://app?vid=b1b93a49-25bc-4589-b584-866c5f20cedd"},"vehicle_type_id":"4","last_reported":1739437786,"current_range_meters":4000,"station_id":"","pricing_plan_id":"cebpf4jnsgd1na2vs0mg"},{"bike_id":"c9b9ad49-9eb7-4e09-a9b7-f7b09f00a041","system_id":"levelo_inurba_marseille","lat":43.27318,"lon":5.39095,"is_reserved":false,"is_disabled":false,"rental_uris":{"android":"levelo://app?vid=c9b9ad49-9eb7-4e09-a9b7-f7b09f00a041","ios":"levelo://app?vid=c9b9ad49-9eb7-4e09-a9b7-f7b09f00a041"},"vehicle_type_id":"4","last_reported":1739437786,"current_range_meters":27200,"station_id":"ce4bhgp2rcd13ifvqfe0","pricing_plan_id":"cebpf4jnsgd1na2vs0mg"},{"bike_id":"d750b84e-561d-43b0-8b67-1af1b35255bb","system_id":"levelo_inurba_marseille","lat":43.30145,"lon":5.37417,"is_reserved":false,"is_disabled":false,"rental_uris":{"android":"levelo://app?vid=d750b84e-561d-43b0-8b67-1af1b35255bb","ios":"levelo://app?vid=d750b84e-561d-43b0-8b67-1af1b35255bb"},"vehicle_type_id":"4","last_reported":1739437786,"current_range_meters":33200,"station_id":"ce4bgs92rcd13ifvqcc0","pricing_plan_id":"cebpf4jnsgd1na2vs0mg"},{"bike_id":"55c46df7-9b28-4b6e-96b0-ae0b19b2bf2c","system_id":"levelo_inurba_marseille","lat":43.29299,"lon":5.37446,"is_reserved":false,"is_disabled":false,"rental_uris":{"android":"levelo://app?vid=55c46df7-9b28-4b6e-96b0-ae0b19b2bf2c","ios":"levelo://app?vid=55c46df7-9b28-4b6e-96b0-ae0b19b2bf2c"},"vehicle_type_id":"4","last_reported":1739437786,"current_range_meters":38000,"station_id":"ce4bgi12rcd13ifvqb70","pricing_plan_id":"cebpf4jnsgd1na2vs0mg"},{"bike_id":"77cab8d4-ccc4-4e5a-b794-57149020d14f","system_id":"levelo_inurba_marseille","lat":43.26193,"lon":5.3746,"is_reserved":false,"is_disabled":false,"rental_uris":{"android":"levelo://app?vid=77cab8d4-ccc4-4e5a-b794-57149020d14f","ios":"levelo://app?vid=77cab8d4-ccc4-4e5a-b794-57149020d14f"},"vehicle_type_id":"4","last_reported":1739437786,"current_range_meters":38400,"station_id":"ce4bhgp2rcd13ifvqfc0","pricing_plan_id":"cebpf4jnsgd1na2vs0mg"},{"bike_id":"61e02898-e1ed-4277-ba56-751aab52d04e","system_id":"levelo_inurba_marseille","lat":43.32482,"lon":5.36561,"is_reserved":false,"is_disabled":false,"rental_uris":{"android":"levelo://app?vid=61e02898-e1ed-4277-ba56-751aab52d04e","ios":"levelo://app?vid=61e02898-e1ed-4277-ba56-751aab52d04e"},"vehicle_type_id":"4","last_reported":1739437786,"current_range_meters":16400,"station_id":"ce4bhs12rcd13ifvqhvg","pricing_plan_id":"cebpf4jnsgd1na2vs0mg"},{"bike_id":"04d4b8ab-1d4d-44ab-9d49-e10f569c0553","system_id":"levelo_inurba_marseille","lat":43.298429,"lon":5.362675,"is_reserved":false,"is_disabled":false,"rental_uris":{"android":"levelo://app?vid=04d4b8ab-1d4d-44ab-9d49-e10f569c0553","ios":"levelo://app?vid=04d4b8ab-1d4d-44ab-9d49-e10f569c0553"},"vehicle_type_id":"4","last_reported":1739437786,"current_range_meters":27600,"station_id":"ce4bgpp2rcd13ifvqc3g","pricing_plan_id":"cebpf4jnsgd1na2vs0mg"},{"bike_id":"1e27a57f-c848-41af-a2d3-5d053a440eb3","system_id":"levelo_inurba_marseille","lat":43.3257,"lon":5.43063,"is_reserved":false,"is_disabled":false,"rental_uris":{"android":"levelo://app?vid=1e27a57f-c848-41af-a2d3-5d053a440eb3","ios":"levelo://app?vid=1e27a57f-c848-41af-a2d3-5d053a440eb3"},"vehicle_type_id":"4","last_reported":1739437786,"current_range_meters":11600,"station_id":"","pricing_plan_id":"cebpf4jnsgd1na2vs0mg"},{"bike_id":"891b5235-d570-4a76-86be-74a0648f4828","system_id":"levelo_inurba_marseille","lat":43.29851,"lon":5.36281,"is_reserved":false,"is_disabled":false,"rental_uris":{"android":"levelo://app?vid=891b5235-d570-4a76-86be-74a0648f4828","ios":"levelo://app?vid=891b5235-d570-4a76-86be-74a0648f4828"},"vehicle_type_id":"4","last_reported":1739437786,"current_range_meters":39200,"station_id":"ce4bgpp2rcd13ifvqc3g","pricing_plan_id":"cebpf4jnsgd1na2vs0mg"},{"bike_id":"c6aecb6a-84fa-4597-9c3d-4a0f688899cd","system_id":"levelo_inurba_marseille","lat":43.30924,"lon":5.36843,"is_reserved":false,"is_disabled":false,"rental_uris":{"android":"levelo://app?vid=c6aecb6a-84fa-4597-9c3d-4a0f688899cd","ios":"levelo://app?vid=c6aecb6a-84fa-4597-9c3d-4a0f688899cd"},"vehicle_type_id":"4","last_reported":1739437786,"current_range_meters":38800,"station_id":"ce4bgn92rcd13ifvqbvg","pricing_plan_id":"cebpf4jnsgd1na2vs0mg"},{"bike_id":"4cc70040-b130-4ed2-b933-11d339cc38c4","system_id":"levelo_inurba_marseille","lat":43.32345,"lon":5.40624,"is_reserved":false,"is_disabled":false,"rental_uris":{"android":"levelo://app?vid=4cc70040-b130-4ed2-b933-11d339cc38c4","ios":"levelo://app?vid=4cc70040-b130-4ed2-b933-11d339cc38c4"},"vehicle_type_id":"4","last_reported":1739437786,"current_range_meters":36800,"station_id":"ce4bhq92rcd13ifvqhjg","pricing_plan_id":"cebpf4jnsgd1na2vs0mg"},{"bike_id":"3a5bffa8-0301-4074-b59c-def53c684c89","system_id":"levelo_inurba_marseille","lat":43.30539,"lon":5.36554,"is_reserved":false,"is_disabled":false,"rental_uris":{"android":"levelo://app?vid=3a5bffa8-0301-4074-b59c-def53c684c89","ios":"levelo://app?vid=3a5bffa8-0301-4074-b59c-def53c684c89"},"vehicle_type_id":"4","last_reported":1739437786,"current_range_meters":16400,"station_id":"ce4bgs12rcd13ifvqcag","pricing_plan_id":"cebpf4jnsgd1na2vs0mg"},{"bike_id":"c4813b27-4250-43ea-8be5-ccd7321d2af3","system_id":"levelo_inurba_marseille","lat":43.28926,"lon":5.36403,"is_reserved":false,"is_disabled":false,"rental_uris":{"android":"levelo://app?vid=c4813b27-4250-43ea-8be5-ccd7321d2af3","ios":"levelo://app?vid=c4813b27-4250-43ea-8be5-ccd7321d2af3"},"vehicle_type_id":"4","last_reported":1739437786,"current_range_meters":12800,"station_id":"ce4bhc92rcd13ifvqetg","pricing_plan_id":"cebpf4jnsgd1na2vs0mg"},{"bike_id":"979fe5d5-2849-4a27-9e62-197c0d81763f","system_id":"levelo_inurba_marseille","lat":43.33608,"lon":5.41038,"is_reserved":false,"is_disabled":false,"rental_uris":{"android":"levelo://app?vid=979fe5d5-2849-4a27-9e62-197c0d81763f","ios":"levelo://app?vid=979fe5d5-2849-4a27-9e62-197c0d81763f"},"vehicle_type_id":"4","last_reported":1739437786,"current_range_meters":22400,"station_id":"ce4bhqh2rcd13ifvqhmg","pricing_plan_id":"cebpf4jnsgd1na2vs0mg"},{"bike_id":"b099a839-fbec-4ed4-9c34-fbb706ab0eb8","system_id":"levelo_inurba_marseille","lat":43.30138,"lon":5.3806,"is_reserved":false,"is_disabled":false,"rental_uris":{"android":"levelo://app?vid=b099a839-fbec-4ed4-9c34-fbb706ab0eb8","ios":"levelo://app?vid=b099a839-fbec-4ed4-9c34-fbb706ab0eb8"},"vehicle_type_id":"4","last_reported":1739437786,"current_range_meters":17600,"station_id":"ce4bgjp2rcd13ifvqbh0","pricing_plan_id":"cebpf4jnsgd1na2vs0mg"},{"bike_id":"971f9951-cad8-4d64-aee1-30948583f711","system_id":"levelo_inurba_marseille","lat":43.32486,"lon":5.36576,"is_reserved":false,"is_disabled":false,"rental_uris":{"android":"levelo://app?vid=971f9951-cad8-4d64-aee1-30948583f711","ios":"levelo://app?vid=971f9951-cad8-4d64-aee1-30948583f711"},"vehicle_type_id":"4","last_reported":1739437786,"current_range_meters":39200,"station_id":"ce4bhs12rcd13ifvqhvg","pricing_plan_id":"cebpf4jnsgd1na2vs0mg"},{"bike_id":"0011b376-b393-464f-a5b8-53ccfa9f7a43","system_id":"levelo_inurba_marseille","lat":43.291157,"lon":5.380847,"is_reserved":false,"is_disabled":false,"rental_uris":{"android":"levelo://app?vid=0011b376-b393-464f-a5b8-53ccfa9f7a43","ios":"levelo://app?vid=0011b376-b393-464f-a5b8-53ccfa9f7a43"},"vehicle_type_id":"4","last_reported":1739437786,"current_range_meters":14400,"station_id":"ce4bh512rcd13ifvqe2g","pricing_plan_id":"cebpf4jnsgd1na2vs0mg"},{"bike_id":"0656d5e0-9328-41f0-87fd-5c84e13074b0","system_id":"levelo_inurba_marseille","lat":43.30539,"lon":5.36541,"is_reserved":false,"is_disabled":false,"rental_uris":{"android":"levelo://app?vid=0656d5e0-9328-41f0-87fd-5c84e13074b0","ios":"levelo://app?vid=0656d5e0-9328-41f0-87fd-5c84e13074b0"},"vehicle_type_id":"4","last_reported":1739437786,"current_range_meters":33200,"station_id":"ce4bgs12rcd13ifvqcag","pricing_plan_id":"cebpf4jnsgd1na2vs0mg"},{"bike_id":"11358c94-7b45-4206-9a08-6ec6e50b2e98","system_id":"levelo_inurba_marseille","lat":43.32534,"lon":5.41466,"is_reserved":false,"is_disabled":false,"rental_uris":{"android":"levelo://app?vid=11358c94-7b45-4206-9a08-6ec6e50b2e98","ios":"levelo://app?vid=11358c94-7b45-4206-9a08-6ec6e50b2e98"},"vehicle_type_id":"4","last_reported":1739437786,"current_range_meters":27200,"station_id":"ce4bhq12rcd13ifvqhhg","pricing_plan_id":"cebpf4jnsgd1na2vs0mg"},{"bike_id":"e170a160-dd89-4a75-adb1-02bc60df9234","system_id":"levelo_inurba_marseille","lat":43.23152,"lon":5.43706,"is_reserved":false,"is_disabled":false,"rental_uris":{"android":"levelo://app?vid=e170a160-dd89-4a75-adb1-02bc60df9234","ios":"levelo://app?vid=e170a160-dd89-4a75-adb1-02bc60df9234"},"vehicle_type_id":"4","last_reported":1739437786,"current_range_meters":12800,"station_id":"ce4bhmp2rcd13ifvqgog","pricing_plan_id":"cebpf4jnsgd1na2vs0mg"},{"bike_id":"1be88177-7203-443f-8645-75d8a38bf707","system_id":"levelo_inurba_marseille","lat":43.2896,"lon":5.36381,"is_reserved":false,"is_disabled":true,"rental_uris":{"android":"levelo://app?vid=1be88177-7203-443f-8645-75d8a38bf707","ios":"levelo://app?vid=1be88177-7203-443f-8645-75d8a38bf707"},"vehicle_type_id":"4","last_reported":1739437786,"current_range_meters":0,"station_id":"ce4bhc92rcd13ifvqetg","pricing_plan_id":"cebpf4jnsgd1na2vs0mg"},{"bike_id":"12e0100b-ed02-4aec-b1ac-f8ae479755f4","system_id":"levelo_inurba_marseille","lat":43.30946,"lon":5.39045,"is_reserved":false,"is_disabled":false,"rental_uris":{"android":"levelo://app?vid=12e0100b-ed02-4aec-b1ac-f8ae479755f4","ios":"levelo://app?vid=12e0100b-ed02-4aec-b1ac-f8ae479755f4"},"vehicle_type_id":"4","last_reported":1739437786,"current_range_meters":35200,"station_id":"","pricing_plan_id":"cebpf4jnsgd1na2vs0mg"},{"bike_id":"fd9df35d-e5c7-4c67-8043-08905a6faf49","system_id":"levelo_inurba_marseille","lat":43.29566,"lon":5.42255,"is_reserved":false,"is_disabled":false,"rental_uris":{"android":"levelo://app?vid=fd9df35d-e5c7-4c67-8043-08905a6faf49","ios":"levelo://app?vid=fd9df35d-e5c7-4c67-8043-08905a6faf49"},"vehicle_type_id":"4","last_reported":1739437786,"current_range_meters":25600,"station_id":"ce4bhph2rcd13ifvqhdg","pricing_plan_id":"cebpf4jnsgd1na2vs0mg"},{"bike_id":"d49089f9-c28d-4ebf-a5c3-f264defe202d","system_id":"levelo_inurba_marseille","lat":43.30954,"lon":5.39031,"is_reserved":false,"is_disabled":false,"rental_uris":{"android":"levelo://app?vid=d49089f9-c28d-4ebf-a5c3-f264defe202d","ios":"levelo://app?vid=d49089f9-c28d-4ebf-a5c3-f264defe202d"},"vehicle_type_id":"4","last_reported":1739437786,"current_range_meters":38800,"station_id":"ce4bgup2rcd13ifvqco0","pricing_plan_id":"cebpf4jnsgd1na2vs0mg"},{"bike_id":"eb74081f-8035-495f-a073-abb8444b5eb2","system_id":"levelo_inurba_marseille","lat":43.23959,"lon":5.36622,"is_reserved":false,"is_disabled":false,"rental_uris":{"android":"levelo://app?vid=eb74081f-8035-495f-a073-abb8444b5eb2","ios":"levelo://app?vid=eb74081f-8035-495f-a073-abb8444b5eb2"},"vehicle_type_id":"4","last_reported":1739437786,"current_range_meters":38800,"station_id":"ce4bhi12rcd13ifvqfp0","pricing_plan_id":"cebpf4jnsgd1na2vs0mg"},{"bike_id":"55beb4d1-30e7-4718-961a-37704bc30b29","system_id":"levelo_inurba_marseille","lat":43.30146,"lon":5.38098,"is_reserved":false,"is_disabled":false,"rental_uris":{"android":"levelo://app?vid=55beb4d1-30e7-4718-961a-37704bc30b29","ios":"levelo://app?vid=55beb4d1-30e7-4718-961a-37704bc30b29"},"vehicle_type_id":"4","last_reported":1739437786,"current_range_meters":39200,"station_id":"ce4bgjp2rcd13ifvqbh0","pricing_plan_id":"cebpf4jnsgd1na2vs0mg"},{"bike_id":"868c2e0c-7422-4920-b803-7c2f0bd19dd7","system_id":"levelo_inurba_marseille","lat":43.2841,"lon":5.35001,"is_reserved":false,"is_disabled":false,"rental_uris":{"android":"levelo://app?vid=868c2e0c-7422-4920-b803-7c2f0bd19dd7","ios":"levelo://app?vid=868c2e0c-7422-4920-b803-7c2f0bd19dd7"},"vehicle_type_id":"4","last_reported":1739437786,"current_range_meters":38000,"station_id":"ce4bhbh2rcd13ifvqepg","pricing_plan_id":"cebpf4jnsgd1na2vs0mg"},{"bike_id":"225a2197-67e9-4daf-b265-3a4220639748","system_id":"levelo_inurba_marseille","lat":43.30467,"lon":5.37936,"is_reserved":false,"is_disabled":false,"rental_uris":{"android":"levelo://app?vid=225a2197-67e9-4daf-b265-3a4220639748","ios":"levelo://app?vid=225a2197-67e9-4daf-b265-3a4220639748"},"vehicle_type_id":"4","last_reported":1739437786,"current_range_meters":30000,"station_id":"ce4bgup2rcd13ifvqcn0","pricing_plan_id":"cebpf4jnsgd1na2vs0mg"},{"bike_id":"8d2d4012-ff69-4800-927a-45caff6cd054","system_id":"levelo_inurba_marseille","lat":43.23155,"lon":5.43707,"is_reserved":false,"is_disabled":false,"rental_uris":{"android":"levelo://app?vid=8d2d4012-ff69-4800-927a-45caff6cd054","ios":"levelo://app?vid=8d2d4012-ff69-4800-927a-45caff6cd054"},"vehicle_type_id":"4","last_reported":1739437786,"current_range_meters":10800,"station_id":"ce4bhmp2rcd13ifvqgog","pricing_plan_id":"cebpf4jnsgd1na2vs0mg"},{"bike_id":"1ec14052-2d33-4aa1-9ab8-58cc71db74d1","system_id":"levelo_inurba_marseille","lat":43.241618,"lon":5.364225,"is_reserved":false,"is_disabled":false,"rental_uris":{"android":"levelo://app?vid=1ec14052-2d33-4aa1-9ab8-58cc71db74d1","ios":"levelo://app?vid=1ec14052-2d33-4aa1-9ab8-58cc71db74d1"},"vehicle_type_id":"4","last_reported":1739437786,"current_range_meters":6800,"station_id":"cpo36qri1sfpv3e86is0","pricing_plan_id":"cebpf4jnsgd1na2vs0mg"},{"bike_id":"6e58a69c-2a4e-4c49-840d-6e728a603acb","system_id":"levelo_inurba_marseille","lat":43.23062,"lon":5.35494,"is_reserved":false,"is_disabled":false,"rental_uris":{"android":"levelo://app?vid=6e58a69c-2a4e-4c49-840d-6e728a603acb","ios":"levelo://app?vid=6e58a69c-2a4e-4c49-840d-6e728a603acb"},"vehicle_type_id":"4","last_reported":1739437786,"current_range_meters":6400,"station_id":"cpo3342slgdg3j2ifvpg","pricing_plan_id":"cebpf4jnsgd1na2vs0mg"},{"bike_id":"add7e1b7-46d4-4b7f-bf50-34281873e788","system_id":"levelo_inurba_marseille","lat":43.31281,"lon":5.3687,"is_reserved":false,"is_disabled":false,"rental_uris":{"android":"levelo://app?vid=add7e1b7-46d4-4b7f-bf50-34281873e788","ios":"levelo://app?vid=add7e1b7-46d4-4b7f-bf50-34281873e788"},"vehicle_type_id":"4","last_reported":1739437786,"current_range_meters":28800,"station_id":"","pricing_plan_id":"cebpf4jnsgd1na2vs0mg"},{"bike_id":"ab99d0ad-28be-47e5-b8bd-3fed203a4e99","system_id":"levelo_inurba_marseille","lat":43.2607,"lon":5.39381,"is_reserved":false,"is_disabled":false,"rental_uris":{"android":"levelo://app?vid=ab99d0ad-28be-47e5-b8bd-3fed203a4e99","ios":"levelo://app?vid=ab99d0ad-28be-47e5-b8bd-3fed203a4e99"},"vehicle_type_id":"4","last_reported":1739437786,"current_range_meters":21600,"station_id":"ce4bhh92rcd13ifvqfj0","pricing_plan_id":"cebpf4jnsgd1na2vs0mg"},{"bike_id":"61cffae5-e969-4a91-a963-68572f197e95","system_id":"levelo_inurba_marseille","lat":43.29042,"lon":5.39955,"is_reserved":false,"is_disabled":false,"rental_uris":{"android":"levelo://app?vid=61cffae5-e969-4a91-a963-68572f197e95","ios":"levelo://app?vid=61cffae5-e969-4a91-a963-68572f197e95"},"vehicle_type_id":"4","last_reported":1739437786,"current_range_meters":31200,"station_id":"ce4bh392rcd13ifvqdm0","pricing_plan_id":"cebpf4jnsgd1na2vs0mg"},{"bike_id":"7cbfba45-bb77-45ff-9061-45cf30aa6c69","system_id":"levelo_inurba_marseille","lat":43.30313,"lon":5.36885,"is_reserved":false,"is_disabled":false,"rental_uris":{"android":"levelo://app?vid=7cbfba45-bb77-45ff-9061-45cf30aa6c69","ios":"levelo://app?vid=7cbfba45-bb77-45ff-9061-45cf30aa6c69"},"vehicle_type_id":"4","last_reported":1739437786,"current_range_meters":38400,"station_id":"ce4bgqh2rcd13ifvqc5g","pricing_plan_id":"cebpf4jnsgd1na2vs0mg"},{"bike_id":"b4fb5ff3-17e5-4179-9eb0-0779b213b97d","system_id":"levelo_inurba_marseille","lat":43.24173,"lon":5.39731,"is_reserved":false,"is_disabled":true,"rental_uris":{"android":"levelo://app?vid=b4fb5ff3-17e5-4179-9eb0-0779b213b97d","ios":"levelo://app?vid=b4fb5ff3-17e5-4179-9eb0-0779b213b97d"},"vehicle_type_id":"4","last_reported":1739437786,"current_range_meters":9200,"station_id":"ce4bhn12rcd13ifvqgpg","pricing_plan_id":"cebpf4jnsgd1na2vs0mg"},{"bike_id":"17b8e592-efce-4113-ba0a-d316b99f2a2f","system_id":"levelo_inurba_marseille","lat":43.30117,"lon":5.39885,"is_reserved":false,"is_disabled":true,"rental_uris":{"android":"levelo://app?vid=17b8e592-efce-4113-ba0a-d316b99f2a2f","ios":"levelo://app?vid=17b8e592-efce-4113-ba0a-d316b99f2a2f"},"vehicle_type_id":"4","last_reported":1739437786,"current_range_meters":24000,"station_id":"ce4bh0h2rcd13ifvqd40","pricing_plan_id":"cebpf4jnsgd1na2vs0mg"},{"bike_id":"4450d397-c7c4-4c68-aed9-fa811598c082","system_id":"levelo_inurba_marseille","lat":43.325369,"lon":5.36511,"is_reserved":false,"is_disabled":false,"rental_uris":{"android":"levelo://app?vid=4450d397-c7c4-4c68-aed9-fa811598c082","ios":"levelo://app?vid=4450d397-c7c4-4c68-aed9-fa811598c082"},"vehicle_type_id":"4","last_reported":1739437786,"current_range_meters":37600,"station_id":"","pricing_plan_id":"cebpf4jnsgd1na2vs0mg"},{"bike_id":"b1d1c3ce-b5cc-4787-af58-fa277a5862ac","system_id":"levelo_inurba_marseille","lat":43.2829,"lon":5.35094,"is_reserved":false,"is_disabled":false,"rental_uris":{"android":"levelo://app?vid=b1d1c3ce-b5cc-4787-af58-fa277a5862ac","ios":"levelo://app?vid=b1d1c3ce-b5cc-4787-af58-fa277a5862ac"},"vehicle_type_id":"4","last_reported":1739437786,"current_range_meters":10800,"station_id":"ce4bhbp2rcd13ifvqerg","pricing_plan_id":"cebpf4jnsgd1na2vs0mg"},{"bike_id":"51f8e25b-12a2-43cb-a28b-208a9534ffcb","system_id":"levelo_inurba_marseille","lat":43.30316,"lon":5.36895,"is_reserved":false,"is_disabled":false,"rental_uris":{"android":"levelo://app?vid=51f8e25b-12a2-43cb-a28b-208a9534ffcb","ios":"levelo://app?vid=51f8e25b-12a2-43cb-a28b-208a9534ffcb"},"vehicle_type_id":"4","last_reported":1739437786,"current_range_meters":37600,"station_id":"ce4bgqh2rcd13ifvqc5g","pricing_plan_id":"cebpf4jnsgd1na2vs0mg"},{"bike_id":"480c1aa3-d6e9-4183-8a95-67936310bf1a","system_id":"levelo_inurba_marseille","lat":43.29969,"lon":5.37184,"is_reserved":false,"is_disabled":false,"rental_uris":{"android":"levelo://app?vid=480c1aa3-d6e9-4183-8a95-67936310bf1a","ios":"levelo://app?vid=480c1aa3-d6e9-4183-8a95-67936310bf1a"},"vehicle_type_id":"4","last_reported":1739437786,"current_range_meters":29600,"station_id":"ce4bgr92rcd13ifvqc7g","pricing_plan_id":"cebpf4jnsgd1na2vs0mg"},{"bike_id":"04e79b02-26b7-408e-8d07-a04361b8a27a","system_id":"levelo_inurba_marseille","lat":43.23186,"lon":5.39995,"is_reserved":false,"is_disabled":false,"rental_uris":{"android":"levelo://app?vid=04e79b02-26b7-408e-8d07-a04361b8a27a","ios":"levelo://app?vid=04e79b02-26b7-408e-8d07-a04361b8a27a"},"vehicle_type_id":"4","last_reported":1739437786,"current_range_meters":39200,"station_id":"ce4bhn12rcd13ifvqgqg","pricing_plan_id":"cebpf4jnsgd1na2vs0mg"},{"bike_id":"02cbc0da-a9a5-4c58-922a-caf9d5ef64ac","system_id":"levelo_inurba_marseille","lat":43.29983,"lon":5.37163,"is_reserved":false,"is_disabled":false,"rental_uris":{"android":"levelo://app?vid=02cbc0da-a9a5-4c58-922a-caf9d5ef64ac","ios":"levelo://app?vid=02cbc0da-a9a5-4c58-922a-caf9d5ef64ac"},"vehicle_type_id":"4","last_reported":1739437786,"current_range_meters":34000,"station_id":"ce4bgr92rcd13ifvqc7g","pricing_plan_id":"cebpf4jnsgd1na2vs0mg"},{"bike_id":"f94cfe83-a1f2-42a5-853c-73e8eaf30aff","system_id":"levelo_inurba_marseille","lat":43.25006,"lon":5.38933,"is_reserved":false,"is_disabled":false,"rental_uris":{"android":"levelo://app?vid=f94cfe83-a1f2-42a5-853c-73e8eaf30aff","ios":"levelo://app?vid=f94cfe83-a1f2-42a5-853c-73e8eaf30aff"},"vehicle_type_id":"4","last_reported":1739437786,"current_range_meters":30400,"station_id":"ce4bhgp2rcd13ifvqfd0","pricing_plan_id":"cebpf4jnsgd1na2vs0mg"},{"bike_id":"d8981250-8625-4c10-aed1-00e88c58cfab","system_id":"levelo_inurba_marseille","lat":43.3046,"lon":5.37911,"is_reserved":false,"is_disabled":false,"rental_uris":{"android":"levelo://app?vid=d8981250-8625-4c10-aed1-00e88c58cfab","ios":"levelo://app?vid=d8981250-8625-4c10-aed1-00e88c58cfab"},"vehicle_type_id":"4","last_reported":1739437786,"current_range_meters":39200,"station_id":"ce4bgup2rcd13ifvqcn0","pricing_plan_id":"cebpf4jnsgd1na2vs0mg"},{"bike_id":"b9b3b216-dd6e-4d86-8eed-69c6c73355ac","system_id":"levelo_inurba_marseille","lat":43.30538,"lon":5.36718,"is_reserved":false,"is_disabled":false,"rental_uris":{"android":"levelo://app?vid=b9b3b216-dd6e-4d86-8eed-69c6c73355ac","ios":"levelo://app?vid=b9b3b216-dd6e-4d86-8eed-69c6c73355ac"},"vehicle_type_id":"4","last_reported":1739437786,"current_range_meters":25200,"station_id":"ce4bgrp2rcd13ifvqc9g","pricing_plan_id":"cebpf4jnsgd1na2vs0mg"},{"bike_id":"7d4c2fd4-95c7-4bbd-b767-d47d40112c4f","system_id":"levelo_inurba_marseille","lat":43.27213,"lon":5.39181,"is_reserved":false,"is_disabled":false,"rental_uris":{"android":"levelo://app?vid=7d4c2fd4-95c7-4bbd-b767-d47d40112c4f","ios":"levelo://app?vid=7d4c2fd4-95c7-4bbd-b767-d47d40112c4f"},"vehicle_type_id":"4","last_reported":1739437786,"current_range_meters":39200,"station_id":"ce4bhhp2rcd13ifvqfm0","pricing_plan_id":"cebpf4jnsgd1na2vs0mg"},{"bike_id":"95238438-aee1-472d-8c03-6f5da0f062d1","system_id":"levelo_inurba_marseille","lat":43.31344,"lon":5.3672,"is_reserved":false,"is_disabled":false,"rental_uris":{"android":"levelo://app?vid=95238438-aee1-472d-8c03-6f5da0f062d1","ios":"levelo://app?vid=95238438-aee1-472d-8c03-6f5da0f062d1"},"vehicle_type_id":"4","last_reported":1739437786,"current_range_meters":34800,"station_id":"ce4bgr92rcd13ifvqc6g","pricing_plan_id":"cebpf4jnsgd1na2vs0mg"},{"bike_id":"939d1de8-80c0-4e05-921b-0578ee493aad","system_id":"levelo_inurba_marseille","lat":43.31209,"lon":5.36786,"is_reserved":false,"is_disabled":false,"rental_uris":{"android":"levelo://app?vid=939d1de8-80c0-4e05-921b-0578ee493aad","ios":"levelo://app?vid=939d1de8-80c0-4e05-921b-0578ee493aad"},"vehicle_type_id":"4","last_reported":1739437786,"current_range_meters":36800,"station_id":"","pricing_plan_id":"cebpf4jnsgd1na2vs0mg"},{"bike_id":"51c4e3a8-2172-4b7d-8e51-4493ba7214bb","system_id":"levelo_inurba_marseille","lat":43.30943,"lon":5.36845,"is_reserved":false,"is_disabled":false,"rental_uris":{"android":"levelo://app?vid=51c4e3a8-2172-4b7d-8e51-4493ba7214bb","ios":"levelo://app?vid=51c4e3a8-2172-4b7d-8e51-4493ba7214bb"},"vehicle_type_id":"4","last_reported":1739437786,"current_range_meters":37600,"station_id":"ce4bgn92rcd13ifvqbvg","pricing_plan_id":"cebpf4jnsgd1na2vs0mg"},{"bike_id":"7705324e-dd3d-4a92-a560-9ff863a19382","system_id":"levelo_inurba_marseille","lat":43.30106,"lon":5.37456,"is_reserved":false,"is_disabled":false,"rental_uris":{"android":"levelo://app?vid=7705324e-dd3d-4a92-a560-9ff863a19382","ios":"levelo://app?vid=7705324e-dd3d-4a92-a560-9ff863a19382"},"vehicle_type_id":"4","last_reported":1739437786,"current_range_meters":38800,"station_id":"ce4bgs92rcd13ifvqcc0","pricing_plan_id":"cebpf4jnsgd1na2vs0mg"},{"bike_id":"6fc6bab1-ed0c-4358-a955-90735144fc14","system_id":"levelo_inurba_marseille","lat":43.27291,"lon":5.39123,"is_reserved":false,"is_disabled":false,"rental_uris":{"android":"levelo://app?vid=6fc6bab1-ed0c-4358-a955-90735144fc14","ios":"levelo://app?vid=6fc6bab1-ed0c-4358-a955-90735144fc14"},"vehicle_type_id":"4","last_reported":1739437786,"current_range_meters":10800,"station_id":"ce4bhgp2rcd13ifvqfe0","pricing_plan_id":"cebpf4jnsgd1na2vs0mg"},{"bike_id":"ea4a164d-12ea-4b23-8a54-8e896059450d","system_id":"levelo_inurba_marseille","lat":43.26948,"lon":5.38646,"is_reserved":false,"is_disabled":false,"rental_uris":{"android":"levelo://app?vid=ea4a164d-12ea-4b23-8a54-8e896059450d","ios":"levelo://app?vid=ea4a164d-12ea-4b23-8a54-8e896059450d"},"vehicle_type_id":"4","last_reported":1739437786,"current_range_meters":18000,"station_id":"ce4bhh92rcd13ifvqfh0","pricing_plan_id":"cebpf4jnsgd1na2vs0mg"},{"bike_id":"52591901-7075-4154-8ec9-0dfca05a1446","system_id":"levelo_inurba_marseille","lat":43.32457,"lon":5.36614,"is_reserved":false,"is_disabled":false,"rental_uris":{"android":"levelo://app?vid=52591901-7075-4154-8ec9-0dfca05a1446","ios":"levelo://app?vid=52591901-7075-4154-8ec9-0dfca05a1446"},"vehicle_type_id":"4","last_reported":1739437786,"current_range_meters":39200,"station_id":"ce4bhs12rcd13ifvqhvg","pricing_plan_id":"cebpf4jnsgd1na2vs0mg"},{"bike_id":"3661bdb9-5fee-450a-923e-1549e8560ef0","system_id":"levelo_inurba_marseille","lat":43.31278,"lon":5.40173,"is_reserved":false,"is_disabled":false,"rental_uris":{"android":"levelo://app?vid=3661bdb9-5fee-450a-923e-1549e8560ef0","ios":"levelo://app?vid=3661bdb9-5fee-450a-923e-1549e8560ef0"},"vehicle_type_id":"4","last_reported":1739437786,"current_range_meters":38800,"station_id":"ce4bh092rcd13ifvqd30","pricing_plan_id":"cebpf4jnsgd1na2vs0mg"},{"bike_id":"e823fe48-f4a6-4633-ab11-5ed86deb2fc6","system_id":"levelo_inurba_marseille","lat":43.31215,"lon":5.36863,"is_reserved":false,"is_disabled":false,"rental_uris":{"android":"levelo://app?vid=e823fe48-f4a6-4633-ab11-5ed86deb2fc6","ios":"levelo://app?vid=e823fe48-f4a6-4633-ab11-5ed86deb2fc6"},"vehicle_type_id":"4","last_reported":1739437786,"current_range_meters":6800,"station_id":"ce4bgl92rcd13ifvqbq0","pricing_plan_id":"cebpf4jnsgd1na2vs0mg"},{"bike_id":"ffe72486-5c26-4671-a4b2-3589518be5f5","system_id":"levelo_inurba_marseille","lat":43.30132,"lon":5.37414,"is_reserved":false,"is_disabled":false,"rental_uris":{"android":"levelo://app?vid=ffe72486-5c26-4671-a4b2-3589518be5f5","ios":"levelo://app?vid=ffe72486-5c26-4671-a4b2-3589518be5f5"},"vehicle_type_id":"4","last_reported":1739437786,"current_range_meters":30800,"station_id":"ce4bgs92rcd13ifvqcc0","pricing_plan_id":"cebpf4jnsgd1na2vs0mg"},{"bike_id":"72f360d9-d19c-4d29-920b-54b9c1bdf4a5","system_id":"levelo_inurba_marseille","lat":43.30532,"lon":5.36715,"is_reserved":false,"is_disabled":false,"rental_uris":{"android":"levelo://app?vid=72f360d9-d19c-4d29-920b-54b9c1bdf4a5","ios":"levelo://app?vid=72f360d9-d19c-4d29-920b-54b9c1bdf4a5"},"vehicle_type_id":"4","last_reported":1739437786,"current_range_meters":30800,"station_id":"ce4bgrp2rcd13ifvqc9g","pricing_plan_id":"cebpf4jnsgd1na2vs0mg"},{"bike_id":"68a10961-d3e2-468b-ba97-fb6fdb24a4de","system_id":"levelo_inurba_marseille","lat":43.31373,"lon":5.38513,"is_reserved":false,"is_disabled":false,"rental_uris":{"android":"levelo://app?vid=68a10961-d3e2-468b-ba97-fb6fdb24a4de","ios":"levelo://app?vid=68a10961-d3e2-468b-ba97-fb6fdb24a4de"},"vehicle_type_id":"4","last_reported":1739437786,"current_range_meters":38800,"station_id":"ce4bgt92rcd13ifvqcf0","pricing_plan_id":"cebpf4jnsgd1na2vs0mg"},{"bike_id":"ca60b2af-cce7-4290-adcc-eaec354c2c93","system_id":"levelo_inurba_marseille","lat":43.25027,"lon":5.38927,"is_reserved":false,"is_disabled":false,"rental_uris":{"android":"levelo://app?vid=ca60b2af-cce7-4290-adcc-eaec354c2c93","ios":"levelo://app?vid=ca60b2af-cce7-4290-adcc-eaec354c2c93"},"vehicle_type_id":"4","last_reported":1739437786,"current_range_meters":24000,"station_id":"ce4bhgp2rcd13ifvqfd0","pricing_plan_id":"cebpf4jnsgd1na2vs0mg"},{"bike_id":"3f53f95a-9c5c-4075-a387-a50f84061cec","system_id":"levelo_inurba_marseille","lat":43.25863,"lon":5.39914,"is_reserved":false,"is_disabled":false,"rental_uris":{"android":"levelo://app?vid=3f53f95a-9c5c-4075-a387-a50f84061cec","ios":"levelo://app?vid=3f53f95a-9c5c-4075-a387-a50f84061cec"},"vehicle_type_id":"4","last_reported":1739437786,"current_range_meters":38800,"station_id":"ce4bhl92rcd13ifvqghg","pricing_plan_id":"cebpf4jnsgd1na2vs0mg"},{"bike_id":"98e54b54-5579-4b78-a98b-e4def0765729","system_id":"levelo_inurba_marseille","lat":43.32355,"lon":5.388965,"is_reserved":false,"is_disabled":false,"rental_uris":{"android":"levelo://app?vid=98e54b54-5579-4b78-a98b-e4def0765729","ios":"levelo://app?vid=98e54b54-5579-4b78-a98b-e4def0765729"},"vehicle_type_id":"4","last_reported":1739437786,"current_range_meters":32800,"station_id":"ce4bhqp2rcd13ifvqhog","pricing_plan_id":"cebpf4jnsgd1na2vs0mg"},{"bike_id":"b0f70249-6360-4dc3-a83a-fd73a6b534c8","system_id":"levelo_inurba_marseille","lat":43.321548,"lon":5.384625,"is_reserved":false,"is_disabled":false,"rental_uris":{"android":"levelo://app?vid=b0f70249-6360-4dc3-a83a-fd73a6b534c8","ios":"levelo://app?vid=b0f70249-6360-4dc3-a83a-fd73a6b534c8"},"vehicle_type_id":"4","last_reported":1739437786,"current_range_meters":30000,"station_id":"","pricing_plan_id":"cebpf4jnsgd1na2vs0mg"},{"bike_id":"54ce597b-1ca1-4d62-923d-d4b29eec04b3","system_id":"levelo_inurba_marseille","lat":43.31131,"lon":5.38261,"is_reserved":false,"is_disabled":false,"rental_uris":{"android":"levelo://app?vid=54ce597b-1ca1-4d62-923d-d4b29eec04b3","ios":"levelo://app?vid=54ce597b-1ca1-4d62-923d-d4b29eec04b3"},"vehicle_type_id":"4","last_reported":1739437786,"current_range_meters":11200,"station_id":"","pricing_plan_id":"cebpf4jnsgd1na2vs0mg"},{"bike_id":"ce3fa350-a693-4b64-bf9f-5385693aa408","system_id":"levelo_inurba_marseille","lat":43.27944,"lon":5.41073,"is_reserved":false,"is_disabled":false,"rental_uris":{"android":"levelo://app?vid=ce3fa350-a693-4b64-bf9f-5385693aa408","ios":"levelo://app?vid=ce3fa350-a693-4b64-bf9f-5385693aa408"},"vehicle_type_id":"4","last_reported":1739437786,"current_range_meters":10800,"station_id":"ce4bhnp2rcd13ifvqh0g","pricing_plan_id":"cebpf4jnsgd1na2vs0mg"},{"bike_id":"f49f783f-c603-47fb-aa9f-390edbc06754","system_id":"levelo_inurba_marseille","lat":43.28343,"lon":5.38124,"is_reserved":false,"is_disabled":true,"rental_uris":{"android":"levelo://app?vid=f49f783f-c603-47fb-aa9f-390edbc06754","ios":"levelo://app?vid=f49f783f-c603-47fb-aa9f-390edbc06754"},"vehicle_type_id":"4","last_reported":1739437786,"current_range_meters":29600,"station_id":"ce4bh412rcd13ifvqdr0","pricing_plan_id":"cebpf4jnsgd1na2vs0mg"},{"bike_id":"ddaccf72-4deb-4c36-ae1e-cb9bed74ba2f","system_id":"levelo_inurba_marseille","lat":43.27811,"lon":5.40713,"is_reserved":false,"is_disabled":false,"rental_uris":{"android":"levelo://app?vid=ddaccf72-4deb-4c36-ae1e-cb9bed74ba2f","ios":"levelo://app?vid=ddaccf72-4deb-4c36-ae1e-cb9bed74ba2f"},"vehicle_type_id":"4","last_reported":1739437786,"current_range_meters":35600,"station_id":"ce4bhnh2rcd13ifvqgtg","pricing_plan_id":"cebpf4jnsgd1na2vs0mg"},{"bike_id":"9d6c6a2c-f4a8-4f2e-9a51-0f83be3f4454","system_id":"levelo_inurba_marseille","lat":43.2501,"lon":5.38926,"is_reserved":false,"is_disabled":false,"rental_uris":{"android":"levelo://app?vid=9d6c6a2c-f4a8-4f2e-9a51-0f83be3f4454","ios":"levelo://app?vid=9d6c6a2c-f4a8-4f2e-9a51-0f83be3f4454"},"vehicle_type_id":"4","last_reported":1739437786,"current_range_meters":28400,"station_id":"ce4bhgp2rcd13ifvqfd0","pricing_plan_id":"cebpf4jnsgd1na2vs0mg"},{"bike_id":"227f56ab-b773-47e0-9bb9-6e38e4ee7a17","system_id":"levelo_inurba_marseille","lat":43.26677,"lon":5.38276,"is_reserved":false,"is_disabled":false,"rental_uris":{"android":"levelo://app?vid=227f56ab-b773-47e0-9bb9-6e38e4ee7a17","ios":"levelo://app?vid=227f56ab-b773-47e0-9bb9-6e38e4ee7a17"},"vehicle_type_id":"4","last_reported":1739437786,"current_range_meters":31200,"station_id":"ce4bhg92rcd13ifvqf90","pricing_plan_id":"cebpf4jnsgd1na2vs0mg"},{"bike_id":"2e79e634-3467-41e1-bf8d-cd8cffbf109c","system_id":"levelo_inurba_marseille","lat":43.30916,"lon":5.36851,"is_reserved":false,"is_disabled":false,"rental_uris":{"android":"levelo://app?vid=2e79e634-3467-41e1-bf8d-cd8cffbf109c","ios":"levelo://app?vid=2e79e634-3467-41e1-bf8d-cd8cffbf109c"},"vehicle_type_id":"4","last_reported":1739437786,"current_range_meters":18800,"station_id":"ce4bgn92rcd13ifvqbvg","pricing_plan_id":"cebpf4jnsgd1na2vs0mg"},{"bike_id":"39f179f6-8edb-4b5a-a86e-f6fc3330b29b","system_id":"levelo_inurba_marseille","lat":43.31226,"lon":5.36848,"is_reserved":false,"is_disabled":false,"rental_uris":{"android":"levelo://app?vid=39f179f6-8edb-4b5a-a86e-f6fc3330b29b","ios":"levelo://app?vid=39f179f6-8edb-4b5a-a86e-f6fc3330b29b"},"vehicle_type_id":"4","last_reported":1739437786,"current_range_meters":36400,"station_id":"ce4bgl92rcd13ifvqbq0","pricing_plan_id":"cebpf4jnsgd1na2vs0mg"},{"bike_id":"44bead9a-5613-4b2c-a4ff-97b864441034","system_id":"levelo_inurba_marseille","lat":43.30949,"lon":5.39033,"is_reserved":false,"is_disabled":false,"rental_uris":{"android":"levelo://app?vid=44bead9a-5613-4b2c-a4ff-97b864441034","ios":"levelo://app?vid=44bead9a-5613-4b2c-a4ff-97b864441034"},"vehicle_type_id":"4","last_reported":1739437786,"current_range_meters":32000,"station_id":"","pricing_plan_id":"cebpf4jnsgd1na2vs0mg"},{"bike_id":"58a923a1-50e5-4bcc-a5c7-59fd5ea18680","system_id":"levelo_inurba_marseille","lat":43.23157,"lon":5.43711,"is_reserved":false,"is_disabled":true,"rental_uris":{"android":"levelo://app?vid=58a923a1-50e5-4bcc-a5c7-59fd5ea18680","ios":"levelo://app?vid=58a923a1-50e5-4bcc-a5c7-59fd5ea18680"},"vehicle_type_id":"4","last_reported":1739437786,"current_range_meters":16000,"station_id":"ce4bhmp2rcd13ifvqgog","pricing_plan_id":"cebpf4jnsgd1na2vs0mg"},{"bike_id":"7077cffb-8fd7-4b48-a3bf-189bb0aa8eab","system_id":"levelo_inurba_marseille","lat":43.26675,"lon":5.3828,"is_reserved":false,"is_disabled":false,"rental_uris":{"android":"levelo://app?vid=7077cffb-8fd7-4b48-a3bf-189bb0aa8eab","ios":"levelo://app?vid=7077cffb-8fd7-4b48-a3bf-189bb0aa8eab"},"vehicle_type_id":"4","last_reported":1739437786,"current_range_meters":37600,"station_id":"ce4bhg92rcd13ifvqf90","pricing_plan_id":"cebpf4jnsgd1na2vs0mg"},{"bike_id":"b8a4d814-eb7e-4cf9-a77c-cb0d93f46f4c","system_id":"levelo_inurba_marseille","lat":43.29782,"lon":5.39352,"is_reserved":false,"is_disabled":false,"rental_uris":{"android":"levelo://app?vid=b8a4d814-eb7e-4cf9-a77c-cb0d93f46f4c","ios":"levelo://app?vid=b8a4d814-eb7e-4cf9-a77c-cb0d93f46f4c"},"vehicle_type_id":"4","last_reported":1739437786,"current_range_meters":31200,"station_id":"chh1huq6cuj3fo74tm60","pricing_plan_id":"cebpf4jnsgd1na2vs0mg"},{"bike_id":"692ec73c-5086-418f-9d36-008a3939c222","system_id":"levelo_inurba_marseille","lat":43.27611,"lon":5.36118,"is_reserved":false,"is_disabled":false,"rental_uris":{"android":"levelo://app?vid=692ec73c-5086-418f-9d36-008a3939c222","ios":"levelo://app?vid=692ec73c-5086-418f-9d36-008a3939c222"},"vehicle_type_id":"4","last_reported":1739437786,"current_range_meters":38800,"station_id":"ce4bgj92rcd13ifvqbe0","pricing_plan_id":"cebpf4jnsgd1na2vs0mg"},{"bike_id":"d594772c-f06c-42db-b4eb-8c17a4b3b2bd","system_id":"levelo_inurba_marseille","lat":43.31241,"lon":5.36869,"is_reserved":false,"is_disabled":false,"rental_uris":{"android":"levelo://app?vid=d594772c-f06c-42db-b4eb-8c17a4b3b2bd","ios":"levelo://app?vid=d594772c-f06c-42db-b4eb-8c17a4b3b2bd"},