{"last_updated":1744798273,"ttl":60,"version":"2.2","data":{"bikes":[{"bike_id":"12fd2ec0-f86c-48d5-9e28-482c6c94a929","system_id":"levelo_inurba_marseille","lat":43.2962,"lon":5.37172,"is_reserved":false,"is_disabled":false,"rental_uris":{"android":"levelo://app?vid=12fd2ec0-f86c-48d5-9e28-482c6c94a929","ios":"levelo://app?vid=12fd2ec0-f86c-48d5-9e28-482c6c94a929"},"vehicle_type_id":"4","last_reported":1744798273,"current_range_meters":2800,"station_id":"ce4bgnh2rcd13ifvqc0g","pricing_plan_id":"cebpf4jnsgd1na2vs0mg"},{"bike_id":"e0b3c9be-4f43-4b5d-b2aa-6aa919976fa1","system_id":"levelo_inurba_marseille","lat":43.28923,"lon":5.36639,"is_reserved":false,"is_disabled":false,"rental_uris":{"android":"levelo://app?vid=e0b3c9be-4f43-4b5d-b2aa-6aa919976fa1","ios":"levelo://app?vid=e0b3c9be-4f43-4b5d-b2aa-6aa919976fa1"},"vehicle_type_id":"4","last_reported":1744798273,"current_range_meters":3200,"station_id":"ce4bhap2rcd13ifvqek0","pricing_plan_id":"cebpf4jnsgd1na2vs0mg"},{"bike_id":"88dc6a23-9b04-48b0-bf85-c177443d0763","system_id":"levelo_inurba_marseille","lat":43.33608,"lon":5.40994,"is_reserved":false,"is_disabled":false,"rental_uris":{"android":"levelo://app?vid=88dc6a23-9b04-48b0-bf85-c177443d0763","ios":"levelo://app?vid=88dc6a23-9b04-48b0-bf85-c177443d0763"},"vehicle_type_id":"4","last_reported":1744798273,"current_range_meters":3200,"station_id":"ce4bhqh2rcd13ifvqhmg","pricing_plan_id":"cebpf4jnsgd1na2vs0mg"},{"bike_id":"18732393-3419-419f-948d-5449399ba16a","system_id":"levelo_inurba_marseille","lat":43.30985,"lon":5.39044,"is_reserved":false,"is_disabled":true,"rental_uris":{"android":"levelo://app?vid=18732393-3419-419f-948d-5449399ba16a","ios":"levelo://app?vid=18732393-3419-419f-948d-5449399ba16a"},"vehicle_type_id":"4","last_reported":1744798273,"current_range_meters":3600,"station_id":"ce4bgup2rcd13ifvqco0","pricing_plan_id":"cebpf4jnsgd1na2vs0mg"},{"bike_id":"297abcf9-991e-4f17-9c8b-6b2d4e23b42c","system_id":"levelo_inurba_marseille","lat":43.29164,"lon":5.37155,"is_reserved":false,"is_disabled":false,"rental_uris":{"android":"levelo://app?vid=297abcf9-991e-4f17-9c8b-6b2d4e23b42c","ios":"levelo://app?vid=297abcf9-991e-4f17-9c8b-6b2d4e23b42c"},"vehicle_type_id":"4","last_reported":1744798273,"current_range_meters":4000,"station_id":"ce4bha92rcd13ifvqeh0","pricing_plan_id":"cebpf4jnsgd1na2vs0mg"},{"bike_id":"588b9a5f-c1b4-42aa-a0d7-9dc4096af0cd","system_id":"levelo_inurba_marseille","lat":43.31707,"lon":5.40455,"is_reserved":false,"is_disabled":false,"rental_uris":{"android":"levelo://app?vid=588b9a5f-c1b4-42aa-a0d7-9dc4096af0cd","ios":"levelo://app?vid=588b9a5f-c1b4-42aa-a0d7-9dc4096af0cd"},"vehicle_type_id":"4","last_reported":1744798273,"current_range_meters":4000,"station_id":"ce4bh012rcd13ifvqd00","pricing_plan_id":"cebpf4jnsgd1na2vs0mg"},{"bike_id":"c1c6dc0e-e17a-44dc-aa27-27ccede0ed46","system_id":"levelo_inurba_marseille","lat":43.26959,"lon":5.3863,"is_reserved":false,"is_disabled":false,"rental_uris":{"android":"levelo://app?vid=c1c6dc0e-e17a-44dc-aa27-27ccede0ed46","ios":"levelo://app?vid=c1c6dc0e-e17a-44dc-aa27-27ccede0ed46"},"vehicle_type_id":"4","last_reported":1744798273,"current_range_meters":4400,"station_id":"ce4bhh92rcd13ifvqfh0","pricing_plan_id":"cebpf4jnsgd1na2vs0mg"},{"bike_id":"8ed04f84-4f60-4210-8826-66c2d615b742","system_id":"levelo_inurba_marseille","lat":43.23062,"lon":5.35492,"is_reserved":false,"is_disabled":false,"rental_uris":{"android":"levelo://app?vid=8ed04f84-4f60-4210-8826-66c2d615b742","ios":"levelo://app?vid=8ed04f84-4f60-4210-8826-66c2d615b742"},"vehicle_type_id":"4","last_reported":1744798273,"current_range_meters":5600,"station_id":"cpo3342slgdg3j2ifvpg","pricing_plan_id":"cebpf4jnsgd1na2vs0mg"},{"bike_id":"97ffd3d2-9dcd-4f53-b270-a404bedbb8c8","system_id":"levelo_inurba_marseille","lat":43.30295,"lon":5.37703,"is_reserved":false,"is_disabled":false,"rental_uris":{"android":"levelo://app?vid=97ffd3d2-9dcd-4f53-b270-a404bedbb8c8","ios":"levelo://app?vid=97ffd3d2-9dcd-4f53-b270-a404bedbb8c8"},"vehicle_type_id":"4","last_reported":1744798273,"current_range_meters":5600,"station_id":"ce4bguh2rcd13ifvqcj0","pricing_plan_id":"cebpf4jnsgd1na2vs0mg"},{"bike_id":"a668abbc-a092-49f5-9124-b0b71b0d2e46","system_id":"levelo_inurba_marseille","lat":43.22934,"lon":5.35382,"is_reserved":false,"is_disabled":false,"rental_uris":{"android":"levelo://app?vid=a668abbc-a092-49f5-9124-b0b71b0d2e46","ios":"levelo://app?vid=a668abbc-a092-49f5-9124-b0b71b0d2e46"},"vehicle_type_id":"4","last_reported":1744798273,"current_range_meters":6000,"station_id":"cpo3532slgdg3j2ikp40","pricing_plan_id":"cebpf4jnsgd1na2vs0mg"},{"bike_id":"207b15a7-69f1-4c4a-a29d-f91df1564475","system_id":"levelo_inurba_marseille","lat":43.24056,"lon":5.37739,"is_reserved":false,"is_disabled":false,"rental_uris":{"android":"levelo://app?vid=207b15a7-69f1-4c4a-a29d-f91df1564475","ios":"levelo://app?vid=207b15a7-69f1-4c4a-a29d-f91df1564475"},"vehicle_type_id":"4","last_reported":1744798273,"current_range_meters":6000,"station_id":"ce4bhnp2rcd13ifvqgvg","pricing_plan_id":"cebpf4jnsgd1na2vs0mg"},{"bike_id":"c273cedc-5337-4dec-91b4-1636fd7d09ad","system_id":"levelo_inurba_marseille","lat":43.31448,"lon":5.37585,"is_reserved":false,"is_disabled":false,"rental_uris":{"android":"levelo://app?vid=c273cedc-5337-4dec-91b4-1636fd7d09ad","ios":"levelo://app?vid=c273cedc-5337-4dec-91b4-1636fd7d09ad"},"vehicle_type_id":"4","last_reported":1744798273,"current_range_meters":6400,"station_id":"","pricing_plan_id":"cebpf4jnsgd1na2vs0mg"},{"bike_id":"34aa0234-6997-4714-b7da-2eb42113aa01","system_id":"levelo_inurba_marseille","lat":43.29892,"lon":5.39726,"is_reserved":false,"is_disabled":false,"rental_uris":{"android":"levelo://app?vid=34aa0234-6997-4714-b7da-2eb42113aa01","ios":"levelo://app?vid=34aa0234-6997-4714-b7da-2eb42113aa01"},"vehicle_type_id":"4","last_reported":1744798273,"current_range_meters":3200,"station_id":"ce4bh0h2rcd13ifvqd50","pricing_plan_id":"cebpf4jnsgd1na2vs0mg"},{"bike_id":"ce9e182c-d411-40ef-b59c-843364d7acbf","system_id":"levelo_inurba_marseille","lat":43.29786,"lon":5.38103,"is_reserved":false,"is_disabled":false,"rental_uris":{"android":"levelo://app?vid=ce9e182c-d411-40ef-b59c-843364d7acbf","ios":"levelo://app?vid=ce9e182c-d411-40ef-b59c-843364d7acbf"},"vehicle_type_id":"4","last_reported":1744798273,"current_range_meters":6400,"station_id":"ce4bgip2rcd13ifvqbb0","pricing_plan_id":"cebpf4jnsgd1na2vs0mg"},{"bike_id":"4d5c9219-dab2-4a84-8f6e-9bff1ce514f0","system_id":"levelo_inurba_marseille","lat":43.2783,"lon":5.39216,"is_reserved":false,"is_disabled":false,"rental_uris":{"android":"levelo://app?vid=4d5c9219-dab2-4a84-8f6e-9bff1ce514f0","ios":"levelo://app?vid=4d5c9219-dab2-4a84-8f6e-9bff1ce514f0"},"vehicle_type_id":"4","last_reported":1744798273,"current_range_meters":6400,"station_id":"ce4bhjp2rcd13ifvqga0","pricing_plan_id":"cebpf4jnsgd1na2vs0mg"},{"bike_id":"4ca1fc76-01c8-4686-94a5-a46dd951837f","system_id":"levelo_inurba_marseille","lat":43.27869,"lon":5.40653,"is_reserved":false,"is_disabled":false,"rental_uris":{"android":"levelo://app?vid=4ca1fc76-01c8-4686-94a5-a46dd951837f","ios":"levelo://app?vid=4ca1fc76-01c8-4686-94a5-a46dd951837f"},"vehicle_type_id":"4","last_reported":1744798273,"current_range_meters":6800,"station_id":"","pricing_plan_id":"cebpf4jnsgd1na2vs0mg"},{"bike_id":"e928d811-c26e-4316-86ec-1eab997472d4","system_id":"levelo_inurba_marseille","lat":43.24802,"lon":5.37455,"is_reserved":false,"is_disabled":false,"rental_uris":{"android":"levelo://app?vid=e928d811-c26e-4316-86ec-1eab997472d4","ios":"levelo://app?vid=e928d811-c26e-4316-86ec-1eab997472d4"},"vehicle_type_id":"4","last_reported":1744798273,"current_range_meters":6800,"station_id":"ce4bhgh2rcd13ifvqfb0","pricing_plan_id":"cebpf4jnsgd1na2vs0mg"},{"bike_id":"27a55245-8dd2-4f1a-af63-95a9d7b71690","system_id":"levelo_inurba_marseille","lat":43.31057,"lon":5.3785,"is_reserved":false,"is_disabled":false,"rental_uris":{"android":"levelo://app?vid=27a55245-8dd2-4f1a-af63-95a9d7b71690","ios":"levelo://app?vid=27a55245-8dd2-4f1a-af63-95a9d7b71690"},"vehicle_type_id":"4","last_reported":1744798273,"current_range_meters":6800,"station_id":"","pricing_plan_id":"cebpf4jnsgd1na2vs0mg"},{"bike_id":"f443cfdb-db2e-4f4b-a88d-615075e28818","system_id":"levelo_inurba_marseille","lat":43.30552,"lon":5.36525,"is_reserved":false,"is_disabled":false,"rental_uris":{"android":"levelo://app?vid=f443cfdb-db2e-4f4b-a88d-615075e28818","ios":"levelo://app?vid=f443cfdb-db2e-4f4b-a88d-615075e28818"},"vehicle_type_id":"4","last_reported":1744798273,"current_range_meters":7200,"station_id":"ce4bgs12rcd13ifvqcag","pricing_plan_id":"cebpf4jnsgd1na2vs0mg"},{"bike_id":"a0636e31-c89e-4ae1-aea4-880988d0da0e","system_id":"levelo_inurba_marseille","lat":43.29562,"lon":5.42301,"is_reserved":false,"is_disabled":false,"rental_uris":{"android":"levelo://app?vid=a0636e31-c89e-4ae1-aea4-880988d0da0e","ios":"levelo://app?vid=a0636e31-c89e-4ae1-aea4-880988d0da0e"},"vehicle_type_id":"4","last_reported":1744798273,"current_range_meters":7200,"station_id":"ce4bhph2rcd13ifvqhdg","pricing_plan_id":"cebpf4jnsgd1na2vs0mg"},{"bike_id":"7b9b4628-1a20-4984-8485-64a109f0d4ae","system_id":"levelo_inurba_marseille","lat":43.29254,"lon":5.37631,"is_reserved":false,"is_disabled":false,"rental_uris":{"android":"levelo://app?vid=7b9b4628-1a20-4984-8485-64a109f0d4ae","ios":"levelo://app?vid=7b9b4628-1a20-4984-8485-64a109f0d4ae"},"vehicle_type_id":"4","last_reported":1744798273,"current_range_meters":7200,"station_id":"ce4bgi12rcd13ifvqb80","pricing_plan_id":"cebpf4jnsgd1na2vs0mg"},{"bike_id":"b7ab99ba-94bb-4274-aca7-e6131d0e5ab1","system_id":"levelo_inurba_marseille","lat":43.24171,"lon":5.36397,"is_reserved":false,"is_disabled":false,"rental_uris":{"android":"levelo://app?vid=b7ab99ba-94bb-4274-aca7-e6131d0e5ab1","ios":"levelo://app?vid=b7ab99ba-94bb-4274-aca7-e6131d0e5ab1"},"vehicle_type_id":"4","last_reported":1744798273,"current_range_meters":8000,"station_id":"cpo36qri1sfpv3e86is0","pricing_plan_id":"cebpf4jnsgd1na2vs0mg"},{"bike_id":"25e230f4-e34c-445f-87cd-877f61101b31","system_id":"levelo_inurba_marseille","lat":43.31234,"lon":5.36891,"is_reserved":false,"is_disabled":false,"rental_uris":{"android":"levelo://app?vid=25e230f4-e34c-445f-87cd-877f61101b31","ios":"levelo://app?vid=25e230f4-e34c-445f-87cd-877f61101b31"},"vehicle_type_id":"4","last_reported":1744798273,"current_range_meters":8400,"station_id":"ce4bgl92rcd13ifvqbq0","pricing_plan_id":"cebpf4jnsgd1na2vs0mg"},{"bike_id":"2f6df327-2b9e-4e96-91cc-f38c6cef3b8b","system_id":"levelo_inurba_marseille","lat":43.24171,"lon":5.39732,"is_reserved":false,"is_disabled":false,"rental_uris":{"android":"levelo://app?vid=2f6df327-2b9e-4e96-91cc-f38c6cef3b8b","ios":"levelo://app?vid=2f6df327-2b9e-4e96-91cc-f38c6cef3b8b"},"vehicle_type_id":"4","last_reported":1744798273,"current_range_meters":8400,"station_id":"ce4bhn12rcd13ifvqgpg","pricing_plan_id":"cebpf4jnsgd1na2vs0mg"},{"bike_id":"ec87bc6e-53e6-45bb-ba1d-ea048b383125","system_id":"levelo_inurba_marseille","lat":43.24811,"lon":5.374634,"is_reserved":false,"is_disabled":false,"rental_uris":{"android":"levelo://app?vid=ec87bc6e-53e6-45bb-ba1d-ea048b383125","ios":"levelo://app?vid=ec87bc6e-53e6-45bb-ba1d-ea048b383125"},"vehicle_type_id":"4","last_reported":1744798273,"current_range_meters":8400,"station_id":"","pricing_plan_id":"cebpf4jnsgd1na2vs0mg"},{"bike_id":"cfe682df-d0ce-4143-9cdc-c9c6578e1b0d","system_id":"levelo_inurba_marseille","lat":43.30231,"lon":5.40043,"is_reserved":false,"is_disabled":true,"rental_uris":{"android":"levelo://app?vid=cfe682df-d0ce-4143-9cdc-c9c6578e1b0d","ios":"levelo://app?vid=cfe682df-d0ce-4143-9cdc-c9c6578e1b0d"},"vehicle_type_id":"4","last_reported":1744798273,"current_range_meters":8800,"station_id":"ce4bgvh2rcd13ifvqcs0","pricing_plan_id":"cebpf4jnsgd1na2vs0mg"},{"bike_id":"9ff5a7ef-d1e0-4ae6-9224-c69447f908f9","system_id":"levelo_inurba_marseille","lat":43.29847,"lon":5.3628,"is_reserved":false,"is_disabled":false,"rental_uris":{"android":"levelo://app?vid=9ff5a7ef-d1e0-4ae6-9224-c69447f908f9","ios":"levelo://app?vid=9ff5a7ef-d1e0-4ae6-9224-c69447f908f9"},"vehicle_type_id":"4","last_reported":1744798273,"current_range_meters":8800,"station_id":"ce4bgpp2rcd13ifvqc3g","pricing_plan_id":"cebpf4jnsgd1na2vs0mg"},{"bike_id":"49090c8d-87b7-4bdd-a1fb-e7e88eb28eb2","system_id":"levelo_inurba_marseille","lat":43.30908,"lon":5.3685,"is_reserved":false,"is_disabled":false,"rental_uris":{"android":"levelo://app?vid=49090c8d-87b7-4bdd-a1fb-e7e88eb28eb2","ios":"levelo://app?vid=49090c8d-87b7-4bdd-a1fb-e7e88eb28eb2"},"vehicle_type_id":"4","last_reported":1744798273,"current_range_meters":8800,"station_id":"ce4bgn92rcd13ifvqbvg","pricing_plan_id":"cebpf4jnsgd1na2vs0mg"},{"bike_id":"30989f99-6be3-4535-992b-8405116acb46","system_id":"levelo_inurba_marseille","lat":43.26786,"lon":5.39411,"is_reserved":false,"is_disabled":false,"rental_uris":{"android":"levelo://app?vid=30989f99-6be3-4535-992b-8405116acb46","ios":"levelo://app?vid=30989f99-6be3-4535-992b-8405116acb46"},"vehicle_type_id":"4","last_reported":1744798273,"current_range_meters":8800,"station_id":"ce4bhh12rcd13ifvqfg0","pricing_plan_id":"cebpf4jnsgd1na2vs0mg"},{"bike_id":"33c49ce4-4511-40dc-97c7-faab16b44ba4","system_id":"levelo_inurba_marseille","lat":43.29529,"lon":5.39017,"is_reserved":false,"is_disabled":false,"rental_uris":{"android":"levelo://app?vid=33c49ce4-4511-40dc-97c7-faab16b44ba4","ios":"levelo://app?vid=33c49ce4-4511-40dc-97c7-faab16b44ba4"},"vehicle_type_id":"4","last_reported":1744798273,"current_range_meters":8800,"station_id":"ce4bh3p2rcd13ifvqdp0","pricing_plan_id":"cebpf4jnsgd1na2vs0mg"},{"bike_id":"376f754b-7bba-4962-babe-b49b1468281c","system_id":"levelo_inurba_marseille","lat":43.30924,"lon":5.40139,"is_reserved":false,"is_disabled":true,"rental_uris":{"android":"levelo://app?vid=376f754b-7bba-4962-babe-b49b1468281c","ios":"levelo://app?vid=376f754b-7bba-4962-babe-b49b1468281c"},"vehicle_type_id":"4","last_reported":1744798273,"current_range_meters":8800,"station_id":"ce4bgvp2rcd13ifvqct0","pricing_plan_id":"cebpf4jnsgd1na2vs0mg"},{"bike_id":"2dccadaa-8201-4b5d-9572-f19c1cc2e6dc","system_id":"levelo_inurba_marseille","lat":43.30922,"lon":5.40135,"is_reserved":false,"is_disabled":false,"rental_uris":{"android":"levelo://app?vid=2dccadaa-8201-4b5d-9572-f19c1cc2e6dc","ios":"levelo://app?vid=2dccadaa-8201-4b5d-9572-f19c1cc2e6dc"},"vehicle_type_id":"4","last_reported":1744798273,"current_range_meters":8800,"station_id":"ce4bgvp2rcd13ifvqct0","pricing_plan_id":"cebpf4jnsgd1na2vs0mg"},{"bike_id":"68bb5c2f-fd19-492d-b0bb-5841e6724b4a","system_id":"levelo_inurba_marseille","lat":43.22938,"lon":5.35382,"is_reserved":false,"is_disabled":false,"rental_uris":{"android":"levelo://app?vid=68bb5c2f-fd19-492d-b0bb-5841e6724b4a","ios":"levelo://app?vid=68bb5c2f-fd19-492d-b0bb-5841e6724b4a"},"vehicle_type_id":"4","last_reported":1744798273,"current_range_meters":9200,"station_id":"cpo3532slgdg3j2ikp40","pricing_plan_id":"cebpf4jnsgd1na2vs0mg"},{"bike_id":"2797dcdb-c4e1-48b2-82d6-5677d371fa39","system_id":"levelo_inurba_marseille","lat":43.24177,"lon":5.36395,"is_reserved":false,"is_disabled":false,"rental_uris":{"android":"levelo://app?vid=2797dcdb-c4e1-48b2-82d6-5677d371fa39","ios":"levelo://app?vid=2797dcdb-c4e1-48b2-82d6-5677d371fa39"},"vehicle_type_id":"4","last_reported":1744798273,"current_range_meters":9200,"station_id":"cpo36qri1sfpv3e86is0","pricing_plan_id":"cebpf4jnsgd1na2vs0mg"},{"bike_id":"b1265d96-5a61-435e-8f29-46a3b2fa771e","system_id":"levelo_inurba_marseille","lat":43.304634,"lon":5.37916,"is_reserved":false,"is_disabled":false,"rental_uris":{"android":"levelo://app?vid=b1265d96-5a61-435e-8f29-46a3b2fa771e","ios":"levelo://app?vid=b1265d96-5a61-435e-8f29-46a3b2fa771e"},"vehicle_type_id":"4","last_reported":1744798273,"current_range_meters":9200,"station_id":"ce4bgup2rcd13ifvqcn0","pricing_plan_id":"cebpf4jnsgd1na2vs0mg"},{"bike_id":"943d835e-e441-49d4-b7f7-4724ffc66162","system_id":"levelo_inurba_marseille","lat":43.24992,"lon":5.38942,"is_reserved":false,"is_disabled":false,"rental_uris":{"android":"levelo://app?vid=943d835e-e441-49d4-b7f7-4724ffc66162","ios":"levelo://app?vid=943d835e-e441-49d4-b7f7-4724ffc66162"},"vehicle_type_id":"4","last_reported":1744798273,"current_range_meters":9200,"station_id":"ce4bhgp2rcd13ifvqfd0","pricing_plan_id":"cebpf4jnsgd1na2vs0mg"},{"bike_id":"dd8f0ff9-117f-4fd9-bc7c-ef5d85c7f322","system_id":"levelo_inurba_marseille","lat":43.32005,"lon":5.38117,"is_reserved":false,"is_disabled":false,"rental_uris":{"android":"levelo://app?vid=dd8f0ff9-117f-4fd9-bc7c-ef5d85c7f322","ios":"levelo://app?vid=dd8f0ff9-117f-4fd9-bc7c-ef5d85c7f322"},"vehicle_type_id":"4","last_reported":1744798273,"current_range_meters":9600,"station_id":"ce4bhr12rcd13ifvqhpg","pricing_plan_id":"cebpf4jnsgd1na2vs0mg"},{"bike_id":"03c8cee0-a6a5-48f4-b783-f14451736b24","system_id":"levelo_inurba_marseille","lat":43.27179,"lon":5.41014,"is_reserved":false,"is_disabled":false,"rental_uris":{"android":"levelo://app?vid=03c8cee0-a6a5-48f4-b783-f14451736b24","ios":"levelo://app?vid=03c8cee0-a6a5-48f4-b783-f14451736b24"},"vehicle_type_id":"4","last_reported":1744798273,"current_range_meters":9600,"station_id":"ce4bhl12rcd13ifvqgf0","pricing_plan_id":"cebpf4jnsgd1na2vs0mg"},{"bike_id":"77df2a07-4a90-4542-8399-3e9e364fbac8","system_id":"levelo_inurba_marseille","lat":43.26935,"lon":5.389171,"is_reserved":false,"is_disabled":false,"rental_uris":{"android":"levelo://app?vid=77df2a07-4a90-4542-8399-3e9e364fbac8","ios":"levelo://app?vid=77df2a07-4a90-4542-8399-3e9e364fbac8"},"vehicle_type_id":"4","last_reported":1744798273,"current_range_meters":9600,"station_id":"ce4bhhh2rcd13ifvqfl0","pricing_plan_id":"cebpf4jnsgd1na2vs0mg"},{"bike_id":"19dc5dac-b432-4a8d-9f56-b05c198e55ac","system_id":"levelo_inurba_marseille","lat":43.30424,"lon":5.39747,"is_reserved":false,"is_disabled":false,"rental_uris":{"android":"levelo://app?vid=19dc5dac-b432-4a8d-9f56-b05c198e55ac","ios":"levelo://app?vid=19dc5dac-b432-4a8d-9f56-b05c198e55ac"},"vehicle_type_id":"4","last_reported":1744798273,"current_range_meters":10000,"station_id":"ce4bh492rcd13ifvqdug","pricing_plan_id":"cebpf4jnsgd1na2vs0mg"},{"bike_id":"b0833750-6838-4304-9826-5e0318d3160b","system_id":"levelo_inurba_marseille","lat":43.298605,"lon":5.39729,"is_reserved":false,"is_disabled":false,"rental_uris":{"android":"levelo://app?vid=b0833750-6838-4304-9826-5e0318d3160b","ios":"levelo://app?vid=b0833750-6838-4304-9826-5e0318d3160b"},"vehicle_type_id":"4","last_reported":1744798273,"current_range_meters":10000,"station_id":"ce4bh0h2rcd13ifvqd50","pricing_plan_id":"cebpf4jnsgd1na2vs0mg"},{"bike_id":"99fe2376-b759-4455-bca2-2621e3a5750a","system_id":"levelo_inurba_marseille","lat":43.274253,"lon":5.394227,"is_reserved":false,"is_disabled":false,"rental_uris":{"android":"levelo://app?vid=99fe2376-b759-4455-bca2-2621e3a5750a","ios":"levelo://app?vid=99fe2376-b759-4455-bca2-2621e3a5750a"},"vehicle_type_id":"4","last_reported":1744798273,"current_range_meters":10800,"station_id":"ce4bhdp2rcd13ifvqf20","pricing_plan_id":"cebpf4jnsgd1na2vs0mg"},{"bike_id":"45c6b552-68fd-454d-84d3-cf79221aaee4","system_id":"levelo_inurba_marseille","lat":43.29859,"lon":5.40872,"is_reserved":false,"is_disabled":false,"rental_uris":{"android":"levelo://app?vid=45c6b552-68fd-454d-84d3-cf79221aaee4","ios":"levelo://app?vid=45c6b552-68fd-454d-84d3-cf79221aaee4"},"vehicle_type_id":"4","last_reported":1744798273,"current_range_meters":10800,"station_id":"","pricing_plan_id":"cebpf4jnsgd1na2vs0mg"},{"bike_id":"1c0c17d4-38c5-4a1c-8a19-a752fa5d90ed","system_id":"levelo_inurba_marseille","lat":43.23178,"lon":5.39988,"is_reserved":false,"is_disabled":false,"rental_uris":{"android":"levelo://app?vid=1c0c17d4-38c5-4a1c-8a19-a752fa5d90ed","ios":"levelo://app?vid=1c0c17d4-38c5-4a1c-8a19-a752fa5d90ed"},"vehicle_type_id":"4","last_reported":1744798273,"current_range_meters":10800,"station_id":"ce4bhn12rcd13ifvqgqg","pricing_plan_id":"cebpf4jnsgd1na2vs0mg"},{"bike_id":"b25eb8f0-d664-4be3-aed6-9b0615b4b204","system_id":"levelo_inurba_marseille","lat":43.30153,"lon":5.38092,"is_reserved":false,"is_disabled":false,"rental_uris":{"android":"levelo://app?vid=b25eb8f0-d664-4be3-aed6-9b0615b4b204","ios":"levelo://app?vid=b25eb8f0-d664-4be3-aed6-9b0615b4b204"},"vehicle_type_id":"4","last_reported":1744798273,"current_range_meters":10800,"station_id":"ce4bgjp2rcd13ifvqbh0","pricing_plan_id":"cebpf4jnsgd1na2vs0mg"},{"bike_id":"0447a846-6fa3-494c-a915-e44288c8b78a","system_id":"levelo_inurba_marseille","lat":43.29096,"lon":5.38124,"is_reserved":false,"is_disabled":false,"rental_uris":{"android":"levelo://app?vid=0447a846-6fa3-494c-a915-e44288c8b78a","ios":"levelo://app?vid=0447a846-6fa3-494c-a915-e44288c8b78a"},"vehicle_type_id":"4","last_reported":1744798273,"current_range_meters":11200,"station_id":"ce4bh512rcd13ifvqe2g","pricing_plan_id":"cebpf4jnsgd1na2vs0mg"},{"bike_id":"7eacb872-0584-4b06-8fad-feb612d3799a","system_id":"levelo_inurba_marseille","lat":43.29691,"lon":5.3818,"is_reserved":false,"is_disabled":false,"rental_uris":{"android":"levelo://app?vid=7eacb872-0584-4b06-8fad-feb612d3799a","ios":"levelo://app?vid=7eacb872-0584-4b06-8fad-feb612d3799a"},"vehicle_type_id":"4","last_reported":1744798273,"current_range_meters":11200,"station_id":"","pricing_plan_id":"cebpf4jnsgd1na2vs0mg"},{"bike_id":"eeec4aa3-87e9-4496-be2e-938ceb91cf85","system_id":"levelo_inurba_marseille","lat":43.29315,"lon":5.37217,"is_reserved":false,"is_disabled":true,"rental_uris":{"android":"levelo://app?vid=eeec4aa3-87e9-4496-be2e-938ceb91cf85","ios":"levelo://app?vid=eeec4aa3-87e9-4496-be2e-938ceb91cf85"},"vehicle_type_id":"4","last_reported":1744798273,"current_range_meters":11600,"station_id":"ce4bgh92rcd13ifvqb40","pricing_plan_id":"cebpf4jnsgd1na2vs0mg"},{"bike_id":"43b14ed2-aebe-4ab3-b543-9cbb36a3d628","system_id":"levelo_inurba_marseille","lat":43.29848,"lon":5.36285,"is_reserved":false,"is_disabled":false,"rental_uris":{"android":"levelo://app?vid=43b14ed2-aebe-4ab3-b543-9cbb36a3d628","ios":"levelo://app?vid=43b14ed2-aebe-4ab3-b543-9cbb36a3d628"},"vehicle_type_id":"4","last_reported":1744798273,"current_range_meters":11600,"station_id":"ce4bgpp2rcd13ifvqc3g","pricing_plan_id":"cebpf4jnsgd1na2vs0mg"},{"bike_id":"dd763502-d980-4f8d-86a8-6f5f08a22a56","system_id":"levelo_inurba_marseille","lat":43.28474,"lon":5.38411,"is_reserved":false,"is_disabled":false,"rental_uris":{"android":"levelo://app?vid=dd763502-d980-4f8d-86a8-6f5f08a22a56","ios":"levelo://app?vid=dd763502-d980-4f8d-86a8-6f5f08a22a56"},"vehicle_type_id":"4","last_reported":1744798273,"current_range_meters":11600,"station_id":"ce4bh512rcd13ifvqe3g","pricing_plan_id":"cebpf4jnsgd1na2vs0mg"},{"bike_id":"2d8e7909-426d-40fe-90db-bd8eae028fde","system_id":"levelo_inurba_marseille","lat":43.30476,"lon":5.37908,"is_reserved":false,"is_disabled":false,"rental_uris":{"android":"levelo://app?vid=2d8e7909-426d-40fe-90db-bd8eae028fde","ios":"levelo://app?vid=2d8e7909-426d-40fe-90db-bd8eae028fde"},"vehicle_type_id":"4","last_reported":1744798273,"current_range_meters":11600,"station_id":"ce4bgup2rcd13ifvqcn0","pricing_plan_id":"cebpf4jnsgd1na2vs0mg"},{"bike_id":"ee465a00-80df-4308-a2c3-b5ea33f92667","system_id":"levelo_inurba_marseille","lat":43.32108,"lon":5.36793,"is_reserved":false,"is_disabled":false,"rental_uris":{"android":"levelo://app?vid=ee465a00-80df-4308-a2c3-b5ea33f92667","ios":"levelo://app?vid=ee465a00-80df-4308-a2c3-b5ea33f92667"},"vehicle_type_id":"4","last_reported":1744798273,"current_range_meters":11600,"station_id":"ce4bhrh2rcd13ifvqhug","pricing_plan_id":"cebpf4jnsgd1na2vs0mg"},{"bike_id":"9f405a18-06f0-40fb-8f66-7b31c717099a","system_id":"levelo_inurba_marseille","lat":43.28855,"lon":5.35842,"is_reserved":false,"is_disabled":false,"rental_uris":{"android":"levelo://app?vid=9f405a18-06f0-40fb-8f66-7b31c717099a","ios":"levelo://app?vid=9f405a18-06f0-40fb-8f66-7b31c717099a"},"vehicle_type_id":"4","last_reported":1744798273,"current_range_meters":11600,"station_id":"ce4bhb12rcd13ifvqem0","pricing_plan_id":"cebpf4jnsgd1na2vs0mg"},{"bike_id":"561936ef-54e4-4d15-b2a7-dfd018b9e12e","system_id":"levelo_inurba_marseille","lat":43.29814,"lon":5.40267,"is_reserved":false,"is_disabled":false,"rental_uris":{"android":"levelo://app?vid=561936ef-54e4-4d15-b2a7-dfd018b9e12e","ios":"levelo://app?vid=561936ef-54e4-4d15-b2a7-dfd018b9e12e"},"vehicle_type_id":"4","last_reported":1744798273,"current_range_meters":12000,"station_id":"","pricing_plan_id":"cebpf4jnsgd1na2vs0mg"},{"bike_id":"e8412f40-a8dc-44ee-bbc2-e01b1cf2ab9a","system_id":"levelo_inurba_marseille","lat":43.2782,"lon":5.39215,"is_reserved":false,"is_disabled":false,"rental_uris":{"android":"levelo://app?vid=e8412f40-a8dc-44ee-bbc2-e01b1cf2ab9a","ios":"levelo://app?vid=e8412f40-a8dc-44ee-bbc2-e01b1cf2ab9a"},"vehicle_type_id":"4","last_reported":1744798273,"current_range_meters":12400,"station_id":"ce4bhjp2rcd13ifvqga0","pricing_plan_id":"cebpf4jnsgd1na2vs0mg"},{"bike_id":"d57c0203-955d-4032-913d-b54654d8f447","system_id":"levelo_inurba_marseille","lat":43.30891,"lon":5.37187,"is_reserved":false,"is_disabled":false,"rental_uris":{"android":"levelo://app?vid=d57c0203-955d-4032-913d-b54654d8f447","ios":"levelo://app?vid=d57c0203-955d-4032-913d-b54654d8f447"},"vehicle_type_id":"4","last_reported":1744798273,"current_range_meters":12400,"station_id":"ce4bguh2rcd13ifvqckg","pricing_plan_id":"cebpf4jnsgd1na2vs0mg"},{"bike_id":"4220a71d-b00b-46df-8353-e10f2175efff","system_id":"levelo_inurba_marseille","lat":43.32361,"lon":5.36771,"is_reserved":false,"is_disabled":false,"rental_uris":{"android":"levelo://app?vid=4220a71d-b00b-46df-8353-e10f2175efff","ios":"levelo://app?vid=4220a71d-b00b-46df-8353-e10f2175efff"},"vehicle_type_id":"4","last_reported":1744798273,"current_range_meters":12400,"station_id":"ce4bhsh2rcd13ifvqi2g","pricing_plan_id":"cebpf4jnsgd1na2vs0mg"},{"bike_id":"91f1e95a-1730-46c2-bce4-16ae011cfb61","system_id":"levelo_inurba_marseille","lat":43.30925,"lon":5.40154,"is_reserved":false,"is_disabled":false,"rental_uris":{"android":"levelo://app?vid=91f1e95a-1730-46c2-bce4-16ae011cfb61","ios":"levelo://app?vid=91f1e95a-1730-46c2-bce4-16ae011cfb61"},"vehicle_type_id":"4","last_reported":1744798273,"current_range_meters":12400,"station_id":"ce4bgvp2rcd13ifvqct0","pricing_plan_id":"cebpf4jnsgd1na2vs0mg"},{"bike_id":"f66e9184-6144-4d05-86a5-08e1062e8ef8","system_id":"levelo_inurba_marseille","lat":43.2593,"lon":5.40913,"is_reserved":false,"is_disabled":false,"rental_uris":{"android":"levelo://app?vid=f66e9184-6144-4d05-86a5-08e1062e8ef8","ios":"levelo://app?vid=f66e9184-6144-4d05-86a5-08e1062e8ef8"},"vehicle_type_id":"4","last_reported":1744798273,"current_range_meters":12800,"station_id":"ce4bhm92rcd13ifvqglg","pricing_plan_id":"cebpf4jnsgd1na2vs0mg"},{"bike_id":"ce86423c-7fda-4347-b51e-6014b639a5a1","system_id":"levelo_inurba_marseille","lat":43.31065,"lon":5.38342,"is_reserved":false,"is_disabled":false,"rental_uris":{"android":"levelo://app?vid=ce86423c-7fda-4347-b51e-6014b639a5a1","ios":"levelo://app?vid=ce86423c-7fda-4347-b51e-6014b639a5a1"},"vehicle_type_id":"4","last_reported":1744798273,"current_range_meters":12800,"station_id":"ce4bgv92rcd13ifvqcr0","pricing_plan_id":"cebpf4jnsgd1na2vs0mg"},{"bike_id":"08665e19-be9b-4b06-a7d4-30f714f1faad","system_id":"levelo_inurba_marseille","lat":43.25719,"lon":5.41107,"is_reserved":false,"is_disabled":false,"rental_uris":{"android":"levelo://app?vid=08665e19-be9b-4b06-a7d4-30f714f1faad","ios":"levelo://app?vid=08665e19-be9b-4b06-a7d4-30f714f1faad"},"vehicle_type_id":"4","last_reported":1744798273,"current_range_meters":13600,"station_id":"ce4bhkp2rcd13ifvqgd0","pricing_plan_id":"cebpf4jnsgd1na2vs0mg"},{"bike_id":"d97d893d-9ce5-45d0-bd25-67fd493972fe","system_id":"levelo_inurba_marseille","lat":43.30146,"lon":5.38081,"is_reserved":false,"is_disabled":false,"rental_uris":{"android":"levelo://app?vid=d97d893d-9ce5-45d0-bd25-67fd493972fe","ios":"levelo://app?vid=d97d893d-9ce5-45d0-bd25-67fd493972fe"},"vehicle_type_id":"4","last_reported":1744798273,"current_range_meters":13600,"station_id":"ce4bgjp2rcd13ifvqbh0","pricing_plan_id":"cebpf4jnsgd1na2vs0mg"},{"bike_id":"5bd2378a-0ba2-4601-8114-ff49dc777988","system_id":"levelo_inurba_marseille","lat":43.30918,"lon":5.3685,"is_reserved":false,"is_disabled":false,"rental_uris":{"android":"levelo://app?vid=5bd2378a-0ba2-4601-8114-ff49dc777988","ios":"levelo://app?vid=5bd2378a-0ba2-4601-8114-ff49dc777988"},"vehicle_type_id":"4","last_reported":1744798273,"current_range_meters":14000,"station_id":"ce4bgn92rcd13ifvqbvg","pricing_plan_id":"cebpf4jnsgd1na2vs0mg"},{"bike_id":"96665a8a-18e9-402c-be1a-70c67a742ed6","system_id":"levelo_inurba_marseille","lat":43.30888,"lon":5.37195,"is_reserved":false,"is_disabled":false,"rental_uris":{"android":"levelo://app?vid=96665a8a-18e9-402c-be1a-70c67a742ed6","ios":"levelo://app?vid=96665a8a-18e9-402c-be1a-70c67a742ed6"},"vehicle_type_id":"4","last_reported":1744798273,"current_range_meters":14000,"station_id":"ce4bguh2rcd13ifvqckg","pricing_plan_id":"cebpf4jnsgd1na2vs0mg"},{"bike_id":"834ec9e1-9d50-4bee-85ae-d1db335c55e5","system_id":"levelo_inurba_marseille","lat":43.31805,"lon":5.36849,"is_reserved":false,"is_disabled":false,"rental_uris":{"android":"levelo://app?vid=834ec9e1-9d50-4bee-85ae-d1db335c55e5","ios":"levelo://app?vid=834ec9e1-9d50-4bee-85ae-d1db335c55e5"},"vehicle_type_id":"4","last_reported":1744798273,"current_range_meters":14000,"station_id":"","pricing_plan_id":"cebpf4jnsgd1na2vs0mg"},{"bike_id":"f4e1803b-2805-40e2-a732-214778287d88","system_id":"levelo_inurba_marseille","lat":43.29847,"lon":5.36276,"is_reserved":false,"is_disabled":false,"rental_uris":{"android":"levelo://app?vid=f4e1803b-2805-40e2-a732-214778287d88","ios":"levelo://app?vid=f4e1803b-2805-40e2-a732-214778287d88"},"vehicle_type_id":"4","last_reported":1744798273,"current_range_meters":14000,"station_id":"ce4bgpp2rcd13ifvqc3g","pricing_plan_id":"cebpf4jnsgd1na2vs0mg"},{"bike_id":"0a063f8e-207c-47fe-bcef-32d1cf4de82b","system_id":"levelo_inurba_marseille","lat":43.2466,"lon":5.38161,"is_reserved":false,"is_disabled":false,"rental_uris":{"android":"levelo://app?vid=0a063f8e-207c-47fe-bcef-32d1cf4de82b","ios":"levelo://app?vid=0a063f8e-207c-47fe-bcef-32d1cf4de82b"},"vehicle_type_id":"4","last_reported":1744798273,"current_range_meters":14000,"station_id":"ce4bhih2rcd13ifvqfr0","pricing_plan_id":"cebpf4jnsgd1na2vs0mg"},{"bike_id":"f1d1d668-e9a3-40c6-8b34-e48aa0afdf58","system_id":"levelo_inurba_marseille","lat":43.3015,"lon":5.38085,"is_reserved":false,"is_disabled":false,"rental_uris":{"android":"levelo://app?vid=f1d1d668-e9a3-40c6-8b34-e48aa0afdf58","ios":"levelo://app?vid=f1d1d668-e9a3-40c6-8b34-e48aa0afdf58"},"vehicle_type_id":"4","last_reported":1744798273,"current_range_meters":14000,"station_id":"ce4bgjp2rcd13ifvqbh0","pricing_plan_id":"cebpf4jnsgd1na2vs0mg"},{"bike_id":"84c7ef89-fc54-4ae5-b438-95408947fcce","system_id":"levelo_inurba_marseille","lat":43.30087,"lon":5.39079,"is_reserved":false,"is_disabled":false,"rental_uris":{"android":"levelo://app?vid=84c7ef89-fc54-4ae5-b438-95408947fcce","ios":"levelo://app?vid=84c7ef89-fc54-4ae5-b438-95408947fcce"},"vehicle_type_id":"4","last_reported":1744798273,"current_range_meters":14000,"station_id":"ce4bh192rcd13ifvqdb0","pricing_plan_id":"cebpf4jnsgd1na2vs0mg"},{"bike_id":"dbf4c253-115b-4d60-8ce6-347759549849","system_id":"levelo_inurba_marseille","lat":43.29261,"lon":5.38439,"is_reserved":false,"is_disabled":false,"rental_uris":{"android":"levelo://app?vid=dbf4c253-115b-4d60-8ce6-347759549849","ios":"levelo://app?vid=dbf4c253-115b-4d60-8ce6-347759549849"},"vehicle_type_id":"4","last_reported":1744798273,"current_range_meters":14000,"station_id":"ce4bh692rcd13ifvqea0","pricing_plan_id":"cebpf4jnsgd1na2vs0mg"},{"bike_id":"4bacc223-d9db-4e27-bb0c-1baacba926e1","system_id":"levelo_inurba_marseille","lat":43.29005,"lon":5.35621,"is_reserved":false,"is_disabled":false,"rental_uris":{"android":"levelo://app?vid=4bacc223-d9db-4e27-bb0c-1baacba926e1","ios":"levelo://app?vid=4bacc223-d9db-4e27-bb0c-1baacba926e1"},"vehicle_type_id":"4","last_reported":1744798273,"current_range_meters":14000,"station_id":"ce4bhb92rcd13ifvqen0","pricing_plan_id":"cebpf4jnsgd1na2vs0mg"},{"bike_id":"ea5f28cd-dc08-45b1-8e57-cd0204f69037","system_id":"levelo_inurba_marseille","lat":43.231953,"lon":5.437257,"is_reserved":false,"is_disabled":false,"rental_uris":{"android":"levelo://app?vid=ea5f28cd-dc08-45b1-8e57-cd0204f69037","ios":"levelo://app?vid=ea5f28cd-dc08-45b1-8e57-cd0204f69037"},"vehicle_type_id":"4","last_reported":1744798273,"current_range_meters":14400,"station_id":"ce4bhmp2rcd13ifvqgog","pricing_plan_id":"cebpf4jnsgd1na2vs0mg"},{"bike_id":"3a179018-dfdf-470e-89e4-9c2255037a21","system_id":"levelo_inurba_marseille","lat":43.31986,"lon":5.38149,"is_reserved":false,"is_disabled":false,"rental_uris":{"android":"levelo://app?vid=3a179018-dfdf-470e-89e4-9c2255037a21","ios":"levelo://app?vid=3a179018-dfdf-470e-89e4-9c2255037a21"},"vehicle_type_id":"4","last_reported":1744798273,"current_range_meters":14400,"station_id":"ce4bhr12rcd13ifvqhpg","pricing_plan_id":"cebpf4jnsgd1na2vs0mg"},{"bike_id":"90aab251-1ff9-4010-ba90-86de6b1ffc35","system_id":"levelo_inurba_marseille","lat":43.231509,"lon":5.437164,"is_reserved":false,"is_disabled":false,"rental_uris":{"android":"levelo://app?vid=90aab251-1ff9-4010-ba90-86de6b1ffc35","ios":"levelo://app?vid=90aab251-1ff9-4010-ba90-86de6b1ffc35"},"vehicle_type_id":"4","last_reported":1744798273,"current_range_meters":15200,"station_id":"ce4bhmp2rcd13ifvqgog","pricing_plan_id":"cebpf4jnsgd1na2vs0mg"},{"bike_id":"934e6c51-6b66-471b-adef-8f4d77f91d66","system_id":"levelo_inurba_marseille","lat":43.28723,"lon":5.36086,"is_reserved":false,"is_disabled":false,"rental_uris":{"android":"levelo://app?vid=934e6c51-6b66-471b-adef-8f4d77f91d66","ios":"levelo://app?vid=934e6c51-6b66-471b-adef-8f4d77f91d66"},"vehicle_type_id":"4","last_reported":1744798273,"current_range_meters":16000,"station_id":"cki0cbj6b192h4jlfktg","pricing_plan_id":"cebpf4jnsgd1na2vs0mg"},{"bike_id":"dda27a58-e2ca-4fce-a851-41cf6185682c","system_id":"levelo_inurba_marseille","lat":43.30271,"lon":5.37714,"is_reserved":false,"is_disabled":false,"rental_uris":{"android":"levelo://app?vid=dda27a58-e2ca-4fce-a851-41cf6185682c","ios":"levelo://app?vid=dda27a58-e2ca-4fce-a851-41cf6185682c"},"vehicle_type_id":"4","last_reported":1744798273,"current_range_meters":16000,"station_id":"ce4bguh2rcd13ifvqcj0","pricing_plan_id":"cebpf4jnsgd1na2vs0mg"},{"bike_id":"4328369a-71e3-42f0-af9b-b3d103933d00","system_id":"levelo_inurba_marseille","lat":43.33599,"lon":5.4105,"is_reserved":false,"is_disabled":false,"rental_uris":{"android":"levelo://app?vid=4328369a-71e3-42f0-af9b-b3d103933d00","ios":"levelo://app?vid=4328369a-71e3-42f0-af9b-b3d103933d00"},"vehicle_type_id":"4","last_reported":1744798273,"current_range_meters":16000,"station_id":"ce4bhqh2rcd13ifvqhmg","pricing_plan_id":"cebpf4jnsgd1na2vs0mg"},{"bike_id":"e671135f-6e8d-4f7d-b793-34acac25fdfc","system_id":"levelo_inurba_marseille","lat":43.32353,"lon":5.36758,"is_reserved":false,"is_disabled":false,"rental_uris":{"android":"levelo://app?vid=e671135f-6e8d-4f7d-b793-34acac25fdfc","ios":"levelo://app?vid=e671135f-6e8d-4f7d-b793-34acac25fdfc"},"vehicle_type_id":"4","last_reported":1744798273,"current_range_meters":16000,"station_id":"ce4bhsh2rcd13ifvqi2g","pricing_plan_id":"cebpf4jnsgd1na2vs0mg"},{"bike_id":"9ff429a7-3a1f-4595-bdcc-9aa94a0fdf59","system_id":"levelo_inurba_marseille","lat":43.31062,"lon":5.38363,"is_reserved":false,"is_disabled":false,"rental_uris":{"android":"levelo://app?vid=9ff429a7-3a1f-4595-bdcc-9aa94a0fdf59","ios":"levelo://app?vid=9ff429a7-3a1f-4595-bdcc-9aa94a0fdf59"},"vehicle_type_id":"4","last_reported":1744798273,"current_range_meters":16000,"station_id":"ce4bgv92rcd13ifvqcr0","pricing_plan_id":"cebpf4jnsgd1na2vs0mg"},{"bike_id":"da0699e6-fffb-42fd-bda2-fa249cfedfd8","system_id":"levelo_inurba_marseille","lat":43.31487,"lon":5.37295,"is_reserved":false,"is_disabled":false,"rental_uris":{"android":"levelo://app?vid=da0699e6-fffb-42fd-bda2-fa249cfedfd8","ios":"levelo://app?vid=da0699e6-fffb-42fd-bda2-fa249cfedfd8"},"vehicle_type_id":"4","last_reported":1744798273,"current_range_meters":16400,"station_id":"ce4bgt12rcd13ifvqcd0","pricing_plan_id":"cebpf4jnsgd1na2vs0mg"},{"bike_id":"0987401d-b1dd-4592-8a29-43261bfbbdb2","system_id":"levelo_inurba_marseille","lat":43.29866,"lon":5.39746,"is_reserved":false,"is_disabled":false,"rental_uris":{"android":"levelo://app?vid=0987401d-b1dd-4592-8a29-43261bfbbdb2","ios":"levelo://app?vid=0987401d-b1dd-4592-8a29-43261bfbbdb2"},"vehicle_type_id":"4","last_reported":1744798273,"current_range_meters":16400,"station_id":"ce4bh0h2rcd13ifvqd50","pricing_plan_id":"cebpf4jnsgd1na2vs0mg"},{"bike_id":"6bf5a380-400e-4cd6-bc1e-356afac9ee45","system_id":"levelo_inurba_marseille","lat":43.24167,"lon":5.36394,"is_reserved":false,"is_disabled":false,"rental_uris":{"android":"levelo://app?vid=6bf5a380-400e-4cd6-bc1e-356afac9ee45","ios":"levelo://app?vid=6bf5a380-400e-4cd6-bc1e-356afac9ee45"},"vehicle_type_id":"4","last_reported":1744798273,"current_range_meters":16400,"station_id":"cpo36qri1sfpv3e86is0","pricing_plan_id":"cebpf4jnsgd1na2vs0mg"},{"bike_id":"6c103f9f-c959-46ad-a2e8-e44f9660c68e","system_id":"levelo_inurba_marseille","lat":43.21206,"lon":5.35056,"is_reserved":false,"is_disabled":false,"rental_uris":{"android":"levelo://app?vid=6c103f9f-c959-46ad-a2e8-e44f9660c68e","ios":"levelo://app?vid=6c103f9f-c959-46ad-a2e8-e44f9660c68e"},"vehicle_type_id":"4","last_reported":1744798273,"current_range_meters":16400,"station_id":"st_cvj6sg6p6f1abm77japg","pricing_plan_id":"cebpf4jnsgd1na2vs0mg"},{"bike_id":"f8205049-59cf-4c67-95d9-2ae60dd41d42","system_id":"levelo_inurba_marseille","lat":43.26063,"lon":5.39395,"is_reserved":false,"is_disabled":false,"rental_uris":{"android":"levelo://app?vid=f8205049-59cf-4c67-95d9-2ae60dd41d42","ios":"levelo://app?vid=f8205049-59cf-4c67-95d9-2ae60dd41d42"},"vehicle_type_id":"4","last_reported":1744798273,"current_range_meters":16400,"station_id":"ce4bhh92rcd13ifvqfj0","pricing_plan_id":"cebpf4jnsgd1na2vs0mg"},{"bike_id":"c1404c22-3a48-4367-bbbd-d0bf216e29bc","system_id":"levelo_inurba_marseille","lat":43.30947,"lon":5.39069,"is_reserved":false,"is_disabled":false,"rental_uris":{"android":"levelo://app?vid=c1404c22-3a48-4367-bbbd-d0bf216e29bc","ios":"levelo://app?vid=c1404c22-3a48-4367-bbbd-d0bf216e29bc"},"vehicle_type_id":"4","last_reported":1744798273,"current_range_meters":16400,"station_id":"ce4bgup2rcd13ifvqco0","pricing_plan_id":"cebpf4jnsgd1na2vs0mg"},{"bike_id":"a6d451ba-0fef-4616-9459-0a9167b4802c","system_id":"levelo_inurba_marseille","lat":43.29367,"lon":5.3786,"is_reserved":false,"is_disabled":false,"rental_uris":{"android":"levelo://app?vid=a6d451ba-0fef-4616-9459-0a9167b4802c","ios":"levelo://app?vid=a6d451ba-0fef-4616-9459-0a9167b4802c"},"vehicle_type_id":"4","last_reported":1744798273,"current_range_meters":16400,"station_id":"ce4bgjh2rcd13ifvqbf0","pricing_plan_id":"cebpf4jnsgd1na2vs0mg"},{"bike_id":"2be2e8c5-ff49-4a5a-963a-4bbeabb11512","system_id":"levelo_inurba_marseille","lat":43.30738,"lon":5.42461,"is_reserved":false,"is_disabled":false,"rental_uris":{"android":"levelo://app?vid=2be2e8c5-ff49-4a5a-963a-4bbeabb11512","ios":"levelo://app?vid=2be2e8c5-ff49-4a5a-963a-4bbeabb11512"},"vehicle_type_id":"4","last_reported":1744798273,"current_range_meters":16400,"station_id":"st_cvj6ca6bvosntc0bfgr0","pricing_plan_id":"cebpf4jnsgd1na2vs0mg"},{"bike_id":"480067a1-c40f-44f0-b9d7-4bcfb85460b5","system_id":"levelo_inurba_marseille","lat":43.28023,"lon":5.36955,"is_reserved":false,"is_disabled":false,"rental_uris":{"android":"levelo://app?vid=480067a1-c40f-44f0-b9d7-4bcfb85460b5","ios":"levelo://app?vid=480067a1-c40f-44f0-b9d7-4bcfb85460b5"},"vehicle_type_id":"4","last_reported":1744798273,"current_range_meters":16000,"station_id":"ce4bha12rcd13ifvqef0","pricing_plan_id":"cebpf4jnsgd1na2vs0mg"},{"bike_id":"60ed6980-2c34-4754-ad59-4c9dd6d7cc20","system_id":"levelo_inurba_marseille","lat":43.301546,"lon":5.380725,"is_reserved":false,"is_disabled":false,"rental_uris":{"android":"levelo://app?vid=60ed6980-2c34-4754-ad59-4c9dd6d7cc20","ios":"levelo://app?vid=60ed6980-2c34-4754-ad59-4c9dd6d7cc20"},"vehicle_type_id":"4","last_reported":1744798273,"current_range_meters":16400,"station_id":"ce4bgjp2rcd13ifvqbh0","pricing_plan_id":"cebpf4jnsgd1na2vs0mg"},{"bike_id":"0b3927f3-0c75-444e-8f1c-7411096ba871","system_id":"levelo_inurba_marseille","lat":43.33596,"lon":5.41,"is_reserved":false,"is_disabled":false,"rental_uris":{"android":"levelo://app?vid=0b3927f3-0c75-444e-8f1c-7411096ba871","ios":"levelo://app?vid=0b3927f3-0c75-444e-8f1c-7411096ba871"},"vehicle_type_id":"4","last_reported":1744798273,"current_range_meters":16800,"station_id":"ce4bhqh2rcd13ifvqhmg","pricing_plan_id":"cebpf4jnsgd1na2vs0mg"},{"bike_id":"955fe0a1-d430-49ec-aa12-7cfb9147fe5c","system_id":"levelo_inurba_marseille","lat":43.29096,"lon":5.38157,"is_reserved":false,"is_disabled":false,"rental_uris":{"android":"levelo://app?vid=955fe0a1-d430-49ec-aa12-7cfb9147fe5c","ios":"levelo://app?vid=955fe0a1-d430-49ec-aa12-7cfb9147fe5c"},"vehicle_type_id":"4","last_reported":1744798273,"current_range_meters":16800,"station_id":"ce4bh512rcd13ifvqe2g","pricing_plan_id":"cebpf4jnsgd1na2vs0mg"},{"bike_id":"13911b68-5e79-46ab-9774-dfbd29db4c23","system_id":"levelo_inurba_marseille","lat":43.2979,"lon":5.38107,"is_reserved":false,"is_disabled":false,"rental_uris":{"android":"levelo://app?vid=13911b68-5e79-46ab-9774-dfbd29db4c23","ios":"levelo://app?vid=13911b68-5e79-46ab-9774-dfbd29db4c23"},"vehicle_type_id":"4","last_reported":1744798273,"current_range_meters":16800,"station_id":"ce4bgip2rcd13ifvqbb0","pricing_plan_id":"cebpf4jnsgd1na2vs0mg"},{"bike_id":"6140cd63-a641-4418-b6d9-37a644aaded1","system_id":"levelo_inurba_marseille","lat":43.30556,"lon":5.36558,"is_reserved":false,"is_disabled":false,"rental_uris":{"android":"levelo://app?vid=6140cd63-a641-4418-b6d9-37a644aaded1","ios":"levelo://app?vid=6140cd63-a641-4418-b6d9-37a644aaded1"},"vehicle_type_id":"4","last_reported":1744798273,"current_range_meters":16800,"station_id":"ce4bgs12rcd13ifvqcag","pricing_plan_id":"cebpf4jnsgd1na2vs0mg"},{"bike_id":"8b5f6de4-e202-4aa4-b826-afbc8a994f6f","system_id":"levelo_inurba_marseille","lat":43.30209,"lon":5.39469,"is_reserved":false,"is_disabled":false,"rental_uris":{"android":"levelo://app?vid=8b5f6de4-e202-4aa4-b826-afbc8a994f6f","ios":"levelo://app?vid=8b5f6de4-e202-4aa4-b826-afbc8a994f6f"},"vehicle_type_id":"4","last_reported":1744798273,"current_range_meters":16800,"station_id":"ce4bh0p2rcd13ifvqd70","pricing_plan_id":"cebpf4jnsgd1na2vs0mg"},{"bike_id":"52488a8c-ee52-45f2-aa5c-963de923bf31","system_id":"levelo_inurba_marseille","lat":43.259946,"lon":5.417362,"is_reserved":false,"is_disabled":false,"rental_uris":{"android":"levelo://app?vid=52488a8c-ee52-45f2-aa5c-963de923bf31","ios":"levelo://app?vid=52488a8c-ee52-45f2-aa5c-963de923bf31"},"vehicle_type_id":"4","last_reported":1744798273,"current_range_meters":17200,"station_id":"","pricing_plan_id":"cebpf4jnsgd1na2vs0mg"},{"bike_id":"10a05b79-c3d5-4be7-a18b-8140be240501","system_id":"levelo_inurba_marseille","lat":43.29599,"lon":5.38091,"is_reserved":false,"is_disabled":false,"rental_uris":{"android":"levelo://app?vid=10a05b79-c3d5-4be7-a18b-8140be240501","ios":"levelo://app?vid=10a05b79-c3d5-4be7-a18b-8140be240501"},"vehicle_type_id":"4","last_reported":1744798273,"current_range_meters":17200,"station_id":"ce4bgl12rcd13ifvqbo0","pricing_plan_id":"cebpf4jnsgd1na2vs0mg"},{"bike_id":"c31c0ecc-e896-4522-8f59-f94ab8194ac3","system_id":"levelo_inurba_marseille","lat":43.31675,"lon":5.4046,"is_reserved":false,"is_disabled":false,"rental_uris":{"android":"levelo://app?vid=c31c0ecc-e896-4522-8f59-f94ab8194ac3","ios":"levelo://app?vid=c31c0ecc-e896-4522-8f59-f94ab8194ac3"},"vehicle_type_id":"4","last_reported":1744798273,"current_range_meters":17200,"station_id":"ce4bh012rcd13ifvqd00","pricing_plan_id":"cebpf4jnsgd1na2vs0mg"},{"bike_id":"6d808110-2d8c-4565-a3c5-2c4f66ab2217","system_id":"levelo_inurba_marseille","lat":43.29711,"lon":5.37678,"is_reserved":false,"is_disabled":false,"rental_uris":{"android":"levelo://app?vid=6d808110-2d8c-4565-a3c5-2c4f66ab2217","ios":"levelo://app?vid=6d808110-2d8c-4565-a3c5-2c4f66ab2217"},"vehicle_type_id":"4","last_reported":1744798273,"current_range_meters":17200,"station_id":"ce4bgkh2rcd13ifvqbl0","pricing_plan_id":"cebpf4jnsgd1na2vs0mg"},{"bike_id":"6c753cfd-e2a2-46b2-a74f-cf2c42d3ccc5","system_id":"levelo_inurba_marseille","lat":43.30471,"lon":5.3792,"is_reserved":false,"is_disabled":false,"rental_uris":{"android":"levelo://app?vid=6c753cfd-e2a2-46b2-a74f-cf2c42d3ccc5","ios":"levelo://app?vid=6c753cfd-e2a2-46b2-a74f-cf2c42d3ccc5"},"vehicle_type_id":"4","last_reported":1744798273,"current_range_meters":17200,"station_id":"ce4bgup2rcd13ifvqcn0","pricing_plan_id":"cebpf4jnsgd1na2vs0mg"},{"bike_id":"94441217-5d39-4012-8eb1-53c52f8530f0","system_id":"levelo_inurba_marseille","lat":43.22936,"lon":5.35377,"is_reserved":false,"is_disabled":false,"rental_uris":{"android":"levelo://app?vid=94441217-5d39-4012-8eb1-53c52f8530f0","ios":"levelo://app?vid=94441217-5d39-4012-8eb1-53c52f8530f0"},"vehicle_type_id":"4","last_reported":1744798273,"current_range_meters":17200,"station_id":"cpo3532slgdg3j2ikp40","pricing_plan_id":"cebpf4jnsgd1na2vs0mg"},{"bike_id":"3f76cf4a-79bc-4821-9f8d-e2730f5118a7","system_id":"levelo_inurba_marseille","lat":43.30887,"lon":5.39663,"is_reserved":false,"is_disabled":false,"rental_uris":{"android":"levelo://app?vid=3f76cf4a-79bc-4821-9f8d-e2730f5118a7","ios":"levelo://app?vid=3f76cf4a-79bc-4821-9f8d-e2730f5118a7"},"vehicle_type_id":"4","last_reported":1744798273,"current_range_meters":17200,"station_id":"ce4bh012rcd13ifvqcv0","pricing_plan_id":"cebpf4jnsgd1na2vs0mg"},{"bike_id":"b6b4fba7-65bd-4354-9ef8-9be346fbbc8a","system_id":"levelo_inurba_marseille","lat":43.30277,"lon":5.37699,"is_reserved":false,"is_disabled":false,"rental_uris":{"android":"levelo://app?vid=b6b4fba7-65bd-4354-9ef8-9be346fbbc8a","ios":"levelo://app?vid=b6b4fba7-65bd-4354-9ef8-9be346fbbc8a"},"vehicle_type_id":"4","last_reported":1744798273,"current_range_meters":17600,"station_id":"ce4bguh2rcd13ifvqcj0","pricing_plan_id":"cebpf4jnsgd1na2vs0mg"},{"bike_id":"d99e15ca-2215-4c4d-b0ca-41fe329d397c","system_id":"levelo_inurba_marseille","lat":43.31226,"lon":5.36859,"is_reserved":false,"is_disabled":false,"rental_uris":{"android":"levelo://app?vid=d99e15ca-2215-4c4d-b0ca-41fe329d397c","ios":"levelo://app?vid=d99e15ca-2215-4c4d-b0ca-41fe329d397c"},"vehicle_type_id":"4","last_reported":1744798273,"current_range_meters":17600,"station_id":"ce4bgl92rcd13ifvqbq0","pricing_plan_id":"cebpf4jnsgd1na2vs0mg"},{"bike_id":"57406be6-c0b4-4691-8abf-3f6842e4ec81","system_id":"levelo_inurba_marseille","lat":43.284558,"lon":5.391826,"is_reserved":false,"is_disabled":true,"rental_uris":{"android":"levelo://app?vid=57406be6-c0b4-4691-8abf-3f6842e4ec81","ios":"levelo://app?vid=57406be6-c0b4-4691-8abf-3f6842e4ec81"},"vehicle_type_id":"4","last_reported":1744798273,"current_range_meters":17600,"station_id":"ce4bhoh2rcd13ifvqh5g","pricing_plan_id":"cebpf4jnsgd1na2vs0mg"},{"bike_id":"b453c917-0db1-40bd-ad8a-e14424b609f7","system_id":"levelo_inurba_marseille","lat":43.27055,"lon":5.40276,"is_reserved":false,"is_disabled":false,"rental_uris":{"android":"levelo://app?vid=b453c917-0db1-40bd-ad8a-e14424b609f7","ios":"levelo://app?vid=b453c917-0db1-40bd-ad8a-e14424b609f7"},"vehicle_type_id":"4","last_reported":1744798273,"current_range_meters":18000,"station_id":"ce4bhk92rcd13ifvqgc0","pricing_plan_id":"cebpf4jnsgd1na2vs0mg"},{"bike_id":"3412972c-0cd5-416f-9d97-05d228ab18d2","system_id":"levelo_inurba_marseille","lat":43.29041,"lon":5.39943,"is_reserved":false,"is_disabled":false,"rental_uris":{"android":"levelo://app?vid=3412972c-0cd5-416f-9d97-05d228ab18d2","ios":"levelo://app?vid=3412972c-0cd5-416f-9d97-05d228ab18d2"},"vehicle_type_id":"4","last_reported":1744798273,"current_range_meters":18000,"station_id":"ce4bh392rcd13ifvqdm0","pricing_plan_id":"cebpf4jnsgd1na2vs0mg"},{"bike_id":"eaa05fe4-d9ce-4fdc-a304-160879789f9a","system_id":"levelo_inurba_marseille","lat":43.28841,"lon":5.3931,"is_reserved":false,"is_disabled":false,"rental_uris":{"android":"levelo://app?vid=eaa05fe4-d9ce-4fdc-a304-160879789f9a","ios":"levelo://app?vid=eaa05fe4-d9ce-4fdc-a304-160879789f9a"},"vehicle_type_id":"4","last_reported":1744798273,"current_range_meters":17600,"station_id":"ce4bh2p2rcd13ifvqdi0","pricing_plan_id":"cebpf4jnsgd1na2vs0mg"},{"bike_id":"4cb67eec-0e45-47a9-9453-fa307935ee48","system_id":"levelo_inurba_marseille","lat":43.28152,"lon":5.42637,"is_reserved":false,"is_disabled":false,"rental_uris":{"android":"levelo://app?vid=4cb67eec-0e45-47a9-9453-fa307935ee48","ios":"levelo://app?vid=4cb67eec-0e45-47a9-9453-fa307935ee48"},"vehicle_type_id":"4","last_reported":1744798273,"current_range_meters":18000,"station_id":"ce4bhnh2rcd13ifvqgug","pricing_plan_id":"cebpf4jnsgd1na2vs0mg"},{"bike_id":"253cb408-1292-4456-8381-70bdc9615886","system_id":"levelo_inurba_marseille","lat":43.25001,"lon":5.38924,"is_reserved":false,"is_disabled":false,"rental_uris":{"android":"levelo://app?vid=253cb408-1292-4456-8381-70bdc9615886","ios":"levelo://app?vid=253cb408-1292-4456-8381-70bdc9615886"},"vehicle_type_id":"4","last_reported":1744798273,"current_range_meters":18000,"station_id":"ce4bhgp2rcd13ifvqfd0","pricing_plan_id":"cebpf4jnsgd1na2vs0mg"},{"bike_id":"71e94148-75c9-4d56-b41d-f80df28d87b0","system_id":"levelo_inurba_marseille","lat":43.31984,"lon":5.38129,"is_reserved":false,"is_disabled":false,"rental_uris":{"android":"levelo://app?vid=71e94148-75c9-4d56-b41d-f80df28d87b0","ios":"levelo://app?vid=71e94148-75c9-4d56-b41d-f80df28d87b0"},"vehicle_type_id":"4","last_reported":1744798273,"current_range_meters":18800,"station_id":"ce4bhr12rcd13ifvqhpg","pricing_plan_id":"cebpf4jnsgd1na2vs0mg"},{"bike_id":"cabd05a9-db85-4a2d-b325-b3ffb6027715","system_id":"levelo_inurba_marseille","lat":43.32482,"lon":5.36574,"is_reserved":false,"is_disabled":false,"rental_uris":{"android":"levelo://app?vid=cabd05a9-db85-4a2d-b325-b3ffb6027715","ios":"levelo://app?vid=cabd05a9-db85-4a2d-b325-b3ffb6027715"},"vehicle_type_id":"4","last_reported":1744798273,"current_range_meters":18800,"station_id":"ce4bhs12rcd13ifvqhvg","pricing_plan_id":"cebpf4jnsgd1na2vs0mg"},{"bike_id":"9f3a5dd8-a360-4b18-82ad-d26b0a34023d","system_id":"levelo_inurba_marseille","lat":43.30567,"lon":5.36509,"is_reserved":false,"is_disabled":false,"rental_uris":{"android":"levelo://app?vid=9f3a5dd8-a360-4b18-82ad-d26b0a34023d","ios":"levelo://app?vid=9f3a5dd8-a360-4b18-82ad-d26b0a34023d"},"vehicle_type_id":"4","last_reported":1744798273,"current_range_meters":18800,"station_id":"ce4bgs12rcd13ifvqcag","pricing_plan_id":"cebpf4jnsgd1na2vs0mg"},{"bike_id":"e7b00273-8f18-41d7-a2b0-41a9e2c601ed","system_id":"levelo_inurba_marseille","lat":43.29523,"lon":5.38538,"is_reserved":false,"is_disabled":false,"rental_uris":{"android":"levelo://app?vid=e7b00273-8f18-41d7-a2b0-41a9e2c601ed","ios":"levelo://app?vid=e7b00273-8f18-41d7-a2b0-41a9e2c601ed"},"vehicle_type_id":"4","last_reported":1744798273,"current_range_meters":18800,"station_id":"ce4bgih2rcd13ifvqba0","pricing_plan_id":"cebpf4jnsgd1na2vs0mg"},{"bike_id":"182b0849-c1c2-4e02-a196-85df37bf5057","system_id":"levelo_inurba_marseille","lat":43.25577,"lon":5.38219,"is_reserved":false,"is_disabled":false,"rental_uris":{"android":"levelo://app?vid=182b0849-c1c2-4e02-a196-85df37bf5057","ios":"levelo://app?vid=182b0849-c1c2-4e02-a196-85df37bf5057"},"vehicle_type_id":"4","last_reported":1744798273,"current_range_meters":18800,"station_id":"ce4bhih2rcd13ifvqfs0","pricing_plan_id":"cebpf4jnsgd1na2vs0mg"},{"bike_id":"a48200e6-981c-4d33-bbb5-8915bbcf22e3","system_id":"levelo_inurba_marseille","lat":43.25585,"lon":5.38224,"is_reserved":false,"is_disabled":false,"rental_uris":{"android":"levelo://app?vid=a48200e6-981c-4d33-bbb5-8915bbcf22e3","ios":"levelo://app?vid=a48200e6-981c-4d33-bbb5-8915bbcf22e3"},"vehicle_type_id":"4","last_reported":1744798273,"current_range_meters":18800,"station_id":"ce4bhih2rcd13ifvqfs0","pricing_plan_id":"cebpf4jnsgd1na2vs0mg"},{"bike_id":"479d5a5f-271f-4ac2-a568-4c71926ce846","system_id":"levelo_inurba_marseille","lat":43.262238,"lon":5.37439,"is_reserved":false,"is_disabled":false,"rental_uris":{"android":"levelo://app?vid=479d5a5f-271f-4ac2-a568-4c71926ce846","ios":"levelo://app?vid=479d5a5f-271f-4ac2-a568-4c71926ce846"},"vehicle_type_id":"4","last_reported":1744798273,"current_range_meters":18800,"station_id":"ce4bhgp2rcd13ifvqfc0","pricing_plan_id":"cebpf4jnsgd1na2vs0mg"},{"bike_id":"d0aa9168-26d5-408e-8e5e-66ff4c81a67d","system_id":"levelo_inurba_marseille","lat":43.31075,"lon":5.38361,"is_reserved":false,"is_disabled":false,"rental_uris":{"android":"levelo://app?vid=d0aa9168-26d5-408e-8e5e-66ff4c81a67d","ios":"levelo://app?vid=d0aa9168-26d5-408e-8e5e-66ff4c81a67d"},"vehicle_type_id":"4","last_reported":1744798273,"current_range_meters":18800,"station_id":"ce4bgv92rcd13ifvqcr0","pricing_plan_id":"cebpf4jnsgd1na2vs0mg"},{"bike_id":"6a8e9068-2a8d-4c93-8c2d-e30f03079545","system_id":"levelo_inurba_marseille","lat":43.257202,"lon":5.411179,"is_reserved":false,"is_disabled":false,"rental_uris":{"android":"levelo://app?vid=6a8e9068-2a8d-4c93-8c2d-e30f03079545","ios":"levelo://app?vid=6a8e9068-2a8d-4c93-8c2d-e30f03079545"},"vehicle_type_id":"4","last_reported":1744798273,"current_range_meters":18800,"station_id":"ce4bhkp2rcd13ifvqgd0","pricing_plan_id":"cebpf4jnsgd1na2vs0mg"},{"bike_id":"d07f3575-c570-4366-9138-201949d4b627","system_id":"levelo_inurba_marseille","lat":43.22928,"lon":5.35387,"is_reserved":false,"is_disabled":false,"rental_uris":{"android":"levelo://app?vid=d07f3575-c570-4366-9138-201949d4b627","ios":"levelo://app?vid=d07f3575-c570-4366-9138-201949d4b627"},"vehicle_type_id":"4","last_reported":1744798273,"current_range_meters":19200,"station_id":"cpo3532slgdg3j2ikp40","pricing_plan_id":"cebpf4jnsgd1na2vs0mg"},{"bike_id":"2d03e3c2-09e4-4978-8dbc-31228f7e9fd5","system_id":"levelo_inurba_marseille","lat":43.25578,"lon":5.3823,"is_reserved":false,"is_disabled":false,"rental_uris":{"android":"levelo://app?vid=2d03e3c2-09e4-4978-8dbc-31228f7e9fd5","ios":"levelo://app?vid=2d03e3c2-09e4-4978-8dbc-31228f7e9fd5"},"vehicle_type_id":"4","last_reported":1744798273,"current_range_meters":19200,"station_id":"ce4bhih2rcd13ifvqfs0","pricing_plan_id":"cebpf4jnsgd1na2vs0mg"},{"bike_id":"bf4659ae-1e1e-46e0-aae0-87527cd1ccd6","system_id":"levelo_inurba_marseille","lat":43.28139,"lon":5.42666,"is_reserved":false,"is_disabled":false,"rental_uris":{"android":"levelo://app?vid=bf4659ae-1e1e-46e0-aae0-87527cd1ccd6","ios":"levelo://app?vid=bf4659ae-1e1e-46e0-aae0-87527cd1ccd6"},"vehicle_type_id":"4","last_reported":1744798273,"current_range_meters":19200,"station_id":"ce4bhnh2rcd13ifvqgug","pricing_plan_id":"cebpf4jnsgd1na2vs0mg"},{"bike_id":"e3bbf163-eadf-423b-85c5-996bf8a4e270","system_id":"levelo_inurba_marseille","lat":43.24076,"lon":5.37742,"is_reserved":false,"is_disabled":false,"rental_uris":{"android":"levelo://app?vid=e3bbf163-eadf-423b-85c5-996bf8a4e270","ios":"levelo://app?vid=e3bbf163-eadf-423b-85c5-996bf8a4e270"},"vehicle_type_id":"4","last_reported":1744798273,"current_range_meters":19200,"station_id":"ce4bhnp2rcd13ifvqgvg","pricing_plan_id":"cebpf4jnsgd1na2vs0mg"},{"bike_id":"4bbcdc93-03b1-4320-a12a-cc328d551163","system_id":"levelo_inurba_marseille","lat":43.3013,"lon":5.398675,"is_reserved":false,"is_disabled":false,"rental_uris":{"android":"levelo://app?vid=4bbcdc93-03b1-4320-a12a-cc328d551163","ios":"levelo://app?vid=4bbcdc93-03b1-4320-a12a-cc328d551163"},"vehicle_type_id":"4","last_reported":1744798273,"current_range_meters":19200,"station_id":"ce4bhpp2rcd13ifvqhfg","pricing_plan_id":"cebpf4jnsgd1na2vs0mg"},{"bike_id":"315ed96d-e208-4e1c-abb5-5fdce13094c7","system_id":"levelo_inurba_marseille","lat":43.29292,"lon":5.37448,"is_reserved":false,"is_disabled":false,"rental_uris":{"android":"levelo://app?vid=315ed96d-e208-4e1c-abb5-5fdce13094c7","ios":"levelo://app?vid=315ed96d-e208-4e1c-abb5-5fdce13094c7"},"vehicle_type_id":"4","last_reported":1744798273,"current_range_meters":19200,"station_id":"ce4bgi12rcd13ifvqb70","pricing_plan_id":"cebpf4jnsgd1na2vs0mg"},{"bike_id":"1523c3c4-e78d-48af-8013-fe73ca2a3d65","system_id":"levelo_inurba_marseille","lat":43.30248,"lon":5.40034,"is_reserved":false,"is_disabled":false,"rental_uris":{"android":"levelo://app?vid=1523c3c4-e78d-48af-8013-fe73ca2a3d65","ios":"levelo://app?vid=1523c3c4-e78d-48af-8013-fe73ca2a3d65"},"vehicle_type_id":"4","last_reported":1744798273,"current_range_meters":18800,"station_id":"ce4bgvh2rcd13ifvqcs0","pricing_plan_id":"cebpf4jnsgd1na2vs0mg"},{"bike_id":"67bec80b-3af2-4acd-9daa-4500c6ed3654","system_id":"levelo_inurba_marseille","lat":43.24158,"lon":5.36394,"is_reserved":false,"is_disabled":false,"rental_uris":{"android":"levelo://app?vid=67bec80b-3af2-4acd-9daa-4500c6ed3654","ios":"levelo://app?vid=67bec80b-3af2-4acd-9daa-4500c6ed3654"},"vehicle_type_id":"4","last_reported":1744798273,"current_range_meters":19200,"station_id":"cpo36qri1sfpv3e86is0","pricing_plan_id":"cebpf4jnsgd1na2vs0mg"},{"bike_id":"b8299151-6acf-49af-be68-56a557aea3aa","system_id":"levelo_inurba_marseille","lat":43.29876,"lon":5.38906,"is_reserved":false,"is_disabled":false,"rental_uris":{"android":"levelo://app?vid=b8299151-6acf-49af-be68-56a557aea3aa","ios":"levelo://app?vid=b8299151-6acf-49af-be68-56a557aea3aa"},"vehicle_type_id":"4","last_reported":1744798273,"current_range_meters":19200,"station_id":"ce4bh392rcd13ifvqdl0","pricing_plan_id":"cebpf4jnsgd1na2vs0mg"},{"bike_id":"a0ddb0a5-f7f0-4281-aa27-9e82747cc573","system_id":"levelo_inurba_marseille","lat":43.33753,"lon":5.37486,"is_reserved":false,"is_disabled":false,"rental_uris":{"android":"levelo://app?vid=a0ddb0a5-f7f0-4281-aa27-9e82747cc573","ios":"levelo://app?vid=a0ddb0a5-f7f0-4281-aa27-9e82747cc573"},"vehicle_type_id":"4","last_reported":1744798273,"current_range_meters":19200,"station_id":"","pricing_plan_id":"cebpf4jnsgd1na2vs0mg"},{"bike_id":"58a6c056-c4c9-496e-9a01-a9dc486c603a","system_id":"levelo_inurba_marseille","lat":43.31479,"lon":5.37299,"is_reserved":false,"is_disabled":false,"rental_uris":{"android":"levelo://app?vid=58a6c056-c4c9-496e-9a01-a9dc486c603a","ios":"levelo://app?vid=58a6c056-c4c9-496e-9a01-a9dc486c603a"},"vehicle_type_id":"4","last_reported":1744798273,"current_range_meters":19600,"station_id":"ce4bgt12rcd13ifvqcd0","pricing_plan_id":"cebpf4jnsgd1na2vs0mg"},{"bike_id":"8c95c56e-fd38-4747-b8d7-85ddf29bba6c","system_id":"levelo_inurba_marseille","lat":43.298,"lon":5.38106,"is_reserved":false,"is_disabled":false,"rental_uris":{"android":"levelo://app?vid=8c95c56e-fd38-4747-b8d7-85ddf29bba6c","ios":"levelo://app?vid=8c95c56e-fd38-4747-b8d7-85ddf29bba6c"},"vehicle_type_id":"4","last_reported":1744798273,"current_range_meters":19600,"station_id":"ce4bgip2rcd13ifvqbb0","pricing_plan_id":"cebpf4jnsgd1na2vs0mg"},{"bike_id":"649e44eb-2a88-412e-9725-faa6238bc83e","system_id":"levelo_inurba_marseille","lat":43.31227,"lon":5.36874,"is_reserved":false,"is_disabled":false,"rental_uris":{"android":"levelo://app?vid=649e44eb-2a88-412e-9725-faa6238bc83e","ios":"levelo://app?vid=649e44eb-2a88-412e-9725-faa6238bc83e"},"vehicle_type_id":"4","last_reported":1744798273,"current_range_meters":19600,"station_id":"ce4bgl92rcd13ifvqbq0","pricing_plan_id":"cebpf4jnsgd1na2vs0mg"},{"bike_id":"bfc7d488-ca68-45f2-b59b-ec468027e7f7","system_id":"levelo_inurba_marseille","lat":43.29257,"lon":5.38454,"is_reserved":false,"is_disabled":false,"rental_uris":{"android":"levelo://app?vid=bfc7d488-ca68-45f2-b59b-ec468027e7f7","ios":"levelo://app?vid=bfc7d488-ca68-45f2-b59b-ec468027e7f7"},"vehicle_type_id":"4","last_reported":1744798273,"current_range_meters":19600,"station_id":"ce4bh692rcd13ifvqea0","pricing_plan_id":"cebpf4jnsgd1na2vs0mg"},{"bike_id":"f4f2a3c2-2e88-42f2-a842-4b821963dedc","system_id":"levelo_inurba_marseille","lat":43.22936,"lon":5.35373,"is_reserved":false,"is_disabled":false,"rental_uris":{"android":"levelo://app?vid=f4f2a3c2-2e88-42f2-a842-4b821963dedc","ios":"levelo://app?vid=f4f2a3c2-2e88-42f2-a842-4b821963dedc"},"vehicle_type_id":"4","last_reported":1744798273,"current_range_meters":19600,"station_id":"cpo3532slgdg3j2ikp40","pricing_plan_id":"cebpf4jnsgd1na2vs0mg"},{"bike_id":"88f3759b-2c1f-4762-b11a-067d1d7bb035","system_id":"levelo_inurba_marseille","lat":43.24172,"lon":5.39732,"is_reserved":false,"is_disabled":false,"rental_uris":{"android":"levelo://app?vid=88f3759b-2c1f-4762-b11a-067d1d7bb035","ios":"levelo://app?vid=88f3759b-2c1f-4762-b11a-067d1d7bb035"},"vehicle_type_id":"4","last_reported":1744798273,"current_range_meters":19600,"station_id":"ce4bhn12rcd13ifvqgpg","pricing_plan_id":"cebpf4jnsgd1na2vs0mg"},{"bike_id":"cb2339f4-0371-4078-a89b-835123189f9a","system_id":"levelo_inurba_marseille","lat":43.25719,"lon":5.41103,"is_reserved":false,"is_disabled":false,"rental_uris":{"android":"levelo://app?vid=cb2339f4-0371-4078-a89b-835123189f9a","ios":"levelo://app?vid=cb2339f4-0371-4078-a89b-835123189f9a"},"vehicle_type_id":"4","last_reported":1744798273,"current_range_meters":20000,"station_id":"ce4bhkp2rcd13ifvqgd0","pricing_plan_id":"cebpf4jnsgd1na2vs0mg"},{"bike_id":"eb2c19a1-62aa-4899-868a-04e9d024bfdd","system_id":"levelo_inurba_marseille","lat":43.27977,"lon":5.41681,"is_reserved":false,"is_disabled":false,"rental_uris":{"android":"levelo://app?vid=eb2c19a1-62aa-4899-868a-04e9d024bfdd","ios":"levelo://app?vid=eb2c19a1-62aa-4899-868a-04e9d024bfdd"},"vehicle_type_id":"4","last_reported":1744798273,"current_range_meters":20000,"station_id":"ce4bho12rcd13ifvqh1g","pricing_plan_id":"cebpf4jnsgd1na2vs0mg"},{"bike_id":"ceb52a59-0806-44d8-9596-f48eeae7037e","system_id":"levelo_inurba_marseille","lat":43.23129,"lon":5.43707,"is_reserved":false,"is_disabled":false,"rental_uris":{"android":"levelo://app?vid=ceb52a59-0806-44d8-9596-f48eeae7037e","ios":"levelo://app?vid=ceb52a59-0806-44d8-9596-f48eeae7037e"},"vehicle_type_id":"4","last_reported":1744798273,"current_range_meters":20000,"station_id":"ce4bhmp2rcd13ifvqgog","pricing_plan_id":"cebpf4jnsgd1na2vs0mg"},{"bike_id":"439c6cb6-7b03-4e89-b858-34cc7d6863ae","system_id":"levelo_inurba_marseille","lat":43.31221,"lon":5.36854,"is_reserved":false,"is_disabled":false,"rental_uris":{"android":"levelo://app?vid=439c6cb6-7b03-4e89-b858-34cc7d6863ae","ios":"levelo://app?vid=439c6cb6-7b03-4e89-b858-34cc7d6863ae"},"vehicle_type_id":"4","last_reported":1744798273,"current_range_meters":20000,"station_id":"ce4bgl92rcd13ifvqbq0","pricing_plan_id":"cebpf4jnsgd1na2vs0mg"},{"bike_id":"ddb0ccfd-6798-4cc7-9067-fdd64c334a83","system_id":"levelo_inurba_marseille","lat":43.304498,"lon":5.389648,"is_reserved":false,"is_disabled":false,"rental_uris":{"android":"levelo://app?vid=ddb0ccfd-6798-4cc7-9067-fdd64c334a83","ios":"levelo://app?vid=ddb0ccfd-6798-4cc7-9067-fdd64c334a83"},"vehicle_type_id":"4","last_reported":1744798273,"current_range_meters":20400,"station_id":"ce4bgvp2rcd13ifvqcu0","pricing_plan_id":"cebpf4jnsgd1na2vs0mg"},{"bike_id":"fab5cd6a-61b6-4d16-aad7-01dc9fa23b11","system_id":"levelo_inurba_marseille","lat":43.30545,"lon":5.36551,"is_reserved":false,"is_disabled":false,"rental_uris":{"android":"levelo://app?vid=fab5cd6a-61b6-4d16-aad7-01dc9fa23b11","ios":"levelo://app?vid=fab5cd6a-61b6-4d16-aad7-01dc9fa23b11"},"vehicle_type_id":"4","last_reported":1744798273,"current_range_meters":20400,"station_id":"ce4bgs12rcd13ifvqcag","pricing_plan_id":"cebpf4jnsgd1na2vs0mg"},{"bike_id":"c075e5f9-7973-48ad-adba-ff01af506039","system_id":"levelo_inurba_marseille","lat":43.30501,"lon":5.36553,"is_reserved":false,"is_disabled":false,"rental_uris":{"android":"levelo://app?vid=c075e5f9-7973-48ad-adba-ff01af506039","ios":"levelo://app?vid=c075e5f9-7973-48ad-adba-ff01af506039"},"vehicle_type_id":"4","last_reported":1744798273,"current_range_meters":20400,"station_id":"ce4bgs12rcd13ifvqcag","pricing_plan_id":"cebpf4jnsgd1na2vs0mg"},{"bike_id":"4845e944-7492-4226-8f90-edcd3c8cd6c7","system_id":"levelo_inurba_marseille","lat":43.302155,"lon":5.394762,"is_reserved":false,"is_disabled":false,"rental_uris":{"android":"levelo://app?vid=4845e944-7492-4226-8f90-edcd3c8cd6c7","ios":"levelo://app?vid=4845e944-7492-4226-8f90-edcd3c8cd6c7"},"vehicle_type_id":"4","last_reported":1744798273,"current_range_meters":20000,"station_id":"ce4bh0p2rcd13ifvqd70","pricing_plan_id":"cebpf4jnsgd1na2vs0mg"},{"bike_id":"f9294aff-5b6f-4d62-9db7-b7bdca4ffaf5","system_id":"levelo_inurba_marseille","lat":43.32541,"lon":5.41444,"is_reserved":false,"is_disabled":false,"rental_uris":{"android":"levelo://app?vid=f9294aff-5b6f-4d62-9db7-b7bdca4ffaf5","ios":"levelo://app?vid=f9294aff-5b6f-4d62-9db7-b7bdca4ffaf5"},"vehicle_type_id":"4","last_reported":1744798273,"current_range_meters":20400,"station_id":"ce4bhq12rcd13ifvqhhg","pricing_plan_id":"cebpf4jnsgd1na2vs0mg"},{"bike_id":"484b2079-805c-4c9c-99f0-9100cf129d32","system_id":"levelo_inurba_marseille","lat":43.29017,"lon":5.38623,"is_reserved":false,"is_disabled":false,"rental_uris":{"android":"levelo://app?vid=484b2079-805c-4c9c-99f0-9100cf129d32","ios":"levelo://app?vid=484b2079-805c-4c9c-99f0-9100cf129d32"},"vehicle_type_id":"4","last_reported":1744798273,"current_range_meters":20800,"station_id":"ce4bh4p2rcd13ifvqe0g","pricing_plan_id":"cebpf4jnsgd1na2vs0mg"},{"bike_id":"52c5d7d5-c1ad-4c48-b4bd-bbdf7b09e0e4","system_id":"levelo_inurba_marseille","lat":43.28039,"lon":5.36953,"is_reserved":false,"is_disabled":false,"rental_uris":{"android":"levelo://app?vid=52c5d7d5-c1ad-4c48-b4bd-bbdf7b09e0e4","ios":"levelo://app?vid=52c5d7d5-c1ad-4c48-b4bd-bbdf7b09e0e4"},"vehicle_type_id":"4","last_reported":1744798273,"current_range_meters":20800,"station_id":"ce4bha12rcd13ifvqef0","pricing_plan_id":"cebpf4jnsgd1na2vs0mg"},{"bike_id":"bd08321a-e3e1-4b98-ac23-eb9818d43440","system_id":"levelo_inurba_marseille","lat":43.28769,"lon":5.38278,"is_reserved":false,"is_disabled":false,"rental_uris":{"android":"levelo://app?vid=bd08321a-e3e1-4b98-ac23-eb9818d43440","ios":"levelo://app?vid=bd08321a-e3e1-4b98-ac23-eb9818d43440"},"vehicle_type_id":"4","last_reported":1744798273,"current_range_meters":20800,"station_id":"ce4bh512rcd13ifvqe3g","pricing_plan_id":"cebpf4jnsgd1na2vs0mg"},{"bike_id":"60d0714a-3481-4c64-af3e-796bab009e39","system_id":"levelo_inurba_marseille","lat":43.23128,"lon":5.43697,"is_reserved":false,"is_disabled":false,"rental_uris":{"android":"levelo://app?vid=60d0714a-3481-4c64-af3e-796bab009e39","ios":"levelo://app?vid=60d0714a-3481-4c64-af3e-796bab009e39"},"vehicle_type_id":"4","last_reported":1744798273,"current_range_meters":20800,"station_id":"ce4bhmp2rcd13ifvqgog","pricing_plan_id":"cebpf4jnsgd1na2vs0mg"},{"bike_id":"eb60766a-4495-43ae-9e7a-fc0376bcfc74","system_id":"levelo_inurba_marseille","lat":43.292358,"lon":5.365692,"is_reserved":false,"is_disabled":false,"rental_uris":{"android":"levelo://app?vid=eb60766a-4495-43ae-9e7a-fc0376bcfc74","ios":"levelo://app?vid=eb60766a-4495-43ae-9e7a-fc0376bcfc74"},"vehicle_type_id":"4","last_reported":1744798273,"current_range_meters":20800,"station_id":"ce4bgnh2rcd13ifvqc0g","pricing_plan_id":"cebpf4jnsgd1na2vs0mg"},{"bike_id":"d55c55b0-51de-4280-a623-5ebf8562de0a","system_id":"levelo_inurba_marseille","lat":43.25002,"lon":5.38938,"is_reserved":false,"is_disabled":false,"rental_uris":{"android":"levelo://app?vid=d55c55b0-51de-4280-a623-5ebf8562de0a","ios":"levelo://app?vid=d55c55b0-51de-4280-a623-5ebf8562de0a"},"vehicle_type_id":"4","last_reported":1744798273,"current_range_meters":20800,"station_id":"ce4bhgp2rcd13ifvqfd0","pricing_plan_id":"cebpf4jnsgd1na2vs0mg"},{"bike_id":"bc0837a1-279f-4396-af1b-42270f8cd9b7","system_id":"levelo_inurba_marseille","lat":43.26225,"lon":5.40451,"is_reserved":false,"is_disabled":false,"rental_uris":{"android":"levelo://app?vid=bc0837a1-279f-4396-af1b-42270f8cd9b7","ios":"levelo://app?vid=bc0837a1-279f-4396-af1b-42270f8cd9b7"},"vehicle_type_id":"4","last_reported":1744798273,"current_range_meters":20800,"station_id":"ce4bhmh2rcd13ifvqgmg","pricing_plan_id":"cebpf4jnsgd1na2vs0mg"},{"bike_id":"d750596a-6ac6-4755-84cc-45acd4464f3d","system_id":"levelo_inurba_marseille","lat":43.243907,"lon":5.370842,"is_reserved":false,"is_disabled":false,"rental_uris":{"android":"levelo://app?vid=d750596a-6ac6-4755-84cc-45acd4464f3d","ios":"levelo://app?vid=d750596a-6ac6-4755-84cc-45acd4464f3d"},"vehicle_type_id":"4","last_reported":1744798273,"current_range_meters":21600,"station_id":"ce4bhhh2rcd13ifvqfk0","pricing_plan_id":"cebpf4jnsgd1na2vs0mg"},{"bike_id":"08f4dcee-7656-4957-9022-f13783bb2667","system_id":"levelo_inurba_marseille","lat":43.29692,"lon":5.37227,"is_reserved":false,"is_disabled":false,"rental_uris":{"android":"levelo://app?vid=08f4dcee-7656-4957-9022-f13783bb2667","ios":"levelo://app?vid=08f4dcee-7656-4957-9022-f13783bb2667"},"vehicle_type_id":"4","last_reported":1744798273,"current_range_meters":21600,"station_id":"","pricing_plan_id":"cebpf4jnsgd1na2vs0mg"},{"bike_id":"4ab43c8f-2442-44d2-844d-0e2cb5bfba0c","system_id":"levelo_inurba_marseille","lat":43.30541,"lon":5.36534,"is_reserved":false,"is_disabled":false,"rental_uris":{"android":"levelo://app?vid=4ab43c8f-2442-44d2-844d-0e2cb5bfba0c","ios":"levelo://app?vid=4ab43c8f-2442-44d2-844d-0e2cb5bfba0c"},"vehicle_type_id":"4","last_reported":1744798273,"current_range_meters":21600,"station_id":"ce4bgs12rcd13ifvqcag","pricing_plan_id":"cebpf4jnsgd1na2vs0mg"},{"bike_id":"18426205-c1e6-4fcc-9cf5-caed7a420461","system_id":"levelo_inurba_marseille","lat":43.26494,"lon":5.39545,"is_reserved":false,"is_disabled":false,"rental_uris":{"android":"levelo://app?vid=18426205-c1e6-4fcc-9cf5-caed7a420461","ios":"levelo://app?vid=18426205-c1e6-4fcc-9cf5-caed7a420461"},"vehicle_type_id":"4","last_reported":1744798273,"current_range_meters":21600,"station_id":"ce4bhi12rcd13ifvqfq0","pricing_plan_id":"cebpf4jnsgd1na2vs0mg"},{"bike_id":"221415bd-9c9e-49b9-9d9d-685af1ddf6c5","system_id":"levelo_inurba_marseille","lat":43.30523,"lon":5.36528,"is_reserved":false,"is_disabled":false,"rental_uris":{"android":"levelo://app?vid=221415bd-9c9e-49b9-9d9d-685af1ddf6c5","ios":"levelo://app?vid=221415bd-9c9e-49b9-9d9d-685af1ddf6c5"},"vehicle_type_id":"4","last_reported":1744798273,"current_range_meters":22000,"station_id":"ce4bgs12rcd13ifvqcag","pricing_plan_id":"cebpf4jnsgd1na2vs0mg"},{"bike_id":"d39e5537-c00a-4bf8-9f22-53966b448679","system_id":"levelo_inurba_marseille","lat":43.29548,"lon":5.4229,"is_reserved":false,"is_disabled":false,"rental_uris":{"android":"levelo://app?vid=d39e5537-c00a-4bf8-9f22-53966b448679","ios":"levelo://app?vid=d39e5537-c00a-4bf8-9f22-53966b448679"},"vehicle_type_id":"4","last_reported":1744798273,"current_range_meters":22000,"station_id":"ce4bhph2rcd13ifvqhdg","pricing_plan_id":"cebpf4jnsgd1na2vs0mg"},{"bike_id":"f6cbbdcb-fdad-4b33-b45c-6ebf1ba2ee1d","system_id":"levelo_inurba_marseille","lat":43.28267,"lon":5.35083,"is_reserved":false,"is_disabled":false,"rental_uris":{"android":"levelo://app?vid=f6cbbdcb-fdad-4b33-b45c-6ebf1ba2ee1d","ios":"levelo://app?vid=f6cbbdcb-fdad-4b33-b45c-6ebf1ba2ee1d"},"vehicle_type_id":"4","last_reported":1744798273,"current_range_meters":22000,"station_id":"ce4bhbp2rcd13ifvqerg","pricing_plan_id":"cebpf4jnsgd1na2vs0mg"},{"bike_id":"4f1ad9e5-c0a3-45ea-82f5-c74599a715f1","system_id":"levelo_inurba_marseille","lat":43.28673,"lon":5.38674,"is_reserved":false,"is_disabled":false,"rental_uris":{"android":"levelo://app?vid=4f1ad9e5-c0a3-45ea-82f5-c74599a715f1","ios":"levelo://app?vid=4f1ad9e5-c0a3-45ea-82f5-c74599a715f1"},"vehicle_type_id":"4","last_reported":1744798273,"current_range_meters":22000,"station_id":"ce4bh492rcd13ifvqdug","pricing_plan_id":"cebpf4jnsgd1na2vs0mg"},{"bike_id":"5dcdba20-c421-403e-9fc9-2e0f516a830a","system_id":"levelo_inurba_marseille","lat":43.3028,"lon":5.37693,"is_reserved":false,"is_disabled":false,"rental_uris":{"android":"levelo://app?vid=5dcdba20-c421-403e-9fc9-2e0f516a830a","ios":"levelo://app?vid=5dcdba20-c421-403e-9fc9-2e0f516a830a"},"vehicle_type_id":"4","last_reported":1744798273,"current_range_meters":22000,"station_id":"ce4bguh2rcd13ifvqcj0","pricing_plan_id":"cebpf4jnsgd1na2vs0mg"},{"bike_id":"55bb5f7a-5604-417e-bfa6-7ec45b45e17a","system_id":"levelo_inurba_marseille","lat":43.29198,"lon":5.39328,"is_reserved":false,"is_disabled":false,"rental_uris":{"android":"levelo://app?vid=55bb5f7a-5604-417e-bfa6-7ec45b45e17a","ios":"levelo://app?vid=55bb5f7a-5604-417e-bfa6-7ec45b45e17a"},"vehicle_type_id":"4","last_reported":1744798273,"current_range_meters":21600,"station_id":"ce4bh192rcd13ifvqdd0","pricing_plan_id":"cebpf4jnsgd1na2vs0mg"},{"bike_id":"3b0a3c90-f4da-42e6-b840-98aee25d1e5a","system_id":"levelo_inurba_marseille","lat":43.2886,"lon":5.35847,"is_reserved":false,"is_disabled":false,"rental_uris":{"android":"levelo://app?vid=3b0a3c90-f4da-42e6-b840-98aee25d1e5a","ios":"levelo://app?vid=3b0a3c90-f4da-42e6-b840-98aee25d1e5a"},"vehicle_type_id":"4","last_reported":1744798273,"current_range_meters":22000,"station_id":"ce4bhb12rcd13ifvqem0","pricing_plan_id":"cebpf4jnsgd1na2vs0mg"},{"bike_id":"ae5433ba-42ca-4b31-bb65-b1cb5613431f","system_id":"levelo_inurba_marseille","lat":43.30534,"lon":5.36515,"is_reserved":false,"is_disabled":false,"rental_uris":{"android":"levelo://app?vid=ae5433ba-42ca-4b31-bb65-b1cb5613431f","ios":"levelo://app?vid=ae5433ba-42ca-4b31-bb65-b1cb5613431f"},"vehicle_type_id":"4","last_reported":1744798273,"current_range_meters":22000,"station_id":"ce4bgs12rcd13ifvqcag","pricing_plan_id":"cebpf4jnsgd1na2vs0mg"},{"bike_id":"6f2360da-5688-4f6a-8ebd-9e32ee7c678f","system_id":"levelo_inurba_marseille","lat":43.31692,"lon":5.40438,"is_reserved":false,"is_disabled":false,"rental_uris":{"android":"levelo://app?vid=6f2360da-5688-4f6a-8ebd-9e32ee7c678f","ios":"levelo://app?vid=6f2360da-5688-4f6a-8ebd-9e32ee7c678f"},"vehicle_type_id":"4","last_reported":1744798273,"current_range_meters":22000,"station_id":"ce4bh012rcd13ifvqd00","pricing_plan_id":"cebpf4jnsgd1na2vs0mg"},{"bike_id":"6bf6871e-2941-427a-b652-aef272651f3f","system_id":"levelo_inurba_marseille","lat":43.24174,"lon":5.39726,"is_reserved":false,"is_disabled":false,"rental_uris":{"android":"levelo://app?vid=6bf6871e-2941-427a-b652-aef272651f3f","ios":"levelo://app?vid=6bf6871e-2941-427a-b652-aef272651f3f"},"vehicle_type_id":"4","last_reported":1744798273,"current_range_meters":22000,"station_id":"ce4bhn12rcd13ifvqgpg","pricing_plan_id":"cebpf4jnsgd1na2vs0mg"},{"bike_id":"3f761246-0d21-4df1-9aa1-2fe452c29abd","system_id":"levelo_inurba_marseille","lat":43.21761,"lon":5.34593,"is_reserved":false,"is_disabled":false,"rental_uris":{"android":"levelo://app?vid=3f761246-0d21-4df1-9aa1-2fe452c29abd","ios":"levelo://app?vid=3f761246-0d21-4df1-9aa1-2fe452c29abd"},"vehicle_type_id":"4","last_reported":1744798273,"current_range_meters":22000,"station_id":"st_cvj6r9ubvosntc0bgbag","pricing_plan_id":"cebpf4jnsgd1na2vs0mg"},{"bike_id":"fd2e9bd5-6aa2-47a2-a5d1-9e4a436a0b5f","system_id":"levelo_inurba_marseille","lat":43.3201,"lon":5.38202,"is_reserved":false,"is_disabled":false,"rental_uris":{"android":"levelo://app?vid=fd2e9bd5-6aa2-47a2-a5d1-9e4a436a0b5f","ios":"levelo://app?vid=fd2e9bd5-6aa2-47a2-a5d1-9e4a436a0b5f"},"vehicle_type_id":"4","last_reported":1744798273,"current_range_meters":22400,"station_id":"ce4bhr12rcd13ifvqhpg","pricing_plan_id":"cebpf4jnsgd1na2vs0mg"},{"bike_id":"e6f3d43d-9aa6-46be-abdc-c873aa3b5da2","system_id":"levelo_inurba_marseille","lat":43.29592,"lon":5.38101,"is_reserved":false,"is_disabled":false,"rental_uris":{"android":"levelo://app?vid=e6f3d43d-9aa6-46be-abdc-c873aa3b5da2","ios":"levelo://app?vid=e6f3d43d-9aa6-46be-abdc-c873aa3b5da2"},"vehicle_type_id":"4","last_reported":1744798273,"current_range_meters":22000,"station_id":"ce4bgl12rcd13ifvqbo0","pricing_plan_id":"cebpf4jnsgd1na2vs0mg"},{"bike_id":"b4bbf6d5-4443-45d7-a7b3-44ba87787739","system_id":"levelo_inurba_marseille","lat":43.29027,"lon":5.38646,"is_reserved":false,"is_disabled":false,"rental_uris":{"android":"levelo://app?vid=b4bbf6d5-4443-45d7-a7b3-44ba87787739","ios":"levelo://app?vid=b4bbf6d5-4443-45d7-a7b3-44ba87787739"},"vehicle_type_id":"4","last_reported":1744798273,"current_range_meters":22400,"station_id":"ce4bh4p2rcd13ifvqe0g","pricing_plan_id":"cebpf4jnsgd1na2vs0mg"},{"bike_id":"ccb7a8e4-757c-4e6f-90e3-f97fac7da5b7","system_id":"levelo_inurba_marseille","lat":43.29256,"lon":5.3845,"is_reserved":false,"is_disabled":false,"rental_uris":{"android":"levelo://app?vid=ccb7a8e4-757c-4e6f-90e3-f97fac7da5b7","ios":"levelo://app?vid=ccb7a8e4-757c-4e6f-90e3-f97fac7da5b7"},"vehicle_type_id":"4","last_reported":1744798273,"current_range_meters":22400,"station_id":"ce4bh692rcd13ifvqea0","pricing_plan_id":"cebpf4jnsgd1na2vs0mg"},{"bike_id":"e09b4c34-6357-43c3-84ad-0a95a8ec10e5","system_id":"levelo_inurba_marseille","lat":43.22497,"lon":5.34777,"is_reserved":false,"is_disabled":false,"rental_uris":{"android":"levelo://app?vid=e09b4c34-6357-43c3-84ad-0a95a8ec10e5","ios":"levelo://app?vid=e09b4c34-6357-43c3-84ad-0a95a8ec10e5"},"vehicle_type_id":"4","last_reported":1744798273,"current_range_meters":22800,"station_id":"","pricing_plan_id":"cebpf4jnsgd1na2vs0mg"},{"bike_id":"cb8f302c-41ed-4530-b5da-524cc6e2d70e","system_id":"levelo_inurba_marseille","lat":43.27311,"lon":5.39076,"is_reserved":false,"is_disabled":false,"rental_uris":{"android":"levelo://app?vid=cb8f302c-41ed-4530-b5da-524cc6e2d70e","ios":"levelo://app?vid=cb8f302c-41ed-4530-b5da-524cc6e2d70e"},"vehicle_type_id":"4","last_reported":1744798273,"current_range_meters":22800,"station_id":"ce4bhgp2rcd13ifvqfe0","pricing_plan_id":"cebpf4jnsgd1na2vs0mg"},{"bike_id":"65e6405f-b885-4a50-a20e-e572108f7045","system_id":"levelo_inurba_marseille","lat":43.28472,"lon":5.38562,"is_reserved":false,"is_disabled":false,"rental_uris":{"android":"levelo://app?vid=65e6405f-b885-4a50-a20e-e572108f7045","ios":"levelo://app?vid=65e6405f-b885-4a50-a20e-e572108f7045"},"vehicle_type_id":"4","last_reported":1744798273,"current_range_meters":22800,"station_id":"ce4bh8p2rcd13ifvqeb0","pricing_plan_id":"cebpf4jnsgd1na2vs0mg"},{"bike_id":"575e8d9e-c57f-4f6a-b34c-ab731de450a4","system_id":"levelo_inurba_marseille","lat":43.29416,"lon":5.38627,"is_reserved":false,"is_disabled":false,"rental_uris":{"android":"levelo://app?vid=575e8d9e-c57f-4f6a-b34c-ab731de450a4","ios":"levelo://app?vid=575e8d9e-c57f-4f6a-b34c-ab731de450a4"},"vehicle_type_id":"4","last_reported":1744798273,"current_range_meters":22800,"station_id":"ce4bh2h2rcd13ifvqdh0","pricing_plan_id":"cebpf4jnsgd1na2vs0mg"},{"bike_id":"f49c4e21-3368-4dd3-b8d1-f136aaf28dbc","system_id":"levelo_inurba_marseille","lat":43.31223,"lon":5.36887,"is_reserved":false,"is_disabled":false,"rental_uris":{"android":"levelo://app?vid=f49c4e21-3368-4dd3-b8d1-f136aaf28dbc","ios":"levelo://app?vid=f49c4e21-3368-4dd3-b8d1-f136aaf28dbc"},"vehicle_type_id":"4","last_reported":1744798273,"current_range_meters":22800,"station_id":"ce4bgl92rcd13ifvqbq0","pricing_plan_id":"cebpf4jnsgd1na2vs0mg"},{"bike_id":"94c8b160-29dd-45c4-9d5f-86d40f79a61c","system_id":"levelo_inurba_marseille","lat":43.26213,"lon":5.40454,"is_reserved":false,"is_disabled":false,"rental_uris":{"android":"levelo://app?vid=94c8b160-29dd-45c4-9d5f-86d40f79a61c","ios":"levelo://app?vid=94c8b160-29dd-45c4-9d5f-86d40f79a61c"},"vehicle_type_id":"4","last_reported":1744798273,"current_range_meters":22800,"station_id":"ce4bhmh2rcd13ifvqgmg","pricing_plan_id":"cebpf4jnsgd1na2vs0mg"},{"bike_id":"95cb4257-47a7-43ca-9e16-7d5e93c960cc","system_id":"levelo_inurba_marseille","lat":43.3123,"lon":5.36875,"is_reserved":false,"is_disabled":false,"rental_uris":{"android":"levelo://app?vid=95cb4257-47a7-43ca-9e16-7d5e93c960cc","ios":"levelo://app?vid=95cb4257-47a7-43ca-9e16-7d5e93c960cc"},"vehicle_type_id":"4","last_reported":1744798273,"current_range_meters":22800,"station_id":"ce4bgl92rcd13ifvqbq0","pricing_plan_id":"cebpf4jnsgd1na2vs0mg"},{"bike_id":"cd9efb35-2492-4676-bb75-d5bae1a1de29","system_id":"levelo_inurba_marseille","lat":43.30146,"lon":5.37449,"is_reserved":false,"is_disabled":false,"rental_uris":{"android":"levelo://app?vid=cd9efb35-2492-4676-bb75-d5bae1a1de29","ios":"levelo://app?vid=cd9efb35-2492-4676-bb75-d5bae1a1de29"},"vehicle_type_id":"4","last_reported":1744798273,"current_range_meters":22800,"station_id":"ce4bgs92rcd13ifvqcc0","pricing_plan_id":"cebpf4jnsgd1na2vs0mg"},{"bike_id":"714b5d52-0c40-45e3-8e81-9ebd8c1251e6","system_id":"levelo_inurba_marseille","lat":43.26564,"lon":5.37292,"is_reserved":false,"is_disabled":false,"rental_uris":{"android":"levelo://app?vid=714b5d52-0c40-45e3-8e81-9ebd8c1251e6","ios":"levelo://app?vid=714b5d52-0c40-45e3-8e81-9ebd8c1251e6"},"vehicle_type_id":"4","last_reported":1744798273,"current_range_meters":23200,"station_id":"ce4bhg12rcd13ifvqf70","pricing_plan_id":"cebpf4jnsgd1na2vs0mg"},{"bike_id":"8d631704-7df1-4c86-bc42-234be877196a","system_id":"levelo_inurba_marseille","lat":43.3053,"lon":5.36536,"is_reserved":false,"is_disabled":false,"rental_uris":{"android":"levelo://app?vid=8d631704-7df1-4c86-bc42-234be877196a","ios":"levelo://app?vid=8d631704-7df1-4c86-bc42-234be877196a"},"vehicle_type_id":"4","last_reported":1744798273,"current_range_meters":23200,"station_id":"ce4bgs12rcd13ifvqcag","pricing_plan_id":"cebpf4jnsgd1na2vs0mg"},{"bike_id":"197a4b78-d392-4daa-b6d5-65c28f22b7aa","system_id":"levelo_inurba_marseille","lat":43.29875,"lon":5.39744,"is_reserved":false,"is_disabled":false,"rental_uris":{"android":"levelo://app?vid=197a4b78-d392-4daa-b6d5-65c28f22b7aa","ios":"levelo://app?vid=197a4b78-d392-4daa-b6d5-65c28f22b7aa"},"vehicle_type_id":"4","last_reported":1744798273,"current_range_meters":23200,"station_id":"ce4bh0h2rcd13ifvqd50","pricing_plan_id":"cebpf4jnsgd1na2vs0mg"},{"bike_id":"8934c9ff-b955-4903-b5d2-c595dc711b7c","system_id":"levelo_inurba_marseille","lat":43.29573,"lon":5.39948,"is_reserved":false,"is_disabled":true,"rental_uris":{"android":"levelo://app?vid=8934c9ff-b955-4903-b5d2-c595dc711b7c","ios":"levelo://app?vid=8934c9ff-b955-4903-b5d2-c595dc711b7c"},"vehicle_type_id":"4","last_reported":1744798273,"current_range_meters":23200,"station_id":"ce4bh312rcd13ifvqdj0","pricing_plan_id":"cebpf4jnsgd1na2vs0mg"},{"bike_id":"ea4beaee-a9d9-45e9-83cd-9e3e5eef7cd2","system_id":"levelo_inurba_marseille","lat":43.292141,"lon":5.368059,"is_reserved":false,"is_disabled":false,"rental_uris":{"android":"levelo://app?vid=ea4beaee-a9d9-45e9-83cd-9e3e5eef7cd2","ios":"levelo://app?vid=ea4beaee-a9d9-45e9-83cd-9e3e5eef7cd2"},"vehicle_type_id":"4","last_reported":1744798273,"current_range_meters":23200,"station_id":"ce4bgih2rcd13ifvqba0","pricing_plan_id":"cebpf4jnsgd1na2vs0mg"},{"bike_id":"06f74720-8a0e-412a-977b-57e745fbaca0","system_id":"levelo_inurba_marseille","lat":43.27426,"lon":5.39413,"is_reserved":false,"is_disabled":false,"rental_uris":{"android":"levelo://app?vid=06f74720-8a0e-412a-977b-57e745fbaca0","ios":"levelo://app?vid=06f74720-8a0e-412a-977b-57e745fbaca0"},"vehicle_type_id":"4","last_reported":1744798273,"current_range_meters":23200,"station_id":"ce4bhdp2rcd13ifvqf20","pricing_plan_id":"cebpf4jnsgd1na2vs0mg"},{"bike_id":"80af503f-c78a-4604-8e63-671fc093a700","system_id":"levelo_inurba_marseille","lat":43.298643,"lon":5.397271,"is_reserved":false,"is_disabled":false,"rental_uris":{"android":"levelo://app?vid=80af503f-c78a-4604-8e63-671fc093a700","ios":"levelo://app?vid=80af503f-c78a-4604-8e63-671fc093a700"},"vehicle_type_id":"4","last_reported":1744798273,"current_range_meters":23200,"station_id":"ce4bh0h2rcd13ifvqd50","pricing_plan_id":"cebpf4jnsgd1na2vs0mg"},{"bike_id":"d173482c-33fe-4e3f-b3dc-50194ba6dd74","system_id":"levelo_inurba_marseille","lat":43.241812,"lon":5.397074,"is_reserved":false,"is_disabled":false,"rental_uris":{"android":"levelo://app?vid=d173482c-33fe-4e3f-b3dc-50194ba6dd74","ios":"levelo://app?vid=d173482c-33fe-4e3f-b3dc-50194ba6dd74"},"vehicle_type_id":"4","last_reported":1744798273,"current_range_meters":23200,"station_id":"ce4bhn12rcd13ifvqgpg","pricing_plan_id":"cebpf4jnsgd1na2vs0mg"},{"bike_id":"c73ab921-dd9a-4810-95bf-f34353c47ee8","system_id":"levelo_inurba_marseille","lat":43.30284,"lon":5.37699,"is_reserved":false,"is_disabled":false,"rental_uris":{"android":"levelo://app?vid=c73ab921-dd9a-4810-95bf-f34353c47ee8","ios":"levelo://app?vid=c73ab921-dd9a-4810-95bf-f34353c47ee8"},"vehicle_type_id":"4","last_reported":1744798273,"current_range_meters":23200,"station_id":"ce4bguh2rcd13ifvqcj0","pricing_plan_id":"cebpf4jnsgd1na2vs0mg"},{"bike_id":"272ea20a-4c31-4d01-a01c-10f418156f2e","system_id":"levelo_inurba_marseille","lat":43.2315,"lon":5.43683,"is_reserved":false,"is_disabled":false,"rental_uris":{"android":"levelo://app?vid=272ea20a-4c31-4d01-a01c-10f418156f2e","ios":"levelo://app?vid=272ea20a-4c31-4d01-a01c-10f418156f2e"},"vehicle_type_id":"4","last_reported":1744798273,"current_range_meters":23200,"station_id":"ce4bhmp2rcd13ifvqgog","pricing_plan_id":"cebpf4jnsgd1na2vs0mg"},{"bike_id":"7c7fb11f-ef96-49e3-863c-ce283e7f4076","system_id":"levelo_inurba_marseille","lat":43.29262,"lon":5.38454,"is_reserved":false,"is_disabled":false,"rental_uris":{"android":"levelo://app?vid=7c7fb11f-ef96-49e3-863c-ce283e7f4076","ios":"levelo://app?vid=7c7fb11f-ef96-49e3-863c-ce283e7f4076"},"vehicle_type_id":"4","last_reported":1744798273,"current_range_meters":24000,"station_id":"ce4bh692rcd13ifvqea0","pricing_plan_id":"cebpf4jnsgd1na2vs0mg"},{"bike_id":"f4c69777-4974-401f-817d-b79514aea718","system_id":"levelo_inurba_marseille","lat":43.2622,"lon":5.37427,"is_reserved":false,"is_disabled":false,"rental_uris":{"android":"levelo://app?vid=f4c69777-4974-401f-817d-b79514aea718","ios":"levelo://app?vid=f4c69777-4974-401f-817d-b79514aea718"},"vehicle_type_id":"4","last_reported":1744798273,"current_range_meters":24000,"station_id":"ce4bhgp2rcd13ifvqfc0","pricing_plan_id":"cebpf4jnsgd1na2vs0mg"},{"bike_id":"789c3822-56ca-4769-bcd4-8845bdea2fda","system_id":"levelo_inurba_marseille","lat":43.24162,"lon":5.36409,"is_reserved":false,"is_disabled":false,"rental_uris":{"android":"levelo://app?vid=789c3822-56ca-4769-bcd4-8845bdea2fda","ios":"levelo://app?vid=789c3822-56ca-4769-bcd4-8845bdea2fda"},"vehicle_type_id":"4","last_reported":1744798273,"current_range_meters":24000,"station_id":"cpo36qri1sfpv3e86is0","pricing_plan_id":"cebpf4jnsgd1na2vs0mg"},{"bike_id":"41fb0398-f2fe-4abb-ae37-a38f47615ea9","system_id":"levelo_inurba_marseille","lat":43.323545,"lon":5.367668,"is_reserved":false,"is_disabled":false,"rental_uris":{"android":"levelo://app?vid=41fb0398-f2fe-4abb-ae37-a38f47615ea9","ios":"levelo://app?vid=41fb0398-f2fe-4abb-ae37-a38f47615ea9"},"vehicle_type_id":"4","last_reported":1744798273,"current_range_meters":24000,"station_id":"ce4bhsh2rcd13ifvqi2g","pricing_plan_id":"cebpf4jnsgd1na2vs0mg"},{"bike_id":"707ad5ea-4a17-4ba7-a0b0-3332fc77b13f","system_id":"levelo_inurba_marseille","lat":43.29161,"lon":5.37165,"is_reserved":false,"is_disabled":false,"rental_uris":{"android":"levelo://app?vid=707ad5ea-4a17-4ba7-a0b0-3332fc77b13f","ios":"levelo://app?vid=707ad5ea-4a17-4ba7-a0b0-3332fc77b13f"},"vehicle_type_id":"4","last_reported":1744798273,"current_range_meters":24000,"station_id":"ce4bha92rcd13ifvqeh0","pricing_plan_id":"cebpf4jnsgd1na2vs0mg"},{"bike_id":"1efc9367-b53c-442a-8845-da1ca175712b","system_id":"levelo_inurba_marseille","lat":43.24387,"lon":5.37058,"is_reserved":false,"is_disabled":false,"rental_uris":{"android":"levelo://app?vid=1efc9367-b53c-442a-8845-da1ca175712b","ios":"levelo://app?vid=1efc9367-b53c-442a-8845-da1ca175712b"},"vehicle_type_id":"4","last_reported":1744798273,"current_range_meters":24000,"station_id":"ce4bhhh2rcd13ifvqfk0","pricing_plan_id":"cebpf4jnsgd1na2vs0mg"},{"bike_id":"984ab748-36e5-4932-95e9-df064bf3393e","system_id":"levelo_inurba_marseille","lat":43.27493,"lon":5.42483,"is_reserved":false,"is_disabled":true,"rental_uris":{"android":"levelo://app?vid=984ab748-36e5-4932-95e9-df064bf3393e","ios":"levelo://app?vid=984ab748-36e5-4932-95e9-df064bf3393e"},"vehicle_type_id":"4","last_reported":1744798273,"current_range_meters":24000,"station_id":"ce4bhn92rcd13ifvqgrg","pricing_plan_id":"cebpf4jnsgd1na2vs0mg"},{"bike_id":"cab75758-b0be-48a4-ab12-ee4ac5eac583","system_id":"levelo_inurba_marseille","lat":43.28104,"lon":5.37838,"is_reserved":false,"is_disabled":false,"rental_uris":{"android":"levelo://app?vid=cab75758-b0be-48a4-ab12-ee4ac5eac583","ios":"levelo://app?vid=cab75758-b0be-48a4-ab12-ee4ac5eac583"},"vehicle_type_id":"4","last_reported":1744798273,"current_range_meters":24000,"station_id":"ce4bha12rcd13ifvqee0","pricing_plan_id":"cebpf4jnsgd1na2vs0mg"},{"bike_id":"7eb8853e-3665-40f5-8308-1299f0674652","system_id":"levelo_inurba_marseille","lat":43.30374,"lon":5.42493,"is_reserved":false,"is_disabled":false,"rental_uris":{"android":"levelo://app?vid=7eb8853e-3665-40f5-8308-1299f0674652","ios":"levelo://app?vid=7eb8853e-3665-40f5-8308-1299f0674652"},"vehicle_type_id":"4","last_reported":1744798273,"current_range_meters":24000,"station_id":"ce4bhoh2rcd13ifvqh6g","pricing_plan_id":"cebpf4jnsgd1na2vs0mg"},{"bike_id":"5891fd25-d739-4bd6-b5ae-59f77398faaf","system_id":"levelo_inurba_marseille","lat":43.30546,"lon":5.36537,"is_reserved":false,"is_disabled":false,"rental_uris":{"android":"levelo://app?vid=5891fd25-d739-4bd6-b5ae-59f77398faaf","ios":"levelo://app?vid=5891fd25-d739-4bd6-b5ae-59f77398faaf"},"vehicle_type_id":"4","last_reported":1744798273,"current_range_meters":24000,"station_id":"ce4bgs12rcd13ifvqcag","pricing_plan_id":"cebpf4jnsgd1na2vs0mg"},{"bike_id":"69c4b081-5dfd-43dc-b379-4639328545a7","system_id":"levelo_inurba_marseille","lat":43.25513,"lon":5.37653,"is_reserved":false,"is_disabled":false,"rental_uris":{"android":"levelo://app?vid=69c4b081-5dfd-43dc-b379-4639328545a7","ios":"levelo://app?vid=69c4b081-5dfd-43dc-b379-4639328545a7"},"vehicle_type_id":"4","last_reported":1744798273,"current_range_meters":24000,"station_id":"ce4bhh12rcd13ifvqff0","pricing_plan_id":"cebpf4jnsgd1na2vs0mg"},{"bike_id":"243a776c-ce76-43c4-bd7a-bcab360c9801","system_id":"levelo_inurba_marseille","lat":43.29608,"lon":5.37722,"is_reserved":false,"is_disabled":false,"rental_uris":{"android":"levelo://app?vid=243a776c-ce76-43c4-bd7a-bcab360c9801","ios":"levelo://app?vid=243a776c-ce76-43c4-bd7a-bcab360c9801"},"vehicle_type_id":"4","last_reported":1744798273,"current_range_meters":24400,"station_id":"ce4bgi92rcd13ifvqb90","pricing_plan_id":"cebpf4jnsgd1na2vs0mg"},{"bike_id":"9b32d9b0-b425-4d34-812f-0c610ee31565","system_id":"levelo_inurba_marseille","lat":43.30197,"lon":5.39475,"is_reserved":false,"is_disabled":true,"rental_uris":{"android":"levelo://app?vid=9b32d9b0-b425-4d34-812f-0c610ee31565","ios":"levelo://app?vid=9b32d9b0-b425-4d34-812f-0c610ee31565"},"vehicle_type_id":"4","last_reported":1744798273,"current_range_meters":24400,"station_id":"ce4bh0p2rcd13ifvqd70","pricing_plan_id":"cebpf4jnsgd1na2vs0mg"},{"bike_id":"a1cd070e-97cb-47b5-bba5-6a900b1970a4","system_id":"levelo_inurba_marseille","lat":43.2926,"lon":5.38436,"is_reserved":false,"is_disabled":false,"rental_uris":{"android":"levelo://app?vid=a1cd070e-97cb-47b5-bba5-6a900b1970a4","ios":"levelo://app?vid=a1cd070e-97cb-47b5-bba5-6a900b1970a4"},"vehicle_type_id":"4","last_reported":1744798273,"current_range_meters":24400,"station_id":"ce4bh692rcd13ifvqea0","pricing_plan_id":"cebpf4jnsgd1na2vs0mg"},{"bike_id":"0f1f7a77-09e0-4e89-93d1-8f66b799b48e","system_id":"levelo_inurba_marseille","lat":43.29256,"lon":5.36857,"is_reserved":false,"is_disabled":false,"rental_uris":{"android":"levelo://app?vid=0f1f7a77-09e0-4e89-93d1-8f66b799b48e","ios":"levelo://app?vid=0f1f7a77-09e0-4e89-93d1-8f66b799b48e"},"vehicle_type_id":"4","last_reported":1744798273,"current_range_meters":24400,"station_id":"ce4bhbp2rcd13ifvqesg","pricing_plan_id":"cebpf4jnsgd1na2vs0mg"},{"bike_id":"16060b9a-c898-42ee-8a6d-8898f963fe14","system_id":"levelo_inurba_marseille","lat":43.33602,"lon":5.41032,"is_reserved":false,"is_disabled":false,"rental_uris":{"android":"levelo://app?vid=16060b9a-c898-42ee-8a6d-8898f963fe14","ios":"levelo://app?vid=16060b9a-c898-42ee-8a6d-8898f963fe14"},"vehicle_type_id":"4","last_reported":1744798273,"current_range_meters":24400,"station_id":"ce4bhqh2rcd13ifvqhmg","pricing_plan_id":"cebpf4jnsgd1na2vs0mg"},{"bike_id":"bc140d56-5426-4329-8de2-925ded4c3ae5","system_id":"levelo_inurba_marseille","lat":43.30499,"lon":5.36716,"is_reserved":false,"is_disabled":false,"rental_uris":{"android":"levelo://app?vid=bc140d56-5426-4329-8de2-925ded4c3ae5","ios":"levelo://app?vid=bc140d56-5426-4329-8de2-925ded4c3ae5"},"vehicle_type_id":"4","last_reported":1744798273,"current_range_meters":24400,"station_id":"ce4bgrp2rcd13ifvqc9g","pricing_plan_id":"cebpf4jnsgd1na2vs0mg"},{"bike_id":"88b4ffd6-92c2-41da-8102-4b84c85d2047","system_id":"levelo_inurba_marseille","lat":43.301478,"lon":5.380905,"is_reserved":false,"is_disabled":false,"rental_uris":{"android":"levelo://app?vid=88b4ffd6-92c2-41da-8102-4b84c85d2047","ios":"levelo://app?vid=88b4ffd6-92c2-41da-8102-4b84c85d2047"},"vehicle_type_id":"4","last_reported":1744798273,"current_range_meters":24800,"station_id":"ce4bgjp2rcd13ifvqbh0","pricing_plan_id":"cebpf4jnsgd1na2vs0mg"},{"bike_id":"2a3df68e-728a-4b9c-bbc2-4259a4448e26","system_id":"levelo_inurba_marseille","lat":43.27985,"lon":5.40025,"is_reserved":false,"is_disabled":false,"rental_uris":{"android":"levelo://app?vid=2a3df68e-728a-4b9c-bbc2-4259a4448e26","ios":"levelo://app?vid=2a3df68e-728a-4b9c-bbc2-4259a4448e26"},"vehicle_type_id":"4","last_reported":1744798273,"current_range_meters":24800,"station_id":"ce4bho92rcd13ifvqh4g","pricing_plan_id":"cebpf4jnsgd1na2vs0mg"},{"bike_id":"dc91a028-2aaf-4d51-bf35-25b11d27f01a","system_id":"levelo_inurba_marseille","lat":43.2984,"lon":5.36267,"is_reserved":false,"is_disabled":false,"rental_uris":{"android":"levelo://app?vid=dc91a028-2aaf-4d51-bf35-25b11d27f01a","ios":"levelo://app?vid=dc91a028-2aaf-4d51-bf35-25b11d27f01a"},"vehicle_type_id":"4","last_reported":1744798273,"current_range_meters":24400,"station_id":"ce4bgpp2rcd13ifvqc3g","pricing_plan_id":"cebpf4jnsgd1na2vs0mg"},{"bike_id":"7ed91d22-3d5b-4254-83bf-64eb2a7d5481","system_id":"levelo_inurba_marseille","lat":43.22501,"lon":5.34777,"is_reserved":false,"is_disabled":false,"rental_uris":{"android":"levelo://app?vid=7ed91d22-3d5b-4254-83bf-64eb2a7d5481","ios":"levelo://app?vid=7ed91d22-3d5b-4254-83bf-64eb2a7d5481"},"vehicle_type_id":"4","last_reported":1744798273,"current_range_meters":24800,"station_id":"","pricing_plan_id":"cebpf4jnsgd1na2vs0mg"},{"bike_id":"57fe5364-417b-4e91-ad46-f3b13c97e14f","system_id":"levelo_inurba_marseille","lat":43.33006,"lon":5.4386,"is_reserved":false,"is_disabled":false,"rental_uris":{"android":"levelo://app?vid=57fe5364-417b-4e91-ad46-f3b13c97e14f","ios":"levelo://app?vid=57fe5364-417b-4e91-ad46-f3b13c97e14f"},"vehicle_type_id":"4","last_reported":1744798273,"current_range_meters":24800,"station_id":"","pricing_plan_id":"cebpf4jnsgd1na2vs0mg"},{"bike_id":"1a441be6-2865-4316-af09-2272fc0b6d06","system_id":"levelo_inurba_marseille","lat":43.27209,"lon":5.39182,"is_reserved":false,"is_disabled":false,"rental_uris":{"android":"levelo://app?vid=1a441be6-2865-4316-af09-2272fc0b6d06","ios":"levelo://app?vid=1a441be6-2865-4316-af09-2272fc0b6d06"},"vehicle_type_id":"4","last_reported":1744798273,"current_range_meters":24800,"station_id":"ce4bhhp2rcd13ifvqfm0","pricing_plan_id":"cebpf4jnsgd1na2vs0mg"},{"bike_id":"d3d11d2d-326c-419d-8e03-efbb792fe3ad","system_id":"levelo_inurba_marseille","lat":43.27931,"lon":5.4104,"is_reserved":false,"is_disabled":false,"rental_uris":{"android":"levelo://app?vid=d3d11d2d-326c-419d-8e03-efbb792fe3ad","ios":"levelo://app?vid=d3d11d2d-326c-419d-8e03-efbb792fe3ad"},"vehicle_type_id":"4","last_reported":1744798273,"current_range_meters":24800,"station_id":"ce4bhnp2rcd13ifvqh0g","pricing_plan_id":"cebpf4jnsgd1na2vs0mg"},{"bike_id":"aa654895-2454-4a9f-b64f-adbe0b79daa3","system_id":"levelo_inurba_marseille","lat":43.31226,"lon":5.36878,"is_reserved":false,"is_disabled":false,"rental_uris":{"android":"levelo://app?vid=aa654895-2454-4a9f-b64f-adbe0b79daa3","ios":"levelo://app?vid=aa654895-2454-4a9f-b64f-adbe0b79daa3"},"vehicle_type_id":"4","last_reported":1744798273,"current_range_meters":24800,"station_id":"ce4bgl92rcd13ifvqbq0","pricing_plan_id":"cebpf4jnsgd1na2vs0mg"},{"bike_id":"2d94ed43-5644-4e24-a254-01c8094a35f0","system_id":"levelo_inurba_marseille","lat":43.27055,"lon":5.40259,"is_reserved":false,"is_disabled":false,"rental_uris":{"android":"levelo://app?vid=2d94ed43-5644-4e24-a254-01c8094a35f0","ios":"levelo://app?vid=2d94ed43-5644-4e24-a254-01c8094a35f0"},"vehicle_type_id":"4","last_reported":1744798273,"current_range_meters":24800,"station_id":"ce4bhk92rcd13ifvqgc0","pricing_plan_id":"cebpf4jnsgd1na2vs0mg"},{"bike_id":"33efbe4e-e642-4271-be29-4926b421ca5b","system_id":"levelo_inurba_marseille","lat":43.24164,"lon":5.36383,"is_reserved":false,"is_disabled":false,"rental_uris":{"android":"levelo://app?vid=33efbe4e-e642-4271-be29-4926b421ca5b","ios":"levelo://app?vid=33efbe4e-e642-4271-be29-4926b421ca5b"},"vehicle_type_id":"4","last_reported":1744798273,"current_range_meters":24800,"station_id":"cpo36qri1sfpv3e86is0","pricing_plan_id":"cebpf4jnsgd1na2vs0mg"},{"bike_id":"164e968e-a170-4ac2-9964-de4325164194","system_id":"levelo_inurba_marseille","lat":43.29614,"lon":5.37699,"is_reserved":false,"is_disabled":false,"rental_uris":{"android":"levelo://app?vid=164e968e-a170-4ac2-9964-de4325164194","ios":"levelo://app?vid=164e968e-a170-4ac2-9964-de4325164194"},"vehicle_type_id":"4","last_reported":1744798273,"current_range_meters":24800,"station_id":"ce4bgi92rcd13ifvqb90","pricing_plan_id":"cebpf4jnsgd1na2vs0mg"},{"bike_id":"60e764d4-59d8-471c-b600-31e7390667ed","system_id":"levelo_inurba_marseille","lat":43.27322,"lon":5.39949,"is_reserved":false,"is_disabled":false,"rental_uris":{"android":"levelo://app?vid=60e764d4-59d8-471c-b600-31e7390667ed","ios":"levelo://app?vid=60e764d4-59d8-471c-b600-31e7390667ed"},"vehicle_type_id":"4","last_reported":1744798273,"current_range_meters":24800,"station_id":"","pricing_plan_id":"cebpf4jnsgd1na2vs0mg"},{"bike_id":"2d89165b-7cd5-4ac5-b5bd-037a1e46c8f2","system_id":"levelo_inurba_marseille","lat":43.31383,"lon":5.36732,"is_reserved":false,"is_disabled":false,"rental_uris":{"android":"levelo://app?vid=2d89165b-7cd5-4ac5-b5bd-037a1e46c8f2","ios":"levelo://app?vid=2d89165b-7cd5-4ac5-b5bd-037a1e46c8f2"},"vehicle_type_id":"4","last_reported":1744798273,"current_range_meters":25200,"station_id":"","pricing_plan_id":"cebpf4jnsgd1na2vs0mg"},{"bike_id":"2dabbd57-f88a-4218-ab55-30409800394a","system_id":"levelo_inurba_marseille","lat":43.29253,"lon":5.38444,"is_reserved":false,"is_disabled":false,"rental_uris":{"android":"levelo://app?vid=2dabbd57-f88a-4218-ab55-30409800394a","ios":"levelo://app?vid=2dabbd57-f88a-4218-ab55-30409800394a"},"vehicle_type_id":"4","last_reported":1744798273,"current_range_meters":25200,"station_id":"ce4bh692rcd13ifvqea0","pricing_plan_id":"cebpf4jnsgd1na2vs0mg"},{"bike_id":"68342d9f-f0b6-47e7-b690-b27078e67a77","system_id":"levelo_inurba_marseille","lat":43.24166,"lon":5.364,"is_reserved":false,"is_disabled":false,"rental_uris":{"android":"levelo://app?vid=68342d9f-f0b6-47e7-b690-b27078e67a77","ios":"levelo://app?vid=68342d9f-f0b6-47e7-b690-b27078e67a77"},"vehicle_type_id":"4","last_reported":1744798273,"current_range_meters":25200,"station_id":"cpo36qri1sfpv3e86is0","pricing_plan_id":"cebpf4jnsgd1na2vs0mg"},