{"last_updated":1692461199,"ttl":30,"version":"2.2","data":{"bikes":[{"bike_id":"f22ca441-4e4e-4660-b824-b2f46943e54d","system_id":"levelo_inurba_marseille","lat":43.312239,"lon":5.368562,"is_reserved":false,"is_disabled":false,"rental_uris":{"android":"levelo://app?vid=f22ca441-4e4e-4660-b824-b2f46943e54d","ios":"levelo://app?vid=f22ca441-4e4e-4660-b824-b2f46943e54d"},"vehicle_type_id":"4","last_reported":1692461200,"current_range_meters":31600,"station_id":"ce4bgl92rcd13ifvqbq0","pricing_plan_id":"free"},{"bike_id":"cc0bddc4-403d-45fc-8b4a-c35198d4741b","system_id":"levelo_inurba_marseille","lat":43.312239,"lon":5.368562,"is_reserved":false,"is_disabled":false,"rental_uris":{"android":"levelo://app?vid=cc0bddc4-403d-45fc-8b4a-c35198d4741b","ios":"levelo://app?vid=cc0bddc4-403d-45fc-8b4a-c35198d4741b"},"vehicle_type_id":"4","last_reported":1692461200,"current_range_meters":31200,"station_id":"ce4bgl92rcd13ifvqbq0","pricing_plan_id":"free"},{"bike_id":"798484b3-d62c-4b6b-8973-f9fadb03d90c","system_id":"levelo_inurba_marseille","lat":43.312239,"lon":5.368562,"is_reserved":false,"is_disabled":false,"rental_uris":{"android":"levelo://app?vid=798484b3-d62c-4b6b-8973-f9fadb03d90c","ios":"levelo://app?vid=798484b3-d62c-4b6b-8973-f9fadb03d90c"},"vehicle_type_id":"4","last_reported":1692461200,"current_range_meters":31200,"station_id":"ce4bgl92rcd13ifvqbq0","pricing_plan_id":"free"},{"bike_id":"551d0656-3361-4e0c-88ea-5db1254628c5","system_id":"levelo_inurba_marseille","lat":43.312239,"lon":5.368562,"is_reserved":false,"is_disabled":false,"rental_uris":{"android":"levelo://app?vid=551d0656-3361-4e0c-88ea-5db1254628c5","ios":"levelo://app?vid=551d0656-3361-4e0c-88ea-5db1254628c5"},"vehicle_type_id":"4","last_reported":1692461200,"current_range_meters":31200,"station_id":"ce4bgl92rcd13ifvqbq0","pricing_plan_id":"free"},{"bike_id":"364dc0f9-c722-4a74-bc78-d8f7a5c4f1b7","system_id":"levelo_inurba_marseille","lat":43.312239,"lon":5.368562,"is_reserved":false,"is_disabled":false,"rental_uris":{"android":"levelo://app?vid=364dc0f9-c722-4a74-bc78-d8f7a5c4f1b7","ios":"levelo://app?vid=364dc0f9-c722-4a74-bc78-d8f7a5c4f1b7"},"vehicle_type_id":"4","last_reported":1692461200,"current_range_meters":31200,"station_id":"ce4bgl92rcd13ifvqbq0","pricing_plan_id":"free"},{"bike_id":"a580b134-d447-4f71-841b-05e4e4f0e58a","system_id":"levelo_inurba_marseille","lat":43.312239,"lon":5.368562,"is_reserved":false,"is_disabled":false,"rental_uris":{"android":"levelo://app?vid=a580b134-d447-4f71-841b-05e4e4f0e58a","ios":"levelo://app?vid=a580b134-d447-4f71-841b-05e4e4f0e58a"},"vehicle_type_id":"4","last_reported":1692461200,"current_range_meters":30000,"station_id":"ce4bgl92rcd13ifvqbq0","pricing_plan_id":"free"},{"bike_id":"d968abd3-56a4-4d70-b2e2-d7ac7ecfa54b","system_id":"levelo_inurba_marseille","lat":43.312239,"lon":5.368562,"is_reserved":false,"is_disabled":false,"rental_uris":{"android":"levelo://app?vid=d968abd3-56a4-4d70-b2e2-d7ac7ecfa54b","ios":"levelo://app?vid=d968abd3-56a4-4d70-b2e2-d7ac7ecfa54b"},"vehicle_type_id":"4","last_reported":1692461200,"current_range_meters":31600,"station_id":"ce4bgl92rcd13ifvqbq0","pricing_plan_id":"free"},{"bike_id":"28e7cf53-575d-41ed-b334-437a597705b5","system_id":"levelo_inurba_marseille","lat":43.312239,"lon":5.368562,"is_reserved":false,"is_disabled":false,"rental_uris":{"android":"levelo://app?vid=28e7cf53-575d-41ed-b334-437a597705b5","ios":"levelo://app?vid=28e7cf53-575d-41ed-b334-437a597705b5"},"vehicle_type_id":"4","last_reported":1692461200,"current_range_meters":31200,"station_id":"ce4bgl92rcd13ifvqbq0","pricing_plan_id":"free"},{"bike_id":"cdb1b558-4c05-4249-935b-0ced01b51573","system_id":"levelo_inurba_marseille","lat":43.312239,"lon":5.368562,"is_reserved":false,"is_disabled":false,"rental_uris":{"android":"levelo://app?vid=cdb1b558-4c05-4249-935b-0ced01b51573","ios":"levelo://app?vid=cdb1b558-4c05-4249-935b-0ced01b51573"},"vehicle_type_id":"4","last_reported":1692461200,"current_range_meters":14400,"station_id":"ce4bgl92rcd13ifvqbq0","pricing_plan_id":"free"},{"bike_id":"44ce16de-455d-4a60-ab8f-b3182320c1d6","system_id":"levelo_inurba_marseille","lat":43.30912,"lon":5.36849,"is_reserved":false,"is_disabled":false,"rental_uris":{"android":"levelo://app?vid=44ce16de-455d-4a60-ab8f-b3182320c1d6","ios":"levelo://app?vid=44ce16de-455d-4a60-ab8f-b3182320c1d6"},"vehicle_type_id":"4","last_reported":1692461200,"current_range_meters":25600,"station_id":"ce4bgn92rcd13ifvqbvg","pricing_plan_id":"free"},{"bike_id":"bc87bca4-24df-4796-abff-ca9583d327cb","system_id":"levelo_inurba_marseille","lat":43.30904,"lon":5.36849,"is_reserved":false,"is_disabled":false,"rental_uris":{"android":"levelo://app?vid=bc87bca4-24df-4796-abff-ca9583d327cb","ios":"levelo://app?vid=bc87bca4-24df-4796-abff-ca9583d327cb"},"vehicle_type_id":"4","last_reported":1692461200,"current_range_meters":30800,"station_id":"ce4bgn92rcd13ifvqbvg","pricing_plan_id":"free"},{"bike_id":"386ed8e3-b71e-4f68-86af-202c5b76503e","system_id":"levelo_inurba_marseille","lat":43.30541,"lon":5.36715,"is_reserved":false,"is_disabled":false,"rental_uris":{"android":"levelo://app?vid=386ed8e3-b71e-4f68-86af-202c5b76503e","ios":"levelo://app?vid=386ed8e3-b71e-4f68-86af-202c5b76503e"},"vehicle_type_id":"4","last_reported":1692461200,"current_range_meters":24800,"station_id":"ce4bgrp2rcd13ifvqc9g","pricing_plan_id":"free"},{"bike_id":"9fbe6e18-d192-44c2-98b5-cafb68b41aa4","system_id":"levelo_inurba_marseille","lat":43.30542,"lon":5.36524,"is_reserved":false,"is_disabled":false,"rental_uris":{"android":"levelo://app?vid=9fbe6e18-d192-44c2-98b5-cafb68b41aa4","ios":"levelo://app?vid=9fbe6e18-d192-44c2-98b5-cafb68b41aa4"},"vehicle_type_id":"4","last_reported":1692461200,"current_range_meters":10800,"station_id":"ce4bgs12rcd13ifvqcag","pricing_plan_id":"free"},{"bike_id":"e92c44c6-bfb0-45fa-b2fe-a367fd139d46","system_id":"levelo_inurba_marseille","lat":43.317075,"lon":5.377367,"is_reserved":false,"is_disabled":false,"rental_uris":{"android":"levelo://app?vid=e92c44c6-bfb0-45fa-b2fe-a367fd139d46","ios":"levelo://app?vid=e92c44c6-bfb0-45fa-b2fe-a367fd139d46"},"vehicle_type_id":"4","last_reported":1692461200,"current_range_meters":21200,"station_id":"ce4bgth2rcd13ifvqch0","pricing_plan_id":"free"},{"bike_id":"afed6de6-bfcf-43e9-bfd4-eba25170a42b","system_id":"levelo_inurba_marseille","lat":43.317075,"lon":5.377367,"is_reserved":false,"is_disabled":false,"rental_uris":{"android":"levelo://app?vid=afed6de6-bfcf-43e9-bfd4-eba25170a42b","ios":"levelo://app?vid=afed6de6-bfcf-43e9-bfd4-eba25170a42b"},"vehicle_type_id":"4","last_reported":1692461200,"current_range_meters":28800,"station_id":"ce4bgth2rcd13ifvqch0","pricing_plan_id":"free"},{"bike_id":"02f0bdae-2518-4a3c-9c3f-5c7d457668de","system_id":"levelo_inurba_marseille","lat":43.304606,"lon":5.379026,"is_reserved":false,"is_disabled":false,"rental_uris":{"android":"levelo://app?vid=02f0bdae-2518-4a3c-9c3f-5c7d457668de","ios":"levelo://app?vid=02f0bdae-2518-4a3c-9c3f-5c7d457668de"},"vehicle_type_id":"4","last_reported":1692461200,"current_range_meters":17600,"station_id":"ce4bgup2rcd13ifvqcn0","pricing_plan_id":"free"},{"bike_id":"c08fe3b1-1da6-4c11-a0f0-b7d3d213a270","system_id":"levelo_inurba_marseille","lat":43.304606,"lon":5.379026,"is_reserved":false,"is_disabled":false,"rental_uris":{"android":"levelo://app?vid=c08fe3b1-1da6-4c11-a0f0-b7d3d213a270","ios":"levelo://app?vid=c08fe3b1-1da6-4c11-a0f0-b7d3d213a270"},"vehicle_type_id":"4","last_reported":1692461200,"current_range_meters":3600,"station_id":"ce4bgup2rcd13ifvqcn0","pricing_plan_id":"free"},{"bike_id":"8f9423b6-2f75-4d37-9601-472d76ede970","system_id":"levelo_inurba_marseille","lat":43.3136,"lon":5.38465,"is_reserved":false,"is_disabled":false,"rental_uris":{"android":"levelo://app?vid=8f9423b6-2f75-4d37-9601-472d76ede970","ios":"levelo://app?vid=8f9423b6-2f75-4d37-9601-472d76ede970"},"vehicle_type_id":"4","last_reported":1692461200,"current_range_meters":7200,"station_id":"ce4bgt92rcd13ifvqcf0","pricing_plan_id":"free"},{"bike_id":"bb15627c-85d8-4110-ad80-64daea7c1356","system_id":"levelo_inurba_marseille","lat":43.2994,"lon":5.36545,"is_reserved":false,"is_disabled":false,"rental_uris":{"android":"levelo://app?vid=bb15627c-85d8-4110-ad80-64daea7c1356","ios":"levelo://app?vid=bb15627c-85d8-4110-ad80-64daea7c1356"},"vehicle_type_id":"4","last_reported":1692461200,"current_range_meters":30400,"station_id":"ce4bgm92rcd13ifvqbr0","pricing_plan_id":"free"},{"bike_id":"efbc6f66-3c67-492e-8cca-873434a6c75f","system_id":"levelo_inurba_marseille","lat":43.299222,"lon":5.365554,"is_reserved":false,"is_disabled":false,"rental_uris":{"android":"levelo://app?vid=efbc6f66-3c67-492e-8cca-873434a6c75f","ios":"levelo://app?vid=efbc6f66-3c67-492e-8cca-873434a6c75f"},"vehicle_type_id":"4","last_reported":1692461200,"current_range_meters":28000,"station_id":"ce4bgm92rcd13ifvqbr0","pricing_plan_id":"free"},{"bike_id":"4f5b77fe-bfd1-409f-b45e-df7e65443109","system_id":"levelo_inurba_marseille","lat":43.299243,"lon":5.37481,"is_reserved":false,"is_disabled":false,"rental_uris":{"android":"levelo://app?vid=4f5b77fe-bfd1-409f-b45e-df7e65443109","ios":"levelo://app?vid=4f5b77fe-bfd1-409f-b45e-df7e65443109"},"vehicle_type_id":"4","last_reported":1692461200,"current_range_meters":6400,"station_id":"ce4bgjh2rcd13ifvqbg0","pricing_plan_id":"free"},{"bike_id":"b885f463-e8c5-42cc-902f-7152167ce1c7","system_id":"levelo_inurba_marseille","lat":43.299243,"lon":5.374807,"is_reserved":false,"is_disabled":false,"rental_uris":{"android":"levelo://app?vid=b885f463-e8c5-42cc-902f-7152167ce1c7","ios":"levelo://app?vid=b885f463-e8c5-42cc-902f-7152167ce1c7"},"vehicle_type_id":"4","last_reported":1692461200,"current_range_meters":31200,"station_id":"ce4bgjh2rcd13ifvqbg0","pricing_plan_id":"free"},{"bike_id":"36a0a893-98e4-4939-ab77-57b6c42cb3eb","system_id":"levelo_inurba_marseille","lat":43.30209,"lon":5.38103,"is_reserved":false,"is_disabled":false,"rental_uris":{"android":"levelo://app?vid=36a0a893-98e4-4939-ab77-57b6c42cb3eb","ios":"levelo://app?vid=36a0a893-98e4-4939-ab77-57b6c42cb3eb"},"vehicle_type_id":"4","last_reported":1692461200,"current_range_meters":0,"station_id":"","pricing_plan_id":"free"},{"bike_id":"55c7e787-7130-48a6-a6bb-8e7942b45cc2","system_id":"levelo_inurba_marseille","lat":43.297774,"lon":5.370875,"is_reserved":false,"is_disabled":false,"rental_uris":{"android":"levelo://app?vid=55c7e787-7130-48a6-a6bb-8e7942b45cc2","ios":"levelo://app?vid=55c7e787-7130-48a6-a6bb-8e7942b45cc2"},"vehicle_type_id":"4","last_reported":1692461200,"current_range_meters":30400,"station_id":"ce4bgop2rcd13ifvqc1g","pricing_plan_id":"free"},{"bike_id":"72af3f88-7ec4-4a8a-a423-efff5e1d2aad","system_id":"levelo_inurba_marseille","lat":43.297774,"lon":5.370875,"is_reserved":false,"is_disabled":false,"rental_uris":{"android":"levelo://app?vid=72af3f88-7ec4-4a8a-a423-efff5e1d2aad","ios":"levelo://app?vid=72af3f88-7ec4-4a8a-a423-efff5e1d2aad"},"vehicle_type_id":"4","last_reported":1692461200,"current_range_meters":25200,"station_id":"ce4bgop2rcd13ifvqc1g","pricing_plan_id":"free"},{"bike_id":"5f91fc7d-0833-4a7c-a0d8-21ec0ad5455a","system_id":"levelo_inurba_marseille","lat":43.32285,"lon":5.3826,"is_reserved":false,"is_disabled":false,"rental_uris":{"android":"levelo://app?vid=5f91fc7d-0833-4a7c-a0d8-21ec0ad5455a","ios":"levelo://app?vid=5f91fc7d-0833-4a7c-a0d8-21ec0ad5455a"},"vehicle_type_id":"4","last_reported":1692461200,"current_range_meters":21200,"station_id":"ce4bhr12rcd13ifvqhqg","pricing_plan_id":"free"},{"bike_id":"673200d6-9c00-4797-bd65-06254571f6fe","system_id":"levelo_inurba_marseille","lat":43.3229,"lon":5.38263,"is_reserved":false,"is_disabled":false,"rental_uris":{"android":"levelo://app?vid=673200d6-9c00-4797-bd65-06254571f6fe","ios":"levelo://app?vid=673200d6-9c00-4797-bd65-06254571f6fe"},"vehicle_type_id":"4","last_reported":1692461200,"current_range_meters":23200,"station_id":"ce4bhr12rcd13ifvqhqg","pricing_plan_id":"free"},{"bike_id":"aa2e6019-9151-482e-89b9-170a7dafb392","system_id":"levelo_inurba_marseille","lat":43.297774,"lon":5.370875,"is_reserved":false,"is_disabled":false,"rental_uris":{"android":"levelo://app?vid=aa2e6019-9151-482e-89b9-170a7dafb392","ios":"levelo://app?vid=aa2e6019-9151-482e-89b9-170a7dafb392"},"vehicle_type_id":"4","last_reported":1692461200,"current_range_meters":0,"station_id":"ce4bgop2rcd13ifvqc1g","pricing_plan_id":"free"},{"bike_id":"5b5c8cae-b425-4976-9ba8-5ae205664d6b","system_id":"levelo_inurba_marseille","lat":43.322872,"lon":5.382756,"is_reserved":false,"is_disabled":false,"rental_uris":{"android":"levelo://app?vid=5b5c8cae-b425-4976-9ba8-5ae205664d6b","ios":"levelo://app?vid=5b5c8cae-b425-4976-9ba8-5ae205664d6b"},"vehicle_type_id":"4","last_reported":1692461200,"current_range_meters":18800,"station_id":"ce4bhr12rcd13ifvqhqg","pricing_plan_id":"free"},{"bike_id":"a1f7b084-f437-4e0c-8b20-334f54c48d59","system_id":"levelo_inurba_marseille","lat":43.3229,"lon":5.38271,"is_reserved":false,"is_disabled":false,"rental_uris":{"android":"levelo://app?vid=a1f7b084-f437-4e0c-8b20-334f54c48d59","ios":"levelo://app?vid=a1f7b084-f437-4e0c-8b20-334f54c48d59"},"vehicle_type_id":"4","last_reported":1692461200,"current_range_meters":18800,"station_id":"ce4bhr12rcd13ifvqhqg","pricing_plan_id":"free"},{"bike_id":"1b980555-d968-4010-9e58-8aaa96e9eae0","system_id":"levelo_inurba_marseille","lat":43.32289,"lon":5.38274,"is_reserved":false,"is_disabled":false,"rental_uris":{"android":"levelo://app?vid=1b980555-d968-4010-9e58-8aaa96e9eae0","ios":"levelo://app?vid=1b980555-d968-4010-9e58-8aaa96e9eae0"},"vehicle_type_id":"4","last_reported":1692461200,"current_range_meters":31200,"station_id":"ce4bhr12rcd13ifvqhqg","pricing_plan_id":"free"},{"bike_id":"20066552-063e-4d3e-9e10-e0e8a6d2c838","system_id":"levelo_inurba_marseille","lat":43.3229,"lon":5.38273,"is_reserved":false,"is_disabled":false,"rental_uris":{"android":"levelo://app?vid=20066552-063e-4d3e-9e10-e0e8a6d2c838","ios":"levelo://app?vid=20066552-063e-4d3e-9e10-e0e8a6d2c838"},"vehicle_type_id":"4","last_reported":1692461200,"current_range_meters":30000,"station_id":"ce4bhr12rcd13ifvqhqg","pricing_plan_id":"free"},{"bike_id":"648dadf8-ff22-438c-bfb7-5c83267bdf3f","system_id":"levelo_inurba_marseille","lat":43.32293,"lon":5.38273,"is_reserved":false,"is_disabled":false,"rental_uris":{"android":"levelo://app?vid=648dadf8-ff22-438c-bfb7-5c83267bdf3f","ios":"levelo://app?vid=648dadf8-ff22-438c-bfb7-5c83267bdf3f"},"vehicle_type_id":"4","last_reported":1692461200,"current_range_meters":31200,"station_id":"ce4bhr12rcd13ifvqhqg","pricing_plan_id":"free"},{"bike_id":"b9784bc4-a1f4-4e7b-a996-3746dcc4c656","system_id":"levelo_inurba_marseille","lat":43.32286,"lon":5.38282,"is_reserved":false,"is_disabled":false,"rental_uris":{"android":"levelo://app?vid=b9784bc4-a1f4-4e7b-a996-3746dcc4c656","ios":"levelo://app?vid=b9784bc4-a1f4-4e7b-a996-3746dcc4c656"},"vehicle_type_id":"4","last_reported":1692461200,"current_range_meters":10000,"station_id":"ce4bhr12rcd13ifvqhqg","pricing_plan_id":"free"},{"bike_id":"37abf04b-75d1-4790-b864-78d0de8637fb","system_id":"levelo_inurba_marseille","lat":43.3229,"lon":5.3828,"is_reserved":false,"is_disabled":false,"rental_uris":{"android":"levelo://app?vid=37abf04b-75d1-4790-b864-78d0de8637fb","ios":"levelo://app?vid=37abf04b-75d1-4790-b864-78d0de8637fb"},"vehicle_type_id":"4","last_reported":1692461200,"current_range_meters":26400,"station_id":"ce4bhr12rcd13ifvqhqg","pricing_plan_id":"free"},{"bike_id":"bf50149d-0b02-4a39-a11f-086bbdccfaac","system_id":"levelo_inurba_marseille","lat":43.328371,"lon":5.366909,"is_reserved":false,"is_disabled":false,"rental_uris":{"android":"levelo://app?vid=bf50149d-0b02-4a39-a11f-086bbdccfaac","ios":"levelo://app?vid=bf50149d-0b02-4a39-a11f-086bbdccfaac"},"vehicle_type_id":"4","last_reported":1692461200,"current_range_meters":21200,"station_id":"ce4bhs92rcd13ifvqi0g","pricing_plan_id":"free"},{"bike_id":"dd789220-e7b5-42c1-b9dc-dc4243148021","system_id":"levelo_inurba_marseille","lat":43.297163,"lon":5.365866,"is_reserved":false,"is_disabled":false,"rental_uris":{"android":"levelo://app?vid=dd789220-e7b5-42c1-b9dc-dc4243148021","ios":"levelo://app?vid=dd789220-e7b5-42c1-b9dc-dc4243148021"},"vehicle_type_id":"4","last_reported":1692461200,"current_range_meters":31200,"station_id":"ce4bgn12rcd13ifvqbt0","pricing_plan_id":"free"},{"bike_id":"5f3e3bfc-85ed-4d8c-8b92-e1a6257584a3","system_id":"levelo_inurba_marseille","lat":43.32832,"lon":5.36688,"is_reserved":false,"is_disabled":false,"rental_uris":{"android":"levelo://app?vid=5f3e3bfc-85ed-4d8c-8b92-e1a6257584a3","ios":"levelo://app?vid=5f3e3bfc-85ed-4d8c-8b92-e1a6257584a3"},"vehicle_type_id":"4","last_reported":1692461200,"current_range_meters":22400,"station_id":"ce4bhs92rcd13ifvqi0g","pricing_plan_id":"free"},{"bike_id":"418f40db-23bc-4b66-8945-04cfb5eeb137","system_id":"levelo_inurba_marseille","lat":43.328371,"lon":5.366909,"is_reserved":false,"is_disabled":false,"rental_uris":{"android":"levelo://app?vid=418f40db-23bc-4b66-8945-04cfb5eeb137","ios":"levelo://app?vid=418f40db-23bc-4b66-8945-04cfb5eeb137"},"vehicle_type_id":"4","last_reported":1692461200,"current_range_meters":31200,"station_id":"ce4bhs92rcd13ifvqi0g","pricing_plan_id":"free"},{"bike_id":"e3a21d07-f446-4608-85be-12a81574bffc","system_id":"levelo_inurba_marseille","lat":43.32835,"lon":5.36687,"is_reserved":false,"is_disabled":false,"rental_uris":{"android":"levelo://app?vid=e3a21d07-f446-4608-85be-12a81574bffc","ios":"levelo://app?vid=e3a21d07-f446-4608-85be-12a81574bffc"},"vehicle_type_id":"4","last_reported":1692461200,"current_range_meters":16000,"station_id":"ce4bhs92rcd13ifvqi0g","pricing_plan_id":"free"},{"bike_id":"2ddd90e7-349a-4b85-8df6-298a58c64c73","system_id":"levelo_inurba_marseille","lat":43.32891,"lon":5.36692,"is_reserved":false,"is_disabled":false,"rental_uris":{"android":"levelo://app?vid=2ddd90e7-349a-4b85-8df6-298a58c64c73","ios":"levelo://app?vid=2ddd90e7-349a-4b85-8df6-298a58c64c73"},"vehicle_type_id":"4","last_reported":1692461200,"current_range_meters":4400,"station_id":"ce4bhs92rcd13ifvqi0g","pricing_plan_id":"free"},{"bike_id":"bb155e93-116e-494a-9911-2df351c7dae8","system_id":"levelo_inurba_marseille","lat":43.296131,"lon":5.370791,"is_reserved":false,"is_disabled":false,"rental_uris":{"android":"levelo://app?vid=bb155e93-116e-494a-9911-2df351c7dae8","ios":"levelo://app?vid=bb155e93-116e-494a-9911-2df351c7dae8"},"vehicle_type_id":"4","last_reported":1692461200,"current_range_meters":29600,"station_id":"ce4bgnh2rcd13ifvqc0g","pricing_plan_id":"free"},{"bike_id":"3d17687e-ef4d-466c-ad8e-77b9b8198fbb","system_id":"levelo_inurba_marseille","lat":43.296129,"lon":5.370777,"is_reserved":false,"is_disabled":false,"rental_uris":{"android":"levelo://app?vid=3d17687e-ef4d-466c-ad8e-77b9b8198fbb","ios":"levelo://app?vid=3d17687e-ef4d-466c-ad8e-77b9b8198fbb"},"vehicle_type_id":"4","last_reported":1692461200,"current_range_meters":26400,"station_id":"ce4bgnh2rcd13ifvqc0g","pricing_plan_id":"free"},{"bike_id":"d3139180-8ba9-4c91-b6e4-8baae3c22113","system_id":"levelo_inurba_marseille","lat":43.296131,"lon":5.370773,"is_reserved":false,"is_disabled":false,"rental_uris":{"android":"levelo://app?vid=d3139180-8ba9-4c91-b6e4-8baae3c22113","ios":"levelo://app?vid=d3139180-8ba9-4c91-b6e4-8baae3c22113"},"vehicle_type_id":"4","last_reported":1692461200,"current_range_meters":31200,"station_id":"ce4bgnh2rcd13ifvqc0g","pricing_plan_id":"free"},{"bike_id":"3817c317-149f-4584-8c29-7fe17a50ae12","system_id":"levelo_inurba_marseille","lat":43.299028,"lon":5.381509,"is_reserved":false,"is_disabled":false,"rental_uris":{"android":"levelo://app?vid=3817c317-149f-4584-8c29-7fe17a50ae12","ios":"levelo://app?vid=3817c317-149f-4584-8c29-7fe17a50ae12"},"vehicle_type_id":"4","last_reported":1692461200,"current_range_meters":800,"station_id":"ce4bgj12rcd13ifvqbc0","pricing_plan_id":"free"},{"bike_id":"3432df08-3488-4f8b-bb98-858c650f69fd","system_id":"levelo_inurba_marseille","lat":43.309517,"lon":5.390299,"is_reserved":false,"is_disabled":false,"rental_uris":{"android":"levelo://app?vid=3432df08-3488-4f8b-bb98-858c650f69fd","ios":"levelo://app?vid=3432df08-3488-4f8b-bb98-858c650f69fd"},"vehicle_type_id":"4","last_reported":1692461200,"current_range_meters":0,"station_id":"ce4bgup2rcd13ifvqco0","pricing_plan_id":"free"},{"bike_id":"b19118f7-cbf1-4ae5-bf92-0d92bbaa7599","system_id":"levelo_inurba_marseille","lat":43.317557,"lon":5.390173,"is_reserved":false,"is_disabled":false,"rental_uris":{"android":"levelo://app?vid=b19118f7-cbf1-4ae5-bf92-0d92bbaa7599","ios":"levelo://app?vid=b19118f7-cbf1-4ae5-bf92-0d92bbaa7599"},"vehicle_type_id":"4","last_reported":1692461200,"current_range_meters":27200,"station_id":"ce4bhqp2rcd13ifvqhng","pricing_plan_id":"free"},{"bike_id":"e9682881-cb03-4ae3-b439-0cc7b7a607e3","system_id":"levelo_inurba_marseille","lat":43.317557,"lon":5.390173,"is_reserved":false,"is_disabled":false,"rental_uris":{"android":"levelo://app?vid=e9682881-cb03-4ae3-b439-0cc7b7a607e3","ios":"levelo://app?vid=e9682881-cb03-4ae3-b439-0cc7b7a607e3"},"vehicle_type_id":"4","last_reported":1692461200,"current_range_meters":15600,"station_id":"ce4bhqp2rcd13ifvqhng","pricing_plan_id":"free"},{"bike_id":"aeea41ca-ca6f-423b-a54f-84d7bb053154","system_id":"levelo_inurba_marseille","lat":43.295748,"lon":5.37522,"is_reserved":false,"is_disabled":false,"rental_uris":{"android":"levelo://app?vid=aeea41ca-ca6f-423b-a54f-84d7bb053154","ios":"levelo://app?vid=aeea41ca-ca6f-423b-a54f-84d7bb053154"},"vehicle_type_id":"4","last_reported":1692461200,"current_range_meters":2400,"station_id":"ce4bgh92rcd13ifvqb50","pricing_plan_id":"free"},{"bike_id":"a4df99ce-0488-49dd-a888-94686f562e88","system_id":"levelo_inurba_marseille","lat":43.295748,"lon":5.37522,"is_reserved":false,"is_disabled":false,"rental_uris":{"android":"levelo://app?vid=a4df99ce-0488-49dd-a888-94686f562e88","ios":"levelo://app?vid=a4df99ce-0488-49dd-a888-94686f562e88"},"vehicle_type_id":"4","last_reported":1692461200,"current_range_meters":28800,"station_id":"ce4bgh92rcd13ifvqb50","pricing_plan_id":"free"},{"bike_id":"43bd90b2-c101-44bf-9c85-977dccbdc210","system_id":"levelo_inurba_marseille","lat":43.296277,"lon":5.377108,"is_reserved":false,"is_disabled":false,"rental_uris":{"android":"levelo://app?vid=43bd90b2-c101-44bf-9c85-977dccbdc210","ios":"levelo://app?vid=43bd90b2-c101-44bf-9c85-977dccbdc210"},"vehicle_type_id":"4","last_reported":1692461200,"current_range_meters":14800,"station_id":"ce4bgi92rcd13ifvqb90","pricing_plan_id":"free"},{"bike_id":"aa081300-6757-4ff6-acb0-47efbf6555cc","system_id":"levelo_inurba_marseille","lat":43.296277,"lon":5.377108,"is_reserved":false,"is_disabled":false,"rental_uris":{"android":"levelo://app?vid=aa081300-6757-4ff6-acb0-47efbf6555cc","ios":"levelo://app?vid=aa081300-6757-4ff6-acb0-47efbf6555cc"},"vehicle_type_id":"4","last_reported":1692461200,"current_range_meters":11600,"station_id":"ce4bgi92rcd13ifvqb90","pricing_plan_id":"free"},{"bike_id":"207f2f90-5396-4fe6-bd95-d438ab16c0b7","system_id":"levelo_inurba_marseille","lat":43.32367,"lon":5.388836,"is_reserved":false,"is_disabled":false,"rental_uris":{"android":"levelo://app?vid=207f2f90-5396-4fe6-bd95-d438ab16c0b7","ios":"levelo://app?vid=207f2f90-5396-4fe6-bd95-d438ab16c0b7"},"vehicle_type_id":"4","last_reported":1692461200,"current_range_meters":30000,"station_id":"ce4bhqp2rcd13ifvqhog","pricing_plan_id":"free"},{"bike_id":"21fcea45-e491-4a85-bcbf-bf5cd0b62ccf","system_id":"levelo_inurba_marseille","lat":43.32368,"lon":5.38879,"is_reserved":false,"is_disabled":false,"rental_uris":{"android":"levelo://app?vid=21fcea45-e491-4a85-bcbf-bf5cd0b62ccf","ios":"levelo://app?vid=21fcea45-e491-4a85-bcbf-bf5cd0b62ccf"},"vehicle_type_id":"4","last_reported":1692461200,"current_range_meters":31200,"station_id":"ce4bhqp2rcd13ifvqhog","pricing_plan_id":"free"},{"bike_id":"55f08f4d-333e-4077-9882-16e72e12ddbf","system_id":"levelo_inurba_marseille","lat":43.3237,"lon":5.38878,"is_reserved":false,"is_disabled":false,"rental_uris":{"android":"levelo://app?vid=55f08f4d-333e-4077-9882-16e72e12ddbf","ios":"levelo://app?vid=55f08f4d-333e-4077-9882-16e72e12ddbf"},"vehicle_type_id":"4","last_reported":1692461200,"current_range_meters":27600,"station_id":"ce4bhqp2rcd13ifvqhog","pricing_plan_id":"free"},{"bike_id":"a97f77a2-1520-4bfc-9df0-0f9c62851caa","system_id":"levelo_inurba_marseille","lat":43.32365,"lon":5.38883,"is_reserved":false,"is_disabled":false,"rental_uris":{"android":"levelo://app?vid=a97f77a2-1520-4bfc-9df0-0f9c62851caa","ios":"levelo://app?vid=a97f77a2-1520-4bfc-9df0-0f9c62851caa"},"vehicle_type_id":"4","last_reported":1692461200,"current_range_meters":28000,"station_id":"ce4bhqp2rcd13ifvqhog","pricing_plan_id":"free"},{"bike_id":"d49c7be8-2f16-4455-8835-7143b891d27c","system_id":"levelo_inurba_marseille","lat":43.32364,"lon":5.38888,"is_reserved":false,"is_disabled":false,"rental_uris":{"android":"levelo://app?vid=d49c7be8-2f16-4455-8835-7143b891d27c","ios":"levelo://app?vid=d49c7be8-2f16-4455-8835-7143b891d27c"},"vehicle_type_id":"4","last_reported":1692461200,"current_range_meters":26400,"station_id":"ce4bhqp2rcd13ifvqhog","pricing_plan_id":"free"},{"bike_id":"03f2098f-b50c-4ca4-a765-8806d474ecf2","system_id":"levelo_inurba_marseille","lat":43.32367,"lon":5.388836,"is_reserved":false,"is_disabled":false,"rental_uris":{"android":"levelo://app?vid=03f2098f-b50c-4ca4-a765-8806d474ecf2","ios":"levelo://app?vid=03f2098f-b50c-4ca4-a765-8806d474ecf2"},"vehicle_type_id":"4","last_reported":1692461200,"current_range_meters":8800,"station_id":"ce4bhqp2rcd13ifvqhog","pricing_plan_id":"free"},{"bike_id":"635b8c21-3b11-40ce-917b-0afc63b9d496","system_id":"levelo_inurba_marseille","lat":43.323716,"lon":5.388848,"is_reserved":false,"is_disabled":false,"rental_uris":{"android":"levelo://app?vid=635b8c21-3b11-40ce-917b-0afc63b9d496","ios":"levelo://app?vid=635b8c21-3b11-40ce-917b-0afc63b9d496"},"vehicle_type_id":"4","last_reported":1692461200,"current_range_meters":2400,"station_id":"ce4bhqp2rcd13ifvqhog","pricing_plan_id":"free"},{"bike_id":"6b6cba89-d2b8-44bb-8454-5df08cf65f67","system_id":"levelo_inurba_marseille","lat":43.32372,"lon":5.38886,"is_reserved":false,"is_disabled":false,"rental_uris":{"android":"levelo://app?vid=6b6cba89-d2b8-44bb-8454-5df08cf65f67","ios":"levelo://app?vid=6b6cba89-d2b8-44bb-8454-5df08cf65f67"},"vehicle_type_id":"4","last_reported":1692461200,"current_range_meters":12800,"station_id":"ce4bhqp2rcd13ifvqhog","pricing_plan_id":"free"},{"bike_id":"3ca3f621-3ed1-46b4-b4f6-37a71d187fa3","system_id":"levelo_inurba_marseille","lat":43.3237,"lon":5.38889,"is_reserved":false,"is_disabled":false,"rental_uris":{"android":"levelo://app?vid=3ca3f621-3ed1-46b4-b4f6-37a71d187fa3","ios":"levelo://app?vid=3ca3f621-3ed1-46b4-b4f6-37a71d187fa3"},"vehicle_type_id":"4","last_reported":1692461200,"current_range_meters":26400,"station_id":"ce4bhqp2rcd13ifvqhog","pricing_plan_id":"free"},{"bike_id":"0126f869-77bb-4690-a14f-53e2dd9d4689","system_id":"levelo_inurba_marseille","lat":43.32368,"lon":5.38894,"is_reserved":false,"is_disabled":false,"rental_uris":{"android":"levelo://app?vid=0126f869-77bb-4690-a14f-53e2dd9d4689","ios":"levelo://app?vid=0126f869-77bb-4690-a14f-53e2dd9d4689"},"vehicle_type_id":"4","last_reported":1692461200,"current_range_meters":25600,"station_id":"ce4bhqp2rcd13ifvqhog","pricing_plan_id":"free"},{"bike_id":"14a31fc3-dc9e-4ecd-82ef-a72f135d49b2","system_id":"levelo_inurba_marseille","lat":43.292749,"lon":5.368398,"is_reserved":false,"is_disabled":false,"rental_uris":{"android":"levelo://app?vid=14a31fc3-dc9e-4ecd-82ef-a72f135d49b2","ios":"levelo://app?vid=14a31fc3-dc9e-4ecd-82ef-a72f135d49b2"},"vehicle_type_id":"4","last_reported":1692461200,"current_range_meters":13600,"station_id":"ce4bhbp2rcd13ifvqesg","pricing_plan_id":"free"},{"bike_id":"2eb0dce6-aa96-44eb-9c91-08174d1dac4e","system_id":"levelo_inurba_marseille","lat":43.292749,"lon":5.368398,"is_reserved":false,"is_disabled":false,"rental_uris":{"android":"levelo://app?vid=2eb0dce6-aa96-44eb-9c91-08174d1dac4e","ios":"levelo://app?vid=2eb0dce6-aa96-44eb-9c91-08174d1dac4e"},"vehicle_type_id":"4","last_reported":1692461200,"current_range_meters":28000,"station_id":"ce4bhbp2rcd13ifvqesg","pricing_plan_id":"free"},{"bike_id":"38fef587-7cc5-4800-b069-87b8f296a10a","system_id":"levelo_inurba_marseille","lat":43.293009,"lon":5.374584,"is_reserved":false,"is_disabled":false,"rental_uris":{"android":"levelo://app?vid=38fef587-7cc5-4800-b069-87b8f296a10a","ios":"levelo://app?vid=38fef587-7cc5-4800-b069-87b8f296a10a"},"vehicle_type_id":"4","last_reported":1692461200,"current_range_meters":31600,"station_id":"ce4bgi12rcd13ifvqb70","pricing_plan_id":"free"},{"bike_id":"ba5b0b60-0075-4c4b-99f5-70d56e6cf673","system_id":"levelo_inurba_marseille","lat":43.30889,"lon":5.39655,"is_reserved":false,"is_disabled":false,"rental_uris":{"android":"levelo://app?vid=ba5b0b60-0075-4c4b-99f5-70d56e6cf673","ios":"levelo://app?vid=ba5b0b60-0075-4c4b-99f5-70d56e6cf673"},"vehicle_type_id":"4","last_reported":1692461200,"current_range_meters":21200,"station_id":"ce4bh012rcd13ifvqcv0","pricing_plan_id":"free"},{"bike_id":"68b5c2a8-8afd-48bf-b3f1-136593660bc0","system_id":"levelo_inurba_marseille","lat":43.29078,"lon":5.37178,"is_reserved":false,"is_disabled":false,"rental_uris":{"android":"levelo://app?vid=68b5c2a8-8afd-48bf-b3f1-136593660bc0","ios":"levelo://app?vid=68b5c2a8-8afd-48bf-b3f1-136593660bc0"},"vehicle_type_id":"4","last_reported":1692461200,"current_range_meters":22000,"station_id":"","pricing_plan_id":"free"},{"bike_id":"ba4cd817-0338-4f58-b56c-4b77c56020b2","system_id":"levelo_inurba_marseille","lat":43.302008,"lon":5.394694,"is_reserved":false,"is_disabled":false,"rental_uris":{"android":"levelo://app?vid=ba4cd817-0338-4f58-b56c-4b77c56020b2","ios":"levelo://app?vid=ba4cd817-0338-4f58-b56c-4b77c56020b2"},"vehicle_type_id":"4","last_reported":1692461200,"current_range_meters":14000,"station_id":"ce4bh0p2rcd13ifvqd70","pricing_plan_id":"free"},{"bike_id":"3ce48d65-01d7-4435-b9a0-788c4bf4456e","system_id":"levelo_inurba_marseille","lat":43.290631,"lon":5.359244,"is_reserved":false,"is_disabled":false,"rental_uris":{"android":"levelo://app?vid=3ce48d65-01d7-4435-b9a0-788c4bf4456e","ios":"levelo://app?vid=3ce48d65-01d7-4435-b9a0-788c4bf4456e"},"vehicle_type_id":"4","last_reported":1692461200,"current_range_meters":2800,"station_id":"ce4bha92rcd13ifvqeg0","pricing_plan_id":"free"},{"bike_id":"68a51ff4-cb89-49b7-bc2d-1e35c09df5f5","system_id":"levelo_inurba_marseille","lat":43.289184,"lon":5.366408,"is_reserved":false,"is_disabled":false,"rental_uris":{"android":"levelo://app?vid=68a51ff4-cb89-49b7-bc2d-1e35c09df5f5","ios":"levelo://app?vid=68a51ff4-cb89-49b7-bc2d-1e35c09df5f5"},"vehicle_type_id":"4","last_reported":1692461200,"current_range_meters":21600,"station_id":"ce4bhap2rcd13ifvqek0","pricing_plan_id":"free"},{"bike_id":"285317a9-2203-43d1-9c69-73024f8e5587","system_id":"levelo_inurba_marseille","lat":43.29415,"lon":5.38631,"is_reserved":false,"is_disabled":false,"rental_uris":{"android":"levelo://app?vid=285317a9-2203-43d1-9c69-73024f8e5587","ios":"levelo://app?vid=285317a9-2203-43d1-9c69-73024f8e5587"},"vehicle_type_id":"4","last_reported":1692461200,"current_range_meters":1600,"station_id":"ce4bh2h2rcd13ifvqdh0","pricing_plan_id":"free"},{"bike_id":"95a53e1c-3253-41a9-bfb4-5c342fd6bc93","system_id":"levelo_inurba_marseille","lat":43.289468,"lon":5.363719,"is_reserved":false,"is_disabled":false,"rental_uris":{"android":"levelo://app?vid=95a53e1c-3253-41a9-bfb4-5c342fd6bc93","ios":"levelo://app?vid=95a53e1c-3253-41a9-bfb4-5c342fd6bc93"},"vehicle_type_id":"4","last_reported":1692461200,"current_range_meters":17600,"station_id":"ce4bhc92rcd13ifvqetg","pricing_plan_id":"free"},{"bike_id":"bbe5df34-2966-49c9-9c7a-1ad653d1ced2","system_id":"levelo_inurba_marseille","lat":43.289468,"lon":5.363719,"is_reserved":false,"is_disabled":false,"rental_uris":{"android":"levelo://app?vid=bbe5df34-2966-49c9-9c7a-1ad653d1ced2","ios":"levelo://app?vid=bbe5df34-2966-49c9-9c7a-1ad653d1ced2"},"vehicle_type_id":"4","last_reported":1692461200,"current_range_meters":6000,"station_id":"ce4bhc92rcd13ifvqetg","pricing_plan_id":"free"},{"bike_id":"1d70188e-365b-49bc-b003-29e01d735a09","system_id":"levelo_inurba_marseille","lat":43.292642,"lon":5.384254,"is_reserved":false,"is_disabled":false,"rental_uris":{"android":"levelo://app?vid=1d70188e-365b-49bc-b003-29e01d735a09","ios":"levelo://app?vid=1d70188e-365b-49bc-b003-29e01d735a09"},"vehicle_type_id":"4","last_reported":1692461200,"current_range_meters":0,"station_id":"ce4bh692rcd13ifvqea0","pricing_plan_id":"free"},{"bike_id":"ed336b2a-394b-4d7f-b9df-499b92331c8e","system_id":"levelo_inurba_marseille","lat":43.304274,"lon":5.397513,"is_reserved":false,"is_disabled":false,"rental_uris":{"android":"levelo://app?vid=ed336b2a-394b-4d7f-b9df-499b92331c8e","ios":"levelo://app?vid=ed336b2a-394b-4d7f-b9df-499b92331c8e"},"vehicle_type_id":"4","last_reported":1692461200,"current_range_meters":17200,"station_id":"ce4bh092rcd13ifvqd20","pricing_plan_id":"free"},{"bike_id":"8cec0a5e-a013-4bb5-bdd5-903ebe627f90","system_id":"levelo_inurba_marseille","lat":43.33045,"lon":5.38911,"is_reserved":false,"is_disabled":false,"rental_uris":{"android":"levelo://app?vid=8cec0a5e-a013-4bb5-bdd5-903ebe627f90","ios":"levelo://app?vid=8cec0a5e-a013-4bb5-bdd5-903ebe627f90"},"vehicle_type_id":"4","last_reported":1692461200,"current_range_meters":28800,"station_id":"ce4bhr92rcd13ifvqhrg","pricing_plan_id":"free"},{"bike_id":"7d19a255-9f7a-4d0e-beba-2bfebb3c7b5e","system_id":"levelo_inurba_marseille","lat":43.33043,"lon":5.38915,"is_reserved":false,"is_disabled":false,"rental_uris":{"android":"levelo://app?vid=7d19a255-9f7a-4d0e-beba-2bfebb3c7b5e","ios":"levelo://app?vid=7d19a255-9f7a-4d0e-beba-2bfebb3c7b5e"},"vehicle_type_id":"4","last_reported":1692461200,"current_range_meters":24000,"station_id":"ce4bhr92rcd13ifvqhrg","pricing_plan_id":"free"},{"bike_id":"78f1a325-e5b4-4a72-bb0e-b29d3285ba24","system_id":"levelo_inurba_marseille","lat":43.290104,"lon":5.356111,"is_reserved":false,"is_disabled":false,"rental_uris":{"android":"levelo://app?vid=78f1a325-e5b4-4a72-bb0e-b29d3285ba24","ios":"levelo://app?vid=78f1a325-e5b4-4a72-bb0e-b29d3285ba24"},"vehicle_type_id":"4","last_reported":1692461200,"current_range_meters":30800,"station_id":"ce4bhb92rcd13ifvqen0","pricing_plan_id":"free"},{"bike_id":"70576a93-fbdb-4696-908e-c08c0f1995f8","system_id":"levelo_inurba_marseille","lat":43.33047,"lon":5.38912,"is_reserved":false,"is_disabled":false,"rental_uris":{"android":"levelo://app?vid=70576a93-fbdb-4696-908e-c08c0f1995f8","ios":"levelo://app?vid=70576a93-fbdb-4696-908e-c08c0f1995f8"},"vehicle_type_id":"4","last_reported":1692461200,"current_range_meters":27600,"station_id":"ce4bhr92rcd13ifvqhrg","pricing_plan_id":"free"},{"bike_id":"10de4f1a-ac85-40f1-83cf-2ec08f255538","system_id":"levelo_inurba_marseille","lat":43.290104,"lon":5.356111,"is_reserved":false,"is_disabled":false,"rental_uris":{"android":"levelo://app?vid=10de4f1a-ac85-40f1-83cf-2ec08f255538","ios":"levelo://app?vid=10de4f1a-ac85-40f1-83cf-2ec08f255538"},"vehicle_type_id":"4","last_reported":1692461200,"current_range_meters":0,"station_id":"ce4bhb92rcd13ifvqen0","pricing_plan_id":"free"},{"bike_id":"c001ce38-3019-4b3e-858a-67f756dd4834","system_id":"levelo_inurba_marseille","lat":43.29005,"lon":5.35616,"is_reserved":false,"is_disabled":false,"rental_uris":{"android":"levelo://app?vid=c001ce38-3019-4b3e-858a-67f756dd4834","ios":"levelo://app?vid=c001ce38-3019-4b3e-858a-67f756dd4834"},"vehicle_type_id":"4","last_reported":1692461200,"current_range_meters":16800,"station_id":"ce4bhb92rcd13ifvqen0","pricing_plan_id":"free"},{"bike_id":"5036c72a-6252-47f4-a9fb-50fd514d506a","system_id":"levelo_inurba_marseille","lat":43.33046,"lon":5.38919,"is_reserved":false,"is_disabled":false,"rental_uris":{"android":"levelo://app?vid=5036c72a-6252-47f4-a9fb-50fd514d506a","ios":"levelo://app?vid=5036c72a-6252-47f4-a9fb-50fd514d506a"},"vehicle_type_id":"4","last_reported":1692461200,"current_range_meters":24000,"station_id":"ce4bhr92rcd13ifvqhrg","pricing_plan_id":"free"},{"bike_id":"708f7f21-b221-4c14-94b6-b5d8e3289350","system_id":"levelo_inurba_marseille","lat":43.33048,"lon":5.38919,"is_reserved":false,"is_disabled":false,"rental_uris":{"android":"levelo://app?vid=708f7f21-b221-4c14-94b6-b5d8e3289350","ios":"levelo://app?vid=708f7f21-b221-4c14-94b6-b5d8e3289350"},"vehicle_type_id":"4","last_reported":1692461200,"current_range_meters":22400,"station_id":"ce4bhr92rcd13ifvqhrg","pricing_plan_id":"free"},{"bike_id":"86eac789-1e56-496d-abfa-705e29d378c7","system_id":"levelo_inurba_marseille","lat":43.33045,"lon":5.38925,"is_reserved":false,"is_disabled":false,"rental_uris":{"android":"levelo://app?vid=86eac789-1e56-496d-abfa-705e29d378c7","ios":"levelo://app?vid=86eac789-1e56-496d-abfa-705e29d378c7"},"vehicle_type_id":"4","last_reported":1692461200,"current_range_meters":31200,"station_id":"ce4bhr92rcd13ifvqhrg","pricing_plan_id":"free"},{"bike_id":"c2b69bac-bda9-4261-b39a-8c335d43eeb9","system_id":"levelo_inurba_marseille","lat":43.33049,"lon":5.38919,"is_reserved":false,"is_disabled":false,"rental_uris":{"android":"levelo://app?vid=c2b69bac-bda9-4261-b39a-8c335d43eeb9","ios":"levelo://app?vid=c2b69bac-bda9-4261-b39a-8c335d43eeb9"},"vehicle_type_id":"4","last_reported":1692461200,"current_range_meters":31200,"station_id":"ce4bhr92rcd13ifvqhrg","pricing_plan_id":"free"},{"bike_id":"de450cac-4370-4660-9455-3e94463307a2","system_id":"levelo_inurba_marseille","lat":43.33047,"lon":5.38923,"is_reserved":false,"is_disabled":false,"rental_uris":{"android":"levelo://app?vid=de450cac-4370-4660-9455-3e94463307a2","ios":"levelo://app?vid=de450cac-4370-4660-9455-3e94463307a2"},"vehicle_type_id":"4","last_reported":1692461200,"current_range_meters":19200,"station_id":"ce4bhr92rcd13ifvqhrg","pricing_plan_id":"free"},{"bike_id":"16105e4d-cb4a-4aae-91bb-2ecd41a7406b","system_id":"levelo_inurba_marseille","lat":43.33049,"lon":5.38925,"is_reserved":false,"is_disabled":false,"rental_uris":{"android":"levelo://app?vid=16105e4d-cb4a-4aae-91bb-2ecd41a7406b","ios":"levelo://app?vid=16105e4d-cb4a-4aae-91bb-2ecd41a7406b"},"vehicle_type_id":"4","last_reported":1692461200,"current_range_meters":24000,"station_id":"ce4bhr92rcd13ifvqhrg","pricing_plan_id":"free"},{"bike_id":"cd28596d-1633-4050-af65-001d64c5dc2b","system_id":"levelo_inurba_marseille","lat":43.28993,"lon":5.3561,"is_reserved":false,"is_disabled":false,"rental_uris":{"android":"levelo://app?vid=cd28596d-1633-4050-af65-001d64c5dc2b","ios":"levelo://app?vid=cd28596d-1633-4050-af65-001d64c5dc2b"},"vehicle_type_id":"4","last_reported":1692461200,"current_range_meters":21200,"station_id":"ce4bhb92rcd13ifvqen0","pricing_plan_id":"free"},{"bike_id":"ebea3e90-b4a3-4a58-9d43-4dfbd0e962f3","system_id":"levelo_inurba_marseille","lat":43.337457,"lon":5.374633,"is_reserved":false,"is_disabled":false,"rental_uris":{"android":"levelo://app?vid=ebea3e90-b4a3-4a58-9d43-4dfbd0e962f3","ios":"levelo://app?vid=ebea3e90-b4a3-4a58-9d43-4dfbd0e962f3"},"vehicle_type_id":"4","last_reported":1692461200,"current_range_meters":30800,"station_id":"","pricing_plan_id":"free"},{"bike_id":"e0bf8ae9-e3c5-483f-ba92-5b3576f1d285","system_id":"levelo_inurba_marseille","lat":43.301117,"lon":5.398795,"is_reserved":false,"is_disabled":false,"rental_uris":{"android":"levelo://app?vid=e0bf8ae9-e3c5-483f-ba92-5b3576f1d285","ios":"levelo://app?vid=e0bf8ae9-e3c5-483f-ba92-5b3576f1d285"},"vehicle_type_id":"4","last_reported":1692461200,"current_range_meters":21200,"station_id":"ce4bh0h2rcd13ifvqd40","pricing_plan_id":"free"},{"bike_id":"b0ee1e44-2579-45a0-b314-85f9bd377837","system_id":"levelo_inurba_marseille","lat":43.286591,"lon":5.363346,"is_reserved":false,"is_disabled":false,"rental_uris":{"android":"levelo://app?vid=b0ee1e44-2579-45a0-b314-85f9bd377837","ios":"levelo://app?vid=b0ee1e44-2579-45a0-b314-85f9bd377837"},"vehicle_type_id":"4","last_reported":1692461200,"current_range_meters":29200,"station_id":"ce4bhah2rcd13ifvqej0","pricing_plan_id":"free"},{"bike_id":"75199276-b705-4ad7-b6a9-49aeaa84628a","system_id":"levelo_inurba_marseille","lat":43.286591,"lon":5.363346,"is_reserved":false,"is_disabled":false,"rental_uris":{"android":"levelo://app?vid=75199276-b705-4ad7-b6a9-49aeaa84628a","ios":"levelo://app?vid=75199276-b705-4ad7-b6a9-49aeaa84628a"},"vehicle_type_id":"4","last_reported":1692461200,"current_range_meters":30800,"station_id":"ce4bhah2rcd13ifvqej0","pricing_plan_id":"free"},{"bike_id":"97e4ad51-1d8d-4ef9-ae8c-229c7b779ec1","system_id":"levelo_inurba_marseille","lat":43.295194,"lon":5.39397,"is_reserved":false,"is_disabled":false,"rental_uris":{"android":"levelo://app?vid=97e4ad51-1d8d-4ef9-ae8c-229c7b779ec1","ios":"levelo://app?vid=97e4ad51-1d8d-4ef9-ae8c-229c7b779ec1"},"vehicle_type_id":"4","last_reported":1692461200,"current_range_meters":10400,"station_id":"ce4bh292rcd13ifvqdf0","pricing_plan_id":"free"},{"bike_id":"d80d5a2f-d3d5-4a30-80d2-1f02beb1b207","system_id":"levelo_inurba_marseille","lat":43.286039,"lon":5.370679,"is_reserved":false,"is_disabled":false,"rental_uris":{"android":"levelo://app?vid=d80d5a2f-d3d5-4a30-80d2-1f02beb1b207","ios":"levelo://app?vid=d80d5a2f-d3d5-4a30-80d2-1f02beb1b207"},"vehicle_type_id":"4","last_reported":1692461200,"current_range_meters":20800,"station_id":"ce4bht12rcd13ifvqi60","pricing_plan_id":"free"},{"bike_id":"47c5c10d-b7c7-4a89-90e5-286791f7c748","system_id":"levelo_inurba_marseille","lat":43.286039,"lon":5.370681,"is_reserved":false,"is_disabled":false,"rental_uris":{"android":"levelo://app?vid=47c5c10d-b7c7-4a89-90e5-286791f7c748","ios":"levelo://app?vid=47c5c10d-b7c7-4a89-90e5-286791f7c748"},"vehicle_type_id":"4","last_reported":1692461200,"current_range_meters":17200,"station_id":"ce4bht12rcd13ifvqi60","pricing_plan_id":"free"},{"bike_id":"7da9e437-1e79-4b5f-9ab0-65254ac17dd7","system_id":"levelo_inurba_marseille","lat":43.31644,"lon":5.40436,"is_reserved":false,"is_disabled":false,"rental_uris":{"android":"levelo://app?vid=7da9e437-1e79-4b5f-9ab0-65254ac17dd7","ios":"levelo://app?vid=7da9e437-1e79-4b5f-9ab0-65254ac17dd7"},"vehicle_type_id":"4","last_reported":1692461200,"current_range_meters":25600,"station_id":"ce4bh012rcd13ifvqd00","pricing_plan_id":"free"},{"bike_id":"f7bd7668-8e41-4acd-8b56-2fb3ca4fdc97","system_id":"levelo_inurba_marseille","lat":43.31654,"lon":5.40435,"is_reserved":false,"is_disabled":false,"rental_uris":{"android":"levelo://app?vid=f7bd7668-8e41-4acd-8b56-2fb3ca4fdc97","ios":"levelo://app?vid=f7bd7668-8e41-4acd-8b56-2fb3ca4fdc97"},"vehicle_type_id":"4","last_reported":1692461200,"current_range_meters":0,"station_id":"ce4bh012rcd13ifvqd00","pricing_plan_id":"free"},{"bike_id":"5da9c2a8-52ae-454b-ac7c-bbad2a0257b9","system_id":"levelo_inurba_marseille","lat":43.294314,"lon":5.397498,"is_reserved":false,"is_disabled":false,"rental_uris":{"android":"levelo://app?vid=5da9c2a8-52ae-454b-ac7c-bbad2a0257b9","ios":"levelo://app?vid=5da9c2a8-52ae-454b-ac7c-bbad2a0257b9"},"vehicle_type_id":"4","last_reported":1692461200,"current_range_meters":23200,"station_id":"ce4bh3h2rcd13ifvqdo0","pricing_plan_id":"free"},{"bike_id":"35eec3a1-aa54-4990-8eb4-78e6c0dd24d0","system_id":"levelo_inurba_marseille","lat":43.2862,"lon":5.35102,"is_reserved":false,"is_disabled":false,"rental_uris":{"android":"levelo://app?vid=35eec3a1-aa54-4990-8eb4-78e6c0dd24d0","ios":"levelo://app?vid=35eec3a1-aa54-4990-8eb4-78e6c0dd24d0"},"vehicle_type_id":"4","last_reported":1692461200,"current_range_meters":10400,"station_id":"ce4bhch2rcd13ifvqeug","pricing_plan_id":"free"},{"bike_id":"dd748b62-ce9a-481f-90ea-9a9b68ed1f85","system_id":"levelo_inurba_marseille","lat":43.285856,"lon":5.350771,"is_reserved":false,"is_disabled":false,"rental_uris":{"android":"levelo://app?vid=dd748b62-ce9a-481f-90ea-9a9b68ed1f85","ios":"levelo://app?vid=dd748b62-ce9a-481f-90ea-9a9b68ed1f85"},"vehicle_type_id":"4","last_reported":1692461200,"current_range_meters":2400,"station_id":"ce4bhch2rcd13ifvqeug","pricing_plan_id":"free"},{"bike_id":"2363d3b5-6c15-401a-a59c-ee80bd4af927","system_id":"levelo_inurba_marseille","lat":43.28415,"lon":5.37522,"is_reserved":false,"is_disabled":false,"rental_uris":{"android":"levelo://app?vid=2363d3b5-6c15-401a-a59c-ee80bd4af927","ios":"levelo://app?vid=2363d3b5-6c15-401a-a59c-ee80bd4af927"},"vehicle_type_id":"4","last_reported":1692461200,"current_range_meters":20400,"station_id":"ce4bh412rcd13ifvqds0","pricing_plan_id":"free"},{"bike_id":"c83175c1-dc44-41ba-8c30-632824b8a336","system_id":"levelo_inurba_marseille","lat":43.319179,"lon":5.407725,"is_reserved":false,"is_disabled":false,"rental_uris":{"android":"levelo://app?vid=c83175c1-dc44-41ba-8c30-632824b8a336","ios":"levelo://app?vid=c83175c1-dc44-41ba-8c30-632824b8a336"},"vehicle_type_id":"4","last_reported":1692461200,"current_range_meters":26800,"station_id":"ce4bhq12rcd13ifvqhig","pricing_plan_id":"free"},{"bike_id":"15ffcac1-c8a6-4a54-933d-481ec42727cf","system_id":"levelo_inurba_marseille","lat":43.28504,"lon":5.35088,"is_reserved":false,"is_disabled":false,"rental_uris":{"android":"levelo://app?vid=15ffcac1-c8a6-4a54-933d-481ec42727cf","ios":"levelo://app?vid=15ffcac1-c8a6-4a54-933d-481ec42727cf"},"vehicle_type_id":"4","last_reported":1692461200,"current_range_meters":16000,"station_id":"","pricing_plan_id":"free"},{"bike_id":"e78bd4e4-c14d-4a01-b72e-65351e2b8a18","system_id":"levelo_inurba_marseille","lat":43.30317,"lon":5.40629,"is_reserved":false,"is_disabled":false,"rental_uris":{"android":"levelo://app?vid=e78bd4e4-c14d-4a01-b72e-65351e2b8a18","ios":"levelo://app?vid=e78bd4e4-c14d-4a01-b72e-65351e2b8a18"},"vehicle_type_id":"4","last_reported":1692461200,"current_range_meters":1200,"station_id":"","pricing_plan_id":"free"},{"bike_id":"17105054-6fd8-493b-b0be-1ed88688055c","system_id":"levelo_inurba_marseille","lat":43.33722,"lon":5.39177,"is_reserved":false,"is_disabled":false,"rental_uris":{"android":"levelo://app?vid=17105054-6fd8-493b-b0be-1ed88688055c","ios":"levelo://app?vid=17105054-6fd8-493b-b0be-1ed88688055c"},"vehicle_type_id":"4","last_reported":1692461200,"current_range_meters":30400,"station_id":"ce4bhr92rcd13ifvqhsg","pricing_plan_id":"free"},{"bike_id":"2b3f06e0-8f2d-4133-9563-f19f57fe46e5","system_id":"levelo_inurba_marseille","lat":43.33724,"lon":5.39178,"is_reserved":false,"is_disabled":false,"rental_uris":{"android":"levelo://app?vid=2b3f06e0-8f2d-4133-9563-f19f57fe46e5","ios":"levelo://app?vid=2b3f06e0-8f2d-4133-9563-f19f57fe46e5"},"vehicle_type_id":"4","last_reported":1692461200,"current_range_meters":10800,"station_id":"ce4bhr92rcd13ifvqhsg","pricing_plan_id":"free"},{"bike_id":"01f563c5-7ac0-4d44-b1b3-0549f3b949f3","system_id":"levelo_inurba_marseille","lat":43.3372,"lon":5.3919,"is_reserved":false,"is_disabled":false,"rental_uris":{"android":"levelo://app?vid=01f563c5-7ac0-4d44-b1b3-0549f3b949f3","ios":"levelo://app?vid=01f563c5-7ac0-4d44-b1b3-0549f3b949f3"},"vehicle_type_id":"4","last_reported":1692461200,"current_range_meters":30000,"station_id":"ce4bhr92rcd13ifvqhsg","pricing_plan_id":"free"},{"bike_id":"12c0f407-4ac2-49d3-b1e8-783bd26a8644","system_id":"levelo_inurba_marseille","lat":43.33724,"lon":5.39183,"is_reserved":false,"is_disabled":false,"rental_uris":{"android":"levelo://app?vid=12c0f407-4ac2-49d3-b1e8-783bd26a8644","ios":"levelo://app?vid=12c0f407-4ac2-49d3-b1e8-783bd26a8644"},"vehicle_type_id":"4","last_reported":1692461200,"current_range_meters":29600,"station_id":"ce4bhr92rcd13ifvqhsg","pricing_plan_id":"free"},{"bike_id":"7d2969ab-a065-4a23-b19e-667095d799c9","system_id":"levelo_inurba_marseille","lat":43.33726,"lon":5.39183,"is_reserved":false,"is_disabled":false,"rental_uris":{"android":"levelo://app?vid=7d2969ab-a065-4a23-b19e-667095d799c9","ios":"levelo://app?vid=7d2969ab-a065-4a23-b19e-667095d799c9"},"vehicle_type_id":"4","last_reported":1692461200,"current_range_meters":11200,"station_id":"ce4bhr92rcd13ifvqhsg","pricing_plan_id":"free"},{"bike_id":"0dda2562-498f-4f90-abfb-f3c666db2d2e","system_id":"levelo_inurba_marseille","lat":43.33728,"lon":5.3918,"is_reserved":false,"is_disabled":false,"rental_uris":{"android":"levelo://app?vid=0dda2562-498f-4f90-abfb-f3c666db2d2e","ios":"levelo://app?vid=0dda2562-498f-4f90-abfb-f3c666db2d2e"},"vehicle_type_id":"4","last_reported":1692461200,"current_range_meters":24400,"station_id":"ce4bhr92rcd13ifvqhsg","pricing_plan_id":"free"},{"bike_id":"186ddf38-a5ca-44a9-9dd3-9bfe2a53544b","system_id":"levelo_inurba_marseille","lat":43.33726,"lon":5.39184,"is_reserved":false,"is_disabled":false,"rental_uris":{"android":"levelo://app?vid=186ddf38-a5ca-44a9-9dd3-9bfe2a53544b","ios":"levelo://app?vid=186ddf38-a5ca-44a9-9dd3-9bfe2a53544b"},"vehicle_type_id":"4","last_reported":1692461200,"current_range_meters":29600,"station_id":"ce4bhr92rcd13ifvqhsg","pricing_plan_id":"free"},{"bike_id":"72fc020d-a1d4-460a-a3d1-6187a1ea65d2","system_id":"levelo_inurba_marseille","lat":43.3373,"lon":5.39181,"is_reserved":false,"is_disabled":false,"rental_uris":{"android":"levelo://app?vid=72fc020d-a1d4-460a-a3d1-6187a1ea65d2","ios":"levelo://app?vid=72fc020d-a1d4-460a-a3d1-6187a1ea65d2"},"vehicle_type_id":"4","last_reported":1692461200,"current_range_meters":28000,"station_id":"ce4bhr92rcd13ifvqhsg","pricing_plan_id":"free"},{"bike_id":"c90c94e3-64fa-45e9-9fee-ad8bf120c218","system_id":"levelo_inurba_marseille","lat":43.337168,"lon":5.391825,"is_reserved":false,"is_disabled":false,"rental_uris":{"android":"levelo://app?vid=c90c94e3-64fa-45e9-9fee-ad8bf120c218","ios":"levelo://app?vid=c90c94e3-64fa-45e9-9fee-ad8bf120c218"},"vehicle_type_id":"4","last_reported":1692461200,"current_range_meters":27600,"station_id":"ce4bhr92rcd13ifvqhsg","pricing_plan_id":"free"},{"bike_id":"c24cecf2-0503-470c-b3d3-fc37f377f710","system_id":"levelo_inurba_marseille","lat":43.33728,"lon":5.39186,"is_reserved":false,"is_disabled":false,"rental_uris":{"android":"levelo://app?vid=c24cecf2-0503-470c-b3d3-fc37f377f710","ios":"levelo://app?vid=c24cecf2-0503-470c-b3d3-fc37f377f710"},"vehicle_type_id":"4","last_reported":1692461200,"current_range_meters":29600,"station_id":"ce4bhr92rcd13ifvqhsg","pricing_plan_id":"free"},{"bike_id":"6ac884cc-b74d-40a5-8e3a-f019457ca89a","system_id":"levelo_inurba_marseille","lat":43.323464,"lon":5.406297,"is_reserved":false,"is_disabled":false,"rental_uris":{"android":"levelo://app?vid=6ac884cc-b74d-40a5-8e3a-f019457ca89a","ios":"levelo://app?vid=6ac884cc-b74d-40a5-8e3a-f019457ca89a"},"vehicle_type_id":"4","last_reported":1692461200,"current_range_meters":31200,"station_id":"ce4bhq92rcd13ifvqhjg","pricing_plan_id":"free"},{"bike_id":"c3f1a799-40b8-4098-9115-0b78fcf6eb78","system_id":"levelo_inurba_marseille","lat":43.32344,"lon":5.40623,"is_reserved":false,"is_disabled":false,"rental_uris":{"android":"levelo://app?vid=c3f1a799-40b8-4098-9115-0b78fcf6eb78","ios":"levelo://app?vid=c3f1a799-40b8-4098-9115-0b78fcf6eb78"},"vehicle_type_id":"4","last_reported":1692461200,"current_range_meters":29200,"station_id":"ce4bhq92rcd13ifvqhjg","pricing_plan_id":"free"},{"bike_id":"13c8ff33-a39b-43d5-ba08-92f155d4a21e","system_id":"levelo_inurba_marseille","lat":43.323464,"lon":5.406297,"is_reserved":false,"is_disabled":false,"rental_uris":{"android":"levelo://app?vid=13c8ff33-a39b-43d5-ba08-92f155d4a21e","ios":"levelo://app?vid=13c8ff33-a39b-43d5-ba08-92f155d4a21e"},"vehicle_type_id":"4","last_reported":1692461200,"current_range_meters":31200,"station_id":"ce4bhq92rcd13ifvqhjg","pricing_plan_id":"free"},{"bike_id":"02f29c2d-847e-4148-9200-bdb4c19acc46","system_id":"levelo_inurba_marseille","lat":43.33731,"lon":5.39185,"is_reserved":false,"is_disabled":false,"rental_uris":{"android":"levelo://app?vid=02f29c2d-847e-4148-9200-bdb4c19acc46","ios":"levelo://app?vid=02f29c2d-847e-4148-9200-bdb4c19acc46"},"vehicle_type_id":"4","last_reported":1692461200,"current_range_meters":30000,"station_id":"ce4bhr92rcd13ifvqhsg","pricing_plan_id":"free"},{"bike_id":"0cbfb6a8-9b06-4430-8280-ebadac27271d","system_id":"levelo_inurba_marseille","lat":43.323464,"lon":5.406297,"is_reserved":false,"is_disabled":false,"rental_uris":{"android":"levelo://app?vid=0cbfb6a8-9b06-4430-8280-ebadac27271d","ios":"levelo://app?vid=0cbfb6a8-9b06-4430-8280-ebadac27271d"},"vehicle_type_id":"4","last_reported":1692461200,"current_range_meters":28400,"station_id":"ce4bhq92rcd13ifvqhjg","pricing_plan_id":"free"},{"bike_id":"33aba6b2-5ed1-4e7c-af4c-fff3b257e3e7","system_id":"levelo_inurba_marseille","lat":43.323464,"lon":5.406297,"is_reserved":false,"is_disabled":false,"rental_uris":{"android":"levelo://app?vid=33aba6b2-5ed1-4e7c-af4c-fff3b257e3e7","ios":"levelo://app?vid=33aba6b2-5ed1-4e7c-af4c-fff3b257e3e7"},"vehicle_type_id":"4","last_reported":1692461200,"current_range_meters":31200,"station_id":"ce4bhq92rcd13ifvqhjg","pricing_plan_id":"free"},{"bike_id":"e45012d8-673a-4bd6-93d3-a427f767a00d","system_id":"levelo_inurba_marseille","lat":43.33729,"lon":5.39192,"is_reserved":false,"is_disabled":false,"rental_uris":{"android":"levelo://app?vid=e45012d8-673a-4bd6-93d3-a427f767a00d","ios":"levelo://app?vid=e45012d8-673a-4bd6-93d3-a427f767a00d"},"vehicle_type_id":"4","last_reported":1692461200,"current_range_meters":28400,"station_id":"ce4bhr92rcd13ifvqhsg","pricing_plan_id":"free"},{"bike_id":"8bd09c71-02ae-4371-8b55-ce1e7e2bf2df","system_id":"levelo_inurba_marseille","lat":43.33729,"lon":5.39192,"is_reserved":false,"is_disabled":false,"rental_uris":{"android":"levelo://app?vid=8bd09c71-02ae-4371-8b55-ce1e7e2bf2df","ios":"levelo://app?vid=8bd09c71-02ae-4371-8b55-ce1e7e2bf2df"},"vehicle_type_id":"4","last_reported":1692461200,"current_range_meters":30400,"station_id":"ce4bhr92rcd13ifvqhsg","pricing_plan_id":"free"},{"bike_id":"6fb36002-bc24-427c-a16e-585470e55deb","system_id":"levelo_inurba_marseille","lat":43.32602,"lon":5.40481,"is_reserved":false,"is_disabled":false,"rental_uris":{"android":"levelo://app?vid=6fb36002-bc24-427c-a16e-585470e55deb","ios":"levelo://app?vid=6fb36002-bc24-427c-a16e-585470e55deb"},"vehicle_type_id":"4","last_reported":1692461200,"current_range_meters":20400,"station_id":"","pricing_plan_id":"free"},{"bike_id":"f27c5e19-a7f7-48b0-b65b-c57899c07d87","system_id":"levelo_inurba_marseille","lat":43.28479,"lon":5.38424,"is_reserved":false,"is_disabled":false,"rental_uris":{"android":"levelo://app?vid=f27c5e19-a7f7-48b0-b65b-c57899c07d87","ios":"levelo://app?vid=f27c5e19-a7f7-48b0-b65b-c57899c07d87"},"vehicle_type_id":"4","last_reported":1692461200,"current_range_meters":14400,"station_id":"ce4bh512rcd13ifvqe3g","pricing_plan_id":"free"},{"bike_id":"1b497caa-d294-4394-b6a7-e93cff0a959b","system_id":"levelo_inurba_marseille","lat":43.283494,"lon":5.380945,"is_reserved":false,"is_disabled":false,"rental_uris":{"android":"levelo://app?vid=1b497caa-d294-4394-b6a7-e93cff0a959b","ios":"levelo://app?vid=1b497caa-d294-4394-b6a7-e93cff0a959b"},"vehicle_type_id":"4","last_reported":1692461200,"current_range_meters":3200,"station_id":"ce4bh412rcd13ifvqdr0","pricing_plan_id":"free"},{"bike_id":"45653ace-6a99-44d0-8d46-47ed9bbe0f53","system_id":"levelo_inurba_marseille","lat":43.283498,"lon":5.380948,"is_reserved":false,"is_disabled":false,"rental_uris":{"android":"levelo://app?vid=45653ace-6a99-44d0-8d46-47ed9bbe0f53","ios":"levelo://app?vid=45653ace-6a99-44d0-8d46-47ed9bbe0f53"},"vehicle_type_id":"4","last_reported":1692461200,"current_range_meters":25600,"station_id":"ce4bh412rcd13ifvqdr0","pricing_plan_id":"free"},{"bike_id":"c6a91cc5-e05c-4b85-b824-8d0109e118bd","system_id":"levelo_inurba_marseille","lat":43.283498,"lon":5.380948,"is_reserved":false,"is_disabled":false,"rental_uris":{"android":"levelo://app?vid=c6a91cc5-e05c-4b85-b824-8d0109e118bd","ios":"levelo://app?vid=c6a91cc5-e05c-4b85-b824-8d0109e118bd"},"vehicle_type_id":"4","last_reported":1692461200,"current_range_meters":10000,"station_id":"ce4bh412rcd13ifvqdr0","pricing_plan_id":"free"},{"bike_id":"77c4d458-0779-421e-8323-d3b9ba08f24a","system_id":"levelo_inurba_marseille","lat":43.283498,"lon":5.380948,"is_reserved":false,"is_disabled":false,"rental_uris":{"android":"levelo://app?vid=77c4d458-0779-421e-8323-d3b9ba08f24a","ios":"levelo://app?vid=77c4d458-0779-421e-8323-d3b9ba08f24a"},"vehicle_type_id":"4","last_reported":1692461200,"current_range_meters":1600,"station_id":"ce4bh412rcd13ifvqdr0","pricing_plan_id":"free"},{"bike_id":"923c7893-ada0-44c7-a1f1-6c3fd310546d","system_id":"levelo_inurba_marseille","lat":43.284219,"lon":5.3497,"is_reserved":false,"is_disabled":false,"rental_uris":{"android":"levelo://app?vid=923c7893-ada0-44c7-a1f1-6c3fd310546d","ios":"levelo://app?vid=923c7893-ada0-44c7-a1f1-6c3fd310546d"},"vehicle_type_id":"4","last_reported":1692461200,"current_range_meters":24000,"station_id":"ce4bhbh2rcd13ifvqepg","pricing_plan_id":"free"},{"bike_id":"93276f61-2bbc-4576-9b90-47ceae877432","system_id":"levelo_inurba_marseille","lat":43.28425,"lon":5.34992,"is_reserved":false,"is_disabled":false,"rental_uris":{"android":"levelo://app?vid=93276f61-2bbc-4576-9b90-47ceae877432","ios":"levelo://app?vid=93276f61-2bbc-4576-9b90-47ceae877432"},"vehicle_type_id":"4","last_reported":1692461200,"current_range_meters":21600,"station_id":"ce4bhbh2rcd13ifvqepg","pricing_plan_id":"free"},{"bike_id":"66185e82-fa2e-44c2-aa7f-cde5fed472d8","system_id":"levelo_inurba_marseille","lat":43.28423,"lon":5.34995,"is_reserved":false,"is_disabled":false,"rental_uris":{"android":"levelo://app?vid=66185e82-fa2e-44c2-aa7f-cde5fed472d8","ios":"levelo://app?vid=66185e82-fa2e-44c2-aa7f-cde5fed472d8"},"vehicle_type_id":"4","last_reported":1692461200,"current_range_meters":20000,"station_id":"ce4bhbh2rcd13ifvqepg","pricing_plan_id":"free"},{"bike_id":"fbf94f4f-6616-4ec4-bf95-a5062e319425","system_id":"levelo_inurba_marseille","lat":43.28422,"lon":5.34998,"is_reserved":false,"is_disabled":false,"rental_uris":{"android":"levelo://app?vid=fbf94f4f-6616-4ec4-bf95-a5062e319425","ios":"levelo://app?vid=fbf94f4f-6616-4ec4-bf95-a5062e319425"},"vehicle_type_id":"4","last_reported":1692461200,"current_range_meters":30400,"station_id":"ce4bhbh2rcd13ifvqepg","pricing_plan_id":"free"},{"bike_id":"376175fe-7047-409d-8bc5-b62cb0313755","system_id":"levelo_inurba_marseille","lat":43.28424,"lon":5.34991,"is_reserved":false,"is_disabled":false,"rental_uris":{"android":"levelo://app?vid=376175fe-7047-409d-8bc5-b62cb0313755","ios":"levelo://app?vid=376175fe-7047-409d-8bc5-b62cb0313755"},"vehicle_type_id":"4","last_reported":1692461200,"current_range_meters":15200,"station_id":"ce4bhbh2rcd13ifvqepg","pricing_plan_id":"free"},{"bike_id":"663d2d81-93f4-4c21-83eb-d651c806a1b6","system_id":"levelo_inurba_marseille","lat":43.28426,"lon":5.34984,"is_reserved":false,"is_disabled":false,"rental_uris":{"android":"levelo://app?vid=663d2d81-93f4-4c21-83eb-d651c806a1b6","ios":"levelo://app?vid=663d2d81-93f4-4c21-83eb-d651c806a1b6"},"vehicle_type_id":"4","last_reported":1692461200,"current_range_meters":14400,"station_id":"ce4bhbh2rcd13ifvqepg","pricing_plan_id":"free"},{"bike_id":"4a6f79a1-ea0d-472e-a0b1-1e13f2724959","system_id":"levelo_inurba_marseille","lat":43.28424,"lon":5.3499,"is_reserved":false,"is_disabled":false,"rental_uris":{"android":"levelo://app?vid=4a6f79a1-ea0d-472e-a0b1-1e13f2724959","ios":"levelo://app?vid=4a6f79a1-ea0d-472e-a0b1-1e13f2724959"},"vehicle_type_id":"4","last_reported":1692461200,"current_range_meters":15600,"station_id":"ce4bhbh2rcd13ifvqepg","pricing_plan_id":"free"},{"bike_id":"585fde72-3fbd-4e2c-ab1c-ab534f19433a","system_id":"levelo_inurba_marseille","lat":43.28424,"lon":5.34989,"is_reserved":false,"is_disabled":false,"rental_uris":{"android":"levelo://app?vid=585fde72-3fbd-4e2c-ab1c-ab534f19433a","ios":"levelo://app?vid=585fde72-3fbd-4e2c-ab1c-ab534f19433a"},"vehicle_type_id":"4","last_reported":1692461200,"current_range_meters":9600,"station_id":"ce4bhbh2rcd13ifvqepg","pricing_plan_id":"free"},{"bike_id":"1289af83-c80b-4260-b6a2-4f7490998cfd","system_id":"levelo_inurba_marseille","lat":43.284219,"lon":5.3497,"is_reserved":false,"is_disabled":false,"rental_uris":{"android":"levelo://app?vid=1289af83-c80b-4260-b6a2-4f7490998cfd","ios":"levelo://app?vid=1289af83-c80b-4260-b6a2-4f7490998cfd"},"vehicle_type_id":"4","last_reported":1692461200,"current_range_meters":28800,"station_id":"ce4bhbh2rcd13ifvqepg","pricing_plan_id":"free"},{"bike_id":"281abc2c-bb2b-495c-a478-e4ea1cfb0382","system_id":"levelo_inurba_marseille","lat":43.284217,"lon":5.349697,"is_reserved":false,"is_disabled":false,"rental_uris":{"android":"levelo://app?vid=281abc2c-bb2b-495c-a478-e4ea1cfb0382","ios":"levelo://app?vid=281abc2c-bb2b-495c-a478-e4ea1cfb0382"},"vehicle_type_id":"4","last_reported":1692461200,"current_range_meters":31200,"station_id":"ce4bhbh2rcd13ifvqepg","pricing_plan_id":"free"},{"bike_id":"46d68b48-dcc3-40b4-ac72-b9ed0ce5602f","system_id":"levelo_inurba_marseille","lat":43.28422,"lon":5.34994,"is_reserved":false,"is_disabled":false,"rental_uris":{"android":"levelo://app?vid=46d68b48-dcc3-40b4-ac72-b9ed0ce5602f","ios":"levelo://app?vid=46d68b48-dcc3-40b4-ac72-b9ed0ce5602f"},"vehicle_type_id":"4","last_reported":1692461200,"current_range_meters":26400,"station_id":"ce4bhbh2rcd13ifvqepg","pricing_plan_id":"free"},{"bike_id":"781c0cb1-6761-4920-8660-25d89ea761b2","system_id":"levelo_inurba_marseille","lat":43.28425,"lon":5.34984,"is_reserved":false,"is_disabled":false,"rental_uris":{"android":"levelo://app?vid=781c0cb1-6761-4920-8660-25d89ea761b2","ios":"levelo://app?vid=781c0cb1-6761-4920-8660-25d89ea761b2"},"vehicle_type_id":"4","last_reported":1692461200,"current_range_meters":20400,"station_id":"ce4bhbh2rcd13ifvqepg","pricing_plan_id":"free"},{"bike_id":"aa5a6ee2-6826-462a-a046-79d07098bb42","system_id":"levelo_inurba_marseille","lat":43.28422,"lon":5.34993,"is_reserved":false,"is_disabled":false,"rental_uris":{"android":"levelo://app?vid=aa5a6ee2-6826-462a-a046-79d07098bb42","ios":"levelo://app?vid=aa5a6ee2-6826-462a-a046-79d07098bb42"},"vehicle_type_id":"4","last_reported":1692461200,"current_range_meters":31200,"station_id":"ce4bhbh2rcd13ifvqepg","pricing_plan_id":"free"},{"bike_id":"0e28ea22-5428-4a2e-9438-fad8b4713bd2","system_id":"levelo_inurba_marseille","lat":43.28422,"lon":5.34992,"is_reserved":false,"is_disabled":false,"rental_uris":{"android":"levelo://app?vid=0e28ea22-5428-4a2e-9438-fad8b4713bd2","ios":"levelo://app?vid=0e28ea22-5428-4a2e-9438-fad8b4713bd2"},"vehicle_type_id":"4","last_reported":1692461200,"current_range_meters":26800,"station_id":"ce4bhbh2rcd13ifvqepg","pricing_plan_id":"free"},{"bike_id":"22193103-51c7-4cfa-ab39-f022dd3ffbc2","system_id":"levelo_inurba_marseille","lat":43.28422,"lon":5.34991,"is_reserved":false,"is_disabled":false,"rental_uris":{"android":"levelo://app?vid=22193103-51c7-4cfa-ab39-f022dd3ffbc2","ios":"levelo://app?vid=22193103-51c7-4cfa-ab39-f022dd3ffbc2"},"vehicle_type_id":"4","last_reported":1692461200,"current_range_meters":20000,"station_id":"ce4bhbh2rcd13ifvqepg","pricing_plan_id":"free"},{"bike_id":"037353d0-3736-4d07-adf9-946f48000882","system_id":"levelo_inurba_marseille","lat":43.28422,"lon":5.34988,"is_reserved":false,"is_disabled":false,"rental_uris":{"android":"levelo://app?vid=037353d0-3736-4d07-adf9-946f48000882","ios":"levelo://app?vid=037353d0-3736-4d07-adf9-946f48000882"},"vehicle_type_id":"4","last_reported":1692461200,"current_range_meters":15200,"station_id":"ce4bhbh2rcd13ifvqepg","pricing_plan_id":"free"},{"bike_id":"71953eb7-9886-4efd-a362-29476a0a0546","system_id":"levelo_inurba_marseille","lat":43.284217,"lon":5.349697,"is_reserved":false,"is_disabled":false,"rental_uris":{"android":"levelo://app?vid=71953eb7-9886-4efd-a362-29476a0a0546","ios":"levelo://app?vid=71953eb7-9886-4efd-a362-29476a0a0546"},"vehicle_type_id":"4","last_reported":1692461200,"current_range_meters":16800,"station_id":"ce4bhbh2rcd13ifvqepg","pricing_plan_id":"free"},{"bike_id":"91879e64-b1e8-42e4-882a-d221ba2e97bf","system_id":"levelo_inurba_marseille","lat":43.284217,"lon":5.349697,"is_reserved":false,"is_disabled":false,"rental_uris":{"android":"levelo://app?vid=91879e64-b1e8-42e4-882a-d221ba2e97bf","ios":"levelo://app?vid=91879e64-b1e8-42e4-882a-d221ba2e97bf"},"vehicle_type_id":"4","last_reported":1692461200,"current_range_meters":31200,"station_id":"ce4bhbh2rcd13ifvqepg","pricing_plan_id":"free"},{"bike_id":"b85a90c0-ad78-4721-ac53-884ade846322","system_id":"levelo_inurba_marseille","lat":43.284217,"lon":5.349697,"is_reserved":false,"is_disabled":false,"rental_uris":{"android":"levelo://app?vid=b85a90c0-ad78-4721-ac53-884ade846322","ios":"levelo://app?vid=b85a90c0-ad78-4721-ac53-884ade846322"},"vehicle_type_id":"4","last_reported":1692461200,"current_range_meters":31600,"station_id":"ce4bhbh2rcd13ifvqepg","pricing_plan_id":"free"},{"bike_id":"ecf3c212-507b-4d9d-af27-73cd24cf07b4","system_id":"levelo_inurba_marseille","lat":43.28421,"lon":5.34982,"is_reserved":false,"is_disabled":false,"rental_uris":{"android":"levelo://app?vid=ecf3c212-507b-4d9d-af27-73cd24cf07b4","ios":"levelo://app?vid=ecf3c212-507b-4d9d-af27-73cd24cf07b4"},"vehicle_type_id":"4","last_reported":1692461200,"current_range_meters":30000,"station_id":"ce4bhbh2rcd13ifvqepg","pricing_plan_id":"free"},{"bike_id":"076d1f57-8a63-43e0-86ff-5a2a6a002145","system_id":"levelo_inurba_marseille","lat":43.284217,"lon":5.349697,"is_reserved":false,"is_disabled":false,"rental_uris":{"android":"levelo://app?vid=076d1f57-8a63-43e0-86ff-5a2a6a002145","ios":"levelo://app?vid=076d1f57-8a63-43e0-86ff-5a2a6a002145"},"vehicle_type_id":"4","last_reported":1692461200,"current_range_meters":31600,"station_id":"ce4bhbh2rcd13ifvqepg","pricing_plan_id":"free"},{"bike_id":"5543c719-b280-42b6-b01e-86f5b4adcbd5","system_id":"levelo_inurba_marseille","lat":43.28418,"lon":5.3499,"is_reserved":false,"is_disabled":false,"rental_uris":{"android":"levelo://app?vid=5543c719-b280-42b6-b01e-86f5b4adcbd5","ios":"levelo://app?vid=5543c719-b280-42b6-b01e-86f5b4adcbd5"},"vehicle_type_id":"4","last_reported":1692461200,"current_range_meters":22400,"station_id":"ce4bhbh2rcd13ifvqepg","pricing_plan_id":"free"},{"bike_id":"35b8afeb-04a0-4500-a54d-4359496408d1","system_id":"levelo_inurba_marseille","lat":43.284217,"lon":5.349697,"is_reserved":false,"is_disabled":false,"rental_uris":{"android":"levelo://app?vid=35b8afeb-04a0-4500-a54d-4359496408d1","ios":"levelo://app?vid=35b8afeb-04a0-4500-a54d-4359496408d1"},"vehicle_type_id":"4","last_reported":1692461200,"current_range_meters":8400,"station_id":"ce4bhbh2rcd13ifvqepg","pricing_plan_id":"free"},{"bike_id":"aded1766-0e9d-46f7-ba09-f88bcc3bbee7","system_id":"levelo_inurba_marseille","lat":43.284217,"lon":5.349697,"is_reserved":false,"is_disabled":false,"rental_uris":{"android":"levelo://app?vid=aded1766-0e9d-46f7-ba09-f88bcc3bbee7","ios":"levelo://app?vid=aded1766-0e9d-46f7-ba09-f88bcc3bbee7"},"vehicle_type_id":"4","last_reported":1692461200,"current_range_meters":31600,"station_id":"ce4bhbh2rcd13ifvqepg","pricing_plan_id":"free"},{"bike_id":"994edc58-ed4b-46c3-aa05-169c582f4c38","system_id":"levelo_inurba_marseille","lat":43.28419,"lon":5.3498,"is_reserved":false,"is_disabled":false,"rental_uris":{"android":"levelo://app?vid=994edc58-ed4b-46c3-aa05-169c582f4c38","ios":"levelo://app?vid=994edc58-ed4b-46c3-aa05-169c582f4c38"},"vehicle_type_id":"4","last_reported":1692461200,"current_range_meters":22800,"station_id":"ce4bhbh2rcd13ifvqepg","pricing_plan_id":"free"},{"bike_id":"fac083ac-05e8-4825-b3e7-d59a3c1a16d9","system_id":"levelo_inurba_marseille","lat":43.284217,"lon":5.349697,"is_reserved":false,"is_disabled":false,"rental_uris":{"android":"levelo://app?vid=fac083ac-05e8-4825-b3e7-d59a3c1a16d9","ios":"levelo://app?vid=fac083ac-05e8-4825-b3e7-d59a3c1a16d9"},"vehicle_type_id":"4","last_reported":1692461200,"current_range_meters":22400,"station_id":"ce4bhbh2rcd13ifvqepg","pricing_plan_id":"free"},{"bike_id":"c2491b81-05ba-471d-b488-f3e59a5d3ba0","system_id":"levelo_inurba_marseille","lat":43.284217,"lon":5.349697,"is_reserved":false,"is_disabled":false,"rental_uris":{"android":"levelo://app?vid=c2491b81-05ba-471d-b488-f3e59a5d3ba0","ios":"levelo://app?vid=c2491b81-05ba-471d-b488-f3e59a5d3ba0"},"vehicle_type_id":"4","last_reported":1692461200,"current_range_meters":10400,"station_id":"ce4bhbh2rcd13ifvqepg","pricing_plan_id":"free"},{"bike_id":"f50aca5f-cf5b-4020-925f-826a2e34874f","system_id":"levelo_inurba_marseille","lat":43.289363,"lon":5.396322,"is_reserved":false,"is_disabled":false,"rental_uris":{"android":"levelo://app?vid=f50aca5f-cf5b-4020-925f-826a2e34874f","ios":"levelo://app?vid=f50aca5f-cf5b-4020-925f-826a2e34874f"},"vehicle_type_id":"4","last_reported":1692461200,"current_range_meters":29600,"station_id":"ce4bh3h2rcd13ifvqdn0","pricing_plan_id":"free"},{"bike_id":"c3b9ab3b-b9ee-443d-9ffb-144d0f02779b","system_id":"levelo_inurba_marseille","lat":43.289363,"lon":5.396322,"is_reserved":false,"is_disabled":false,"rental_uris":{"android":"levelo://app?vid=c3b9ab3b-b9ee-443d-9ffb-144d0f02779b","ios":"levelo://app?vid=c3b9ab3b-b9ee-443d-9ffb-144d0f02779b"},"vehicle_type_id":"4","last_reported":1692461200,"current_range_meters":14400,"station_id":"ce4bh3h2rcd13ifvqdn0","pricing_plan_id":"free"},{"bike_id":"5cec26ac-344f-432b-af34-450b75305b9b","system_id":"levelo_inurba_marseille","lat":43.292724,"lon":5.401131,"is_reserved":false,"is_disabled":false,"rental_uris":{"android":"levelo://app?vid=5cec26ac-344f-432b-af34-450b75305b9b","ios":"levelo://app?vid=5cec26ac-344f-432b-af34-450b75305b9b"},"vehicle_type_id":"4","last_reported":1692461200,"current_range_meters":30400,"station_id":"ce4bh312rcd13ifvqdk0","pricing_plan_id":"free"},{"bike_id":"04b5e856-8998-4270-aff8-c1e5cf89a08e","system_id":"levelo_inurba_marseille","lat":43.28291,"lon":5.35082,"is_reserved":false,"is_disabled":false,"rental_uris":{"android":"levelo://app?vid=04b5e856-8998-4270-aff8-c1e5cf89a08e","ios":"levelo://app?vid=04b5e856-8998-4270-aff8-c1e5cf89a08e"},"vehicle_type_id":"4","last_reported":1692461200,"current_range_meters":22400,"station_id":"ce4bhbp2rcd13ifvqerg","pricing_plan_id":"free"},{"bike_id":"ca46187a-8af0-4325-942e-0a6924d674b4","system_id":"levelo_inurba_marseille","lat":43.28286,"lon":5.35079,"is_reserved":false,"is_disabled":false,"rental_uris":{"android":"levelo://app?vid=ca46187a-8af0-4325-942e-0a6924d674b4","ios":"levelo://app?vid=ca46187a-8af0-4325-942e-0a6924d674b4"},"vehicle_type_id":"4","last_reported":1692461200,"current_range_meters":23600,"station_id":"ce4bhbp2rcd13ifvqerg","pricing_plan_id":"free"},{"bike_id":"248b4af1-cebb-4b11-a45e-11d87517973a","system_id":"levelo_inurba_marseille","lat":43.28285,"lon":5.35078,"is_reserved":false,"is_disabled":false,"rental_uris":{"android":"levelo://app?vid=248b4af1-cebb-4b11-a45e-11d87517973a","ios":"levelo://app?vid=248b4af1-cebb-4b11-a45e-11d87517973a"},"vehicle_type_id":"4","last_reported":1692461200,"current_range_meters":15600,"station_id":"ce4bhbp2rcd13ifvqerg","pricing_plan_id":"free"},{"bike_id":"4ac8f7ae-3414-46cb-9052-7e27dc315dcf","system_id":"levelo_inurba_marseille","lat":43.28283,"lon":5.35085,"is_reserved":false,"is_disabled":false,"rental_uris":{"android":"levelo://app?vid=4ac8f7ae-3414-46cb-9052-7e27dc315dcf","ios":"levelo://app?vid=4ac8f7ae-3414-46cb-9052-7e27dc315dcf"},"vehicle_type_id":"4","last_reported":1692461200,"current_range_meters":31600,"station_id":"ce4bhbp2rcd13ifvqerg","pricing_plan_id":"free"},{"bike_id":"5b72c66f-9b7c-4747-b09c-f20c879216f8","system_id":"levelo_inurba_marseille","lat":43.28285,"lon":5.35077,"is_reserved":false,"is_disabled":false,"rental_uris":{"android":"levelo://app?vid=5b72c66f-9b7c-4747-b09c-f20c879216f8","ios":"levelo://app?vid=5b72c66f-9b7c-4747-b09c-f20c879216f8"},"vehicle_type_id":"4","last_reported":1692461200,"current_range_meters":16400,"station_id":"ce4bhbp2rcd13ifvqerg","pricing_plan_id":"free"},{"bike_id":"88940920-727e-47f8-bee6-24feedff1167","system_id":"levelo_inurba_marseille","lat":43.282754,"lon":5.350519,"is_reserved":false,"is_disabled":false,"rental_uris":{"android":"levelo://app?vid=88940920-727e-47f8-bee6-24feedff1167","ios":"levelo://app?vid=88940920-727e-47f8-bee6-24feedff1167"},"vehicle_type_id":"4","last_reported":1692461200,"current_range_meters":30000,"station_id":"ce4bhbp2rcd13ifvqerg","pricing_plan_id":"free"},{"bike_id":"a3bf40e5-0e8c-49a8-83ed-79360293c5ce","system_id":"levelo_inurba_marseille","lat":43.282744,"lon":5.350533,"is_reserved":false,"is_disabled":false,"rental_uris":{"android":"levelo://app?vid=a3bf40e5-0e8c-49a8-83ed-79360293c5ce","ios":"levelo://app?vid=a3bf40e5-0e8c-49a8-83ed-79360293c5ce"},"vehicle_type_id":"4","last_reported":1692461200,"current_range_meters":24800,"station_id":"ce4bhbp2rcd13ifvqerg","pricing_plan_id":"free"},{"bike_id":"ab95aa95-05ca-4f44-9615-d58e08afc09f","system_id":"levelo_inurba_marseille","lat":43.282744,"lon":5.350533,"is_reserved":false,"is_disabled":false,"rental_uris":{"android":"levelo://app?vid=ab95aa95-05ca-4f44-9615-d58e08afc09f","ios":"levelo://app?vid=ab95aa95-05ca-4f44-9615-d58e08afc09f"},"vehicle_type_id":"4","last_reported":1692461200,"current_range_meters":31600,"station_id":"ce4bhbp2rcd13ifvqerg","pricing_plan_id":"free"},{"bike_id":"7019ca0c-b21f-4a52-b039-4f2e2e32a89c","system_id":"levelo_inurba_marseille","lat":43.282744,"lon":5.350533,"is_reserved":false,"is_disabled":false,"rental_uris":{"android":"levelo://app?vid=7019ca0c-b21f-4a52-b039-4f2e2e32a89c","ios":"levelo://app?vid=7019ca0c-b21f-4a52-b039-4f2e2e32a89c"},"vehicle_type_id":"4","last_reported":1692461200,"current_range_meters":30800,"station_id":"ce4bhbp2rcd13ifvqerg","pricing_plan_id":"free"},{"bike_id":"3038b227-a2c0-4c5a-a347-5172921ca3a8","system_id":"levelo_inurba_marseille","lat":43.282744,"lon":5.350533,"is_reserved":false,"is_disabled":false,"rental_uris":{"android":"levelo://app?vid=3038b227-a2c0-4c5a-a347-5172921ca3a8","ios":"levelo://app?vid=3038b227-a2c0-4c5a-a347-5172921ca3a8"},"vehicle_type_id":"4","last_reported":1692461200,"current_range_meters":22000,"station_id":"ce4bhbp2rcd13ifvqerg","pricing_plan_id":"free"},{"bike_id":"16304175-9d02-4b0e-a9cd-e3c67ecb850d","system_id":"levelo_inurba_marseille","lat":43.282744,"lon":5.350533,"is_reserved":false,"is_disabled":false,"rental_uris":{"android":"levelo://app?vid=16304175-9d02-4b0e-a9cd-e3c67ecb850d","ios":"levelo://app?vid=16304175-9d02-4b0e-a9cd-e3c67ecb850d"},"vehicle_type_id":"4","last_reported":1692461200,"current_range_meters":28400,"station_id":"ce4bhbp2rcd13ifvqerg","pricing_plan_id":"free"},{"bike_id":"9b209bdc-9551-4008-9ce5-7af839294f7d","system_id":"levelo_inurba_marseille","lat":43.282744,"lon":5.350533,"is_reserved":false,"is_disabled":false,"rental_uris":{"android":"levelo://app?vid=9b209bdc-9551-4008-9ce5-7af839294f7d","ios":"levelo://app?vid=9b209bdc-9551-4008-9ce5-7af839294f7d"},"vehicle_type_id":"4","last_reported":1692461200,"current_range_meters":16000,"station_id":"ce4bhbp2rcd13ifvqerg","pricing_plan_id":"free"},{"bike_id":"11782008-ab28-4adc-9567-07e641ec570e","system_id":"levelo_inurba_marseille","lat":43.28273,"lon":5.35061,"is_reserved":false,"is_disabled":false,"rental_uris":{"android":"levelo://app?vid=11782008-ab28-4adc-9567-07e641ec570e","ios":"levelo://app?vid=11782008-ab28-4adc-9567-07e641ec570e"},"vehicle_type_id":"4","last_reported":1692461200,"current_range_meters":20400,"station_id":"ce4bhbp2rcd13ifvqerg","pricing_plan_id":"free"},{"bike_id":"72b8e91e-b513-4df0-9332-002157c85d9a","system_id":"levelo_inurba_marseille","lat":43.282744,"lon":5.350533,"is_reserved":false,"is_disabled":false,"rental_uris":{"android":"levelo://app?vid=72b8e91e-b513-4df0-9332-002157c85d9a","ios":"levelo://app?vid=72b8e91e-b513-4df0-9332-002157c85d9a"},"vehicle_type_id":"4","last_reported":1692461200,"current_range_meters":14800,"station_id":"ce4bhbp2rcd13ifvqerg","pricing_plan_id":"free"},{"bike_id":"9cc4186b-43cf-4545-8a45-f4ab738df2ec","system_id":"levelo_inurba_marseille","lat":43.28039,"lon":5.369297,"is_reserved":false,"is_disabled":false,"rental_uris":{"android":"levelo://app?vid=9cc4186b-43cf-4545-8a45-f4ab738df2ec","ios":"levelo://app?vid=9cc4186b-43cf-4545-8a45-f4ab738df2ec"},"vehicle_type_id":"4","last_reported":1692461200,"current_range_meters":22000,"station_id":"ce4bha12rcd13ifvqef0","pricing_plan_id":"free"},{"bike_id":"52e1b1c7-ef10-4fb9-9ad7-ce8b48ba6a57","system_id":"levelo_inurba_marseille","lat":43.282744,"lon":5.350533,"is_reserved":false,"is_disabled":false,"rental_uris":{"android":"levelo://app?vid=52e1b1c7-ef10-4fb9-9ad7-ce8b48ba6a57","ios":"levelo://app?vid=52e1b1c7-ef10-4fb9-9ad7-ce8b48ba6a57"},"vehicle_type_id":"4","last_reported":1692461200,"current_range_meters":800,"station_id":"ce4bhbp2rcd13ifvqerg","pricing_plan_id":"free"},{"bike_id":"9f46cfde-4f76-4076-bade-5765c2d3d473","system_id":"levelo_inurba_marseille","lat":43.28039,"lon":5.369297,"is_reserved":false,"is_disabled":false,"rental_uris":{"android":"levelo://app?vid=9f46cfde-4f76-4076-bade-5765c2d3d473","ios":"levelo://app?vid=9f46cfde-4f76-4076-bade-5765c2d3d473"},"vehicle_type_id":"4","last_reported":1692461200,"current_range_meters":31600,"station_id":"ce4bha12rcd13ifvqef0","pricing_plan_id":"free"},{"bike_id":"5376d0f4-22f6-4ac8-9da5-e1650aa6f160","system_id":"levelo_inurba_marseille","lat":43.28573,"lon":5.394992,"is_reserved":false,"is_disabled":false,"rental_uris":{"android":"levelo://app?vid=5376d0f4-22f6-4ac8-9da5-e1650aa6f160","ios":"levelo://app?vid=5376d0f4-22f6-4ac8-9da5-e1650aa6f160"},"vehicle_type_id":"4","last_reported":1692461200,"current_range_meters":0,"station_id":"ce4bh292rcd13ifvqdg0","pricing_plan_id":"free"},{"bike_id":"f5495780-151c-412d-a84a-c8109c73e85e","system_id":"levelo_inurba_marseille","lat":43.285742,"lon":5.395004,"is_reserved":false,"is_disabled":false,"rental_uris":{"android":"levelo://app?vid=f5495780-151c-412d-a84a-c8109c73e85e","ios":"levelo://app?vid=f5495780-151c-412d-a84a-c8109c73e85e"},"vehicle_type_id":"4","last_reported":1692461200,"current_range_meters":21600,"station_id":"ce4bh292rcd13ifvqdg0","pricing_plan_id":"free"},{"bike_id":"f8ef4f78-badc-40d1-a4a9-077301466e56","system_id":"levelo_inurba_marseille","lat":43.32662,"lon":5.40978,"is_reserved":false,"is_disabled":false,"rental_uris":{"android":"levelo://app?vid=f8ef4f78-badc-40d1-a4a9-077301466e56","ios":"levelo://app?vid=f8ef4f78-badc-40d1-a4a9-077301466e56"},"vehicle_type_id":"4","last_reported":1692461200,"current_range_meters":12400,"station_id":"ce4bhpp2rcd13ifvqhgg","pricing_plan_id":"free"},{"bike_id":"7841a1b8-5d7b-4c48-947d-785c2ae73d3d","system_id":"levelo_inurba_marseille","lat":43.326605,"lon":5.409903,"is_reserved":false,"is_disabled":false,"rental_uris":{"android":"levelo://app?vid=7841a1b8-5d7b-4c48-947d-785c2ae73d3d","ios":"levelo://app?vid=7841a1b8-5d7b-4c48-947d-785c2ae73d3d"},"vehicle_type_id":"4","last_reported":1692461200,"current_range_meters":14800,"station_id":"ce4bhpp2rcd13ifvqhgg","pricing_plan_id":"free"},{"bike_id":"c327718a-8fe6-4791-a349-aba0f8f94e82","system_id":"levelo_inurba_marseille","lat":43.279742,"lon":5.38744,"is_reserved":false,"is_disabled":false,"rental_uris":{"android":"levelo://app?vid=c327718a-8fe6-4791-a349-aba0f8f94e82","ios":"levelo://app?vid=c327718a-8fe6-4791-a349-aba0f8f94e82"},"vehicle_type_id":"4","last_reported":1692461200,"current_range_meters":25600,"station_id":"ce4bhg12rcd13ifvqf80","pricing_plan_id":"free"},{"bike_id":"3b4496bf-b89d-4097-9845-ebff2f027088","system_id":"levelo_inurba_marseille","lat":43.299579,"lon":5.413255,"is_reserved":false,"is_disabled":false,"rental_uris":{"android":"levelo://app?vid=3b4496bf-b89d-4097-9845-ebff2f027088","ios":"levelo://app?vid=3b4496bf-b89d-4097-9845-ebff2f027088"},"vehicle_type_id":"4","last_reported":1692461200,"current_range_meters":3200,"station_id":"ce4bhp12rcd13ifvqh9g","pricing_plan_id":"free"},{"bike_id":"3eb17d3c-6b3e-4d47-8b8b-711f56f764a6","system_id":"levelo_inurba_marseille","lat":43.299579,"lon":5.413255,"is_reserved":false,"is_disabled":false,"rental_uris":{"android":"levelo://app?vid=3eb17d3c-6b3e-4d47-8b8b-711f56f764a6","ios":"levelo://app?vid=3eb17d3c-6b3e-4d47-8b8b-711f56f764a6"},"vehicle_type_id":"4","last_reported":1692461200,"current_range_meters":31600,"station_id":"ce4bhp12rcd13ifvqh9g","pricing_plan_id":"free"},{"bike_id":"8a026d53-88fa-495b-b4fa-d5a83e9e7f8a","system_id":"levelo_inurba_marseille","lat":43.29964,"lon":5.41319,"is_reserved":false,"is_disabled":false,"rental_uris":{"android":"levelo://app?vid=8a026d53-88fa-495b-b4fa-d5a83e9e7f8a","ios":"levelo://app?vid=8a026d53-88fa-495b-b4fa-d5a83e9e7f8a"},"vehicle_type_id":"4","last_reported":1692461200,"current_range_meters":28400,"station_id":"ce4bhp12rcd13ifvqh9g","pricing_plan_id":"free"},{"bike_id":"a32a39d0-a8d3-42f8-bde2-27a8ca911b9d","system_id":"levelo_inurba_marseille","lat":43.29966,"lon":5.41321,"is_reserved":false,"is_disabled":false,"rental_uris":{"android":"levelo://app?vid=a32a39d0-a8d3-42f8-bde2-27a8ca911b9d","ios":"levelo://app?vid=a32a39d0-a8d3-42f8-bde2-27a8ca911b9d"},"vehicle_type_id":"4","last_reported":1692461200,"current_range_meters":28000,"station_id":"ce4bhp12rcd13ifvqh9g","pricing_plan_id":"free"},{"bike_id":"f8798cb1-e506-4464-89ce-3cad3fe66b84","system_id":"levelo_inurba_marseille","lat":43.320045,"lon":5.415046,"is_reserved":false,"is_disabled":false,"rental_uris":{"android":"levelo://app?vid=f8798cb1-e506-4464-89ce-3cad3fe66b84","ios":"levelo://app?vid=f8798cb1-e506-4464-89ce-3cad3fe66b84"},"vehicle_type_id":"4","last_reported":1692461200,"current_range_meters":9200,"station_id":"ce4bhq92rcd13ifvqhkg","pricing_plan_id":"free"},{"bike_id":"e50afae3-4ae7-4457-9cda-84fcc64ac2e1","system_id":"levelo_inurba_marseille","lat":43.299577,"lon":5.413277,"is_reserved":false,"is_disabled":false,"rental_uris":{"android":"levelo://app?vid=e50afae3-4ae7-4457-9cda-84fcc64ac2e1","ios":"levelo://app?vid=e50afae3-4ae7-4457-9cda-84fcc64ac2e1"},"vehicle_type_id":"4","last_reported":1692461200,"current_range_meters":29600,"station_id":"ce4bhp12rcd13ifvqh9g","pricing_plan_id":"free"},{"bike_id":"586c3812-5da5-4ab1-9cb1-7da926835285","system_id":"levelo_inurba_marseille","lat":43.279742,"lon":5.38744,"is_reserved":false,"is_disabled":false,"rental_uris":{"android":"levelo://app?vid=586c3812-5da5-4ab1-9cb1-7da926835285","ios":"levelo://app?vid=586c3812-5da5-4ab1-9cb1-7da926835285"},"vehicle_type_id":"4","last_reported":1692461200,"current_range_meters":22000,"station_id":"ce4bhg12rcd13ifvqf80","pricing_plan_id":"free"},{"bike_id":"4bf3b633-0202-491a-9579-3b49480a4c46","system_id":"levelo_inurba_marseille","lat":43.325233,"lon":5.414318,"is_reserved":false,"is_disabled":false,"rental_uris":{"android":"levelo://app?vid=4bf3b633-0202-491a-9579-3b49480a4c46","ios":"levelo://app?vid=4bf3b633-0202-491a-9579-3b49480a4c46"},"vehicle_type_id":"4","last_reported":1692461200,"current_range_meters":0,"station_id":"ce4bhq12rcd13ifvqhhg","pricing_plan_id":"free"},{"bike_id":"f45f5851-dd54-4d78-a4c7-586fbe36725b","system_id":"levelo_inurba_marseille","lat":43.292569,"lon":5.409107,"is_reserved":false,"is_disabled":false,"rental_uris":{"android":"levelo://app?vid=f45f5851-dd54-4d78-a4c7-586fbe36725b","ios":"levelo://app?vid=f45f5851-dd54-4d78-a4c7-586fbe36725b"},"vehicle_type_id":"4","last_reported":1692461200,"current_range_meters":18400,"station_id":"ce4bh192rcd13ifvqdc0","pricing_plan_id":"free"},{"bike_id":"7a374850-9b93-4cba-a56b-ac5cc893ba08","system_id":"levelo_inurba_marseille","lat":43.292569,"lon":5.409107,"is_reserved":false,"is_disabled":false,"rental_uris":{"android":"levelo://app?vid=7a374850-9b93-4cba-a56b-ac5cc893ba08","ios":"levelo://app?vid=7a374850-9b93-4cba-a56b-ac5cc893ba08"},"vehicle_type_id":"4","last_reported":1692461200,"current_range_meters":2800,"station_id":"ce4bh192rcd13ifvqdc0","pricing_plan_id":"free"},{"bike_id":"ba72826f-fcd9-4a75-a20f-0e2897b98e18","system_id":"levelo_inurba_marseille","lat":43.325233,"lon":5.414318,"is_reserved":false,"is_disabled":false,"rental_uris":{"android":"levelo://app?vid=ba72826f-fcd9-4a75-a20f-0e2897b98e18","ios":"levelo://app?vid=ba72826f-fcd9-4a75-a20f-0e2897b98e18"},"vehicle_type_id":"4","last_reported":1692461200,"current_range_meters":16400,"station_id":"ce4bhq12rcd13ifvqhhg","pricing_plan_id":"free"},{"bike_id":"25ea4f7e-38b1-4e7e-9585-753d236d86c9","system_id":"levelo_inurba_marseille","lat":43.325233,"lon":5.414318,"is_reserved":false,"is_disabled":false,"rental_uris":{"android":"levelo://app?vid=25ea4f7e-38b1-4e7e-9585-753d236d86c9","ios":"levelo://app?vid=25ea4f7e-38b1-4e7e-9585-753d236d86c9"},"vehicle_type_id":"4","last_reported":1692461200,"current_range_meters":28400,"station_id":"ce4bhq12rcd13ifvqhhg","pricing_plan_id":"free"},{"bike_id":"73986c32-7d63-448f-a55e-5e4d83e6588f","system_id":"levelo_inurba_marseille","lat":43.325233,"lon":5.414318,"is_reserved":false,"is_disabled":false,"rental_uris":{"android":"levelo://app?vid=73986c32-7d63-448f-a55e-5e4d83e6588f","ios":"levelo://app?vid=73986c32-7d63-448f-a55e-5e4d83e6588f"},"vehicle_type_id":"4","last_reported":1692461200,"current_range_meters":27600,"station_id":"ce4bhq12rcd13ifvqhhg","pricing_plan_id":"free"},{"bike_id":"1e10e8d4-20f5-45bf-a997-ca16d647ec59","system_id":"levelo_inurba_marseille","lat":43.27621,"lon":5.36108,"is_reserved":false,"is_disabled":false,"rental_uris":{"android":"levelo://app?vid=1e10e8d4-20f5-45bf-a997-ca16d647ec59","ios":"levelo://app?vid=1e10e8d4-20f5-45bf-a997-ca16d647ec59"},"vehicle_type_id":"4","last_reported":1692461200,"current_range_meters":13200,"station_id":"ce4bgj92rcd13ifvqbe0","pricing_plan_id":"free"},{"bike_id":"60532108-4d12-426f-a4a7-c9d62deb35a7","system_id":"levelo_inurba_marseille","lat":43.27621,"lon":5.36106,"is_reserved":false,"is_disabled":false,"rental_uris":{"android":"levelo://app?vid=60532108-4d12-426f-a4a7-c9d62deb35a7","ios":"levelo://app?vid=60532108-4d12-426f-a4a7-c9d62deb35a7"},"vehicle_type_id":"4","last_reported":1692461200,"current_range_meters":24400,"station_id":"ce4bgj92rcd13ifvqbe0","pricing_plan_id":"free"},{"bike_id":"b367d684-4be5-4990-a23c-376e0a1a22f0","system_id":"levelo_inurba_marseille","lat":43.2762,"lon":5.36109,"is_reserved":false,"is_disabled":false,"rental_uris":{"android":"levelo://app?vid=b367d684-4be5-4990-a23c-376e0a1a22f0","ios":"levelo://app?vid=b367d684-4be5-4990-a23c-376e0a1a22f0"},"vehicle_type_id":"4","last_reported":1692461200,"current_range_meters":26000,"station_id":"ce4bgj92rcd13ifvqbe0","pricing_plan_id":"free"},{"bike_id":"de742b71-9f90-4e21-90b7-63e970898f70","system_id":"levelo_inurba_marseille","lat":43.27618,"lon":5.361009,"is_reserved":false,"is_disabled":false,"rental_uris":{"android":"levelo://app?vid=de742b71-9f90-4e21-90b7-63e970898f70","ios":"levelo://app?vid=de742b71-9f90-4e21-90b7-63e970898f70"},"vehicle_type_id":"4","last_reported":1692461200,"current_range_meters":17200,"station_id":"ce4bgj92rcd13ifvqbe0","pricing_plan_id":"free"},{"bike_id":"46f71b12-fc11-4d5b-884f-52af4652ef81","system_id":"levelo_inurba_marseille","lat":43.276179,"lon":5.361009,"is_reserved":false,"is_disabled":false,"rental_uris":{"android":"levelo://app?vid=46f71b12-fc11-4d5b-884f-52af4652ef81","ios":"levelo://app?vid=46f71b12-fc11-4d5b-884f-52af4652ef81"},"vehicle_type_id":"4","last_reported":1692461200,"current_range_meters":31200,"station_id":"ce4bgj92rcd13ifvqbe0","pricing_plan_id":"free"},{"bike_id":"3d7d7866-ec2b-4039-b575-755a1a55496e","system_id":"levelo_inurba_marseille","lat":43.27383,"lon":5.36253,"is_reserved":false,"is_disabled":false,"rental_uris":{"android":"levelo://app?vid=3d7d7866-ec2b-4039-b575-755a1a55496e","ios":"levelo://app?vid=3d7d7866-ec2b-4039-b575-755a1a55496e"},"vehicle_type_id":"4","last_reported":1692461200,"current_range_meters":31200,"station_id":"ce4bhbh2rcd13ifvqeo0","pricing_plan_id":"free"},{"bike_id":"11164e1a-0d09-405c-9e42-d6e8e0b01c97","system_id":"levelo_inurba_marseille","lat":43.2738,"lon":5.36265,"is_reserved":false,"is_disabled":false,"rental_uris":{"android":"levelo://app?vid=11164e1a-0d09-405c-9e42-d6e8e0b01c97","ios":"levelo://app?vid=11164e1a-0d09-405c-9e42-d6e8e0b01c97"},"vehicle_type_id":"4","last_reported":1692461200,"current_range_meters":13200,"station_id":"ce4bhbh2rcd13ifvqeo0","pricing_plan_id":"free"},{"bike_id":"5d6cdfc8-b94d-45e2-9ca7-60230569f5c4","system_id":"levelo_inurba_marseille","lat":43.27377,"lon":5.36259,"is_reserved":false,"is_disabled":false,"rental_uris":{"android":"levelo://app?vid=5d6cdfc8-b94d-45e2-9ca7-60230569f5c4","ios":"levelo://app?vid=5d6cdfc8-b94d-45e2-9ca7-60230569f5c4"},"vehicle_type_id":"4","last_reported":1692461200,"current_range_meters":0,"station_id":"ce4bhbh2rcd13ifvqeo0","pricing_plan_id":"free"},{"bike_id":"163d6351-06f2-4b34-9550-1e508656811f","system_id":"levelo_inurba_marseille","lat":43.27375,"lon":5.3626,"is_reserved":false,"is_disabled":false,"rental_uris":{"android":"levelo://app?vid=163d6351-06f2-4b34-9550-1e508656811f","ios":"levelo://app?vid=163d6351-06f2-4b34-9550-1e508656811f"},"vehicle_type_id":"4","last_reported":1692461200,"current_range_meters":20400,"station_id":"ce4bhbh2rcd13ifvqeo0","pricing_plan_id":"free"},{"bike_id":"f02f6d40-f53f-4ce4-8f25-4ed8cde94423","system_id":"levelo_inurba_marseille","lat":43.275625,"lon":5.384392,"is_reserved":false,"is_disabled":false,"rental_uris":{"android":"levelo://app?vid=f02f6d40-f53f-4ce4-8f25-4ed8cde94423","ios":"levelo://app?vid=f02f6d40-f53f-4ce4-8f25-4ed8cde94423"},"vehicle_type_id":"4","last_reported":1692461200,"current_range_meters":18000,"station_id":"ce4bhh92rcd13ifvqfi0","pricing_plan_id":"free"},{"bike_id":"21cbc02a-b6ee-4a80-90f3-2753506d416b","system_id":"levelo_inurba_marseille","lat":43.2737,"lon":5.3626,"is_reserved":false,"is_disabled":false,"rental_uris":{"android":"levelo://app?vid=21cbc02a-b6ee-4a80-90f3-2753506d416b","ios":"levelo://app?vid=21cbc02a-b6ee-4a80-90f3-2753506d416b"},"vehicle_type_id":"4","last_reported":1692461200,"current_range_meters":31200,"station_id":"ce4bhbh2rcd13ifvqeo0","pricing_plan_id":"free"},{"bike_id":"2e573e61-37c1-4cc3-8cce-e59d491852bc","system_id":"levelo_inurba_marseille","lat":43.33613,"lon":5.41014,"is_reserved":false,"is_disabled":false,"rental_uris":{"android":"levelo://app?vid=2e573e61-37c1-4cc3-8cce-e59d491852bc","ios":"levelo://app?vid=2e573e61-37c1-4cc3-8cce-e59d491852bc"},"vehicle_type_id":"4","last_reported":1692461200,"current_range_meters":20800,"station_id":"ce4bhqh2rcd13ifvqhmg","pricing_plan_id":"free"},{"bike_id":"1f72d686-bc40-4d4f-b1c1-68a1ecb59074","system_id":"levelo_inurba_marseille","lat":43.336134,"lon":5.410341,"is_reserved":false,"is_disabled":false,"rental_uris":{"android":"levelo://app?vid=1f72d686-bc40-4d4f-b1c1-68a1ecb59074","ios":"levelo://app?vid=1f72d686-bc40-4d4f-b1c1-68a1ecb59074"},"vehicle_type_id":"4","last_reported":1692461200,"current_range_meters":17600,"station_id":"ce4bhqh2rcd13ifvqhmg","pricing_plan_id":"free"},{"bike_id":"33c65d5c-5c22-4390-94e0-6942dbc893e7","system_id":"levelo_inurba_marseille","lat":43.336134,"lon":5.410341,"is_reserved":false,"is_disabled":false,"rental_uris":{"android":"levelo://app?vid=33c65d5c-5c22-4390-94e0-6942dbc893e7","ios":"levelo://app?vid=33c65d5c-5c22-4390-94e0-6942dbc893e7"},"vehicle_type_id":"4","last_reported":1692461200,"current_range_meters":31200,"station_id":"ce4bhqh2rcd13ifvqhmg","pricing_plan_id":"free"},{"bike_id":"c2001ebd-a0a8-4d89-bb35-5eaab1ca956a","system_id":"levelo_inurba_marseille","lat":43.33612,"lon":5.410321,"is_reserved":false,"is_disabled":false,"rental_uris":{"android":"levelo://app?vid=c2001ebd-a0a8-4d89-bb35-5eaab1ca956a","ios":"levelo://app?vid=c2001ebd-a0a8-4d89-bb35-5eaab1ca956a"},"vehicle_type_id":"4","last_reported":1692461200,"current_range_meters":21200,"station_id":"ce4bhqh2rcd13ifvqhmg","pricing_plan_id":"free"},{"bike_id":"0fef9fab-1a96-4961-9d16-f4cfcd87aa9c","system_id":"levelo_inurba_marseille","lat":43.33612,"lon":5.410321,"is_reserved":false,"is_disabled":false,"rental_uris":{"android":"levelo://app?vid=0fef9fab-1a96-4961-9d16-f4cfcd87aa9c","ios":"levelo://app?vid=0fef9fab-1a96-4961-9d16-f4cfcd87aa9c"},"vehicle_type_id":"4","last_reported":1692461200,"current_range_meters":26000,"station_id":"ce4bhqh2rcd13ifvqhmg","pricing_plan_id":"free"},{"bike_id":"bd3a304b-215d-4ae7-a376-5d3ee91c4d0a","system_id":"levelo_inurba_marseille","lat":43.336134,"lon":5.410341,"is_reserved":false,"is_disabled":false,"rental_uris":{"android":"levelo://app?vid=bd3a304b-215d-4ae7-a376-5d3ee91c4d0a","ios":"levelo://app?vid=bd3a304b-215d-4ae7-a376-5d3ee91c4d0a"},"vehicle_type_id":"4","last_reported":1692461200,"current_range_meters":31200,"station_id":"ce4bhqh2rcd13ifvqhmg","pricing_plan_id":"free"},{"bike_id":"b908ef7e-10c8-4f56-b372-f5b786688b91","system_id":"levelo_inurba_marseille","lat":43.33612,"lon":5.410321,"is_reserved":false,"is_disabled":false,"rental_uris":{"android":"levelo://app?vid=b908ef7e-10c8-4f56-b372-f5b786688b91","ios":"levelo://app?vid=b908ef7e-10c8-4f56-b372-f5b786688b91"},"vehicle_type_id":"4","last_reported":1692461200,"current_range_meters":31600,"station_id":"ce4bhqh2rcd13ifvqhmg","pricing_plan_id":"free"},{"bike_id":"13e9b1b8-2853-49da-9125-b30cf85c0ce8","system_id":"levelo_inurba_marseille","lat":43.33612,"lon":5.410321,"is_reserved":false,"is_disabled":false,"rental_uris":{"android":"levelo://app?vid=13e9b1b8-2853-49da-9125-b30cf85c0ce8","ios":"levelo://app?vid=13e9b1b8-2853-49da-9125-b30cf85c0ce8"},"vehicle_type_id":"4","last_reported":1692461200,"current_range_meters":1200,"station_id":"ce4bhqh2rcd13ifvqhmg","pricing_plan_id":"free"},{"bike_id":"ec541ad8-4721-4f6c-89cb-7d4ae3d542dc","system_id":"levelo_inurba_marseille","lat":43.33614,"lon":5.41031,"is_reserved":false,"is_disabled":false,"rental_uris":{"android":"levelo://app?vid=ec541ad8-4721-4f6c-89cb-7d4ae3d542dc","ios":"levelo://app?vid=ec541ad8-4721-4f6c-89cb-7d4ae3d542dc"},"vehicle_type_id":"4","last_reported":1692461200,"current_range_meters":20800,"station_id":"ce4bhqh2rcd13ifvqhmg","pricing_plan_id":"free"},{"bike_id":"2c002134-e4d2-41d1-b436-28e8e2ea24ca","system_id":"levelo_inurba_marseille","lat":43.276771,"lon":5.388799,"is_reserved":false,"is_disabled":false,"rental_uris":{"android":"levelo://app?vid=2c002134-e4d2-41d1-b436-28e8e2ea24ca","ios":"levelo://app?vid=2c002134-e4d2-41d1-b436-28e8e2ea24ca"},"vehicle_type_id":"4","last_reported":1692461200,"current_range_meters":29600,"station_id":"ce4bhi12rcd13ifvqfo0","pricing_plan_id":"free"},{"bike_id":"78cc3d63-c02d-4afc-8e77-ba1672dba571","system_id":"levelo_inurba_marseille","lat":43.317121,"lon":5.423936,"is_reserved":false,"is_disabled":false,"rental_uris":{"android":"levelo://app?vid=78cc3d63-c02d-4afc-8e77-ba1672dba571","ios":"levelo://app?vid=78cc3d63-c02d-4afc-8e77-ba1672dba571"},"vehicle_type_id":"4","last_reported":1692461200,"current_range_meters":29200,"station_id":"ce4bhp92rcd13ifvqhbg","pricing_plan_id":"free"},{"bike_id":"f6720607-2fb4-4392-bb17-9844e15dd71b","system_id":"levelo_inurba_marseille","lat":43.34143,"lon":5.40898,"is_reserved":false,"is_disabled":false,"rental_uris":{"android":"levelo://app?vid=f6720607-2fb4-4392-bb17-9844e15dd71b","ios":"levelo://app?vid=f6720607-2fb4-4392-bb17-9844e15dd71b"},"vehicle_type_id":"4","last_reported":1692461200,"current_range_meters":19200,"station_id":"ce4bhqh2rcd13ifvqhlg","pricing_plan_id":"free"},{"bike_id":"aac77d8c-95b8-46b0-a750-37640337b386","system_id":"levelo_inurba_marseille","lat":43.34143,"lon":5.409,"is_reserved":false,"is_disabled":false,"rental_uris":{"android":"levelo://app?vid=aac77d8c-95b8-46b0-a750-37640337b386","ios":"levelo://app?vid=aac77d8c-95b8-46b0-a750-37640337b386"},"vehicle_type_id":"4","last_reported":1692461200,"current_range_meters":31200,"station_id":"ce4bhqh2rcd13ifvqhlg","pricing_plan_id":"free"},{"bike_id":"319a3f57-15e0-4282-be77-7fd5fa21e073","system_id":"levelo_inurba_marseille","lat":43.34143,"lon":5.40902,"is_reserved":false,"is_disabled":false,"rental_uris":{"android":"levelo://app?vid=319a3f57-15e0-4282-be77-7fd5fa21e073","ios":"levelo://app?vid=319a3f57-15e0-4282-be77-7fd5fa21e073"},"vehicle_type_id":"4","last_reported":1692461200,"current_range_meters":15200,"station_id":"ce4bhqh2rcd13ifvqhlg","pricing_plan_id":"free"},{"bike_id":"9efa1e9b-79c9-440a-b8b9-1506ca12e70d","system_id":"levelo_inurba_marseille","lat":43.340804,"lon":5.410219,"is_reserved":false,"is_disabled":false,"rental_uris":{"android":"levelo://app?vid=9efa1e9b-79c9-440a-b8b9-1506ca12e70d","ios":"levelo://app?vid=9efa1e9b-79c9-440a-b8b9-1506ca12e70d"},"vehicle_type_id":"4","last_reported":1692461200,"current_range_meters":13200,"station_id":"ce4bhqh2rcd13ifvqhlg","pricing_plan_id":"free"},{"bike_id":"4c064826-2e1c-48ad-8a97-d2b37ed5dbde","system_id":"levelo_inurba_marseille","lat":43.34143,"lon":5.40905,"is_reserved":false,"is_disabled":false,"rental_uris":{"android":"levelo://app?vid=4c064826-2e1c-48ad-8a97-d2b37ed5dbde","ios":"levelo://app?vid=4c064826-2e1c-48ad-8a97-d2b37ed5dbde"},"vehicle_type_id":"4","last_reported":1692461200,"current_range_meters":18800,"station_id":"ce4bhqh2rcd13ifvqhlg","pricing_plan_id":"free"},{"bike_id":"83d15515-e803-4385-8191-b0e90955240d","system_id":"levelo_inurba_marseille","lat":43.341443,"lon":5.409037,"is_reserved":false,"is_disabled":false,"rental_uris":{"android":"levelo://app?vid=83d15515-e803-4385-8191-b0e90955240d","ios":"levelo://app?vid=83d15515-e803-4385-8191-b0e90955240d"},"vehicle_type_id":"4","last_reported":1692461200,"current_range_meters":26800,"station_id":"ce4bhqh2rcd13ifvqhlg","pricing_plan_id":"free"},{"bike_id":"853e6fd6-1e5c-4c0a-afad-3af5e6df6016","system_id":"levelo_inurba_marseille","lat":43.273125,"lon":5.390731,"is_reserved":false,"is_disabled":false,"rental_uris":{"android":"levelo://app?vid=853e6fd6-1e5c-4c0a-afad-3af5e6df6016","ios":"levelo://app?vid=853e6fd6-1e5c-4c0a-afad-3af5e6df6016"},"vehicle_type_id":"4","last_reported":1692461200,"current_range_meters":16000,"station_id":"ce4bhgp2rcd13ifvqfe0","pricing_plan_id":"free"},{"bike_id":"215f0391-f20e-4b27-80f0-539797dbc720","system_id":"levelo_inurba_marseille","lat":43.274099,"lon":5.394019,"is_reserved":false,"is_disabled":false,"rental_uris":{"android":"levelo://app?vid=215f0391-f20e-4b27-80f0-539797dbc720","ios":"levelo://app?vid=215f0391-f20e-4b27-80f0-539797dbc720"},"vehicle_type_id":"4","last_reported":1692461200,"current_range_meters":7600,"station_id":"ce4bhdp2rcd13ifvqf20","pricing_plan_id":"free"},{"bike_id":"607e5c54-6b55-4855-a0c2-6722dad44d60","system_id":"levelo_inurba_marseille","lat":43.304096,"lon":5.425385,"is_reserved":false,"is_disabled":false,"rental_uris":{"android":"levelo://app?vid=607e5c54-6b55-4855-a0c2-6722dad44d60","ios":"levelo://app?vid=607e5c54-6b55-4855-a0c2-6722dad44d60"},"vehicle_type_id":"4","last_reported":1692461200,"current_range_meters":9200,"station_id":"ce4bhoh2rcd13ifvqh6g","pricing_plan_id":"free"},{"bike_id":"151db049-9486-44c4-be07-be625927bf79","system_id":"levelo_inurba_marseille","lat":43.304096,"lon":5.425385,"is_reserved":false,"is_disabled":false,"rental_uris":{"android":"levelo://app?vid=151db049-9486-44c4-be07-be625927bf79","ios":"levelo://app?vid=151db049-9486-44c4-be07-be625927bf79"},"vehicle_type_id":"4","last_reported":1692461200,"current_range_meters":25200,"station_id":"ce4bhoh2rcd13ifvqh6g","pricing_plan_id":"free"},{"bike_id":"f7a9f61a-f60f-40ff-80b8-a4a93f85f402","system_id":"levelo_inurba_marseille","lat":43.29555,"lon":5.42282,"is_reserved":false,"is_disabled":false,"rental_uris":{"android":"levelo://app?vid=f7a9f61a-f60f-40ff-80b8-a4a93f85f402","ios":"levelo://app?vid=f7a9f61a-f60f-40ff-80b8-a4a93f85f402"},"vehicle_type_id":"4","last_reported":1692461200,"current_range_meters":0,"station_id":"ce4bhph2rcd13ifvqhdg","pricing_plan_id":"free"},