{"last_updated":1731769703,"ttl":60,"version":"2.2","data":{"bikes":[{"bike_id":"ba1f757f-22b2-46ff-b66a-3fb5327b3468","system_id":"levelo_inurba_marseille","lat":43.293,"lon":5.3716,"is_reserved":false,"is_disabled":false,"rental_uris":{"android":"levelo://app?vid=ba1f757f-22b2-46ff-b66a-3fb5327b3468","ios":"levelo://app?vid=ba1f757f-22b2-46ff-b66a-3fb5327b3468"},"vehicle_type_id":"4","last_reported":1731769704,"current_range_meters":2000,"station_id":"ce4bgh92rcd13ifvqb40","pricing_plan_id":"cebpf4jnsgd1na2vs0mg"},{"bike_id":"7b5f5cd2-481d-4df2-95d9-c5e257ded25f","system_id":"levelo_inurba_marseille","lat":43.29842,"lon":5.36275,"is_reserved":false,"is_disabled":false,"rental_uris":{"android":"levelo://app?vid=7b5f5cd2-481d-4df2-95d9-c5e257ded25f","ios":"levelo://app?vid=7b5f5cd2-481d-4df2-95d9-c5e257ded25f"},"vehicle_type_id":"4","last_reported":1731769704,"current_range_meters":14800,"station_id":"ce4bgpp2rcd13ifvqc3g","pricing_plan_id":"cebpf4jnsgd1na2vs0mg"},{"bike_id":"9831cf07-3404-4f9f-9685-97c9a8faa870","system_id":"levelo_inurba_marseille","lat":43.28342,"lon":5.38106,"is_reserved":false,"is_disabled":false,"rental_uris":{"android":"levelo://app?vid=9831cf07-3404-4f9f-9685-97c9a8faa870","ios":"levelo://app?vid=9831cf07-3404-4f9f-9685-97c9a8faa870"},"vehicle_type_id":"4","last_reported":1731769704,"current_range_meters":25200,"station_id":"ce4bh412rcd13ifvqdr0","pricing_plan_id":"cebpf4jnsgd1na2vs0mg"},{"bike_id":"79fca8e8-5e1f-4ca6-b30c-7ab84185e714","system_id":"levelo_inurba_marseille","lat":43.30139,"lon":5.37425,"is_reserved":false,"is_disabled":false,"rental_uris":{"android":"levelo://app?vid=79fca8e8-5e1f-4ca6-b30c-7ab84185e714","ios":"levelo://app?vid=79fca8e8-5e1f-4ca6-b30c-7ab84185e714"},"vehicle_type_id":"4","last_reported":1731769704,"current_range_meters":22400,"station_id":"ce4bgs92rcd13ifvqcc0","pricing_plan_id":"cebpf4jnsgd1na2vs0mg"},{"bike_id":"1055600e-0ef7-4dda-86d3-16c0f09694f6","system_id":"levelo_inurba_marseille","lat":43.28849,"lon":5.35868,"is_reserved":false,"is_disabled":false,"rental_uris":{"android":"levelo://app?vid=1055600e-0ef7-4dda-86d3-16c0f09694f6","ios":"levelo://app?vid=1055600e-0ef7-4dda-86d3-16c0f09694f6"},"vehicle_type_id":"4","last_reported":1731769704,"current_range_meters":20800,"station_id":"ce4bhb12rcd13ifvqem0","pricing_plan_id":"cebpf4jnsgd1na2vs0mg"},{"bike_id":"99816363-5263-427f-9816-401af89e27fc","system_id":"levelo_inurba_marseille","lat":43.231903,"lon":5.400021,"is_reserved":false,"is_disabled":false,"rental_uris":{"android":"levelo://app?vid=99816363-5263-427f-9816-401af89e27fc","ios":"levelo://app?vid=99816363-5263-427f-9816-401af89e27fc"},"vehicle_type_id":"4","last_reported":1731769704,"current_range_meters":30000,"station_id":"ce4bhn12rcd13ifvqgqg","pricing_plan_id":"cebpf4jnsgd1na2vs0mg"},{"bike_id":"b19e3b82-3ef7-4ef9-92d1-ebdc8fc23327","system_id":"levelo_inurba_marseille","lat":43.25004,"lon":5.38916,"is_reserved":false,"is_disabled":false,"rental_uris":{"android":"levelo://app?vid=b19e3b82-3ef7-4ef9-92d1-ebdc8fc23327","ios":"levelo://app?vid=b19e3b82-3ef7-4ef9-92d1-ebdc8fc23327"},"vehicle_type_id":"4","last_reported":1731769704,"current_range_meters":30400,"station_id":"ce4bhgp2rcd13ifvqfd0","pricing_plan_id":"cebpf4jnsgd1na2vs0mg"},{"bike_id":"959a4ac3-4ec9-45f0-9f03-e70883606bc7","system_id":"levelo_inurba_marseille","lat":43.30458,"lon":5.37914,"is_reserved":false,"is_disabled":false,"rental_uris":{"android":"levelo://app?vid=959a4ac3-4ec9-45f0-9f03-e70883606bc7","ios":"levelo://app?vid=959a4ac3-4ec9-45f0-9f03-e70883606bc7"},"vehicle_type_id":"4","last_reported":1731769704,"current_range_meters":24800,"station_id":"ce4bgup2rcd13ifvqcn0","pricing_plan_id":"cebpf4jnsgd1na2vs0mg"},{"bike_id":"e2f798c2-4494-4254-b370-692b5cfbbea7","system_id":"levelo_inurba_marseille","lat":43.29628,"lon":5.40589,"is_reserved":false,"is_disabled":false,"rental_uris":{"android":"levelo://app?vid=e2f798c2-4494-4254-b370-692b5cfbbea7","ios":"levelo://app?vid=e2f798c2-4494-4254-b370-692b5cfbbea7"},"vehicle_type_id":"4","last_reported":1731769704,"current_range_meters":14400,"station_id":"ce4bh0h2rcd13ifvqd60","pricing_plan_id":"cebpf4jnsgd1na2vs0mg"},{"bike_id":"13ecd984-3bbf-449a-b4e0-2d024829111b","system_id":"levelo_inurba_marseille","lat":43.25935,"lon":5.40911,"is_reserved":false,"is_disabled":false,"rental_uris":{"android":"levelo://app?vid=13ecd984-3bbf-449a-b4e0-2d024829111b","ios":"levelo://app?vid=13ecd984-3bbf-449a-b4e0-2d024829111b"},"vehicle_type_id":"4","last_reported":1731769704,"current_range_meters":30800,"station_id":"ce4bhm92rcd13ifvqglg","pricing_plan_id":"cebpf4jnsgd1na2vs0mg"},{"bike_id":"ab6dc4ee-6007-4de0-8391-e0c3a471920a","system_id":"levelo_inurba_marseille","lat":43.29612,"lon":5.37713,"is_reserved":false,"is_disabled":false,"rental_uris":{"android":"levelo://app?vid=ab6dc4ee-6007-4de0-8391-e0c3a471920a","ios":"levelo://app?vid=ab6dc4ee-6007-4de0-8391-e0c3a471920a"},"vehicle_type_id":"4","last_reported":1731769704,"current_range_meters":25600,"station_id":"ce4bgi92rcd13ifvqb90","pricing_plan_id":"cebpf4jnsgd1na2vs0mg"},{"bike_id":"d9d8a7d9-cde4-4fab-ab69-fcee8fe6a6da","system_id":"levelo_inurba_marseille","lat":43.250059,"lon":5.389181,"is_reserved":false,"is_disabled":false,"rental_uris":{"android":"levelo://app?vid=d9d8a7d9-cde4-4fab-ab69-fcee8fe6a6da","ios":"levelo://app?vid=d9d8a7d9-cde4-4fab-ab69-fcee8fe6a6da"},"vehicle_type_id":"4","last_reported":1731769704,"current_range_meters":12800,"station_id":"ce4bhgp2rcd13ifvqfd0","pricing_plan_id":"cebpf4jnsgd1na2vs0mg"},{"bike_id":"083dbee0-0e04-4a5e-93ff-4f8789a778b7","system_id":"levelo_inurba_marseille","lat":43.22932,"lon":5.35372,"is_reserved":false,"is_disabled":false,"rental_uris":{"android":"levelo://app?vid=083dbee0-0e04-4a5e-93ff-4f8789a778b7","ios":"levelo://app?vid=083dbee0-0e04-4a5e-93ff-4f8789a778b7"},"vehicle_type_id":"4","last_reported":1731769704,"current_range_meters":36800,"station_id":"cpo3532slgdg3j2ikp40","pricing_plan_id":"cebpf4jnsgd1na2vs0mg"},{"bike_id":"ed182776-36ea-4289-98b9-641ece5d682c","system_id":"levelo_inurba_marseille","lat":43.2926,"lon":5.40895,"is_reserved":false,"is_disabled":false,"rental_uris":{"android":"levelo://app?vid=ed182776-36ea-4289-98b9-641ece5d682c","ios":"levelo://app?vid=ed182776-36ea-4289-98b9-641ece5d682c"},"vehicle_type_id":"4","last_reported":1731769704,"current_range_meters":21600,"station_id":"ce4bh192rcd13ifvqdc0","pricing_plan_id":"cebpf4jnsgd1na2vs0mg"},{"bike_id":"df6ac28b-42fe-42de-92af-df1e117841f5","system_id":"levelo_inurba_marseille","lat":43.28706,"lon":5.374,"is_reserved":false,"is_disabled":false,"rental_uris":{"android":"levelo://app?vid=df6ac28b-42fe-42de-92af-df1e117841f5","ios":"levelo://app?vid=df6ac28b-42fe-42de-92af-df1e117841f5"},"vehicle_type_id":"4","last_reported":1731769704,"current_range_meters":38800,"station_id":"ce4bh3p2rcd13ifvqdq0","pricing_plan_id":"cebpf4jnsgd1na2vs0mg"},{"bike_id":"989df1b8-e24c-4e30-ab4c-2d4be26cfae7","system_id":"levelo_inurba_marseille","lat":43.26558,"lon":5.37281,"is_reserved":false,"is_disabled":false,"rental_uris":{"android":"levelo://app?vid=989df1b8-e24c-4e30-ab4c-2d4be26cfae7","ios":"levelo://app?vid=989df1b8-e24c-4e30-ab4c-2d4be26cfae7"},"vehicle_type_id":"4","last_reported":1731769704,"current_range_meters":12800,"station_id":"ce4bhg12rcd13ifvqf70","pricing_plan_id":"cebpf4jnsgd1na2vs0mg"},{"bike_id":"8f0aaf36-90b7-4b55-a6a7-f08d35ce9174","system_id":"levelo_inurba_marseille","lat":43.29724,"lon":5.37688,"is_reserved":false,"is_disabled":false,"rental_uris":{"android":"levelo://app?vid=8f0aaf36-90b7-4b55-a6a7-f08d35ce9174","ios":"levelo://app?vid=8f0aaf36-90b7-4b55-a6a7-f08d35ce9174"},"vehicle_type_id":"4","last_reported":1731769704,"current_range_meters":38400,"station_id":"ce4bgkh2rcd13ifvqbl0","pricing_plan_id":"cebpf4jnsgd1na2vs0mg"},{"bike_id":"8ea6865b-50c9-45e6-90db-b4978c5fa046","system_id":"levelo_inurba_marseille","lat":43.29304,"lon":5.37176,"is_reserved":false,"is_disabled":false,"rental_uris":{"android":"levelo://app?vid=8ea6865b-50c9-45e6-90db-b4978c5fa046","ios":"levelo://app?vid=8ea6865b-50c9-45e6-90db-b4978c5fa046"},"vehicle_type_id":"4","last_reported":1731769704,"current_range_meters":20400,"station_id":"ce4bgh92rcd13ifvqb40","pricing_plan_id":"cebpf4jnsgd1na2vs0mg"},{"bike_id":"ad44cd89-9976-40b9-9ec8-589c9523e788","system_id":"levelo_inurba_marseille","lat":43.31722,"lon":5.42397,"is_reserved":false,"is_disabled":false,"rental_uris":{"android":"levelo://app?vid=ad44cd89-9976-40b9-9ec8-589c9523e788","ios":"levelo://app?vid=ad44cd89-9976-40b9-9ec8-589c9523e788"},"vehicle_type_id":"4","last_reported":1731769704,"current_range_meters":24800,"station_id":"ce4bhp92rcd13ifvqhbg","pricing_plan_id":"cebpf4jnsgd1na2vs0mg"},{"bike_id":"b82cb4ff-2bb4-40de-9201-ca6bc668a5a5","system_id":"levelo_inurba_marseille","lat":43.32045,"lon":5.41553,"is_reserved":false,"is_disabled":false,"rental_uris":{"android":"levelo://app?vid=b82cb4ff-2bb4-40de-9201-ca6bc668a5a5","ios":"levelo://app?vid=b82cb4ff-2bb4-40de-9201-ca6bc668a5a5"},"vehicle_type_id":"4","last_reported":1731769704,"current_range_meters":22000,"station_id":"ce4bhq92rcd13ifvqhkg","pricing_plan_id":"cebpf4jnsgd1na2vs0mg"},{"bike_id":"7d74aec0-e3fb-4591-9355-da029101da27","system_id":"levelo_inurba_marseille","lat":43.29701,"lon":5.37702,"is_reserved":false,"is_disabled":false,"rental_uris":{"android":"levelo://app?vid=7d74aec0-e3fb-4591-9355-da029101da27","ios":"levelo://app?vid=7d74aec0-e3fb-4591-9355-da029101da27"},"vehicle_type_id":"4","last_reported":1731769704,"current_range_meters":36000,"station_id":"ce4bgkh2rcd13ifvqbl0","pricing_plan_id":"cebpf4jnsgd1na2vs0mg"},{"bike_id":"6b0ea79e-cb12-4a50-9845-e4686b3cacc8","system_id":"levelo_inurba_marseille","lat":43.295751,"lon":5.399791,"is_reserved":false,"is_disabled":false,"rental_uris":{"android":"levelo://app?vid=6b0ea79e-cb12-4a50-9845-e4686b3cacc8","ios":"levelo://app?vid=6b0ea79e-cb12-4a50-9845-e4686b3cacc8"},"vehicle_type_id":"4","last_reported":1731769704,"current_range_meters":14000,"station_id":"","pricing_plan_id":"cebpf4jnsgd1na2vs0mg"},{"bike_id":"dbf56515-7203-46d0-abb7-ff91c68dafcd","system_id":"levelo_inurba_marseille","lat":43.29714,"lon":5.37691,"is_reserved":false,"is_disabled":false,"rental_uris":{"android":"levelo://app?vid=dbf56515-7203-46d0-abb7-ff91c68dafcd","ios":"levelo://app?vid=dbf56515-7203-46d0-abb7-ff91c68dafcd"},"vehicle_type_id":"4","last_reported":1731769704,"current_range_meters":36400,"station_id":"ce4bgkh2rcd13ifvqbl0","pricing_plan_id":"cebpf4jnsgd1na2vs0mg"},{"bike_id":"3ea79c83-40d0-4fdf-b282-850900194226","system_id":"levelo_inurba_marseille","lat":43.30432,"lon":5.38893,"is_reserved":false,"is_disabled":false,"rental_uris":{"android":"levelo://app?vid=3ea79c83-40d0-4fdf-b282-850900194226","ios":"levelo://app?vid=3ea79c83-40d0-4fdf-b282-850900194226"},"vehicle_type_id":"4","last_reported":1731769704,"current_range_meters":4400,"station_id":"ce4bgk12rcd13ifvqbi0","pricing_plan_id":"cebpf4jnsgd1na2vs0mg"},{"bike_id":"72499688-a320-4333-843e-c093213a74e4","system_id":"levelo_inurba_marseille","lat":43.23053,"lon":5.35487,"is_reserved":false,"is_disabled":false,"rental_uris":{"android":"levelo://app?vid=72499688-a320-4333-843e-c093213a74e4","ios":"levelo://app?vid=72499688-a320-4333-843e-c093213a74e4"},"vehicle_type_id":"4","last_reported":1731769704,"current_range_meters":8800,"station_id":"cpo3342slgdg3j2ifvpg","pricing_plan_id":"cebpf4jnsgd1na2vs0mg"},{"bike_id":"95d3c8f0-3e3f-4a64-bcc4-8f1258640641","system_id":"levelo_inurba_marseille","lat":43.2439,"lon":5.37051,"is_reserved":false,"is_disabled":false,"rental_uris":{"android":"levelo://app?vid=95d3c8f0-3e3f-4a64-bcc4-8f1258640641","ios":"levelo://app?vid=95d3c8f0-3e3f-4a64-bcc4-8f1258640641"},"vehicle_type_id":"4","last_reported":1731769704,"current_range_meters":37600,"station_id":"ce4bhhh2rcd13ifvqfk0","pricing_plan_id":"cebpf4jnsgd1na2vs0mg"},{"bike_id":"a5787d64-e0a5-42d7-ad57-539def37c7f7","system_id":"levelo_inurba_marseille","lat":43.28154,"lon":5.42641,"is_reserved":false,"is_disabled":false,"rental_uris":{"android":"levelo://app?vid=a5787d64-e0a5-42d7-ad57-539def37c7f7","ios":"levelo://app?vid=a5787d64-e0a5-42d7-ad57-539def37c7f7"},"vehicle_type_id":"4","last_reported":1731769704,"current_range_meters":6400,"station_id":"ce4bhnh2rcd13ifvqgug","pricing_plan_id":"cebpf4jnsgd1na2vs0mg"},{"bike_id":"0e1d2e7a-8318-45fe-af1b-31857eb1aac8","system_id":"levelo_inurba_marseille","lat":43.23965,"lon":5.36631,"is_reserved":false,"is_disabled":false,"rental_uris":{"android":"levelo://app?vid=0e1d2e7a-8318-45fe-af1b-31857eb1aac8","ios":"levelo://app?vid=0e1d2e7a-8318-45fe-af1b-31857eb1aac8"},"vehicle_type_id":"4","last_reported":1731769704,"current_range_meters":28800,"station_id":"ce4bhi12rcd13ifvqfp0","pricing_plan_id":"cebpf4jnsgd1na2vs0mg"},{"bike_id":"a4811daf-4fd9-4ea6-926a-07392e185a07","system_id":"levelo_inurba_marseille","lat":43.23965,"lon":5.36642,"is_reserved":false,"is_disabled":false,"rental_uris":{"android":"levelo://app?vid=a4811daf-4fd9-4ea6-926a-07392e185a07","ios":"levelo://app?vid=a4811daf-4fd9-4ea6-926a-07392e185a07"},"vehicle_type_id":"4","last_reported":1731769704,"current_range_meters":8400,"station_id":"ce4bhi12rcd13ifvqfp0","pricing_plan_id":"cebpf4jnsgd1na2vs0mg"},{"bike_id":"7c7eea7a-d477-44c5-9f83-7b9d68d4c9e6","system_id":"levelo_inurba_marseille","lat":43.29303,"lon":5.37456,"is_reserved":false,"is_disabled":false,"rental_uris":{"android":"levelo://app?vid=7c7eea7a-d477-44c5-9f83-7b9d68d4c9e6","ios":"levelo://app?vid=7c7eea7a-d477-44c5-9f83-7b9d68d4c9e6"},"vehicle_type_id":"4","last_reported":1731769704,"current_range_meters":7200,"station_id":"ce4bgi12rcd13ifvqb70","pricing_plan_id":"cebpf4jnsgd1na2vs0mg"},{"bike_id":"9755b561-dd8a-4bb5-8c69-4b72c8be9722","system_id":"levelo_inurba_marseille","lat":43.31219,"lon":5.36854,"is_reserved":false,"is_disabled":false,"rental_uris":{"android":"levelo://app?vid=9755b561-dd8a-4bb5-8c69-4b72c8be9722","ios":"levelo://app?vid=9755b561-dd8a-4bb5-8c69-4b72c8be9722"},"vehicle_type_id":"4","last_reported":1731769704,"current_range_meters":12800,"station_id":"ce4bgl92rcd13ifvqbq0","pricing_plan_id":"cebpf4jnsgd1na2vs0mg"},{"bike_id":"da00f42f-fd67-432b-a7b5-07027fd5399a","system_id":"levelo_inurba_marseille","lat":43.29584,"lon":5.37509,"is_reserved":false,"is_disabled":false,"rental_uris":{"android":"levelo://app?vid=da00f42f-fd67-432b-a7b5-07027fd5399a","ios":"levelo://app?vid=da00f42f-fd67-432b-a7b5-07027fd5399a"},"vehicle_type_id":"4","last_reported":1731769704,"current_range_meters":28400,"station_id":"ce4bgh92rcd13ifvqb50","pricing_plan_id":"cebpf4jnsgd1na2vs0mg"},{"bike_id":"ed7c3eda-2721-4b73-9eec-d8f4b50f0a52","system_id":"levelo_inurba_marseille","lat":43.29844,"lon":5.36267,"is_reserved":false,"is_disabled":false,"rental_uris":{"android":"levelo://app?vid=ed7c3eda-2721-4b73-9eec-d8f4b50f0a52","ios":"levelo://app?vid=ed7c3eda-2721-4b73-9eec-d8f4b50f0a52"},"vehicle_type_id":"4","last_reported":1731769704,"current_range_meters":39200,"station_id":"ce4bgpp2rcd13ifvqc3g","pricing_plan_id":"cebpf4jnsgd1na2vs0mg"},{"bike_id":"9285810a-20e7-4d99-a229-aafe61f891bd","system_id":"levelo_inurba_marseille","lat":43.30302,"lon":5.39215,"is_reserved":false,"is_disabled":false,"rental_uris":{"android":"levelo://app?vid=9285810a-20e7-4d99-a229-aafe61f891bd","ios":"levelo://app?vid=9285810a-20e7-4d99-a229-aafe61f891bd"},"vehicle_type_id":"4","last_reported":1731769704,"current_range_meters":22800,"station_id":"ce4bgkh2rcd13ifvqbk0","pricing_plan_id":"cebpf4jnsgd1na2vs0mg"},{"bike_id":"321e6aad-65ac-4aba-a3fa-32f2f9ff7149","system_id":"levelo_inurba_marseille","lat":43.23969,"lon":5.36633,"is_reserved":false,"is_disabled":false,"rental_uris":{"android":"levelo://app?vid=321e6aad-65ac-4aba-a3fa-32f2f9ff7149","ios":"levelo://app?vid=321e6aad-65ac-4aba-a3fa-32f2f9ff7149"},"vehicle_type_id":"4","last_reported":1731769704,"current_range_meters":22800,"station_id":"ce4bhi12rcd13ifvqfp0","pricing_plan_id":"cebpf4jnsgd1na2vs0mg"},{"bike_id":"6875c373-3a3e-464e-8826-15cf173d3295","system_id":"levelo_inurba_marseille","lat":43.24163,"lon":5.36398,"is_reserved":false,"is_disabled":false,"rental_uris":{"android":"levelo://app?vid=6875c373-3a3e-464e-8826-15cf173d3295","ios":"levelo://app?vid=6875c373-3a3e-464e-8826-15cf173d3295"},"vehicle_type_id":"4","last_reported":1731769704,"current_range_meters":37600,"station_id":"cpo36qri1sfpv3e86is0","pricing_plan_id":"cebpf4jnsgd1na2vs0mg"},{"bike_id":"3fcbe528-45e3-439d-80db-ce667e24fe73","system_id":"levelo_inurba_marseille","lat":43.23057,"lon":5.35487,"is_reserved":false,"is_disabled":false,"rental_uris":{"android":"levelo://app?vid=3fcbe528-45e3-439d-80db-ce667e24fe73","ios":"levelo://app?vid=3fcbe528-45e3-439d-80db-ce667e24fe73"},"vehicle_type_id":"4","last_reported":1731769704,"current_range_meters":22000,"station_id":"cpo3342slgdg3j2ifvpg","pricing_plan_id":"cebpf4jnsgd1na2vs0mg"},{"bike_id":"24210425-c533-4193-8405-f2acbe2afb05","system_id":"levelo_inurba_marseille","lat":43.26212,"lon":5.37441,"is_reserved":false,"is_disabled":false,"rental_uris":{"android":"levelo://app?vid=24210425-c533-4193-8405-f2acbe2afb05","ios":"levelo://app?vid=24210425-c533-4193-8405-f2acbe2afb05"},"vehicle_type_id":"4","last_reported":1731769704,"current_range_meters":30000,"station_id":"ce4bhgp2rcd13ifvqfc0","pricing_plan_id":"cebpf4jnsgd1na2vs0mg"},{"bike_id":"b4a11eee-4cdb-41b7-803e-439054ccaa2e","system_id":"levelo_inurba_marseille","lat":43.24665,"lon":5.38156,"is_reserved":false,"is_disabled":false,"rental_uris":{"android":"levelo://app?vid=b4a11eee-4cdb-41b7-803e-439054ccaa2e","ios":"levelo://app?vid=b4a11eee-4cdb-41b7-803e-439054ccaa2e"},"vehicle_type_id":"4","last_reported":1731769704,"current_range_meters":20000,"station_id":"ce4bhih2rcd13ifvqfr0","pricing_plan_id":"cebpf4jnsgd1na2vs0mg"},{"bike_id":"967c7c5c-abb7-492a-b8ea-8667aa6ef059","system_id":"levelo_inurba_marseille","lat":43.29261,"lon":5.40906,"is_reserved":false,"is_disabled":false,"rental_uris":{"android":"levelo://app?vid=967c7c5c-abb7-492a-b8ea-8667aa6ef059","ios":"levelo://app?vid=967c7c5c-abb7-492a-b8ea-8667aa6ef059"},"vehicle_type_id":"4","last_reported":1731769704,"current_range_meters":36800,"station_id":"ce4bh192rcd13ifvqdc0","pricing_plan_id":"cebpf4jnsgd1na2vs0mg"},{"bike_id":"93d2c10d-2e1b-442f-8e24-c26cca547612","system_id":"levelo_inurba_marseille","lat":43.337444,"lon":5.374475,"is_reserved":false,"is_disabled":false,"rental_uris":{"android":"levelo://app?vid=93d2c10d-2e1b-442f-8e24-c26cca547612","ios":"levelo://app?vid=93d2c10d-2e1b-442f-8e24-c26cca547612"},"vehicle_type_id":"4","last_reported":1731769704,"current_range_meters":36400,"station_id":"","pricing_plan_id":"cebpf4jnsgd1na2vs0mg"},{"bike_id":"0c6fdfe8-e591-4bac-9472-d6f7f3173d95","system_id":"levelo_inurba_marseille","lat":43.31361,"lon":5.38503,"is_reserved":false,"is_disabled":false,"rental_uris":{"android":"levelo://app?vid=0c6fdfe8-e591-4bac-9472-d6f7f3173d95","ios":"levelo://app?vid=0c6fdfe8-e591-4bac-9472-d6f7f3173d95"},"vehicle_type_id":"4","last_reported":1731769704,"current_range_meters":30800,"station_id":"ce4bgt92rcd13ifvqcf0","pricing_plan_id":"cebpf4jnsgd1na2vs0mg"},{"bike_id":"6d6a0dde-c067-4493-bad2-5ee0d9b9474d","system_id":"levelo_inurba_marseille","lat":43.29295,"lon":5.37467,"is_reserved":false,"is_disabled":false,"rental_uris":{"android":"levelo://app?vid=6d6a0dde-c067-4493-bad2-5ee0d9b9474d","ios":"levelo://app?vid=6d6a0dde-c067-4493-bad2-5ee0d9b9474d"},"vehicle_type_id":"4","last_reported":1731769704,"current_range_meters":36000,"station_id":"ce4bgi12rcd13ifvqb70","pricing_plan_id":"cebpf4jnsgd1na2vs0mg"},{"bike_id":"651c649a-0856-4f54-bcd5-a8c842fed66f","system_id":"levelo_inurba_marseille","lat":43.25502,"lon":5.37648,"is_reserved":false,"is_disabled":false,"rental_uris":{"android":"levelo://app?vid=651c649a-0856-4f54-bcd5-a8c842fed66f","ios":"levelo://app?vid=651c649a-0856-4f54-bcd5-a8c842fed66f"},"vehicle_type_id":"4","last_reported":1731769704,"current_range_meters":26800,"station_id":"ce4bhh12rcd13ifvqff0","pricing_plan_id":"cebpf4jnsgd1na2vs0mg"},{"bike_id":"847bd1a9-5c9d-4c0d-9cdc-4a5f2dac2b97","system_id":"levelo_inurba_marseille","lat":43.30144,"lon":5.38806,"is_reserved":false,"is_disabled":false,"rental_uris":{"android":"levelo://app?vid=847bd1a9-5c9d-4c0d-9cdc-4a5f2dac2b97","ios":"levelo://app?vid=847bd1a9-5c9d-4c0d-9cdc-4a5f2dac2b97"},"vehicle_type_id":"4","last_reported":1731769704,"current_range_meters":11200,"station_id":"ce4bh292rcd13ifvqdg0","pricing_plan_id":"cebpf4jnsgd1na2vs0mg"},{"bike_id":"c4247ab2-aee7-41d1-af82-29bf978d481e","system_id":"levelo_inurba_marseille","lat":43.30545,"lon":5.36538,"is_reserved":false,"is_disabled":false,"rental_uris":{"android":"levelo://app?vid=c4247ab2-aee7-41d1-af82-29bf978d481e","ios":"levelo://app?vid=c4247ab2-aee7-41d1-af82-29bf978d481e"},"vehicle_type_id":"4","last_reported":1731769704,"current_range_meters":10800,"station_id":"ce4bgs12rcd13ifvqcag","pricing_plan_id":"cebpf4jnsgd1na2vs0mg"},{"bike_id":"2eee95af-178b-460d-be60-f65d71ad9941","system_id":"levelo_inurba_marseille","lat":43.29627,"lon":5.37718,"is_reserved":false,"is_disabled":false,"rental_uris":{"android":"levelo://app?vid=2eee95af-178b-460d-be60-f65d71ad9941","ios":"levelo://app?vid=2eee95af-178b-460d-be60-f65d71ad9941"},"vehicle_type_id":"4","last_reported":1731769704,"current_range_meters":2800,"station_id":"ce4bgi92rcd13ifvqb90","pricing_plan_id":"cebpf4jnsgd1na2vs0mg"},{"bike_id":"42d4c0af-680a-4dbd-8451-bfbe5fd822d8","system_id":"levelo_inurba_marseille","lat":43.30145,"lon":5.37418,"is_reserved":false,"is_disabled":false,"rental_uris":{"android":"levelo://app?vid=42d4c0af-680a-4dbd-8451-bfbe5fd822d8","ios":"levelo://app?vid=42d4c0af-680a-4dbd-8451-bfbe5fd822d8"},"vehicle_type_id":"4","last_reported":1731769704,"current_range_meters":24000,"station_id":"ce4bgs92rcd13ifvqcc0","pricing_plan_id":"cebpf4jnsgd1na2vs0mg"},{"bike_id":"fbf7c11a-9bf8-4f81-a281-188cb9228c62","system_id":"levelo_inurba_marseille","lat":43.23066,"lon":5.35494,"is_reserved":false,"is_disabled":false,"rental_uris":{"android":"levelo://app?vid=fbf7c11a-9bf8-4f81-a281-188cb9228c62","ios":"levelo://app?vid=fbf7c11a-9bf8-4f81-a281-188cb9228c62"},"vehicle_type_id":"4","last_reported":1731769704,"current_range_meters":11200,"station_id":"cpo3342slgdg3j2ifvpg","pricing_plan_id":"cebpf4jnsgd1na2vs0mg"},{"bike_id":"7009e838-9db0-4cac-a3bf-589115505523","system_id":"levelo_inurba_marseille","lat":43.28274,"lon":5.35058,"is_reserved":false,"is_disabled":false,"rental_uris":{"android":"levelo://app?vid=7009e838-9db0-4cac-a3bf-589115505523","ios":"levelo://app?vid=7009e838-9db0-4cac-a3bf-589115505523"},"vehicle_type_id":"4","last_reported":1731769704,"current_range_meters":21600,"station_id":"ce4bhbp2rcd13ifvqerg","pricing_plan_id":"cebpf4jnsgd1na2vs0mg"},{"bike_id":"e274446e-f32a-4464-837f-90a7639c55e2","system_id":"levelo_inurba_marseille","lat":43.24663,"lon":5.38172,"is_reserved":false,"is_disabled":false,"rental_uris":{"android":"levelo://app?vid=e274446e-f32a-4464-837f-90a7639c55e2","ios":"levelo://app?vid=e274446e-f32a-4464-837f-90a7639c55e2"},"vehicle_type_id":"4","last_reported":1731769704,"current_range_meters":16800,"station_id":"ce4bhih2rcd13ifvqfr0","pricing_plan_id":"cebpf4jnsgd1na2vs0mg"},{"bike_id":"980c2b64-5ae6-4e8e-ac4f-88eb697394b6","system_id":"levelo_inurba_marseille","lat":43.25933,"lon":5.40911,"is_reserved":false,"is_disabled":false,"rental_uris":{"android":"levelo://app?vid=980c2b64-5ae6-4e8e-ac4f-88eb697394b6","ios":"levelo://app?vid=980c2b64-5ae6-4e8e-ac4f-88eb697394b6"},"vehicle_type_id":"4","last_reported":1731769704,"current_range_meters":18800,"station_id":"ce4bhm92rcd13ifvqglg","pricing_plan_id":"cebpf4jnsgd1na2vs0mg"},{"bike_id":"0f49df6d-8790-4a7d-ba19-924f1dac4473","system_id":"levelo_inurba_marseille","lat":43.30415,"lon":5.41289,"is_reserved":false,"is_disabled":false,"rental_uris":{"android":"levelo://app?vid=0f49df6d-8790-4a7d-ba19-924f1dac4473","ios":"levelo://app?vid=0f49df6d-8790-4a7d-ba19-924f1dac4473"},"vehicle_type_id":"4","last_reported":1731769704,"current_range_meters":35600,"station_id":"ce4bhop2rcd13ifvqh8g","pricing_plan_id":"cebpf4jnsgd1na2vs0mg"},{"bike_id":"f82da10c-cf42-4d1e-8b05-fcaa6def071f","system_id":"levelo_inurba_marseille","lat":43.29631,"lon":5.37151,"is_reserved":false,"is_disabled":false,"rental_uris":{"android":"levelo://app?vid=f82da10c-cf42-4d1e-8b05-fcaa6def071f","ios":"levelo://app?vid=f82da10c-cf42-4d1e-8b05-fcaa6def071f"},"vehicle_type_id":"4","last_reported":1731769704,"current_range_meters":34000,"station_id":"ce4bgnh2rcd13ifvqc0g","pricing_plan_id":"cebpf4jnsgd1na2vs0mg"},{"bike_id":"9e80fa8f-f0eb-4404-9b0d-a93074af700f","system_id":"levelo_inurba_marseille","lat":43.24172,"lon":5.36397,"is_reserved":false,"is_disabled":false,"rental_uris":{"android":"levelo://app?vid=9e80fa8f-f0eb-4404-9b0d-a93074af700f","ios":"levelo://app?vid=9e80fa8f-f0eb-4404-9b0d-a93074af700f"},"vehicle_type_id":"4","last_reported":1731769704,"current_range_meters":30000,"station_id":"cpo36qri1sfpv3e86is0","pricing_plan_id":"cebpf4jnsgd1na2vs0mg"},{"bike_id":"9614104b-89c9-47e9-a2a1-c2fc3750493b","system_id":"levelo_inurba_marseille","lat":43.31538,"lon":5.38031,"is_reserved":false,"is_disabled":false,"rental_uris":{"android":"levelo://app?vid=9614104b-89c9-47e9-a2a1-c2fc3750493b","ios":"levelo://app?vid=9614104b-89c9-47e9-a2a1-c2fc3750493b"},"vehicle_type_id":"4","last_reported":1731769704,"current_range_meters":38800,"station_id":"ce4bhsp2rcd13ifvqi50","pricing_plan_id":"cebpf4jnsgd1na2vs0mg"},{"bike_id":"7f4ab4fb-3a5e-4281-8884-dbe6fdb0330c","system_id":"levelo_inurba_marseille","lat":43.31492,"lon":5.37308,"is_reserved":false,"is_disabled":false,"rental_uris":{"android":"levelo://app?vid=7f4ab4fb-3a5e-4281-8884-dbe6fdb0330c","ios":"levelo://app?vid=7f4ab4fb-3a5e-4281-8884-dbe6fdb0330c"},"vehicle_type_id":"4","last_reported":1731769704,"current_range_meters":14000,"station_id":"ce4bgt12rcd13ifvqcd0","pricing_plan_id":"cebpf4jnsgd1na2vs0mg"},{"bike_id":"504bc305-8c25-4277-a0b9-18ccf573cb83","system_id":"levelo_inurba_marseille","lat":43.284553,"lon":5.358928,"is_reserved":false,"is_disabled":false,"rental_uris":{"android":"levelo://app?vid=504bc305-8c25-4277-a0b9-18ccf573cb83","ios":"levelo://app?vid=504bc305-8c25-4277-a0b9-18ccf573cb83"},"vehicle_type_id":"4","last_reported":1731769704,"current_range_meters":16000,"station_id":"ce4bhah2rcd13ifvqei0","pricing_plan_id":"cebpf4jnsgd1na2vs0mg"},{"bike_id":"46632805-d598-46ca-8978-4f5e71b702c6","system_id":"levelo_inurba_marseille","lat":43.28156,"lon":5.42636,"is_reserved":false,"is_disabled":false,"rental_uris":{"android":"levelo://app?vid=46632805-d598-46ca-8978-4f5e71b702c6","ios":"levelo://app?vid=46632805-d598-46ca-8978-4f5e71b702c6"},"vehicle_type_id":"4","last_reported":1731769704,"current_range_meters":37600,"station_id":"ce4bhnh2rcd13ifvqgug","pricing_plan_id":"cebpf4jnsgd1na2vs0mg"},{"bike_id":"328b03f6-cb56-40ba-adb9-9b7acac37b5d","system_id":"levelo_inurba_marseille","lat":43.29597,"lon":5.381,"is_reserved":false,"is_disabled":false,"rental_uris":{"android":"levelo://app?vid=328b03f6-cb56-40ba-adb9-9b7acac37b5d","ios":"levelo://app?vid=328b03f6-cb56-40ba-adb9-9b7acac37b5d"},"vehicle_type_id":"4","last_reported":1731769704,"current_range_meters":38800,"station_id":"ce4bgl12rcd13ifvqbo0","pricing_plan_id":"cebpf4jnsgd1na2vs0mg"},{"bike_id":"d9906bd0-44a4-461f-ad8c-6931dca74a9e","system_id":"levelo_inurba_marseille","lat":43.232,"lon":5.35554,"is_reserved":false,"is_disabled":false,"rental_uris":{"android":"levelo://app?vid=d9906bd0-44a4-461f-ad8c-6931dca74a9e","ios":"levelo://app?vid=d9906bd0-44a4-461f-ad8c-6931dca74a9e"},"vehicle_type_id":"4","last_reported":1731769704,"current_range_meters":39200,"station_id":"ce4bhu92rcd13ifvqi70","pricing_plan_id":"cebpf4jnsgd1na2vs0mg"},{"bike_id":"21a1c4df-1b0e-49a3-99b8-dd4ced048ca1","system_id":"levelo_inurba_marseille","lat":43.27311,"lon":5.3909,"is_reserved":false,"is_disabled":false,"rental_uris":{"android":"levelo://app?vid=21a1c4df-1b0e-49a3-99b8-dd4ced048ca1","ios":"levelo://app?vid=21a1c4df-1b0e-49a3-99b8-dd4ced048ca1"},"vehicle_type_id":"4","last_reported":1731769704,"current_range_meters":6000,"station_id":"ce4bhgp2rcd13ifvqfe0","pricing_plan_id":"cebpf4jnsgd1na2vs0mg"},{"bike_id":"2c7da520-bf3f-4579-bbaf-d8bed38515fb","system_id":"levelo_inurba_marseille","lat":43.24656,"lon":5.38898,"is_reserved":false,"is_disabled":false,"rental_uris":{"android":"levelo://app?vid=2c7da520-bf3f-4579-bbaf-d8bed38515fb","ios":"levelo://app?vid=2c7da520-bf3f-4579-bbaf-d8bed38515fb"},"vehicle_type_id":"4","last_reported":1731769704,"current_range_meters":38800,"station_id":"ce4bhg12rcd13ifvqf60","pricing_plan_id":"cebpf4jnsgd1na2vs0mg"},{"bike_id":"cf6f47be-8f34-4b97-b371-f274f7b7a70e","system_id":"levelo_inurba_marseille","lat":43.23967,"lon":5.36627,"is_reserved":false,"is_disabled":false,"rental_uris":{"android":"levelo://app?vid=cf6f47be-8f34-4b97-b371-f274f7b7a70e","ios":"levelo://app?vid=cf6f47be-8f34-4b97-b371-f274f7b7a70e"},"vehicle_type_id":"4","last_reported":1731769704,"current_range_meters":12800,"station_id":"ce4bhi12rcd13ifvqfp0","pricing_plan_id":"cebpf4jnsgd1na2vs0mg"},{"bike_id":"09cb9798-9ffd-4b95-9c1a-c7da8c3efec9","system_id":"levelo_inurba_marseille","lat":43.2707,"lon":5.42278,"is_reserved":false,"is_disabled":false,"rental_uris":{"android":"levelo://app?vid=09cb9798-9ffd-4b95-9c1a-c7da8c3efec9","ios":"levelo://app?vid=09cb9798-9ffd-4b95-9c1a-c7da8c3efec9"},"vehicle_type_id":"4","last_reported":1731769704,"current_range_meters":38800,"station_id":"ce4bhk92rcd13ifvqgb0","pricing_plan_id":"cebpf4jnsgd1na2vs0mg"},{"bike_id":"8a110328-f8e3-486e-8f09-a0a9026ed604","system_id":"levelo_inurba_marseille","lat":43.26683,"lon":5.38272,"is_reserved":false,"is_disabled":false,"rental_uris":{"android":"levelo://app?vid=8a110328-f8e3-486e-8f09-a0a9026ed604","ios":"levelo://app?vid=8a110328-f8e3-486e-8f09-a0a9026ed604"},"vehicle_type_id":"4","last_reported":1731769704,"current_range_meters":12400,"station_id":"ce4bhg92rcd13ifvqf90","pricing_plan_id":"cebpf4jnsgd1na2vs0mg"},{"bike_id":"12867844-fa2a-41b2-8d74-706d4ef15909","system_id":"levelo_inurba_marseille","lat":43.33782,"lon":5.37426,"is_reserved":false,"is_disabled":false,"rental_uris":{"android":"levelo://app?vid=12867844-fa2a-41b2-8d74-706d4ef15909","ios":"levelo://app?vid=12867844-fa2a-41b2-8d74-706d4ef15909"},"vehicle_type_id":"4","last_reported":1731769704,"current_range_meters":38800,"station_id":"","pricing_plan_id":"cebpf4jnsgd1na2vs0mg"},{"bike_id":"069db03c-4a8a-4285-b130-bded008b94ae","system_id":"levelo_inurba_marseille","lat":43.31696,"lon":5.3773,"is_reserved":false,"is_disabled":false,"rental_uris":{"android":"levelo://app?vid=069db03c-4a8a-4285-b130-bded008b94ae","ios":"levelo://app?vid=069db03c-4a8a-4285-b130-bded008b94ae"},"vehicle_type_id":"4","last_reported":1731769704,"current_range_meters":39200,"station_id":"ce4bgth2rcd13ifvqch0","pricing_plan_id":"cebpf4jnsgd1na2vs0mg"},{"bike_id":"c7df644c-1bb2-4c76-a135-c3504f376860","system_id":"levelo_inurba_marseille","lat":43.23201,"lon":5.35549,"is_reserved":false,"is_disabled":false,"rental_uris":{"android":"levelo://app?vid=c7df644c-1bb2-4c76-a135-c3504f376860","ios":"levelo://app?vid=c7df644c-1bb2-4c76-a135-c3504f376860"},"vehicle_type_id":"4","last_reported":1731769704,"current_range_meters":18800,"station_id":"ce4bhu92rcd13ifvqi70","pricing_plan_id":"cebpf4jnsgd1na2vs0mg"},{"bike_id":"d206d41a-8ea1-48b7-8dea-76f005b54e28","system_id":"levelo_inurba_marseille","lat":43.33764,"lon":5.37435,"is_reserved":false,"is_disabled":false,"rental_uris":{"android":"levelo://app?vid=d206d41a-8ea1-48b7-8dea-76f005b54e28","ios":"levelo://app?vid=d206d41a-8ea1-48b7-8dea-76f005b54e28"},"vehicle_type_id":"4","last_reported":1731769704,"current_range_meters":25600,"station_id":"","pricing_plan_id":"cebpf4jnsgd1na2vs0mg"},{"bike_id":"05865d46-22b8-4c30-b862-fe7de7be4f6c","system_id":"levelo_inurba_marseille","lat":43.30535,"lon":5.36553,"is_reserved":false,"is_disabled":false,"rental_uris":{"android":"levelo://app?vid=05865d46-22b8-4c30-b862-fe7de7be4f6c","ios":"levelo://app?vid=05865d46-22b8-4c30-b862-fe7de7be4f6c"},"vehicle_type_id":"4","last_reported":1731769704,"current_range_meters":2800,"station_id":"ce4bgs12rcd13ifvqcag","pricing_plan_id":"cebpf4jnsgd1na2vs0mg"},{"bike_id":"321d2504-7fb8-4709-a3b2-03e3516dc3ef","system_id":"levelo_inurba_marseille","lat":43.26946,"lon":5.40246,"is_reserved":false,"is_disabled":false,"rental_uris":{"android":"levelo://app?vid=321d2504-7fb8-4709-a3b2-03e3516dc3ef","ios":"levelo://app?vid=321d2504-7fb8-4709-a3b2-03e3516dc3ef"},"vehicle_type_id":"4","last_reported":1731769704,"current_range_meters":38800,"station_id":"cjm6bp8fraef2m0cb0m0","pricing_plan_id":"cebpf4jnsgd1na2vs0mg"},{"bike_id":"d910d106-3849-4800-a719-323c327b22d0","system_id":"levelo_inurba_marseille","lat":43.30149,"lon":5.38078,"is_reserved":false,"is_disabled":false,"rental_uris":{"android":"levelo://app?vid=d910d106-3849-4800-a719-323c327b22d0","ios":"levelo://app?vid=d910d106-3849-4800-a719-323c327b22d0"},"vehicle_type_id":"4","last_reported":1731769704,"current_range_meters":29600,"station_id":"ce4bgjp2rcd13ifvqbh0","pricing_plan_id":"cebpf4jnsgd1na2vs0mg"},{"bike_id":"c67dc4ba-fbd9-400f-a77d-80567e83075c","system_id":"levelo_inurba_marseille","lat":43.27906,"lon":5.39581,"is_reserved":false,"is_disabled":false,"rental_uris":{"android":"levelo://app?vid=c67dc4ba-fbd9-400f-a77d-80567e83075c","ios":"levelo://app?vid=c67dc4ba-fbd9-400f-a77d-80567e83075c"},"vehicle_type_id":"4","last_reported":1731769704,"current_range_meters":25600,"station_id":"ce4bhf92rcd13ifvqf40","pricing_plan_id":"cebpf4jnsgd1na2vs0mg"},{"bike_id":"0b293265-3db0-44e5-9847-972efea2efe4","system_id":"levelo_inurba_marseille","lat":43.26213,"lon":5.37446,"is_reserved":false,"is_disabled":false,"rental_uris":{"android":"levelo://app?vid=0b293265-3db0-44e5-9847-972efea2efe4","ios":"levelo://app?vid=0b293265-3db0-44e5-9847-972efea2efe4"},"vehicle_type_id":"4","last_reported":1731769704,"current_range_meters":14000,"station_id":"ce4bhgp2rcd13ifvqfc0","pricing_plan_id":"cebpf4jnsgd1na2vs0mg"},{"bike_id":"9750b0d3-76d3-45ae-83a9-165fea7815cd","system_id":"levelo_inurba_marseille","lat":43.3248,"lon":5.36566,"is_reserved":false,"is_disabled":false,"rental_uris":{"android":"levelo://app?vid=9750b0d3-76d3-45ae-83a9-165fea7815cd","ios":"levelo://app?vid=9750b0d3-76d3-45ae-83a9-165fea7815cd"},"vehicle_type_id":"4","last_reported":1731769704,"current_range_meters":30000,"station_id":"ce4bhs12rcd13ifvqhvg","pricing_plan_id":"cebpf4jnsgd1na2vs0mg"},{"bike_id":"27e02cc8-9eb3-498c-ada6-564c95046d69","system_id":"levelo_inurba_marseille","lat":43.30534,"lon":5.3655,"is_reserved":false,"is_disabled":false,"rental_uris":{"android":"levelo://app?vid=27e02cc8-9eb3-498c-ada6-564c95046d69","ios":"levelo://app?vid=27e02cc8-9eb3-498c-ada6-564c95046d69"},"vehicle_type_id":"4","last_reported":1731769704,"current_range_meters":24800,"station_id":"ce4bgs12rcd13ifvqcag","pricing_plan_id":"cebpf4jnsgd1na2vs0mg"},{"bike_id":"505a295f-ff1f-48dd-aaa7-c188569d323b","system_id":"levelo_inurba_marseille","lat":43.22927,"lon":5.35378,"is_reserved":false,"is_disabled":false,"rental_uris":{"android":"levelo://app?vid=505a295f-ff1f-48dd-aaa7-c188569d323b","ios":"levelo://app?vid=505a295f-ff1f-48dd-aaa7-c188569d323b"},"vehicle_type_id":"4","last_reported":1731769704,"current_range_meters":38800,"station_id":"cpo3532slgdg3j2ikp40","pricing_plan_id":"cebpf4jnsgd1na2vs0mg"},{"bike_id":"ae20ad70-55a2-4272-9823-0de1809006f9","system_id":"levelo_inurba_marseille","lat":43.299622,"lon":5.385126,"is_reserved":false,"is_disabled":false,"rental_uris":{"android":"levelo://app?vid=ae20ad70-55a2-4272-9823-0de1809006f9","ios":"levelo://app?vid=ae20ad70-55a2-4272-9823-0de1809006f9"},"vehicle_type_id":"4","last_reported":1731769704,"current_range_meters":31200,"station_id":"ce4bgj92rcd13ifvqbd0","pricing_plan_id":"cebpf4jnsgd1na2vs0mg"},{"bike_id":"36431332-30c9-4c92-a4d2-20d5845ab51d","system_id":"levelo_inurba_marseille","lat":43.275,"lon":5.42454,"is_reserved":false,"is_disabled":false,"rental_uris":{"android":"levelo://app?vid=36431332-30c9-4c92-a4d2-20d5845ab51d","ios":"levelo://app?vid=36431332-30c9-4c92-a4d2-20d5845ab51d"},"vehicle_type_id":"4","last_reported":1731769704,"current_range_meters":24800,"station_id":"ce4bhn92rcd13ifvqgrg","pricing_plan_id":"cebpf4jnsgd1na2vs0mg"},{"bike_id":"d9dc66f7-a823-40a1-ad05-02355f2665cb","system_id":"levelo_inurba_marseille","lat":43.28152,"lon":5.42639,"is_reserved":false,"is_disabled":false,"rental_uris":{"android":"levelo://app?vid=d9dc66f7-a823-40a1-ad05-02355f2665cb","ios":"levelo://app?vid=d9dc66f7-a823-40a1-ad05-02355f2665cb"},"vehicle_type_id":"4","last_reported":1731769704,"current_range_meters":9200,"station_id":"ce4bhnh2rcd13ifvqgug","pricing_plan_id":"cebpf4jnsgd1na2vs0mg"},{"bike_id":"5930ec6b-f849-4128-994f-c35684fd09e2","system_id":"levelo_inurba_marseille","lat":43.28618,"lon":5.35103,"is_reserved":false,"is_disabled":false,"rental_uris":{"android":"levelo://app?vid=5930ec6b-f849-4128-994f-c35684fd09e2","ios":"levelo://app?vid=5930ec6b-f849-4128-994f-c35684fd09e2"},"vehicle_type_id":"4","last_reported":1731769704,"current_range_meters":13600,"station_id":"ce4bhch2rcd13ifvqeug","pricing_plan_id":"cebpf4jnsgd1na2vs0mg"},{"bike_id":"37d09344-9a97-45e4-95d1-8d8ee38dccd0","system_id":"levelo_inurba_marseille","lat":43.27209,"lon":5.39182,"is_reserved":false,"is_disabled":false,"rental_uris":{"android":"levelo://app?vid=37d09344-9a97-45e4-95d1-8d8ee38dccd0","ios":"levelo://app?vid=37d09344-9a97-45e4-95d1-8d8ee38dccd0"},"vehicle_type_id":"4","last_reported":1731769704,"current_range_meters":38800,"station_id":"ce4bhhp2rcd13ifvqfm0","pricing_plan_id":"cebpf4jnsgd1na2vs0mg"},{"bike_id":"bce218e0-ae30-4251-8a3f-830003784424","system_id":"levelo_inurba_marseille","lat":43.28152,"lon":5.42647,"is_reserved":false,"is_disabled":false,"rental_uris":{"android":"levelo://app?vid=bce218e0-ae30-4251-8a3f-830003784424","ios":"levelo://app?vid=bce218e0-ae30-4251-8a3f-830003784424"},"vehicle_type_id":"4","last_reported":1731769704,"current_range_meters":12800,"station_id":"ce4bhnh2rcd13ifvqgug","pricing_plan_id":"cebpf4jnsgd1na2vs0mg"},{"bike_id":"9d256885-f74a-4bdd-9fc1-fad5baf98559","system_id":"levelo_inurba_marseille","lat":43.27499,"lon":5.42458,"is_reserved":false,"is_disabled":false,"rental_uris":{"android":"levelo://app?vid=9d256885-f74a-4bdd-9fc1-fad5baf98559","ios":"levelo://app?vid=9d256885-f74a-4bdd-9fc1-fad5baf98559"},"vehicle_type_id":"4","last_reported":1731769704,"current_range_meters":17600,"station_id":"ce4bhn92rcd13ifvqgrg","pricing_plan_id":"cebpf4jnsgd1na2vs0mg"},{"bike_id":"f732c7c5-f09a-4b22-8b03-b97294456b54","system_id":"levelo_inurba_marseille","lat":43.28493,"lon":5.38584,"is_reserved":false,"is_disabled":false,"rental_uris":{"android":"levelo://app?vid=f732c7c5-f09a-4b22-8b03-b97294456b54","ios":"levelo://app?vid=f732c7c5-f09a-4b22-8b03-b97294456b54"},"vehicle_type_id":"4","last_reported":1731769704,"current_range_meters":36000,"station_id":"ce4bh8p2rcd13ifvqeb0","pricing_plan_id":"cebpf4jnsgd1na2vs0mg"},{"bike_id":"55dc8c44-74b1-4699-8546-43794da2e27f","system_id":"levelo_inurba_marseille","lat":43.28273,"lon":5.35061,"is_reserved":false,"is_disabled":false,"rental_uris":{"android":"levelo://app?vid=55dc8c44-74b1-4699-8546-43794da2e27f","ios":"levelo://app?vid=55dc8c44-74b1-4699-8546-43794da2e27f"},"vehicle_type_id":"4","last_reported":1731769704,"current_range_meters":6800,"station_id":"ce4bhbp2rcd13ifvqerg","pricing_plan_id":"cebpf4jnsgd1na2vs0mg"},{"bike_id":"3f37f7d7-cfd0-46ff-ad64-e239f9c03c2e","system_id":"levelo_inurba_marseille","lat":43.33016,"lon":5.39046,"is_reserved":false,"is_disabled":false,"rental_uris":{"android":"levelo://app?vid=3f37f7d7-cfd0-46ff-ad64-e239f9c03c2e","ios":"levelo://app?vid=3f37f7d7-cfd0-46ff-ad64-e239f9c03c2e"},"vehicle_type_id":"4","last_reported":1731769704,"current_range_meters":38800,"station_id":"ce4bhr92rcd13ifvqhrg","pricing_plan_id":"cebpf4jnsgd1na2vs0mg"},{"bike_id":"821c2061-f405-47c3-901c-cab0541d9771","system_id":"levelo_inurba_marseille","lat":43.31534,"lon":5.38036,"is_reserved":false,"is_disabled":false,"rental_uris":{"android":"levelo://app?vid=821c2061-f405-47c3-901c-cab0541d9771","ios":"levelo://app?vid=821c2061-f405-47c3-901c-cab0541d9771"},"vehicle_type_id":"4","last_reported":1731769704,"current_range_meters":38000,"station_id":"ce4bhsp2rcd13ifvqi50","pricing_plan_id":"cebpf4jnsgd1na2vs0mg"},{"bike_id":"d6029a07-4312-42af-9590-5c6b5c606e61","system_id":"levelo_inurba_marseille","lat":43.25578,"lon":5.3824,"is_reserved":false,"is_disabled":false,"rental_uris":{"android":"levelo://app?vid=d6029a07-4312-42af-9590-5c6b5c606e61","ios":"levelo://app?vid=d6029a07-4312-42af-9590-5c6b5c606e61"},"vehicle_type_id":"4","last_reported":1731769704,"current_range_meters":37600,"station_id":"ce4bhih2rcd13ifvqfs0","pricing_plan_id":"cebpf4jnsgd1na2vs0mg"},{"bike_id":"8f47ed7e-b810-4ee4-91cc-435a588febd0","system_id":"levelo_inurba_marseille","lat":43.2812,"lon":5.38218,"is_reserved":false,"is_disabled":false,"rental_uris":{"android":"levelo://app?vid=8f47ed7e-b810-4ee4-91cc-435a588febd0","ios":"levelo://app?vid=8f47ed7e-b810-4ee4-91cc-435a588febd0"},"vehicle_type_id":"4","last_reported":1731769704,"current_range_meters":8400,"station_id":"ce4bhh92rcd13ifvqfi0","pricing_plan_id":"cebpf4jnsgd1na2vs0mg"},{"bike_id":"53e59618-188e-4a16-a4e8-d7879053d4d8","system_id":"levelo_inurba_marseille","lat":43.3079,"lon":5.37644,"is_reserved":false,"is_disabled":false,"rental_uris":{"android":"levelo://app?vid=53e59618-188e-4a16-a4e8-d7879053d4d8","ios":"levelo://app?vid=53e59618-188e-4a16-a4e8-d7879053d4d8"},"vehicle_type_id":"4","last_reported":1731769704,"current_range_meters":38000,"station_id":"ce4bgv92rcd13ifvqcq0","pricing_plan_id":"cebpf4jnsgd1na2vs0mg"},{"bike_id":"9fd7a1f3-a23b-430f-a46e-07797ec16f5d","system_id":"levelo_inurba_marseille","lat":43.33723,"lon":5.37453,"is_reserved":false,"is_disabled":false,"rental_uris":{"android":"levelo://app?vid=9fd7a1f3-a23b-430f-a46e-07797ec16f5d","ios":"levelo://app?vid=9fd7a1f3-a23b-430f-a46e-07797ec16f5d"},"vehicle_type_id":"4","last_reported":1731769704,"current_range_meters":37600,"station_id":"","pricing_plan_id":"cebpf4jnsgd1na2vs0mg"},{"bike_id":"59c31e59-ad45-4236-b9a5-e1cc0321b9ff","system_id":"levelo_inurba_marseille","lat":43.22929,"lon":5.35376,"is_reserved":false,"is_disabled":false,"rental_uris":{"android":"levelo://app?vid=59c31e59-ad45-4236-b9a5-e1cc0321b9ff","ios":"levelo://app?vid=59c31e59-ad45-4236-b9a5-e1cc0321b9ff"},"vehicle_type_id":"4","last_reported":1731769704,"current_range_meters":29600,"station_id":"cpo3532slgdg3j2ikp40","pricing_plan_id":"cebpf4jnsgd1na2vs0mg"},{"bike_id":"c832d0fd-c6d5-4c50-8690-1986a6e371f7","system_id":"levelo_inurba_marseille","lat":43.32655,"lon":5.41,"is_reserved":false,"is_disabled":false,"rental_uris":{"android":"levelo://app?vid=c832d0fd-c6d5-4c50-8690-1986a6e371f7","ios":"levelo://app?vid=c832d0fd-c6d5-4c50-8690-1986a6e371f7"},"vehicle_type_id":"4","last_reported":1731769704,"current_range_meters":38800,"station_id":"ce4bhpp2rcd13ifvqhgg","pricing_plan_id":"cebpf4jnsgd1na2vs0mg"},{"bike_id":"420ac8e3-d580-4bcb-8ba4-48738772d9f0","system_id":"levelo_inurba_marseille","lat":43.23061,"lon":5.35491,"is_reserved":false,"is_disabled":false,"rental_uris":{"android":"levelo://app?vid=420ac8e3-d580-4bcb-8ba4-48738772d9f0","ios":"levelo://app?vid=420ac8e3-d580-4bcb-8ba4-48738772d9f0"},"vehicle_type_id":"4","last_reported":1731769704,"current_range_meters":4000,"station_id":"cpo3342slgdg3j2ifvpg","pricing_plan_id":"cebpf4jnsgd1na2vs0mg"},{"bike_id":"1116a7e0-dd34-437c-bf2b-80fd720125b8","system_id":"levelo_inurba_marseille","lat":43.28151,"lon":5.42637,"is_reserved":false,"is_disabled":false,"rental_uris":{"android":"levelo://app?vid=1116a7e0-dd34-437c-bf2b-80fd720125b8","ios":"levelo://app?vid=1116a7e0-dd34-437c-bf2b-80fd720125b8"},"vehicle_type_id":"4","last_reported":1731769704,"current_range_meters":3200,"station_id":"ce4bhnh2rcd13ifvqgug","pricing_plan_id":"cebpf4jnsgd1na2vs0mg"},{"bike_id":"f9dbbd4b-7f8f-4b14-b453-19861e4d3105","system_id":"levelo_inurba_marseille","lat":43.260313,"lon":5.375473,"is_reserved":false,"is_disabled":false,"rental_uris":{"android":"levelo://app?vid=f9dbbd4b-7f8f-4b14-b453-19861e4d3105","ios":"levelo://app?vid=f9dbbd4b-7f8f-4b14-b453-19861e4d3105"},"vehicle_type_id":"4","last_reported":1731769704,"current_range_meters":4000,"station_id":"ce4bhah2rcd13ifvqei0","pricing_plan_id":"cebpf4jnsgd1na2vs0mg"},{"bike_id":"d54f2dfa-2ad2-469a-8720-163ef98eb87d","system_id":"levelo_inurba_marseille","lat":43.25089,"lon":5.39524,"is_reserved":false,"is_disabled":false,"rental_uris":{"android":"levelo://app?vid=d54f2dfa-2ad2-469a-8720-163ef98eb87d","ios":"levelo://app?vid=d54f2dfa-2ad2-469a-8720-163ef98eb87d"},"vehicle_type_id":"4","last_reported":1731769704,"current_range_meters":22800,"station_id":"ce4bhm12rcd13ifvqgkg","pricing_plan_id":"cebpf4jnsgd1na2vs0mg"},{"bike_id":"40ef8929-036f-4b33-96b9-b96ff3a2cfe8","system_id":"levelo_inurba_marseille","lat":43.28666,"lon":5.36361,"is_reserved":false,"is_disabled":false,"rental_uris":{"android":"levelo://app?vid=40ef8929-036f-4b33-96b9-b96ff3a2cfe8","ios":"levelo://app?vid=40ef8929-036f-4b33-96b9-b96ff3a2cfe8"},"vehicle_type_id":"4","last_reported":1731769704,"current_range_meters":38800,"station_id":"ce4bhah2rcd13ifvqej0","pricing_plan_id":"cebpf4jnsgd1na2vs0mg"},{"bike_id":"a07c11e0-b33d-447d-a7d2-08e729917656","system_id":"levelo_inurba_marseille","lat":43.337444,"lon":5.374475,"is_reserved":false,"is_disabled":false,"rental_uris":{"android":"levelo://app?vid=a07c11e0-b33d-447d-a7d2-08e729917656","ios":"levelo://app?vid=a07c11e0-b33d-447d-a7d2-08e729917656"},"vehicle_type_id":"4","last_reported":1731769704,"current_range_meters":16400,"station_id":"ce4bgup2rcd13ifvqcn0","pricing_plan_id":"cebpf4jnsgd1na2vs0mg"},{"bike_id":"d9389eda-084b-4f34-a295-e8256c6d4e48","system_id":"levelo_inurba_marseille","lat":43.31498,"lon":5.41453,"is_reserved":false,"is_disabled":false,"rental_uris":{"android":"levelo://app?vid=d9389eda-084b-4f34-a295-e8256c6d4e48","ios":"levelo://app?vid=d9389eda-084b-4f34-a295-e8256c6d4e48"},"vehicle_type_id":"4","last_reported":1731769704,"current_range_meters":8800,"station_id":"ce4bhp92rcd13ifvqhbg","pricing_plan_id":"cebpf4jnsgd1na2vs0mg"},{"bike_id":"29a90765-585c-4227-9ddc-31b6ddca1503","system_id":"levelo_inurba_marseille","lat":43.23197,"lon":5.35546,"is_reserved":false,"is_disabled":false,"rental_uris":{"android":"levelo://app?vid=29a90765-585c-4227-9ddc-31b6ddca1503","ios":"levelo://app?vid=29a90765-585c-4227-9ddc-31b6ddca1503"},"vehicle_type_id":"4","last_reported":1731769704,"current_range_meters":29600,"station_id":"ce4bhu92rcd13ifvqi70","pricing_plan_id":"cebpf4jnsgd1na2vs0mg"},{"bike_id":"6d757fef-4f26-43f9-ac2c-ffab39bf7dae","system_id":"levelo_inurba_marseille","lat":43.32249,"lon":5.36901,"is_reserved":false,"is_disabled":false,"rental_uris":{"android":"levelo://app?vid=6d757fef-4f26-43f9-ac2c-ffab39bf7dae","ios":"levelo://app?vid=6d757fef-4f26-43f9-ac2c-ffab39bf7dae"},"vehicle_type_id":"4","last_reported":1731769704,"current_range_meters":19200,"station_id":"","pricing_plan_id":"cebpf4jnsgd1na2vs0mg"},{"bike_id":"245625cb-28d3-4546-9a0e-6bee225a6e8b","system_id":"levelo_inurba_marseille","lat":43.29553,"lon":5.42285,"is_reserved":false,"is_disabled":false,"rental_uris":{"android":"levelo://app?vid=245625cb-28d3-4546-9a0e-6bee225a6e8b","ios":"levelo://app?vid=245625cb-28d3-4546-9a0e-6bee225a6e8b"},"vehicle_type_id":"4","last_reported":1731769704,"current_range_meters":38000,"station_id":"ce4bhph2rcd13ifvqhdg","pricing_plan_id":"cebpf4jnsgd1na2vs0mg"},{"bike_id":"f3c8c2c6-a1d6-4356-b40d-a0d5f6b6ff83","system_id":"levelo_inurba_marseille","lat":43.30796,"lon":5.37644,"is_reserved":false,"is_disabled":false,"rental_uris":{"android":"levelo://app?vid=f3c8c2c6-a1d6-4356-b40d-a0d5f6b6ff83","ios":"levelo://app?vid=f3c8c2c6-a1d6-4356-b40d-a0d5f6b6ff83"},"vehicle_type_id":"4","last_reported":1731769704,"current_range_meters":36400,"station_id":"ce4bgv92rcd13ifvqcq0","pricing_plan_id":"cebpf4jnsgd1na2vs0mg"},{"bike_id":"85d6e933-076c-4be2-b466-0826a986282c","system_id":"levelo_inurba_marseille","lat":43.27204,"lon":5.39182,"is_reserved":false,"is_disabled":false,"rental_uris":{"android":"levelo://app?vid=85d6e933-076c-4be2-b466-0826a986282c","ios":"levelo://app?vid=85d6e933-076c-4be2-b466-0826a986282c"},"vehicle_type_id":"4","last_reported":1731769704,"current_range_meters":40000,"station_id":"ce4bhhp2rcd13ifvqfm0","pricing_plan_id":"cebpf4jnsgd1na2vs0mg"},{"bike_id":"0ff88d0a-2e3e-428d-8c80-aae6151d2fc8","system_id":"levelo_inurba_marseille","lat":43.29274,"lon":5.36851,"is_reserved":false,"is_disabled":false,"rental_uris":{"android":"levelo://app?vid=0ff88d0a-2e3e-428d-8c80-aae6151d2fc8","ios":"levelo://app?vid=0ff88d0a-2e3e-428d-8c80-aae6151d2fc8"},"vehicle_type_id":"4","last_reported":1731769704,"current_range_meters":16800,"station_id":"ce4bhbp2rcd13ifvqesg","pricing_plan_id":"cebpf4jnsgd1na2vs0mg"},{"bike_id":"3519c1ae-a02b-41fb-9e15-ac1aa7c33ac9","system_id":"levelo_inurba_marseille","lat":43.29727,"lon":5.37683,"is_reserved":false,"is_disabled":false,"rental_uris":{"android":"levelo://app?vid=3519c1ae-a02b-41fb-9e15-ac1aa7c33ac9","ios":"levelo://app?vid=3519c1ae-a02b-41fb-9e15-ac1aa7c33ac9"},"vehicle_type_id":"4","last_reported":1731769704,"current_range_meters":25600,"station_id":"ce4bgkh2rcd13ifvqbl0","pricing_plan_id":"cebpf4jnsgd1na2vs0mg"},{"bike_id":"e4162426-5ed8-412c-8303-b79ad6cf13de","system_id":"levelo_inurba_marseille","lat":43.28415,"lon":5.34975,"is_reserved":false,"is_disabled":false,"rental_uris":{"android":"levelo://app?vid=e4162426-5ed8-412c-8303-b79ad6cf13de","ios":"levelo://app?vid=e4162426-5ed8-412c-8303-b79ad6cf13de"},"vehicle_type_id":"4","last_reported":1731769704,"current_range_meters":19600,"station_id":"ce4bhbh2rcd13ifvqepg","pricing_plan_id":"cebpf4jnsgd1na2vs0mg"},{"bike_id":"aad4669a-3cee-431b-b28a-1ae7cd9f6df0","system_id":"levelo_inurba_marseille","lat":43.24997,"lon":5.38939,"is_reserved":false,"is_disabled":false,"rental_uris":{"android":"levelo://app?vid=aad4669a-3cee-431b-b28a-1ae7cd9f6df0","ios":"levelo://app?vid=aad4669a-3cee-431b-b28a-1ae7cd9f6df0"},"vehicle_type_id":"4","last_reported":1731769704,"current_range_meters":24400,"station_id":"ce4bhgp2rcd13ifvqfd0","pricing_plan_id":"cebpf4jnsgd1na2vs0mg"},{"bike_id":"d0c09195-d2f2-48f4-8625-a71bb9fbc6d4","system_id":"levelo_inurba_marseille","lat":43.29363,"lon":5.3784,"is_reserved":false,"is_disabled":false,"rental_uris":{"android":"levelo://app?vid=d0c09195-d2f2-48f4-8625-a71bb9fbc6d4","ios":"levelo://app?vid=d0c09195-d2f2-48f4-8625-a71bb9fbc6d4"},"vehicle_type_id":"4","last_reported":1731769704,"current_range_meters":39200,"station_id":"ce4bgjh2rcd13ifvqbf0","pricing_plan_id":"cebpf4jnsgd1na2vs0mg"},{"bike_id":"a9fa445a-60da-4023-968d-175bf9ec69be","system_id":"levelo_inurba_marseille","lat":43.284882,"lon":5.385489,"is_reserved":false,"is_disabled":false,"rental_uris":{"android":"levelo://app?vid=a9fa445a-60da-4023-968d-175bf9ec69be","ios":"levelo://app?vid=a9fa445a-60da-4023-968d-175bf9ec69be"},"vehicle_type_id":"4","last_reported":1731769704,"current_range_meters":12000,"station_id":"ce4bh8p2rcd13ifvqeb0","pricing_plan_id":"cebpf4jnsgd1na2vs0mg"},{"bike_id":"4d26771e-f283-4441-b8fc-61c358a1a1e7","system_id":"levelo_inurba_marseille","lat":43.3248,"lon":5.36574,"is_reserved":false,"is_disabled":false,"rental_uris":{"android":"levelo://app?vid=4d26771e-f283-4441-b8fc-61c358a1a1e7","ios":"levelo://app?vid=4d26771e-f283-4441-b8fc-61c358a1a1e7"},"vehicle_type_id":"4","last_reported":1731769704,"current_range_meters":38800,"station_id":"ce4bhs12rcd13ifvqhvg","pricing_plan_id":"cebpf4jnsgd1na2vs0mg"},{"bike_id":"1cfc2675-9c57-4756-8168-4b8bdeac6c8b","system_id":"levelo_inurba_marseille","lat":43.29935,"lon":5.36538,"is_reserved":false,"is_disabled":false,"rental_uris":{"android":"levelo://app?vid=1cfc2675-9c57-4756-8168-4b8bdeac6c8b","ios":"levelo://app?vid=1cfc2675-9c57-4756-8168-4b8bdeac6c8b"},"vehicle_type_id":"4","last_reported":1731769704,"current_range_meters":29600,"station_id":"ce4bgm92rcd13ifvqbr0","pricing_plan_id":"cebpf4jnsgd1na2vs0mg"},{"bike_id":"7febe010-6cea-4473-a26f-dbcd437683d9","system_id":"levelo_inurba_marseille","lat":43.24668,"lon":5.38153,"is_reserved":false,"is_disabled":false,"rental_uris":{"android":"levelo://app?vid=7febe010-6cea-4473-a26f-dbcd437683d9","ios":"levelo://app?vid=7febe010-6cea-4473-a26f-dbcd437683d9"},"vehicle_type_id":"4","last_reported":1731769704,"current_range_meters":27600,"station_id":"ce4bhih2rcd13ifvqfr0","pricing_plan_id":"cebpf4jnsgd1na2vs0mg"},{"bike_id":"59c83a73-aab2-4819-89a2-d3697497a7c9","system_id":"levelo_inurba_marseille","lat":43.24176,"lon":5.39734,"is_reserved":false,"is_disabled":false,"rental_uris":{"android":"levelo://app?vid=59c83a73-aab2-4819-89a2-d3697497a7c9","ios":"levelo://app?vid=59c83a73-aab2-4819-89a2-d3697497a7c9"},"vehicle_type_id":"4","last_reported":1731769704,"current_range_meters":24000,"station_id":"ce4bhn12rcd13ifvqgpg","pricing_plan_id":"cebpf4jnsgd1na2vs0mg"},{"bike_id":"7add9429-376d-4b29-84fa-470ecb8794ee","system_id":"levelo_inurba_marseille","lat":43.29439,"lon":5.39743,"is_reserved":false,"is_disabled":false,"rental_uris":{"android":"levelo://app?vid=7add9429-376d-4b29-84fa-470ecb8794ee","ios":"levelo://app?vid=7add9429-376d-4b29-84fa-470ecb8794ee"},"vehicle_type_id":"4","last_reported":1731769704,"current_range_meters":18800,"station_id":"ce4bh3h2rcd13ifvqdo0","pricing_plan_id":"cebpf4jnsgd1na2vs0mg"},{"bike_id":"a297ff4c-3fbc-41cf-83d1-b79b258c01d5","system_id":"levelo_inurba_marseille","lat":43.29,"lon":5.35613,"is_reserved":false,"is_disabled":false,"rental_uris":{"android":"levelo://app?vid=a297ff4c-3fbc-41cf-83d1-b79b258c01d5","ios":"levelo://app?vid=a297ff4c-3fbc-41cf-83d1-b79b258c01d5"},"vehicle_type_id":"4","last_reported":1731769704,"current_range_meters":16400,"station_id":"ce4bhb92rcd13ifvqen0","pricing_plan_id":"cebpf4jnsgd1na2vs0mg"},{"bike_id":"b639b13d-aa62-4a52-8552-fa4d018ce8fa","system_id":"levelo_inurba_marseille","lat":43.30568,"lon":5.36695,"is_reserved":false,"is_disabled":false,"rental_uris":{"android":"levelo://app?vid=b639b13d-aa62-4a52-8552-fa4d018ce8fa","ios":"levelo://app?vid=b639b13d-aa62-4a52-8552-fa4d018ce8fa"},"vehicle_type_id":"4","last_reported":1731769704,"current_range_meters":35600,"station_id":"ce4bgrp2rcd13ifvqc9g","pricing_plan_id":"cebpf4jnsgd1na2vs0mg"},{"bike_id":"c76c8b1d-2676-43ac-9d27-2b38030f26af","system_id":"levelo_inurba_marseille","lat":43.27544,"lon":5.40938,"is_reserved":false,"is_disabled":false,"rental_uris":{"android":"levelo://app?vid=c76c8b1d-2676-43ac-9d27-2b38030f26af","ios":"levelo://app?vid=c76c8b1d-2676-43ac-9d27-2b38030f26af"},"vehicle_type_id":"4","last_reported":1731769704,"current_range_meters":26800,"station_id":"","pricing_plan_id":"cebpf4jnsgd1na2vs0mg"},{"bike_id":"a4e8e96c-867e-4521-9861-087b3f6c78bd","system_id":"levelo_inurba_marseille","lat":43.24999,"lon":5.3893,"is_reserved":false,"is_disabled":false,"rental_uris":{"android":"levelo://app?vid=a4e8e96c-867e-4521-9861-087b3f6c78bd","ios":"levelo://app?vid=a4e8e96c-867e-4521-9861-087b3f6c78bd"},"vehicle_type_id":"4","last_reported":1731769704,"current_range_meters":39200,"station_id":"ce4bhgp2rcd13ifvqfd0","pricing_plan_id":"cebpf4jnsgd1na2vs0mg"},{"bike_id":"a84ea10d-2057-4e44-9fea-f7799ba63074","system_id":"levelo_inurba_marseille","lat":43.28935,"lon":5.36634,"is_reserved":false,"is_disabled":false,"rental_uris":{"android":"levelo://app?vid=a84ea10d-2057-4e44-9fea-f7799ba63074","ios":"levelo://app?vid=a84ea10d-2057-4e44-9fea-f7799ba63074"},"vehicle_type_id":"4","last_reported":1731769704,"current_range_meters":30000,"station_id":"ce4bhap2rcd13ifvqek0","pricing_plan_id":"cebpf4jnsgd1na2vs0mg"},{"bike_id":"dcbf46d4-3a96-4091-b51c-f597848c3f90","system_id":"levelo_inurba_marseille","lat":43.27173,"lon":5.40996,"is_reserved":false,"is_disabled":false,"rental_uris":{"android":"levelo://app?vid=dcbf46d4-3a96-4091-b51c-f597848c3f90","ios":"levelo://app?vid=dcbf46d4-3a96-4091-b51c-f597848c3f90"},"vehicle_type_id":"4","last_reported":1731769704,"current_range_meters":28800,"station_id":"ce4bhl12rcd13ifvqgf0","pricing_plan_id":"cebpf4jnsgd1na2vs0mg"},{"bike_id":"3a5aff4e-a656-4184-a612-a7ca89d7bbd1","system_id":"levelo_inurba_marseille","lat":43.27844,"lon":5.3921,"is_reserved":false,"is_disabled":false,"rental_uris":{"android":"levelo://app?vid=3a5aff4e-a656-4184-a612-a7ca89d7bbd1","ios":"levelo://app?vid=3a5aff4e-a656-4184-a612-a7ca89d7bbd1"},"vehicle_type_id":"4","last_reported":1731769704,"current_range_meters":14800,"station_id":"ce4bhjp2rcd13ifvqga0","pricing_plan_id":"cebpf4jnsgd1na2vs0mg"},{"bike_id":"282b5359-0345-4da6-983d-97f3901610e0","system_id":"levelo_inurba_marseille","lat":43.26561,"lon":5.39008,"is_reserved":false,"is_disabled":false,"rental_uris":{"android":"levelo://app?vid=282b5359-0345-4da6-983d-97f3901610e0","ios":"levelo://app?vid=282b5359-0345-4da6-983d-97f3901610e0"},"vehicle_type_id":"4","last_reported":1731769704,"current_range_meters":19200,"station_id":"ce4bhe12rcd13ifvqf30","pricing_plan_id":"cebpf4jnsgd1na2vs0mg"},{"bike_id":"9b99e18b-1cfb-49eb-9130-93a7c80e7907","system_id":"levelo_inurba_marseille","lat":43.250012,"lon":5.389248,"is_reserved":false,"is_disabled":false,"rental_uris":{"android":"levelo://app?vid=9b99e18b-1cfb-49eb-9130-93a7c80e7907","ios":"levelo://app?vid=9b99e18b-1cfb-49eb-9130-93a7c80e7907"},"vehicle_type_id":"4","last_reported":1731769704,"current_range_meters":38800,"station_id":"ce4bhgp2rcd13ifvqfd0","pricing_plan_id":"cebpf4jnsgd1na2vs0mg"},{"bike_id":"26cfe266-52f1-45a2-9ecb-1bc47d8cbe0b","system_id":"levelo_inurba_marseille","lat":43.31084,"lon":5.3835,"is_reserved":false,"is_disabled":false,"rental_uris":{"android":"levelo://app?vid=26cfe266-52f1-45a2-9ecb-1bc47d8cbe0b","ios":"levelo://app?vid=26cfe266-52f1-45a2-9ecb-1bc47d8cbe0b"},"vehicle_type_id":"4","last_reported":1731769704,"current_range_meters":36000,"station_id":"ce4bgv92rcd13ifvqcr0","pricing_plan_id":"cebpf4jnsgd1na2vs0mg"},{"bike_id":"39410325-76d4-4235-b645-201f6859ecaf","system_id":"levelo_inurba_marseille","lat":43.30931,"lon":5.40147,"is_reserved":false,"is_disabled":false,"rental_uris":{"android":"levelo://app?vid=39410325-76d4-4235-b645-201f6859ecaf","ios":"levelo://app?vid=39410325-76d4-4235-b645-201f6859ecaf"},"vehicle_type_id":"4","last_reported":1731769704,"current_range_meters":18800,"station_id":"ce4bgvp2rcd13ifvqct0","pricing_plan_id":"cebpf4jnsgd1na2vs0mg"},{"bike_id":"d39e7b76-ad09-4c44-a432-b6899a10569a","system_id":"levelo_inurba_marseille","lat":43.31344,"lon":5.3671,"is_reserved":false,"is_disabled":false,"rental_uris":{"android":"levelo://app?vid=d39e7b76-ad09-4c44-a432-b6899a10569a","ios":"levelo://app?vid=d39e7b76-ad09-4c44-a432-b6899a10569a"},"vehicle_type_id":"4","last_reported":1731769704,"current_range_meters":12400,"station_id":"ce4bgr92rcd13ifvqc6g","pricing_plan_id":"cebpf4jnsgd1na2vs0mg"},{"bike_id":"5b33257c-568e-4f05-9bb8-6f2d7a0690df","system_id":"levelo_inurba_marseille","lat":43.2319,"lon":5.35564,"is_reserved":false,"is_disabled":false,"rental_uris":{"android":"levelo://app?vid=5b33257c-568e-4f05-9bb8-6f2d7a0690df","ios":"levelo://app?vid=5b33257c-568e-4f05-9bb8-6f2d7a0690df"},"vehicle_type_id":"4","last_reported":1731769704,"current_range_meters":25600,"station_id":"ce4bhu92rcd13ifvqi70","pricing_plan_id":"cebpf4jnsgd1na2vs0mg"},{"bike_id":"7141443c-f47e-427c-99a2-d74c0b8e9dee","system_id":"levelo_inurba_marseille","lat":43.279877,"lon":5.418578,"is_reserved":false,"is_disabled":false,"rental_uris":{"android":"levelo://app?vid=7141443c-f47e-427c-99a2-d74c0b8e9dee","ios":"levelo://app?vid=7141443c-f47e-427c-99a2-d74c0b8e9dee"},"vehicle_type_id":"4","last_reported":1731769704,"current_range_meters":38400,"station_id":"ce4bho12rcd13ifvqh1g","pricing_plan_id":"cebpf4jnsgd1na2vs0mg"},{"bike_id":"c3222b2b-63ca-4136-8d5a-4c1b96b2241f","system_id":"levelo_inurba_marseille","lat":43.31219,"lon":5.36856,"is_reserved":false,"is_disabled":false,"rental_uris":{"android":"levelo://app?vid=c3222b2b-63ca-4136-8d5a-4c1b96b2241f","ios":"levelo://app?vid=c3222b2b-63ca-4136-8d5a-4c1b96b2241f"},"vehicle_type_id":"4","last_reported":1731769704,"current_range_meters":17600,"station_id":"ce4bgl92rcd13ifvqbq0","pricing_plan_id":"cebpf4jnsgd1na2vs0mg"},{"bike_id":"33dbf49e-4139-401b-b3b6-b538a6e0fdd4","system_id":"levelo_inurba_marseille","lat":43.3046,"lon":5.37912,"is_reserved":false,"is_disabled":false,"rental_uris":{"android":"levelo://app?vid=33dbf49e-4139-401b-b3b6-b538a6e0fdd4","ios":"levelo://app?vid=33dbf49e-4139-401b-b3b6-b538a6e0fdd4"},"vehicle_type_id":"4","last_reported":1731769704,"current_range_meters":14400,"station_id":"ce4bgup2rcd13ifvqcn0","pricing_plan_id":"cebpf4jnsgd1na2vs0mg"},{"bike_id":"98ceb0b1-2fe1-4910-b423-26c126c1a808","system_id":"levelo_inurba_marseille","lat":43.30143,"lon":5.38074,"is_reserved":false,"is_disabled":false,"rental_uris":{"android":"levelo://app?vid=98ceb0b1-2fe1-4910-b423-26c126c1a808","ios":"levelo://app?vid=98ceb0b1-2fe1-4910-b423-26c126c1a808"},"vehicle_type_id":"4","last_reported":1731769704,"current_range_meters":16000,"station_id":"ce4bgjp2rcd13ifvqbh0","pricing_plan_id":"cebpf4jnsgd1na2vs0mg"},{"bike_id":"ea7992b1-b9b1-4db6-b30e-f8a949143da5","system_id":"levelo_inurba_marseille","lat":43.29931,"lon":5.37456,"is_reserved":false,"is_disabled":false,"rental_uris":{"android":"levelo://app?vid=ea7992b1-b9b1-4db6-b30e-f8a949143da5","ios":"levelo://app?vid=ea7992b1-b9b1-4db6-b30e-f8a949143da5"},"vehicle_type_id":"4","last_reported":1731769704,"current_range_meters":16000,"station_id":"ce4bgjh2rcd13ifvqbg0","pricing_plan_id":"cebpf4jnsgd1na2vs0mg"},{"bike_id":"759859b2-a463-4911-a3d7-bee890d7af85","system_id":"levelo_inurba_marseille","lat":43.30131,"lon":5.37428,"is_reserved":false,"is_disabled":false,"rental_uris":{"android":"levelo://app?vid=759859b2-a463-4911-a3d7-bee890d7af85","ios":"levelo://app?vid=759859b2-a463-4911-a3d7-bee890d7af85"},"vehicle_type_id":"4","last_reported":1731769704,"current_range_meters":31200,"station_id":"ce4bgs92rcd13ifvqcc0","pricing_plan_id":"cebpf4jnsgd1na2vs0mg"},{"bike_id":"58e16ab3-647c-492d-abad-5c2f5fe6ed1e","system_id":"levelo_inurba_marseille","lat":43.3091,"lon":5.36839,"is_reserved":false,"is_disabled":false,"rental_uris":{"android":"levelo://app?vid=58e16ab3-647c-492d-abad-5c2f5fe6ed1e","ios":"levelo://app?vid=58e16ab3-647c-492d-abad-5c2f5fe6ed1e"},"vehicle_type_id":"4","last_reported":1731769704,"current_range_meters":29600,"station_id":"ce4bgn92rcd13ifvqbvg","pricing_plan_id":"cebpf4jnsgd1na2vs0mg"},{"bike_id":"abe727e0-e4aa-4ca2-aecb-423aab99ca1e","system_id":"levelo_inurba_marseille","lat":43.28932,"lon":5.36632,"is_reserved":false,"is_disabled":false,"rental_uris":{"android":"levelo://app?vid=abe727e0-e4aa-4ca2-aecb-423aab99ca1e","ios":"levelo://app?vid=abe727e0-e4aa-4ca2-aecb-423aab99ca1e"},"vehicle_type_id":"4","last_reported":1731769704,"current_range_meters":36400,"station_id":"ce4bhap2rcd13ifvqek0","pricing_plan_id":"cebpf4jnsgd1na2vs0mg"},{"bike_id":"6684e677-e5fe-4a09-92cd-f3548ea5d35c","system_id":"levelo_inurba_marseille","lat":43.23193,"lon":5.35558,"is_reserved":false,"is_disabled":false,"rental_uris":{"android":"levelo://app?vid=6684e677-e5fe-4a09-92cd-f3548ea5d35c","ios":"levelo://app?vid=6684e677-e5fe-4a09-92cd-f3548ea5d35c"},"vehicle_type_id":"4","last_reported":1731769704,"current_range_meters":34000,"station_id":"ce4bhu92rcd13ifvqi70","pricing_plan_id":"cebpf4jnsgd1na2vs0mg"},{"bike_id":"eb9a84f5-6092-4dc4-a3c0-a07efb437c77","system_id":"levelo_inurba_marseille","lat":43.33771,"lon":5.37429,"is_reserved":false,"is_disabled":false,"rental_uris":{"android":"levelo://app?vid=eb9a84f5-6092-4dc4-a3c0-a07efb437c77","ios":"levelo://app?vid=eb9a84f5-6092-4dc4-a3c0-a07efb437c77"},"vehicle_type_id":"4","last_reported":1731769704,"current_range_meters":12800,"station_id":"","pricing_plan_id":"cebpf4jnsgd1na2vs0mg"},{"bike_id":"f37763c2-8af4-48b7-a466-40c25ae51ed4","system_id":"levelo_inurba_marseille","lat":43.297,"lon":5.37693,"is_reserved":false,"is_disabled":false,"rental_uris":{"android":"levelo://app?vid=f37763c2-8af4-48b7-a466-40c25ae51ed4","ios":"levelo://app?vid=f37763c2-8af4-48b7-a466-40c25ae51ed4"},"vehicle_type_id":"4","last_reported":1731769704,"current_range_meters":29600,"station_id":"ce4bgkh2rcd13ifvqbl0","pricing_plan_id":"cebpf4jnsgd1na2vs0mg"},{"bike_id":"88e141f5-3252-43a2-91c6-10818d62f93d","system_id":"levelo_inurba_marseille","lat":43.295837,"lon":5.375081,"is_reserved":false,"is_disabled":false,"rental_uris":{"android":"levelo://app?vid=88e141f5-3252-43a2-91c6-10818d62f93d","ios":"levelo://app?vid=88e141f5-3252-43a2-91c6-10818d62f93d"},"vehicle_type_id":"4","last_reported":1731769704,"current_range_meters":14000,"station_id":"ce4bgh92rcd13ifvqb50","pricing_plan_id":"cebpf4jnsgd1na2vs0mg"},{"bike_id":"417133a1-2200-4403-9da9-4790bc5cc00a","system_id":"levelo_inurba_marseille","lat":43.24181,"lon":5.39727,"is_reserved":false,"is_disabled":false,"rental_uris":{"android":"levelo://app?vid=417133a1-2200-4403-9da9-4790bc5cc00a","ios":"levelo://app?vid=417133a1-2200-4403-9da9-4790bc5cc00a"},"vehicle_type_id":"4","last_reported":1731769704,"current_range_meters":24000,"station_id":"ce4bhn12rcd13ifvqgpg","pricing_plan_id":"cebpf4jnsgd1na2vs0mg"},{"bike_id":"03fff82a-e494-4645-9dd5-4a513db56fbd","system_id":"levelo_inurba_marseille","lat":43.337444,"lon":5.374475,"is_reserved":false,"is_disabled":false,"rental_uris":{"android":"levelo://app?vid=03fff82a-e494-4645-9dd5-4a513db56fbd","ios":"levelo://app?vid=03fff82a-e494-4645-9dd5-4a513db56fbd"},"vehicle_type_id":"4","last_reported":1731769704,"current_range_meters":35200,"station_id":"","pricing_plan_id":"cebpf4jnsgd1na2vs0mg"},{"bike_id":"22ea48db-755d-43c3-a7d2-0beff01815d8","system_id":"levelo_inurba_marseille","lat":43.33765,"lon":5.37451,"is_reserved":false,"is_disabled":false,"rental_uris":{"android":"levelo://app?vid=22ea48db-755d-43c3-a7d2-0beff01815d8","ios":"levelo://app?vid=22ea48db-755d-43c3-a7d2-0beff01815d8"},"vehicle_type_id":"4","last_reported":1731769704,"current_range_meters":24400,"station_id":"","pricing_plan_id":"cebpf4jnsgd1na2vs0mg"},{"bike_id":"b6a00b16-8696-4392-8f33-8d49d946d3ee","system_id":"levelo_inurba_marseille","lat":43.29583,"lon":5.36741,"is_reserved":false,"is_disabled":false,"rental_uris":{"android":"levelo://app?vid=b6a00b16-8696-4392-8f33-8d49d946d3ee","ios":"levelo://app?vid=b6a00b16-8696-4392-8f33-8d49d946d3ee"},"vehicle_type_id":"4","last_reported":1731769704,"current_range_meters":14400,"station_id":"ce4bgph2rcd13ifvqc2g","pricing_plan_id":"cebpf4jnsgd1na2vs0mg"},{"bike_id":"ef094887-f471-495f-9178-827cc8194c7f","system_id":"levelo_inurba_marseille","lat":43.32481,"lon":5.36568,"is_reserved":false,"is_disabled":false,"rental_uris":{"android":"levelo://app?vid=ef094887-f471-495f-9178-827cc8194c7f","ios":"levelo://app?vid=ef094887-f471-495f-9178-827cc8194c7f"},"vehicle_type_id":"4","last_reported":1731769704,"current_range_meters":18800,"station_id":"ce4bhs12rcd13ifvqhvg","pricing_plan_id":"cebpf4jnsgd1na2vs0mg"},{"bike_id":"be719b89-06e6-43f0-adc8-e075cf3dcab3","system_id":"levelo_inurba_marseille","lat":43.27306,"lon":5.3912,"is_reserved":false,"is_disabled":false,"rental_uris":{"android":"levelo://app?vid=be719b89-06e6-43f0-adc8-e075cf3dcab3","ios":"levelo://app?vid=be719b89-06e6-43f0-adc8-e075cf3dcab3"},"vehicle_type_id":"4","last_reported":1731769704,"current_range_meters":19600,"station_id":"ce4bhgp2rcd13ifvqfe0","pricing_plan_id":"cebpf4jnsgd1na2vs0mg"},{"bike_id":"93d2376b-d24b-4c4a-bf7c-d9d7da5c25f0","system_id":"levelo_inurba_marseille","lat":43.23055,"lon":5.35493,"is_reserved":false,"is_disabled":false,"rental_uris":{"android":"levelo://app?vid=93d2376b-d24b-4c4a-bf7c-d9d7da5c25f0","ios":"levelo://app?vid=93d2376b-d24b-4c4a-bf7c-d9d7da5c25f0"},"vehicle_type_id":"4","last_reported":1731769704,"current_range_meters":15200,"station_id":"cpo3342slgdg3j2ifvpg","pricing_plan_id":"cebpf4jnsgd1na2vs0mg"},{"bike_id":"45156642-b4c8-42eb-82f7-126129e68141","system_id":"levelo_inurba_marseille","lat":43.25937,"lon":5.40905,"is_reserved":false,"is_disabled":false,"rental_uris":{"android":"levelo://app?vid=45156642-b4c8-42eb-82f7-126129e68141","ios":"levelo://app?vid=45156642-b4c8-42eb-82f7-126129e68141"},"vehicle_type_id":"4","last_reported":1731769704,"current_range_meters":24000,"station_id":"ce4bhm92rcd13ifvqglg","pricing_plan_id":"cebpf4jnsgd1na2vs0mg"},{"bike_id":"eb0b6258-25b5-4174-825d-16bccd206154","system_id":"levelo_inurba_marseille","lat":43.33027,"lon":5.39039,"is_reserved":false,"is_disabled":false,"rental_uris":{"android":"levelo://app?vid=eb0b6258-25b5-4174-825d-16bccd206154","ios":"levelo://app?vid=eb0b6258-25b5-4174-825d-16bccd206154"},"vehicle_type_id":"4","last_reported":1731769704,"current_range_meters":9200,"station_id":"ce4bhr92rcd13ifvqhrg","pricing_plan_id":"cebpf4jnsgd1na2vs0mg"},{"bike_id":"ca655f3b-8380-4045-b3f8-8acaa0e83ede","system_id":"levelo_inurba_marseille","lat":43.33739,"lon":5.37423,"is_reserved":false,"is_disabled":false,"rental_uris":{"android":"levelo://app?vid=ca655f3b-8380-4045-b3f8-8acaa0e83ede","ios":"levelo://app?vid=ca655f3b-8380-4045-b3f8-8acaa0e83ede"},"vehicle_type_id":"4","last_reported":1731769704,"current_range_meters":36800,"station_id":"","pricing_plan_id":"cebpf4jnsgd1na2vs0mg"},{"bike_id":"5014fbfa-bad7-4021-9ce1-84cdb1dd00c0","system_id":"levelo_inurba_marseille","lat":43.26555,"lon":5.37288,"is_reserved":false,"is_disabled":false,"rental_uris":{"android":"levelo://app?vid=5014fbfa-bad7-4021-9ce1-84cdb1dd00c0","ios":"levelo://app?vid=5014fbfa-bad7-4021-9ce1-84cdb1dd00c0"},"vehicle_type_id":"4","last_reported":1731769704,"current_range_meters":17200,"station_id":"ce4bhg12rcd13ifvqf70","pricing_plan_id":"cebpf4jnsgd1na2vs0mg"},{"bike_id":"3bec9701-1266-4cd8-9789-f238163e8695","system_id":"levelo_inurba_marseille","lat":43.32482,"lon":5.365618,"is_reserved":false,"is_disabled":false,"rental_uris":{"android":"levelo://app?vid=3bec9701-1266-4cd8-9789-f238163e8695","ios":"levelo://app?vid=3bec9701-1266-4cd8-9789-f238163e8695"},"vehicle_type_id":"4","last_reported":1731769704,"current_range_meters":38800,"station_id":"ce4bhs12rcd13ifvqhvg","pricing_plan_id":"cebpf4jnsgd1na2vs0mg"},{"bike_id":"a6b8c285-acc9-4039-9531-1aae39136a33","system_id":"levelo_inurba_marseille","lat":43.312042,"lon":5.367348,"is_reserved":false,"is_disabled":false,"rental_uris":{"android":"levelo://app?vid=a6b8c285-acc9-4039-9531-1aae39136a33","ios":"levelo://app?vid=a6b8c285-acc9-4039-9531-1aae39136a33"},"vehicle_type_id":"4","last_reported":1731769704,"current_range_meters":14400,"station_id":"","pricing_plan_id":"cebpf4jnsgd1na2vs0mg"},{"bike_id":"9bcfed07-c3a6-4c68-8e2e-1c76df283863","system_id":"levelo_inurba_marseille","lat":43.24682,"lon":5.37383,"is_reserved":false,"is_disabled":false,"rental_uris":{"android":"levelo://app?vid=9bcfed07-c3a6-4c68-8e2e-1c76df283863","ios":"levelo://app?vid=9bcfed07-c3a6-4c68-8e2e-1c76df283863"},"vehicle_type_id":"4","last_reported":1731769704,"current_range_meters":27600,"station_id":"","pricing_plan_id":"cebpf4jnsgd1na2vs0mg"},{"bike_id":"5c254126-8805-4ed8-9520-9f63561143b3","system_id":"levelo_inurba_marseille","lat":43.24167,"lon":5.36401,"is_reserved":false,"is_disabled":false,"rental_uris":{"android":"levelo://app?vid=5c254126-8805-4ed8-9520-9f63561143b3","ios":"levelo://app?vid=5c254126-8805-4ed8-9520-9f63561143b3"},"vehicle_type_id":"4","last_reported":1731769704,"current_range_meters":20400,"station_id":"cpo36qri1sfpv3e86is0","pricing_plan_id":"cebpf4jnsgd1na2vs0mg"},{"bike_id":"737365ce-091c-4b4f-9d07-b1a859d9e356","system_id":"levelo_inurba_marseille","lat":43.32486,"lon":5.36562,"is_reserved":false,"is_disabled":false,"rental_uris":{"android":"levelo://app?vid=737365ce-091c-4b4f-9d07-b1a859d9e356","ios":"levelo://app?vid=737365ce-091c-4b4f-9d07-b1a859d9e356"},"vehicle_type_id":"4","last_reported":1731769704,"current_range_meters":38400,"station_id":"ce4bhs12rcd13ifvqhvg","pricing_plan_id":"cebpf4jnsgd1na2vs0mg"},{"bike_id":"92933c8e-9d72-4bf8-aacb-76b0e3534d7e","system_id":"levelo_inurba_marseille","lat":43.30774,"lon":5.37664,"is_reserved":false,"is_disabled":false,"rental_uris":{"android":"levelo://app?vid=92933c8e-9d72-4bf8-aacb-76b0e3534d7e","ios":"levelo://app?vid=92933c8e-9d72-4bf8-aacb-76b0e3534d7e"},"vehicle_type_id":"4","last_reported":1731769704,"current_range_meters":28000,"station_id":"ce4bgv92rcd13ifvqcq0","pricing_plan_id":"cebpf4jnsgd1na2vs0mg"},{"bike_id":"604467e3-fc88-4613-ad36-1a03d21df4b0","system_id":"levelo_inurba_marseille","lat":43.27065,"lon":5.40257,"is_reserved":false,"is_disabled":false,"rental_uris":{"android":"levelo://app?vid=604467e3-fc88-4613-ad36-1a03d21df4b0","ios":"levelo://app?vid=604467e3-fc88-4613-ad36-1a03d21df4b0"},"vehicle_type_id":"4","last_reported":1731769704,"current_range_meters":33200,"station_id":"ce4bhk92rcd13ifvqgc0","pricing_plan_id":"cebpf4jnsgd1na2vs0mg"},{"bike_id":"4586f926-5d26-4fe3-8180-909c794e3ae3","system_id":"levelo_inurba_marseille","lat":43.30783,"lon":5.37641,"is_reserved":false,"is_disabled":false,"rental_uris":{"android":"levelo://app?vid=4586f926-5d26-4fe3-8180-909c794e3ae3","ios":"levelo://app?vid=4586f926-5d26-4fe3-8180-909c794e3ae3"},"vehicle_type_id":"4","last_reported":1731769704,"current_range_meters":38400,"station_id":"ce4bgv92rcd13ifvqcq0","pricing_plan_id":"cebpf4jnsgd1na2vs0mg"},{"bike_id":"ced08fd6-5351-481f-a722-4e366c1e19f4","system_id":"levelo_inurba_marseille","lat":43.30247,"lon":5.40044,"is_reserved":false,"is_disabled":false,"rental_uris":{"android":"levelo://app?vid=ced08fd6-5351-481f-a722-4e366c1e19f4","ios":"levelo://app?vid=ced08fd6-5351-481f-a722-4e366c1e19f4"},"vehicle_type_id":"4","last_reported":1731769704,"current_range_meters":39200,"station_id":"ce4bgvh2rcd13ifvqcs0","pricing_plan_id":"cebpf4jnsgd1na2vs0mg"},{"bike_id":"1cad4558-4173-48ec-ac78-ac479e4a1c0d","system_id":"levelo_inurba_marseille","lat":43.30428,"lon":5.39737,"is_reserved":false,"is_disabled":false,"rental_uris":{"android":"levelo://app?vid=1cad4558-4173-48ec-ac78-ac479e4a1c0d","ios":"levelo://app?vid=1cad4558-4173-48ec-ac78-ac479e4a1c0d"},"vehicle_type_id":"4","last_reported":1731769704,"current_range_meters":20400,"station_id":"ce4bh092rcd13ifvqd20","pricing_plan_id":"cebpf4jnsgd1na2vs0mg"},{"bike_id":"2e0779ef-7fa1-4250-8077-eab59e6ad57c","system_id":"levelo_inurba_marseille","lat":43.24182,"lon":5.3645,"is_reserved":false,"is_disabled":false,"rental_uris":{"android":"levelo://app?vid=2e0779ef-7fa1-4250-8077-eab59e6ad57c","ios":"levelo://app?vid=2e0779ef-7fa1-4250-8077-eab59e6ad57c"},"vehicle_type_id":"4","last_reported":1731769704,"current_range_meters":6400,"station_id":"cpo36qri1sfpv3e86is0","pricing_plan_id":"cebpf4jnsgd1na2vs0mg"},{"bike_id":"b497c4c1-47c5-46df-89b4-3a0f01d4aeca","system_id":"levelo_inurba_marseille","lat":43.32112,"lon":5.36781,"is_reserved":false,"is_disabled":false,"rental_uris":{"android":"levelo://app?vid=b497c4c1-47c5-46df-89b4-3a0f01d4aeca","ios":"levelo://app?vid=b497c4c1-47c5-46df-89b4-3a0f01d4aeca"},"vehicle_type_id":"4","last_reported":1731769704,"current_range_meters":28400,"station_id":"ce4bhrh2rcd13ifvqhug","pricing_plan_id":"cebpf4jnsgd1na2vs0mg"},{"bike_id":"92ac4858-87d6-4ceb-8f6e-004635a816a8","system_id":"levelo_inurba_marseille","lat":43.27792,"lon":5.40724,"is_reserved":false,"is_disabled":false,"rental_uris":{"android":"levelo://app?vid=92ac4858-87d6-4ceb-8f6e-004635a816a8","ios":"levelo://app?vid=92ac4858-87d6-4ceb-8f6e-004635a816a8"},"vehicle_type_id":"4","last_reported":1731769704,"current_range_meters":30800,"station_id":"ce4bhnh2rcd13ifvqgtg","pricing_plan_id":"cebpf4jnsgd1na2vs0mg"},{"bike_id":"d50b6a68-16ce-4c72-a76f-083060ef9b0b","system_id":"levelo_inurba_marseille","lat":43.30617,"lon":5.37404,"is_reserved":false,"is_disabled":false,"rental_uris":{"android":"levelo://app?vid=d50b6a68-16ce-4c72-a76f-083060ef9b0b","ios":"levelo://app?vid=d50b6a68-16ce-4c72-a76f-083060ef9b0b"},"vehicle_type_id":"4","last_reported":1731769704,"current_range_meters":14400,"station_id":"ce4bgv92rcd13ifvqcq0","pricing_plan_id":"cebpf4jnsgd1na2vs0mg"},{"bike_id":"41b56539-4f7d-46d8-9fa9-3498d0d1f67f","system_id":"levelo_inurba_marseille","lat":43.24171,"lon":5.36402,"is_reserved":false,"is_disabled":false,"rental_uris":{"android":"levelo://app?vid=41b56539-4f7d-46d8-9fa9-3498d0d1f67f","ios":"levelo://app?vid=41b56539-4f7d-46d8-9fa9-3498d0d1f67f"},"vehicle_type_id":"4","last_reported":1731769704,"current_range_meters":19600,"station_id":"cpo36qri1sfpv3e86is0","pricing_plan_id":"cebpf4jnsgd1na2vs0mg"},{"bike_id":"4f072872-5e38-4a4b-9811-1d9e60a837c4","system_id":"levelo_inurba_marseille","lat":43.23072,"lon":5.35495,"is_reserved":false,"is_disabled":false,"rental_uris":{"android":"levelo://app?vid=4f072872-5e38-4a4b-9811-1d9e60a837c4","ios":"levelo://app?vid=4f072872-5e38-4a4b-9811-1d9e60a837c4"},"vehicle_type_id":"4","last_reported":1731769704,"current_range_meters":10800,"station_id":"cpo3342slgdg3j2ifvpg","pricing_plan_id":"cebpf4jnsgd1na2vs0mg"},{"bike_id":"53751755-9a86-4873-ad03-3aba22a44df1","system_id":"levelo_inurba_marseille","lat":43.3014,"lon":5.37413,"is_reserved":false,"is_disabled":false,"rental_uris":{"android":"levelo://app?vid=53751755-9a86-4873-ad03-3aba22a44df1","ios":"levelo://app?vid=53751755-9a86-4873-ad03-3aba22a44df1"},"vehicle_type_id":"4","last_reported":1731769704,"current_range_meters":38800,"station_id":"ce4bgs92rcd13ifvqcc0","pricing_plan_id":"cebpf4jnsgd1na2vs0mg"},{"bike_id":"056e85d8-67f6-480c-a847-90deb6634bc6","system_id":"levelo_inurba_marseille","lat":43.29831,"lon":5.37229,"is_reserved":false,"is_disabled":false,"rental_uris":{"android":"levelo://app?vid=056e85d8-67f6-480c-a847-90deb6634bc6","ios":"levelo://app?vid=056e85d8-67f6-480c-a847-90deb6634bc6"},"vehicle_type_id":"4","last_reported":1731769704,"current_range_meters":38800,"station_id":"ce4bgop2rcd13ifvqc1g","pricing_plan_id":"cebpf4jnsgd1na2vs0mg"},{"bike_id":"e79c1d71-1ce6-4d60-8fff-1fc1acef8ee4","system_id":"levelo_inurba_marseille","lat":43.23959,"lon":5.3663,"is_reserved":false,"is_disabled":false,"rental_uris":{"android":"levelo://app?vid=e79c1d71-1ce6-4d60-8fff-1fc1acef8ee4","ios":"levelo://app?vid=e79c1d71-1ce6-4d60-8fff-1fc1acef8ee4"},"vehicle_type_id":"4","last_reported":1731769704,"current_range_meters":24000,"station_id":"ce4bhi12rcd13ifvqfp0","pricing_plan_id":"cebpf4jnsgd1na2vs0mg"},{"bike_id":"892adb6d-c134-4f63-a947-4eee2b92b71d","system_id":"levelo_inurba_marseille","lat":43.23065,"lon":5.35493,"is_reserved":false,"is_disabled":false,"rental_uris":{"android":"levelo://app?vid=892adb6d-c134-4f63-a947-4eee2b92b71d","ios":"levelo://app?vid=892adb6d-c134-4f63-a947-4eee2b92b71d"},"vehicle_type_id":"4","last_reported":1731769704,"current_range_meters":3600,"station_id":"cpo3342slgdg3j2ifvpg","pricing_plan_id":"cebpf4jnsgd1na2vs0mg"},{"bike_id":"a84f5389-258d-4508-9c0f-32ee5d326b43","system_id":"levelo_inurba_marseille","lat":43.33767,"lon":5.37475,"is_reserved":false,"is_disabled":false,"rental_uris":{"android":"levelo://app?vid=a84f5389-258d-4508-9c0f-32ee5d326b43","ios":"levelo://app?vid=a84f5389-258d-4508-9c0f-32ee5d326b43"},"vehicle_type_id":"4","last_reported":1731769704,"current_range_meters":33600,"station_id":"","pricing_plan_id":"cebpf4jnsgd1na2vs0mg"},{"bike_id":"24420a27-91b5-4a69-bca6-e715ce78c1dc","system_id":"levelo_inurba_marseille","lat":43.246709,"lon":5.381603,"is_reserved":false,"is_disabled":false,"rental_uris":{"android":"levelo://app?vid=24420a27-91b5-4a69-bca6-e715ce78c1dc","ios":"levelo://app?vid=24420a27-91b5-4a69-bca6-e715ce78c1dc"},"vehicle_type_id":"4","last_reported":1731769704,"current_range_meters":27200,"station_id":"ce4bhih2rcd13ifvqfr0","pricing_plan_id":"cebpf4jnsgd1na2vs0mg"},{"bike_id":"25590946-8460-42ec-86f6-416451ad6c0a","system_id":"levelo_inurba_marseille","lat":43.29716,"lon":5.36611,"is_reserved":false,"is_disabled":false,"rental_uris":{"android":"levelo://app?vid=25590946-8460-42ec-86f6-416451ad6c0a","ios":"levelo://app?vid=25590946-8460-42ec-86f6-416451ad6c0a"},"vehicle_type_id":"4","last_reported":1731769704,"current_range_meters":38800,"station_id":"ce4bgn12rcd13ifvqbt0","pricing_plan_id":"cebpf4jnsgd1na2vs0mg"},{"bike_id":"b5ce9235-4ffb-4d40-a9ab-7ab7ce5a79f6","system_id":"levelo_inurba_marseille","lat":43.24813,"lon":5.37465,"is_reserved":false,"is_disabled":false,"rental_uris":{"android":"levelo://app?vid=b5ce9235-4ffb-4d40-a9ab-7ab7ce5a79f6","ios":"levelo://app?vid=b5ce9235-4ffb-4d40-a9ab-7ab7ce5a79f6"},"vehicle_type_id":"4","last_reported":1731769704,"current_range_meters":38800,"station_id":"ce4bhgh2rcd13ifvqfb0","pricing_plan_id":"cebpf4jnsgd1na2vs0mg"},{"bike_id":"1905e423-9623-404a-bf2e-53fad8283f76","system_id":"levelo_inurba_marseille","lat":43.28419,"lon":5.34997,"is_reserved":false,"is_disabled":false,"rental_uris":{"android":"levelo://app?vid=1905e423-9623-404a-bf2e-53fad8283f76","ios":"levelo://app?vid=1905e423-9623-404a-bf2e-53fad8283f76"},"vehicle_type_id":"4","last_reported":1731769704,"current_range_meters":38800,"station_id":"ce4bhbh2rcd13ifvqepg","pricing_plan_id":"cebpf4jnsgd1na2vs0mg"},{"bike_id":"afcb590b-738b-4842-8b0c-f19195f51295","system_id":"levelo_inurba_marseille","lat":43.307994,"lon":5.435293,"is_reserved":false,"is_disabled":false,"rental_uris":{"android":"levelo://app?vid=afcb590b-738b-4842-8b0c-f19195f51295","ios":"levelo://app?vid=afcb590b-738b-4842-8b0c-f19195f51295"},"vehicle_type_id":"4","last_reported":1731769704,"current_range_meters":38800,"station_id":"ce4bhph2rcd13ifvqheg","pricing_plan_id":"cebpf4jnsgd1na2vs0mg"},{"bike_id":"6d6992bf-ade3-4a22-a168-306dafdc4544","system_id":"levelo_inurba_marseille","lat":43.2417,"lon":5.36406,"is_reserved":false,"is_disabled":false,"rental_uris":{"android":"levelo://app?vid=6d6992bf-ade3-4a22-a168-306dafdc4544","ios":"levelo://app?vid=6d6992bf-ade3-4a22-a168-306dafdc4544"},"vehicle_type_id":"4","last_reported":1731769704,"current_range_meters":33200,"station_id":"cpo36qri1sfpv3e86is0","pricing_plan_id":"cebpf4jnsgd1na2vs0mg"},{"bike_id":"4fbc023c-2d87-4b86-af62-95acaf1bfc89","system_id":"levelo_inurba_marseille","lat":43.337444,"lon":5.374475,"is_reserved":false,"is_disabled":false,"rental_uris":{"android":"levelo://app?vid=4fbc023c-2d87-4b86-af62-95acaf1bfc89","ios":"levelo://app?vid=4fbc023c-2d87-4b86-af62-95acaf1bfc89"},"vehicle_type_id":"4","last_reported":1731769704,"current_range_meters":37600,"station_id":"","pricing_plan_id":"cebpf4jnsgd1na2vs0mg"},{"bike_id":"074c6971-4ae7-4906-8673-1607af29a7e1","system_id":"levelo_inurba_marseille","lat":43.2509,"lon":5.39511,"is_reserved":false,"is_disabled":false,"rental_uris":{"android":"levelo://app?vid=074c6971-4ae7-4906-8673-1607af29a7e1","ios":"levelo://app?vid=074c6971-4ae7-4906-8673-1607af29a7e1"},"vehicle_type_id":"4","last_reported":1731769704,"current_range_meters":32800,"station_id":"ce4bhm12rcd13ifvqgkg","pricing_plan_id":"cebpf4jnsgd1na2vs0mg"},{"bike_id":"f83b530c-e5d6-4807-aa61-45c64110e4eb","system_id":"levelo_inurba_marseille","lat":43.299713,"lon":5.38479,"is_reserved":false,"is_disabled":false,"rental_uris":{"android":"levelo://app?vid=f83b530c-e5d6-4807-aa61-45c64110e4eb","ios":"levelo://app?vid=f83b530c-e5d6-4807-aa61-45c64110e4eb"},"vehicle_type_id":"4","last_reported":1731769704,"current_range_meters":8000,"station_id":"ce4bhpp2rcd13ifvqhgg","pricing_plan_id":"cebpf4jnsgd1na2vs0mg"},{"bike_id":"f7612cb9-64e6-456e-b407-47173cb6e342","system_id":"levelo_inurba_marseille","lat":43.28613,"lon":5.37064,"is_reserved":false,"is_disabled":false,"rental_uris":{"android":"levelo://app?vid=f7612cb9-64e6-456e-b407-47173cb6e342","ios":"levelo://app?vid=f7612cb9-64e6-456e-b407-47173cb6e342"},"vehicle_type_id":"4","last_reported":1731769704,"current_range_meters":8000,"station_id":"ce4bht12rcd13ifvqi60","pricing_plan_id":"cebpf4jnsgd1na2vs0mg"},{"bike_id":"a8125d83-cd83-4731-936e-31c99ff92ae7","system_id":"levelo_inurba_marseille","lat":43.297,"lon":5.36597,"is_reserved":false,"is_disabled":false,"rental_uris":{"android":"levelo://app?vid=a8125d83-cd83-4731-936e-31c99ff92ae7","ios":"levelo://app?vid=a8125d83-cd83-4731-936e-31c99ff92ae7"},"vehicle_type_id":"4","last_reported":1731769704,"current_range_meters":8400,"station_id":"ce4bgn12rcd13ifvqbt0","pricing_plan_id":"cebpf4jnsgd1na2vs0mg"},{"bike_id":"ce99c29d-25d3-43f4-80cb-ec44086b7861","system_id":"levelo_inurba_marseille","lat":43.23964,"lon":5.36632,"is_reserved":false,"is_disabled":false,"rental_uris":{"android":"levelo://app?vid=ce99c29d-25d3-43f4-80cb-ec44086b7861","ios":"levelo://app?vid=ce99c29d-25d3-43f4-80cb-ec44086b7861"},"vehicle_type_id":"4","last_reported":1731769704,"current_range_meters":39200,"station_id":"ce4bhi12rcd13ifvqfp0","pricing_plan_id":"cebpf4jnsgd1na2vs0mg"},{"bike_id":"f977d484-43b9-4a08-9f25-946507f2ea63","system_id":"levelo_inurba_marseille","lat":43.31426,"lon":5.37422,"is_reserved":false,"is_disabled":false,"rental_uris":{"android":"levelo://app?vid=f977d484-43b9-4a08-9f25-946507f2ea63","ios":"levelo://app?vid=f977d484-43b9-4a08-9f25-946507f2ea63"},"vehicle_type_id":"4","last_reported":1731769704,"current_range_meters":24400,"station_id":"","pricing_plan_id":"cebpf4jnsgd1na2vs0mg"},{"bike_id":"a0939463-029d-4697-b86e-b6006615d044","system_id":"levelo_inurba_marseille","lat":43.31221,"lon":5.3686,"is_reserved":false,"is_disabled":false,"rental_uris":{"android":"levelo://app?vid=a0939463-029d-4697-b86e-b6006615d044","ios":"levelo://app?vid=a0939463-029d-4697-b86e-b6006615d044"},"vehicle_type_id":"4","last_reported":1731769704,"current_range_meters":6000,"station_id":"ce4bgl92rcd13ifvqbq0","pricing_plan_id":"cebpf4jnsgd1na2vs0mg"},{"bike_id":"70e089d0-d0b0-4a36-ba28-4f51863a6eb9","system_id":"levelo_inurba_marseille","lat":43.23195,"lon":5.355546,"is_reserved":false,"is_disabled":false,"rental_uris":{"android":"levelo://app?vid=70e089d0-d0b0-4a36-ba28-4f51863a6eb9","ios":"levelo://app?vid=70e089d0-d0b0-4a36-ba28-4f51863a6eb9"},"vehicle_type_id":"4","last_reported":1731769704,"current_range_meters":30800,"station_id":"ce4bhu92rcd13ifvqi70","pricing_plan_id":"cebpf4jnsgd1na2vs0mg"},{"bike_id":"131b8274-e09c-4887-b209-57f6e657a225","system_id":"levelo_inurba_marseille","lat":43.29848,"lon":5.38416,"is_reserved":false,"is_disabled":false,"rental_uris":{"android":"levelo://app?vid=131b8274-e09c-4887-b209-57f6e657a225","ios":"levelo://app?vid=131b8274-e09c-4887-b209-57f6e657a225"},"vehicle_type_id":"4","last_reported":1731769704,"current_range_meters":16400,"station_id":"","pricing_plan_id":"cebpf4jnsgd1na2vs0mg"},{"bike_id":"20f256c9-a4c1-486d-83bc-b5fc0afa0d8f","system_id":"levelo_inurba_marseille","lat":43.308031,"lon":5.435244,"is_reserved":false,"is_disabled":false,"rental_uris":{"android":"levelo://app?vid=20f256c9-a4c1-486d-83bc-b5fc0afa0d8f","ios":"levelo://app?vid=20f256c9-a4c1-486d-83bc-b5fc0afa0d8f"},"vehicle_type_id":"4","last_reported":1731769704,"current_range_meters":38800,"station_id":"ce4bhph2rcd13ifvqheg","pricing_plan_id":"cebpf4jnsgd1na2vs0mg"},{"bike_id":"4ee4605c-22f2-4532-b44d-f5fb03fd5142","system_id":"levelo_inurba_marseille","lat":43.30802,"lon":5.43532,"is_reserved":false,"is_disabled":false,"rental_uris":{"android":"levelo://app?vid=4ee4605c-22f2-4532-b44d-f5fb03fd5142","ios":"levelo://app?vid=4ee4605c-22f2-4532-b44d-f5fb03fd5142"},"vehicle_type_id":"4","last_reported":1731769704,"current_range_meters":14800,"station_id":"ce4bhph2rcd13ifvqheg","pricing_plan_id":"cebpf4jnsgd1na2vs0mg"},{"bike_id":"a499e7b6-bbd6-42d6-a25c-5de5863945ea","system_id":"levelo_inurba_marseille","lat":43.32169,"lon":5.413228,"is_reserved":false,"is_disabled":false,"rental_uris":{"android":"levelo://app?vid=a499e7b6-bbd6-42d6-a25c-5de5863945ea","ios":"levelo://app?vid=a499e7b6-bbd6-42d6-a25c-5de5863945ea"},"vehicle_type_id":"4","last_reported":1731769704,"current_range_meters":10000,"station_id":"ce4bhq92rcd13ifvqhkg","pricing_plan_id":"cebpf4jnsgd1na2vs0mg"},{"bike_id":"6a5bc8ae-51eb-4d8b-948f-60f66b496cf9","system_id":"levelo_inurba_marseille","lat":43.29088,"lon":5.38115,"is_reserved":false,"is_disabled":false,"rental_uris":{"android":"levelo://app?vid=6a5bc8ae-51eb-4d8b-948f-60f66b496cf9","ios":"levelo://app?vid=6a5bc8ae-51eb-4d8b-948f-60f66b496cf9"},"vehicle_type_id":"4","last_reported":1731769704,"current_range_meters":30000,"station_id":"ce4bh512rcd13ifvqe2g","pricing_plan_id":"cebpf4jnsgd1na2vs0mg"},{"bike_id":"022f478e-da93-4eda-9d1b-2d0e36905c07","system_id":"levelo_inurba_marseille","lat":43.33771,"lon":5.37433,"is_reserved":false,"is_disabled":false,"rental_uris":{"android":"levelo://app?vid=022f478e-da93-4eda-9d1b-2d0e36905c07","ios":"levelo://app?vid=022f478e-da93-4eda-9d1b-2d0e36905c07"},"vehicle_type_id":"4","last_reported":1731769704,"current_range_meters":16800,"station_id":"","pricing_plan_id":"cebpf4jnsgd1na2vs0mg"},{"bike_id":"facfcc7e-dc4c-4efa-ac1d-de6a6b5b319c","system_id":"levelo_inurba_marseille","lat":43.28467,"lon":5.38428,"is_reserved":false,"is_disabled":false,"rental_uris":{"android":"levelo://app?vid=facfcc7e-dc4c-4efa-ac1d-de6a6b5b319c","ios":"levelo://app?vid=facfcc7e-dc4c-4efa-ac1d-de6a6b5b319c"},"vehicle_type_id":"4","last_reported":1731769704,"current_range_meters":8000,"station_id":"ce4bh512rcd13ifvqe3g","pricing_plan_id":"cebpf4jnsgd1na2vs0mg"},{"bike_id":"3c7108fb-85fe-43b6-95ce-e6a5e6d34b1a","system_id":"levelo_inurba_marseille","lat":43.33722,"lon":5.39186,"is_reserved":false,"is_disabled":false,"rental_uris":{"android":"levelo://app?vid=3c7108fb-85fe-43b6-95ce-e6a5e6d34b1a","ios":"levelo://app?vid=3c7108fb-85fe-43b6-95ce-e6a5e6d34b1a"},"vehicle_type_id":"4","last_reported":1731769704,"current_range_meters":33200,"station_id":"ce4bhr92rcd13ifvqhsg","pricing_plan_id":"cebpf4jnsgd1na2vs0mg"},{"bike_id":"4b0873f4-9247-47fb-8a10-6b36d01fa275","system_id":"levelo_inurba_marseille","lat":43.23054,"lon":5.35491,"is_reserved":false,"is_disabled":false,"rental_uris":{"android":"levelo://app?vid=4b0873f4-9247-47fb-8a10-6b36d01fa275","ios":"levelo://app?vid=4b0873f4-9247-47fb-8a10-6b36d01fa275"},"vehicle_type_id":"4","last_reported":1731769704,"current_range_meters":6000,"station_id":"cpo3342slgdg3j2ifvpg","pricing_plan_id":"cebpf4jnsgd1na2vs0mg"},{"bike_id":"75a34028-90f5-4567-96c2-9428ed95c621","system_id":"levelo_inurba_marseille","lat":43.262,"lon":5.37933,"is_reserved":false,"is_disabled":false,"rental_uris":{"android":"levelo://app?vid=75a34028-90f5-4567-96c2-9428ed95c621","ios":"levelo://app?vid=75a34028-90f5-4567-96c2-9428ed95c621"},"vehicle_type_id":"4","last_reported":1731769704,"current_range_meters":38800,"station_id":"ce4bhjp2rcd13ifvqg90","pricing_plan_id":"cebpf4jnsgd1na2vs0mg"},{"bike_id":"3396d455-6827-4969-a200-57476b823169","system_id":"levelo_inurba_marseille","lat":43.284149,"lon":5.375197,"is_reserved":false,"is_disabled":false,"rental_uris":{"android":"levelo://app?vid=3396d455-6827-4969-a200-57476b823169","ios":"levelo://app?vid=3396d455-6827-4969-a200-57476b823169"},"vehicle_type_id":"4","last_reported":1731769704,"current_range_meters":8400,"station_id":"ce4bh412rcd13ifvqds0","pricing_plan_id":"cebpf4jnsgd1na2vs0mg"},{"bike_id":"3ae3233b-82a4-49e5-9d87-a20cc2426432","system_id":"levelo_inurba_marseille","lat":43.30426,"lon":5.39732,"is_reserved":false,"is_disabled":false,"rental_uris":{"android":"levelo://app?vid=3ae3233b-82a4-49e5-9d87-a20cc2426432","ios":"levelo://app?vid=3ae3233b-82a4-49e5-9d87-a20cc2426432"},"vehicle_type_id":"4","last_reported":1731769704,"current_range_meters":28000,"station_id":"ce4bh092rcd13ifvqd20","pricing_plan_id":"cebpf4jnsgd1na2vs0mg"},{"bike_id":"251d8918-1250-4853-9293-89ee39d3be92","system_id":"levelo_inurba_marseille","lat":43.33022,"lon":5.39038,"is_reserved":false,"is_disabled":false,"rental_uris":{"android":"levelo://app?vid=251d8918-1250-4853-9293-89ee39d3be92","ios":"levelo://app?vid=251d8918-1250-4853-9293-89ee39d3be92"},"vehicle_type_id":"4","last_reported":1731769704,"current_range_meters":36400,"station_id":"ce4bhr92rcd13ifvqhrg","pricing_plan_id":"cebpf4jnsgd1na2vs0mg"},{"bike_id":"809471e3-ec39-4f2b-b271-49c8263623d6","system_id":"levelo_inurba_marseille","lat":43.25005,"lon":5.38929,"is_reserved":false,"is_disabled":false,"rental_uris":{"android":"levelo://app?vid=809471e3-ec39-4f2b-b271-49c8263623d6","ios":"levelo://app?vid=809471e3-ec39-4f2b-b271-49c8263623d6"},"vehicle_type_id":"4","last_reported":1731769704,"current_range_meters":39200,"station_id":"ce4bhgp2rcd13ifvqfd0","pricing_plan_id":"cebpf4jnsgd1na2vs0mg"},{"bike_id":"8831f528-9faa-44dd-ac10-3088567bd1bb","system_id":"levelo_inurba_marseille","lat":43.27051,"lon":5.40266,"is_reserved":false,"is_disabled":false,"rental_uris":{"android":"levelo://app?vid=8831f528-9faa-44dd-ac10-3088567bd1bb","ios":"levelo://app?vid=8831f528-9faa-44dd-ac10-3088567bd1bb"},"vehicle_type_id":"4","last_reported":1731769704,"current_range_meters":25600,"station_id":"ce4bhk92rcd13ifvqgc0","pricing_plan_id":"cebpf4jnsgd1na2vs0mg"},{"bike_id":"274eb5a9-68c1-41af-b4ea-ebaf8519af24","system_id":"levelo_inurba_marseille","lat":43.30781,"lon":5.37649,"is_reserved":false,"is_disabled":false,"rental_uris":{"android":"levelo://app?vid=274eb5a9-68c1-41af-b4ea-ebaf8519af24","ios":"levelo://app?vid=274eb5a9-68c1-41af-b4ea-ebaf8519af24"},"vehicle_type_id":"4","last_reported":1731769704,"current_range_meters":9600,"station_id":"ce4bgv92rcd13ifvqcq0","pricing_plan_id":"cebpf4jnsgd1na2vs0mg"},{"bike_id":"e9f00305-d013-4bf7-a275-1c2350f8b797","system_id":"levelo_inurba_marseille","lat":43.24672,"lon":5.38166,"is_reserved":false,"is_disabled":false,"rental_uris":{"android":"levelo://app?vid=e9f00305-d013-4bf7-a275-1c2350f8b797","ios":"levelo://app?vid=e9f00305-d013-4bf7-a275-1c2350f8b797"},"vehicle_type_id":"4","last_reported":1731769704,"current_range_meters":4800,"station_id":"ce4bhih2rcd13ifvqfr0","pricing_plan_id":"cebpf4jnsgd1na2vs0mg"},{"bike_id":"e05ed463-3534-4fec-bf69-3626d174144e","system_id":"levelo_inurba_marseille","lat":43.29899,"lon":5.43664,"is_reserved":false,"is_disabled":false,"rental_uris":{"android":"levelo://app?vid=e05ed463-3534-4fec-bf69-3626d174144e","ios":"levelo://app?vid=e05ed463-3534-4fec-bf69-3626d174144e"},"vehicle_type_id":"4","last_reported":1731769704,"current_range_meters":6800,"station_id":"ce4bhpp2rcd13ifvqhfg","pricing_plan_id":"cebpf4jnsgd1na2vs0mg"},{"bike_id":"0defbaaf-820c-412e-8e18-87120d39f4b3","system_id":"levelo_inurba_marseille","lat":43.31992,"lon":5.38161,"is_reserved":false,"is_disabled":false,"rental_uris":{"android":"levelo://app?vid=0defbaaf-820c-412e-8e18-87120d39f4b3","ios":"levelo://app?vid=0defbaaf-820c-412e-8e18-87120d39f4b3"},"vehicle_type_id":"4","last_reported":1731769704,"current_range_meters":35600,"station_id":"ce4bhr12rcd13ifvqhpg","pricing_plan_id":"cebpf4jnsgd1na2vs0mg"},{"bike_id":"686ce40f-19c7-4c9d-8226-2742e6f7d974","system_id":"levelo_inurba_marseille","lat":43.26939,"lon":5.40258,"is_reserved":false,"is_disabled":false,"rental_uris":{"android":"levelo://app?vid=686ce40f-19c7-4c9d-8226-2742e6f7d974","ios":"levelo://app?vid=686ce40f-19c7-4c9d-8226-2742e6f7d974"},"vehicle_type_id":"4","last_reported":1731769704,"current_range_meters":36000,"station_id":"cjm6bp8fraef2m0cb0m0","pricing_plan_id":"cebpf4jnsgd1na2vs0mg"},{"bike_id":"a31d59cf-3b0d-4907-83e1-5d905864082a","system_id":"levelo_inurba_marseille","lat":43.30426,"lon":5.39755,"is_reserved":false,"is_disabled":false,"rental_uris":{"android":"levelo://app?vid=a31d59cf-3b0d-4907-83e1-5d905864082a","ios":"levelo://app?vid=a31d59cf-3b0d-4907-83e1-5d905864082a"},"vehicle_type_id":"4","last_reported":1731769704,"current_range_meters":8000,"station_id":"ce4bh092rcd13ifvqd20","pricing_plan_id":"cebpf4jnsgd1na2vs0mg"},{"bike_id":"5cf61122-4769-467d-9f80-d9094f3518b0","system_id":"levelo_inurba_marseille","lat":43.28152,"lon":5.42645,"is_reserved":false,"is_disabled":false,"rental_uris":{"android":"levelo://app?vid=5cf61122-4769-467d-9f80-d9094f3518b0","ios":"levelo://app?vid=5cf61122-4769-467d-9f80-d9094f3518b0"},"vehicle_type_id":"4","last_reported":1731769704,"current_range_meters":24800,"station_id":"ce4bhnh2rcd13ifvqgug","pricing_plan_id":"cebpf4jnsgd1na2vs0mg"},{"bike_id":"2cfc3517-6d1f-4123-9a1a-a93680a2b382","system_id":"levelo_inurba_marseille","lat":43.27493,"lon":5.42448,"is_reserved":false,"is_disabled":false,"rental_uris":{"android":"levelo://app?vid=2cfc3517-6d1f-4123-9a1a-a93680a2b382","ios":"levelo://app?vid=2cfc3517-6d1f-4123-9a1a-a93680a2b382"},"vehicle_type_id":"4","last_reported":1731769704,"current_range_meters":19600,"station_id":"ce4bhn92rcd13ifvqgrg","pricing_plan_id":"cebpf4jnsgd1na2vs0mg"},{"bike_id":"2d58e974-21ef-4c96-9df1-83089d59cf0a","system_id":"levelo_inurba_marseille","lat":43.29796,"lon":5.40399,"is_reserved":false,"is_disabled":false,"rental_uris":{"android":"levelo://app?vid=2d58e974-21ef-4c96-9df1-83089d59cf0a","ios":"levelo://app?vid=2d58e974-21ef-4c96-9df1-83089d59cf0a"},"vehicle_type_id":"4","last_reported":1731769704,"current_range_meters":25200,"station_id":"ce4bh112rcd13ifvqd90","pricing_plan_id":"cebpf4jnsgd1na2vs0mg"},{"bike_id":"a5be79c9-483d-46a9-8fe7-158df0dd0bfc","system_id":"levelo_inurba_marseille","lat":43.29792,"lon":5.40401,"is_reserved":false,"is_disabled":false,"rental_uris":{"android":"levelo://app?vid=a5be79c9-483d-46a9-8fe7-158df0dd0bfc","ios":"levelo://app?vid=a5be79c9-483d-46a9-8fe7-158df0dd0bfc"},"vehicle_type_id":"4","last_reported":1731769704,"current_range_meters":2800,"station_id":"ce4bh112rcd13ifvqd90","pricing_plan_id":"cebpf4jnsgd1na2vs0mg"},{"bike_id":"4a8674ca-a361-473b-a415-d60bafe54a8e","system_id":"levelo_inurba_marseille","lat":43.32365,"lon":5.38883,"is_reserved":false,"is_disabled":false,"rental_uris":{"android":"levelo://app?vid=4a8674ca-a361-473b-a415-d60bafe54a8e","ios":"levelo://app?vid=4a8674ca-a361-473b-a415-d60bafe54a8e"},"vehicle_type_id":"4","last_reported":1731769704,"current_range_meters":26000,"station_id":"ce4bhqp2rcd13ifvqhog","pricing_plan_id":"cebpf4jnsgd1na2vs0mg"},{"bike_id":"fe044a61-f10d-4bd7-84b9-a7a5b6d86113","system_id":"levelo_inurba_marseille","lat":43.30801,"lon":5.43514,"is_reserved":false,"is_disabled":false,"rental_uris":{"android":"levelo://app?vid=fe044a61-f10d-4bd7-84b9-a7a5b6d86113","ios":"levelo://app?vid=fe044a61-f10d-4bd7-84b9-a7a5b6d86113"},"vehicle_type_id":"4","last_reported":1731769704,"current_range_meters":38800,"station_id":"ce4bhph2rcd13ifvqheg","pricing_plan_id":"cebpf4jnsgd1na2vs0mg"},{"bike_id":"08798e06-b0bd-418c-98cb-d6a48877e8ca","system_id":"levelo_inurba_marseille","lat":43.29281,"lon":5.40124,"is_reserved":false,"is_disabled":false,"rental_uris":{"android":"levelo://app?vid=08798e06-b0bd-418c-98cb-d6a48877e8ca","ios":"levelo://app?vid=08798e06-b0bd-418c-98cb-d6a48877e8ca"},"vehicle_type_id":"4","last_reported":1731769704,"current_range_meters":20800,"station_id":"ce4bh312rcd13ifvqdk0","pricing_plan_id":"cebpf4jnsgd1na2vs0mg"},{"bike_id":"77d056f9-3d7b-426a-b8db-5a911d271e6f","system_id":"levelo_inurba_marseille","lat":43.3204,"lon":5.41572,"is_reserved":false,"is_disabled":false,"rental_uris":{"android":"levelo://app?vid=77d056f9-3d7b-426a-b8db-5a911d271e6f","ios":"levelo://app?vid=77d056f9-3d7b-426a-b8db-5a911d271e6f"},"vehicle_type_id":"4","last_reported":1731769704,"current_range_meters":38800,"station_id":"ce4bhq92rcd13ifvqhkg","pricing_plan_id":"cebpf4jnsgd1na2vs0mg"},