{"last_updated":1758730418,"ttl":60,"version":"2.2","data":{"bikes":[{"bike_id":"5e271744-1088-4e4c-b80a-8d0a2a4a0763","system_id":"levelo_inurba_marseille","lat":43.28005,"lon":5.40012,"is_reserved":false,"is_disabled":false,"rental_uris":{"android":"levelo://app?vid=5e271744-1088-4e4c-b80a-8d0a2a4a0763","ios":"levelo://app?vid=5e271744-1088-4e4c-b80a-8d0a2a4a0763"},"vehicle_type_id":"4","last_reported":1758730418,"current_range_meters":2800,"station_id":"ce4bho92rcd13ifvqh4g","pricing_plan_id":"cebpf4jnsgd1na2vs0mg"},{"bike_id":"213937f4-0cd9-48b8-9d64-0b73c37bc721","system_id":"levelo_inurba_marseille","lat":43.29558,"lon":5.38174,"is_reserved":false,"is_disabled":false,"rental_uris":{"android":"levelo://app?vid=213937f4-0cd9-48b8-9d64-0b73c37bc721","ios":"levelo://app?vid=213937f4-0cd9-48b8-9d64-0b73c37bc721"},"vehicle_type_id":"4","last_reported":1758730418,"current_range_meters":2800,"station_id":"","pricing_plan_id":"cebpf4jnsgd1na2vs0mg"},{"bike_id":"0a1ab1a5-b85e-4ac3-936e-fe171b7ebe82","system_id":"levelo_inurba_marseille","lat":43.296295,"lon":5.381289,"is_reserved":false,"is_disabled":false,"rental_uris":{"android":"levelo://app?vid=0a1ab1a5-b85e-4ac3-936e-fe171b7ebe82","ios":"levelo://app?vid=0a1ab1a5-b85e-4ac3-936e-fe171b7ebe82"},"vehicle_type_id":"4","last_reported":1758730418,"current_range_meters":3200,"station_id":"","pricing_plan_id":"cebpf4jnsgd1na2vs0mg"},{"bike_id":"44c50529-fdfe-4219-9928-444006f2ef07","system_id":"levelo_inurba_marseille","lat":43.2511,"lon":5.40323,"is_reserved":false,"is_disabled":false,"rental_uris":{"android":"levelo://app?vid=44c50529-fdfe-4219-9928-444006f2ef07","ios":"levelo://app?vid=44c50529-fdfe-4219-9928-444006f2ef07"},"vehicle_type_id":"4","last_reported":1758730418,"current_range_meters":3200,"station_id":"","pricing_plan_id":"cebpf4jnsgd1na2vs0mg"},{"bike_id":"5cd8d090-a427-41f1-b55f-761130710ec7","system_id":"levelo_inurba_marseille","lat":43.33022,"lon":5.39042,"is_reserved":false,"is_disabled":false,"rental_uris":{"android":"levelo://app?vid=5cd8d090-a427-41f1-b55f-761130710ec7","ios":"levelo://app?vid=5cd8d090-a427-41f1-b55f-761130710ec7"},"vehicle_type_id":"4","last_reported":1758730418,"current_range_meters":3600,"station_id":"ce4bhr92rcd13ifvqhrg","pricing_plan_id":"cebpf4jnsgd1na2vs0mg"},{"bike_id":"bdd87c4c-ce21-482e-9222-78ce72b014c4","system_id":"levelo_inurba_marseille","lat":43.27681,"lon":5.38882,"is_reserved":false,"is_disabled":false,"rental_uris":{"android":"levelo://app?vid=bdd87c4c-ce21-482e-9222-78ce72b014c4","ios":"levelo://app?vid=bdd87c4c-ce21-482e-9222-78ce72b014c4"},"vehicle_type_id":"4","last_reported":1758730418,"current_range_meters":3600,"station_id":"ce4bhi12rcd13ifvqfo0","pricing_plan_id":"cebpf4jnsgd1na2vs0mg"},{"bike_id":"cb6bf7d2-2ed1-47c4-b0a7-9c935f0ebf1a","system_id":"levelo_inurba_marseille","lat":43.26853,"lon":5.40681,"is_reserved":false,"is_disabled":false,"rental_uris":{"android":"levelo://app?vid=cb6bf7d2-2ed1-47c4-b0a7-9c935f0ebf1a","ios":"levelo://app?vid=cb6bf7d2-2ed1-47c4-b0a7-9c935f0ebf1a"},"vehicle_type_id":"4","last_reported":1758730418,"current_range_meters":4000,"station_id":"","pricing_plan_id":"cebpf4jnsgd1na2vs0mg"},{"bike_id":"010efd52-1983-4dfa-b68f-ffee35ab43ec","system_id":"levelo_inurba_marseille","lat":43.27997,"lon":5.41664,"is_reserved":false,"is_disabled":false,"rental_uris":{"android":"levelo://app?vid=010efd52-1983-4dfa-b68f-ffee35ab43ec","ios":"levelo://app?vid=010efd52-1983-4dfa-b68f-ffee35ab43ec"},"vehicle_type_id":"4","last_reported":1758730418,"current_range_meters":4000,"station_id":"ce4bho12rcd13ifvqh1g","pricing_plan_id":"cebpf4jnsgd1na2vs0mg"},{"bike_id":"82304ba4-71d4-444b-a52b-5e234edb762c","system_id":"levelo_inurba_marseille","lat":43.22945,"lon":5.35374,"is_reserved":false,"is_disabled":false,"rental_uris":{"android":"levelo://app?vid=82304ba4-71d4-444b-a52b-5e234edb762c","ios":"levelo://app?vid=82304ba4-71d4-444b-a52b-5e234edb762c"},"vehicle_type_id":"4","last_reported":1758730418,"current_range_meters":4000,"station_id":"","pricing_plan_id":"cebpf4jnsgd1na2vs0mg"},{"bike_id":"d440bebc-f1c6-467e-8174-8877b99c0204","system_id":"levelo_inurba_marseille","lat":43.30143,"lon":5.37419,"is_reserved":false,"is_disabled":false,"rental_uris":{"android":"levelo://app?vid=d440bebc-f1c6-467e-8174-8877b99c0204","ios":"levelo://app?vid=d440bebc-f1c6-467e-8174-8877b99c0204"},"vehicle_type_id":"4","last_reported":1758730418,"current_range_meters":4000,"station_id":"ce4bgs92rcd13ifvqcc0","pricing_plan_id":"cebpf4jnsgd1na2vs0mg"},{"bike_id":"1efddf8d-578f-4e4c-8c3f-e3a8bd592ba4","system_id":"levelo_inurba_marseille","lat":43.299652,"lon":5.373888,"is_reserved":false,"is_disabled":false,"rental_uris":{"android":"levelo://app?vid=1efddf8d-578f-4e4c-8c3f-e3a8bd592ba4","ios":"levelo://app?vid=1efddf8d-578f-4e4c-8c3f-e3a8bd592ba4"},"vehicle_type_id":"4","last_reported":1758730418,"current_range_meters":4400,"station_id":"","pricing_plan_id":"cebpf4jnsgd1na2vs0mg"},{"bike_id":"f838e796-0f72-4ac0-b06e-b70a24fbce86","system_id":"levelo_inurba_marseille","lat":43.25506,"lon":5.37655,"is_reserved":false,"is_disabled":false,"rental_uris":{"android":"levelo://app?vid=f838e796-0f72-4ac0-b06e-b70a24fbce86","ios":"levelo://app?vid=f838e796-0f72-4ac0-b06e-b70a24fbce86"},"vehicle_type_id":"4","last_reported":1758730418,"current_range_meters":4400,"station_id":"ce4bhh12rcd13ifvqff0","pricing_plan_id":"cebpf4jnsgd1na2vs0mg"},{"bike_id":"642c0d83-6a95-4f87-86b9-a4d2853229d9","system_id":"levelo_inurba_marseille","lat":43.29335,"lon":5.40613,"is_reserved":false,"is_disabled":false,"rental_uris":{"android":"levelo://app?vid=642c0d83-6a95-4f87-86b9-a4d2853229d9","ios":"levelo://app?vid=642c0d83-6a95-4f87-86b9-a4d2853229d9"},"vehicle_type_id":"4","last_reported":1758730418,"current_range_meters":4400,"station_id":"","pricing_plan_id":"cebpf4jnsgd1na2vs0mg"},{"bike_id":"3f0b7c43-f039-460c-9f33-3338bf25c677","system_id":"levelo_inurba_marseille","lat":43.29639,"lon":5.406035,"is_reserved":false,"is_disabled":false,"rental_uris":{"android":"levelo://app?vid=3f0b7c43-f039-460c-9f33-3338bf25c677","ios":"levelo://app?vid=3f0b7c43-f039-460c-9f33-3338bf25c677"},"vehicle_type_id":"4","last_reported":1758730418,"current_range_meters":4800,"station_id":"ce4bh0h2rcd13ifvqd60","pricing_plan_id":"cebpf4jnsgd1na2vs0mg"},{"bike_id":"67139f56-e618-471d-9ff2-8252313b14d1","system_id":"levelo_inurba_marseille","lat":43.29003,"lon":5.35608,"is_reserved":false,"is_disabled":false,"rental_uris":{"android":"levelo://app?vid=67139f56-e618-471d-9ff2-8252313b14d1","ios":"levelo://app?vid=67139f56-e618-471d-9ff2-8252313b14d1"},"vehicle_type_id":"4","last_reported":1758730418,"current_range_meters":4800,"station_id":"ce4bhb92rcd13ifvqen0","pricing_plan_id":"cebpf4jnsgd1na2vs0mg"},{"bike_id":"db7c7bf3-6752-4087-a9d1-8ae7c6501a0b","system_id":"levelo_inurba_marseille","lat":43.23195,"lon":5.35549,"is_reserved":false,"is_disabled":false,"rental_uris":{"android":"levelo://app?vid=db7c7bf3-6752-4087-a9d1-8ae7c6501a0b","ios":"levelo://app?vid=db7c7bf3-6752-4087-a9d1-8ae7c6501a0b"},"vehicle_type_id":"4","last_reported":1758730418,"current_range_meters":4800,"station_id":"ce4bhu92rcd13ifvqi70","pricing_plan_id":"cebpf4jnsgd1na2vs0mg"},{"bike_id":"0d34a8e1-2bf7-4cff-b117-e0fc175c3119","system_id":"levelo_inurba_marseille","lat":43.29612,"lon":5.38081,"is_reserved":false,"is_disabled":false,"rental_uris":{"android":"levelo://app?vid=0d34a8e1-2bf7-4cff-b117-e0fc175c3119","ios":"levelo://app?vid=0d34a8e1-2bf7-4cff-b117-e0fc175c3119"},"vehicle_type_id":"4","last_reported":1758730418,"current_range_meters":4800,"station_id":"ce4bgl12rcd13ifvqbo0","pricing_plan_id":"cebpf4jnsgd1na2vs0mg"},{"bike_id":"962b15bf-a341-4469-9450-c0428eb337e2","system_id":"levelo_inurba_marseille","lat":43.231377,"lon":5.437067,"is_reserved":false,"is_disabled":true,"rental_uris":{"android":"levelo://app?vid=962b15bf-a341-4469-9450-c0428eb337e2","ios":"levelo://app?vid=962b15bf-a341-4469-9450-c0428eb337e2"},"vehicle_type_id":"4","last_reported":1758730418,"current_range_meters":5600,"station_id":"ce4bhmp2rcd13ifvqgog","pricing_plan_id":"cebpf4jnsgd1na2vs0mg"},{"bike_id":"e6689cde-cbb7-46a4-90e5-d38b0dc38cc7","system_id":"levelo_inurba_marseille","lat":43.29275,"lon":5.36859,"is_reserved":false,"is_disabled":false,"rental_uris":{"android":"levelo://app?vid=e6689cde-cbb7-46a4-90e5-d38b0dc38cc7","ios":"levelo://app?vid=e6689cde-cbb7-46a4-90e5-d38b0dc38cc7"},"vehicle_type_id":"4","last_reported":1758730418,"current_range_meters":5600,"station_id":"ce4bhbp2rcd13ifvqesg","pricing_plan_id":"cebpf4jnsgd1na2vs0mg"},{"bike_id":"d054aaca-9125-4c2d-8236-ddb2fd1e53b6","system_id":"levelo_inurba_marseille","lat":43.30372,"lon":5.42491,"is_reserved":false,"is_disabled":false,"rental_uris":{"android":"levelo://app?vid=d054aaca-9125-4c2d-8236-ddb2fd1e53b6","ios":"levelo://app?vid=d054aaca-9125-4c2d-8236-ddb2fd1e53b6"},"vehicle_type_id":"4","last_reported":1758730418,"current_range_meters":6000,"station_id":"ce4bhoh2rcd13ifvqh6g","pricing_plan_id":"cebpf4jnsgd1na2vs0mg"},{"bike_id":"9dcba087-dd32-4dd8-b5b3-3f15237dfb5f","system_id":"levelo_inurba_marseille","lat":43.27547,"lon":5.38443,"is_reserved":false,"is_disabled":false,"rental_uris":{"android":"levelo://app?vid=9dcba087-dd32-4dd8-b5b3-3f15237dfb5f","ios":"levelo://app?vid=9dcba087-dd32-4dd8-b5b3-3f15237dfb5f"},"vehicle_type_id":"4","last_reported":1758730418,"current_range_meters":6400,"station_id":"ce4bhh92rcd13ifvqfi0","pricing_plan_id":"cebpf4jnsgd1na2vs0mg"},{"bike_id":"d8ecfa38-8822-4f9f-9018-1a23a125e70c","system_id":"levelo_inurba_marseille","lat":43.30139,"lon":5.3988,"is_reserved":false,"is_disabled":false,"rental_uris":{"android":"levelo://app?vid=d8ecfa38-8822-4f9f-9018-1a23a125e70c","ios":"levelo://app?vid=d8ecfa38-8822-4f9f-9018-1a23a125e70c"},"vehicle_type_id":"4","last_reported":1758730418,"current_range_meters":6400,"station_id":"ce4bh0h2rcd13ifvqd40","pricing_plan_id":"cebpf4jnsgd1na2vs0mg"},{"bike_id":"c95e0c05-dd94-491f-8092-9c7978400114","system_id":"levelo_inurba_marseille","lat":43.33489,"lon":5.36257,"is_reserved":false,"is_disabled":false,"rental_uris":{"android":"levelo://app?vid=c95e0c05-dd94-491f-8092-9c7978400114","ios":"levelo://app?vid=c95e0c05-dd94-491f-8092-9c7978400114"},"vehicle_type_id":"4","last_reported":1758730418,"current_range_meters":6400,"station_id":"ce4bhs12rcd13ifvqhvg","pricing_plan_id":"cebpf4jnsgd1na2vs0mg"},{"bike_id":"939538dc-20bd-4d94-8a10-8e1e0a179bc7","system_id":"levelo_inurba_marseille","lat":43.33678,"lon":5.37833,"is_reserved":false,"is_disabled":false,"rental_uris":{"android":"levelo://app?vid=939538dc-20bd-4d94-8a10-8e1e0a179bc7","ios":"levelo://app?vid=939538dc-20bd-4d94-8a10-8e1e0a179bc7"},"vehicle_type_id":"4","last_reported":1758730418,"current_range_meters":6400,"station_id":"","pricing_plan_id":"cebpf4jnsgd1na2vs0mg"},{"bike_id":"355e741c-878f-4775-9222-3a4d87cf17a7","system_id":"levelo_inurba_marseille","lat":43.24674,"lon":5.38174,"is_reserved":false,"is_disabled":true,"rental_uris":{"android":"levelo://app?vid=355e741c-878f-4775-9222-3a4d87cf17a7","ios":"levelo://app?vid=355e741c-878f-4775-9222-3a4d87cf17a7"},"vehicle_type_id":"4","last_reported":1758730418,"current_range_meters":6400,"station_id":"ce4bhih2rcd13ifvqfr0","pricing_plan_id":"cebpf4jnsgd1na2vs0mg"},{"bike_id":"95db2a0a-4a2c-4275-a5ec-e406b0561dec","system_id":"levelo_inurba_marseille","lat":43.29725,"lon":5.37677,"is_reserved":false,"is_disabled":false,"rental_uris":{"android":"levelo://app?vid=95db2a0a-4a2c-4275-a5ec-e406b0561dec","ios":"levelo://app?vid=95db2a0a-4a2c-4275-a5ec-e406b0561dec"},"vehicle_type_id":"4","last_reported":1758730418,"current_range_meters":6400,"station_id":"ce4bgkh2rcd13ifvqbl0","pricing_plan_id":"cebpf4jnsgd1na2vs0mg"},{"bike_id":"92155e63-bc25-4767-91c3-06d9005618ff","system_id":"levelo_inurba_marseille","lat":43.269779,"lon":5.421788,"is_reserved":false,"is_disabled":false,"rental_uris":{"android":"levelo://app?vid=92155e63-bc25-4767-91c3-06d9005618ff","ios":"levelo://app?vid=92155e63-bc25-4767-91c3-06d9005618ff"},"vehicle_type_id":"4","last_reported":1758730418,"current_range_meters":6800,"station_id":"ce4bhk92rcd13ifvqgb0","pricing_plan_id":"cebpf4jnsgd1na2vs0mg"},{"bike_id":"3dd28c66-32bb-4061-8c8b-6ad3e70361d8","system_id":"levelo_inurba_marseille","lat":43.295328,"lon":5.38544,"is_reserved":false,"is_disabled":false,"rental_uris":{"android":"levelo://app?vid=3dd28c66-32bb-4061-8c8b-6ad3e70361d8","ios":"levelo://app?vid=3dd28c66-32bb-4061-8c8b-6ad3e70361d8"},"vehicle_type_id":"4","last_reported":1758730418,"current_range_meters":6800,"station_id":"ce4bgih2rcd13ifvqba0","pricing_plan_id":"cebpf4jnsgd1na2vs0mg"},{"bike_id":"0999a6e2-2da6-4471-bd35-687c482a8242","system_id":"levelo_inurba_marseille","lat":43.254934,"lon":5.376476,"is_reserved":false,"is_disabled":false,"rental_uris":{"android":"levelo://app?vid=0999a6e2-2da6-4471-bd35-687c482a8242","ios":"levelo://app?vid=0999a6e2-2da6-4471-bd35-687c482a8242"},"vehicle_type_id":"4","last_reported":1758730418,"current_range_meters":6800,"station_id":"ce4bhh12rcd13ifvqff0","pricing_plan_id":"cebpf4jnsgd1na2vs0mg"},{"bike_id":"5f3c3ae0-96bf-43e3-b79b-e052640c17a5","system_id":"levelo_inurba_marseille","lat":43.27951,"lon":5.4104,"is_reserved":false,"is_disabled":false,"rental_uris":{"android":"levelo://app?vid=5f3c3ae0-96bf-43e3-b79b-e052640c17a5","ios":"levelo://app?vid=5f3c3ae0-96bf-43e3-b79b-e052640c17a5"},"vehicle_type_id":"4","last_reported":1758730418,"current_range_meters":7200,"station_id":"ce4bhnp2rcd13ifvqh0g","pricing_plan_id":"cebpf4jnsgd1na2vs0mg"},{"bike_id":"479a6d81-8251-4852-8189-2911303f32a7","system_id":"levelo_inurba_marseille","lat":43.27173,"lon":5.40993,"is_reserved":false,"is_disabled":false,"rental_uris":{"android":"levelo://app?vid=479a6d81-8251-4852-8189-2911303f32a7","ios":"levelo://app?vid=479a6d81-8251-4852-8189-2911303f32a7"},"vehicle_type_id":"4","last_reported":1758730418,"current_range_meters":7200,"station_id":"ce4bhl12rcd13ifvqgf0","pricing_plan_id":"cebpf4jnsgd1na2vs0mg"},{"bike_id":"cc712d3c-f9a2-4a52-83e5-c65200bdd3e0","system_id":"levelo_inurba_marseille","lat":43.230702,"lon":5.354892,"is_reserved":false,"is_disabled":false,"rental_uris":{"android":"levelo://app?vid=cc712d3c-f9a2-4a52-83e5-c65200bdd3e0","ios":"levelo://app?vid=cc712d3c-f9a2-4a52-83e5-c65200bdd3e0"},"vehicle_type_id":"4","last_reported":1758730418,"current_range_meters":7200,"station_id":"cpo3342slgdg3j2ifvpg","pricing_plan_id":"cebpf4jnsgd1na2vs0mg"},{"bike_id":"f2be7b74-a583-45c7-ac8c-fead22a9c616","system_id":"levelo_inurba_marseille","lat":43.2981,"lon":5.38091,"is_reserved":false,"is_disabled":false,"rental_uris":{"android":"levelo://app?vid=f2be7b74-a583-45c7-ac8c-fead22a9c616","ios":"levelo://app?vid=f2be7b74-a583-45c7-ac8c-fead22a9c616"},"vehicle_type_id":"4","last_reported":1758730418,"current_range_meters":8400,"station_id":"ce4bgip2rcd13ifvqbb0","pricing_plan_id":"cebpf4jnsgd1na2vs0mg"},{"bike_id":"8dcfe70b-ed85-4ea8-93a8-248ba122b5cd","system_id":"levelo_inurba_marseille","lat":43.30766,"lon":5.37668,"is_reserved":false,"is_disabled":false,"rental_uris":{"android":"levelo://app?vid=8dcfe70b-ed85-4ea8-93a8-248ba122b5cd","ios":"levelo://app?vid=8dcfe70b-ed85-4ea8-93a8-248ba122b5cd"},"vehicle_type_id":"4","last_reported":1758730418,"current_range_meters":8000,"station_id":"ce4bgv92rcd13ifvqcq0","pricing_plan_id":"cebpf4jnsgd1na2vs0mg"},{"bike_id":"0ada745b-f316-4773-9f91-72d336e81630","system_id":"levelo_inurba_marseille","lat":43.26052,"lon":5.39392,"is_reserved":false,"is_disabled":false,"rental_uris":{"android":"levelo://app?vid=0ada745b-f316-4773-9f91-72d336e81630","ios":"levelo://app?vid=0ada745b-f316-4773-9f91-72d336e81630"},"vehicle_type_id":"4","last_reported":1758730418,"current_range_meters":9200,"station_id":"ce4bhh92rcd13ifvqfj0","pricing_plan_id":"cebpf4jnsgd1na2vs0mg"},{"bike_id":"5f7a5080-e77c-4892-a096-c578510b27d0","system_id":"levelo_inurba_marseille","lat":43.27945,"lon":5.4105,"is_reserved":false,"is_disabled":false,"rental_uris":{"android":"levelo://app?vid=5f7a5080-e77c-4892-a096-c578510b27d0","ios":"levelo://app?vid=5f7a5080-e77c-4892-a096-c578510b27d0"},"vehicle_type_id":"4","last_reported":1758730418,"current_range_meters":9200,"station_id":"ce4bhnp2rcd13ifvqh0g","pricing_plan_id":"cebpf4jnsgd1na2vs0mg"},{"bike_id":"7c0482c3-9253-4d1b-b4f3-be55cdb7721d","system_id":"levelo_inurba_marseille","lat":43.33757,"lon":5.37466,"is_reserved":false,"is_disabled":false,"rental_uris":{"android":"levelo://app?vid=7c0482c3-9253-4d1b-b4f3-be55cdb7721d","ios":"levelo://app?vid=7c0482c3-9253-4d1b-b4f3-be55cdb7721d"},"vehicle_type_id":"4","last_reported":1758730418,"current_range_meters":9200,"station_id":"","pricing_plan_id":"cebpf4jnsgd1na2vs0mg"},{"bike_id":"7eca40e9-155e-48b2-9e40-94d878f27e21","system_id":"levelo_inurba_marseille","lat":43.31166,"lon":5.38718,"is_reserved":false,"is_disabled":false,"rental_uris":{"android":"levelo://app?vid=7eca40e9-155e-48b2-9e40-94d878f27e21","ios":"levelo://app?vid=7eca40e9-155e-48b2-9e40-94d878f27e21"},"vehicle_type_id":"4","last_reported":1758730418,"current_range_meters":8800,"station_id":"ce4bgv12rcd13ifvqcp0","pricing_plan_id":"cebpf4jnsgd1na2vs0mg"},{"bike_id":"4ce67155-9f15-4130-9400-f86685d8ecda","system_id":"levelo_inurba_marseille","lat":43.29776,"lon":5.36516,"is_reserved":false,"is_disabled":false,"rental_uris":{"android":"levelo://app?vid=4ce67155-9f15-4130-9400-f86685d8ecda","ios":"levelo://app?vid=4ce67155-9f15-4130-9400-f86685d8ecda"},"vehicle_type_id":"4","last_reported":1758730418,"current_range_meters":9200,"station_id":"","pricing_plan_id":"cebpf4jnsgd1na2vs0mg"},{"bike_id":"d51f5ea6-0ab7-4c7b-8664-efd464bd50a9","system_id":"levelo_inurba_marseille","lat":43.30313,"lon":5.36899,"is_reserved":false,"is_disabled":false,"rental_uris":{"android":"levelo://app?vid=d51f5ea6-0ab7-4c7b-8664-efd464bd50a9","ios":"levelo://app?vid=d51f5ea6-0ab7-4c7b-8664-efd464bd50a9"},"vehicle_type_id":"4","last_reported":1758730418,"current_range_meters":9200,"station_id":"ce4bgqh2rcd13ifvqc5g","pricing_plan_id":"cebpf4jnsgd1na2vs0mg"},{"bike_id":"71bea496-a76a-4d41-a5ec-9d52018fc0e3","system_id":"levelo_inurba_marseille","lat":43.32072,"lon":5.41524,"is_reserved":false,"is_disabled":false,"rental_uris":{"android":"levelo://app?vid=71bea496-a76a-4d41-a5ec-9d52018fc0e3","ios":"levelo://app?vid=71bea496-a76a-4d41-a5ec-9d52018fc0e3"},"vehicle_type_id":"4","last_reported":1758730418,"current_range_meters":9200,"station_id":"ce4bhq92rcd13ifvqhkg","pricing_plan_id":"cebpf4jnsgd1na2vs0mg"},{"bike_id":"9c4a7bdb-c552-4dfd-8efb-40b9e0b0b147","system_id":"levelo_inurba_marseille","lat":43.30889,"lon":5.36747,"is_reserved":false,"is_disabled":false,"rental_uris":{"android":"levelo://app?vid=9c4a7bdb-c552-4dfd-8efb-40b9e0b0b147","ios":"levelo://app?vid=9c4a7bdb-c552-4dfd-8efb-40b9e0b0b147"},"vehicle_type_id":"4","last_reported":1758730418,"current_range_meters":9200,"station_id":"","pricing_plan_id":"cebpf4jnsgd1na2vs0mg"},{"bike_id":"727047ff-76a4-4b41-95eb-eefec3ec70eb","system_id":"levelo_inurba_marseille","lat":43.28481,"lon":5.38568,"is_reserved":false,"is_disabled":false,"rental_uris":{"android":"levelo://app?vid=727047ff-76a4-4b41-95eb-eefec3ec70eb","ios":"levelo://app?vid=727047ff-76a4-4b41-95eb-eefec3ec70eb"},"vehicle_type_id":"4","last_reported":1758730418,"current_range_meters":9200,"station_id":"ce4bh8p2rcd13ifvqeb0","pricing_plan_id":"cebpf4jnsgd1na2vs0mg"},{"bike_id":"e3f31ecd-97a4-40e2-acc1-667007ddf35b","system_id":"levelo_inurba_marseille","lat":43.29797,"lon":5.40401,"is_reserved":false,"is_disabled":false,"rental_uris":{"android":"levelo://app?vid=e3f31ecd-97a4-40e2-acc1-667007ddf35b","ios":"levelo://app?vid=e3f31ecd-97a4-40e2-acc1-667007ddf35b"},"vehicle_type_id":"4","last_reported":1758730418,"current_range_meters":9200,"station_id":"ce4bh112rcd13ifvqd90","pricing_plan_id":"cebpf4jnsgd1na2vs0mg"},{"bike_id":"8fc3d90e-f77a-4cb5-9892-e614e9ea647f","system_id":"levelo_inurba_marseille","lat":43.27911,"lon":5.39563,"is_reserved":false,"is_disabled":false,"rental_uris":{"android":"levelo://app?vid=8fc3d90e-f77a-4cb5-9892-e614e9ea647f","ios":"levelo://app?vid=8fc3d90e-f77a-4cb5-9892-e614e9ea647f"},"vehicle_type_id":"4","last_reported":1758730418,"current_range_meters":9200,"station_id":"ce4bhf92rcd13ifvqf40","pricing_plan_id":"cebpf4jnsgd1na2vs0mg"},{"bike_id":"43d57fd4-047e-4ac8-97e5-ec9b96239472","system_id":"levelo_inurba_marseille","lat":43.33231,"lon":5.39821,"is_reserved":false,"is_disabled":false,"rental_uris":{"android":"levelo://app?vid=43d57fd4-047e-4ac8-97e5-ec9b96239472","ios":"levelo://app?vid=43d57fd4-047e-4ac8-97e5-ec9b96239472"},"vehicle_type_id":"4","last_reported":1758730418,"current_range_meters":9200,"station_id":"","pricing_plan_id":"cebpf4jnsgd1na2vs0mg"},{"bike_id":"1846e412-a89b-48c3-8a86-f911e8ea2c2e","system_id":"levelo_inurba_marseille","lat":43.211848,"lon":5.350788,"is_reserved":false,"is_disabled":false,"rental_uris":{"android":"levelo://app?vid=1846e412-a89b-48c3-8a86-f911e8ea2c2e","ios":"levelo://app?vid=1846e412-a89b-48c3-8a86-f911e8ea2c2e"},"vehicle_type_id":"4","last_reported":1758730418,"current_range_meters":9600,"station_id":"st_cvj6sg6p6f1abm77japg","pricing_plan_id":"cebpf4jnsgd1na2vs0mg"},{"bike_id":"7957ec18-b9bd-4eed-9904-b87b7accf747","system_id":"levelo_inurba_marseille","lat":43.29271,"lon":5.38445,"is_reserved":false,"is_disabled":false,"rental_uris":{"android":"levelo://app?vid=7957ec18-b9bd-4eed-9904-b87b7accf747","ios":"levelo://app?vid=7957ec18-b9bd-4eed-9904-b87b7accf747"},"vehicle_type_id":"4","last_reported":1758730418,"current_range_meters":9600,"station_id":"ce4bh692rcd13ifvqea0","pricing_plan_id":"cebpf4jnsgd1na2vs0mg"},{"bike_id":"e35dc3d8-0dfe-4bd4-87f7-5d3ca8bee4e5","system_id":"levelo_inurba_marseille","lat":43.250814,"lon":5.425774,"is_reserved":false,"is_disabled":false,"rental_uris":{"android":"levelo://app?vid=e35dc3d8-0dfe-4bd4-87f7-5d3ca8bee4e5","ios":"levelo://app?vid=e35dc3d8-0dfe-4bd4-87f7-5d3ca8bee4e5"},"vehicle_type_id":"4","last_reported":1758730418,"current_range_meters":9600,"station_id":"","pricing_plan_id":"cebpf4jnsgd1na2vs0mg"},{"bike_id":"a7772258-6faf-4d4d-8d82-7e0d91d1c133","system_id":"levelo_inurba_marseille","lat":43.29871,"lon":5.39734,"is_reserved":false,"is_disabled":false,"rental_uris":{"android":"levelo://app?vid=a7772258-6faf-4d4d-8d82-7e0d91d1c133","ios":"levelo://app?vid=a7772258-6faf-4d4d-8d82-7e0d91d1c133"},"vehicle_type_id":"4","last_reported":1758730418,"current_range_meters":9600,"station_id":"ce4bh0h2rcd13ifvqd50","pricing_plan_id":"cebpf4jnsgd1na2vs0mg"},{"bike_id":"dc3347cb-7766-4aa1-bf1d-18b6a93e7cb7","system_id":"levelo_inurba_marseille","lat":43.303558,"lon":5.418696,"is_reserved":false,"is_disabled":false,"rental_uris":{"android":"levelo://app?vid=dc3347cb-7766-4aa1-bf1d-18b6a93e7cb7","ios":"levelo://app?vid=dc3347cb-7766-4aa1-bf1d-18b6a93e7cb7"},"vehicle_type_id":"4","last_reported":1758730418,"current_range_meters":10000,"station_id":"ce4bhop2rcd13ifvqh7g","pricing_plan_id":"cebpf4jnsgd1na2vs0mg"},{"bike_id":"7f5d89fc-e43a-43c7-b2ce-6f75c9432819","system_id":"levelo_inurba_marseille","lat":43.29709,"lon":5.37695,"is_reserved":false,"is_disabled":false,"rental_uris":{"android":"levelo://app?vid=7f5d89fc-e43a-43c7-b2ce-6f75c9432819","ios":"levelo://app?vid=7f5d89fc-e43a-43c7-b2ce-6f75c9432819"},"vehicle_type_id":"4","last_reported":1758730418,"current_range_meters":10000,"station_id":"ce4bgkh2rcd13ifvqbl0","pricing_plan_id":"cebpf4jnsgd1na2vs0mg"},{"bike_id":"383c9217-f3f8-4229-aa3e-2a910009c92c","system_id":"levelo_inurba_marseille","lat":43.29011,"lon":5.3864,"is_reserved":false,"is_disabled":false,"rental_uris":{"android":"levelo://app?vid=383c9217-f3f8-4229-aa3e-2a910009c92c","ios":"levelo://app?vid=383c9217-f3f8-4229-aa3e-2a910009c92c"},"vehicle_type_id":"4","last_reported":1758730418,"current_range_meters":9600,"station_id":"ce4bh4p2rcd13ifvqe0g","pricing_plan_id":"cebpf4jnsgd1na2vs0mg"},{"bike_id":"05b147e4-e0ee-4096-9184-63482878655c","system_id":"levelo_inurba_marseille","lat":43.29785,"lon":5.39341,"is_reserved":false,"is_disabled":false,"rental_uris":{"android":"levelo://app?vid=05b147e4-e0ee-4096-9184-63482878655c","ios":"levelo://app?vid=05b147e4-e0ee-4096-9184-63482878655c"},"vehicle_type_id":"4","last_reported":1758730418,"current_range_meters":10000,"station_id":"chh1huq6cuj3fo74tm60","pricing_plan_id":"cebpf4jnsgd1na2vs0mg"},{"bike_id":"0df75e72-c8b2-4ed4-bb38-339f4f3a1611","system_id":"levelo_inurba_marseille","lat":43.276717,"lon":5.38892,"is_reserved":false,"is_disabled":true,"rental_uris":{"android":"levelo://app?vid=0df75e72-c8b2-4ed4-bb38-339f4f3a1611","ios":"levelo://app?vid=0df75e72-c8b2-4ed4-bb38-339f4f3a1611"},"vehicle_type_id":"4","last_reported":1758730418,"current_range_meters":10000,"station_id":"ce4bhi12rcd13ifvqfo0","pricing_plan_id":"cebpf4jnsgd1na2vs0mg"},{"bike_id":"acab2616-c334-4896-be63-49fb2d2072ba","system_id":"levelo_inurba_marseille","lat":43.29799,"lon":5.40404,"is_reserved":false,"is_disabled":false,"rental_uris":{"android":"levelo://app?vid=acab2616-c334-4896-be63-49fb2d2072ba","ios":"levelo://app?vid=acab2616-c334-4896-be63-49fb2d2072ba"},"vehicle_type_id":"4","last_reported":1758730418,"current_range_meters":10000,"station_id":"ce4bh112rcd13ifvqd90","pricing_plan_id":"cebpf4jnsgd1na2vs0mg"},{"bike_id":"4a2ff28d-a9b2-4676-859c-d157faf6900e","system_id":"levelo_inurba_marseille","lat":43.295534,"lon":5.374885,"is_reserved":false,"is_disabled":false,"rental_uris":{"android":"levelo://app?vid=4a2ff28d-a9b2-4676-859c-d157faf6900e","ios":"levelo://app?vid=4a2ff28d-a9b2-4676-859c-d157faf6900e"},"vehicle_type_id":"4","last_reported":1758730418,"current_range_meters":10800,"station_id":"ce4bgkp2rcd13ifvqbmg","pricing_plan_id":"cebpf4jnsgd1na2vs0mg"},{"bike_id":"47e84c33-db9f-4e22-be17-b76574141af6","system_id":"levelo_inurba_marseille","lat":43.29557,"lon":5.42297,"is_reserved":false,"is_disabled":false,"rental_uris":{"android":"levelo://app?vid=47e84c33-db9f-4e22-be17-b76574141af6","ios":"levelo://app?vid=47e84c33-db9f-4e22-be17-b76574141af6"},"vehicle_type_id":"4","last_reported":1758730418,"current_range_meters":10000,"station_id":"ce4bhph2rcd13ifvqhdg","pricing_plan_id":"cebpf4jnsgd1na2vs0mg"},{"bike_id":"514b5fdb-f81d-41c3-afe2-e88866964916","system_id":"levelo_inurba_marseille","lat":43.25088,"lon":5.39504,"is_reserved":false,"is_disabled":true,"rental_uris":{"android":"levelo://app?vid=514b5fdb-f81d-41c3-afe2-e88866964916","ios":"levelo://app?vid=514b5fdb-f81d-41c3-afe2-e88866964916"},"vehicle_type_id":"4","last_reported":1758730418,"current_range_meters":10800,"station_id":"ce4bhm12rcd13ifvqgkg","pricing_plan_id":"cebpf4jnsgd1na2vs0mg"},{"bike_id":"b047061a-80fe-4f53-a37f-a97017dc2f10","system_id":"levelo_inurba_marseille","lat":43.29266,"lon":5.40913,"is_reserved":false,"is_disabled":true,"rental_uris":{"android":"levelo://app?vid=b047061a-80fe-4f53-a37f-a97017dc2f10","ios":"levelo://app?vid=b047061a-80fe-4f53-a37f-a97017dc2f10"},"vehicle_type_id":"4","last_reported":1758730418,"current_range_meters":10800,"station_id":"ce4bh192rcd13ifvqdc0","pricing_plan_id":"cebpf4jnsgd1na2vs0mg"},{"bike_id":"801dd1c7-fa17-4a0c-8960-d29d2ce49819","system_id":"levelo_inurba_marseille","lat":43.28157,"lon":5.42639,"is_reserved":false,"is_disabled":false,"rental_uris":{"android":"levelo://app?vid=801dd1c7-fa17-4a0c-8960-d29d2ce49819","ios":"levelo://app?vid=801dd1c7-fa17-4a0c-8960-d29d2ce49819"},"vehicle_type_id":"4","last_reported":1758730418,"current_range_meters":10000,"station_id":"ce4bhnh2rcd13ifvqgug","pricing_plan_id":"cebpf4jnsgd1na2vs0mg"},{"bike_id":"ac6629b0-43bb-41c2-bdfb-993b83764d1c","system_id":"levelo_inurba_marseille","lat":43.291674,"lon":5.371577,"is_reserved":false,"is_disabled":false,"rental_uris":{"android":"levelo://app?vid=ac6629b0-43bb-41c2-bdfb-993b83764d1c","ios":"levelo://app?vid=ac6629b0-43bb-41c2-bdfb-993b83764d1c"},"vehicle_type_id":"4","last_reported":1758730418,"current_range_meters":11200,"station_id":"ce4bha92rcd13ifvqeh0","pricing_plan_id":"cebpf4jnsgd1na2vs0mg"},{"bike_id":"a60abba9-f9b8-477b-8786-175fc2b6218b","system_id":"levelo_inurba_marseille","lat":43.30872,"lon":5.37165,"is_reserved":false,"is_disabled":false,"rental_uris":{"android":"levelo://app?vid=a60abba9-f9b8-477b-8786-175fc2b6218b","ios":"levelo://app?vid=a60abba9-f9b8-477b-8786-175fc2b6218b"},"vehicle_type_id":"4","last_reported":1758730418,"current_range_meters":11200,"station_id":"ce4bguh2rcd13ifvqckg","pricing_plan_id":"cebpf4jnsgd1na2vs0mg"},{"bike_id":"80ad5ee1-35ce-4ee5-b927-87a8bb804d9d","system_id":"levelo_inurba_marseille","lat":43.25721,"lon":5.41113,"is_reserved":false,"is_disabled":false,"rental_uris":{"android":"levelo://app?vid=80ad5ee1-35ce-4ee5-b927-87a8bb804d9d","ios":"levelo://app?vid=80ad5ee1-35ce-4ee5-b927-87a8bb804d9d"},"vehicle_type_id":"4","last_reported":1758730418,"current_range_meters":10800,"station_id":"ce4bhkp2rcd13ifvqgd0","pricing_plan_id":"cebpf4jnsgd1na2vs0mg"},{"bike_id":"1a466fe9-8068-4ff2-8eb3-5de9b1b7a36d","system_id":"levelo_inurba_marseille","lat":43.22933,"lon":5.35379,"is_reserved":false,"is_disabled":false,"rental_uris":{"android":"levelo://app?vid=1a466fe9-8068-4ff2-8eb3-5de9b1b7a36d","ios":"levelo://app?vid=1a466fe9-8068-4ff2-8eb3-5de9b1b7a36d"},"vehicle_type_id":"4","last_reported":1758730418,"current_range_meters":11200,"station_id":"cpo3532slgdg3j2ikp40","pricing_plan_id":"cebpf4jnsgd1na2vs0mg"},{"bike_id":"42d22dad-0a9d-4ec1-b43e-5dfe53a5d83c","system_id":"levelo_inurba_marseille","lat":43.272,"lon":5.40998,"is_reserved":false,"is_disabled":false,"rental_uris":{"android":"levelo://app?vid=42d22dad-0a9d-4ec1-b43e-5dfe53a5d83c","ios":"levelo://app?vid=42d22dad-0a9d-4ec1-b43e-5dfe53a5d83c"},"vehicle_type_id":"4","last_reported":1758730418,"current_range_meters":11200,"station_id":"ce4bhl12rcd13ifvqgf0","pricing_plan_id":"cebpf4jnsgd1na2vs0mg"},{"bike_id":"c5985b12-c286-4851-a236-de53f04feac1","system_id":"levelo_inurba_marseille","lat":43.249948,"lon":5.389358,"is_reserved":false,"is_disabled":true,"rental_uris":{"android":"levelo://app?vid=c5985b12-c286-4851-a236-de53f04feac1","ios":"levelo://app?vid=c5985b12-c286-4851-a236-de53f04feac1"},"vehicle_type_id":"4","last_reported":1758730418,"current_range_meters":10800,"station_id":"ce4bhgp2rcd13ifvqfd0","pricing_plan_id":"cebpf4jnsgd1na2vs0mg"},{"bike_id":"343c7549-bf08-44ce-9fe4-94fec5c5103f","system_id":"levelo_inurba_marseille","lat":43.29926,"lon":5.36532,"is_reserved":false,"is_disabled":false,"rental_uris":{"android":"levelo://app?vid=343c7549-bf08-44ce-9fe4-94fec5c5103f","ios":"levelo://app?vid=343c7549-bf08-44ce-9fe4-94fec5c5103f"},"vehicle_type_id":"4","last_reported":1758730418,"current_range_meters":11200,"station_id":"ce4bgm92rcd13ifvqbr0","pricing_plan_id":"cebpf4jnsgd1na2vs0mg"},{"bike_id":"38b81ed4-ca03-4a61-9fc7-5eb334cdc1b6","system_id":"levelo_inurba_marseille","lat":43.28271,"lon":5.3506,"is_reserved":false,"is_disabled":false,"rental_uris":{"android":"levelo://app?vid=38b81ed4-ca03-4a61-9fc7-5eb334cdc1b6","ios":"levelo://app?vid=38b81ed4-ca03-4a61-9fc7-5eb334cdc1b6"},"vehicle_type_id":"4","last_reported":1758730418,"current_range_meters":11200,"station_id":"ce4bhbp2rcd13ifvqerg","pricing_plan_id":"cebpf4jnsgd1na2vs0mg"},{"bike_id":"d8d6f31a-c510-424a-9731-839758fd1c1d","system_id":"levelo_inurba_marseille","lat":43.24655,"lon":5.38894,"is_reserved":false,"is_disabled":false,"rental_uris":{"android":"levelo://app?vid=d8d6f31a-c510-424a-9731-839758fd1c1d","ios":"levelo://app?vid=d8d6f31a-c510-424a-9731-839758fd1c1d"},"vehicle_type_id":"4","last_reported":1758730418,"current_range_meters":11600,"station_id":"ce4bhg12rcd13ifvqf60","pricing_plan_id":"cebpf4jnsgd1na2vs0mg"},{"bike_id":"d095bf28-7153-4f35-a6f0-8c7992d28efb","system_id":"levelo_inurba_marseille","lat":43.28033,"lon":5.36949,"is_reserved":false,"is_disabled":false,"rental_uris":{"android":"levelo://app?vid=d095bf28-7153-4f35-a6f0-8c7992d28efb","ios":"levelo://app?vid=d095bf28-7153-4f35-a6f0-8c7992d28efb"},"vehicle_type_id":"4","last_reported":1758730418,"current_range_meters":11200,"station_id":"ce4bha12rcd13ifvqef0","pricing_plan_id":"cebpf4jnsgd1na2vs0mg"},{"bike_id":"47b6f39e-ab58-4603-baea-d9321077378d","system_id":"levelo_inurba_marseille","lat":43.3043,"lon":5.38897,"is_reserved":false,"is_disabled":false,"rental_uris":{"android":"levelo://app?vid=47b6f39e-ab58-4603-baea-d9321077378d","ios":"levelo://app?vid=47b6f39e-ab58-4603-baea-d9321077378d"},"vehicle_type_id":"4","last_reported":1758730418,"current_range_meters":11600,"station_id":"ce4bgk12rcd13ifvqbi0","pricing_plan_id":"cebpf4jnsgd1na2vs0mg"},{"bike_id":"9feb0e0f-24fa-4463-b0f3-30472830c043","system_id":"levelo_inurba_marseille","lat":43.31757,"lon":5.39002,"is_reserved":false,"is_disabled":true,"rental_uris":{"android":"levelo://app?vid=9feb0e0f-24fa-4463-b0f3-30472830c043","ios":"levelo://app?vid=9feb0e0f-24fa-4463-b0f3-30472830c043"},"vehicle_type_id":"4","last_reported":1758730418,"current_range_meters":12000,"station_id":"ce4bhqp2rcd13ifvqhng","pricing_plan_id":"cebpf4jnsgd1na2vs0mg"},{"bike_id":"b5097eea-9912-4be2-9cf9-14c224c5fab6","system_id":"levelo_inurba_marseille","lat":43.23198,"lon":5.35551,"is_reserved":false,"is_disabled":false,"rental_uris":{"android":"levelo://app?vid=b5097eea-9912-4be2-9cf9-14c224c5fab6","ios":"levelo://app?vid=b5097eea-9912-4be2-9cf9-14c224c5fab6"},"vehicle_type_id":"4","last_reported":1758730418,"current_range_meters":12000,"station_id":"ce4bhu92rcd13ifvqi70","pricing_plan_id":"cebpf4jnsgd1na2vs0mg"},{"bike_id":"f051bd67-fe2f-4456-8da3-b16238fe7802","system_id":"levelo_inurba_marseille","lat":43.23173,"lon":5.39996,"is_reserved":false,"is_disabled":false,"rental_uris":{"android":"levelo://app?vid=f051bd67-fe2f-4456-8da3-b16238fe7802","ios":"levelo://app?vid=f051bd67-fe2f-4456-8da3-b16238fe7802"},"vehicle_type_id":"4","last_reported":1758730418,"current_range_meters":12000,"station_id":"ce4bhn12rcd13ifvqgqg","pricing_plan_id":"cebpf4jnsgd1na2vs0mg"},{"bike_id":"438ead59-de14-4fa0-a61d-03a70a4122ae","system_id":"levelo_inurba_marseille","lat":43.97269,"lon":4.89111,"is_reserved":false,"is_disabled":true,"rental_uris":{"android":"levelo://app?vid=438ead59-de14-4fa0-a61d-03a70a4122ae","ios":"levelo://app?vid=438ead59-de14-4fa0-a61d-03a70a4122ae"},"vehicle_type_id":"4","last_reported":1758730418,"current_range_meters":12000,"station_id":"","pricing_plan_id":"cebpf4jnsgd1na2vs0mg"},{"bike_id":"131177f0-e4f2-4384-88f7-9889608ef8b2","system_id":"levelo_inurba_marseille","lat":43.28725,"lon":5.36095,"is_reserved":false,"is_disabled":false,"rental_uris":{"android":"levelo://app?vid=131177f0-e4f2-4384-88f7-9889608ef8b2","ios":"levelo://app?vid=131177f0-e4f2-4384-88f7-9889608ef8b2"},"vehicle_type_id":"4","last_reported":1758730418,"current_range_meters":12000,"station_id":"cki0cbj6b192h4jlfktg","pricing_plan_id":"cebpf4jnsgd1na2vs0mg"},{"bike_id":"8c0227e3-55e8-4994-aa0c-9b6ee99b7e26","system_id":"levelo_inurba_marseille","lat":43.23049,"lon":5.35483,"is_reserved":false,"is_disabled":false,"rental_uris":{"android":"levelo://app?vid=8c0227e3-55e8-4994-aa0c-9b6ee99b7e26","ios":"levelo://app?vid=8c0227e3-55e8-4994-aa0c-9b6ee99b7e26"},"vehicle_type_id":"4","last_reported":1758730418,"current_range_meters":12400,"station_id":"cpo3342slgdg3j2ifvpg","pricing_plan_id":"cebpf4jnsgd1na2vs0mg"},{"bike_id":"8c7fb638-aa89-4dc5-b652-77ceb015b905","system_id":"levelo_inurba_marseille","lat":43.24957,"lon":5.40507,"is_reserved":false,"is_disabled":false,"rental_uris":{"android":"levelo://app?vid=8c7fb638-aa89-4dc5-b652-77ceb015b905","ios":"levelo://app?vid=8c7fb638-aa89-4dc5-b652-77ceb015b905"},"vehicle_type_id":"4","last_reported":1758730418,"current_range_meters":12400,"station_id":"st_d2ngiaodas8pm72gd1h0","pricing_plan_id":"cebpf4jnsgd1na2vs0mg"},{"bike_id":"06c10839-75c7-457b-804b-f341157fb4f3","system_id":"levelo_inurba_marseille","lat":43.25065,"lon":5.40467,"is_reserved":false,"is_disabled":false,"rental_uris":{"android":"levelo://app?vid=06c10839-75c7-457b-804b-f341157fb4f3","ios":"levelo://app?vid=06c10839-75c7-457b-804b-f341157fb4f3"},"vehicle_type_id":"4","last_reported":1758730418,"current_range_meters":12400,"station_id":"","pricing_plan_id":"cebpf4jnsgd1na2vs0mg"},{"bike_id":"2b142924-375d-48cb-93a3-16a1b9bf5e94","system_id":"levelo_inurba_marseille","lat":43.28595,"lon":5.35091,"is_reserved":false,"is_disabled":false,"rental_uris":{"android":"levelo://app?vid=2b142924-375d-48cb-93a3-16a1b9bf5e94","ios":"levelo://app?vid=2b142924-375d-48cb-93a3-16a1b9bf5e94"},"vehicle_type_id":"4","last_reported":1758730418,"current_range_meters":12400,"station_id":"ce4bhch2rcd13ifvqeug","pricing_plan_id":"cebpf4jnsgd1na2vs0mg"},{"bike_id":"528c3ca2-6e69-4088-b13a-99bd3c7e415f","system_id":"levelo_inurba_marseille","lat":43.23189,"lon":5.39989,"is_reserved":false,"is_disabled":false,"rental_uris":{"android":"levelo://app?vid=528c3ca2-6e69-4088-b13a-99bd3c7e415f","ios":"levelo://app?vid=528c3ca2-6e69-4088-b13a-99bd3c7e415f"},"vehicle_type_id":"4","last_reported":1758730418,"current_range_meters":12400,"station_id":"ce4bhn12rcd13ifvqgqg","pricing_plan_id":"cebpf4jnsgd1na2vs0mg"},{"bike_id":"7981bd57-1a91-436b-8601-50130d20e8be","system_id":"levelo_inurba_marseille","lat":43.21191,"lon":5.35076,"is_reserved":false,"is_disabled":false,"rental_uris":{"android":"levelo://app?vid=7981bd57-1a91-436b-8601-50130d20e8be","ios":"levelo://app?vid=7981bd57-1a91-436b-8601-50130d20e8be"},"vehicle_type_id":"4","last_reported":1758730418,"current_range_meters":12800,"station_id":"st_cvj6sg6p6f1abm77japg","pricing_plan_id":"cebpf4jnsgd1na2vs0mg"},{"bike_id":"1108cd2e-974a-442f-b030-8361f4b5964f","system_id":"levelo_inurba_marseille","lat":43.30126,"lon":5.39851,"is_reserved":false,"is_disabled":false,"rental_uris":{"android":"levelo://app?vid=1108cd2e-974a-442f-b030-8361f4b5964f","ios":"levelo://app?vid=1108cd2e-974a-442f-b030-8361f4b5964f"},"vehicle_type_id":"4","last_reported":1758730418,"current_range_meters":12800,"station_id":"ce4bh0h2rcd13ifvqd40","pricing_plan_id":"cebpf4jnsgd1na2vs0mg"},{"bike_id":"40295f1f-6071-4ae5-ae3a-1b474e630e10","system_id":"levelo_inurba_marseille","lat":43.31715,"lon":5.43705,"is_reserved":false,"is_disabled":false,"rental_uris":{"android":"levelo://app?vid=40295f1f-6071-4ae5-ae3a-1b474e630e10","ios":"levelo://app?vid=40295f1f-6071-4ae5-ae3a-1b474e630e10"},"vehicle_type_id":"4","last_reported":1758730418,"current_range_meters":12800,"station_id":"ce4bhp92rcd13ifvqhcg","pricing_plan_id":"cebpf4jnsgd1na2vs0mg"},{"bike_id":"d5748f11-c747-445a-ba16-03e2bc50ef5f","system_id":"levelo_inurba_marseille","lat":43.23184,"lon":5.40013,"is_reserved":false,"is_disabled":false,"rental_uris":{"android":"levelo://app?vid=d5748f11-c747-445a-ba16-03e2bc50ef5f","ios":"levelo://app?vid=d5748f11-c747-445a-ba16-03e2bc50ef5f"},"vehicle_type_id":"4","last_reported":1758730418,"current_range_meters":13600,"station_id":"ce4bhn12rcd13ifvqgqg","pricing_plan_id":"cebpf4jnsgd1na2vs0mg"},{"bike_id":"a851cae0-b395-441e-9dd1-21300baf3396","system_id":"levelo_inurba_marseille","lat":43.31513,"lon":5.38687,"is_reserved":false,"is_disabled":false,"rental_uris":{"android":"levelo://app?vid=a851cae0-b395-441e-9dd1-21300baf3396","ios":"levelo://app?vid=a851cae0-b395-441e-9dd1-21300baf3396"},"vehicle_type_id":"4","last_reported":1758730418,"current_range_meters":13600,"station_id":"","pricing_plan_id":"cebpf4jnsgd1na2vs0mg"},{"bike_id":"09000911-3fc7-4a4f-8903-91baf1abd87a","system_id":"levelo_inurba_marseille","lat":43.231959,"lon":5.355564,"is_reserved":false,"is_disabled":false,"rental_uris":{"android":"levelo://app?vid=09000911-3fc7-4a4f-8903-91baf1abd87a","ios":"levelo://app?vid=09000911-3fc7-4a4f-8903-91baf1abd87a"},"vehicle_type_id":"4","last_reported":1758730418,"current_range_meters":13600,"station_id":"ce4bhu92rcd13ifvqi70","pricing_plan_id":"cebpf4jnsgd1na2vs0mg"},{"bike_id":"71c11d91-a929-47a4-9d23-ca3894d5888b","system_id":"levelo_inurba_marseille","lat":43.258241,"lon":5.39439,"is_reserved":false,"is_disabled":false,"rental_uris":{"android":"levelo://app?vid=71c11d91-a929-47a4-9d23-ca3894d5888b","ios":"levelo://app?vid=71c11d91-a929-47a4-9d23-ca3894d5888b"},"vehicle_type_id":"4","last_reported":1758730418,"current_range_meters":13600,"station_id":"ce4bhip2rcd13ifvqft0","pricing_plan_id":"cebpf4jnsgd1na2vs0mg"},{"bike_id":"36b070bb-df09-4433-b99c-aab79ada22d5","system_id":"levelo_inurba_marseille","lat":43.29287,"lon":5.3744,"is_reserved":false,"is_disabled":false,"rental_uris":{"android":"levelo://app?vid=36b070bb-df09-4433-b99c-aab79ada22d5","ios":"levelo://app?vid=36b070bb-df09-4433-b99c-aab79ada22d5"},"vehicle_type_id":"4","last_reported":1758730418,"current_range_meters":13600,"station_id":"","pricing_plan_id":"cebpf4jnsgd1na2vs0mg"},{"bike_id":"f9af076b-c426-46f0-97f6-f6a5a530c8e2","system_id":"levelo_inurba_marseille","lat":43.3372,"lon":5.37728,"is_reserved":false,"is_disabled":false,"rental_uris":{"android":"levelo://app?vid=f9af076b-c426-46f0-97f6-f6a5a530c8e2","ios":"levelo://app?vid=f9af076b-c426-46f0-97f6-f6a5a530c8e2"},"vehicle_type_id":"4","last_reported":1758730418,"current_range_meters":13600,"station_id":"","pricing_plan_id":"cebpf4jnsgd1na2vs0mg"},{"bike_id":"fffe6328-6449-484c-9a88-3c0825ca541f","system_id":"levelo_inurba_marseille","lat":43.22937,"lon":5.35383,"is_reserved":false,"is_disabled":false,"rental_uris":{"android":"levelo://app?vid=fffe6328-6449-484c-9a88-3c0825ca541f","ios":"levelo://app?vid=fffe6328-6449-484c-9a88-3c0825ca541f"},"vehicle_type_id":"4","last_reported":1758730418,"current_range_meters":13600,"station_id":"cpo3532slgdg3j2ikp40","pricing_plan_id":"cebpf4jnsgd1na2vs0mg"},{"bike_id":"ef00c611-56e3-4d87-83a8-6fad9627913a","system_id":"levelo_inurba_marseille","lat":43.308894,"lon":5.371943,"is_reserved":false,"is_disabled":false,"rental_uris":{"android":"levelo://app?vid=ef00c611-56e3-4d87-83a8-6fad9627913a","ios":"levelo://app?vid=ef00c611-56e3-4d87-83a8-6fad9627913a"},"vehicle_type_id":"4","last_reported":1758730418,"current_range_meters":14000,"station_id":"ce4bguh2rcd13ifvqckg","pricing_plan_id":"cebpf4jnsgd1na2vs0mg"},{"bike_id":"f4eb5f94-45ca-4bd7-9d9d-4fac9dcf0a29","system_id":"levelo_inurba_marseille","lat":43.29798,"lon":5.39352,"is_reserved":false,"is_disabled":false,"rental_uris":{"android":"levelo://app?vid=f4eb5f94-45ca-4bd7-9d9d-4fac9dcf0a29","ios":"levelo://app?vid=f4eb5f94-45ca-4bd7-9d9d-4fac9dcf0a29"},"vehicle_type_id":"4","last_reported":1758730418,"current_range_meters":14000,"station_id":"chh1huq6cuj3fo74tm60","pricing_plan_id":"cebpf4jnsgd1na2vs0mg"},{"bike_id":"45da2f63-fcbe-4329-abbb-56a1a825057c","system_id":"levelo_inurba_marseille","lat":43.29941,"lon":5.36538,"is_reserved":false,"is_disabled":false,"rental_uris":{"android":"levelo://app?vid=45da2f63-fcbe-4329-abbb-56a1a825057c","ios":"levelo://app?vid=45da2f63-fcbe-4329-abbb-56a1a825057c"},"vehicle_type_id":"4","last_reported":1758730418,"current_range_meters":14000,"station_id":"ce4bgm92rcd13ifvqbr0","pricing_plan_id":"cebpf4jnsgd1na2vs0mg"},{"bike_id":"a93965ab-b5ac-4ff8-be12-08337c41d812","system_id":"levelo_inurba_marseille","lat":43.29983,"lon":5.38479,"is_reserved":false,"is_disabled":false,"rental_uris":{"android":"levelo://app?vid=a93965ab-b5ac-4ff8-be12-08337c41d812","ios":"levelo://app?vid=a93965ab-b5ac-4ff8-be12-08337c41d812"},"vehicle_type_id":"4","last_reported":1758730418,"current_range_meters":13600,"station_id":"ce4bgj92rcd13ifvqbd0","pricing_plan_id":"cebpf4jnsgd1na2vs0mg"},{"bike_id":"42b75891-6589-4c66-9595-b3f864c212a9","system_id":"levelo_inurba_marseille","lat":43.30318,"lon":5.40438,"is_reserved":false,"is_disabled":false,"rental_uris":{"android":"levelo://app?vid=42b75891-6589-4c66-9595-b3f864c212a9","ios":"levelo://app?vid=42b75891-6589-4c66-9595-b3f864c212a9"},"vehicle_type_id":"4","last_reported":1758730418,"current_range_meters":14000,"station_id":"ce4bh012rcd13ifvqd10","pricing_plan_id":"cebpf4jnsgd1na2vs0mg"},{"bike_id":"c997035c-2333-4053-ac80-7c14e8d89dc1","system_id":"levelo_inurba_marseille","lat":43.29528,"lon":5.39049,"is_reserved":false,"is_disabled":false,"rental_uris":{"android":"levelo://app?vid=c997035c-2333-4053-ac80-7c14e8d89dc1","ios":"levelo://app?vid=c997035c-2333-4053-ac80-7c14e8d89dc1"},"vehicle_type_id":"4","last_reported":1758730418,"current_range_meters":14000,"station_id":"ce4bh3p2rcd13ifvqdp0","pricing_plan_id":"cebpf4jnsgd1na2vs0mg"},{"bike_id":"21a23fb5-d051-4ee2-9c58-8985930c04d5","system_id":"levelo_inurba_marseille","lat":43.2841,"lon":5.37514,"is_reserved":false,"is_disabled":false,"rental_uris":{"android":"levelo://app?vid=21a23fb5-d051-4ee2-9c58-8985930c04d5","ios":"levelo://app?vid=21a23fb5-d051-4ee2-9c58-8985930c04d5"},"vehicle_type_id":"4","last_reported":1758730418,"current_range_meters":14400,"station_id":"ce4bh412rcd13ifvqds0","pricing_plan_id":"cebpf4jnsgd1na2vs0mg"},{"bike_id":"ca235fb8-b382-4fae-8d89-50f08cf8cd93","system_id":"levelo_inurba_marseille","lat":43.28473,"lon":5.38558,"is_reserved":false,"is_disabled":false,"rental_uris":{"android":"levelo://app?vid=ca235fb8-b382-4fae-8d89-50f08cf8cd93","ios":"levelo://app?vid=ca235fb8-b382-4fae-8d89-50f08cf8cd93"},"vehicle_type_id":"4","last_reported":1758730418,"current_range_meters":14400,"station_id":"ce4bh8p2rcd13ifvqeb0","pricing_plan_id":"cebpf4jnsgd1na2vs0mg"},{"bike_id":"a21b1f60-d422-4070-be93-6b7e08d93542","system_id":"levelo_inurba_marseille","lat":43.3095,"lon":5.40652,"is_reserved":false,"is_disabled":false,"rental_uris":{"android":"levelo://app?vid=a21b1f60-d422-4070-be93-6b7e08d93542","ios":"levelo://app?vid=a21b1f60-d422-4070-be93-6b7e08d93542"},"vehicle_type_id":"4","last_reported":1758730418,"current_range_meters":14800,"station_id":"","pricing_plan_id":"cebpf4jnsgd1na2vs0mg"},{"bike_id":"3cb1dae7-6bcd-41e5-b1b7-c1d25c751a99","system_id":"levelo_inurba_marseille","lat":43.337594,"lon":5.374419,"is_reserved":false,"is_disabled":false,"rental_uris":{"android":"levelo://app?vid=3cb1dae7-6bcd-41e5-b1b7-c1d25c751a99","ios":"levelo://app?vid=3cb1dae7-6bcd-41e5-b1b7-c1d25c751a99"},"vehicle_type_id":"4","last_reported":1758730418,"current_range_meters":14800,"station_id":"","pricing_plan_id":"cebpf4jnsgd1na2vs0mg"},{"bike_id":"57b14c92-2a17-45b3-beb1-cbb460ef441b","system_id":"levelo_inurba_marseille","lat":43.23185,"lon":5.40002,"is_reserved":false,"is_disabled":false,"rental_uris":{"android":"levelo://app?vid=57b14c92-2a17-45b3-beb1-cbb460ef441b","ios":"levelo://app?vid=57b14c92-2a17-45b3-beb1-cbb460ef441b"},"vehicle_type_id":"4","last_reported":1758730418,"current_range_meters":14800,"station_id":"ce4bhn12rcd13ifvqgqg","pricing_plan_id":"cebpf4jnsgd1na2vs0mg"},{"bike_id":"e1f6ea02-3dcd-4760-958d-a4be47a2bc76","system_id":"levelo_inurba_marseille","lat":43.24646,"lon":5.3889,"is_reserved":false,"is_disabled":false,"rental_uris":{"android":"levelo://app?vid=e1f6ea02-3dcd-4760-958d-a4be47a2bc76","ios":"levelo://app?vid=e1f6ea02-3dcd-4760-958d-a4be47a2bc76"},"vehicle_type_id":"4","last_reported":1758730418,"current_range_meters":14800,"station_id":"ce4bhg12rcd13ifvqf60","pricing_plan_id":"cebpf4jnsgd1na2vs0mg"},{"bike_id":"1f245d0b-a243-4473-a434-d74cae53f5e3","system_id":"levelo_inurba_marseille","lat":43.32108,"lon":5.36781,"is_reserved":false,"is_disabled":false,"rental_uris":{"android":"levelo://app?vid=1f245d0b-a243-4473-a434-d74cae53f5e3","ios":"levelo://app?vid=1f245d0b-a243-4473-a434-d74cae53f5e3"},"vehicle_type_id":"4","last_reported":1758730418,"current_range_meters":14800,"station_id":"ce4bhrh2rcd13ifvqhug","pricing_plan_id":"cebpf4jnsgd1na2vs0mg"},{"bike_id":"4ced1dff-6f44-4ca7-a2cc-6cddbe59908a","system_id":"levelo_inurba_marseille","lat":43.317263,"lon":5.423934,"is_reserved":false,"is_disabled":false,"rental_uris":{"android":"levelo://app?vid=4ced1dff-6f44-4ca7-a2cc-6cddbe59908a","ios":"levelo://app?vid=4ced1dff-6f44-4ca7-a2cc-6cddbe59908a"},"vehicle_type_id":"4","last_reported":1758730418,"current_range_meters":14800,"station_id":"ce4bhp92rcd13ifvqhbg","pricing_plan_id":"cebpf4jnsgd1na2vs0mg"},{"bike_id":"e19472f1-87e0-4943-97f3-e785d2a10054","system_id":"levelo_inurba_marseille","lat":43.288635,"lon":5.425272,"is_reserved":false,"is_disabled":false,"rental_uris":{"android":"levelo://app?vid=e19472f1-87e0-4943-97f3-e785d2a10054","ios":"levelo://app?vid=e19472f1-87e0-4943-97f3-e785d2a10054"},"vehicle_type_id":"4","last_reported":1758730418,"current_range_meters":14800,"station_id":"","pricing_plan_id":"cebpf4jnsgd1na2vs0mg"},{"bike_id":"16cee2f9-0604-4f00-85ee-c5690b0410f0","system_id":"levelo_inurba_marseille","lat":43.28614,"lon":5.35121,"is_reserved":false,"is_disabled":false,"rental_uris":{"android":"levelo://app?vid=16cee2f9-0604-4f00-85ee-c5690b0410f0","ios":"levelo://app?vid=16cee2f9-0604-4f00-85ee-c5690b0410f0"},"vehicle_type_id":"4","last_reported":1758730418,"current_range_meters":15200,"station_id":"ce4bhch2rcd13ifvqeug","pricing_plan_id":"cebpf4jnsgd1na2vs0mg"},{"bike_id":"82487e12-45f7-413d-9b19-a07e6230afb4","system_id":"levelo_inurba_marseille","lat":43.2927,"lon":5.38437,"is_reserved":false,"is_disabled":false,"rental_uris":{"android":"levelo://app?vid=82487e12-45f7-413d-9b19-a07e6230afb4","ios":"levelo://app?vid=82487e12-45f7-413d-9b19-a07e6230afb4"},"vehicle_type_id":"4","last_reported":1758730418,"current_range_meters":14800,"station_id":"ce4bh692rcd13ifvqea0","pricing_plan_id":"cebpf4jnsgd1na2vs0mg"},{"bike_id":"d9e1888b-5c06-4823-924b-a03611151086","system_id":"levelo_inurba_marseille","lat":43.286169,"lon":5.35104,"is_reserved":false,"is_disabled":false,"rental_uris":{"android":"levelo://app?vid=d9e1888b-5c06-4823-924b-a03611151086","ios":"levelo://app?vid=d9e1888b-5c06-4823-924b-a03611151086"},"vehicle_type_id":"4","last_reported":1758730418,"current_range_meters":15200,"station_id":"ce4bhch2rcd13ifvqeug","pricing_plan_id":"cebpf4jnsgd1na2vs0mg"},{"bike_id":"e1e3d7b3-73c2-4ba7-b288-e83945b78fcb","system_id":"levelo_inurba_marseille","lat":43.313643,"lon":5.384918,"is_reserved":false,"is_disabled":false,"rental_uris":{"android":"levelo://app?vid=e1e3d7b3-73c2-4ba7-b288-e83945b78fcb","ios":"levelo://app?vid=e1e3d7b3-73c2-4ba7-b288-e83945b78fcb"},"vehicle_type_id":"4","last_reported":1758730418,"current_range_meters":15200,"station_id":"ce4bgt92rcd13ifvqcf0","pricing_plan_id":"cebpf4jnsgd1na2vs0mg"},{"bike_id":"bf1244d3-d7e7-45bd-8580-d0cbc34b36e3","system_id":"levelo_inurba_marseille","lat":43.22565,"lon":5.41616,"is_reserved":false,"is_disabled":false,"rental_uris":{"android":"levelo://app?vid=bf1244d3-d7e7-45bd-8580-d0cbc34b36e3","ios":"levelo://app?vid=bf1244d3-d7e7-45bd-8580-d0cbc34b36e3"},"vehicle_type_id":"4","last_reported":1758730418,"current_range_meters":15200,"station_id":"st_d2o4gvlbi1j2169b742g","pricing_plan_id":"cebpf4jnsgd1na2vs0mg"},{"bike_id":"07c9291d-4b99-4799-8acb-2b500ab56cfb","system_id":"levelo_inurba_marseille","lat":43.29579,"lon":5.36738,"is_reserved":false,"is_disabled":false,"rental_uris":{"android":"levelo://app?vid=07c9291d-4b99-4799-8acb-2b500ab56cfb","ios":"levelo://app?vid=07c9291d-4b99-4799-8acb-2b500ab56cfb"},"vehicle_type_id":"4","last_reported":1758730418,"current_range_meters":14800,"station_id":"ce4bgph2rcd13ifvqc2g","pricing_plan_id":"cebpf4jnsgd1na2vs0mg"},{"bike_id":"73ca9593-f198-4b7d-b8b3-53ee7621579d","system_id":"levelo_inurba_marseille","lat":43.28005,"lon":5.41664,"is_reserved":false,"is_disabled":false,"rental_uris":{"android":"levelo://app?vid=73ca9593-f198-4b7d-b8b3-53ee7621579d","ios":"levelo://app?vid=73ca9593-f198-4b7d-b8b3-53ee7621579d"},"vehicle_type_id":"4","last_reported":1758730418,"current_range_meters":16000,"station_id":"ce4bho12rcd13ifvqh1g","pricing_plan_id":"cebpf4jnsgd1na2vs0mg"},{"bike_id":"ca2767a0-0f45-48b0-a2bd-119c80920dd4","system_id":"levelo_inurba_marseille","lat":43.28464,"lon":5.35893,"is_reserved":false,"is_disabled":false,"rental_uris":{"android":"levelo://app?vid=ca2767a0-0f45-48b0-a2bd-119c80920dd4","ios":"levelo://app?vid=ca2767a0-0f45-48b0-a2bd-119c80920dd4"},"vehicle_type_id":"4","last_reported":1758730418,"current_range_meters":15200,"station_id":"ce4bhah2rcd13ifvqei0","pricing_plan_id":"cebpf4jnsgd1na2vs0mg"},{"bike_id":"50c03ce7-6089-4ca2-9f23-f4c8c568a597","system_id":"levelo_inurba_marseille","lat":43.33794,"lon":5.37424,"is_reserved":false,"is_disabled":false,"rental_uris":{"android":"levelo://app?vid=50c03ce7-6089-4ca2-9f23-f4c8c568a597","ios":"levelo://app?vid=50c03ce7-6089-4ca2-9f23-f4c8c568a597"},"vehicle_type_id":"4","last_reported":1758730418,"current_range_meters":15200,"station_id":"","pricing_plan_id":"cebpf4jnsgd1na2vs0mg"},{"bike_id":"4ef599a3-781e-4476-b04b-528cdb798fa4","system_id":"levelo_inurba_marseille","lat":43.28967,"lon":5.37844,"is_reserved":false,"is_disabled":false,"rental_uris":{"android":"levelo://app?vid=4ef599a3-781e-4476-b04b-528cdb798fa4","ios":"levelo://app?vid=4ef599a3-781e-4476-b04b-528cdb798fa4"},"vehicle_type_id":"4","last_reported":1758730418,"current_range_meters":15200,"station_id":"ce4bh9p2rcd13ifvqed0","pricing_plan_id":"cebpf4jnsgd1na2vs0mg"},{"bike_id":"3a319be7-fef3-40df-96fe-6bdc37dc7081","system_id":"levelo_inurba_marseille","lat":43.28104,"lon":5.37843,"is_reserved":false,"is_disabled":false,"rental_uris":{"android":"levelo://app?vid=3a319be7-fef3-40df-96fe-6bdc37dc7081","ios":"levelo://app?vid=3a319be7-fef3-40df-96fe-6bdc37dc7081"},"vehicle_type_id":"4","last_reported":1758730418,"current_range_meters":15200,"station_id":"ce4bha12rcd13ifvqee0","pricing_plan_id":"cebpf4jnsgd1na2vs0mg"},{"bike_id":"c7f6a08b-c655-4213-b2ba-7d02e7f382fe","system_id":"levelo_inurba_marseille","lat":43.27988,"lon":5.39483,"is_reserved":false,"is_disabled":false,"rental_uris":{"android":"levelo://app?vid=c7f6a08b-c655-4213-b2ba-7d02e7f382fe","ios":"levelo://app?vid=c7f6a08b-c655-4213-b2ba-7d02e7f382fe"},"vehicle_type_id":"4","last_reported":1758730418,"current_range_meters":15200,"station_id":"","pricing_plan_id":"cebpf4jnsgd1na2vs0mg"},{"bike_id":"451cba07-0733-4656-acd0-78e871ad94fa","system_id":"levelo_inurba_marseille","lat":43.28668,"lon":5.36351,"is_reserved":false,"is_disabled":false,"rental_uris":{"android":"levelo://app?vid=451cba07-0733-4656-acd0-78e871ad94fa","ios":"levelo://app?vid=451cba07-0733-4656-acd0-78e871ad94fa"},"vehicle_type_id":"4","last_reported":1758730418,"current_range_meters":14800,"station_id":"ce4bhah2rcd13ifvqej0","pricing_plan_id":"cebpf4jnsgd1na2vs0mg"},{"bike_id":"9c69f94f-bbc9-4a2c-bc3e-3eac571c4823","system_id":"levelo_inurba_marseille","lat":43.27951,"lon":5.36334,"is_reserved":false,"is_disabled":false,"rental_uris":{"android":"levelo://app?vid=9c69f94f-bbc9-4a2c-bc3e-3eac571c4823","ios":"levelo://app?vid=9c69f94f-bbc9-4a2c-bc3e-3eac571c4823"},"vehicle_type_id":"4","last_reported":1758730418,"current_range_meters":15200,"station_id":"","pricing_plan_id":"cebpf4jnsgd1na2vs0mg"},{"bike_id":"e648cccf-6b3b-4fea-a657-26b76eca55e7","system_id":"levelo_inurba_marseille","lat":43.28477,"lon":5.38429,"is_reserved":false,"is_disabled":false,"rental_uris":{"android":"levelo://app?vid=e648cccf-6b3b-4fea-a657-26b76eca55e7","ios":"levelo://app?vid=e648cccf-6b3b-4fea-a657-26b76eca55e7"},"vehicle_type_id":"4","last_reported":1758730418,"current_range_meters":16000,"station_id":"ce4bh512rcd13ifvqe3g","pricing_plan_id":"cebpf4jnsgd1na2vs0mg"},{"bike_id":"486abade-dd76-4cb8-828f-1a286c8b56d7","system_id":"levelo_inurba_marseille","lat":43.295772,"lon":5.367429,"is_reserved":false,"is_disabled":false,"rental_uris":{"android":"levelo://app?vid=486abade-dd76-4cb8-828f-1a286c8b56d7","ios":"levelo://app?vid=486abade-dd76-4cb8-828f-1a286c8b56d7"},"vehicle_type_id":"4","last_reported":1758730418,"current_range_meters":16000,"station_id":"","pricing_plan_id":"cebpf4jnsgd1na2vs0mg"},{"bike_id":"8eae954c-dab6-4303-94f5-569e1c483f62","system_id":"levelo_inurba_marseille","lat":43.294468,"lon":5.407443,"is_reserved":false,"is_disabled":false,"rental_uris":{"android":"levelo://app?vid=8eae954c-dab6-4303-94f5-569e1c483f62","ios":"levelo://app?vid=8eae954c-dab6-4303-94f5-569e1c483f62"},"vehicle_type_id":"4","last_reported":1758730418,"current_range_meters":16000,"station_id":"","pricing_plan_id":"cebpf4jnsgd1na2vs0mg"},{"bike_id":"80f8ff07-07be-4e6b-a340-fbfcd2633e7b","system_id":"levelo_inurba_marseille","lat":43.29267,"lon":5.38443,"is_reserved":false,"is_disabled":false,"rental_uris":{"android":"levelo://app?vid=80f8ff07-07be-4e6b-a340-fbfcd2633e7b","ios":"levelo://app?vid=80f8ff07-07be-4e6b-a340-fbfcd2633e7b"},"vehicle_type_id":"4","last_reported":1758730418,"current_range_meters":16000,"station_id":"ce4bh692rcd13ifvqea0","pricing_plan_id":"cebpf4jnsgd1na2vs0mg"},{"bike_id":"002673c7-e49b-40c2-82da-6cf2f4393eb8","system_id":"levelo_inurba_marseille","lat":43.30456,"lon":5.37915,"is_reserved":false,"is_disabled":true,"rental_uris":{"android":"levelo://app?vid=002673c7-e49b-40c2-82da-6cf2f4393eb8","ios":"levelo://app?vid=002673c7-e49b-40c2-82da-6cf2f4393eb8"},"vehicle_type_id":"4","last_reported":1758730418,"current_range_meters":16000,"station_id":"ce4bgup2rcd13ifvqcn0","pricing_plan_id":"cebpf4jnsgd1na2vs0mg"},{"bike_id":"f65de592-3552-41b0-86c5-dc85018b309f","system_id":"levelo_inurba_marseille","lat":43.292062,"lon":5.393139,"is_reserved":false,"is_disabled":false,"rental_uris":{"android":"levelo://app?vid=f65de592-3552-41b0-86c5-dc85018b309f","ios":"levelo://app?vid=f65de592-3552-41b0-86c5-dc85018b309f"},"vehicle_type_id":"4","last_reported":1758730418,"current_range_meters":16000,"station_id":"ce4bh192rcd13ifvqdd0","pricing_plan_id":"cebpf4jnsgd1na2vs0mg"},{"bike_id":"e4ee7dc6-4065-4261-a9c9-10c4d1388a1a","system_id":"levelo_inurba_marseille","lat":43.29549,"lon":5.38551,"is_reserved":false,"is_disabled":false,"rental_uris":{"android":"levelo://app?vid=e4ee7dc6-4065-4261-a9c9-10c4d1388a1a","ios":"levelo://app?vid=e4ee7dc6-4065-4261-a9c9-10c4d1388a1a"},"vehicle_type_id":"4","last_reported":1758730418,"current_range_meters":16000,"station_id":"ce4bgih2rcd13ifvqba0","pricing_plan_id":"cebpf4jnsgd1na2vs0mg"},{"bike_id":"c714f173-3926-4a29-8e03-6a6e5e920dfb","system_id":"levelo_inurba_marseille","lat":43.32289,"lon":5.38277,"is_reserved":false,"is_disabled":false,"rental_uris":{"android":"levelo://app?vid=c714f173-3926-4a29-8e03-6a6e5e920dfb","ios":"levelo://app?vid=c714f173-3926-4a29-8e03-6a6e5e920dfb"},"vehicle_type_id":"4","last_reported":1758730418,"current_range_meters":15200,"station_id":"ce4bhr12rcd13ifvqhqg","pricing_plan_id":"cebpf4jnsgd1na2vs0mg"},{"bike_id":"026c8bb0-a4af-47c5-bbff-94be634cfc94","system_id":"levelo_inurba_marseille","lat":43.25085,"lon":5.39527,"is_reserved":false,"is_disabled":false,"rental_uris":{"android":"levelo://app?vid=026c8bb0-a4af-47c5-bbff-94be634cfc94","ios":"levelo://app?vid=026c8bb0-a4af-47c5-bbff-94be634cfc94"},"vehicle_type_id":"4","last_reported":1758730418,"current_range_meters":16400,"station_id":"ce4bhm12rcd13ifvqgkg","pricing_plan_id":"cebpf4jnsgd1na2vs0mg"},{"bike_id":"0e9ca394-4351-4bf8-a641-f4e5215baf20","system_id":"levelo_inurba_marseille","lat":43.28267,"lon":5.3507,"is_reserved":false,"is_disabled":false,"rental_uris":{"android":"levelo://app?vid=0e9ca394-4351-4bf8-a641-f4e5215baf20","ios":"levelo://app?vid=0e9ca394-4351-4bf8-a641-f4e5215baf20"},"vehicle_type_id":"4","last_reported":1758730418,"current_range_meters":16400,"station_id":"ce4bhbp2rcd13ifvqerg","pricing_plan_id":"cebpf4jnsgd1na2vs0mg"},{"bike_id":"129c8450-4cca-4e9f-b9f6-538b0080ad49","system_id":"levelo_inurba_marseille","lat":43.32552,"lon":5.38923,"is_reserved":false,"is_disabled":false,"rental_uris":{"android":"levelo://app?vid=129c8450-4cca-4e9f-b9f6-538b0080ad49","ios":"levelo://app?vid=129c8450-4cca-4e9f-b9f6-538b0080ad49"},"vehicle_type_id":"4","last_reported":1758730418,"current_range_meters":16400,"station_id":"","pricing_plan_id":"cebpf4jnsgd1na2vs0mg"},{"bike_id":"d2be082e-bd73-4203-addb-18871b3a9587","system_id":"levelo_inurba_marseille","lat":43.2942,"lon":5.37476,"is_reserved":false,"is_disabled":false,"rental_uris":{"android":"levelo://app?vid=d2be082e-bd73-4203-addb-18871b3a9587","ios":"levelo://app?vid=d2be082e-bd73-4203-addb-18871b3a9587"},"vehicle_type_id":"4","last_reported":1758730418,"current_range_meters":16400,"station_id":"","pricing_plan_id":"cebpf4jnsgd1na2vs0mg"},{"bike_id":"307dc0d4-f0af-4144-8a09-1c97098433ca","system_id":"levelo_inurba_marseille","lat":43.27935,"lon":5.41033,"is_reserved":false,"is_disabled":false,"rental_uris":{"android":"levelo://app?vid=307dc0d4-f0af-4144-8a09-1c97098433ca","ios":"levelo://app?vid=307dc0d4-f0af-4144-8a09-1c97098433ca"},"vehicle_type_id":"4","last_reported":1758730418,"current_range_meters":16400,"station_id":"ce4bhnp2rcd13ifvqh0g","pricing_plan_id":"cebpf4jnsgd1na2vs0mg"},{"bike_id":"ad9a6248-1b43-4fc5-bfba-44f7d3067aab","system_id":"levelo_inurba_marseille","lat":43.21195,"lon":5.35077,"is_reserved":false,"is_disabled":false,"rental_uris":{"android":"levelo://app?vid=ad9a6248-1b43-4fc5-bfba-44f7d3067aab","ios":"levelo://app?vid=ad9a6248-1b43-4fc5-bfba-44f7d3067aab"},"vehicle_type_id":"4","last_reported":1758730418,"current_range_meters":16400,"station_id":"st_cvj6sg6p6f1abm77japg","pricing_plan_id":"cebpf4jnsgd1na2vs0mg"},{"bike_id":"76120965-4163-4dc1-a9c2-0a7491a56324","system_id":"levelo_inurba_marseille","lat":43.28942,"lon":5.39639,"is_reserved":false,"is_disabled":false,"rental_uris":{"android":"levelo://app?vid=76120965-4163-4dc1-a9c2-0a7491a56324","ios":"levelo://app?vid=76120965-4163-4dc1-a9c2-0a7491a56324"},"vehicle_type_id":"4","last_reported":1758730418,"current_range_meters":14000,"station_id":"ce4bh3h2rcd13ifvqdn0","pricing_plan_id":"cebpf4jnsgd1na2vs0mg"},{"bike_id":"505a1bb5-fd69-4c8f-9e36-a1deebc87a49","system_id":"levelo_inurba_marseille","lat":43.2693,"lon":5.38923,"is_reserved":false,"is_disabled":false,"rental_uris":{"android":"levelo://app?vid=505a1bb5-fd69-4c8f-9e36-a1deebc87a49","ios":"levelo://app?vid=505a1bb5-fd69-4c8f-9e36-a1deebc87a49"},"vehicle_type_id":"4","last_reported":1758730418,"current_range_meters":16400,"station_id":"ce4bhhh2rcd13ifvqfl0","pricing_plan_id":"cebpf4jnsgd1na2vs0mg"},{"bike_id":"81518bab-ceae-4c1d-8147-d3ce39eccca8","system_id":"levelo_inurba_marseille","lat":43.28973,"lon":5.37845,"is_reserved":false,"is_disabled":false,"rental_uris":{"android":"levelo://app?vid=81518bab-ceae-4c1d-8147-d3ce39eccca8","ios":"levelo://app?vid=81518bab-ceae-4c1d-8147-d3ce39eccca8"},"vehicle_type_id":"4","last_reported":1758730418,"current_range_meters":16400,"station_id":"ce4bh9p2rcd13ifvqed0","pricing_plan_id":"cebpf4jnsgd1na2vs0mg"},{"bike_id":"63b3daeb-cf1c-4aa8-97b1-d5b690f0ac49","system_id":"levelo_inurba_marseille","lat":43.2812,"lon":5.43219,"is_reserved":false,"is_disabled":false,"rental_uris":{"android":"levelo://app?vid=63b3daeb-cf1c-4aa8-97b1-d5b690f0ac49","ios":"levelo://app?vid=63b3daeb-cf1c-4aa8-97b1-d5b690f0ac49"},"vehicle_type_id":"4","last_reported":1758730418,"current_range_meters":16400,"station_id":"","pricing_plan_id":"cebpf4jnsgd1na2vs0mg"},{"bike_id":"42e55e64-b3ae-4c0b-8d70-2ccbf82b9ee9","system_id":"levelo_inurba_marseille","lat":43.255835,"lon":5.382347,"is_reserved":false,"is_disabled":false,"rental_uris":{"android":"levelo://app?vid=42e55e64-b3ae-4c0b-8d70-2ccbf82b9ee9","ios":"levelo://app?vid=42e55e64-b3ae-4c0b-8d70-2ccbf82b9ee9"},"vehicle_type_id":"4","last_reported":1758730418,"current_range_meters":16400,"station_id":"ce4bhih2rcd13ifvqfs0","pricing_plan_id":"cebpf4jnsgd1na2vs0mg"},{"bike_id":"e8a19985-25f1-40e7-9e7e-6a7736849460","system_id":"levelo_inurba_marseille","lat":43.28725,"lon":5.360781,"is_reserved":false,"is_disabled":false,"rental_uris":{"android":"levelo://app?vid=e8a19985-25f1-40e7-9e7e-6a7736849460","ios":"levelo://app?vid=e8a19985-25f1-40e7-9e7e-6a7736849460"},"vehicle_type_id":"4","last_reported":1758730418,"current_range_meters":16800,"station_id":"cki0cbj6b192h4jlfktg","pricing_plan_id":"cebpf4jnsgd1na2vs0mg"},{"bike_id":"0334c664-c853-4f38-a46f-30751b2874a4","system_id":"levelo_inurba_marseille","lat":43.29048,"lon":5.35932,"is_reserved":false,"is_disabled":true,"rental_uris":{"android":"levelo://app?vid=0334c664-c853-4f38-a46f-30751b2874a4","ios":"levelo://app?vid=0334c664-c853-4f38-a46f-30751b2874a4"},"vehicle_type_id":"4","last_reported":1758730418,"current_range_meters":16800,"station_id":"ce4bha92rcd13ifvqeg0","pricing_plan_id":"cebpf4jnsgd1na2vs0mg"},{"bike_id":"2bd2a176-8590-4e06-8b8c-a96b49b7b36a","system_id":"levelo_inurba_marseille","lat":43.262237,"lon":5.404538,"is_reserved":false,"is_disabled":false,"rental_uris":{"android":"levelo://app?vid=2bd2a176-8590-4e06-8b8c-a96b49b7b36a","ios":"levelo://app?vid=2bd2a176-8590-4e06-8b8c-a96b49b7b36a"},"vehicle_type_id":"4","last_reported":1758730418,"current_range_meters":16800,"station_id":"","pricing_plan_id":"cebpf4jnsgd1na2vs0mg"},{"bike_id":"6ce97256-6e29-4ee4-b817-ac92bdd5aea1","system_id":"levelo_inurba_marseille","lat":43.22534,"lon":5.34835,"is_reserved":false,"is_disabled":false,"rental_uris":{"android":"levelo://app?vid=6ce97256-6e29-4ee4-b817-ac92bdd5aea1","ios":"levelo://app?vid=6ce97256-6e29-4ee4-b817-ac92bdd5aea1"},"vehicle_type_id":"4","last_reported":1758730418,"current_range_meters":16800,"station_id":"","pricing_plan_id":"cebpf4jnsgd1na2vs0mg"},{"bike_id":"a6ad0c6c-868d-42f3-ba54-573e1a175a36","system_id":"levelo_inurba_marseille","lat":43.26261,"lon":5.41301,"is_reserved":false,"is_disabled":false,"rental_uris":{"android":"levelo://app?vid=a6ad0c6c-868d-42f3-ba54-573e1a175a36","ios":"levelo://app?vid=a6ad0c6c-868d-42f3-ba54-573e1a175a36"},"vehicle_type_id":"4","last_reported":1758730418,"current_range_meters":16800,"station_id":"","pricing_plan_id":"cebpf4jnsgd1na2vs0mg"},{"bike_id":"a3383983-1a81-4f66-8f19-2363b98e3729","system_id":"levelo_inurba_marseille","lat":43.26561,"lon":5.39024,"is_reserved":false,"is_disabled":true,"rental_uris":{"android":"levelo://app?vid=a3383983-1a81-4f66-8f19-2363b98e3729","ios":"levelo://app?vid=a3383983-1a81-4f66-8f19-2363b98e3729"},"vehicle_type_id":"4","last_reported":1758730418,"current_range_meters":16800,"station_id":"ce4bhe12rcd13ifvqf30","pricing_plan_id":"cebpf4jnsgd1na2vs0mg"},{"bike_id":"003515e8-8117-44bb-979d-5f47e8d50fda","system_id":"levelo_inurba_marseille","lat":43.30617,"lon":5.37573,"is_reserved":false,"is_disabled":false,"rental_uris":{"android":"levelo://app?vid=003515e8-8117-44bb-979d-5f47e8d50fda","ios":"levelo://app?vid=003515e8-8117-44bb-979d-5f47e8d50fda"},"vehicle_type_id":"4","last_reported":1758730418,"current_range_meters":17200,"station_id":"","pricing_plan_id":"cebpf4jnsgd1na2vs0mg"},{"bike_id":"2a9778a0-088d-4bd4-b210-b75d21f0f4fa","system_id":"levelo_inurba_marseille","lat":43.28934,"lon":5.36641,"is_reserved":false,"is_disabled":false,"rental_uris":{"android":"levelo://app?vid=2a9778a0-088d-4bd4-b210-b75d21f0f4fa","ios":"levelo://app?vid=2a9778a0-088d-4bd4-b210-b75d21f0f4fa"},"vehicle_type_id":"4","last_reported":1758730418,"current_range_meters":17200,"station_id":"ce4bhap2rcd13ifvqek0","pricing_plan_id":"cebpf4jnsgd1na2vs0mg"},{"bike_id":"5b2e4301-8a04-44b6-bb74-5f97ee4e1633","system_id":"levelo_inurba_marseille","lat":43.27344,"lon":5.36235,"is_reserved":false,"is_disabled":false,"rental_uris":{"android":"levelo://app?vid=5b2e4301-8a04-44b6-bb74-5f97ee4e1633","ios":"levelo://app?vid=5b2e4301-8a04-44b6-bb74-5f97ee4e1633"},"vehicle_type_id":"4","last_reported":1758730418,"current_range_meters":17200,"station_id":"ce4bhbh2rcd13ifvqeo0","pricing_plan_id":"cebpf4jnsgd1na2vs0mg"},{"bike_id":"7f26efef-5bca-4964-9649-a135cb9baf4f","system_id":"levelo_inurba_marseille","lat":43.25098,"lon":5.39539,"is_reserved":false,"is_disabled":false,"rental_uris":{"android":"levelo://app?vid=7f26efef-5bca-4964-9649-a135cb9baf4f","ios":"levelo://app?vid=7f26efef-5bca-4964-9649-a135cb9baf4f"},"vehicle_type_id":"4","last_reported":1758730418,"current_range_meters":17200,"station_id":"ce4bhm12rcd13ifvqgkg","pricing_plan_id":"cebpf4jnsgd1na2vs0mg"},{"bike_id":"2865e8a9-e6fd-47b8-8029-33c3420fdb82","system_id":"levelo_inurba_marseille","lat":43.29941,"lon":5.36539,"is_reserved":false,"is_disabled":false,"rental_uris":{"android":"levelo://app?vid=2865e8a9-e6fd-47b8-8029-33c3420fdb82","ios":"levelo://app?vid=2865e8a9-e6fd-47b8-8029-33c3420fdb82"},"vehicle_type_id":"4","last_reported":1758730418,"current_range_meters":17200,"station_id":"ce4bgm92rcd13ifvqbr0","pricing_plan_id":"cebpf4jnsgd1na2vs0mg"},{"bike_id":"d1e700cc-caf1-4577-9f1c-b2cd09d88529","system_id":"levelo_inurba_marseille","lat":43.25575,"lon":5.38231,"is_reserved":false,"is_disabled":false,"rental_uris":{"android":"levelo://app?vid=d1e700cc-caf1-4577-9f1c-b2cd09d88529","ios":"levelo://app?vid=d1e700cc-caf1-4577-9f1c-b2cd09d88529"},"vehicle_type_id":"4","last_reported":1758730418,"current_range_meters":17200,"station_id":"ce4bhih2rcd13ifvqfs0","pricing_plan_id":"cebpf4jnsgd1na2vs0mg"},{"bike_id":"f3557076-508d-4f04-8eb6-883d65d6828f","system_id":"levelo_inurba_marseille","lat":43.250904,"lon":5.395239,"is_reserved":false,"is_disabled":false,"rental_uris":{"android":"levelo://app?vid=f3557076-508d-4f04-8eb6-883d65d6828f","ios":"levelo://app?vid=f3557076-508d-4f04-8eb6-883d65d6828f"},"vehicle_type_id":"4","last_reported":1758730418,"current_range_meters":17200,"station_id":"ce4bhm12rcd13ifvqgkg","pricing_plan_id":"cebpf4jnsgd1na2vs0mg"},{"bike_id":"29237101-5788-433a-a817-fd7db1732b5b","system_id":"levelo_inurba_marseille","lat":43.28405,"lon":5.37508,"is_reserved":false,"is_disabled":false,"rental_uris":{"android":"levelo://app?vid=29237101-5788-433a-a817-fd7db1732b5b","ios":"levelo://app?vid=29237101-5788-433a-a817-fd7db1732b5b"},"vehicle_type_id":"4","last_reported":1758730418,"current_range_meters":17200,"station_id":"ce4bh412rcd13ifvqds0","pricing_plan_id":"cebpf4jnsgd1na2vs0mg"},{"bike_id":"46923300-e0d3-40c1-8c76-7dadc761100f","system_id":"levelo_inurba_marseille","lat":43.28954,"lon":5.35576,"is_reserved":false,"is_disabled":false,"rental_uris":{"android":"levelo://app?vid=46923300-e0d3-40c1-8c76-7dadc761100f","ios":"levelo://app?vid=46923300-e0d3-40c1-8c76-7dadc761100f"},"vehicle_type_id":"4","last_reported":1758730418,"current_range_meters":17200,"station_id":"ce4bhb92rcd13ifvqen0","pricing_plan_id":"cebpf4jnsgd1na2vs0mg"},{"bike_id":"212de2eb-8bbc-413c-b204-9fe1facd76e8","system_id":"levelo_inurba_marseille","lat":43.31318,"lon":5.37816,"is_reserved":false,"is_disabled":false,"rental_uris":{"android":"levelo://app?vid=212de2eb-8bbc-413c-b204-9fe1facd76e8","ios":"levelo://app?vid=212de2eb-8bbc-413c-b204-9fe1facd76e8"},"vehicle_type_id":"4","last_reported":1758730418,"current_range_meters":17200,"station_id":"","pricing_plan_id":"cebpf4jnsgd1na2vs0mg"},{"bike_id":"d40f7edf-abc7-4bbf-b442-c4720b8e16b8","system_id":"levelo_inurba_marseille","lat":43.29274,"lon":5.38459,"is_reserved":false,"is_disabled":false,"rental_uris":{"android":"levelo://app?vid=d40f7edf-abc7-4bbf-b442-c4720b8e16b8","ios":"levelo://app?vid=d40f7edf-abc7-4bbf-b442-c4720b8e16b8"},"vehicle_type_id":"4","last_reported":1758730418,"current_range_meters":17200,"station_id":"ce4bh692rcd13ifvqea0","pricing_plan_id":"cebpf4jnsgd1na2vs0mg"},{"bike_id":"6f665ff3-fef0-4916-a39f-296789b4c89c","system_id":"levelo_inurba_marseille","lat":43.29793,"lon":5.40402,"is_reserved":false,"is_disabled":false,"rental_uris":{"android":"levelo://app?vid=6f665ff3-fef0-4916-a39f-296789b4c89c","ios":"levelo://app?vid=6f665ff3-fef0-4916-a39f-296789b4c89c"},"vehicle_type_id":"4","last_reported":1758730418,"current_range_meters":17200,"station_id":"ce4bh112rcd13ifvqd90","pricing_plan_id":"cebpf4jnsgd1na2vs0mg"},{"bike_id":"eb1b93db-50c7-4a0a-a309-9dd4716776e3","system_id":"levelo_inurba_marseille","lat":43.30143,"lon":5.3877,"is_reserved":false,"is_disabled":false,"rental_uris":{"android":"levelo://app?vid=eb1b93db-50c7-4a0a-a309-9dd4716776e3","ios":"levelo://app?vid=eb1b93db-50c7-4a0a-a309-9dd4716776e3"},"vehicle_type_id":"4","last_reported":1758730418,"current_range_meters":17600,"station_id":"ce4bghh2rcd13ifvqb60","pricing_plan_id":"cebpf4jnsgd1na2vs0mg"},{"bike_id":"b33afcb9-323b-4b25-b34a-d7ff770bee10","system_id":"levelo_inurba_marseille","lat":43.27372,"lon":5.36259,"is_reserved":false,"is_disabled":false,"rental_uris":{"android":"levelo://app?vid=b33afcb9-323b-4b25-b34a-d7ff770bee10","ios":"levelo://app?vid=b33afcb9-323b-4b25-b34a-d7ff770bee10"},"vehicle_type_id":"4","last_reported":1758730418,"current_range_meters":17600,"station_id":"ce4bhbh2rcd13ifvqeo0","pricing_plan_id":"cebpf4jnsgd1na2vs0mg"},{"bike_id":"429b97eb-f7cc-4d35-b219-e8e26e3f47e0","system_id":"levelo_inurba_marseille","lat":43.27376,"lon":5.36254,"is_reserved":false,"is_disabled":false,"rental_uris":{"android":"levelo://app?vid=429b97eb-f7cc-4d35-b219-e8e26e3f47e0","ios":"levelo://app?vid=429b97eb-f7cc-4d35-b219-e8e26e3f47e0"},"vehicle_type_id":"4","last_reported":1758730418,"current_range_meters":17600,"station_id":"ce4bhbh2rcd13ifvqeo0","pricing_plan_id":"cebpf4jnsgd1na2vs0mg"},{"bike_id":"3d92d89c-5954-4c11-8342-8713e70d6384","system_id":"levelo_inurba_marseille","lat":43.24662,"lon":5.38164,"is_reserved":false,"is_disabled":false,"rental_uris":{"android":"levelo://app?vid=3d92d89c-5954-4c11-8342-8713e70d6384","ios":"levelo://app?vid=3d92d89c-5954-4c11-8342-8713e70d6384"},"vehicle_type_id":"4","last_reported":1758730418,"current_range_meters":17600,"station_id":"ce4bhih2rcd13ifvqfr0","pricing_plan_id":"cebpf4jnsgd1na2vs0mg"},{"bike_id":"7291f26c-4df3-4b94-863a-36ab55dd7149","system_id":"levelo_inurba_marseille","lat":43.29964,"lon":5.37556,"is_reserved":false,"is_disabled":false,"rental_uris":{"android":"levelo://app?vid=7291f26c-4df3-4b94-863a-36ab55dd7149","ios":"levelo://app?vid=7291f26c-4df3-4b94-863a-36ab55dd7149"},"vehicle_type_id":"4","last_reported":1758730418,"current_range_meters":17600,"station_id":"","pricing_plan_id":"cebpf4jnsgd1na2vs0mg"},{"bike_id":"7259b554-d939-421b-8cc8-5369527ce4fa","system_id":"levelo_inurba_marseille","lat":43.301302,"lon":5.398791,"is_reserved":false,"is_disabled":false,"rental_uris":{"android":"levelo://app?vid=7259b554-d939-421b-8cc8-5369527ce4fa","ios":"levelo://app?vid=7259b554-d939-421b-8cc8-5369527ce4fa"},"vehicle_type_id":"4","last_reported":1758730418,"current_range_meters":17600,"station_id":"ce4bh0h2rcd13ifvqd40","pricing_plan_id":"cebpf4jnsgd1na2vs0mg"},{"bike_id":"c3fc2c56-8946-4650-8440-7460dd1f0882","system_id":"levelo_inurba_marseille","lat":43.23175,"lon":5.39988,"is_reserved":false,"is_disabled":false,"rental_uris":{"android":"levelo://app?vid=c3fc2c56-8946-4650-8440-7460dd1f0882","ios":"levelo://app?vid=c3fc2c56-8946-4650-8440-7460dd1f0882"},"vehicle_type_id":"4","last_reported":1758730418,"current_range_meters":17600,"station_id":"ce4bhn12rcd13ifvqgqg","pricing_plan_id":"cebpf4jnsgd1na2vs0mg"},{"bike_id":"327c041e-5c9e-4b0d-a97c-a2dbaab036ae","system_id":"levelo_inurba_marseille","lat":43.32804,"lon":5.41092,"is_reserved":false,"is_disabled":false,"rental_uris":{"android":"levelo://app?vid=327c041e-5c9e-4b0d-a97c-a2dbaab036ae","ios":"levelo://app?vid=327c041e-5c9e-4b0d-a97c-a2dbaab036ae"},"vehicle_type_id":"4","last_reported":1758730418,"current_range_meters":18000,"station_id":"","pricing_plan_id":"cebpf4jnsgd1na2vs0mg"},{"bike_id":"324fa3e8-1b17-4614-8e38-0c73fbcf46bf","system_id":"levelo_inurba_marseille","lat":43.28478,"lon":5.38416,"is_reserved":false,"is_disabled":false,"rental_uris":{"android":"levelo://app?vid=324fa3e8-1b17-4614-8e38-0c73fbcf46bf","ios":"levelo://app?vid=324fa3e8-1b17-4614-8e38-0c73fbcf46bf"},"vehicle_type_id":"4","last_reported":1758730418,"current_range_meters":18000,"station_id":"ce4bh512rcd13ifvqe3g","pricing_plan_id":"cebpf4jnsgd1na2vs0mg"},{"bike_id":"fd4b0929-5dae-4f92-bfeb-801c6778a0f5","system_id":"levelo_inurba_marseille","lat":43.26553,"lon":5.37288,"is_reserved":false,"is_disabled":true,"rental_uris":{"android":"levelo://app?vid=fd4b0929-5dae-4f92-bfeb-801c6778a0f5","ios":"levelo://app?vid=fd4b0929-5dae-4f92-bfeb-801c6778a0f5"},"vehicle_type_id":"4","last_reported":1758730418,"current_range_meters":18000,"station_id":"ce4bhg12rcd13ifvqf70","pricing_plan_id":"cebpf4jnsgd1na2vs0mg"},{"bike_id":"9897e99f-a98f-4c2c-865c-55cc81b5115a","system_id":"levelo_inurba_marseille","lat":43.30899,"lon":5.37188,"is_reserved":false,"is_disabled":false,"rental_uris":{"android":"levelo://app?vid=9897e99f-a98f-4c2c-865c-55cc81b5115a","ios":"levelo://app?vid=9897e99f-a98f-4c2c-865c-55cc81b5115a"},"vehicle_type_id":"4","last_reported":1758730418,"current_range_meters":18800,"station_id":"ce4bguh2rcd13ifvqckg","pricing_plan_id":"cebpf4jnsgd1na2vs0mg"},{"bike_id":"f897d300-643c-4c7a-951b-f56d70ef23ca","system_id":"levelo_inurba_marseille","lat":43.30326,"lon":5.39077,"is_reserved":false,"is_disabled":false,"rental_uris":{"android":"levelo://app?vid=f897d300-643c-4c7a-951b-f56d70ef23ca","ios":"levelo://app?vid=f897d300-643c-4c7a-951b-f56d70ef23ca"},"vehicle_type_id":"4","last_reported":1758730418,"current_range_meters":19200,"station_id":"","pricing_plan_id":"cebpf4jnsgd1na2vs0mg"},{"bike_id":"50e50ce9-ae57-4870-80a4-dbb918849641","system_id":"levelo_inurba_marseille","lat":43.28038,"lon":5.36942,"is_reserved":false,"is_disabled":false,"rental_uris":{"android":"levelo://app?vid=50e50ce9-ae57-4870-80a4-dbb918849641","ios":"levelo://app?vid=50e50ce9-ae57-4870-80a4-dbb918849641"},"vehicle_type_id":"4","last_reported":1758730418,"current_range_meters":18800,"station_id":"ce4bha12rcd13ifvqef0","pricing_plan_id":"cebpf4jnsgd1na2vs0mg"},{"bike_id":"a5d5f64a-2cdd-401a-8230-9aa62d155c21","system_id":"levelo_inurba_marseille","lat":43.26493,"lon":5.39541,"is_reserved":false,"is_disabled":false,"rental_uris":{"android":"levelo://app?vid=a5d5f64a-2cdd-401a-8230-9aa62d155c21","ios":"levelo://app?vid=a5d5f64a-2cdd-401a-8230-9aa62d155c21"},"vehicle_type_id":"4","last_reported":1758730418,"current_range_meters":18800,"station_id":"ce4bhi12rcd13ifvqfq0","pricing_plan_id":"cebpf4jnsgd1na2vs0mg"},{"bike_id":"725b1ff1-3894-44f1-a38e-91bc39cbab7e","system_id":"levelo_inurba_marseille","lat":43.24635,"lon":5.43178,"is_reserved":false,"is_disabled":false,"rental_uris":{"android":"levelo://app?vid=725b1ff1-3894-44f1-a38e-91bc39cbab7e","ios":"levelo://app?vid=725b1ff1-3894-44f1-a38e-91bc39cbab7e"},"vehicle_type_id":"4","last_reported":1758730418,"current_range_meters":18800,"station_id":"st_d2m6c4gdas8pm72e190g","pricing_plan_id":"cebpf4jnsgd1na2vs0mg"},{"bike_id":"a932b376-757e-4760-b510-416140cd436a","system_id":"levelo_inurba_marseille","lat":43.31274,"lon":5.4017,"is_reserved":false,"is_disabled":false,"rental_uris":{"android":"levelo://app?vid=a932b376-757e-4760-b510-416140cd436a","ios":"levelo://app?vid=a932b376-757e-4760-b510-416140cd436a"},"vehicle_type_id":"4","last_reported":1758730418,"current_range_meters":18800,"station_id":"ce4bh092rcd13ifvqd30","pricing_plan_id":"cebpf4jnsgd1na2vs0mg"},{"bike_id":"0c16ac8a-a536-4d89-a0b4-2803631fd83e","system_id":"levelo_inurba_marseille","lat":43.25001,"lon":5.38938,"is_reserved":false,"is_disabled":false,"rental_uris":{"android":"levelo://app?vid=0c16ac8a-a536-4d89-a0b4-2803631fd83e","ios":"levelo://app?vid=0c16ac8a-a536-4d89-a0b4-2803631fd83e"},"vehicle_type_id":"4","last_reported":1758730418,"current_range_meters":18800,"station_id":"ce4bhgp2rcd13ifvqfd0","pricing_plan_id":"cebpf4jnsgd1na2vs0mg"},{"bike_id":"f799cfee-8db6-47d0-9211-1dd04a3e1a27","system_id":"levelo_inurba_marseille","lat":43.24177,"lon":5.39713,"is_reserved":false,"is_disabled":true,"rental_uris":{"android":"levelo://app?vid=f799cfee-8db6-47d0-9211-1dd04a3e1a27","ios":"levelo://app?vid=f799cfee-8db6-47d0-9211-1dd04a3e1a27"},"vehicle_type_id":"4","last_reported":1758730418,"current_range_meters":18800,"station_id":"ce4bhn12rcd13ifvqgpg","pricing_plan_id":"cebpf4jnsgd1na2vs0mg"},{"bike_id":"9d5ffde1-0a5d-408c-8fbc-f6f6c0348b2f","system_id":"levelo_inurba_marseille","lat":43.30248,"lon":5.40055,"is_reserved":false,"is_disabled":false,"rental_uris":{"android":"levelo://app?vid=9d5ffde1-0a5d-408c-8fbc-f6f6c0348b2f","ios":"levelo://app?vid=9d5ffde1-0a5d-408c-8fbc-f6f6c0348b2f"},"vehicle_type_id":"4","last_reported":1758730418,"current_range_meters":18800,"station_id":"ce4bgvh2rcd13ifvqcs0","pricing_plan_id":"cebpf4jnsgd1na2vs0mg"},{"bike_id":"d31d856a-933d-49cf-948f-ce03657dfc74","system_id":"levelo_inurba_marseille","lat":43.28412,"lon":5.34983,"is_reserved":false,"is_disabled":false,"rental_uris":{"android":"levelo://app?vid=d31d856a-933d-49cf-948f-ce03657dfc74","ios":"levelo://app?vid=d31d856a-933d-49cf-948f-ce03657dfc74"},"vehicle_type_id":"4","last_reported":1758730418,"current_range_meters":18800,"station_id":"ce4bhbh2rcd13ifvqepg","pricing_plan_id":"cebpf4jnsgd1na2vs0mg"},{"bike_id":"77d598a6-bfa8-4645-81e0-09e93145a394","system_id":"levelo_inurba_marseille","lat":43.31333,"lon":5.39703,"is_reserved":false,"is_disabled":false,"rental_uris":{"android":"levelo://app?vid=77d598a6-bfa8-4645-81e0-09e93145a394","ios":"levelo://app?vid=77d598a6-bfa8-4645-81e0-09e93145a394"},"vehicle_type_id":"4","last_reported":1758730418,"current_range_meters":18800,"station_id":"ce4bgvp2rcd13ifvqcu0","pricing_plan_id":"cebpf4jnsgd1na2vs0mg"},{"bike_id":"34b4a03b-b1f7-4ba5-8104-6c2a703ab62d","system_id":"levelo_inurba_marseille","lat":43.29801,"lon":5.40414,"is_reserved":false,"is_disabled":false,"rental_uris":{"android":"levelo://app?vid=34b4a03b-b1f7-4ba5-8104-6c2a703ab62d","ios":"levelo://app?vid=34b4a03b-b1f7-4ba5-8104-6c2a703ab62d"},"vehicle_type_id":"4","last_reported":1758730418,"current_range_meters":18800,"station_id":"ce4bh112rcd13ifvqd90","pricing_plan_id":"cebpf4jnsgd1na2vs0mg"},{"bike_id":"cea30fe1-4e3f-40b0-b169-3e98f81a6b51","system_id":"levelo_inurba_marseille","lat":43.30793,"lon":5.37656,"is_reserved":false,"is_disabled":false,"rental_uris":{"android":"levelo://app?vid=cea30fe1-4e3f-40b0-b169-3e98f81a6b51","ios":"levelo://app?vid=cea30fe1-4e3f-40b0-b169-3e98f81a6b51"},"vehicle_type_id":"4","last_reported":1758730418,"current_range_meters":19200,"station_id":"ce4bgv92rcd13ifvqcq0","pricing_plan_id":"cebpf4jnsgd1na2vs0mg"},{"bike_id":"31778f4a-0d8e-4183-8e75-59f794cb3230","system_id":"levelo_inurba_marseille","lat":43.284148,"lon":5.375088,"is_reserved":false,"is_disabled":false,"rental_uris":{"android":"levelo://app?vid=31778f4a-0d8e-4183-8e75-59f794cb3230","ios":"levelo://app?vid=31778f4a-0d8e-4183-8e75-59f794cb3230"},"vehicle_type_id":"4","last_reported":1758730418,"current_range_meters":19200,"station_id":"ce4bh412rcd13ifvqds0","pricing_plan_id":"cebpf4jnsgd1na2vs0mg"},{"bike_id":"d55f7cff-ce18-4107-992e-8cb8fb12b05f","system_id":"levelo_inurba_marseille","lat":43.23201,"lon":5.35576,"is_reserved":false,"is_disabled":false,"rental_uris":{"android":"levelo://app?vid=d55f7cff-ce18-4107-992e-8cb8fb12b05f","ios":"levelo://app?vid=d55f7cff-ce18-4107-992e-8cb8fb12b05f"},"vehicle_type_id":"4","last_reported":1758730418,"current_range_meters":19200,"station_id":"ce4bhu92rcd13ifvqi70","pricing_plan_id":"cebpf4jnsgd1na2vs0mg"},{"bike_id":"8bfd4ad7-1868-455b-a826-2c7afc201f8c","system_id":"levelo_inurba_marseille","lat":43.28933,"lon":5.36405,"is_reserved":false,"is_disabled":false,"rental_uris":{"android":"levelo://app?vid=8bfd4ad7-1868-455b-a826-2c7afc201f8c","ios":"levelo://app?vid=8bfd4ad7-1868-455b-a826-2c7afc201f8c"},"vehicle_type_id":"4","last_reported":1758730418,"current_range_meters":19200,"station_id":"ce4bhc92rcd13ifvqetg","pricing_plan_id":"cebpf4jnsgd1na2vs0mg"},{"bike_id":"454f86f1-5b50-4920-b37b-d00f38a81530","system_id":"levelo_inurba_marseille","lat":43.29528,"lon":5.39034,"is_reserved":false,"is_disabled":false,"rental_uris":{"android":"levelo://app?vid=454f86f1-5b50-4920-b37b-d00f38a81530","ios":"levelo://app?vid=454f86f1-5b50-4920-b37b-d00f38a81530"},"vehicle_type_id":"4","last_reported":1758730418,"current_range_meters":18800,"station_id":"ce4bh3p2rcd13ifvqdp0","pricing_plan_id":"cebpf4jnsgd1na2vs0mg"},{"bike_id":"041cd397-24ab-4e04-af23-07b961e161f4","system_id":"levelo_inurba_marseille","lat":43.337444,"lon":5.374475,"is_reserved":false,"is_disabled":false,"rental_uris":{"android":"levelo://app?vid=041cd397-24ab-4e04-af23-07b961e161f4","ios":"levelo://app?vid=041cd397-24ab-4e04-af23-07b961e161f4"},"vehicle_type_id":"4","last_reported":1758730418,"current_range_meters":19200,"station_id":"","pricing_plan_id":"cebpf4jnsgd1na2vs0mg"},{"bike_id":"b6ff3672-4e7c-404c-ab2a-bd902cf95e14","system_id":"levelo_inurba_marseille","lat":43.26845,"lon":5.4069,"is_reserved":false,"is_disabled":false,"rental_uris":{"android":"levelo://app?vid=b6ff3672-4e7c-404c-ab2a-bd902cf95e14","ios":"levelo://app?vid=b6ff3672-4e7c-404c-ab2a-bd902cf95e14"},"vehicle_type_id":"4","last_reported":1758730418,"current_range_meters":19200,"station_id":"","pricing_plan_id":"cebpf4jnsgd1na2vs0mg"},{"bike_id":"abdf9bc2-7280-46c4-9ff1-5c47121b6260","system_id":"levelo_inurba_marseille","lat":43.32287,"lon":5.38273,"is_reserved":false,"is_disabled":false,"rental_uris":{"android":"levelo://app?vid=abdf9bc2-7280-46c4-9ff1-5c47121b6260","ios":"levelo://app?vid=abdf9bc2-7280-46c4-9ff1-5c47121b6260"},"vehicle_type_id":"4","last_reported":1758730418,"current_range_meters":19200,"station_id":"ce4bhr12rcd13ifvqhqg","pricing_plan_id":"cebpf4jnsgd1na2vs0mg"},{"bike_id":"e5303607-da03-4ac7-b81e-b332ede84cf7","system_id":"levelo_inurba_marseille","lat":43.31309,"lon":5.37819,"is_reserved":false,"is_disabled":false,"rental_uris":{"android":"levelo://app?vid=e5303607-da03-4ac7-b81e-b332ede84cf7","ios":"levelo://app?vid=e5303607-da03-4ac7-b81e-b332ede84cf7"},"vehicle_type_id":"4","last_reported":1758730418,"current_range_meters":19200,"station_id":"","pricing_plan_id":"cebpf4jnsgd1na2vs0mg"},{"bike_id":"df181ff8-6841-45a2-bcb1-9a21ee620eb0","system_id":"levelo_inurba_marseille","lat":43.27379,"lon":5.36259,"is_reserved":false,"is_disabled":false,"rental_uris":{"android":"levelo://app?vid=df181ff8-6841-45a2-bcb1-9a21ee620eb0","ios":"levelo://app?vid=df181ff8-6841-45a2-bcb1-9a21ee620eb0"},"vehicle_type_id":"4","last_reported":1758730418,"current_range_meters":19600,"station_id":"ce4bhbh2rcd13ifvqeo0","pricing_plan_id":"cebpf4jnsgd1na2vs0mg"},{"bike_id":"e8ae97af-9e81-4f83-b9c5-f182bf87d9c9","system_id":"levelo_inurba_marseille","lat":43.29622,"lon":5.3716,"is_reserved":false,"is_disabled":false,"rental_uris":{"android":"levelo://app?vid=e8ae97af-9e81-4f83-b9c5-f182bf87d9c9","ios":"levelo://app?vid=e8ae97af-9e81-4f83-b9c5-f182bf87d9c9"},"vehicle_type_id":"4","last_reported":1758730418,"current_range_meters":19200,"station_id":"ce4bgnh2rcd13ifvqc0g","pricing_plan_id":"cebpf4jnsgd1na2vs0mg"},{"bike_id":"0b2f8964-1fd1-460b-86d1-058d4c110a4c","system_id":"levelo_inurba_marseille","lat":43.28668,"lon":5.38666,"is_reserved":false,"is_disabled":false,"rental_uris":{"android":"levelo://app?vid=0b2f8964-1fd1-460b-86d1-058d4c110a4c","ios":"levelo://app?vid=0b2f8964-1fd1-460b-86d1-058d4c110a4c"},"vehicle_type_id":"4","last_reported":1758730418,"current_range_meters":19600,"station_id":"ce4bh492rcd13ifvqdug","pricing_plan_id":"cebpf4jnsgd1na2vs0mg"},{"bike_id":"cf64f5a1-85bb-4012-acd5-309d066b1fe7","system_id":"levelo_inurba_marseille","lat":43.24181,"lon":5.3973,"is_reserved":false,"is_disabled":true,"rental_uris":{"android":"levelo://app?vid=cf64f5a1-85bb-4012-acd5-309d066b1fe7","ios":"levelo://app?vid=cf64f5a1-85bb-4012-acd5-309d066b1fe7"},"vehicle_type_id":"4","last_reported":1758730418,"current_range_meters":19600,"station_id":"ce4bhn12rcd13ifvqgpg","pricing_plan_id":"cebpf4jnsgd1na2vs0mg"},{"bike_id":"dec5e3d0-16cf-4f61-8905-2078866bf757","system_id":"levelo_inurba_marseille","lat":43.25083,"lon":5.39536,"is_reserved":false,"is_disabled":false,"rental_uris":{"android":"levelo://app?vid=dec5e3d0-16cf-4f61-8905-2078866bf757","ios":"levelo://app?vid=dec5e3d0-16cf-4f61-8905-2078866bf757"},"vehicle_type_id":"4","last_reported":1758730418,"current_range_meters":19600,"station_id":"ce4bhm12rcd13ifvqgkg","pricing_plan_id":"cebpf4jnsgd1na2vs0mg"},{"bike_id":"f4b3087f-f29d-4f17-9f19-412721bf06be","system_id":"levelo_inurba_marseille","lat":43.29549,"lon":5.38538,"is_reserved":false,"is_disabled":false,"rental_uris":{"android":"levelo://app?vid=f4b3087f-f29d-4f17-9f19-412721bf06be","ios":"levelo://app?vid=f4b3087f-f29d-4f17-9f19-412721bf06be"},"vehicle_type_id":"4","last_reported":1758730418,"current_range_meters":19600,"station_id":"ce4bgih2rcd13ifvqba0","pricing_plan_id":"cebpf4jnsgd1na2vs0mg"},{"bike_id":"6abd614c-0214-499f-b1c3-13ed9e66f219","system_id":"levelo_inurba_marseille","lat":43.29869,"lon":5.39744,"is_reserved":false,"is_disabled":false,"rental_uris":{"android":"levelo://app?vid=6abd614c-0214-499f-b1c3-13ed9e66f219","ios":"levelo://app?vid=6abd614c-0214-499f-b1c3-13ed9e66f219"},"vehicle_type_id":"4","last_reported":1758730418,"current_range_meters":19600,"station_id":"ce4bh0h2rcd13ifvqd50","pricing_plan_id":"cebpf4jnsgd1na2vs0mg"},{"bike_id":"48969fc5-da72-45cf-9245-fd5f47558fcd","system_id":"levelo_inurba_marseille","lat":43.28419,"lon":5.3498,"is_reserved":false,"is_disabled":false,"rental_uris":{"android":"levelo://app?vid=48969fc5-da72-45cf-9245-fd5f47558fcd","ios":"levelo://app?vid=48969fc5-da72-45cf-9245-fd5f47558fcd"},"vehicle_type_id":"4","last_reported":1758730418,"current_range_meters":19600,"station_id":"ce4bhbh2rcd13ifvqepg","pricing_plan_id":"cebpf4jnsgd1na2vs0mg"},{"bike_id":"0dab6405-c52b-44ff-814b-79e0588d924e","system_id":"levelo_inurba_marseille","lat":43.28663,"lon":5.36348,"is_reserved":false,"is_disabled":false,"rental_uris":{"android":"levelo://app?vid=0dab6405-c52b-44ff-814b-79e0588d924e","ios":"levelo://app?vid=0dab6405-c52b-44ff-814b-79e0588d924e"},"vehicle_type_id":"4","last_reported":1758730418,"current_range_meters":19600,"station_id":"ce4bhah2rcd13ifvqej0","pricing_plan_id":"cebpf4jnsgd1na2vs0mg"},{"bike_id":"055257d3-b71c-4f5c-85a1-9f34b8e92098","system_id":"levelo_inurba_marseille","lat":43.28607,"lon":5.35103,"is_reserved":false,"is_disabled":false,"rental_uris":{"android":"levelo://app?vid=055257d3-b71c-4f5c-85a1-9f34b8e92098","ios":"levelo://app?vid=055257d3-b71c-4f5c-85a1-9f34b8e92098"},"vehicle_type_id":"4","last_reported":1758730418,"current_range_meters":20000,"station_id":"ce4bhch2rcd13ifvqeug","pricing_plan_id":"cebpf4jnsgd1na2vs0mg"},{"bike_id":"0e06939a-ce8d-4173-a347-b8a2ad0fffaf","system_id":"levelo_inurba_marseille","lat":43.28155,"lon":5.42648,"is_reserved":false,"is_disabled":false,"rental_uris":{"android":"levelo://app?vid=0e06939a-ce8d-4173-a347-b8a2ad0fffaf","ios":"levelo://app?vid=0e06939a-ce8d-4173-a347-b8a2ad0fffaf"},"vehicle_type_id":"4","last_reported":1758730418,"current_range_meters":19600,"station_id":"ce4bhnh2rcd13ifvqgug","pricing_plan_id":"cebpf4jnsgd1na2vs0mg"},{"bike_id":"9a86a782-4b6c-4076-8480-4c51152b9c45","system_id":"levelo_inurba_marseille","lat":43.27621,"lon":5.36105,"is_reserved":false,"is_disabled":false,"rental_uris":{"android":"levelo://app?vid=9a86a782-4b6c-4076-8480-4c51152b9c45","ios":"levelo://app?vid=9a86a782-4b6c-4076-8480-4c51152b9c45"},"vehicle_type_id":"4","last_reported":1758730418,"current_range_meters":20000,"station_id":"ce4bgj92rcd13ifvqbe0","pricing_plan_id":"cebpf4jnsgd1na2vs0mg"},{"bike_id":"ac3adcb1-b8fe-4651-b615-e1e2d42f3f5b","system_id":"levelo_inurba_marseille","lat":43.28468,"lon":5.3589,"is_reserved":false,"is_disabled":false,"rental_uris":{"android":"levelo://app?vid=ac3adcb1-b8fe-4651-b615-e1e2d42f3f5b","ios":"levelo://app?vid=ac3adcb1-b8fe-4651-b615-e1e2d42f3f5b"},"vehicle_type_id":"4","last_reported":1758730418,"current_range_meters":19600,"station_id":"ce4bhah2rcd13ifvqei0","pricing_plan_id":"cebpf4jnsgd1na2vs0mg"},{"bike_id":"047cbadf-61f3-4710-bf13-d3db7d81e87a","system_id":"levelo_inurba_marseille","lat":43.30122,"lon":5.38767,"is_reserved":false,"is_disabled":true,"rental_uris":{"android":"levelo://app?vid=047cbadf-61f3-4710-bf13-d3db7d81e87a","ios":"levelo://app?vid=047cbadf-61f3-4710-bf13-d3db7d81e87a"},"vehicle_type_id":"4","last_reported":1758730418,"current_range_meters":20000,"station_id":"ce4bghh2rcd13ifvqb60","pricing_plan_id":"cebpf4jnsgd1na2vs0mg"},{"bike_id":"62f6eb76-b8dc-4da1-9f91-942ec2d07b36","system_id":"levelo_inurba_marseille","lat":43.28859,"lon":5.39321,"is_reserved":false,"is_disabled":false,"rental_uris":{"android":"levelo://app?vid=62f6eb76-b8dc-4da1-9f91-942ec2d07b36","ios":"levelo://app?vid=62f6eb76-b8dc-4da1-9f91-942ec2d07b36"},"vehicle_type_id":"4","last_reported":1758730418,"current_range_meters":20000,"station_id":"ce4bh2p2rcd13ifvqdi0","pricing_plan_id":"cebpf4jnsgd1na2vs0mg"},{"bike_id":"4d696934-c066-4ffe-9afe-8fad6b0ee377","system_id":"levelo_inurba_marseille","lat":43.29197,"lon":5.35822,"is_reserved":false,"is_disabled":false,"rental_uris":{"android":"levelo://app?vid=4d696934-c066-4ffe-9afe-8fad6b0ee377","ios":"levelo://app?vid=4d696934-c066-4ffe-9afe-8fad6b0ee377"},"vehicle_type_id":"4","last_reported":1758730418,"current_range_meters":20000,"station_id":"ce4bhb12rcd13ifvqel0","pricing_plan_id":"cebpf4jnsgd1na2vs0mg"},{"bike_id":"3a1d3e45-268d-469c-94f8-ae665bfee549","system_id":"levelo_inurba_marseille","lat":43.29898,"lon":5.43671,"is_reserved":false,"is_disabled":false,"rental_uris":{"android":"levelo://app?vid=3a1d3e45-268d-469c-94f8-ae665bfee549","ios":"levelo://app?vid=3a1d3e45-268d-469c-94f8-ae665bfee549"},"vehicle_type_id":"4","last_reported":1758730418,"current_range_meters":19600,"station_id":"ce4bhpp2rcd13ifvqhfg","pricing_plan_id":"cebpf4jnsgd1na2vs0mg"},{"bike_id":"bb1d1f40-cc6b-4c26-a7f1-cc757bf0fd1a","system_id":"levelo_inurba_marseille","lat":43.29278,"lon":5.38441,"is_reserved":false,"is_disabled":false,"rental_uris":{"android":"levelo://app?vid=bb1d1f40-cc6b-4c26-a7f1-cc757bf0fd1a","ios":"levelo://app?vid=bb1d1f40-cc6b-4c26-a7f1-cc757bf0fd1a"},"vehicle_type_id":"4","last_reported":1758730418,"current_range_meters":20000,"station_id":"ce4bh692rcd13ifvqea0","pricing_plan_id":"cebpf4jnsgd1na2vs0mg"},{"bike_id":"ea3579c9-6e0a-422d-bf7a-6d7084b1abec","system_id":"levelo_inurba_marseille","lat":43.30408,"lon":5.3904,"is_reserved":false,"is_disabled":false,"rental_uris":{"android":"levelo://app?vid=ea3579c9-6e0a-422d-bf7a-6d7084b1abec","ios":"levelo://app?vid=ea3579c9-6e0a-422d-bf7a-6d7084b1abec"},"vehicle_type_id":"4","last_reported":1758730418,"current_range_meters":20400,"station_id":"ce4bgk12rcd13ifvqbi0","pricing_plan_id":"cebpf4jnsgd1na2vs0mg"},{"bike_id":"36242867-9d19-49d9-9e18-a29d8f2e5e4d","system_id":"levelo_inurba_marseille","lat":43.27375,"lon":5.36249,"is_reserved":false,"is_disabled":false,"rental_uris":{"android":"levelo://app?vid=36242867-9d19-49d9-9e18-a29d8f2e5e4d","ios":"levelo://app?vid=36242867-9d19-49d9-9e18-a29d8f2e5e4d"},"vehicle_type_id":"4","last_reported":1758730418,"current_range_meters":20400,"station_id":"ce4bhbh2rcd13ifvqeo0","pricing_plan_id":"cebpf4jnsgd1na2vs0mg"},{"bike_id":"c0983932-f00f-4b7b-9a88-a7f131101922","system_id":"levelo_inurba_marseille","lat":43.287272,"lon":5.360902,"is_reserved":false,"is_disabled":false,"rental_uris":{"android":"levelo://app?vid=c0983932-f00f-4b7b-9a88-a7f131101922","ios":"levelo://app?vid=c0983932-f00f-4b7b-9a88-a7f131101922"},"vehicle_type_id":"4","last_reported":1758730418,"current_range_meters":20400,"station_id":"cki0cbj6b192h4jlfktg","pricing_plan_id":"cebpf4jnsgd1na2vs0mg"},{"bike_id":"34333769-e8c6-459d-a0d3-7d2a6f42f157","system_id":"levelo_inurba_marseille","lat":43.23966,"lon":5.36619,"is_reserved":false,"is_disabled":false,"rental_uris":{"android":"levelo://app?vid=34333769-e8c6-459d-a0d3-7d2a6f42f157","ios":"levelo://app?vid=34333769-e8c6-459d-a0d3-7d2a6f42f157"},"vehicle_type_id":"4","last_reported":1758730418,"current_range_meters":20400,"station_id":"ce4bhi12rcd13ifvqfp0","pricing_plan_id":"cebpf4jnsgd1na2vs0mg"},{"bike_id":"237d670d-1d71-4e5a-9874-9ef01d2c1669","system_id":"levelo_inurba_marseille","lat":43.23066,"lon":5.35493,"is_reserved":false,"is_disabled":false,"rental_uris":{"android":"levelo://app?vid=237d670d-1d71-4e5a-9874-9ef01d2c1669","ios":"levelo://app?vid=237d670d-1d71-4e5a-9874-9ef01d2c1669"},"vehicle_type_id":"4","last_reported":1758730418,"current_range_meters":20400,"station_id":"cpo3342slgdg3j2ifvpg","pricing_plan_id":"cebpf4jnsgd1na2vs0mg"},{"bike_id":"fd932ade-417c-4592-9a3e-ed76e4a844cd","system_id":"levelo_inurba_marseille","lat":43.27349,"lon":5.36246,"is_reserved":false,"is_disabled":false,"rental_uris":{"android":"levelo://app?vid=fd932ade-417c-4592-9a3e-ed76e4a844cd","ios":"levelo://app?vid=fd932ade-417c-4592-9a3e-ed76e4a844cd"},"vehicle_type_id":"4","last_reported":1758730418,"current_range_meters":20400,"station_id":"ce4bhbh2rcd13ifvqeo0","pricing_plan_id":"cebpf4jnsgd1na2vs0mg"},{"bike_id":"d2c32aa4-eb6d-4037-b4bc-16b296387f88","system_id":"levelo_inurba_marseille","lat":43.246508,"lon":5.388915,"is_reserved":false,"is_disabled":false,"rental_uris":{"android":"levelo://app?vid=d2c32aa4-eb6d-4037-b4bc-16b296387f88","ios":"levelo://app?vid=d2c32aa4-eb6d-4037-b4bc-16b296387f88"},"vehicle_type_id":"4","last_reported":1758730418,"current_range_meters":20400,"station_id":"ce4bhg12rcd13ifvqf60","pricing_plan_id":"cebpf4jnsgd1na2vs0mg"},{"bike_id":"a57b3feb-2354-42fe-87fd-e8fcee3a0260","system_id":"levelo_inurba_marseille","lat":43.26953,"lon":5.40241,"is_reserved":false,"is_disabled":false,"rental_uris":{"android":"levelo://app?vid=a57b3feb-2354-42fe-87fd-e8fcee3a0260","ios":"levelo://app?vid=a57b3feb-2354-42fe-87fd-e8fcee3a0260"},"vehicle_type_id":"4","last_reported":1758730418,"current_range_meters":20400,"station_id":"","pricing_plan_id":"cebpf4jnsgd1na2vs0mg"},{"bike_id":"137e83e5-ae66-4442-917d-627de567b10d","system_id":"levelo_inurba_marseille","lat":43.31168,"lon":5.38721,"is_reserved":false,"is_disabled":false,"rental_uris":{"android":"levelo://app?vid=137e83e5-ae66-4442-917d-627de567b10d","ios":"levelo://app?vid=137e83e5-ae66-4442-917d-627de567b10d"},"vehicle_type_id":"4","last_reported":1758730418,"current_range_meters":20800,"station_id":"ce4bgv12rcd13ifvqcp0","pricing_plan_id":"cebpf4jnsgd1na2vs0mg"},{"bike_id":"08e0cd2a-fadf-42c2-8664-e53bc7751ea1","system_id":"levelo_inurba_marseille","lat":43.253472,"lon":5.421762,"is_reserved":false,"is_disabled":false,"rental_uris":{"android":"levelo://app?vid=08e0cd2a-fadf-42c2-8664-e53bc7751ea1","ios":"levelo://app?vid=08e0cd2a-fadf-42c2-8664-e53bc7751ea1"},"vehicle_type_id":"4","last_reported":1758730418,"current_range_meters":20800,"station_id":"","pricing_plan_id":"cebpf4jnsgd1na2vs0mg"},{"bike_id":"573525ee-0a6a-4169-8294-7a89fdbf9d63","system_id":"levelo_inurba_marseille","lat":43.30507,"lon":5.36795,"is_reserved":false,"is_disabled":false,"rental_uris":{"android":"levelo://app?vid=573525ee-0a6a-4169-8294-7a89fdbf9d63","ios":"levelo://app?vid=573525ee-0a6a-4169-8294-7a89fdbf9d63"},"vehicle_type_id":"4","last_reported":1758730418,"current_range_meters":20800,"station_id":"","pricing_plan_id":"cebpf4jnsgd1na2vs0mg"},{"bike_id":"fa82a94f-2c99-4ac7-8f83-9379e047c16d","system_id":"levelo_inurba_marseille","lat":43.295732,"lon":5.37506,"is_reserved":false,"is_disabled":false,"rental_uris":{"android":"levelo://app?vid=fa82a94f-2c99-4ac7-8f83-9379e047c16d","ios":"levelo://app?vid=fa82a94f-2c99-4ac7-8f83-9379e047c16d"},"vehicle_type_id":"4","last_reported":1758730418,"current_range_meters":20800,"station_id":"ce4bgh92rcd13ifvqb50","pricing_plan_id":"cebpf4jnsgd1na2vs0mg"},{"bike_id":"d794c515-ba22-4dd0-b42b-487656fc2407","system_id":"levelo_inurba_marseille","lat":43.30217,"lon":5.39454,"is_reserved":false,"is_disabled":false,"rental_uris":{"android":"levelo://app?vid=d794c515-ba22-4dd0-b42b-487656fc2407","ios":"levelo://app?vid=d794c515-ba22-4dd0-b42b-487656fc2407"},"vehicle_type_id":"4","last_reported":1758730418,"current_range_meters":20800,"station_id":"ce4bh0p2rcd13ifvqd70","pricing_plan_id":"cebpf4jnsgd1na2vs0mg"},