{"last_updated":1725974175,"ttl":30,"version":"2.2","data":{"bikes":[{"bike_id":"0fb61729-575d-4358-b502-bf6cf90618bd","system_id":"levelo_inurba_marseille","lat":43.26024,"lon":5.37553,"is_reserved":false,"is_disabled":false,"rental_uris":{"android":"levelo://app?vid=0fb61729-575d-4358-b502-bf6cf90618bd","ios":"levelo://app?vid=0fb61729-575d-4358-b502-bf6cf90618bd"},"vehicle_type_id":"4","last_reported":1725974175,"current_range_meters":34000,"station_id":"ce4bhgh2rcd13ifvqfa0","pricing_plan_id":"cebpf4jnsgd1na2vs0mg"},{"bike_id":"893900fa-905b-44d9-b4f5-8131c552abed","system_id":"levelo_inurba_marseille","lat":43.3054,"lon":5.36711,"is_reserved":false,"is_disabled":false,"rental_uris":{"android":"levelo://app?vid=893900fa-905b-44d9-b4f5-8131c552abed","ios":"levelo://app?vid=893900fa-905b-44d9-b4f5-8131c552abed"},"vehicle_type_id":"4","last_reported":1725974175,"current_range_meters":34800,"station_id":"ce4bgrp2rcd13ifvqc9g","pricing_plan_id":"cebpf4jnsgd1na2vs0mg"},{"bike_id":"bc30dbe3-2402-4b3a-b5da-8f5d9a126da2","system_id":"levelo_inurba_marseille","lat":43.25935,"lon":5.40905,"is_reserved":false,"is_disabled":false,"rental_uris":{"android":"levelo://app?vid=bc30dbe3-2402-4b3a-b5da-8f5d9a126da2","ios":"levelo://app?vid=bc30dbe3-2402-4b3a-b5da-8f5d9a126da2"},"vehicle_type_id":"4","last_reported":1725974175,"current_range_meters":25600,"station_id":"ce4bhm92rcd13ifvqglg","pricing_plan_id":"cebpf4jnsgd1na2vs0mg"},{"bike_id":"9938e91c-265b-40a5-a9ee-a8a818767b92","system_id":"levelo_inurba_marseille","lat":43.24665,"lon":5.3816,"is_reserved":false,"is_disabled":false,"rental_uris":{"android":"levelo://app?vid=9938e91c-265b-40a5-a9ee-a8a818767b92","ios":"levelo://app?vid=9938e91c-265b-40a5-a9ee-a8a818767b92"},"vehicle_type_id":"4","last_reported":1725974175,"current_range_meters":14400,"station_id":"ce4bhih2rcd13ifvqfr0","pricing_plan_id":"cebpf4jnsgd1na2vs0mg"},{"bike_id":"dce47342-aca1-4a7e-b8b6-23387cd20a97","system_id":"levelo_inurba_marseille","lat":43.30545,"lon":5.3672,"is_reserved":false,"is_disabled":false,"rental_uris":{"android":"levelo://app?vid=dce47342-aca1-4a7e-b8b6-23387cd20a97","ios":"levelo://app?vid=dce47342-aca1-4a7e-b8b6-23387cd20a97"},"vehicle_type_id":"4","last_reported":1725974175,"current_range_meters":31200,"station_id":"ce4bgrp2rcd13ifvqc9g","pricing_plan_id":"cebpf4jnsgd1na2vs0mg"},{"bike_id":"b02222ec-0387-4ff5-8918-29e62bcf5a98","system_id":"levelo_inurba_marseille","lat":43.32484,"lon":5.36572,"is_reserved":false,"is_disabled":false,"rental_uris":{"android":"levelo://app?vid=b02222ec-0387-4ff5-8918-29e62bcf5a98","ios":"levelo://app?vid=b02222ec-0387-4ff5-8918-29e62bcf5a98"},"vehicle_type_id":"4","last_reported":1725974175,"current_range_meters":20400,"station_id":"ce4bhs12rcd13ifvqhvg","pricing_plan_id":"cebpf4jnsgd1na2vs0mg"},{"bike_id":"25a734f0-5a58-49fa-9e2e-761a6040d468","system_id":"levelo_inurba_marseille","lat":43.23146,"lon":5.43727,"is_reserved":false,"is_disabled":false,"rental_uris":{"android":"levelo://app?vid=25a734f0-5a58-49fa-9e2e-761a6040d468","ios":"levelo://app?vid=25a734f0-5a58-49fa-9e2e-761a6040d468"},"vehicle_type_id":"4","last_reported":1725974175,"current_range_meters":28800,"station_id":"ce4bhmp2rcd13ifvqgog","pricing_plan_id":"cebpf4jnsgd1na2vs0mg"},{"bike_id":"273bfe13-bc71-40ca-9955-e31d49cb88e0","system_id":"levelo_inurba_marseille","lat":43.23962,"lon":5.3663,"is_reserved":false,"is_disabled":false,"rental_uris":{"android":"levelo://app?vid=273bfe13-bc71-40ca-9955-e31d49cb88e0","ios":"levelo://app?vid=273bfe13-bc71-40ca-9955-e31d49cb88e0"},"vehicle_type_id":"4","last_reported":1725974175,"current_range_meters":37600,"station_id":"ce4bhi12rcd13ifvqfp0","pricing_plan_id":"cebpf4jnsgd1na2vs0mg"},{"bike_id":"9bb555bb-acf7-44d8-a68b-c671619b7a5d","system_id":"levelo_inurba_marseille","lat":43.30545,"lon":5.36522,"is_reserved":false,"is_disabled":false,"rental_uris":{"android":"levelo://app?vid=9bb555bb-acf7-44d8-a68b-c671619b7a5d","ios":"levelo://app?vid=9bb555bb-acf7-44d8-a68b-c671619b7a5d"},"vehicle_type_id":"4","last_reported":1725974175,"current_range_meters":26000,"station_id":"ce4bgs12rcd13ifvqcag","pricing_plan_id":"cebpf4jnsgd1na2vs0mg"},{"bike_id":"8c4eda46-e4b3-4ccc-b695-331f8f6ee9f9","system_id":"levelo_inurba_marseille","lat":43.30191,"lon":5.36599,"is_reserved":false,"is_disabled":false,"rental_uris":{"android":"levelo://app?vid=8c4eda46-e4b3-4ccc-b695-331f8f6ee9f9","ios":"levelo://app?vid=8c4eda46-e4b3-4ccc-b695-331f8f6ee9f9"},"vehicle_type_id":"4","last_reported":1725974175,"current_range_meters":33600,"station_id":"ce4bgrh2rcd13ifvqc8g","pricing_plan_id":"cebpf4jnsgd1na2vs0mg"},{"bike_id":"6be65bdd-43ab-44ac-b088-8da004a89e1c","system_id":"levelo_inurba_marseille","lat":43.270689,"lon":5.422865,"is_reserved":false,"is_disabled":false,"rental_uris":{"android":"levelo://app?vid=6be65bdd-43ab-44ac-b088-8da004a89e1c","ios":"levelo://app?vid=6be65bdd-43ab-44ac-b088-8da004a89e1c"},"vehicle_type_id":"4","last_reported":1725974175,"current_range_meters":34800,"station_id":"ce4bhk92rcd13ifvqgb0","pricing_plan_id":"cebpf4jnsgd1na2vs0mg"},{"bike_id":"9c9ff9ee-5713-4fdd-8561-20dae85abb10","system_id":"levelo_inurba_marseille","lat":43.25828,"lon":5.39435,"is_reserved":false,"is_disabled":false,"rental_uris":{"android":"levelo://app?vid=9c9ff9ee-5713-4fdd-8561-20dae85abb10","ios":"levelo://app?vid=9c9ff9ee-5713-4fdd-8561-20dae85abb10"},"vehicle_type_id":"4","last_reported":1725974175,"current_range_meters":38800,"station_id":"ce4bhip2rcd13ifvqft0","pricing_plan_id":"cebpf4jnsgd1na2vs0mg"},{"bike_id":"c8882338-1a99-4495-a2fd-6aae73d050ab","system_id":"levelo_inurba_marseille","lat":43.31484,"lon":5.37305,"is_reserved":false,"is_disabled":false,"rental_uris":{"android":"levelo://app?vid=c8882338-1a99-4495-a2fd-6aae73d050ab","ios":"levelo://app?vid=c8882338-1a99-4495-a2fd-6aae73d050ab"},"vehicle_type_id":"4","last_reported":1725974175,"current_range_meters":17600,"station_id":"ce4bgt12rcd13ifvqcd0","pricing_plan_id":"cebpf4jnsgd1na2vs0mg"},{"bike_id":"1042a875-c985-4f0c-a4c8-9621191880b0","system_id":"levelo_inurba_marseille","lat":43.29008,"lon":5.35608,"is_reserved":false,"is_disabled":false,"rental_uris":{"android":"levelo://app?vid=1042a875-c985-4f0c-a4c8-9621191880b0","ios":"levelo://app?vid=1042a875-c985-4f0c-a4c8-9621191880b0"},"vehicle_type_id":"4","last_reported":1725974175,"current_range_meters":31200,"station_id":"ce4bhb92rcd13ifvqen0","pricing_plan_id":"cebpf4jnsgd1na2vs0mg"},{"bike_id":"4c925165-ddd5-43f0-902a-1bd71856d5a3","system_id":"levelo_inurba_marseille","lat":43.32293,"lon":5.38254,"is_reserved":false,"is_disabled":false,"rental_uris":{"android":"levelo://app?vid=4c925165-ddd5-43f0-902a-1bd71856d5a3","ios":"levelo://app?vid=4c925165-ddd5-43f0-902a-1bd71856d5a3"},"vehicle_type_id":"4","last_reported":1725974175,"current_range_meters":31200,"station_id":"ce4bhr12rcd13ifvqhqg","pricing_plan_id":"cebpf4jnsgd1na2vs0mg"},{"bike_id":"73204a20-b243-4f3c-bf49-9b59588294d1","system_id":"levelo_inurba_marseille","lat":43.23147,"lon":5.43716,"is_reserved":false,"is_disabled":false,"rental_uris":{"android":"levelo://app?vid=73204a20-b243-4f3c-bf49-9b59588294d1","ios":"levelo://app?vid=73204a20-b243-4f3c-bf49-9b59588294d1"},"vehicle_type_id":"4","last_reported":1725974175,"current_range_meters":36800,"station_id":"ce4bhmp2rcd13ifvqgog","pricing_plan_id":"cebpf4jnsgd1na2vs0mg"},{"bike_id":"c67b3145-b64c-4e79-b978-e96acfc986e1","system_id":"levelo_inurba_marseille","lat":43.29871,"lon":5.39729,"is_reserved":false,"is_disabled":false,"rental_uris":{"android":"levelo://app?vid=c67b3145-b64c-4e79-b978-e96acfc986e1","ios":"levelo://app?vid=c67b3145-b64c-4e79-b978-e96acfc986e1"},"vehicle_type_id":"4","last_reported":1725974175,"current_range_meters":12800,"station_id":"ce4bh0h2rcd13ifvqd50","pricing_plan_id":"cebpf4jnsgd1na2vs0mg"},{"bike_id":"173a22a6-c6b3-4156-ad2b-4962f41c7342","system_id":"levelo_inurba_marseille","lat":43.30539,"lon":5.367,"is_reserved":false,"is_disabled":false,"rental_uris":{"android":"levelo://app?vid=173a22a6-c6b3-4156-ad2b-4962f41c7342","ios":"levelo://app?vid=173a22a6-c6b3-4156-ad2b-4962f41c7342"},"vehicle_type_id":"4","last_reported":1725974175,"current_range_meters":33200,"station_id":"ce4bgrp2rcd13ifvqc9g","pricing_plan_id":"cebpf4jnsgd1na2vs0mg"},{"bike_id":"45394909-d814-44b6-afa7-948dd21d64e7","system_id":"levelo_inurba_marseille","lat":43.29791,"lon":5.38113,"is_reserved":false,"is_disabled":false,"rental_uris":{"android":"levelo://app?vid=45394909-d814-44b6-afa7-948dd21d64e7","ios":"levelo://app?vid=45394909-d814-44b6-afa7-948dd21d64e7"},"vehicle_type_id":"4","last_reported":1725974175,"current_range_meters":34800,"station_id":"ce4bgip2rcd13ifvqbb0","pricing_plan_id":"cebpf4jnsgd1na2vs0mg"},{"bike_id":"94e29059-0d77-4233-9463-de692fb902b0","system_id":"levelo_inurba_marseille","lat":43.31883,"lon":5.40735,"is_reserved":false,"is_disabled":false,"rental_uris":{"android":"levelo://app?vid=94e29059-0d77-4233-9463-de692fb902b0","ios":"levelo://app?vid=94e29059-0d77-4233-9463-de692fb902b0"},"vehicle_type_id":"4","last_reported":1725974175,"current_range_meters":7200,"station_id":"ce4bhq12rcd13ifvqhig","pricing_plan_id":"cebpf4jnsgd1na2vs0mg"},{"bike_id":"478bf159-1f70-41a1-b67b-91df675fdfb5","system_id":"levelo_inurba_marseille","lat":43.29969,"lon":5.38577,"is_reserved":false,"is_disabled":false,"rental_uris":{"android":"levelo://app?vid=478bf159-1f70-41a1-b67b-91df675fdfb5","ios":"levelo://app?vid=478bf159-1f70-41a1-b67b-91df675fdfb5"},"vehicle_type_id":"4","last_reported":1725974175,"current_range_meters":39200,"station_id":"ce4bgj92rcd13ifvqbd0","pricing_plan_id":"cebpf4jnsgd1na2vs0mg"},{"bike_id":"dc510910-565b-462f-b748-bb94068c24fb","system_id":"levelo_inurba_marseille","lat":43.28943,"lon":5.36403,"is_reserved":false,"is_disabled":false,"rental_uris":{"android":"levelo://app?vid=dc510910-565b-462f-b748-bb94068c24fb","ios":"levelo://app?vid=dc510910-565b-462f-b748-bb94068c24fb"},"vehicle_type_id":"4","last_reported":1725974175,"current_range_meters":32400,"station_id":"ce4bhc92rcd13ifvqetg","pricing_plan_id":"cebpf4jnsgd1na2vs0mg"},{"bike_id":"6cb8ddb4-2c59-4881-8576-0ee44461bcb4","system_id":"levelo_inurba_marseille","lat":43.29167,"lon":5.37157,"is_reserved":false,"is_disabled":false,"rental_uris":{"android":"levelo://app?vid=6cb8ddb4-2c59-4881-8576-0ee44461bcb4","ios":"levelo://app?vid=6cb8ddb4-2c59-4881-8576-0ee44461bcb4"},"vehicle_type_id":"4","last_reported":1725974175,"current_range_meters":9600,"station_id":"ce4bha92rcd13ifvqeh0","pricing_plan_id":"cebpf4jnsgd1na2vs0mg"},{"bike_id":"64f61e2f-b648-446b-89b8-07df7564758b","system_id":"levelo_inurba_marseille","lat":43.2407,"lon":5.37764,"is_reserved":false,"is_disabled":false,"rental_uris":{"android":"levelo://app?vid=64f61e2f-b648-446b-89b8-07df7564758b","ios":"levelo://app?vid=64f61e2f-b648-446b-89b8-07df7564758b"},"vehicle_type_id":"4","last_reported":1725974175,"current_range_meters":22000,"station_id":"ce4bhnp2rcd13ifvqgvg","pricing_plan_id":"cebpf4jnsgd1na2vs0mg"},{"bike_id":"12872647-4372-4cf2-9fc5-598f616cb55c","system_id":"levelo_inurba_marseille","lat":43.24085,"lon":5.37757,"is_reserved":false,"is_disabled":false,"rental_uris":{"android":"levelo://app?vid=12872647-4372-4cf2-9fc5-598f616cb55c","ios":"levelo://app?vid=12872647-4372-4cf2-9fc5-598f616cb55c"},"vehicle_type_id":"4","last_reported":1725974175,"current_range_meters":22000,"station_id":"ce4bhnp2rcd13ifvqgvg","pricing_plan_id":"cebpf4jnsgd1na2vs0mg"},{"bike_id":"8f7e7c6c-886c-4dbc-9b1a-c784a392ed20","system_id":"levelo_inurba_marseille","lat":43.2687,"lon":5.3944,"is_reserved":false,"is_disabled":false,"rental_uris":{"android":"levelo://app?vid=8f7e7c6c-886c-4dbc-9b1a-c784a392ed20","ios":"levelo://app?vid=8f7e7c6c-886c-4dbc-9b1a-c784a392ed20"},"vehicle_type_id":"4","last_reported":1725974175,"current_range_meters":8000,"station_id":"","pricing_plan_id":"cebpf4jnsgd1na2vs0mg"},{"bike_id":"a49c6fe7-1758-4be1-ab01-ceef53c84ab6","system_id":"levelo_inurba_marseille","lat":43.28436,"lon":5.39191,"is_reserved":false,"is_disabled":false,"rental_uris":{"android":"levelo://app?vid=a49c6fe7-1758-4be1-ab01-ceef53c84ab6","ios":"levelo://app?vid=a49c6fe7-1758-4be1-ab01-ceef53c84ab6"},"vehicle_type_id":"4","last_reported":1725974175,"current_range_meters":34000,"station_id":"ce4bhoh2rcd13ifvqh5g","pricing_plan_id":"cebpf4jnsgd1na2vs0mg"},{"bike_id":"d0a22151-5873-4516-ad59-35801290152e","system_id":"levelo_inurba_marseille","lat":43.23194,"lon":5.35559,"is_reserved":false,"is_disabled":false,"rental_uris":{"android":"levelo://app?vid=d0a22151-5873-4516-ad59-35801290152e","ios":"levelo://app?vid=d0a22151-5873-4516-ad59-35801290152e"},"vehicle_type_id":"4","last_reported":1725974175,"current_range_meters":9200,"station_id":"ce4bhu92rcd13ifvqi70","pricing_plan_id":"cebpf4jnsgd1na2vs0mg"},{"bike_id":"c179bd0e-0fc7-4e8b-9212-e9483470f832","system_id":"levelo_inurba_marseille","lat":43.29013,"lon":5.35606,"is_reserved":false,"is_disabled":false,"rental_uris":{"android":"levelo://app?vid=c179bd0e-0fc7-4e8b-9212-e9483470f832","ios":"levelo://app?vid=c179bd0e-0fc7-4e8b-9212-e9483470f832"},"vehicle_type_id":"4","last_reported":1725974175,"current_range_meters":26800,"station_id":"ce4bhb92rcd13ifvqen0","pricing_plan_id":"cebpf4jnsgd1na2vs0mg"},{"bike_id":"c901fedb-2b75-4297-a503-bd4d6dbc60d4","system_id":"levelo_inurba_marseille","lat":43.31496,"lon":5.37316,"is_reserved":false,"is_disabled":false,"rental_uris":{"android":"levelo://app?vid=c901fedb-2b75-4297-a503-bd4d6dbc60d4","ios":"levelo://app?vid=c901fedb-2b75-4297-a503-bd4d6dbc60d4"},"vehicle_type_id":"4","last_reported":1725974175,"current_range_meters":10800,"station_id":"ce4bgt12rcd13ifvqcd0","pricing_plan_id":"cebpf4jnsgd1na2vs0mg"},{"bike_id":"85088e45-bf43-47a0-8fdf-54879e70fc61","system_id":"levelo_inurba_marseille","lat":43.30386,"lon":5.40091,"is_reserved":false,"is_disabled":false,"rental_uris":{"android":"levelo://app?vid=85088e45-bf43-47a0-8fdf-54879e70fc61","ios":"levelo://app?vid=85088e45-bf43-47a0-8fdf-54879e70fc61"},"vehicle_type_id":"4","last_reported":1725974175,"current_range_meters":20800,"station_id":"ce4bgvp2rcd13ifvqct0","pricing_plan_id":"cebpf4jnsgd1na2vs0mg"},{"bike_id":"7c535371-a6c1-4cd3-9766-d26c2a070a3d","system_id":"levelo_inurba_marseille","lat":43.26495,"lon":5.39551,"is_reserved":false,"is_disabled":false,"rental_uris":{"android":"levelo://app?vid=7c535371-a6c1-4cd3-9766-d26c2a070a3d","ios":"levelo://app?vid=7c535371-a6c1-4cd3-9766-d26c2a070a3d"},"vehicle_type_id":"4","last_reported":1725974175,"current_range_meters":32800,"station_id":"ce4bhi12rcd13ifvqfq0","pricing_plan_id":"cebpf4jnsgd1na2vs0mg"},{"bike_id":"411394ad-f5e5-4901-a20a-4218de513303","system_id":"levelo_inurba_marseille","lat":43.30601,"lon":5.37225,"is_reserved":false,"is_disabled":false,"rental_uris":{"android":"levelo://app?vid=411394ad-f5e5-4901-a20a-4218de513303","ios":"levelo://app?vid=411394ad-f5e5-4901-a20a-4218de513303"},"vehicle_type_id":"4","last_reported":1725974175,"current_range_meters":17200,"station_id":"ce4bgqh2rcd13ifvqc4g","pricing_plan_id":"cebpf4jnsgd1na2vs0mg"},{"bike_id":"991dc262-8594-4763-acc7-883afce4a968","system_id":"levelo_inurba_marseille","lat":43.28615,"lon":5.37063,"is_reserved":false,"is_disabled":false,"rental_uris":{"android":"levelo://app?vid=991dc262-8594-4763-acc7-883afce4a968","ios":"levelo://app?vid=991dc262-8594-4763-acc7-883afce4a968"},"vehicle_type_id":"4","last_reported":1725974175,"current_range_meters":22400,"station_id":"ce4bht12rcd13ifvqi60","pricing_plan_id":"cebpf4jnsgd1na2vs0mg"},{"bike_id":"73eac6da-d621-4cd9-9ffb-b9e9ed4ba0b9","system_id":"levelo_inurba_marseille","lat":43.30129,"lon":5.37419,"is_reserved":false,"is_disabled":false,"rental_uris":{"android":"levelo://app?vid=73eac6da-d621-4cd9-9ffb-b9e9ed4ba0b9","ios":"levelo://app?vid=73eac6da-d621-4cd9-9ffb-b9e9ed4ba0b9"},"vehicle_type_id":"4","last_reported":1725974175,"current_range_meters":13600,"station_id":"ce4bgs92rcd13ifvqcc0","pricing_plan_id":"cebpf4jnsgd1na2vs0mg"},{"bike_id":"47383cd3-6119-4304-bb3a-0a9a3634a1f1","system_id":"levelo_inurba_marseille","lat":43.23144,"lon":5.43712,"is_reserved":false,"is_disabled":false,"rental_uris":{"android":"levelo://app?vid=47383cd3-6119-4304-bb3a-0a9a3634a1f1","ios":"levelo://app?vid=47383cd3-6119-4304-bb3a-0a9a3634a1f1"},"vehicle_type_id":"4","last_reported":1725974175,"current_range_meters":16000,"station_id":"ce4bhmp2rcd13ifvqgog","pricing_plan_id":"cebpf4jnsgd1na2vs0mg"},{"bike_id":"a4d5373b-202a-41bc-a6de-150b9afc8bf5","system_id":"levelo_inurba_marseille","lat":43.28617,"lon":5.35104,"is_reserved":false,"is_disabled":false,"rental_uris":{"android":"levelo://app?vid=a4d5373b-202a-41bc-a6de-150b9afc8bf5","ios":"levelo://app?vid=a4d5373b-202a-41bc-a6de-150b9afc8bf5"},"vehicle_type_id":"4","last_reported":1725974175,"current_range_meters":36400,"station_id":"ce4bhch2rcd13ifvqeug","pricing_plan_id":"cebpf4jnsgd1na2vs0mg"},{"bike_id":"29dcc1be-3ada-4b34-a880-04f11d46f91c","system_id":"levelo_inurba_marseille","lat":43.313145,"lon":5.396867,"is_reserved":false,"is_disabled":false,"rental_uris":{"android":"levelo://app?vid=29dcc1be-3ada-4b34-a880-04f11d46f91c","ios":"levelo://app?vid=29dcc1be-3ada-4b34-a880-04f11d46f91c"},"vehicle_type_id":"4","last_reported":1725974175,"current_range_meters":15200,"station_id":"ce4bgvp2rcd13ifvqcu0","pricing_plan_id":"cebpf4jnsgd1na2vs0mg"},{"bike_id":"9ca1b1ab-7330-4196-8f28-0317ed1181a4","system_id":"levelo_inurba_marseille","lat":43.29373,"lon":5.37862,"is_reserved":false,"is_disabled":false,"rental_uris":{"android":"levelo://app?vid=9ca1b1ab-7330-4196-8f28-0317ed1181a4","ios":"levelo://app?vid=9ca1b1ab-7330-4196-8f28-0317ed1181a4"},"vehicle_type_id":"4","last_reported":1725974175,"current_range_meters":22000,"station_id":"ce4bgjh2rcd13ifvqbf0","pricing_plan_id":"cebpf4jnsgd1na2vs0mg"},{"bike_id":"694fa979-5d79-423d-87a5-27d4438d57b4","system_id":"levelo_inurba_marseille","lat":43.27499,"lon":5.42457,"is_reserved":false,"is_disabled":false,"rental_uris":{"android":"levelo://app?vid=694fa979-5d79-423d-87a5-27d4438d57b4","ios":"levelo://app?vid=694fa979-5d79-423d-87a5-27d4438d57b4"},"vehicle_type_id":"4","last_reported":1725974175,"current_range_meters":11200,"station_id":"ce4bhn92rcd13ifvqgrg","pricing_plan_id":"cebpf4jnsgd1na2vs0mg"},{"bike_id":"b06acfd0-add7-4852-96d8-8fa4cc066522","system_id":"levelo_inurba_marseille","lat":43.337444,"lon":5.374475,"is_reserved":false,"is_disabled":false,"rental_uris":{"android":"levelo://app?vid=b06acfd0-add7-4852-96d8-8fa4cc066522","ios":"levelo://app?vid=b06acfd0-add7-4852-96d8-8fa4cc066522"},"vehicle_type_id":"4","last_reported":1725974175,"current_range_meters":26800,"station_id":"","pricing_plan_id":"cebpf4jnsgd1na2vs0mg"},{"bike_id":"d6d91414-352b-4c77-be5e-6808ace362f7","system_id":"levelo_inurba_marseille","lat":43.337444,"lon":5.374475,"is_reserved":false,"is_disabled":false,"rental_uris":{"android":"levelo://app?vid=d6d91414-352b-4c77-be5e-6808ace362f7","ios":"levelo://app?vid=d6d91414-352b-4c77-be5e-6808ace362f7"},"vehicle_type_id":"4","last_reported":1725974175,"current_range_meters":28800,"station_id":"","pricing_plan_id":"cebpf4jnsgd1na2vs0mg"},{"bike_id":"4e380fa7-cc89-4b13-a57a-10fece73ac37","system_id":"levelo_inurba_marseille","lat":43.23963,"lon":5.36631,"is_reserved":false,"is_disabled":false,"rental_uris":{"android":"levelo://app?vid=4e380fa7-cc89-4b13-a57a-10fece73ac37","ios":"levelo://app?vid=4e380fa7-cc89-4b13-a57a-10fece73ac37"},"vehicle_type_id":"4","last_reported":1725974175,"current_range_meters":9200,"station_id":"ce4bhi12rcd13ifvqfp0","pricing_plan_id":"cebpf4jnsgd1na2vs0mg"},{"bike_id":"8dd3632e-65f5-43c6-85ba-21fc2d593e80","system_id":"levelo_inurba_marseille","lat":43.28609,"lon":5.3707,"is_reserved":false,"is_disabled":false,"rental_uris":{"android":"levelo://app?vid=8dd3632e-65f5-43c6-85ba-21fc2d593e80","ios":"levelo://app?vid=8dd3632e-65f5-43c6-85ba-21fc2d593e80"},"vehicle_type_id":"4","last_reported":1725974175,"current_range_meters":3200,"station_id":"ce4bht12rcd13ifvqi60","pricing_plan_id":"cebpf4jnsgd1na2vs0mg"},{"bike_id":"730f1596-4499-46bb-bc0b-165e5703bfb2","system_id":"levelo_inurba_marseille","lat":43.28275,"lon":5.35058,"is_reserved":false,"is_disabled":false,"rental_uris":{"android":"levelo://app?vid=730f1596-4499-46bb-bc0b-165e5703bfb2","ios":"levelo://app?vid=730f1596-4499-46bb-bc0b-165e5703bfb2"},"vehicle_type_id":"4","last_reported":1725974175,"current_range_meters":38800,"station_id":"ce4bhbp2rcd13ifvqerg","pricing_plan_id":"cebpf4jnsgd1na2vs0mg"},{"bike_id":"83930c7c-b407-4eb6-addd-0120d359ab00","system_id":"levelo_inurba_marseille","lat":43.29903,"lon":5.43665,"is_reserved":false,"is_disabled":false,"rental_uris":{"android":"levelo://app?vid=83930c7c-b407-4eb6-addd-0120d359ab00","ios":"levelo://app?vid=83930c7c-b407-4eb6-addd-0120d359ab00"},"vehicle_type_id":"4","last_reported":1725974175,"current_range_meters":10800,"station_id":"ce4bhpp2rcd13ifvqhfg","pricing_plan_id":"cebpf4jnsgd1na2vs0mg"},{"bike_id":"a1e52c1c-3844-4829-9d7b-ff0033a9b77d","system_id":"levelo_inurba_marseille","lat":43.28421,"lon":5.34982,"is_reserved":false,"is_disabled":false,"rental_uris":{"android":"levelo://app?vid=a1e52c1c-3844-4829-9d7b-ff0033a9b77d","ios":"levelo://app?vid=a1e52c1c-3844-4829-9d7b-ff0033a9b77d"},"vehicle_type_id":"4","last_reported":1725974175,"current_range_meters":38800,"station_id":"ce4bhbh2rcd13ifvqepg","pricing_plan_id":"cebpf4jnsgd1na2vs0mg"},{"bike_id":"89cd74e4-2008-4080-b931-df01a8723c5a","system_id":"levelo_inurba_marseille","lat":43.29923,"lon":5.37456,"is_reserved":false,"is_disabled":false,"rental_uris":{"android":"levelo://app?vid=89cd74e4-2008-4080-b931-df01a8723c5a","ios":"levelo://app?vid=89cd74e4-2008-4080-b931-df01a8723c5a"},"vehicle_type_id":"4","last_reported":1725974175,"current_range_meters":16000,"station_id":"ce4bgjh2rcd13ifvqbg0","pricing_plan_id":"cebpf4jnsgd1na2vs0mg"},{"bike_id":"fdbc69cd-dfce-4a69-802a-21b3e0dd9d2b","system_id":"levelo_inurba_marseille","lat":43.308059,"lon":5.435251,"is_reserved":false,"is_disabled":false,"rental_uris":{"android":"levelo://app?vid=fdbc69cd-dfce-4a69-802a-21b3e0dd9d2b","ios":"levelo://app?vid=fdbc69cd-dfce-4a69-802a-21b3e0dd9d2b"},"vehicle_type_id":"4","last_reported":1725974175,"current_range_meters":18000,"station_id":"ce4bhph2rcd13ifvqheg","pricing_plan_id":"cebpf4jnsgd1na2vs0mg"},{"bike_id":"64f25725-e05b-4f29-8181-60e04b4ee309","system_id":"levelo_inurba_marseille","lat":43.24386,"lon":5.37063,"is_reserved":false,"is_disabled":false,"rental_uris":{"android":"levelo://app?vid=64f25725-e05b-4f29-8181-60e04b4ee309","ios":"levelo://app?vid=64f25725-e05b-4f29-8181-60e04b4ee309"},"vehicle_type_id":"4","last_reported":1725974175,"current_range_meters":6000,"station_id":"ce4bhhh2rcd13ifvqfk0","pricing_plan_id":"cebpf4jnsgd1na2vs0mg"},{"bike_id":"d18d194d-22cd-477e-97c4-b22b1974322c","system_id":"levelo_inurba_marseille","lat":43.25002,"lon":5.38934,"is_reserved":false,"is_disabled":false,"rental_uris":{"android":"levelo://app?vid=d18d194d-22cd-477e-97c4-b22b1974322c","ios":"levelo://app?vid=d18d194d-22cd-477e-97c4-b22b1974322c"},"vehicle_type_id":"4","last_reported":1725974175,"current_range_meters":38800,"station_id":"ce4bhgp2rcd13ifvqfd0","pricing_plan_id":"cebpf4jnsgd1na2vs0mg"},{"bike_id":"d120895e-f148-49f3-8242-be67666fd52b","system_id":"levelo_inurba_marseille","lat":43.337444,"lon":5.374475,"is_reserved":false,"is_disabled":false,"rental_uris":{"android":"levelo://app?vid=d120895e-f148-49f3-8242-be67666fd52b","ios":"levelo://app?vid=d120895e-f148-49f3-8242-be67666fd52b"},"vehicle_type_id":"4","last_reported":1725974175,"current_range_meters":37600,"station_id":"ce4bhp12rcd13ifvqh9g","pricing_plan_id":"cebpf4jnsgd1na2vs0mg"},{"bike_id":"4fcb88af-d8cb-4c21-95cc-dbbe59be27be","system_id":"levelo_inurba_marseille","lat":43.31358,"lon":5.36722,"is_reserved":false,"is_disabled":false,"rental_uris":{"android":"levelo://app?vid=4fcb88af-d8cb-4c21-95cc-dbbe59be27be","ios":"levelo://app?vid=4fcb88af-d8cb-4c21-95cc-dbbe59be27be"},"vehicle_type_id":"4","last_reported":1725974175,"current_range_meters":35200,"station_id":"ce4bgr92rcd13ifvqc6g","pricing_plan_id":"cebpf4jnsgd1na2vs0mg"},{"bike_id":"6dd40849-ac08-41ab-8b04-8c84397d377e","system_id":"levelo_inurba_marseille","lat":43.27182,"lon":5.40999,"is_reserved":false,"is_disabled":false,"rental_uris":{"android":"levelo://app?vid=6dd40849-ac08-41ab-8b04-8c84397d377e","ios":"levelo://app?vid=6dd40849-ac08-41ab-8b04-8c84397d377e"},"vehicle_type_id":"4","last_reported":1725974175,"current_range_meters":28000,"station_id":"ce4bhl12rcd13ifvqgf0","pricing_plan_id":"cebpf4jnsgd1na2vs0mg"},{"bike_id":"4385f121-e793-4793-9b5d-f26563c19d68","system_id":"levelo_inurba_marseille","lat":43.29877,"lon":5.38884,"is_reserved":false,"is_disabled":false,"rental_uris":{"android":"levelo://app?vid=4385f121-e793-4793-9b5d-f26563c19d68","ios":"levelo://app?vid=4385f121-e793-4793-9b5d-f26563c19d68"},"vehicle_type_id":"4","last_reported":1725974175,"current_range_meters":38800,"station_id":"ce4bh392rcd13ifvqdl0","pricing_plan_id":"cebpf4jnsgd1na2vs0mg"},{"bike_id":"35e60698-596c-4f8e-9c5b-f2842525c1ad","system_id":"levelo_inurba_marseille","lat":43.23181,"lon":5.39987,"is_reserved":false,"is_disabled":false,"rental_uris":{"android":"levelo://app?vid=35e60698-596c-4f8e-9c5b-f2842525c1ad","ios":"levelo://app?vid=35e60698-596c-4f8e-9c5b-f2842525c1ad"},"vehicle_type_id":"4","last_reported":1725974175,"current_range_meters":9200,"station_id":"ce4bhn12rcd13ifvqgqg","pricing_plan_id":"cebpf4jnsgd1na2vs0mg"},{"bike_id":"c28e9bbc-d8e6-43b3-9822-b4fc6860c17b","system_id":"levelo_inurba_marseille","lat":43.2781,"lon":5.40711,"is_reserved":false,"is_disabled":false,"rental_uris":{"android":"levelo://app?vid=c28e9bbc-d8e6-43b3-9822-b4fc6860c17b","ios":"levelo://app?vid=c28e9bbc-d8e6-43b3-9822-b4fc6860c17b"},"vehicle_type_id":"4","last_reported":1725974175,"current_range_meters":24400,"station_id":"ce4bhnh2rcd13ifvqgtg","pricing_plan_id":"cebpf4jnsgd1na2vs0mg"},{"bike_id":"6ed31116-f9a3-417f-88aa-f01c913c064d","system_id":"levelo_inurba_marseille","lat":43.25499,"lon":5.3765,"is_reserved":false,"is_disabled":false,"rental_uris":{"android":"levelo://app?vid=6ed31116-f9a3-417f-88aa-f01c913c064d","ios":"levelo://app?vid=6ed31116-f9a3-417f-88aa-f01c913c064d"},"vehicle_type_id":"4","last_reported":1725974175,"current_range_meters":17600,"station_id":"ce4bhh12rcd13ifvqff0","pricing_plan_id":"cebpf4jnsgd1na2vs0mg"},{"bike_id":"5cc8171a-6fc0-4aa8-80ba-6902c9e666ca","system_id":"levelo_inurba_marseille","lat":43.29633,"lon":5.3809,"is_reserved":false,"is_disabled":false,"rental_uris":{"android":"levelo://app?vid=5cc8171a-6fc0-4aa8-80ba-6902c9e666ca","ios":"levelo://app?vid=5cc8171a-6fc0-4aa8-80ba-6902c9e666ca"},"vehicle_type_id":"4","last_reported":1725974175,"current_range_meters":28000,"station_id":"ce4bgl12rcd13ifvqbo0","pricing_plan_id":"cebpf4jnsgd1na2vs0mg"},{"bike_id":"598d3977-a575-4cac-ac8b-adc49c5daa4d","system_id":"levelo_inurba_marseille","lat":43.2957,"lon":5.37508,"is_reserved":false,"is_disabled":false,"rental_uris":{"android":"levelo://app?vid=598d3977-a575-4cac-ac8b-adc49c5daa4d","ios":"levelo://app?vid=598d3977-a575-4cac-ac8b-adc49c5daa4d"},"vehicle_type_id":"4","last_reported":1725974175,"current_range_meters":3200,"station_id":"ce4bgh92rcd13ifvqb50","pricing_plan_id":"cebpf4jnsgd1na2vs0mg"},{"bike_id":"3c6c0f4e-a3ab-4518-a08c-6f8d1166e07c","system_id":"levelo_inurba_marseille","lat":43.23156,"lon":5.43714,"is_reserved":false,"is_disabled":false,"rental_uris":{"android":"levelo://app?vid=3c6c0f4e-a3ab-4518-a08c-6f8d1166e07c","ios":"levelo://app?vid=3c6c0f4e-a3ab-4518-a08c-6f8d1166e07c"},"vehicle_type_id":"4","last_reported":1725974175,"current_range_meters":38000,"station_id":"ce4bhmp2rcd13ifvqgog","pricing_plan_id":"cebpf4jnsgd1na2vs0mg"},{"bike_id":"50140da4-2900-48a1-863a-7cb20e415a73","system_id":"levelo_inurba_marseille","lat":43.337444,"lon":5.374475,"is_reserved":false,"is_disabled":false,"rental_uris":{"android":"levelo://app?vid=50140da4-2900-48a1-863a-7cb20e415a73","ios":"levelo://app?vid=50140da4-2900-48a1-863a-7cb20e415a73"},"vehicle_type_id":"4","last_reported":1725974175,"current_range_meters":36000,"station_id":"","pricing_plan_id":"cebpf4jnsgd1na2vs0mg"},{"bike_id":"e50ffad8-a5f9-40b3-942b-07d436f261a8","system_id":"levelo_inurba_marseille","lat":43.29252,"lon":5.40916,"is_reserved":false,"is_disabled":false,"rental_uris":{"android":"levelo://app?vid=e50ffad8-a5f9-40b3-942b-07d436f261a8","ios":"levelo://app?vid=e50ffad8-a5f9-40b3-942b-07d436f261a8"},"vehicle_type_id":"4","last_reported":1725974175,"current_range_meters":8800,"station_id":"ce4bh192rcd13ifvqdc0","pricing_plan_id":"cebpf4jnsgd1na2vs0mg"},{"bike_id":"fc7d615f-1a12-4f5c-822f-a64d0708f6e2","system_id":"levelo_inurba_marseille","lat":43.23158,"lon":5.43701,"is_reserved":false,"is_disabled":false,"rental_uris":{"android":"levelo://app?vid=fc7d615f-1a12-4f5c-822f-a64d0708f6e2","ios":"levelo://app?vid=fc7d615f-1a12-4f5c-822f-a64d0708f6e2"},"vehicle_type_id":"4","last_reported":1725974175,"current_range_meters":35200,"station_id":"ce4bhmp2rcd13ifvqgog","pricing_plan_id":"cebpf4jnsgd1na2vs0mg"},{"bike_id":"55b0748a-6342-463a-b54f-91b48bb38937","system_id":"levelo_inurba_marseille","lat":43.28281,"lon":5.35062,"is_reserved":false,"is_disabled":false,"rental_uris":{"android":"levelo://app?vid=55b0748a-6342-463a-b54f-91b48bb38937","ios":"levelo://app?vid=55b0748a-6342-463a-b54f-91b48bb38937"},"vehicle_type_id":"4","last_reported":1725974175,"current_range_meters":14400,"station_id":"ce4bhbp2rcd13ifvqerg","pricing_plan_id":"cebpf4jnsgd1na2vs0mg"},{"bike_id":"d21cb3aa-c77a-47a9-a07a-715b122e3520","system_id":"levelo_inurba_marseille","lat":43.33729,"lon":5.39188,"is_reserved":false,"is_disabled":false,"rental_uris":{"android":"levelo://app?vid=d21cb3aa-c77a-47a9-a07a-715b122e3520","ios":"levelo://app?vid=d21cb3aa-c77a-47a9-a07a-715b122e3520"},"vehicle_type_id":"4","last_reported":1725974175,"current_range_meters":39200,"station_id":"ce4bhr92rcd13ifvqhsg","pricing_plan_id":"cebpf4jnsgd1na2vs0mg"},{"bike_id":"99ff5113-63b8-4286-bc76-22496d34f647","system_id":"levelo_inurba_marseille","lat":43.23187,"lon":5.35553,"is_reserved":false,"is_disabled":false,"rental_uris":{"android":"levelo://app?vid=99ff5113-63b8-4286-bc76-22496d34f647","ios":"levelo://app?vid=99ff5113-63b8-4286-bc76-22496d34f647"},"vehicle_type_id":"4","last_reported":1725974175,"current_range_meters":4400,"station_id":"ce4bhu92rcd13ifvqi70","pricing_plan_id":"cebpf4jnsgd1na2vs0mg"},{"bike_id":"b2271fdc-77ec-463d-81cd-45840003e14b","system_id":"levelo_inurba_marseille","lat":43.28613,"lon":5.35099,"is_reserved":false,"is_disabled":false,"rental_uris":{"android":"levelo://app?vid=b2271fdc-77ec-463d-81cd-45840003e14b","ios":"levelo://app?vid=b2271fdc-77ec-463d-81cd-45840003e14b"},"vehicle_type_id":"4","last_reported":1725974175,"current_range_meters":37600,"station_id":"ce4bhch2rcd13ifvqeug","pricing_plan_id":"cebpf4jnsgd1na2vs0mg"},{"bike_id":"bc0c7842-1164-4503-a94b-e89f82d7ba1f","system_id":"levelo_inurba_marseille","lat":43.23153,"lon":5.43693,"is_reserved":false,"is_disabled":false,"rental_uris":{"android":"levelo://app?vid=bc0c7842-1164-4503-a94b-e89f82d7ba1f","ios":"levelo://app?vid=bc0c7842-1164-4503-a94b-e89f82d7ba1f"},"vehicle_type_id":"4","last_reported":1725974175,"current_range_meters":37600,"station_id":"ce4bhmp2rcd13ifvqgog","pricing_plan_id":"cebpf4jnsgd1na2vs0mg"},{"bike_id":"76931e01-0a1b-467c-94b4-85d4fdac48b1","system_id":"levelo_inurba_marseille","lat":43.29733,"lon":5.37687,"is_reserved":false,"is_disabled":false,"rental_uris":{"android":"levelo://app?vid=76931e01-0a1b-467c-94b4-85d4fdac48b1","ios":"levelo://app?vid=76931e01-0a1b-467c-94b4-85d4fdac48b1"},"vehicle_type_id":"4","last_reported":1725974175,"current_range_meters":37600,"station_id":"ce4bgkh2rcd13ifvqbl0","pricing_plan_id":"cebpf4jnsgd1na2vs0mg"},{"bike_id":"ff2ae51e-6b74-4dcd-b381-111744a01ab1","system_id":"levelo_inurba_marseille","lat":43.29025,"lon":5.38123,"is_reserved":false,"is_disabled":false,"rental_uris":{"android":"levelo://app?vid=ff2ae51e-6b74-4dcd-b381-111744a01ab1","ios":"levelo://app?vid=ff2ae51e-6b74-4dcd-b381-111744a01ab1"},"vehicle_type_id":"4","last_reported":1725974175,"current_range_meters":22000,"station_id":"ce4bh4p2rcd13ifvqe1g","pricing_plan_id":"cebpf4jnsgd1na2vs0mg"},{"bike_id":"ab9b8990-e378-4cf6-9ff1-6f0f22223b29","system_id":"levelo_inurba_marseille","lat":43.23149,"lon":5.43699,"is_reserved":false,"is_disabled":false,"rental_uris":{"android":"levelo://app?vid=ab9b8990-e378-4cf6-9ff1-6f0f22223b29","ios":"levelo://app?vid=ab9b8990-e378-4cf6-9ff1-6f0f22223b29"},"vehicle_type_id":"4","last_reported":1725974175,"current_range_meters":14800,"station_id":"ce4bhmp2rcd13ifvqgog","pricing_plan_id":"cebpf4jnsgd1na2vs0mg"},{"bike_id":"0da02860-d92a-4d21-814a-60f3b796e68d","system_id":"levelo_inurba_marseille","lat":43.29979,"lon":5.38489,"is_reserved":false,"is_disabled":false,"rental_uris":{"android":"levelo://app?vid=0da02860-d92a-4d21-814a-60f3b796e68d","ios":"levelo://app?vid=0da02860-d92a-4d21-814a-60f3b796e68d"},"vehicle_type_id":"4","last_reported":1725974175,"current_range_meters":33200,"station_id":"ce4bgj92rcd13ifvqbd0","pricing_plan_id":"cebpf4jnsgd1na2vs0mg"},{"bike_id":"56fe391e-723e-42df-8d0c-af51e6441891","system_id":"levelo_inurba_marseille","lat":43.23066,"lon":5.35492,"is_reserved":false,"is_disabled":false,"rental_uris":{"android":"levelo://app?vid=56fe391e-723e-42df-8d0c-af51e6441891","ios":"levelo://app?vid=56fe391e-723e-42df-8d0c-af51e6441891"},"vehicle_type_id":"4","last_reported":1725974175,"current_range_meters":3200,"station_id":"cpo3342slgdg3j2ifvpg","pricing_plan_id":"cebpf4jnsgd1na2vs0mg"},{"bike_id":"5e1bbd43-3770-412b-85a5-f52036bd6161","system_id":"levelo_inurba_marseille","lat":43.28157,"lon":5.42647,"is_reserved":false,"is_disabled":false,"rental_uris":{"android":"levelo://app?vid=5e1bbd43-3770-412b-85a5-f52036bd6161","ios":"levelo://app?vid=5e1bbd43-3770-412b-85a5-f52036bd6161"},"vehicle_type_id":"4","last_reported":1725974175,"current_range_meters":4000,"station_id":"ce4bhnh2rcd13ifvqgug","pricing_plan_id":"cebpf4jnsgd1na2vs0mg"},{"bike_id":"c5b54f07-9e8a-4d5d-af65-a461c660ca45","system_id":"levelo_inurba_marseille","lat":43.32298,"lon":5.38266,"is_reserved":false,"is_disabled":false,"rental_uris":{"android":"levelo://app?vid=c5b54f07-9e8a-4d5d-af65-a461c660ca45","ios":"levelo://app?vid=c5b54f07-9e8a-4d5d-af65-a461c660ca45"},"vehicle_type_id":"4","last_reported":1725974175,"current_range_meters":9200,"station_id":"ce4bhr12rcd13ifvqhqg","pricing_plan_id":"cebpf4jnsgd1na2vs0mg"},{"bike_id":"0645afe7-e40a-4497-963d-0220fad127ca","system_id":"levelo_inurba_marseille","lat":43.29678,"lon":5.37288,"is_reserved":false,"is_disabled":false,"rental_uris":{"android":"levelo://app?vid=0645afe7-e40a-4497-963d-0220fad127ca","ios":"levelo://app?vid=0645afe7-e40a-4497-963d-0220fad127ca"},"vehicle_type_id":"4","last_reported":1725974175,"current_range_meters":18800,"station_id":"ce4bgk12rcd13ifvqbj0","pricing_plan_id":"cebpf4jnsgd1na2vs0mg"},{"bike_id":"f1a19f1b-702f-423b-8c4d-6500f910f5b3","system_id":"levelo_inurba_marseille","lat":43.28274,"lon":5.35065,"is_reserved":false,"is_disabled":false,"rental_uris":{"android":"levelo://app?vid=f1a19f1b-702f-423b-8c4d-6500f910f5b3","ios":"levelo://app?vid=f1a19f1b-702f-423b-8c4d-6500f910f5b3"},"vehicle_type_id":"4","last_reported":1725974175,"current_range_meters":15200,"station_id":"ce4bhbp2rcd13ifvqerg","pricing_plan_id":"cebpf4jnsgd1na2vs0mg"},{"bike_id":"9ef5f54d-8cb2-42b4-8eef-ce275a0b776d","system_id":"levelo_inurba_marseille","lat":43.29193,"lon":5.39308,"is_reserved":false,"is_disabled":false,"rental_uris":{"android":"levelo://app?vid=9ef5f54d-8cb2-42b4-8eef-ce275a0b776d","ios":"levelo://app?vid=9ef5f54d-8cb2-42b4-8eef-ce275a0b776d"},"vehicle_type_id":"4","last_reported":1725974175,"current_range_meters":26800,"station_id":"ce4bh192rcd13ifvqdd0","pricing_plan_id":"cebpf4jnsgd1na2vs0mg"},{"bike_id":"f5ab10c4-6d47-48ee-9572-4519f61eb1b5","system_id":"levelo_inurba_marseille","lat":43.25933,"lon":5.40912,"is_reserved":false,"is_disabled":false,"rental_uris":{"android":"levelo://app?vid=f5ab10c4-6d47-48ee-9572-4519f61eb1b5","ios":"levelo://app?vid=f5ab10c4-6d47-48ee-9572-4519f61eb1b5"},"vehicle_type_id":"4","last_reported":1725974175,"current_range_meters":6800,"station_id":"ce4bhm92rcd13ifvqglg","pricing_plan_id":"cebpf4jnsgd1na2vs0mg"},{"bike_id":"e238eb9a-b5ce-4daa-a070-0709dee78a5d","system_id":"levelo_inurba_marseille","lat":43.23153,"lon":5.43708,"is_reserved":false,"is_disabled":false,"rental_uris":{"android":"levelo://app?vid=e238eb9a-b5ce-4daa-a070-0709dee78a5d","ios":"levelo://app?vid=e238eb9a-b5ce-4daa-a070-0709dee78a5d"},"vehicle_type_id":"4","last_reported":1725974175,"current_range_meters":18800,"station_id":"ce4bhmp2rcd13ifvqgog","pricing_plan_id":"cebpf4jnsgd1na2vs0mg"},{"bike_id":"d15c095f-4bc5-4fc2-85df-29fca784ed95","system_id":"levelo_inurba_marseille","lat":43.29529,"lon":5.38545,"is_reserved":false,"is_disabled":false,"rental_uris":{"android":"levelo://app?vid=d15c095f-4bc5-4fc2-85df-29fca784ed95","ios":"levelo://app?vid=d15c095f-4bc5-4fc2-85df-29fca784ed95"},"vehicle_type_id":"4","last_reported":1725974175,"current_range_meters":20400,"station_id":"ce4bgih2rcd13ifvqba0","pricing_plan_id":"cebpf4jnsgd1na2vs0mg"},{"bike_id":"74136ab7-af20-4ed8-8732-9135e731202a","system_id":"levelo_inurba_marseille","lat":43.25495,"lon":5.37648,"is_reserved":false,"is_disabled":false,"rental_uris":{"android":"levelo://app?vid=74136ab7-af20-4ed8-8732-9135e731202a","ios":"levelo://app?vid=74136ab7-af20-4ed8-8732-9135e731202a"},"vehicle_type_id":"4","last_reported":1725974175,"current_range_meters":32400,"station_id":"ce4bhh12rcd13ifvqff0","pricing_plan_id":"cebpf4jnsgd1na2vs0mg"},{"bike_id":"20f8272e-2fb2-402a-8ba1-f4f830f73cf3","system_id":"levelo_inurba_marseille","lat":43.33026,"lon":5.39047,"is_reserved":false,"is_disabled":false,"rental_uris":{"android":"levelo://app?vid=20f8272e-2fb2-402a-8ba1-f4f830f73cf3","ios":"levelo://app?vid=20f8272e-2fb2-402a-8ba1-f4f830f73cf3"},"vehicle_type_id":"4","last_reported":1725974175,"current_range_meters":20000,"station_id":"ce4bhr92rcd13ifvqhrg","pricing_plan_id":"cebpf4jnsgd1na2vs0mg"},{"bike_id":"134530eb-38fb-43f1-a016-54a17218b388","system_id":"levelo_inurba_marseille","lat":43.28042,"lon":5.3695,"is_reserved":false,"is_disabled":false,"rental_uris":{"android":"levelo://app?vid=134530eb-38fb-43f1-a016-54a17218b388","ios":"levelo://app?vid=134530eb-38fb-43f1-a016-54a17218b388"},"vehicle_type_id":"4","last_reported":1725974175,"current_range_meters":28400,"station_id":"ce4bha12rcd13ifvqef0","pricing_plan_id":"cebpf4jnsgd1na2vs0mg"},{"bike_id":"35a92e2d-d77b-400b-aeba-f522bf358e49","system_id":"levelo_inurba_marseille","lat":43.31867,"lon":5.37376,"is_reserved":false,"is_disabled":false,"rental_uris":{"android":"levelo://app?vid=35a92e2d-d77b-400b-aeba-f522bf358e49","ios":"levelo://app?vid=35a92e2d-d77b-400b-aeba-f522bf358e49"},"vehicle_type_id":"4","last_reported":1725974175,"current_range_meters":16400,"station_id":"ce4bgup2rcd13ifvqco0","pricing_plan_id":"cebpf4jnsgd1na2vs0mg"},{"bike_id":"85da5b96-a657-4bac-b991-026a49320f36","system_id":"levelo_inurba_marseille","lat":43.28863,"lon":5.35833,"is_reserved":false,"is_disabled":false,"rental_uris":{"android":"levelo://app?vid=85da5b96-a657-4bac-b991-026a49320f36","ios":"levelo://app?vid=85da5b96-a657-4bac-b991-026a49320f36"},"vehicle_type_id":"4","last_reported":1725974175,"current_range_meters":38800,"station_id":"ce4bhb12rcd13ifvqem0","pricing_plan_id":"cebpf4jnsgd1na2vs0mg"},{"bike_id":"d31c9de7-5ab0-4acb-9ba6-c876e2ceda5f","system_id":"levelo_inurba_marseille","lat":43.23155,"lon":5.43703,"is_reserved":false,"is_disabled":false,"rental_uris":{"android":"levelo://app?vid=d31c9de7-5ab0-4acb-9ba6-c876e2ceda5f","ios":"levelo://app?vid=d31c9de7-5ab0-4acb-9ba6-c876e2ceda5f"},"vehicle_type_id":"4","last_reported":1725974175,"current_range_meters":36000,"station_id":"ce4bhmp2rcd13ifvqgog","pricing_plan_id":"cebpf4jnsgd1na2vs0mg"},{"bike_id":"2df86a01-4973-48b2-98df-43630c4d4bfc","system_id":"levelo_inurba_marseille","lat":43.33028,"lon":5.39041,"is_reserved":false,"is_disabled":false,"rental_uris":{"android":"levelo://app?vid=2df86a01-4973-48b2-98df-43630c4d4bfc","ios":"levelo://app?vid=2df86a01-4973-48b2-98df-43630c4d4bfc"},"vehicle_type_id":"4","last_reported":1725974175,"current_range_meters":28400,"station_id":"ce4bhr92rcd13ifvqhrg","pricing_plan_id":"cebpf4jnsgd1na2vs0mg"},{"bike_id":"8fff4489-e146-49b6-ae6f-c3bf8f355f1a","system_id":"levelo_inurba_marseille","lat":43.29808,"lon":5.38088,"is_reserved":false,"is_disabled":false,"rental_uris":{"android":"levelo://app?vid=8fff4489-e146-49b6-ae6f-c3bf8f355f1a","ios":"levelo://app?vid=8fff4489-e146-49b6-ae6f-c3bf8f355f1a"},"vehicle_type_id":"4","last_reported":1725974175,"current_range_meters":39200,"station_id":"ce4bgip2rcd13ifvqbb0","pricing_plan_id":"cebpf4jnsgd1na2vs0mg"},{"bike_id":"dc6d1e0a-c733-4aeb-bbef-aa86ca857945","system_id":"levelo_inurba_marseille","lat":43.2781,"lon":5.40688,"is_reserved":false,"is_disabled":false,"rental_uris":{"android":"levelo://app?vid=dc6d1e0a-c733-4aeb-bbef-aa86ca857945","ios":"levelo://app?vid=dc6d1e0a-c733-4aeb-bbef-aa86ca857945"},"vehicle_type_id":"4","last_reported":1725974175,"current_range_meters":11200,"station_id":"ce4bhnh2rcd13ifvqgtg","pricing_plan_id":"cebpf4jnsgd1na2vs0mg"},{"bike_id":"689af299-077a-4b96-aadf-024a1a87228a","system_id":"levelo_inurba_marseille","lat":43.27498,"lon":5.42454,"is_reserved":false,"is_disabled":false,"rental_uris":{"android":"levelo://app?vid=689af299-077a-4b96-aadf-024a1a87228a","ios":"levelo://app?vid=689af299-077a-4b96-aadf-024a1a87228a"},"vehicle_type_id":"4","last_reported":1725974175,"current_range_meters":22800,"station_id":"ce4bhn92rcd13ifvqgrg","pricing_plan_id":"cebpf4jnsgd1na2vs0mg"},{"bike_id":"306c181a-23ee-4e35-a3c7-b3968cdce829","system_id":"levelo_inurba_marseille","lat":43.337444,"lon":5.374475,"is_reserved":false,"is_disabled":false,"rental_uris":{"android":"levelo://app?vid=306c181a-23ee-4e35-a3c7-b3968cdce829","ios":"levelo://app?vid=306c181a-23ee-4e35-a3c7-b3968cdce829"},"vehicle_type_id":"4","last_reported":1725974175,"current_range_meters":36000,"station_id":"","pricing_plan_id":"cebpf4jnsgd1na2vs0mg"},{"bike_id":"cfc6650a-34d8-4613-835d-150880fbaae0","system_id":"levelo_inurba_marseille","lat":43.2315,"lon":5.4371,"is_reserved":false,"is_disabled":false,"rental_uris":{"android":"levelo://app?vid=cfc6650a-34d8-4613-835d-150880fbaae0","ios":"levelo://app?vid=cfc6650a-34d8-4613-835d-150880fbaae0"},"vehicle_type_id":"4","last_reported":1725974175,"current_range_meters":14400,"station_id":"ce4bhmp2rcd13ifvqgog","pricing_plan_id":"cebpf4jnsgd1na2vs0mg"},{"bike_id":"127f710b-fcf9-4083-b533-9fc6a954fd34","system_id":"levelo_inurba_marseille","lat":43.23148,"lon":5.43725,"is_reserved":false,"is_disabled":false,"rental_uris":{"android":"levelo://app?vid=127f710b-fcf9-4083-b533-9fc6a954fd34","ios":"levelo://app?vid=127f710b-fcf9-4083-b533-9fc6a954fd34"},"vehicle_type_id":"4","last_reported":1725974175,"current_range_meters":38800,"station_id":"ce4bhmp2rcd13ifvqgog","pricing_plan_id":"cebpf4jnsgd1na2vs0mg"},{"bike_id":"059f7280-23d2-49aa-a6b5-122a0d1a800e","system_id":"levelo_inurba_marseille","lat":43.27818,"lon":5.40714,"is_reserved":false,"is_disabled":false,"rental_uris":{"android":"levelo://app?vid=059f7280-23d2-49aa-a6b5-122a0d1a800e","ios":"levelo://app?vid=059f7280-23d2-49aa-a6b5-122a0d1a800e"},"vehicle_type_id":"4","last_reported":1725974175,"current_range_meters":30800,"station_id":"ce4bhnh2rcd13ifvqgtg","pricing_plan_id":"cebpf4jnsgd1na2vs0mg"},{"bike_id":"9620fa3f-ac54-4dd4-a498-2dc108f574be","system_id":"levelo_inurba_marseille","lat":43.28158,"lon":5.42642,"is_reserved":false,"is_disabled":false,"rental_uris":{"android":"levelo://app?vid=9620fa3f-ac54-4dd4-a498-2dc108f574be","ios":"levelo://app?vid=9620fa3f-ac54-4dd4-a498-2dc108f574be"},"vehicle_type_id":"4","last_reported":1725974175,"current_range_meters":3600,"station_id":"ce4bhnh2rcd13ifvqgug","pricing_plan_id":"cebpf4jnsgd1na2vs0mg"},{"bike_id":"37c3d44b-5c45-45d5-a3fd-5ce657a43cfe","system_id":"levelo_inurba_marseille","lat":43.26576,"lon":5.39005,"is_reserved":false,"is_disabled":false,"rental_uris":{"android":"levelo://app?vid=37c3d44b-5c45-45d5-a3fd-5ce657a43cfe","ios":"levelo://app?vid=37c3d44b-5c45-45d5-a3fd-5ce657a43cfe"},"vehicle_type_id":"4","last_reported":1725974175,"current_range_meters":4800,"station_id":"ce4bhe12rcd13ifvqf30","pricing_plan_id":"cebpf4jnsgd1na2vs0mg"},{"bike_id":"02e9227e-4d15-45e3-b464-2b03b597a05f","system_id":"levelo_inurba_marseille","lat":43.30541,"lon":5.36702,"is_reserved":false,"is_disabled":false,"rental_uris":{"android":"levelo://app?vid=02e9227e-4d15-45e3-b464-2b03b597a05f","ios":"levelo://app?vid=02e9227e-4d15-45e3-b464-2b03b597a05f"},"vehicle_type_id":"4","last_reported":1725974175,"current_range_meters":38800,"station_id":"ce4bgrp2rcd13ifvqc9g","pricing_plan_id":"cebpf4jnsgd1na2vs0mg"},{"bike_id":"1d583431-4535-43ff-9cfe-97c3afe38e61","system_id":"levelo_inurba_marseille","lat":43.30964,"lon":5.40061,"is_reserved":false,"is_disabled":false,"rental_uris":{"android":"levelo://app?vid=1d583431-4535-43ff-9cfe-97c3afe38e61","ios":"levelo://app?vid=1d583431-4535-43ff-9cfe-97c3afe38e61"},"vehicle_type_id":"4","last_reported":1725974175,"current_range_meters":12800,"station_id":"ce4bhpp2rcd13ifvqhgg","pricing_plan_id":"cebpf4jnsgd1na2vs0mg"},{"bike_id":"5d411a94-71dc-41e3-ae74-13086227871e","system_id":"levelo_inurba_marseille","lat":43.27493,"lon":5.42456,"is_reserved":false,"is_disabled":false,"rental_uris":{"android":"levelo://app?vid=5d411a94-71dc-41e3-ae74-13086227871e","ios":"levelo://app?vid=5d411a94-71dc-41e3-ae74-13086227871e"},"vehicle_type_id":"4","last_reported":1725974175,"current_range_meters":33600,"station_id":"ce4bhn92rcd13ifvqgrg","pricing_plan_id":"cebpf4jnsgd1na2vs0mg"},{"bike_id":"fd35fa38-adf1-4f1a-b3da-4f1d38e91ee0","system_id":"levelo_inurba_marseille","lat":43.24178,"lon":5.39723,"is_reserved":false,"is_disabled":false,"rental_uris":{"android":"levelo://app?vid=fd35fa38-adf1-4f1a-b3da-4f1d38e91ee0","ios":"levelo://app?vid=fd35fa38-adf1-4f1a-b3da-4f1d38e91ee0"},"vehicle_type_id":"4","last_reported":1725974175,"current_range_meters":18000,"station_id":"ce4bhn12rcd13ifvqgpg","pricing_plan_id":"cebpf4jnsgd1na2vs0mg"},{"bike_id":"31e14c61-0a8b-45f7-93a9-ae1d2dba6179","system_id":"levelo_inurba_marseille","lat":43.29601,"lon":5.38101,"is_reserved":false,"is_disabled":false,"rental_uris":{"android":"levelo://app?vid=31e14c61-0a8b-45f7-93a9-ae1d2dba6179","ios":"levelo://app?vid=31e14c61-0a8b-45f7-93a9-ae1d2dba6179"},"vehicle_type_id":"4","last_reported":1725974175,"current_range_meters":38800,"station_id":"ce4bgl12rcd13ifvqbo0","pricing_plan_id":"cebpf4jnsgd1na2vs0mg"},{"bike_id":"bf5555e9-efb7-4521-b052-9d5a2c8f2941","system_id":"levelo_inurba_marseille","lat":43.25937,"lon":5.40905,"is_reserved":false,"is_disabled":false,"rental_uris":{"android":"levelo://app?vid=bf5555e9-efb7-4521-b052-9d5a2c8f2941","ios":"levelo://app?vid=bf5555e9-efb7-4521-b052-9d5a2c8f2941"},"vehicle_type_id":"4","last_reported":1725974175,"current_range_meters":30400,"station_id":"ce4bhm92rcd13ifvqglg","pricing_plan_id":"cebpf4jnsgd1na2vs0mg"},{"bike_id":"f07e3663-11f7-4afe-9415-5075c3bff673","system_id":"levelo_inurba_marseille","lat":43.29529,"lon":5.38545,"is_reserved":false,"is_disabled":false,"rental_uris":{"android":"levelo://app?vid=f07e3663-11f7-4afe-9415-5075c3bff673","ios":"levelo://app?vid=f07e3663-11f7-4afe-9415-5075c3bff673"},"vehicle_type_id":"4","last_reported":1725974175,"current_range_meters":34800,"station_id":"ce4bgih2rcd13ifvqba0","pricing_plan_id":"cebpf4jnsgd1na2vs0mg"},{"bike_id":"8a22b1c3-1a12-41ee-9762-3cd0ce4586c2","system_id":"levelo_inurba_marseille","lat":43.27947,"lon":5.41051,"is_reserved":false,"is_disabled":false,"rental_uris":{"android":"levelo://app?vid=8a22b1c3-1a12-41ee-9762-3cd0ce4586c2","ios":"levelo://app?vid=8a22b1c3-1a12-41ee-9762-3cd0ce4586c2"},"vehicle_type_id":"4","last_reported":1725974175,"current_range_meters":18000,"station_id":"ce4bhnp2rcd13ifvqh0g","pricing_plan_id":"cebpf4jnsgd1na2vs0mg"},{"bike_id":"7d27979d-a8d1-4fed-a434-51c0aab81987","system_id":"levelo_inurba_marseille","lat":43.29225,"lon":5.36042,"is_reserved":false,"is_disabled":false,"rental_uris":{"android":"levelo://app?vid=7d27979d-a8d1-4fed-a434-51c0aab81987","ios":"levelo://app?vid=7d27979d-a8d1-4fed-a434-51c0aab81987"},"vehicle_type_id":"4","last_reported":1725974175,"current_range_meters":38800,"station_id":"ce4bhbh2rcd13ifvqeqg","pricing_plan_id":"cebpf4jnsgd1na2vs0mg"},{"bike_id":"e4067140-ef5f-4d5d-b312-3ad8fb897ba0","system_id":"levelo_inurba_marseille","lat":43.25582,"lon":5.38229,"is_reserved":false,"is_disabled":false,"rental_uris":{"android":"levelo://app?vid=e4067140-ef5f-4d5d-b312-3ad8fb897ba0","ios":"levelo://app?vid=e4067140-ef5f-4d5d-b312-3ad8fb897ba0"},"vehicle_type_id":"4","last_reported":1725974175,"current_range_meters":29600,"station_id":"ce4bhih2rcd13ifvqfs0","pricing_plan_id":"cebpf4jnsgd1na2vs0mg"},{"bike_id":"ec66178c-9377-4a8d-ba34-1a39bc42f1ac","system_id":"levelo_inurba_marseille","lat":43.32293,"lon":5.38267,"is_reserved":false,"is_disabled":false,"rental_uris":{"android":"levelo://app?vid=ec66178c-9377-4a8d-ba34-1a39bc42f1ac","ios":"levelo://app?vid=ec66178c-9377-4a8d-ba34-1a39bc42f1ac"},"vehicle_type_id":"4","last_reported":1725974175,"current_range_meters":39200,"station_id":"ce4bhr12rcd13ifvqhqg","pricing_plan_id":"cebpf4jnsgd1na2vs0mg"},{"bike_id":"4c400da9-edba-4e2e-aa97-6784056606ec","system_id":"levelo_inurba_marseille","lat":43.27814,"lon":5.40717,"is_reserved":false,"is_disabled":false,"rental_uris":{"android":"levelo://app?vid=4c400da9-edba-4e2e-aa97-6784056606ec","ios":"levelo://app?vid=4c400da9-edba-4e2e-aa97-6784056606ec"},"vehicle_type_id":"4","last_reported":1725974175,"current_range_meters":28400,"station_id":"ce4bhnh2rcd13ifvqgtg","pricing_plan_id":"cebpf4jnsgd1na2vs0mg"},{"bike_id":"31f48061-9113-427a-a896-ac5685cfa61c","system_id":"levelo_inurba_marseille","lat":43.29077,"lon":5.3718,"is_reserved":false,"is_disabled":false,"rental_uris":{"android":"levelo://app?vid=31f48061-9113-427a-a896-ac5685cfa61c","ios":"levelo://app?vid=31f48061-9113-427a-a896-ac5685cfa61c"},"vehicle_type_id":"4","last_reported":1725974175,"current_range_meters":21600,"station_id":"ce4bh5p2rcd13ifvqe4g","pricing_plan_id":"cebpf4jnsgd1na2vs0mg"},{"bike_id":"bc745383-2511-4656-a4d1-e131400dfd60","system_id":"levelo_inurba_marseille","lat":43.23195,"lon":5.3555,"is_reserved":false,"is_disabled":false,"rental_uris":{"android":"levelo://app?vid=bc745383-2511-4656-a4d1-e131400dfd60","ios":"levelo://app?vid=bc745383-2511-4656-a4d1-e131400dfd60"},"vehicle_type_id":"4","last_reported":1725974175,"current_range_meters":16800,"station_id":"ce4bhu92rcd13ifvqi70","pricing_plan_id":"cebpf4jnsgd1na2vs0mg"},{"bike_id":"7288dfbe-7e93-487f-bed0-0f1f5b0770ae","system_id":"levelo_inurba_marseille","lat":43.29809,"lon":5.38094,"is_reserved":false,"is_disabled":false,"rental_uris":{"android":"levelo://app?vid=7288dfbe-7e93-487f-bed0-0f1f5b0770ae","ios":"levelo://app?vid=7288dfbe-7e93-487f-bed0-0f1f5b0770ae"},"vehicle_type_id":"4","last_reported":1725974175,"current_range_meters":29600,"station_id":"ce4bgip2rcd13ifvqbb0","pricing_plan_id":"cebpf4jnsgd1na2vs0mg"},{"bike_id":"198819be-d53e-4cbb-b11b-db02f27f94c4","system_id":"levelo_inurba_marseille","lat":43.31888,"lon":5.40731,"is_reserved":false,"is_disabled":false,"rental_uris":{"android":"levelo://app?vid=198819be-d53e-4cbb-b11b-db02f27f94c4","ios":"levelo://app?vid=198819be-d53e-4cbb-b11b-db02f27f94c4"},"vehicle_type_id":"4","last_reported":1725974175,"current_range_meters":38800,"station_id":"ce4bhq12rcd13ifvqhig","pricing_plan_id":"cebpf4jnsgd1na2vs0mg"},{"bike_id":"256ff1b4-3cda-4078-ac92-9b2b566638b7","system_id":"levelo_inurba_marseille","lat":43.25577,"lon":5.38228,"is_reserved":false,"is_disabled":false,"rental_uris":{"android":"levelo://app?vid=256ff1b4-3cda-4078-ac92-9b2b566638b7","ios":"levelo://app?vid=256ff1b4-3cda-4078-ac92-9b2b566638b7"},"vehicle_type_id":"4","last_reported":1725974175,"current_range_meters":30800,"station_id":"ce4bhih2rcd13ifvqfs0","pricing_plan_id":"cebpf4jnsgd1na2vs0mg"},{"bike_id":"cb54700b-e018-446b-995b-2b50495ab39e","system_id":"levelo_inurba_marseille","lat":43.290686,"lon":5.378444,"is_reserved":false,"is_disabled":false,"rental_uris":{"android":"levelo://app?vid=cb54700b-e018-446b-995b-2b50495ab39e","ios":"levelo://app?vid=cb54700b-e018-446b-995b-2b50495ab39e"},"vehicle_type_id":"4","last_reported":1725974175,"current_range_meters":16400,"station_id":"ce4bh9p2rcd13ifvqed0","pricing_plan_id":"cebpf4jnsgd1na2vs0mg"},{"bike_id":"ccbf5e43-be0f-4330-aa14-cfe13aff8a11","system_id":"levelo_inurba_marseille","lat":43.27221,"lon":5.41777,"is_reserved":false,"is_disabled":false,"rental_uris":{"android":"levelo://app?vid=ccbf5e43-be0f-4330-aa14-cfe13aff8a11","ios":"levelo://app?vid=ccbf5e43-be0f-4330-aa14-cfe13aff8a11"},"vehicle_type_id":"4","last_reported":1725974175,"current_range_meters":6800,"station_id":"","pricing_plan_id":"cebpf4jnsgd1na2vs0mg"},{"bike_id":"dac87991-7d0f-412e-b015-b5f3a8e6c91b","system_id":"levelo_inurba_marseille","lat":43.31758,"lon":5.39009,"is_reserved":false,"is_disabled":false,"rental_uris":{"android":"levelo://app?vid=dac87991-7d0f-412e-b015-b5f3a8e6c91b","ios":"levelo://app?vid=dac87991-7d0f-412e-b015-b5f3a8e6c91b"},"vehicle_type_id":"4","last_reported":1725974175,"current_range_meters":3600,"station_id":"ce4bhqp2rcd13ifvqhng","pricing_plan_id":"cebpf4jnsgd1na2vs0mg"},{"bike_id":"69e887f5-8a63-4dc2-8534-1bb6d6ddd4fa","system_id":"levelo_inurba_marseille","lat":43.2315,"lon":5.43711,"is_reserved":false,"is_disabled":false,"rental_uris":{"android":"levelo://app?vid=69e887f5-8a63-4dc2-8534-1bb6d6ddd4fa","ios":"levelo://app?vid=69e887f5-8a63-4dc2-8534-1bb6d6ddd4fa"},"vehicle_type_id":"4","last_reported":1725974175,"current_range_meters":36000,"station_id":"ce4bhmp2rcd13ifvqgog","pricing_plan_id":"cebpf4jnsgd1na2vs0mg"},{"bike_id":"e9961ef7-b03d-4b9d-ae97-3ebf5d96b023","system_id":"levelo_inurba_marseille","lat":43.29561,"lon":5.42292,"is_reserved":false,"is_disabled":false,"rental_uris":{"android":"levelo://app?vid=e9961ef7-b03d-4b9d-ae97-3ebf5d96b023","ios":"levelo://app?vid=e9961ef7-b03d-4b9d-ae97-3ebf5d96b023"},"vehicle_type_id":"4","last_reported":1725974175,"current_range_meters":24000,"station_id":"ce4bhph2rcd13ifvqhdg","pricing_plan_id":"cebpf4jnsgd1na2vs0mg"},{"bike_id":"c39e2fb1-28f7-4d38-98ab-530ab26de3ee","system_id":"levelo_inurba_marseille","lat":43.30145,"lon":5.38094,"is_reserved":false,"is_disabled":false,"rental_uris":{"android":"levelo://app?vid=c39e2fb1-28f7-4d38-98ab-530ab26de3ee","ios":"levelo://app?vid=c39e2fb1-28f7-4d38-98ab-530ab26de3ee"},"vehicle_type_id":"4","last_reported":1725974175,"current_range_meters":35600,"station_id":"ce4bgjp2rcd13ifvqbh0","pricing_plan_id":"cebpf4jnsgd1na2vs0mg"},{"bike_id":"f7384148-e02a-428b-ae3f-b8f6dc39f7fa","system_id":"levelo_inurba_marseille","lat":43.29676,"lon":5.37294,"is_reserved":false,"is_disabled":false,"rental_uris":{"android":"levelo://app?vid=f7384148-e02a-428b-ae3f-b8f6dc39f7fa","ios":"levelo://app?vid=f7384148-e02a-428b-ae3f-b8f6dc39f7fa"},"vehicle_type_id":"4","last_reported":1725974175,"current_range_meters":14000,"station_id":"ce4bgk12rcd13ifvqbj0","pricing_plan_id":"cebpf4jnsgd1na2vs0mg"},{"bike_id":"85c7f5dd-5380-4fdf-9522-9a2f007cbf20","system_id":"levelo_inurba_marseille","lat":43.2582,"lon":5.39435,"is_reserved":false,"is_disabled":false,"rental_uris":{"android":"levelo://app?vid=85c7f5dd-5380-4fdf-9522-9a2f007cbf20","ios":"levelo://app?vid=85c7f5dd-5380-4fdf-9522-9a2f007cbf20"},"vehicle_type_id":"4","last_reported":1725974175,"current_range_meters":17200,"station_id":"ce4bhip2rcd13ifvqft0","pricing_plan_id":"cebpf4jnsgd1na2vs0mg"},{"bike_id":"0f75f939-0675-420f-bdf0-69642050fa13","system_id":"levelo_inurba_marseille","lat":43.26033,"lon":5.37548,"is_reserved":false,"is_disabled":false,"rental_uris":{"android":"levelo://app?vid=0f75f939-0675-420f-bdf0-69642050fa13","ios":"levelo://app?vid=0f75f939-0675-420f-bdf0-69642050fa13"},"vehicle_type_id":"4","last_reported":1725974175,"current_range_meters":37600,"station_id":"ce4bhgh2rcd13ifvqfa0","pricing_plan_id":"cebpf4jnsgd1na2vs0mg"},{"bike_id":"c13e1edb-f817-452d-bc46-6f34e97f4d9c","system_id":"levelo_inurba_marseille","lat":43.24081,"lon":5.37752,"is_reserved":false,"is_disabled":false,"rental_uris":{"android":"levelo://app?vid=c13e1edb-f817-452d-bc46-6f34e97f4d9c","ios":"levelo://app?vid=c13e1edb-f817-452d-bc46-6f34e97f4d9c"},"vehicle_type_id":"4","last_reported":1725974175,"current_range_meters":31200,"station_id":"ce4bhnp2rcd13ifvqgvg","pricing_plan_id":"cebpf4jnsgd1na2vs0mg"},{"bike_id":"fe6c8cbb-ebb0-43b7-836e-0d936131c3c1","system_id":"levelo_inurba_marseille","lat":43.28276,"lon":5.35056,"is_reserved":false,"is_disabled":false,"rental_uris":{"android":"levelo://app?vid=fe6c8cbb-ebb0-43b7-836e-0d936131c3c1","ios":"levelo://app?vid=fe6c8cbb-ebb0-43b7-836e-0d936131c3c1"},"vehicle_type_id":"4","last_reported":1725974175,"current_range_meters":25600,"station_id":"","pricing_plan_id":"cebpf4jnsgd1na2vs0mg"},{"bike_id":"5085eaa3-e241-480f-8462-b3915bed6ebb","system_id":"levelo_inurba_marseille","lat":43.24811,"lon":5.37462,"is_reserved":false,"is_disabled":false,"rental_uris":{"android":"levelo://app?vid=5085eaa3-e241-480f-8462-b3915bed6ebb","ios":"levelo://app?vid=5085eaa3-e241-480f-8462-b3915bed6ebb"},"vehicle_type_id":"4","last_reported":1725974175,"current_range_meters":10800,"station_id":"ce4bhgh2rcd13ifvqfb0","pricing_plan_id":"cebpf4jnsgd1na2vs0mg"},{"bike_id":"b20eecc1-b6fd-45ed-b6f1-1025ad260536","system_id":"levelo_inurba_marseille","lat":43.29802,"lon":5.3809,"is_reserved":false,"is_disabled":false,"rental_uris":{"android":"levelo://app?vid=b20eecc1-b6fd-45ed-b6f1-1025ad260536","ios":"levelo://app?vid=b20eecc1-b6fd-45ed-b6f1-1025ad260536"},"vehicle_type_id":"4","last_reported":1725974175,"current_range_meters":22800,"station_id":"ce4bgip2rcd13ifvqbb0","pricing_plan_id":"cebpf4jnsgd1na2vs0mg"},{"bike_id":"3a69a34f-3832-4406-88fc-15f5f76344ea","system_id":"levelo_inurba_marseille","lat":43.32032,"lon":5.41556,"is_reserved":false,"is_disabled":false,"rental_uris":{"android":"levelo://app?vid=3a69a34f-3832-4406-88fc-15f5f76344ea","ios":"levelo://app?vid=3a69a34f-3832-4406-88fc-15f5f76344ea"},"vehicle_type_id":"4","last_reported":1725974175,"current_range_meters":14000,"station_id":"ce4bhq92rcd13ifvqhkg","pricing_plan_id":"cebpf4jnsgd1na2vs0mg"},{"bike_id":"26505684-7909-4a05-a336-28c2a2ea143e","system_id":"levelo_inurba_marseille","lat":43.24081,"lon":5.37738,"is_reserved":false,"is_disabled":false,"rental_uris":{"android":"levelo://app?vid=26505684-7909-4a05-a336-28c2a2ea143e","ios":"levelo://app?vid=26505684-7909-4a05-a336-28c2a2ea143e"},"vehicle_type_id":"4","last_reported":1725974175,"current_range_meters":20000,"station_id":"ce4bhnp2rcd13ifvqgvg","pricing_plan_id":"cebpf4jnsgd1na2vs0mg"},{"bike_id":"2ab8a11d-9a33-424e-b25b-93adb2f1fadb","system_id":"levelo_inurba_marseille","lat":43.30474,"lon":5.37905,"is_reserved":false,"is_disabled":false,"rental_uris":{"android":"levelo://app?vid=2ab8a11d-9a33-424e-b25b-93adb2f1fadb","ios":"levelo://app?vid=2ab8a11d-9a33-424e-b25b-93adb2f1fadb"},"vehicle_type_id":"4","last_reported":1725974175,"current_range_meters":16800,"station_id":"ce4bgih2rcd13ifvqba0","pricing_plan_id":"cebpf4jnsgd1na2vs0mg"},{"bike_id":"d170a587-1e00-4d01-b299-3ca4977fc50a","system_id":"levelo_inurba_marseille","lat":43.33762,"lon":5.3745,"is_reserved":false,"is_disabled":false,"rental_uris":{"android":"levelo://app?vid=d170a587-1e00-4d01-b299-3ca4977fc50a","ios":"levelo://app?vid=d170a587-1e00-4d01-b299-3ca4977fc50a"},"vehicle_type_id":"4","last_reported":1725974175,"current_range_meters":36800,"station_id":"","pricing_plan_id":"cebpf4jnsgd1na2vs0mg"},{"bike_id":"a5047e3b-c530-408c-b71a-323156189a1f","system_id":"levelo_inurba_marseille","lat":43.29073,"lon":5.37161,"is_reserved":false,"is_disabled":false,"rental_uris":{"android":"levelo://app?vid=a5047e3b-c530-408c-b71a-323156189a1f","ios":"levelo://app?vid=a5047e3b-c530-408c-b71a-323156189a1f"},"vehicle_type_id":"4","last_reported":1725974175,"current_range_meters":38400,"station_id":"ce4bh5p2rcd13ifvqe4g","pricing_plan_id":"cebpf4jnsgd1na2vs0mg"},{"bike_id":"ca1eba31-5024-45c5-a82c-b1cb877ac1b9","system_id":"levelo_inurba_marseille","lat":43.29806,"lon":5.38103,"is_reserved":false,"is_disabled":false,"rental_uris":{"android":"levelo://app?vid=ca1eba31-5024-45c5-a82c-b1cb877ac1b9","ios":"levelo://app?vid=ca1eba31-5024-45c5-a82c-b1cb877ac1b9"},"vehicle_type_id":"4","last_reported":1725974175,"current_range_meters":30000,"station_id":"ce4bgip2rcd13ifvqbb0","pricing_plan_id":"cebpf4jnsgd1na2vs0mg"},{"bike_id":"15d8503c-1880-4613-b904-fac158b81238","system_id":"levelo_inurba_marseille","lat":43.31689,"lon":5.40471,"is_reserved":false,"is_disabled":false,"rental_uris":{"android":"levelo://app?vid=15d8503c-1880-4613-b904-fac158b81238","ios":"levelo://app?vid=15d8503c-1880-4613-b904-fac158b81238"},"vehicle_type_id":"4","last_reported":1725974175,"current_range_meters":26000,"station_id":"ce4bh012rcd13ifvqd00","pricing_plan_id":"cebpf4jnsgd1na2vs0mg"},{"bike_id":"4f30085d-8282-4afe-9726-33c44c521c43","system_id":"levelo_inurba_marseille","lat":43.32294,"lon":5.38261,"is_reserved":false,"is_disabled":false,"rental_uris":{"android":"levelo://app?vid=4f30085d-8282-4afe-9726-33c44c521c43","ios":"levelo://app?vid=4f30085d-8282-4afe-9726-33c44c521c43"},"vehicle_type_id":"4","last_reported":1725974175,"current_range_meters":35600,"station_id":"ce4bhr12rcd13ifvqhqg","pricing_plan_id":"cebpf4jnsgd1na2vs0mg"},{"bike_id":"4def9189-097a-4e5e-9409-b7f001328360","system_id":"levelo_inurba_marseille","lat":43.27489,"lon":5.42455,"is_reserved":false,"is_disabled":false,"rental_uris":{"android":"levelo://app?vid=4def9189-097a-4e5e-9409-b7f001328360","ios":"levelo://app?vid=4def9189-097a-4e5e-9409-b7f001328360"},"vehicle_type_id":"4","last_reported":1725974175,"current_range_meters":25200,"station_id":"ce4bhn92rcd13ifvqgrg","pricing_plan_id":"cebpf4jnsgd1na2vs0mg"},{"bike_id":"c11ef36e-ae02-479d-bc1f-2717ca621a00","system_id":"levelo_inurba_marseille","lat":43.23184,"lon":5.39977,"is_reserved":false,"is_disabled":false,"rental_uris":{"android":"levelo://app?vid=c11ef36e-ae02-479d-bc1f-2717ca621a00","ios":"levelo://app?vid=c11ef36e-ae02-479d-bc1f-2717ca621a00"},"vehicle_type_id":"4","last_reported":1725974175,"current_range_meters":10800,"station_id":"ce4bhn12rcd13ifvqgqg","pricing_plan_id":"cebpf4jnsgd1na2vs0mg"},{"bike_id":"2e4e73b1-fda5-4a08-90e0-5a4c58d87c52","system_id":"levelo_inurba_marseille","lat":43.258132,"lon":5.394361,"is_reserved":false,"is_disabled":false,"rental_uris":{"android":"levelo://app?vid=2e4e73b1-fda5-4a08-90e0-5a4c58d87c52","ios":"levelo://app?vid=2e4e73b1-fda5-4a08-90e0-5a4c58d87c52"},"vehicle_type_id":"4","last_reported":1725974175,"current_range_meters":24800,"station_id":"ce4bhip2rcd13ifvqft0","pricing_plan_id":"cebpf4jnsgd1na2vs0mg"},{"bike_id":"45cd45ab-5a80-4410-8cef-eb784a2b7bbc","system_id":"levelo_inurba_marseille","lat":43.24176,"lon":5.37654,"is_reserved":false,"is_disabled":false,"rental_uris":{"android":"levelo://app?vid=45cd45ab-5a80-4410-8cef-eb784a2b7bbc","ios":"levelo://app?vid=45cd45ab-5a80-4410-8cef-eb784a2b7bbc"},"vehicle_type_id":"4","last_reported":1725974175,"current_range_meters":28400,"station_id":"","pricing_plan_id":"cebpf4jnsgd1na2vs0mg"},{"bike_id":"88eaa09c-b333-4d9d-a279-7bc77108cc6f","system_id":"levelo_inurba_marseille","lat":43.337444,"lon":5.374475,"is_reserved":false,"is_disabled":false,"rental_uris":{"android":"levelo://app?vid=88eaa09c-b333-4d9d-a279-7bc77108cc6f","ios":"levelo://app?vid=88eaa09c-b333-4d9d-a279-7bc77108cc6f"},"vehicle_type_id":"4","last_reported":1725974175,"current_range_meters":22800,"station_id":"ce4bhp12rcd13ifvqh9g","pricing_plan_id":"cebpf4jnsgd1na2vs0mg"},{"bike_id":"3077af2e-6a31-47df-9107-9d55d6896f70","system_id":"levelo_inurba_marseille","lat":43.23964,"lon":5.36636,"is_reserved":false,"is_disabled":false,"rental_uris":{"android":"levelo://app?vid=3077af2e-6a31-47df-9107-9d55d6896f70","ios":"levelo://app?vid=3077af2e-6a31-47df-9107-9d55d6896f70"},"vehicle_type_id":"4","last_reported":1725974175,"current_range_meters":11600,"station_id":"ce4bhi12rcd13ifvqfp0","pricing_plan_id":"cebpf4jnsgd1na2vs0mg"},{"bike_id":"6906b4ad-0e66-4693-a4a2-667809388bde","system_id":"levelo_inurba_marseille","lat":43.30199,"lon":5.38946,"is_reserved":false,"is_disabled":false,"rental_uris":{"android":"levelo://app?vid=6906b4ad-0e66-4693-a4a2-667809388bde","ios":"levelo://app?vid=6906b4ad-0e66-4693-a4a2-667809388bde"},"vehicle_type_id":"4","last_reported":1725974175,"current_range_meters":28400,"station_id":"","pricing_plan_id":"cebpf4jnsgd1na2vs0mg"},{"bike_id":"6438129d-6b3d-4401-b11e-c2403c4e63c5","system_id":"levelo_inurba_marseille","lat":43.29808,"lon":5.38097,"is_reserved":false,"is_disabled":false,"rental_uris":{"android":"levelo://app?vid=6438129d-6b3d-4401-b11e-c2403c4e63c5","ios":"levelo://app?vid=6438129d-6b3d-4401-b11e-c2403c4e63c5"},"vehicle_type_id":"4","last_reported":1725974175,"current_range_meters":34800,"station_id":"ce4bgip2rcd13ifvqbb0","pricing_plan_id":"cebpf4jnsgd1na2vs0mg"},{"bike_id":"4c5a7eef-5f11-4176-870a-0f5fab5e113e","system_id":"levelo_inurba_marseille","lat":43.29803,"lon":5.38099,"is_reserved":false,"is_disabled":false,"rental_uris":{"android":"levelo://app?vid=4c5a7eef-5f11-4176-870a-0f5fab5e113e","ios":"levelo://app?vid=4c5a7eef-5f11-4176-870a-0f5fab5e113e"},"vehicle_type_id":"4","last_reported":1725974175,"current_range_meters":39200,"station_id":"ce4bgip2rcd13ifvqbb0","pricing_plan_id":"cebpf4jnsgd1na2vs0mg"},{"bike_id":"e26b388e-cf0f-489a-aad3-edf32d411fd7","system_id":"levelo_inurba_marseille","lat":43.2927,"lon":5.3685,"is_reserved":false,"is_disabled":false,"rental_uris":{"android":"levelo://app?vid=e26b388e-cf0f-489a-aad3-edf32d411fd7","ios":"levelo://app?vid=e26b388e-cf0f-489a-aad3-edf32d411fd7"},"vehicle_type_id":"4","last_reported":1725974175,"current_range_meters":38000,"station_id":"ce4bhbp2rcd13ifvqesg","pricing_plan_id":"cebpf4jnsgd1na2vs0mg"},{"bike_id":"dfba42be-825f-49b9-bcff-2748aaa3fce2","system_id":"levelo_inurba_marseille","lat":43.24071,"lon":5.37768,"is_reserved":false,"is_disabled":false,"rental_uris":{"android":"levelo://app?vid=dfba42be-825f-49b9-bcff-2748aaa3fce2","ios":"levelo://app?vid=dfba42be-825f-49b9-bcff-2748aaa3fce2"},"vehicle_type_id":"4","last_reported":1725974175,"current_range_meters":15200,"station_id":"ce4bhnp2rcd13ifvqgvg","pricing_plan_id":"cebpf4jnsgd1na2vs0mg"},{"bike_id":"a85c78bc-418c-4af0-8edd-59c76790768f","system_id":"levelo_inurba_marseille","lat":43.32485,"lon":5.36574,"is_reserved":false,"is_disabled":false,"rental_uris":{"android":"levelo://app?vid=a85c78bc-418c-4af0-8edd-59c76790768f","ios":"levelo://app?vid=a85c78bc-418c-4af0-8edd-59c76790768f"},"vehicle_type_id":"4","last_reported":1725974175,"current_range_meters":27600,"station_id":"ce4bhs12rcd13ifvqhvg","pricing_plan_id":"cebpf4jnsgd1na2vs0mg"},{"bike_id":"b30621d7-7ead-4f28-b4ea-ebfeaea9194c","system_id":"levelo_inurba_marseille","lat":43.25824,"lon":5.39435,"is_reserved":false,"is_disabled":false,"rental_uris":{"android":"levelo://app?vid=b30621d7-7ead-4f28-b4ea-ebfeaea9194c","ios":"levelo://app?vid=b30621d7-7ead-4f28-b4ea-ebfeaea9194c"},"vehicle_type_id":"4","last_reported":1725974175,"current_range_meters":38800,"station_id":"ce4bhip2rcd13ifvqft0","pricing_plan_id":"cebpf4jnsgd1na2vs0mg"},{"bike_id":"8c107610-8bd7-4323-b757-7d47fdf09341","system_id":"levelo_inurba_marseille","lat":43.260141,"lon":5.398387,"is_reserved":false,"is_disabled":false,"rental_uris":{"android":"levelo://app?vid=8c107610-8bd7-4323-b757-7d47fdf09341","ios":"levelo://app?vid=8c107610-8bd7-4323-b757-7d47fdf09341"},"vehicle_type_id":"4","last_reported":1725974175,"current_range_meters":23200,"station_id":"ce4bhl92rcd13ifvqghg","pricing_plan_id":"cebpf4jnsgd1na2vs0mg"},{"bike_id":"39dbd78d-2340-4344-af66-e669072084d8","system_id":"levelo_inurba_marseille","lat":43.31883,"lon":5.40735,"is_reserved":false,"is_disabled":false,"rental_uris":{"android":"levelo://app?vid=39dbd78d-2340-4344-af66-e669072084d8","ios":"levelo://app?vid=39dbd78d-2340-4344-af66-e669072084d8"},"vehicle_type_id":"4","last_reported":1725974175,"current_range_meters":36000,"station_id":"ce4bhq12rcd13ifvqhig","pricing_plan_id":"cebpf4jnsgd1na2vs0mg"},{"bike_id":"c97ade9a-7a97-485d-8462-933fc809e909","system_id":"levelo_inurba_marseille","lat":43.29714,"lon":5.37693,"is_reserved":false,"is_disabled":false,"rental_uris":{"android":"levelo://app?vid=c97ade9a-7a97-485d-8462-933fc809e909","ios":"levelo://app?vid=c97ade9a-7a97-485d-8462-933fc809e909"},"vehicle_type_id":"4","last_reported":1725974175,"current_range_meters":38000,"station_id":"ce4bgkh2rcd13ifvqbl0","pricing_plan_id":"cebpf4jnsgd1na2vs0mg"},{"bike_id":"f715e76b-ad13-457f-b15f-b87bdbac5f61","system_id":"levelo_inurba_marseille","lat":43.28618,"lon":5.35103,"is_reserved":false,"is_disabled":false,"rental_uris":{"android":"levelo://app?vid=f715e76b-ad13-457f-b15f-b87bdbac5f61","ios":"levelo://app?vid=f715e76b-ad13-457f-b15f-b87bdbac5f61"},"vehicle_type_id":"4","last_reported":1725974175,"current_range_meters":27200,"station_id":"ce4bhch2rcd13ifvqeug","pricing_plan_id":"cebpf4jnsgd1na2vs0mg"},{"bike_id":"9c97f9ec-7a9d-41fa-833c-34ce56ba5dfe","system_id":"levelo_inurba_marseille","lat":43.2293,"lon":5.35375,"is_reserved":false,"is_disabled":false,"rental_uris":{"android":"levelo://app?vid=9c97f9ec-7a9d-41fa-833c-34ce56ba5dfe","ios":"levelo://app?vid=9c97f9ec-7a9d-41fa-833c-34ce56ba5dfe"},"vehicle_type_id":"4","last_reported":1725974175,"current_range_meters":6000,"station_id":"cpo3532slgdg3j2ikp40","pricing_plan_id":"cebpf4jnsgd1na2vs0mg"},{"bike_id":"41c44acb-0d65-4396-bb07-26deb3148256","system_id":"levelo_inurba_marseille","lat":43.24082,"lon":5.37746,"is_reserved":false,"is_disabled":false,"rental_uris":{"android":"levelo://app?vid=41c44acb-0d65-4396-bb07-26deb3148256","ios":"levelo://app?vid=41c44acb-0d65-4396-bb07-26deb3148256"},"vehicle_type_id":"4","last_reported":1725974175,"current_range_meters":17200,"station_id":"ce4bhnp2rcd13ifvqgvg","pricing_plan_id":"cebpf4jnsgd1na2vs0mg"},{"bike_id":"19ae0be4-ffc8-4d80-8e7f-71e3f16248eb","system_id":"levelo_inurba_marseille","lat":43.25591,"lon":5.38228,"is_reserved":false,"is_disabled":false,"rental_uris":{"android":"levelo://app?vid=19ae0be4-ffc8-4d80-8e7f-71e3f16248eb","ios":"levelo://app?vid=19ae0be4-ffc8-4d80-8e7f-71e3f16248eb"},"vehicle_type_id":"4","last_reported":1725974175,"current_range_meters":30000,"station_id":"ce4bhih2rcd13ifvqfs0","pricing_plan_id":"cebpf4jnsgd1na2vs0mg"},{"bike_id":"4490c6dd-a0b6-4c6a-8bd3-d2268595024a","system_id":"levelo_inurba_marseille","lat":43.2407,"lon":5.37755,"is_reserved":false,"is_disabled":false,"rental_uris":{"android":"levelo://app?vid=4490c6dd-a0b6-4c6a-8bd3-d2268595024a","ios":"levelo://app?vid=4490c6dd-a0b6-4c6a-8bd3-d2268595024a"},"vehicle_type_id":"4","last_reported":1725974175,"current_range_meters":8000,"station_id":"ce4bhnp2rcd13ifvqgvg","pricing_plan_id":"cebpf4jnsgd1na2vs0mg"},{"bike_id":"a5041d82-3768-4ba8-847f-3583b215d9f5","system_id":"levelo_inurba_marseille","lat":43.24647,"lon":5.38896,"is_reserved":false,"is_disabled":false,"rental_uris":{"android":"levelo://app?vid=a5041d82-3768-4ba8-847f-3583b215d9f5","ios":"levelo://app?vid=a5041d82-3768-4ba8-847f-3583b215d9f5"},"vehicle_type_id":"4","last_reported":1725974175,"current_range_meters":14800,"station_id":"ce4bhg12rcd13ifvqf60","pricing_plan_id":"cebpf4jnsgd1na2vs0mg"},{"bike_id":"0f8d4871-40aa-4918-ae57-55191cfaadca","system_id":"levelo_inurba_marseille","lat":43.24081,"lon":5.37739,"is_reserved":false,"is_disabled":false,"rental_uris":{"android":"levelo://app?vid=0f8d4871-40aa-4918-ae57-55191cfaadca","ios":"levelo://app?vid=0f8d4871-40aa-4918-ae57-55191cfaadca"},"vehicle_type_id":"4","last_reported":1725974175,"current_range_meters":17600,"station_id":"ce4bhnp2rcd13ifvqgvg","pricing_plan_id":"cebpf4jnsgd1na2vs0mg"},{"bike_id":"b725e7b6-f9b2-4565-82ae-d1fdda624047","system_id":"levelo_inurba_marseille","lat":43.29839,"lon":5.36267,"is_reserved":false,"is_disabled":false,"rental_uris":{"android":"levelo://app?vid=b725e7b6-f9b2-4565-82ae-d1fdda624047","ios":"levelo://app?vid=b725e7b6-f9b2-4565-82ae-d1fdda624047"},"vehicle_type_id":"4","last_reported":1725974175,"current_range_meters":30000,"station_id":"ce4bgpp2rcd13ifvqc3g","pricing_plan_id":"cebpf4jnsgd1na2vs0mg"},{"bike_id":"a74832fd-ea00-4cfe-9c5e-74b5e5d2fe76","system_id":"levelo_inurba_marseille","lat":43.29553,"lon":5.42295,"is_reserved":false,"is_disabled":false,"rental_uris":{"android":"levelo://app?vid=a74832fd-ea00-4cfe-9c5e-74b5e5d2fe76","ios":"levelo://app?vid=a74832fd-ea00-4cfe-9c5e-74b5e5d2fe76"},"vehicle_type_id":"4","last_reported":1725974175,"current_range_meters":11200,"station_id":"ce4bhph2rcd13ifvqhdg","pricing_plan_id":"cebpf4jnsgd1na2vs0mg"},{"bike_id":"7bb5a6c7-6dd5-4a42-9215-dad1557690cc","system_id":"levelo_inurba_marseille","lat":43.3229,"lon":5.38264,"is_reserved":false,"is_disabled":false,"rental_uris":{"android":"levelo://app?vid=7bb5a6c7-6dd5-4a42-9215-dad1557690cc","ios":"levelo://app?vid=7bb5a6c7-6dd5-4a42-9215-dad1557690cc"},"vehicle_type_id":"4","last_reported":1725974175,"current_range_meters":36400,"station_id":"ce4bhr12rcd13ifvqhqg","pricing_plan_id":"cebpf4jnsgd1na2vs0mg"},{"bike_id":"5f698188-ff11-434d-8a83-4251bafd2e42","system_id":"levelo_inurba_marseille","lat":43.30137,"lon":5.37432,"is_reserved":false,"is_disabled":false,"rental_uris":{"android":"levelo://app?vid=5f698188-ff11-434d-8a83-4251bafd2e42","ios":"levelo://app?vid=5f698188-ff11-434d-8a83-4251bafd2e42"},"vehicle_type_id":"4","last_reported":1725974175,"current_range_meters":12000,"station_id":"ce4bgs92rcd13ifvqcc0","pricing_plan_id":"cebpf4jnsgd1na2vs0mg"},{"bike_id":"55a196b7-e6f7-4580-8290-9a1d17e3e3bf","system_id":"levelo_inurba_marseille","lat":43.24554,"lon":5.3953,"is_reserved":false,"is_disabled":false,"rental_uris":{"android":"levelo://app?vid=55a196b7-e6f7-4580-8290-9a1d17e3e3bf","ios":"levelo://app?vid=55a196b7-e6f7-4580-8290-9a1d17e3e3bf"},"vehicle_type_id":"4","last_reported":1725974175,"current_range_meters":10800,"station_id":"ce4bhlp2rcd13ifvqgjg","pricing_plan_id":"cebpf4jnsgd1na2vs0mg"},{"bike_id":"488389b8-8875-480e-81db-6249b245079e","system_id":"levelo_inurba_marseille","lat":43.31763,"lon":5.39016,"is_reserved":false,"is_disabled":false,"rental_uris":{"android":"levelo://app?vid=488389b8-8875-480e-81db-6249b245079e","ios":"levelo://app?vid=488389b8-8875-480e-81db-6249b245079e"},"vehicle_type_id":"4","last_reported":1725974175,"current_range_meters":16400,"station_id":"ce4bhqp2rcd13ifvqhng","pricing_plan_id":"cebpf4jnsgd1na2vs0mg"},{"bike_id":"de2c9db1-4c8a-4e46-aff0-f96e9f8fd663","system_id":"levelo_inurba_marseille","lat":43.284675,"lon":5.358844,"is_reserved":false,"is_disabled":false,"rental_uris":{"android":"levelo://app?vid=de2c9db1-4c8a-4e46-aff0-f96e9f8fd663","ios":"levelo://app?vid=de2c9db1-4c8a-4e46-aff0-f96e9f8fd663"},"vehicle_type_id":"4","last_reported":1725974175,"current_range_meters":32400,"station_id":"ce4bhah2rcd13ifvqei0","pricing_plan_id":"cebpf4jnsgd1na2vs0mg"},{"bike_id":"023d59c9-d88b-4cde-9314-b2979b0f07d9","system_id":"levelo_inurba_marseille","lat":43.28937,"lon":5.36401,"is_reserved":false,"is_disabled":false,"rental_uris":{"android":"levelo://app?vid=023d59c9-d88b-4cde-9314-b2979b0f07d9","ios":"levelo://app?vid=023d59c9-d88b-4cde-9314-b2979b0f07d9"},"vehicle_type_id":"4","last_reported":1725974175,"current_range_meters":20800,"station_id":"ce4bhc92rcd13ifvqetg","pricing_plan_id":"cebpf4jnsgd1na2vs0mg"},{"bike_id":"51bcbdca-fcc6-44c2-bee3-3c7b794f5505","system_id":"levelo_inurba_marseille","lat":43.3015,"lon":5.37421,"is_reserved":false,"is_disabled":false,"rental_uris":{"android":"levelo://app?vid=51bcbdca-fcc6-44c2-bee3-3c7b794f5505","ios":"levelo://app?vid=51bcbdca-fcc6-44c2-bee3-3c7b794f5505"},"vehicle_type_id":"4","last_reported":1725974175,"current_range_meters":38800,"station_id":"ce4bgs92rcd13ifvqcc0","pricing_plan_id":"cebpf4jnsgd1na2vs0mg"},{"bike_id":"f39b2119-4a11-4daa-9c63-03c8da229918","system_id":"levelo_inurba_marseille","lat":43.27493,"lon":5.42458,"is_reserved":false,"is_disabled":false,"rental_uris":{"android":"levelo://app?vid=f39b2119-4a11-4daa-9c63-03c8da229918","ios":"levelo://app?vid=f39b2119-4a11-4daa-9c63-03c8da229918"},"vehicle_type_id":"4","last_reported":1725974175,"current_range_meters":3600,"station_id":"ce4bhn92rcd13ifvqgrg","pricing_plan_id":"cebpf4jnsgd1na2vs0mg"},{"bike_id":"5a075d02-7033-4cef-ae0b-6ee61675c692","system_id":"levelo_inurba_marseille","lat":43.29805,"lon":5.38094,"is_reserved":false,"is_disabled":false,"rental_uris":{"android":"levelo://app?vid=5a075d02-7033-4cef-ae0b-6ee61675c692","ios":"levelo://app?vid=5a075d02-7033-4cef-ae0b-6ee61675c692"},"vehicle_type_id":"4","last_reported":1725974175,"current_range_meters":38800,"station_id":"ce4bgip2rcd13ifvqbb0","pricing_plan_id":"cebpf4jnsgd1na2vs0mg"},{"bike_id":"6b134d54-b53f-41b6-ad27-30e7e2cdcf57","system_id":"levelo_inurba_marseille","lat":43.29586,"lon":5.36742,"is_reserved":false,"is_disabled":false,"rental_uris":{"android":"levelo://app?vid=6b134d54-b53f-41b6-ad27-30e7e2cdcf57","ios":"levelo://app?vid=6b134d54-b53f-41b6-ad27-30e7e2cdcf57"},"vehicle_type_id":"4","last_reported":1725974175,"current_range_meters":28400,"station_id":"ce4bgph2rcd13ifvqc2g","pricing_plan_id":"cebpf4jnsgd1na2vs0mg"},{"bike_id":"a1da421a-ad0a-4eff-9c61-8b63abf69bee","system_id":"levelo_inurba_marseille","lat":43.27493,"lon":5.42462,"is_reserved":false,"is_disabled":false,"rental_uris":{"android":"levelo://app?vid=a1da421a-ad0a-4eff-9c61-8b63abf69bee","ios":"levelo://app?vid=a1da421a-ad0a-4eff-9c61-8b63abf69bee"},"vehicle_type_id":"4","last_reported":1725974175,"current_range_meters":9200,"station_id":"ce4bhn92rcd13ifvqgrg","pricing_plan_id":"cebpf4jnsgd1na2vs0mg"},{"bike_id":"1dc82d01-0a6c-46fa-b4ef-090f1a4f5072","system_id":"levelo_inurba_marseille","lat":43.29277,"lon":5.36849,"is_reserved":false,"is_disabled":false,"rental_uris":{"android":"levelo://app?vid=1dc82d01-0a6c-46fa-b4ef-090f1a4f5072","ios":"levelo://app?vid=1dc82d01-0a6c-46fa-b4ef-090f1a4f5072"},"vehicle_type_id":"4","last_reported":1725974175,"current_range_meters":2000,"station_id":"ce4bhbp2rcd13ifvqesg","pricing_plan_id":"cebpf4jnsgd1na2vs0mg"},{"bike_id":"e65f8b41-3fcc-4596-8d37-b8947a214951","system_id":"levelo_inurba_marseille","lat":43.25935,"lon":5.40908,"is_reserved":false,"is_disabled":false,"rental_uris":{"android":"levelo://app?vid=e65f8b41-3fcc-4596-8d37-b8947a214951","ios":"levelo://app?vid=e65f8b41-3fcc-4596-8d37-b8947a214951"},"vehicle_type_id":"4","last_reported":1725974175,"current_range_meters":9200,"station_id":"ce4bhm92rcd13ifvqglg","pricing_plan_id":"cebpf4jnsgd1na2vs0mg"},{"bike_id":"19dfdf4f-c242-4296-abf2-7e34df808ad2","system_id":"levelo_inurba_marseille","lat":43.29439,"lon":5.38912,"is_reserved":false,"is_disabled":false,"rental_uris":{"android":"levelo://app?vid=19dfdf4f-c242-4296-abf2-7e34df808ad2","ios":"levelo://app?vid=19dfdf4f-c242-4296-abf2-7e34df808ad2"},"vehicle_type_id":"4","last_reported":1725974175,"current_range_meters":31200,"station_id":"","pricing_plan_id":"cebpf4jnsgd1na2vs0mg"},{"bike_id":"c88b9b58-ded9-43ac-a92f-8106898f5e2b","system_id":"levelo_inurba_marseille","lat":43.29806,"lon":5.38095,"is_reserved":false,"is_disabled":false,"rental_uris":{"android":"levelo://app?vid=c88b9b58-ded9-43ac-a92f-8106898f5e2b","ios":"levelo://app?vid=c88b9b58-ded9-43ac-a92f-8106898f5e2b"},"vehicle_type_id":"4","last_reported":1725974175,"current_range_meters":32000,"station_id":"ce4bgip2rcd13ifvqbb0","pricing_plan_id":"cebpf4jnsgd1na2vs0mg"},{"bike_id":"2d121a5c-9368-452a-ab1c-21b5745550d7","system_id":"levelo_inurba_marseille","lat":43.2903,"lon":5.39972,"is_reserved":false,"is_disabled":false,"rental_uris":{"android":"levelo://app?vid=2d121a5c-9368-452a-ab1c-21b5745550d7","ios":"levelo://app?vid=2d121a5c-9368-452a-ab1c-21b5745550d7"},"vehicle_type_id":"4","last_reported":1725974175,"current_range_meters":31200,"station_id":"ce4bh392rcd13ifvqdm0","pricing_plan_id":"cebpf4jnsgd1na2vs0mg"},{"bike_id":"cabda9e9-7860-47fd-8f84-0b89bf5acb47","system_id":"levelo_inurba_marseille","lat":43.30151,"lon":5.38077,"is_reserved":false,"is_disabled":false,"rental_uris":{"android":"levelo://app?vid=cabda9e9-7860-47fd-8f84-0b89bf5acb47","ios":"levelo://app?vid=cabda9e9-7860-47fd-8f84-0b89bf5acb47"},"vehicle_type_id":"4","last_reported":1725974175,"current_range_meters":32400,"station_id":"ce4bgjp2rcd13ifvqbh0","pricing_plan_id":"cebpf4jnsgd1na2vs0mg"},{"bike_id":"b9643ae3-928a-4626-8b56-cc18bb49ae73","system_id":"levelo_inurba_marseille","lat":43.33757,"lon":5.37462,"is_reserved":false,"is_disabled":false,"rental_uris":{"android":"levelo://app?vid=b9643ae3-928a-4626-8b56-cc18bb49ae73","ios":"levelo://app?vid=b9643ae3-928a-4626-8b56-cc18bb49ae73"},"vehicle_type_id":"4","last_reported":1725974175,"current_range_meters":36800,"station_id":"","pricing_plan_id":"cebpf4jnsgd1na2vs0mg"},{"bike_id":"3580ec0f-815b-4c7f-80fd-268293071ba3","system_id":"levelo_inurba_marseille","lat":43.301427,"lon":5.380601,"is_reserved":false,"is_disabled":false,"rental_uris":{"android":"levelo://app?vid=3580ec0f-815b-4c7f-80fd-268293071ba3","ios":"levelo://app?vid=3580ec0f-815b-4c7f-80fd-268293071ba3"},"vehicle_type_id":"4","last_reported":1725974175,"current_range_meters":12000,"station_id":"ce4bgjp2rcd13ifvqbh0","pricing_plan_id":"cebpf4jnsgd1na2vs0mg"},{"bike_id":"bf3f6b11-b600-497a-84fe-1a0c1f2f273f","system_id":"levelo_inurba_marseille","lat":43.3237,"lon":5.38926,"is_reserved":false,"is_disabled":false,"rental_uris":{"android":"levelo://app?vid=bf3f6b11-b600-497a-84fe-1a0c1f2f273f","ios":"levelo://app?vid=bf3f6b11-b600-497a-84fe-1a0c1f2f273f"},"vehicle_type_id":"4","last_reported":1725974175,"current_range_meters":18000,"station_id":"","pricing_plan_id":"cebpf4jnsgd1na2vs0mg"},{"bike_id":"29bcfec9-b178-414e-a820-791423344636","system_id":"levelo_inurba_marseille","lat":43.25587,"lon":5.3823,"is_reserved":false,"is_disabled":false,"rental_uris":{"android":"levelo://app?vid=29bcfec9-b178-414e-a820-791423344636","ios":"levelo://app?vid=29bcfec9-b178-414e-a820-791423344636"},"vehicle_type_id":"4","last_reported":1725974175,"current_range_meters":13600,"station_id":"ce4bhih2rcd13ifvqfs0","pricing_plan_id":"cebpf4jnsgd1na2vs0mg"},{"bike_id":"408c7154-a83f-4d69-9e86-7d952c7c6834","system_id":"levelo_inurba_marseille","lat":43.25828,"lon":5.39426,"is_reserved":false,"is_disabled":false,"rental_uris":{"android":"levelo://app?vid=408c7154-a83f-4d69-9e86-7d952c7c6834","ios":"levelo://app?vid=408c7154-a83f-4d69-9e86-7d952c7c6834"},"vehicle_type_id":"4","last_reported":1725974175,"current_range_meters":38800,"station_id":"ce4bhip2rcd13ifvqft0","pricing_plan_id":"cebpf4jnsgd1na2vs0mg"},{"bike_id":"e65986e6-f912-4dc6-99ae-9e6bac228b06","system_id":"levelo_inurba_marseille","lat":43.27816,"lon":5.40708,"is_reserved":false,"is_disabled":false,"rental_uris":{"android":"levelo://app?vid=e65986e6-f912-4dc6-99ae-9e6bac228b06","ios":"levelo://app?vid=e65986e6-f912-4dc6-99ae-9e6bac228b06"},"vehicle_type_id":"4","last_reported":1725974175,"current_range_meters":33600,"station_id":"ce4bhnh2rcd13ifvqgtg","pricing_plan_id":"cebpf4jnsgd1na2vs0mg"},{"bike_id":"ce79fe4d-8876-4185-a3ed-38f8f4b73a09","system_id":"levelo_inurba_marseille","lat":43.33024,"lon":5.39044,"is_reserved":false,"is_disabled":false,"rental_uris":{"android":"levelo://app?vid=ce79fe4d-8876-4185-a3ed-38f8f4b73a09","ios":"levelo://app?vid=ce79fe4d-8876-4185-a3ed-38f8f4b73a09"},"vehicle_type_id":"4","last_reported":1725974175,"current_range_meters":7200,"station_id":"ce4bhr92rcd13ifvqhrg","pricing_plan_id":"cebpf4jnsgd1na2vs0mg"},{"bike_id":"4757bf9d-6e9d-4078-b39b-f6cbfd78d7a7","system_id":"levelo_inurba_marseille","lat":43.29673,"lon":5.373,"is_reserved":false,"is_disabled":false,"rental_uris":{"android":"levelo://app?vid=4757bf9d-6e9d-4078-b39b-f6cbfd78d7a7","ios":"levelo://app?vid=4757bf9d-6e9d-4078-b39b-f6cbfd78d7a7"},"vehicle_type_id":"4","last_reported":1725974175,"current_range_meters":32400,"station_id":"ce4bgk12rcd13ifvqbj0","pricing_plan_id":"cebpf4jnsgd1na2vs0mg"},{"bike_id":"04091355-5296-4374-bd1c-5d5d52d521cf","system_id":"levelo_inurba_marseille","lat":43.30152,"lon":5.38075,"is_reserved":false,"is_disabled":false,"rental_uris":{"android":"levelo://app?vid=04091355-5296-4374-bd1c-5d5d52d521cf","ios":"levelo://app?vid=04091355-5296-4374-bd1c-5d5d52d521cf"},"vehicle_type_id":"4","last_reported":1725974175,"current_range_meters":17600,"station_id":"ce4bgjp2rcd13ifvqbh0","pricing_plan_id":"cebpf4jnsgd1na2vs0mg"},{"bike_id":"8f5fcf8d-ec04-43a8-8504-5d7dbbdc0084","system_id":"levelo_inurba_marseille","lat":43.28463,"lon":5.35888,"is_reserved":false,"is_disabled":false,"rental_uris":{"android":"levelo://app?vid=8f5fcf8d-ec04-43a8-8504-5d7dbbdc0084","ios":"levelo://app?vid=8f5fcf8d-ec04-43a8-8504-5d7dbbdc0084"},"vehicle_type_id":"4","last_reported":1725974175,"current_range_meters":20400,"station_id":"ce4bhah2rcd13ifvqei0","pricing_plan_id":"cebpf4jnsgd1na2vs0mg"},{"bike_id":"6015af6b-8d18-4994-93c9-999669b8837d","system_id":"levelo_inurba_marseille","lat":43.32367,"lon":5.38874,"is_reserved":false,"is_disabled":false,"rental_uris":{"android":"levelo://app?vid=6015af6b-8d18-4994-93c9-999669b8837d","ios":"levelo://app?vid=6015af6b-8d18-4994-93c9-999669b8837d"},"vehicle_type_id":"4","last_reported":1725974175,"current_range_meters":10000,"station_id":"ce4bhqp2rcd13ifvqhog","pricing_plan_id":"cebpf4jnsgd1na2vs0mg"},{"bike_id":"24196bb8-3abb-46a9-9d11-d539919f0b23","system_id":"levelo_inurba_marseille","lat":43.24077,"lon":5.37762,"is_reserved":false,"is_disabled":false,"rental_uris":{"android":"levelo://app?vid=24196bb8-3abb-46a9-9d11-d539919f0b23","ios":"levelo://app?vid=24196bb8-3abb-46a9-9d11-d539919f0b23"},"vehicle_type_id":"4","last_reported":1725974175,"current_range_meters":23200,"station_id":"ce4bhnp2rcd13ifvqgvg","pricing_plan_id":"cebpf4jnsgd1na2vs0mg"},{"bike_id":"0f560931-ce0c-4fe8-8178-26820894ffa5","system_id":"levelo_inurba_marseille","lat":43.248345,"lon":5.374635,"is_reserved":false,"is_disabled":false,"rental_uris":{"android":"levelo://app?vid=0f560931-ce0c-4fe8-8178-26820894ffa5","ios":"levelo://app?vid=0f560931-ce0c-4fe8-8178-26820894ffa5"},"vehicle_type_id":"4","last_reported":1725974175,"current_range_meters":8400,"station_id":"ce4bhgh2rcd13ifvqfb0","pricing_plan_id":"cebpf4jnsgd1na2vs0mg"},{"bike_id":"993d331d-d573-436f-8f4e-319c61001b34","system_id":"levelo_inurba_marseille","lat":43.29252,"lon":5.40914,"is_reserved":false,"is_disabled":false,"rental_uris":{"android":"levelo://app?vid=993d331d-d573-436f-8f4e-319c61001b34","ios":"levelo://app?vid=993d331d-d573-436f-8f4e-319c61001b34"},"vehicle_type_id":"4","last_reported":1725974175,"current_range_meters":24000,"station_id":"ce4bh192rcd13ifvqdc0","pricing_plan_id":"cebpf4jnsgd1na2vs0mg"},{"bike_id":"fb225a68-605e-4c27-ba9a-ac6011f112d1","system_id":"levelo_inurba_marseille","lat":43.30821,"lon":5.38174,"is_reserved":false,"is_disabled":false,"rental_uris":{"android":"levelo://app?vid=fb225a68-605e-4c27-ba9a-ac6011f112d1","ios":"levelo://app?vid=fb225a68-605e-4c27-ba9a-ac6011f112d1"},"vehicle_type_id":"4","last_reported":1725974175,"current_range_meters":10000,"station_id":"ce4bgt12rcd13ifvqce0","pricing_plan_id":"cebpf4jnsgd1na2vs0mg"},{"bike_id":"e16ac97a-4e86-4460-bb3a-539e03c69ed8","system_id":"levelo_inurba_marseille","lat":43.28155,"lon":5.42646,"is_reserved":false,"is_disabled":false,"rental_uris":{"android":"levelo://app?vid=e16ac97a-4e86-4460-bb3a-539e03c69ed8","ios":"levelo://app?vid=e16ac97a-4e86-4460-bb3a-539e03c69ed8"},"vehicle_type_id":"4","last_reported":1725974175,"current_range_meters":10000,"station_id":"ce4bhnh2rcd13ifvqgug","pricing_plan_id":"cebpf4jnsgd1na2vs0mg"},{"bike_id":"97e6c8e4-f770-4de0-ba9b-deb2b2948e9c","system_id":"levelo_inurba_marseille","lat":43.25934,"lon":5.4091,"is_reserved":false,"is_disabled":false,"rental_uris":{"android":"levelo://app?vid=97e6c8e4-f770-4de0-ba9b-deb2b2948e9c","ios":"levelo://app?vid=97e6c8e4-f770-4de0-ba9b-deb2b2948e9c"},"vehicle_type_id":"4","last_reported":1725974175,"current_range_meters":16400,"station_id":"ce4bhm92rcd13ifvqglg","pricing_plan_id":"cebpf4jnsgd1na2vs0mg"},{"bike_id":"d3a0ad47-8ba3-4659-a923-285fb906f91c","system_id":"levelo_inurba_marseille","lat":43.33024,"lon":5.39042,"is_reserved":false,"is_disabled":false,"rental_uris":{"android":"levelo://app?vid=d3a0ad47-8ba3-4659-a923-285fb906f91c","ios":"levelo://app?vid=d3a0ad47-8ba3-4659-a923-285fb906f91c"},"vehicle_type_id":"4","last_reported":1725974175,"current_range_meters":12000,"station_id":"ce4bhr92rcd13ifvqhrg","pricing_plan_id":"cebpf4jnsgd1na2vs0mg"},{"bike_id":"432f6951-a818-46ce-acee-8b4fb895d42d","system_id":"levelo_inurba_marseille","lat":43.25578,"lon":5.38231,"is_reserved":false,"is_disabled":false,"rental_uris":{"android":"levelo://app?vid=432f6951-a818-46ce-acee-8b4fb895d42d","ios":"levelo://app?vid=432f6951-a818-46ce-acee-8b4fb895d42d"},"vehicle_type_id":"4","last_reported":1725974175,"current_range_meters":12400,"station_id":"ce4bhih2rcd13ifvqfs0","pricing_plan_id":"cebpf4jnsgd1na2vs0mg"},{"bike_id":"9b542691-9a36-4252-bf15-6014e149e5c1","system_id":"levelo_inurba_marseille","lat":43.25823,"lon":5.3943,"is_reserved":false,"is_disabled":false,"rental_uris":{"android":"levelo://app?vid=9b542691-9a36-4252-bf15-6014e149e5c1","ios":"levelo://app?vid=9b542691-9a36-4252-bf15-6014e149e5c1"},"vehicle_type_id":"4","last_reported":1725974175,"current_range_meters":38800,"station_id":"ce4bhip2rcd13ifvqft0","pricing_plan_id":"cebpf4jnsgd1na2vs0mg"},{"bike_id":"23ccdfc2-cfd5-40d9-99f4-58a44986b104","system_id":"levelo_inurba_marseille","lat":43.27815,"lon":5.40704,"is_reserved":false,"is_disabled":false,"rental_uris":{"android":"levelo://app?vid=23ccdfc2-cfd5-40d9-99f4-58a44986b104","ios":"levelo://app?vid=23ccdfc2-cfd5-40d9-99f4-58a44986b104"},"vehicle_type_id":"4","last_reported":1725974175,"current_range_meters":36400,"station_id":"ce4bhnh2rcd13ifvqgtg","pricing_plan_id":"cebpf4jnsgd1na2vs0mg"},{"bike_id":"9af376a3-4df2-4327-9178-8c4160213883","system_id":"levelo_inurba_marseille","lat":43.23961,"lon":5.36629,"is_reserved":false,"is_disabled":false,"rental_uris":{"android":"levelo://app?vid=9af376a3-4df2-4327-9178-8c4160213883","ios":"levelo://app?vid=9af376a3-4df2-4327-9178-8c4160213883"},"vehicle_type_id":"4","last_reported":1725974175,"current_range_meters":1600,"station_id":"ce4bhi12rcd13ifvqfp0","pricing_plan_id":"cebpf4jnsgd1na2vs0mg"},{"bike_id":"59d2893a-d1ce-4346-9856-cf825097e6cb","system_id":"levelo_inurba_marseille","lat":43.23197,"lon":5.35556,"is_reserved":false,"is_disabled":false,"rental_uris":{"android":"levelo://app?vid=59d2893a-d1ce-4346-9856-cf825097e6cb","ios":"levelo://app?vid=59d2893a-d1ce-4346-9856-cf825097e6cb"},"vehicle_type_id":"4","last_reported":1725974175,"current_range_meters":22400,"station_id":"ce4bhu92rcd13ifvqi70","pricing_plan_id":"cebpf4jnsgd1na2vs0mg"},{"bike_id":"f8e733a9-bf34-49a8-bf45-579e1a86de61","system_id":"levelo_inurba_marseille","lat":43.337444,"lon":5.374475,"is_reserved":false,"is_disabled":false,"rental_uris":{"android":"levelo://app?vid=f8e733a9-bf34-49a8-bf45-579e1a86de61","ios":"levelo://app?vid=f8e733a9-bf34-49a8-bf45-579e1a86de61"},"vehicle_type_id":"4","last_reported":1725974175,"current_range_meters":39200,"station_id":"","pricing_plan_id":"cebpf4jnsgd1na2vs0mg"},{"bike_id":"b5df77a3-37e8-45bc-9a91-9016b7d48a0a","system_id":"levelo_inurba_marseille","lat":43.28275,"lon":5.35066,"is_reserved":false,"is_disabled":false,"rental_uris":{"android":"levelo://app?vid=b5df77a3-37e8-45bc-9a91-9016b7d48a0a","ios":"levelo://app?vid=b5df77a3-37e8-45bc-9a91-9016b7d48a0a"},"vehicle_type_id":"4","last_reported":1725974175,"current_range_meters":28400,"station_id":"","pricing_plan_id":"cebpf4jnsgd1na2vs0mg"},{"bike_id":"340e4376-2578-41a7-8b22-74d628f1e3d4","system_id":"levelo_inurba_marseille","lat":43.2668,"lon":5.38271,"is_reserved":false,"is_disabled":false,"rental_uris":{"android":"levelo://app?vid=340e4376-2578-41a7-8b22-74d628f1e3d4","ios":"levelo://app?vid=340e4376-2578-41a7-8b22-74d628f1e3d4"},"vehicle_type_id":"4","last_reported":1725974175,"current_range_meters":36800,"station_id":"ce4bhg92rcd13ifvqf90","pricing_plan_id":"cebpf4jnsgd1na2vs0mg"},{"bike_id":"747fb69a-c309-49ca-a5a0-0809929c09ce","system_id":"levelo_inurba_marseille","lat":43.298683,"lon":5.397284,"is_reserved":false,"is_disabled":false,"rental_uris":{"android":"levelo://app?vid=747fb69a-c309-49ca-a5a0-0809929c09ce","ios":"levelo://app?vid=747fb69a-c309-49ca-a5a0-0809929c09ce"},"vehicle_type_id":"4","last_reported":1725974175,"current_range_meters":19200,"station_id":"ce4bh0h2rcd13ifvqd50","pricing_plan_id":"cebpf4jnsgd1na2vs0mg"},{"bike_id":"4a1cb237-1220-47d5-81e2-342a5bf16cbb","system_id":"levelo_inurba_marseille","lat":43.26681,"lon":5.3827,"is_reserved":false,"is_disabled":false,"rental_uris":{"android":"levelo://app?vid=4a1cb237-1220-47d5-81e2-342a5bf16cbb","ios":"levelo://app?vid=4a1cb237-1220-47d5-81e2-342a5bf16cbb"},"vehicle_type_id":"4","last_reported":1725974175,"current_range_meters":6000,"station_id":"ce4bhg92rcd13ifvqf90","pricing_plan_id":"cebpf4jnsgd1na2vs0mg"},{"bike_id":"97fa9b63-059f-4d0e-8061-6fbbfeec11ce","system_id":"levelo_inurba_marseille","lat":43.26029,"lon":5.37548,"is_reserved":false,"is_disabled":false,"rental_uris":{"android":"levelo://app?vid=97fa9b63-059f-4d0e-8061-6fbbfeec11ce","ios":"levelo://app?vid=97fa9b63-059f-4d0e-8061-6fbbfeec11ce"},"vehicle_type_id":"4","last_reported":1725974175,"current_range_meters":14000,"station_id":"ce4bhgh2rcd13ifvqfa0","pricing_plan_id":"cebpf4jnsgd1na2vs0mg"},{"bike_id":"b02a663f-6a11-4e18-85ad-bf75e4742c45","system_id":"levelo_inurba_marseille","lat":43.31324,"lon":5.39697,"is_reserved":false,"is_disabled":false,"rental_uris":{"android":"levelo://app?vid=b02a663f-6a11-4e18-85ad-bf75e4742c45","ios":"levelo://app?vid=b02a663f-6a11-4e18-85ad-bf75e4742c45"},"vehicle_type_id":"4","last_reported":1725974175,"current_range_meters":35600,"station_id":"ce4bgvp2rcd13ifvqcu0","pricing_plan_id":"cebpf4jnsgd1na2vs0mg"},{"bike_id":"854f34dd-69cf-46a8-b975-3c4868aa8447","system_id":"levelo_inurba_marseille","lat":43.28072,"lon":5.39648,"is_reserved":false,"is_disabled":false,"rental_uris":{"android":"levelo://app?vid=854f34dd-69cf-46a8-b975-3c4868aa8447","ios":"levelo://app?vid=854f34dd-69cf-46a8-b975-3c4868aa8447"},"vehicle_type_id":"4","last_reported":1725974175,"current_range_meters":33600,"station_id":"ce4bho12rcd13ifvqh2g","pricing_plan_id":"cebpf4jnsgd1na2vs0mg"},{"bike_id":"63611110-6a77-4701-9399-c9d975cd5209","system_id":"levelo_inurba_marseille","lat":43.28155,"lon":5.42643,"is_reserved":false,"is_disabled":false,"rental_uris":{"android":"levelo://app?vid=63611110-6a77-4701-9399-c9d975cd5209","ios":"levelo://app?vid=63611110-6a77-4701-9399-c9d975cd5209"},"vehicle_type_id":"4","last_reported":1725974175,"current_range_meters":26000,"station_id":"ce4bhnh2rcd13ifvqgug","pricing_plan_id":"cebpf4jnsgd1na2vs0mg"},{"bike_id":"555fe939-8fde-4229-b64e-2027c462fb0d","system_id":"levelo_inurba_marseille","lat":43.27568,"lon":5.38423,"is_reserved":false,"is_disabled":false,"rental_uris":{"android":"levelo://app?vid=555fe939-8fde-4229-b64e-2027c462fb0d","ios":"levelo://app?vid=555fe939-8fde-4229-b64e-2027c462fb0d"},"vehicle_type_id":"4","last_reported":1725974175,"current_range_meters":14400,"station_id":"ce4bhh92rcd13ifvqfi0","pricing_plan_id":"cebpf4jnsgd1na2vs0mg"},{"bike_id":"edb46839-ad20-4b2c-a751-3a09f3853452","system_id":"levelo_inurba_marseille","lat":43.290386,"lon":5.399569,"is_reserved":false,"is_disabled":false,"rental_uris":{"android":"levelo://app?vid=edb46839-ad20-4b2c-a751-3a09f3853452","ios":"levelo://app?vid=edb46839-ad20-4b2c-a751-3a09f3853452"},"vehicle_type_id":"4","last_reported":1725974175,"current_range_meters":25200,"station_id":"ce4bhlh2rcd13ifvqgig","pricing_plan_id":"cebpf4jnsgd1na2vs0mg"},{"bike_id":"cec62b90-ad02-4595-b497-cd64d99bf98c","system_id":"levelo_inurba_marseille","lat":43.30533,"lon":5.36706,"is_reserved":false,"is_disabled":false,"rental_uris":{"android":"levelo://app?vid=cec62b90-ad02-4595-b497-cd64d99bf98c","ios":"levelo://app?vid=cec62b90-ad02-4595-b497-cd64d99bf98c"},"vehicle_type_id":"4","last_reported":1725974175,"current_range_meters":38400,"station_id":"ce4bgrp2rcd13ifvqc9g","pricing_plan_id":"cebpf4jnsgd1na2vs0mg"},{"bike_id":"7d4236b0-d19b-4de7-acc4-1c5f7f5686c5","system_id":"levelo_inurba_marseille","lat":43.23148,"lon":5.43716,"is_reserved":false,"is_disabled":false,"rental_uris":{"android":"levelo://app?vid=7d4236b0-d19b-4de7-acc4-1c5f7f5686c5","ios":"levelo://app?vid=7d4236b0-d19b-4de7-acc4-1c5f7f5686c5"},"vehicle_type_id":"4","last_reported":1725974175,"current_range_meters":16800,"station_id":"ce4bhmp2rcd13ifvqgog","pricing_plan_id":"cebpf4jnsgd1na2vs0mg"},{"bike_id":"2bce686b-dd64-48d3-836d-99fa4acad5f7","system_id":"levelo_inurba_marseille","lat":43.24653,"lon":5.38891,"is_reserved":false,"is_disabled":false,"rental_uris":{"android":"levelo://app?vid=2bce686b-dd64-48d3-836d-99fa4acad5f7","ios":"levelo://app?vid=2bce686b-dd64-48d3-836d-99fa4acad5f7"},"vehicle_type_id":"4","last_reported":1725974175,"current_range_meters":33600,"station_id":"ce4bhg12rcd13ifvqf60","pricing_plan_id":"cebpf4jnsgd1na2vs0mg"},{"bike_id":"8c018e2b-6479-40a0-b7b0-9aed4e1cda83","system_id":"levelo_inurba_marseille","lat":43.24392,"lon":5.3706,"is_reserved":false,"is_disabled":false,"rental_uris":{"android":"levelo://app?vid=8c018e2b-6479-40a0-b7b0-9aed4e1cda83","ios":"levelo://app?vid=8c018e2b-6479-40a0-b7b0-9aed4e1cda83"},"vehicle_type_id":"4","last_reported":1725974175,"current_range_meters":16400,"station_id":"ce4bhhh2rcd13ifvqfk0","pricing_plan_id":"cebpf4jnsgd1na2vs0mg"},{"bike_id":"f8227aa7-9db7-4b9c-8c89-5df1ffc7cd85","system_id":"levelo_inurba_marseille","lat":43.32554,"lon":5.41439,"is_reserved":false,"is_disabled":false,"rental_uris":{"android":"levelo://app?vid=f8227aa7-9db7-4b9c-8c89-5df1ffc7cd85","ios":"levelo://app?vid=f8227aa7-9db7-4b9c-8c89-5df1ffc7cd85"},"vehicle_type_id":"4","last_reported":1725974175,"current_range_meters":25600,"station_id":"ce4bhq12rcd13ifvqhhg","pricing_plan_id":"cebpf4jnsgd1na2vs0mg"},{"bike_id":"62a31976-fd26-44c8-b7ff-d7f09556306b","system_id":"levelo_inurba_marseille","lat":43.28258,"lon":5.35063,"is_reserved":false,"is_disabled":false,"rental_uris":{"android":"levelo://app?vid=62a31976-fd26-44c8-b7ff-d7f09556306b","ios":"levelo://app?vid=62a31976-fd26-44c8-b7ff-d7f09556306b"},"vehicle_type_id":"4","last_reported":1725974175,"current_range_meters":39200,"station_id":"","pricing_plan_id":"cebpf4jnsgd1na2vs0mg"},{"bike_id":"cf0e8986-f6a9-4f5b-9547-4ee9fd512e06","system_id":"levelo_inurba_marseille","lat":43.28155,"lon":5.4045,"is_reserved":false,"is_disabled":false,"rental_uris":{"android":"levelo://app?vid=cf0e8986-f6a9-4f5b-9547-4ee9fd512e06","ios":"levelo://app?vid=cf0e8986-f6a9-4f5b-9547-4ee9fd512e06"},"vehicle_type_id":"4","last_reported":1725974175,"current_range_meters":27600,"station_id":"","pricing_plan_id":"cebpf4jnsgd1na2vs0mg"},