{"last_updated":1767193918,"ttl":60,"version":"2.2","data":{"bikes":[{"bike_id":"e8ab54ae-e2f2-45b3-abfa-d6901c5f6b29","system_id":"levelo_inurba_marseille","lat":43.288594,"lon":5.358596,"is_reserved":false,"is_disabled":false,"rental_uris":{"android":"levelo://app?vid=e8ab54ae-e2f2-45b3-abfa-d6901c5f6b29","ios":"levelo://app?vid=e8ab54ae-e2f2-45b3-abfa-d6901c5f6b29"},"vehicle_type_id":"4","last_reported":1767193919,"current_range_meters":2800,"station_id":"ce4bho12rcd13ifvqh1g","pricing_plan_id":"cebpf4jnsgd1na2vs0mg"},{"bike_id":"5e59ce91-a0ff-4651-98a6-ca057fcc8483","system_id":"levelo_inurba_marseille","lat":43.273208,"lon":5.390759,"is_reserved":false,"is_disabled":false,"rental_uris":{"android":"levelo://app?vid=5e59ce91-a0ff-4651-98a6-ca057fcc8483","ios":"levelo://app?vid=5e59ce91-a0ff-4651-98a6-ca057fcc8483"},"vehicle_type_id":"4","last_reported":1767193919,"current_range_meters":2800,"station_id":"ce4bhgp2rcd13ifvqfe0","pricing_plan_id":"cebpf4jnsgd1na2vs0mg"},{"bike_id":"32541f6a-1d2c-44c2-a392-06055eaf1598","system_id":"levelo_inurba_marseille","lat":43.26237,"lon":5.41626,"is_reserved":false,"is_disabled":false,"rental_uris":{"android":"levelo://app?vid=32541f6a-1d2c-44c2-a392-06055eaf1598","ios":"levelo://app?vid=32541f6a-1d2c-44c2-a392-06055eaf1598"},"vehicle_type_id":"4","last_reported":1767193919,"current_range_meters":2800,"station_id":"","pricing_plan_id":"cebpf4jnsgd1na2vs0mg"},{"bike_id":"047e698e-d642-4388-9e1e-eb2eb3c29f8f","system_id":"levelo_inurba_marseille","lat":43.296729,"lon":5.375982,"is_reserved":false,"is_disabled":false,"rental_uris":{"android":"levelo://app?vid=047e698e-d642-4388-9e1e-eb2eb3c29f8f","ios":"levelo://app?vid=047e698e-d642-4388-9e1e-eb2eb3c29f8f"},"vehicle_type_id":"4","last_reported":1767193919,"current_range_meters":3200,"station_id":"ce4bgk12rcd13ifvqbj0","pricing_plan_id":"cebpf4jnsgd1na2vs0mg"},{"bike_id":"39dbf59d-d99f-4e62-9e45-b546a0fe9acf","system_id":"levelo_inurba_marseille","lat":43.292023,"lon":5.358407,"is_reserved":false,"is_disabled":false,"rental_uris":{"android":"levelo://app?vid=39dbf59d-d99f-4e62-9e45-b546a0fe9acf","ios":"levelo://app?vid=39dbf59d-d99f-4e62-9e45-b546a0fe9acf"},"vehicle_type_id":"4","last_reported":1767193919,"current_range_meters":3200,"station_id":"ce4bhb12rcd13ifvqel0","pricing_plan_id":"cebpf4jnsgd1na2vs0mg"},{"bike_id":"29272ea3-9cbf-471d-ad66-52123e7bfa4a","system_id":"levelo_inurba_marseille","lat":43.31224,"lon":5.368591,"is_reserved":false,"is_disabled":false,"rental_uris":{"android":"levelo://app?vid=29272ea3-9cbf-471d-ad66-52123e7bfa4a","ios":"levelo://app?vid=29272ea3-9cbf-471d-ad66-52123e7bfa4a"},"vehicle_type_id":"4","last_reported":1767193919,"current_range_meters":3200,"station_id":"ce4bgl92rcd13ifvqbq0","pricing_plan_id":"cebpf4jnsgd1na2vs0mg"},{"bike_id":"9de835ce-5421-4a8f-96bd-b13ebc241cf0","system_id":"levelo_inurba_marseille","lat":43.28078,"lon":5.34766,"is_reserved":false,"is_disabled":false,"rental_uris":{"android":"levelo://app?vid=9de835ce-5421-4a8f-96bd-b13ebc241cf0","ios":"levelo://app?vid=9de835ce-5421-4a8f-96bd-b13ebc241cf0"},"vehicle_type_id":"4","last_reported":1767193919,"current_range_meters":3200,"station_id":"","pricing_plan_id":"cebpf4jnsgd1na2vs0mg"},{"bike_id":"35c5e8f7-d358-4856-bcc5-89fe25a3cfd6","system_id":"levelo_inurba_marseille","lat":43.287676,"lon":5.379643,"is_reserved":false,"is_disabled":false,"rental_uris":{"android":"levelo://app?vid=35c5e8f7-d358-4856-bcc5-89fe25a3cfd6","ios":"levelo://app?vid=35c5e8f7-d358-4856-bcc5-89fe25a3cfd6"},"vehicle_type_id":"4","last_reported":1767193919,"current_range_meters":3200,"station_id":"ce4bh9p2rcd13ifvqec0","pricing_plan_id":"cebpf4jnsgd1na2vs0mg"},{"bike_id":"07d55d49-c633-4527-98d6-d851da2109e0","system_id":"levelo_inurba_marseille","lat":43.289372,"lon":5.396274,"is_reserved":false,"is_disabled":false,"rental_uris":{"android":"levelo://app?vid=07d55d49-c633-4527-98d6-d851da2109e0","ios":"levelo://app?vid=07d55d49-c633-4527-98d6-d851da2109e0"},"vehicle_type_id":"4","last_reported":1767193919,"current_range_meters":3600,"station_id":"ce4bh3h2rcd13ifvqdn0","pricing_plan_id":"cebpf4jnsgd1na2vs0mg"},{"bike_id":"12c38b32-5974-4311-910a-572392b8079a","system_id":"levelo_inurba_marseille","lat":43.280422,"lon":5.350876,"is_reserved":false,"is_disabled":false,"rental_uris":{"android":"levelo://app?vid=12c38b32-5974-4311-910a-572392b8079a","ios":"levelo://app?vid=12c38b32-5974-4311-910a-572392b8079a"},"vehicle_type_id":"4","last_reported":1767193919,"current_range_meters":3600,"station_id":"","pricing_plan_id":"cebpf4jnsgd1na2vs0mg"},{"bike_id":"8e23bdba-3cfc-4e84-b5a6-8f30a614eb84","system_id":"levelo_inurba_marseille","lat":43.278381,"lon":5.39211,"is_reserved":false,"is_disabled":false,"rental_uris":{"android":"levelo://app?vid=8e23bdba-3cfc-4e84-b5a6-8f30a614eb84","ios":"levelo://app?vid=8e23bdba-3cfc-4e84-b5a6-8f30a614eb84"},"vehicle_type_id":"4","last_reported":1767193919,"current_range_meters":3600,"station_id":"ce4bhjp2rcd13ifvqga0","pricing_plan_id":"cebpf4jnsgd1na2vs0mg"},{"bike_id":"c076bf0d-bfb0-40a7-ae78-f0306f3dba85","system_id":"levelo_inurba_marseille","lat":43.23781,"lon":5.36625,"is_reserved":false,"is_disabled":false,"rental_uris":{"android":"levelo://app?vid=c076bf0d-bfb0-40a7-ae78-f0306f3dba85","ios":"levelo://app?vid=c076bf0d-bfb0-40a7-ae78-f0306f3dba85"},"vehicle_type_id":"4","last_reported":1767193919,"current_range_meters":4000,"station_id":"st_d3nk18o9ro0c73en2l3g","pricing_plan_id":"cebpf4jnsgd1na2vs0mg"},{"bike_id":"36ac86e1-b516-4db5-896a-1cf9b7bb1b41","system_id":"levelo_inurba_marseille","lat":43.308946,"lon":5.382017,"is_reserved":false,"is_disabled":false,"rental_uris":{"android":"levelo://app?vid=36ac86e1-b516-4db5-896a-1cf9b7bb1b41","ios":"levelo://app?vid=36ac86e1-b516-4db5-896a-1cf9b7bb1b41"},"vehicle_type_id":"4","last_reported":1767193919,"current_range_meters":4000,"station_id":"ce4bhh92rcd13ifvqfi0","pricing_plan_id":"cebpf4jnsgd1na2vs0mg"},{"bike_id":"264887cb-2a88-4832-8745-5894307cd521","system_id":"levelo_inurba_marseille","lat":43.274972,"lon":5.389836,"is_reserved":false,"is_disabled":false,"rental_uris":{"android":"levelo://app?vid=264887cb-2a88-4832-8745-5894307cd521","ios":"levelo://app?vid=264887cb-2a88-4832-8745-5894307cd521"},"vehicle_type_id":"4","last_reported":1767193919,"current_range_meters":4400,"station_id":"ce4bhe12rcd13ifvqf30","pricing_plan_id":"cebpf4jnsgd1na2vs0mg"},{"bike_id":"b2b7d040-6379-4a7a-a0d2-d47ce476ec56","system_id":"levelo_inurba_marseille","lat":43.28973,"lon":5.37836,"is_reserved":false,"is_disabled":false,"rental_uris":{"android":"levelo://app?vid=b2b7d040-6379-4a7a-a0d2-d47ce476ec56","ios":"levelo://app?vid=b2b7d040-6379-4a7a-a0d2-d47ce476ec56"},"vehicle_type_id":"4","last_reported":1767193919,"current_range_meters":4400,"station_id":"ce4bh9p2rcd13ifvqed0","pricing_plan_id":"cebpf4jnsgd1na2vs0mg"},{"bike_id":"4ac90107-c953-4ac2-bea9-ada77a9bbb4a","system_id":"levelo_inurba_marseille","lat":43.28409,"lon":5.37504,"is_reserved":false,"is_disabled":false,"rental_uris":{"android":"levelo://app?vid=4ac90107-c953-4ac2-bea9-ada77a9bbb4a","ios":"levelo://app?vid=4ac90107-c953-4ac2-bea9-ada77a9bbb4a"},"vehicle_type_id":"4","last_reported":1767193919,"current_range_meters":4400,"station_id":"ce4bh412rcd13ifvqds0","pricing_plan_id":"cebpf4jnsgd1na2vs0mg"},{"bike_id":"970f6c1d-f464-4249-baad-9d8636c41627","system_id":"levelo_inurba_marseille","lat":43.29187,"lon":5.37538,"is_reserved":false,"is_disabled":false,"rental_uris":{"android":"levelo://app?vid=970f6c1d-f464-4249-baad-9d8636c41627","ios":"levelo://app?vid=970f6c1d-f464-4249-baad-9d8636c41627"},"vehicle_type_id":"4","last_reported":1767193919,"current_range_meters":4800,"station_id":"","pricing_plan_id":"cebpf4jnsgd1na2vs0mg"},{"bike_id":"1f986bde-e823-4547-a8eb-43be952db802","system_id":"levelo_inurba_marseille","lat":43.29442,"lon":5.37288,"is_reserved":false,"is_disabled":false,"rental_uris":{"android":"levelo://app?vid=1f986bde-e823-4547-a8eb-43be952db802","ios":"levelo://app?vid=1f986bde-e823-4547-a8eb-43be952db802"},"vehicle_type_id":"4","last_reported":1767193919,"current_range_meters":4800,"station_id":"","pricing_plan_id":"cebpf4jnsgd1na2vs0mg"},{"bike_id":"fbb2c14b-fec5-415a-8ad7-ae7315cdd847","system_id":"levelo_inurba_marseille","lat":43.272067,"lon":5.391901,"is_reserved":false,"is_disabled":false,"rental_uris":{"android":"levelo://app?vid=fbb2c14b-fec5-415a-8ad7-ae7315cdd847","ios":"levelo://app?vid=fbb2c14b-fec5-415a-8ad7-ae7315cdd847"},"vehicle_type_id":"4","last_reported":1767193919,"current_range_meters":4800,"station_id":"","pricing_plan_id":"cebpf4jnsgd1na2vs0mg"},{"bike_id":"b4cf7106-73c2-4109-b6f1-be10e1ccce58","system_id":"levelo_inurba_marseille","lat":43.29662,"lon":5.38513,"is_reserved":false,"is_disabled":false,"rental_uris":{"android":"levelo://app?vid=b4cf7106-73c2-4109-b6f1-be10e1ccce58","ios":"levelo://app?vid=b4cf7106-73c2-4109-b6f1-be10e1ccce58"},"vehicle_type_id":"4","last_reported":1767193919,"current_range_meters":4800,"station_id":"","pricing_plan_id":"cebpf4jnsgd1na2vs0mg"},{"bike_id":"9437a659-abf7-4082-92c5-9970d5b66937","system_id":"levelo_inurba_marseille","lat":43.24543,"lon":5.39512,"is_reserved":false,"is_disabled":false,"rental_uris":{"android":"levelo://app?vid=9437a659-abf7-4082-92c5-9970d5b66937","ios":"levelo://app?vid=9437a659-abf7-4082-92c5-9970d5b66937"},"vehicle_type_id":"4","last_reported":1767193919,"current_range_meters":5600,"station_id":"ce4bhlp2rcd13ifvqgjg","pricing_plan_id":"cebpf4jnsgd1na2vs0mg"},{"bike_id":"ca17ec96-e4f2-41a2-a24a-062c3a5c5826","system_id":"levelo_inurba_marseille","lat":43.29237,"lon":5.36077,"is_reserved":false,"is_disabled":false,"rental_uris":{"android":"levelo://app?vid=ca17ec96-e4f2-41a2-a24a-062c3a5c5826","ios":"levelo://app?vid=ca17ec96-e4f2-41a2-a24a-062c3a5c5826"},"vehicle_type_id":"4","last_reported":1767193919,"current_range_meters":5600,"station_id":"ce4bhbh2rcd13ifvqeqg","pricing_plan_id":"cebpf4jnsgd1na2vs0mg"},{"bike_id":"ac8bb3f0-af4b-4483-a024-bf147f586494","system_id":"levelo_inurba_marseille","lat":43.29601,"lon":5.37118,"is_reserved":false,"is_disabled":false,"rental_uris":{"android":"levelo://app?vid=ac8bb3f0-af4b-4483-a024-bf147f586494","ios":"levelo://app?vid=ac8bb3f0-af4b-4483-a024-bf147f586494"},"vehicle_type_id":"4","last_reported":1767193919,"current_range_meters":5600,"station_id":"ce4bgnh2rcd13ifvqc0g","pricing_plan_id":"cebpf4jnsgd1na2vs0mg"},{"bike_id":"6db97174-a509-450b-8c41-57c1531bec77","system_id":"levelo_inurba_marseille","lat":43.24673,"lon":5.38171,"is_reserved":false,"is_disabled":false,"rental_uris":{"android":"levelo://app?vid=6db97174-a509-450b-8c41-57c1531bec77","ios":"levelo://app?vid=6db97174-a509-450b-8c41-57c1531bec77"},"vehicle_type_id":"4","last_reported":1767193919,"current_range_meters":6000,"station_id":"ce4bhih2rcd13ifvqfr0","pricing_plan_id":"cebpf4jnsgd1na2vs0mg"},{"bike_id":"d1028c8d-4c1a-4ce3-bb87-06b106258967","system_id":"levelo_inurba_marseille","lat":43.30094,"lon":5.37095,"is_reserved":false,"is_disabled":false,"rental_uris":{"android":"levelo://app?vid=d1028c8d-4c1a-4ce3-bb87-06b106258967","ios":"levelo://app?vid=d1028c8d-4c1a-4ce3-bb87-06b106258967"},"vehicle_type_id":"4","last_reported":1767193919,"current_range_meters":6000,"station_id":"","pricing_plan_id":"cebpf4jnsgd1na2vs0mg"},{"bike_id":"9d3e3e82-0274-479c-bc33-0268ceec6e2d","system_id":"levelo_inurba_marseille","lat":43.2892,"lon":5.36396,"is_reserved":false,"is_disabled":false,"rental_uris":{"android":"levelo://app?vid=9d3e3e82-0274-479c-bc33-0268ceec6e2d","ios":"levelo://app?vid=9d3e3e82-0274-479c-bc33-0268ceec6e2d"},"vehicle_type_id":"4","last_reported":1767193919,"current_range_meters":6000,"station_id":"ce4bhc92rcd13ifvqetg","pricing_plan_id":"cebpf4jnsgd1na2vs0mg"},{"bike_id":"3400d737-a32e-4dca-a00a-47ca201c9735","system_id":"levelo_inurba_marseille","lat":43.29543,"lon":5.42285,"is_reserved":false,"is_disabled":true,"rental_uris":{"android":"levelo://app?vid=3400d737-a32e-4dca-a00a-47ca201c9735","ios":"levelo://app?vid=3400d737-a32e-4dca-a00a-47ca201c9735"},"vehicle_type_id":"4","last_reported":1767193919,"current_range_meters":6000,"station_id":"ce4bhph2rcd13ifvqhdg","pricing_plan_id":"cebpf4jnsgd1na2vs0mg"},{"bike_id":"7451e2f1-97cc-4a6a-824e-1c725c74e9d6","system_id":"levelo_inurba_marseille","lat":43.293656,"lon":5.381034,"is_reserved":false,"is_disabled":false,"rental_uris":{"android":"levelo://app?vid=7451e2f1-97cc-4a6a-824e-1c725c74e9d6","ios":"levelo://app?vid=7451e2f1-97cc-4a6a-824e-1c725c74e9d6"},"vehicle_type_id":"4","last_reported":1767193919,"current_range_meters":6000,"station_id":"","pricing_plan_id":"cebpf4jnsgd1na2vs0mg"},{"bike_id":"eff9c51f-cff8-4cc3-b902-ea30bbf0b037","system_id":"levelo_inurba_marseille","lat":43.26562,"lon":5.40333,"is_reserved":false,"is_disabled":false,"rental_uris":{"android":"levelo://app?vid=eff9c51f-cff8-4cc3-b902-ea30bbf0b037","ios":"levelo://app?vid=eff9c51f-cff8-4cc3-b902-ea30bbf0b037"},"vehicle_type_id":"4","last_reported":1767193919,"current_range_meters":6000,"station_id":"ce4bhmp2rcd13ifvqgng","pricing_plan_id":"cebpf4jnsgd1na2vs0mg"},{"bike_id":"c51d25a2-9931-4751-a2b1-fe9d8ebd5ffd","system_id":"levelo_inurba_marseille","lat":43.21215,"lon":5.35076,"is_reserved":false,"is_disabled":false,"rental_uris":{"android":"levelo://app?vid=c51d25a2-9931-4751-a2b1-fe9d8ebd5ffd","ios":"levelo://app?vid=c51d25a2-9931-4751-a2b1-fe9d8ebd5ffd"},"vehicle_type_id":"4","last_reported":1767193919,"current_range_meters":6400,"station_id":"st_cvj6sg6p6f1abm77japg","pricing_plan_id":"cebpf4jnsgd1na2vs0mg"},{"bike_id":"541627ab-f423-458e-bd12-495ce2c13303","system_id":"levelo_inurba_marseille","lat":43.30788,"lon":5.38131,"is_reserved":false,"is_disabled":false,"rental_uris":{"android":"levelo://app?vid=541627ab-f423-458e-bd12-495ce2c13303","ios":"levelo://app?vid=541627ab-f423-458e-bd12-495ce2c13303"},"vehicle_type_id":"4","last_reported":1767193919,"current_range_meters":6400,"station_id":"ce4bgt12rcd13ifvqce0","pricing_plan_id":"cebpf4jnsgd1na2vs0mg"},{"bike_id":"1f7dc01e-7987-4661-bba7-66ef31c008d0","system_id":"levelo_inurba_marseille","lat":43.290392,"lon":5.356093,"is_reserved":false,"is_disabled":false,"rental_uris":{"android":"levelo://app?vid=1f7dc01e-7987-4661-bba7-66ef31c008d0","ios":"levelo://app?vid=1f7dc01e-7987-4661-bba7-66ef31c008d0"},"vehicle_type_id":"4","last_reported":1767193919,"current_range_meters":6400,"station_id":"ce4bhbh2rcd13ifvqeo0","pricing_plan_id":"cebpf4jnsgd1na2vs0mg"},{"bike_id":"dac5e270-6087-4105-b20c-0ccaa218ac94","system_id":"levelo_inurba_marseille","lat":43.336107,"lon":5.410367,"is_reserved":false,"is_disabled":false,"rental_uris":{"android":"levelo://app?vid=dac5e270-6087-4105-b20c-0ccaa218ac94","ios":"levelo://app?vid=dac5e270-6087-4105-b20c-0ccaa218ac94"},"vehicle_type_id":"4","last_reported":1767193919,"current_range_meters":6400,"station_id":"ce4bhqh2rcd13ifvqhmg","pricing_plan_id":"cebpf4jnsgd1na2vs0mg"},{"bike_id":"cc63311c-dc5c-4174-9303-3b27308cfb2e","system_id":"levelo_inurba_marseille","lat":43.31065,"lon":5.38347,"is_reserved":false,"is_disabled":false,"rental_uris":{"android":"levelo://app?vid=cc63311c-dc5c-4174-9303-3b27308cfb2e","ios":"levelo://app?vid=cc63311c-dc5c-4174-9303-3b27308cfb2e"},"vehicle_type_id":"4","last_reported":1767193919,"current_range_meters":6800,"station_id":"ce4bgv92rcd13ifvqcr0","pricing_plan_id":"cebpf4jnsgd1na2vs0mg"},{"bike_id":"af84e187-b5bc-46a8-8d10-7e953acf40a6","system_id":"levelo_inurba_marseille","lat":43.28972,"lon":5.37824,"is_reserved":false,"is_disabled":false,"rental_uris":{"android":"levelo://app?vid=af84e187-b5bc-46a8-8d10-7e953acf40a6","ios":"levelo://app?vid=af84e187-b5bc-46a8-8d10-7e953acf40a6"},"vehicle_type_id":"4","last_reported":1767193919,"current_range_meters":6800,"station_id":"ce4bh9p2rcd13ifvqed0","pricing_plan_id":"cebpf4jnsgd1na2vs0mg"},{"bike_id":"c46cff4b-ac87-4f72-9394-b03c5750b05a","system_id":"levelo_inurba_marseille","lat":43.29791,"lon":5.38099,"is_reserved":false,"is_disabled":false,"rental_uris":{"android":"levelo://app?vid=c46cff4b-ac87-4f72-9394-b03c5750b05a","ios":"levelo://app?vid=c46cff4b-ac87-4f72-9394-b03c5750b05a"},"vehicle_type_id":"4","last_reported":1767193919,"current_range_meters":6800,"station_id":"ce4bgip2rcd13ifvqbb0","pricing_plan_id":"cebpf4jnsgd1na2vs0mg"},{"bike_id":"4420f0e1-d4bb-4871-906b-b727021a7f49","system_id":"levelo_inurba_marseille","lat":43.26226,"lon":5.40452,"is_reserved":false,"is_disabled":false,"rental_uris":{"android":"levelo://app?vid=4420f0e1-d4bb-4871-906b-b727021a7f49","ios":"levelo://app?vid=4420f0e1-d4bb-4871-906b-b727021a7f49"},"vehicle_type_id":"4","last_reported":1767193919,"current_range_meters":6800,"station_id":"ce4bhmh2rcd13ifvqgmg","pricing_plan_id":"cebpf4jnsgd1na2vs0mg"},{"bike_id":"742f1e99-972a-4415-9c07-2696da1383a1","system_id":"levelo_inurba_marseille","lat":43.29646,"lon":5.40587,"is_reserved":false,"is_disabled":false,"rental_uris":{"android":"levelo://app?vid=742f1e99-972a-4415-9c07-2696da1383a1","ios":"levelo://app?vid=742f1e99-972a-4415-9c07-2696da1383a1"},"vehicle_type_id":"4","last_reported":1767193919,"current_range_meters":7200,"station_id":"","pricing_plan_id":"cebpf4jnsgd1na2vs0mg"},{"bike_id":"b765262d-1e90-432f-b785-523eb2ca010d","system_id":"levelo_inurba_marseille","lat":43.31159,"lon":5.40722,"is_reserved":false,"is_disabled":false,"rental_uris":{"android":"levelo://app?vid=b765262d-1e90-432f-b785-523eb2ca010d","ios":"levelo://app?vid=b765262d-1e90-432f-b785-523eb2ca010d"},"vehicle_type_id":"4","last_reported":1767193919,"current_range_meters":7200,"station_id":"","pricing_plan_id":"cebpf4jnsgd1na2vs0mg"},{"bike_id":"3ae180a1-ad81-4fbd-8d8e-5122c1af76f4","system_id":"levelo_inurba_marseille","lat":43.337444,"lon":5.374475,"is_reserved":false,"is_disabled":false,"rental_uris":{"android":"levelo://app?vid=3ae180a1-ad81-4fbd-8d8e-5122c1af76f4","ios":"levelo://app?vid=3ae180a1-ad81-4fbd-8d8e-5122c1af76f4"},"vehicle_type_id":"4","last_reported":1767193919,"current_range_meters":7200,"station_id":"","pricing_plan_id":"cebpf4jnsgd1na2vs0mg"},{"bike_id":"ec5fae6d-47b5-4030-bf64-4af050af9ecb","system_id":"levelo_inurba_marseille","lat":43.30953,"lon":5.37794,"is_reserved":false,"is_disabled":false,"rental_uris":{"android":"levelo://app?vid=ec5fae6d-47b5-4030-bf64-4af050af9ecb","ios":"levelo://app?vid=ec5fae6d-47b5-4030-bf64-4af050af9ecb"},"vehicle_type_id":"4","last_reported":1767193919,"current_range_meters":7200,"station_id":"","pricing_plan_id":"cebpf4jnsgd1na2vs0mg"},{"bike_id":"f7c6163a-32c9-4039-abb6-9c70fe99f143","system_id":"levelo_inurba_marseille","lat":43.23194,"lon":5.35551,"is_reserved":false,"is_disabled":false,"rental_uris":{"android":"levelo://app?vid=f7c6163a-32c9-4039-abb6-9c70fe99f143","ios":"levelo://app?vid=f7c6163a-32c9-4039-abb6-9c70fe99f143"},"vehicle_type_id":"4","last_reported":1767193919,"current_range_meters":7200,"station_id":"ce4bhu92rcd13ifvqi70","pricing_plan_id":"cebpf4jnsgd1na2vs0mg"},{"bike_id":"dc24b930-2de7-4f03-b68e-cf74fe5891d5","system_id":"levelo_inurba_marseille","lat":43.29582,"lon":5.37494,"is_reserved":false,"is_disabled":false,"rental_uris":{"android":"levelo://app?vid=dc24b930-2de7-4f03-b68e-cf74fe5891d5","ios":"levelo://app?vid=dc24b930-2de7-4f03-b68e-cf74fe5891d5"},"vehicle_type_id":"4","last_reported":1767193919,"current_range_meters":7200,"station_id":"ce4bgh92rcd13ifvqb50","pricing_plan_id":"cebpf4jnsgd1na2vs0mg"},{"bike_id":"2f2bcc13-4fe8-4772-a9f4-f3f9a2ee9b54","system_id":"levelo_inurba_marseille","lat":43.29004,"lon":5.35614,"is_reserved":false,"is_disabled":false,"rental_uris":{"android":"levelo://app?vid=2f2bcc13-4fe8-4772-a9f4-f3f9a2ee9b54","ios":"levelo://app?vid=2f2bcc13-4fe8-4772-a9f4-f3f9a2ee9b54"},"vehicle_type_id":"4","last_reported":1767193919,"current_range_meters":7200,"station_id":"ce4bhb92rcd13ifvqen0","pricing_plan_id":"cebpf4jnsgd1na2vs0mg"},{"bike_id":"f55913ce-e83f-486b-ad1d-80cf8fb2e200","system_id":"levelo_inurba_marseille","lat":43.30284,"lon":5.36909,"is_reserved":false,"is_disabled":false,"rental_uris":{"android":"levelo://app?vid=f55913ce-e83f-486b-ad1d-80cf8fb2e200","ios":"levelo://app?vid=f55913ce-e83f-486b-ad1d-80cf8fb2e200"},"vehicle_type_id":"4","last_reported":1767193919,"current_range_meters":8000,"station_id":"ce4bgqh2rcd13ifvqc5g","pricing_plan_id":"cebpf4jnsgd1na2vs0mg"},{"bike_id":"6b07b5cd-b5ff-4a36-bcc6-5e5e96cb6a86","system_id":"levelo_inurba_marseille","lat":43.26204,"lon":5.40435,"is_reserved":false,"is_disabled":false,"rental_uris":{"android":"levelo://app?vid=6b07b5cd-b5ff-4a36-bcc6-5e5e96cb6a86","ios":"levelo://app?vid=6b07b5cd-b5ff-4a36-bcc6-5e5e96cb6a86"},"vehicle_type_id":"4","last_reported":1767193919,"current_range_meters":8000,"station_id":"ce4bhmh2rcd13ifvqgmg","pricing_plan_id":"cebpf4jnsgd1na2vs0mg"},{"bike_id":"ff592dc6-0dd6-4859-a396-e9bc4f26a045","system_id":"levelo_inurba_marseille","lat":43.22555,"lon":5.41633,"is_reserved":false,"is_disabled":false,"rental_uris":{"android":"levelo://app?vid=ff592dc6-0dd6-4859-a396-e9bc4f26a045","ios":"levelo://app?vid=ff592dc6-0dd6-4859-a396-e9bc4f26a045"},"vehicle_type_id":"4","last_reported":1767193919,"current_range_meters":8000,"station_id":"st_d2o4gvlbi1j2169b742g","pricing_plan_id":"cebpf4jnsgd1na2vs0mg"},{"bike_id":"fee7e50e-a051-4873-a81f-7b5d570d0dc0","system_id":"levelo_inurba_marseille","lat":43.29801,"lon":5.40388,"is_reserved":false,"is_disabled":false,"rental_uris":{"android":"levelo://app?vid=fee7e50e-a051-4873-a81f-7b5d570d0dc0","ios":"levelo://app?vid=fee7e50e-a051-4873-a81f-7b5d570d0dc0"},"vehicle_type_id":"4","last_reported":1767193919,"current_range_meters":8000,"station_id":"ce4bh112rcd13ifvqd90","pricing_plan_id":"cebpf4jnsgd1na2vs0mg"},{"bike_id":"a4c03067-06d5-4c61-9b69-d990d3d2656d","system_id":"levelo_inurba_marseille","lat":43.295288,"lon":5.385509,"is_reserved":false,"is_disabled":false,"rental_uris":{"android":"levelo://app?vid=a4c03067-06d5-4c61-9b69-d990d3d2656d","ios":"levelo://app?vid=a4c03067-06d5-4c61-9b69-d990d3d2656d"},"vehicle_type_id":"4","last_reported":1767193919,"current_range_meters":8000,"station_id":"ce4bgih2rcd13ifvqba0","pricing_plan_id":"cebpf4jnsgd1na2vs0mg"},{"bike_id":"8e1a76f6-0a90-42e8-9862-e154108f1b18","system_id":"levelo_inurba_marseille","lat":43.29771,"lon":5.37085,"is_reserved":false,"is_disabled":false,"rental_uris":{"android":"levelo://app?vid=8e1a76f6-0a90-42e8-9862-e154108f1b18","ios":"levelo://app?vid=8e1a76f6-0a90-42e8-9862-e154108f1b18"},"vehicle_type_id":"4","last_reported":1767193919,"current_range_meters":8000,"station_id":"ce4bgop2rcd13ifvqc1g","pricing_plan_id":"cebpf4jnsgd1na2vs0mg"},{"bike_id":"962560fc-5850-4029-b443-b8ef16a69b6f","system_id":"levelo_inurba_marseille","lat":43.28616,"lon":5.3511,"is_reserved":false,"is_disabled":false,"rental_uris":{"android":"levelo://app?vid=962560fc-5850-4029-b443-b8ef16a69b6f","ios":"levelo://app?vid=962560fc-5850-4029-b443-b8ef16a69b6f"},"vehicle_type_id":"4","last_reported":1767193919,"current_range_meters":8000,"station_id":"ce4bhch2rcd13ifvqeug","pricing_plan_id":"cebpf4jnsgd1na2vs0mg"},{"bike_id":"bebfe7ea-f824-4306-ad94-9d5d87ac8f64","system_id":"levelo_inurba_marseille","lat":43.31082,"lon":5.38352,"is_reserved":false,"is_disabled":false,"rental_uris":{"android":"levelo://app?vid=bebfe7ea-f824-4306-ad94-9d5d87ac8f64","ios":"levelo://app?vid=bebfe7ea-f824-4306-ad94-9d5d87ac8f64"},"vehicle_type_id":"4","last_reported":1767193919,"current_range_meters":8000,"station_id":"ce4bgv92rcd13ifvqcr0","pricing_plan_id":"cebpf4jnsgd1na2vs0mg"},{"bike_id":"1e1a60f4-2b4d-4b73-b8f5-e24fdf3e2010","system_id":"levelo_inurba_marseille","lat":43.2988,"lon":5.40087,"is_reserved":false,"is_disabled":false,"rental_uris":{"android":"levelo://app?vid=1e1a60f4-2b4d-4b73-b8f5-e24fdf3e2010","ios":"levelo://app?vid=1e1a60f4-2b4d-4b73-b8f5-e24fdf3e2010"},"vehicle_type_id":"4","last_reported":1767193919,"current_range_meters":8400,"station_id":"","pricing_plan_id":"cebpf4jnsgd1na2vs0mg"},{"bike_id":"ab9a5e30-29f8-4fee-9bc5-925ba0b877c7","system_id":"levelo_inurba_marseille","lat":43.30104,"lon":5.39074,"is_reserved":false,"is_disabled":false,"rental_uris":{"android":"levelo://app?vid=ab9a5e30-29f8-4fee-9bc5-925ba0b877c7","ios":"levelo://app?vid=ab9a5e30-29f8-4fee-9bc5-925ba0b877c7"},"vehicle_type_id":"4","last_reported":1767193919,"current_range_meters":8400,"station_id":"ce4bh192rcd13ifvqdb0","pricing_plan_id":"cebpf4jnsgd1na2vs0mg"},{"bike_id":"8532a446-116d-42de-aad5-8fc1cb169eb3","system_id":"levelo_inurba_marseille","lat":43.25501,"lon":5.37652,"is_reserved":false,"is_disabled":false,"rental_uris":{"android":"levelo://app?vid=8532a446-116d-42de-aad5-8fc1cb169eb3","ios":"levelo://app?vid=8532a446-116d-42de-aad5-8fc1cb169eb3"},"vehicle_type_id":"4","last_reported":1767193919,"current_range_meters":8400,"station_id":"ce4bhh12rcd13ifvqff0","pricing_plan_id":"cebpf4jnsgd1na2vs0mg"},{"bike_id":"d6c905af-fee0-455f-8001-12476aad1731","system_id":"levelo_inurba_marseille","lat":43.28259,"lon":5.35059,"is_reserved":false,"is_disabled":false,"rental_uris":{"android":"levelo://app?vid=d6c905af-fee0-455f-8001-12476aad1731","ios":"levelo://app?vid=d6c905af-fee0-455f-8001-12476aad1731"},"vehicle_type_id":"4","last_reported":1767193919,"current_range_meters":8400,"station_id":"ce4bhbp2rcd13ifvqerg","pricing_plan_id":"cebpf4jnsgd1na2vs0mg"},{"bike_id":"a274e1f3-90e8-4548-9a2a-4f53c59abc4e","system_id":"levelo_inurba_marseille","lat":43.31727,"lon":5.40482,"is_reserved":false,"is_disabled":true,"rental_uris":{"android":"levelo://app?vid=a274e1f3-90e8-4548-9a2a-4f53c59abc4e","ios":"levelo://app?vid=a274e1f3-90e8-4548-9a2a-4f53c59abc4e"},"vehicle_type_id":"4","last_reported":1767193919,"current_range_meters":8400,"station_id":"ce4bh012rcd13ifvqd00","pricing_plan_id":"cebpf4jnsgd1na2vs0mg"},{"bike_id":"dabfe40b-52c7-4deb-b993-e379f777fdcf","system_id":"levelo_inurba_marseille","lat":43.27185,"lon":5.3913,"is_reserved":false,"is_disabled":false,"rental_uris":{"android":"levelo://app?vid=dabfe40b-52c7-4deb-b993-e379f777fdcf","ios":"levelo://app?vid=dabfe40b-52c7-4deb-b993-e379f777fdcf"},"vehicle_type_id":"4","last_reported":1767193919,"current_range_meters":8400,"station_id":"ce4bhhp2rcd13ifvqfm0","pricing_plan_id":"cebpf4jnsgd1na2vs0mg"},{"bike_id":"0fd3d1c7-84f3-4bc7-b490-7dccbb6bf5fc","system_id":"levelo_inurba_marseille","lat":43.2849,"lon":5.38412,"is_reserved":false,"is_disabled":false,"rental_uris":{"android":"levelo://app?vid=0fd3d1c7-84f3-4bc7-b490-7dccbb6bf5fc","ios":"levelo://app?vid=0fd3d1c7-84f3-4bc7-b490-7dccbb6bf5fc"},"vehicle_type_id":"4","last_reported":1767193919,"current_range_meters":8400,"station_id":"ce4bh512rcd13ifvqe3g","pricing_plan_id":"cebpf4jnsgd1na2vs0mg"},{"bike_id":"dacc1bc0-eec9-4219-9225-c37f13cfc222","system_id":"levelo_inurba_marseille","lat":43.285219,"lon":5.441064,"is_reserved":false,"is_disabled":false,"rental_uris":{"android":"levelo://app?vid=dacc1bc0-eec9-4219-9225-c37f13cfc222","ios":"levelo://app?vid=dacc1bc0-eec9-4219-9225-c37f13cfc222"},"vehicle_type_id":"4","last_reported":1767193919,"current_range_meters":8400,"station_id":"st_d3j3df2ikq2c7380ej80","pricing_plan_id":"cebpf4jnsgd1na2vs0mg"},{"bike_id":"08d9da5e-884a-4cd7-846c-0a2f92b4f2db","system_id":"levelo_inurba_marseille","lat":43.30564,"lon":5.36549,"is_reserved":false,"is_disabled":false,"rental_uris":{"android":"levelo://app?vid=08d9da5e-884a-4cd7-846c-0a2f92b4f2db","ios":"levelo://app?vid=08d9da5e-884a-4cd7-846c-0a2f92b4f2db"},"vehicle_type_id":"4","last_reported":1767193919,"current_range_meters":8800,"station_id":"ce4bgs12rcd13ifvqcag","pricing_plan_id":"cebpf4jnsgd1na2vs0mg"},{"bike_id":"dce28840-1b59-4930-917a-12d88071d00f","system_id":"levelo_inurba_marseille","lat":43.28547,"lon":5.44123,"is_reserved":false,"is_disabled":false,"rental_uris":{"android":"levelo://app?vid=dce28840-1b59-4930-917a-12d88071d00f","ios":"levelo://app?vid=dce28840-1b59-4930-917a-12d88071d00f"},"vehicle_type_id":"4","last_reported":1767193919,"current_range_meters":8800,"station_id":"st_d3j3df2ikq2c7380ej80","pricing_plan_id":"cebpf4jnsgd1na2vs0mg"},{"bike_id":"fc01654f-2593-4295-8309-447493a7010a","system_id":"levelo_inurba_marseille","lat":43.27181,"lon":5.390489,"is_reserved":false,"is_disabled":false,"rental_uris":{"android":"levelo://app?vid=fc01654f-2593-4295-8309-447493a7010a","ios":"levelo://app?vid=fc01654f-2593-4295-8309-447493a7010a"},"vehicle_type_id":"4","last_reported":1767193919,"current_range_meters":8800,"station_id":"","pricing_plan_id":"cebpf4jnsgd1na2vs0mg"},{"bike_id":"7c20e148-2a07-439c-8007-95ff3dd732b8","system_id":"levelo_inurba_marseille","lat":43.21197,"lon":5.35081,"is_reserved":false,"is_disabled":true,"rental_uris":{"android":"levelo://app?vid=7c20e148-2a07-439c-8007-95ff3dd732b8","ios":"levelo://app?vid=7c20e148-2a07-439c-8007-95ff3dd732b8"},"vehicle_type_id":"4","last_reported":1767193919,"current_range_meters":8800,"station_id":"st_cvj6sg6p6f1abm77japg","pricing_plan_id":"cebpf4jnsgd1na2vs0mg"},{"bike_id":"0fa76090-b264-4d7f-a0bc-7de1e50f19da","system_id":"levelo_inurba_marseille","lat":43.28016,"lon":5.40411,"is_reserved":false,"is_disabled":false,"rental_uris":{"android":"levelo://app?vid=0fa76090-b264-4d7f-a0bc-7de1e50f19da","ios":"levelo://app?vid=0fa76090-b264-4d7f-a0bc-7de1e50f19da"},"vehicle_type_id":"4","last_reported":1767193919,"current_range_meters":8800,"station_id":"","pricing_plan_id":"cebpf4jnsgd1na2vs0mg"},{"bike_id":"845c5dd0-89d6-4a62-8841-9e77bdbe7ca1","system_id":"levelo_inurba_marseille","lat":43.28619,"lon":5.35074,"is_reserved":false,"is_disabled":false,"rental_uris":{"android":"levelo://app?vid=845c5dd0-89d6-4a62-8841-9e77bdbe7ca1","ios":"levelo://app?vid=845c5dd0-89d6-4a62-8841-9e77bdbe7ca1"},"vehicle_type_id":"4","last_reported":1767193919,"current_range_meters":8800,"station_id":"ce4bhch2rcd13ifvqeug","pricing_plan_id":"cebpf4jnsgd1na2vs0mg"},{"bike_id":"de12e7a0-135b-4111-a2e9-fbae34d3aec7","system_id":"levelo_inurba_marseille","lat":43.30613,"lon":5.37238,"is_reserved":false,"is_disabled":false,"rental_uris":{"android":"levelo://app?vid=de12e7a0-135b-4111-a2e9-fbae34d3aec7","ios":"levelo://app?vid=de12e7a0-135b-4111-a2e9-fbae34d3aec7"},"vehicle_type_id":"4","last_reported":1767193919,"current_range_meters":8800,"station_id":"ce4bgqh2rcd13ifvqc4g","pricing_plan_id":"cebpf4jnsgd1na2vs0mg"},{"bike_id":"d71f2cc9-34f1-4eed-8707-d0bf53e9f9dd","system_id":"levelo_inurba_marseille","lat":43.33545,"lon":5.37484,"is_reserved":false,"is_disabled":false,"rental_uris":{"android":"levelo://app?vid=d71f2cc9-34f1-4eed-8707-d0bf53e9f9dd","ios":"levelo://app?vid=d71f2cc9-34f1-4eed-8707-d0bf53e9f9dd"},"vehicle_type_id":"4","last_reported":1767193919,"current_range_meters":8800,"station_id":"st_d46tts09ee8s73dlu43g","pricing_plan_id":"cebpf4jnsgd1na2vs0mg"},{"bike_id":"b8218b86-9c67-44b2-af7a-c0a5340c5723","system_id":"levelo_inurba_marseille","lat":43.33576,"lon":5.37466,"is_reserved":false,"is_disabled":false,"rental_uris":{"android":"levelo://app?vid=b8218b86-9c67-44b2-af7a-c0a5340c5723","ios":"levelo://app?vid=b8218b86-9c67-44b2-af7a-c0a5340c5723"},"vehicle_type_id":"4","last_reported":1767193919,"current_range_meters":8800,"station_id":"st_d46tts09ee8s73dlu43g","pricing_plan_id":"cebpf4jnsgd1na2vs0mg"},{"bike_id":"32deea2e-3c96-479c-b180-42189abac922","system_id":"levelo_inurba_marseille","lat":43.28423,"lon":5.37528,"is_reserved":false,"is_disabled":false,"rental_uris":{"android":"levelo://app?vid=32deea2e-3c96-479c-b180-42189abac922","ios":"levelo://app?vid=32deea2e-3c96-479c-b180-42189abac922"},"vehicle_type_id":"4","last_reported":1767193919,"current_range_meters":8800,"station_id":"ce4bh412rcd13ifvqds0","pricing_plan_id":"cebpf4jnsgd1na2vs0mg"},{"bike_id":"8d39a28b-6766-4dd2-9cb0-2a9ef3a2a93b","system_id":"levelo_inurba_marseille","lat":43.33158,"lon":5.376965,"is_reserved":false,"is_disabled":false,"rental_uris":{"android":"levelo://app?vid=8d39a28b-6766-4dd2-9cb0-2a9ef3a2a93b","ios":"levelo://app?vid=8d39a28b-6766-4dd2-9cb0-2a9ef3a2a93b"},"vehicle_type_id":"4","last_reported":1767193919,"current_range_meters":9200,"station_id":"st_d46cu089ee8s73dldbu0","pricing_plan_id":"cebpf4jnsgd1na2vs0mg"},{"bike_id":"efd33062-2cef-445f-af98-648f578e9c2a","system_id":"levelo_inurba_marseille","lat":43.32625,"lon":5.41993,"is_reserved":false,"is_disabled":false,"rental_uris":{"android":"levelo://app?vid=efd33062-2cef-445f-af98-648f578e9c2a","ios":"levelo://app?vid=efd33062-2cef-445f-af98-648f578e9c2a"},"vehicle_type_id":"4","last_reported":1767193919,"current_range_meters":9200,"station_id":"","pricing_plan_id":"cebpf4jnsgd1na2vs0mg"},{"bike_id":"78ed77cb-47f0-4c82-bf8a-f958576ec953","system_id":"levelo_inurba_marseille","lat":43.28157,"lon":5.42642,"is_reserved":false,"is_disabled":false,"rental_uris":{"android":"levelo://app?vid=78ed77cb-47f0-4c82-bf8a-f958576ec953","ios":"levelo://app?vid=78ed77cb-47f0-4c82-bf8a-f958576ec953"},"vehicle_type_id":"4","last_reported":1767193919,"current_range_meters":9200,"station_id":"ce4bhnh2rcd13ifvqgug","pricing_plan_id":"cebpf4jnsgd1na2vs0mg"},{"bike_id":"3aa47c4e-8195-4519-85d8-aa5318671462","system_id":"levelo_inurba_marseille","lat":43.305102,"lon":5.365232,"is_reserved":false,"is_disabled":false,"rental_uris":{"android":"levelo://app?vid=3aa47c4e-8195-4519-85d8-aa5318671462","ios":"levelo://app?vid=3aa47c4e-8195-4519-85d8-aa5318671462"},"vehicle_type_id":"4","last_reported":1767193919,"current_range_meters":9200,"station_id":"","pricing_plan_id":"cebpf4jnsgd1na2vs0mg"},{"bike_id":"149a94e7-8065-4440-a1ab-1ba416a8f181","system_id":"levelo_inurba_marseille","lat":43.28478,"lon":5.48403,"is_reserved":false,"is_disabled":false,"rental_uris":{"android":"levelo://app?vid=149a94e7-8065-4440-a1ab-1ba416a8f181","ios":"levelo://app?vid=149a94e7-8065-4440-a1ab-1ba416a8f181"},"vehicle_type_id":"4","last_reported":1767193919,"current_range_meters":9200,"station_id":"","pricing_plan_id":"cebpf4jnsgd1na2vs0mg"},{"bike_id":"b9f5bb9a-d9aa-4714-a9ae-ceaed3ab533e","system_id":"levelo_inurba_marseille","lat":43.29636,"lon":5.38082,"is_reserved":false,"is_disabled":false,"rental_uris":{"android":"levelo://app?vid=b9f5bb9a-d9aa-4714-a9ae-ceaed3ab533e","ios":"levelo://app?vid=b9f5bb9a-d9aa-4714-a9ae-ceaed3ab533e"},"vehicle_type_id":"4","last_reported":1767193919,"current_range_meters":9200,"station_id":"ce4bgl12rcd13ifvqbo0","pricing_plan_id":"cebpf4jnsgd1na2vs0mg"},{"bike_id":"9a2077a2-cebc-468c-82f9-fecda68a9ec3","system_id":"levelo_inurba_marseille","lat":43.2949,"lon":5.40896,"is_reserved":false,"is_disabled":false,"rental_uris":{"android":"levelo://app?vid=9a2077a2-cebc-468c-82f9-fecda68a9ec3","ios":"levelo://app?vid=9a2077a2-cebc-468c-82f9-fecda68a9ec3"},"vehicle_type_id":"4","last_reported":1767193919,"current_range_meters":9200,"station_id":"","pricing_plan_id":"cebpf4jnsgd1na2vs0mg"},{"bike_id":"50f3c080-bee6-4a7f-862a-5ec7a66eea72","system_id":"levelo_inurba_marseille","lat":43.24397,"lon":5.37077,"is_reserved":false,"is_disabled":false,"rental_uris":{"android":"levelo://app?vid=50f3c080-bee6-4a7f-862a-5ec7a66eea72","ios":"levelo://app?vid=50f3c080-bee6-4a7f-862a-5ec7a66eea72"},"vehicle_type_id":"4","last_reported":1767193919,"current_range_meters":9200,"station_id":"ce4bhhh2rcd13ifvqfk0","pricing_plan_id":"cebpf4jnsgd1na2vs0mg"},{"bike_id":"90e3cecc-65cd-44ff-a9c2-acfeeb7efdac","system_id":"levelo_inurba_marseille","lat":43.3061,"lon":5.3723,"is_reserved":false,"is_disabled":false,"rental_uris":{"android":"levelo://app?vid=90e3cecc-65cd-44ff-a9c2-acfeeb7efdac","ios":"levelo://app?vid=90e3cecc-65cd-44ff-a9c2-acfeeb7efdac"},"vehicle_type_id":"4","last_reported":1767193919,"current_range_meters":9600,"station_id":"ce4bgqh2rcd13ifvqc4g","pricing_plan_id":"cebpf4jnsgd1na2vs0mg"},{"bike_id":"9cb5ae99-5884-40a4-9c3b-7a9c989d5f03","system_id":"levelo_inurba_marseille","lat":43.28476,"lon":5.38401,"is_reserved":false,"is_disabled":false,"rental_uris":{"android":"levelo://app?vid=9cb5ae99-5884-40a4-9c3b-7a9c989d5f03","ios":"levelo://app?vid=9cb5ae99-5884-40a4-9c3b-7a9c989d5f03"},"vehicle_type_id":"4","last_reported":1767193919,"current_range_meters":9600,"station_id":"ce4bh512rcd13ifvqe3g","pricing_plan_id":"cebpf4jnsgd1na2vs0mg"},{"bike_id":"43b848fc-8856-4cdb-a1be-ee246b670193","system_id":"levelo_inurba_marseille","lat":43.26499,"lon":5.39536,"is_reserved":false,"is_disabled":false,"rental_uris":{"android":"levelo://app?vid=43b848fc-8856-4cdb-a1be-ee246b670193","ios":"levelo://app?vid=43b848fc-8856-4cdb-a1be-ee246b670193"},"vehicle_type_id":"4","last_reported":1767193919,"current_range_meters":9600,"station_id":"ce4bhi12rcd13ifvqfq0","pricing_plan_id":"cebpf4jnsgd1na2vs0mg"},{"bike_id":"2736b34b-98dd-4ca9-b701-f4278e5f6e64","system_id":"levelo_inurba_marseille","lat":43.3236,"lon":5.36763,"is_reserved":false,"is_disabled":false,"rental_uris":{"android":"levelo://app?vid=2736b34b-98dd-4ca9-b701-f4278e5f6e64","ios":"levelo://app?vid=2736b34b-98dd-4ca9-b701-f4278e5f6e64"},"vehicle_type_id":"4","last_reported":1767193919,"current_range_meters":9600,"station_id":"ce4bhsh2rcd13ifvqi2g","pricing_plan_id":"cebpf4jnsgd1na2vs0mg"},{"bike_id":"7cc08dd6-826c-4451-a490-86ca460ba99b","system_id":"levelo_inurba_marseille","lat":43.32106,"lon":5.36785,"is_reserved":false,"is_disabled":false,"rental_uris":{"android":"levelo://app?vid=7cc08dd6-826c-4451-a490-86ca460ba99b","ios":"levelo://app?vid=7cc08dd6-826c-4451-a490-86ca460ba99b"},"vehicle_type_id":"4","last_reported":1767193919,"current_range_meters":9600,"station_id":"ce4bhrh2rcd13ifvqhug","pricing_plan_id":"cebpf4jnsgd1na2vs0mg"},{"bike_id":"ae32f435-659f-4659-9ec4-0db95958dc7e","system_id":"levelo_inurba_marseille","lat":43.28925,"lon":5.38386,"is_reserved":false,"is_disabled":false,"rental_uris":{"android":"levelo://app?vid=ae32f435-659f-4659-9ec4-0db95958dc7e","ios":"levelo://app?vid=ae32f435-659f-4659-9ec4-0db95958dc7e"},"vehicle_type_id":"4","last_reported":1767193919,"current_range_meters":9600,"station_id":"ce4bh612rcd13ifvqe6g","pricing_plan_id":"cebpf4jnsgd1na2vs0mg"},{"bike_id":"3f8adfaf-c1ee-4b29-9b80-cc50ceaaaa01","system_id":"levelo_inurba_marseille","lat":43.29365,"lon":5.37841,"is_reserved":false,"is_disabled":false,"rental_uris":{"android":"levelo://app?vid=3f8adfaf-c1ee-4b29-9b80-cc50ceaaaa01","ios":"levelo://app?vid=3f8adfaf-c1ee-4b29-9b80-cc50ceaaaa01"},"vehicle_type_id":"4","last_reported":1767193919,"current_range_meters":9600,"station_id":"ce4bgjh2rcd13ifvqbf0","pricing_plan_id":"cebpf4jnsgd1na2vs0mg"},{"bike_id":"feded698-9958-42b1-901d-b1bfd701ea47","system_id":"levelo_inurba_marseille","lat":43.27993,"lon":5.40015,"is_reserved":false,"is_disabled":false,"rental_uris":{"android":"levelo://app?vid=feded698-9958-42b1-901d-b1bfd701ea47","ios":"levelo://app?vid=feded698-9958-42b1-901d-b1bfd701ea47"},"vehicle_type_id":"4","last_reported":1767193919,"current_range_meters":9600,"station_id":"ce4bho92rcd13ifvqh4g","pricing_plan_id":"cebpf4jnsgd1na2vs0mg"},{"bike_id":"d7d75a6b-71c6-49dd-bc38-2f0c688a554d","system_id":"levelo_inurba_marseille","lat":43.24543,"lon":5.39529,"is_reserved":false,"is_disabled":false,"rental_uris":{"android":"levelo://app?vid=d7d75a6b-71c6-49dd-bc38-2f0c688a554d","ios":"levelo://app?vid=d7d75a6b-71c6-49dd-bc38-2f0c688a554d"},"vehicle_type_id":"4","last_reported":1767193919,"current_range_meters":9600,"station_id":"ce4bhlp2rcd13ifvqgjg","pricing_plan_id":"cebpf4jnsgd1na2vs0mg"},{"bike_id":"5f6b2483-fb4d-42c1-ac9e-b3b4d04b81be","system_id":"levelo_inurba_marseille","lat":43.2576,"lon":5.40968,"is_reserved":false,"is_disabled":false,"rental_uris":{"android":"levelo://app?vid=5f6b2483-fb4d-42c1-ac9e-b3b4d04b81be","ios":"levelo://app?vid=5f6b2483-fb4d-42c1-ac9e-b3b4d04b81be"},"vehicle_type_id":"4","last_reported":1767193919,"current_range_meters":9600,"station_id":"","pricing_plan_id":"cebpf4jnsgd1na2vs0mg"},{"bike_id":"5265762e-9468-4f8e-963d-e1d647f4d72d","system_id":"levelo_inurba_marseille","lat":43.337444,"lon":5.374475,"is_reserved":false,"is_disabled":false,"rental_uris":{"android":"levelo://app?vid=5265762e-9468-4f8e-963d-e1d647f4d72d","ios":"levelo://app?vid=5265762e-9468-4f8e-963d-e1d647f4d72d"},"vehicle_type_id":"4","last_reported":1767193919,"current_range_meters":10000,"station_id":"","pricing_plan_id":"cebpf4jnsgd1na2vs0mg"},{"bike_id":"b665ea36-bb99-4c82-9dd0-86ffdf91d10c","system_id":"levelo_inurba_marseille","lat":43.28467,"lon":5.38415,"is_reserved":false,"is_disabled":false,"rental_uris":{"android":"levelo://app?vid=b665ea36-bb99-4c82-9dd0-86ffdf91d10c","ios":"levelo://app?vid=b665ea36-bb99-4c82-9dd0-86ffdf91d10c"},"vehicle_type_id":"4","last_reported":1767193919,"current_range_meters":10000,"station_id":"ce4bh512rcd13ifvqe3g","pricing_plan_id":"cebpf4jnsgd1na2vs0mg"},{"bike_id":"90dac6f2-4e58-4623-b929-4f8d06ec1c31","system_id":"levelo_inurba_marseille","lat":43.28502,"lon":5.42535,"is_reserved":false,"is_disabled":false,"rental_uris":{"android":"levelo://app?vid=90dac6f2-4e58-4623-b929-4f8d06ec1c31","ios":"levelo://app?vid=90dac6f2-4e58-4623-b929-4f8d06ec1c31"},"vehicle_type_id":"4","last_reported":1767193919,"current_range_meters":10000,"station_id":"","pricing_plan_id":"cebpf4jnsgd1na2vs0mg"},{"bike_id":"e93c83d5-bafc-41ab-b80f-422d8d8d6d2a","system_id":"levelo_inurba_marseille","lat":43.26848,"lon":5.40078,"is_reserved":false,"is_disabled":false,"rental_uris":{"android":"levelo://app?vid=e93c83d5-bafc-41ab-b80f-422d8d8d6d2a","ios":"levelo://app?vid=e93c83d5-bafc-41ab-b80f-422d8d8d6d2a"},"vehicle_type_id":"4","last_reported":1767193919,"current_range_meters":10000,"station_id":"","pricing_plan_id":"cebpf4jnsgd1na2vs0mg"},{"bike_id":"950c0338-ee03-4bb1-82b4-c4470bbb4acc","system_id":"levelo_inurba_marseille","lat":43.312289,"lon":5.368578,"is_reserved":false,"is_disabled":false,"rental_uris":{"android":"levelo://app?vid=950c0338-ee03-4bb1-82b4-c4470bbb4acc","ios":"levelo://app?vid=950c0338-ee03-4bb1-82b4-c4470bbb4acc"},"vehicle_type_id":"4","last_reported":1767193919,"current_range_meters":10000,"station_id":"ce4bgl92rcd13ifvqbq0","pricing_plan_id":"cebpf4jnsgd1na2vs0mg"},{"bike_id":"4bc57557-a1ff-4445-8883-a2ab5098f534","system_id":"levelo_inurba_marseille","lat":43.33602,"lon":5.35419,"is_reserved":false,"is_disabled":false,"rental_uris":{"android":"levelo://app?vid=4bc57557-a1ff-4445-8883-a2ab5098f534","ios":"levelo://app?vid=4bc57557-a1ff-4445-8883-a2ab5098f534"},"vehicle_type_id":"4","last_reported":1767193919,"current_range_meters":10000,"station_id":"","pricing_plan_id":"cebpf4jnsgd1na2vs0mg"},{"bike_id":"ef874fe6-450c-414c-8685-0a34fc24a885","system_id":"levelo_inurba_marseille","lat":43.28277,"lon":5.35066,"is_reserved":false,"is_disabled":false,"rental_uris":{"android":"levelo://app?vid=ef874fe6-450c-414c-8685-0a34fc24a885","ios":"levelo://app?vid=ef874fe6-450c-414c-8685-0a34fc24a885"},"vehicle_type_id":"4","last_reported":1767193919,"current_range_meters":10000,"station_id":"ce4bhbp2rcd13ifvqerg","pricing_plan_id":"cebpf4jnsgd1na2vs0mg"},{"bike_id":"6d34a40a-3c31-4e57-aba7-ad6f30894876","system_id":"levelo_inurba_marseille","lat":43.29899,"lon":5.37457,"is_reserved":false,"is_disabled":false,"rental_uris":{"android":"levelo://app?vid=6d34a40a-3c31-4e57-aba7-ad6f30894876","ios":"levelo://app?vid=6d34a40a-3c31-4e57-aba7-ad6f30894876"},"vehicle_type_id":"4","last_reported":1767193919,"current_range_meters":10000,"station_id":"ce4bgjh2rcd13ifvqbg0","pricing_plan_id":"cebpf4jnsgd1na2vs0mg"},{"bike_id":"96657df9-7d68-4cd8-9f06-a5e501866c49","system_id":"levelo_inurba_marseille","lat":43.29332,"lon":5.37588,"is_reserved":false,"is_disabled":false,"rental_uris":{"android":"levelo://app?vid=96657df9-7d68-4cd8-9f06-a5e501866c49","ios":"levelo://app?vid=96657df9-7d68-4cd8-9f06-a5e501866c49"},"vehicle_type_id":"4","last_reported":1767193919,"current_range_meters":10000,"station_id":"","pricing_plan_id":"cebpf4jnsgd1na2vs0mg"},{"bike_id":"650cf425-f87e-4c30-9156-354d5fef94cd","system_id":"levelo_inurba_marseille","lat":43.30131,"lon":5.36752,"is_reserved":false,"is_disabled":false,"rental_uris":{"android":"levelo://app?vid=650cf425-f87e-4c30-9156-354d5fef94cd","ios":"levelo://app?vid=650cf425-f87e-4c30-9156-354d5fef94cd"},"vehicle_type_id":"4","last_reported":1767193919,"current_range_meters":10000,"station_id":"","pricing_plan_id":"cebpf4jnsgd1na2vs0mg"},{"bike_id":"3596fd6d-97c1-42b8-a0bb-eb24f2cd8520","system_id":"levelo_inurba_marseille","lat":43.28413,"lon":5.34978,"is_reserved":false,"is_disabled":false,"rental_uris":{"android":"levelo://app?vid=3596fd6d-97c1-42b8-a0bb-eb24f2cd8520","ios":"levelo://app?vid=3596fd6d-97c1-42b8-a0bb-eb24f2cd8520"},"vehicle_type_id":"4","last_reported":1767193919,"current_range_meters":10000,"station_id":"ce4bhbh2rcd13ifvqepg","pricing_plan_id":"cebpf4jnsgd1na2vs0mg"},{"bike_id":"1bcfc354-7f57-4156-a83a-a29ec2a871a1","system_id":"levelo_inurba_marseille","lat":43.27001,"lon":5.38971,"is_reserved":false,"is_disabled":false,"rental_uris":{"android":"levelo://app?vid=1bcfc354-7f57-4156-a83a-a29ec2a871a1","ios":"levelo://app?vid=1bcfc354-7f57-4156-a83a-a29ec2a871a1"},"vehicle_type_id":"4","last_reported":1767193919,"current_range_meters":10000,"station_id":"ce4bhhh2rcd13ifvqfl0","pricing_plan_id":"cebpf4jnsgd1na2vs0mg"},{"bike_id":"4285e530-5ba1-4900-9d8a-cdee106fe67f","system_id":"levelo_inurba_marseille","lat":43.3057,"lon":5.3672,"is_reserved":false,"is_disabled":false,"rental_uris":{"android":"levelo://app?vid=4285e530-5ba1-4900-9d8a-cdee106fe67f","ios":"levelo://app?vid=4285e530-5ba1-4900-9d8a-cdee106fe67f"},"vehicle_type_id":"4","last_reported":1767193919,"current_range_meters":10000,"station_id":"ce4bgrp2rcd13ifvqc9g","pricing_plan_id":"cebpf4jnsgd1na2vs0mg"},{"bike_id":"3ff63f9e-c2d5-4401-b756-b1caae9f6ad6","system_id":"levelo_inurba_marseille","lat":43.30555,"lon":5.36545,"is_reserved":false,"is_disabled":false,"rental_uris":{"android":"levelo://app?vid=3ff63f9e-c2d5-4401-b756-b1caae9f6ad6","ios":"levelo://app?vid=3ff63f9e-c2d5-4401-b756-b1caae9f6ad6"},"vehicle_type_id":"4","last_reported":1767193919,"current_range_meters":10000,"station_id":"ce4bgs12rcd13ifvqcag","pricing_plan_id":"cebpf4jnsgd1na2vs0mg"},{"bike_id":"b595dcf9-9e54-40d7-8066-ad8a571306a2","system_id":"levelo_inurba_marseille","lat":43.23147,"lon":5.43718,"is_reserved":false,"is_disabled":false,"rental_uris":{"android":"levelo://app?vid=b595dcf9-9e54-40d7-8066-ad8a571306a2","ios":"levelo://app?vid=b595dcf9-9e54-40d7-8066-ad8a571306a2"},"vehicle_type_id":"4","last_reported":1767193919,"current_range_meters":10000,"station_id":"ce4bhmp2rcd13ifvqgog","pricing_plan_id":"cebpf4jnsgd1na2vs0mg"},{"bike_id":"b352e975-713a-417c-baf8-fc06f100bb3f","system_id":"levelo_inurba_marseille","lat":43.29623,"lon":5.37154,"is_reserved":false,"is_disabled":false,"rental_uris":{"android":"levelo://app?vid=b352e975-713a-417c-baf8-fc06f100bb3f","ios":"levelo://app?vid=b352e975-713a-417c-baf8-fc06f100bb3f"},"vehicle_type_id":"4","last_reported":1767193919,"current_range_meters":10800,"station_id":"ce4bgnh2rcd13ifvqc0g","pricing_plan_id":"cebpf4jnsgd1na2vs0mg"},{"bike_id":"e2060f88-6863-4341-9f3f-f8f61afdba70","system_id":"levelo_inurba_marseille","lat":43.2417,"lon":5.39726,"is_reserved":false,"is_disabled":false,"rental_uris":{"android":"levelo://app?vid=e2060f88-6863-4341-9f3f-f8f61afdba70","ios":"levelo://app?vid=e2060f88-6863-4341-9f3f-f8f61afdba70"},"vehicle_type_id":"4","last_reported":1767193919,"current_range_meters":10800,"station_id":"ce4bhn12rcd13ifvqgpg","pricing_plan_id":"cebpf4jnsgd1na2vs0mg"},{"bike_id":"e6dbe591-2fd4-4b2d-aa25-179a088493ea","system_id":"levelo_inurba_marseille","lat":43.225353,"lon":5.348308,"is_reserved":false,"is_disabled":false,"rental_uris":{"android":"levelo://app?vid=e6dbe591-2fd4-4b2d-aa25-179a088493ea","ios":"levelo://app?vid=e6dbe591-2fd4-4b2d-aa25-179a088493ea"},"vehicle_type_id":"4","last_reported":1767193919,"current_range_meters":10800,"station_id":"","pricing_plan_id":"cebpf4jnsgd1na2vs0mg"},{"bike_id":"ef95f731-6ab9-4b73-8245-87a1893b09b5","system_id":"levelo_inurba_marseille","lat":43.29974,"lon":5.37177,"is_reserved":false,"is_disabled":false,"rental_uris":{"android":"levelo://app?vid=ef95f731-6ab9-4b73-8245-87a1893b09b5","ios":"levelo://app?vid=ef95f731-6ab9-4b73-8245-87a1893b09b5"},"vehicle_type_id":"4","last_reported":1767193919,"current_range_meters":10800,"station_id":"ce4bgr92rcd13ifvqc7g","pricing_plan_id":"cebpf4jnsgd1na2vs0mg"},{"bike_id":"b0a4eeb0-3f2f-42a0-a437-2fcaa3d011bf","system_id":"levelo_inurba_marseille","lat":43.29007,"lon":5.35617,"is_reserved":false,"is_disabled":false,"rental_uris":{"android":"levelo://app?vid=b0a4eeb0-3f2f-42a0-a437-2fcaa3d011bf","ios":"levelo://app?vid=b0a4eeb0-3f2f-42a0-a437-2fcaa3d011bf"},"vehicle_type_id":"4","last_reported":1767193919,"current_range_meters":10800,"station_id":"ce4bhb92rcd13ifvqen0","pricing_plan_id":"cebpf4jnsgd1na2vs0mg"},{"bike_id":"6bc1b359-3312-46fe-b4be-74e585c45cbe","system_id":"levelo_inurba_marseille","lat":43.28589,"lon":5.35005,"is_reserved":false,"is_disabled":false,"rental_uris":{"android":"levelo://app?vid=6bc1b359-3312-46fe-b4be-74e585c45cbe","ios":"levelo://app?vid=6bc1b359-3312-46fe-b4be-74e585c45cbe"},"vehicle_type_id":"4","last_reported":1767193919,"current_range_meters":10800,"station_id":"","pricing_plan_id":"cebpf4jnsgd1na2vs0mg"},{"bike_id":"4372a42a-b334-4e8f-9141-9b6d15dd3e03","system_id":"levelo_inurba_marseille","lat":43.28475,"lon":5.4839,"is_reserved":false,"is_disabled":false,"rental_uris":{"android":"levelo://app?vid=4372a42a-b334-4e8f-9141-9b6d15dd3e03","ios":"levelo://app?vid=4372a42a-b334-4e8f-9141-9b6d15dd3e03"},"vehicle_type_id":"4","last_reported":1767193919,"current_range_meters":10800,"station_id":"","pricing_plan_id":"cebpf4jnsgd1na2vs0mg"},{"bike_id":"452d6df5-d439-4b4c-9f49-9340b3849f34","system_id":"levelo_inurba_marseille","lat":43.291996,"lon":5.358059,"is_reserved":false,"is_disabled":false,"rental_uris":{"android":"levelo://app?vid=452d6df5-d439-4b4c-9f49-9340b3849f34","ios":"levelo://app?vid=452d6df5-d439-4b4c-9f49-9340b3849f34"},"vehicle_type_id":"4","last_reported":1767193919,"current_range_meters":10800,"station_id":"ce4bhb12rcd13ifvqel0","pricing_plan_id":"cebpf4jnsgd1na2vs0mg"},{"bike_id":"cf61d156-dac6-4f0e-b382-70446db78ff3","system_id":"levelo_inurba_marseille","lat":43.32362,"lon":5.36736,"is_reserved":false,"is_disabled":false,"rental_uris":{"android":"levelo://app?vid=cf61d156-dac6-4f0e-b382-70446db78ff3","ios":"levelo://app?vid=cf61d156-dac6-4f0e-b382-70446db78ff3"},"vehicle_type_id":"4","last_reported":1767193919,"current_range_meters":10800,"station_id":"ce4bhsh2rcd13ifvqi2g","pricing_plan_id":"cebpf4jnsgd1na2vs0mg"},{"bike_id":"d285cd77-c7b4-4ad4-ad28-ed6edfeaa990","system_id":"levelo_inurba_marseille","lat":43.29605,"lon":5.38086,"is_reserved":false,"is_disabled":true,"rental_uris":{"android":"levelo://app?vid=d285cd77-c7b4-4ad4-ad28-ed6edfeaa990","ios":"levelo://app?vid=d285cd77-c7b4-4ad4-ad28-ed6edfeaa990"},"vehicle_type_id":"4","last_reported":1767193919,"current_range_meters":10800,"station_id":"ce4bgl12rcd13ifvqbo0","pricing_plan_id":"cebpf4jnsgd1na2vs0mg"},{"bike_id":"4db036f1-4bff-4e01-a9d0-364a37724f0c","system_id":"levelo_inurba_marseille","lat":43.29847,"lon":5.36256,"is_reserved":false,"is_disabled":false,"rental_uris":{"android":"levelo://app?vid=4db036f1-4bff-4e01-a9d0-364a37724f0c","ios":"levelo://app?vid=4db036f1-4bff-4e01-a9d0-364a37724f0c"},"vehicle_type_id":"4","last_reported":1767193919,"current_range_meters":10800,"station_id":"ce4bgpp2rcd13ifvqc3g","pricing_plan_id":"cebpf4jnsgd1na2vs0mg"},{"bike_id":"d49fd2c9-dca5-4864-87e0-359520dd27b8","system_id":"levelo_inurba_marseille","lat":43.26134,"lon":5.39777,"is_reserved":false,"is_disabled":false,"rental_uris":{"android":"levelo://app?vid=d49fd2c9-dca5-4864-87e0-359520dd27b8","ios":"levelo://app?vid=d49fd2c9-dca5-4864-87e0-359520dd27b8"},"vehicle_type_id":"4","last_reported":1767193919,"current_range_meters":10800,"station_id":"","pricing_plan_id":"cebpf4jnsgd1na2vs0mg"},{"bike_id":"18d7f57b-65df-4d66-9d59-d41481437e30","system_id":"levelo_inurba_marseille","lat":43.269004,"lon":5.403369,"is_reserved":false,"is_disabled":false,"rental_uris":{"android":"levelo://app?vid=18d7f57b-65df-4d66-9d59-d41481437e30","ios":"levelo://app?vid=18d7f57b-65df-4d66-9d59-d41481437e30"},"vehicle_type_id":"4","last_reported":1767193919,"current_range_meters":10800,"station_id":"ce4bhk92rcd13ifvqgc0","pricing_plan_id":"cebpf4jnsgd1na2vs0mg"},{"bike_id":"21649bf5-a7e4-4e95-914e-5b8b5b1e3c72","system_id":"levelo_inurba_marseille","lat":43.27078,"lon":5.42267,"is_reserved":false,"is_disabled":false,"rental_uris":{"android":"levelo://app?vid=21649bf5-a7e4-4e95-914e-5b8b5b1e3c72","ios":"levelo://app?vid=21649bf5-a7e4-4e95-914e-5b8b5b1e3c72"},"vehicle_type_id":"4","last_reported":1767193919,"current_range_meters":11200,"station_id":"ce4bhk92rcd13ifvqgb0","pricing_plan_id":"cebpf4jnsgd1na2vs0mg"},{"bike_id":"090deb3c-b463-4496-9a6a-019b5e498763","system_id":"levelo_inurba_marseille","lat":43.32363,"lon":5.36719,"is_reserved":false,"is_disabled":false,"rental_uris":{"android":"levelo://app?vid=090deb3c-b463-4496-9a6a-019b5e498763","ios":"levelo://app?vid=090deb3c-b463-4496-9a6a-019b5e498763"},"vehicle_type_id":"4","last_reported":1767193919,"current_range_meters":11200,"station_id":"ce4bhsh2rcd13ifvqi2g","pricing_plan_id":"cebpf4jnsgd1na2vs0mg"},{"bike_id":"d0621c6b-67fd-484d-a798-cf1806150e83","system_id":"levelo_inurba_marseille","lat":43.29091,"lon":5.38129,"is_reserved":false,"is_disabled":false,"rental_uris":{"android":"levelo://app?vid=d0621c6b-67fd-484d-a798-cf1806150e83","ios":"levelo://app?vid=d0621c6b-67fd-484d-a798-cf1806150e83"},"vehicle_type_id":"4","last_reported":1767193919,"current_range_meters":11200,"station_id":"ce4bh512rcd13ifvqe2g","pricing_plan_id":"cebpf4jnsgd1na2vs0mg"},{"bike_id":"3c554b37-3b38-4c8a-be17-815a87aa6e42","system_id":"levelo_inurba_marseille","lat":43.29799,"lon":5.38071,"is_reserved":false,"is_disabled":false,"rental_uris":{"android":"levelo://app?vid=3c554b37-3b38-4c8a-be17-815a87aa6e42","ios":"levelo://app?vid=3c554b37-3b38-4c8a-be17-815a87aa6e42"},"vehicle_type_id":"4","last_reported":1767193919,"current_range_meters":11200,"station_id":"ce4bgip2rcd13ifvqbb0","pricing_plan_id":"cebpf4jnsgd1na2vs0mg"},{"bike_id":"a827215d-ae9a-42fa-b1c6-77e2c3b6fa6a","system_id":"levelo_inurba_marseille","lat":43.28436,"lon":5.39201,"is_reserved":false,"is_disabled":false,"rental_uris":{"android":"levelo://app?vid=a827215d-ae9a-42fa-b1c6-77e2c3b6fa6a","ios":"levelo://app?vid=a827215d-ae9a-42fa-b1c6-77e2c3b6fa6a"},"vehicle_type_id":"4","last_reported":1767193919,"current_range_meters":11200,"station_id":"ce4bhoh2rcd13ifvqh5g","pricing_plan_id":"cebpf4jnsgd1na2vs0mg"},{"bike_id":"8fa53ddb-80a9-4b81-a17d-6b07554edef4","system_id":"levelo_inurba_marseille","lat":43.28474,"lon":5.48396,"is_reserved":false,"is_disabled":false,"rental_uris":{"android":"levelo://app?vid=8fa53ddb-80a9-4b81-a17d-6b07554edef4","ios":"levelo://app?vid=8fa53ddb-80a9-4b81-a17d-6b07554edef4"},"vehicle_type_id":"4","last_reported":1767193919,"current_range_meters":11200,"station_id":"st_d3svhcjqgbts73a3dn0g","pricing_plan_id":"cebpf4jnsgd1na2vs0mg"},{"bike_id":"60bf1119-a005-4d8e-b0be-d8358b69e592","system_id":"levelo_inurba_marseille","lat":43.28391,"lon":5.34967,"is_reserved":false,"is_disabled":false,"rental_uris":{"android":"levelo://app?vid=60bf1119-a005-4d8e-b0be-d8358b69e592","ios":"levelo://app?vid=60bf1119-a005-4d8e-b0be-d8358b69e592"},"vehicle_type_id":"4","last_reported":1767193919,"current_range_meters":11200,"station_id":"ce4bhbh2rcd13ifvqepg","pricing_plan_id":"cebpf4jnsgd1na2vs0mg"},{"bike_id":"13685f43-1754-483c-bb4a-6ca7a26a0572","system_id":"levelo_inurba_marseille","lat":43.27061,"lon":5.38308,"is_reserved":false,"is_disabled":false,"rental_uris":{"android":"levelo://app?vid=13685f43-1754-483c-bb4a-6ca7a26a0572","ios":"levelo://app?vid=13685f43-1754-483c-bb4a-6ca7a26a0572"},"vehicle_type_id":"4","last_reported":1767193919,"current_range_meters":11200,"station_id":"st_d3n2fo6cfp8s73cte1j0","pricing_plan_id":"cebpf4jnsgd1na2vs0mg"},{"bike_id":"c78b7752-9cb7-4b06-a8ef-1f65d9ce20cf","system_id":"levelo_inurba_marseille","lat":43.31648,"lon":5.38808,"is_reserved":false,"is_disabled":false,"rental_uris":{"android":"levelo://app?vid=c78b7752-9cb7-4b06-a8ef-1f65d9ce20cf","ios":"levelo://app?vid=c78b7752-9cb7-4b06-a8ef-1f65d9ce20cf"},"vehicle_type_id":"4","last_reported":1767193919,"current_range_meters":11200,"station_id":"","pricing_plan_id":"cebpf4jnsgd1na2vs0mg"},{"bike_id":"c3bd4d68-527b-43ec-aea2-7867c2a7e2a3","system_id":"levelo_inurba_marseille","lat":43.27567,"lon":5.38421,"is_reserved":false,"is_disabled":false,"rental_uris":{"android":"levelo://app?vid=c3bd4d68-527b-43ec-aea2-7867c2a7e2a3","ios":"levelo://app?vid=c3bd4d68-527b-43ec-aea2-7867c2a7e2a3"},"vehicle_type_id":"4","last_reported":1767193919,"current_range_meters":11200,"station_id":"ce4bhh92rcd13ifvqfi0","pricing_plan_id":"cebpf4jnsgd1na2vs0mg"},{"bike_id":"0947e67b-873d-4a3f-9b56-d2e288d8219b","system_id":"levelo_inurba_marseille","lat":43.31212,"lon":5.36842,"is_reserved":false,"is_disabled":false,"rental_uris":{"android":"levelo://app?vid=0947e67b-873d-4a3f-9b56-d2e288d8219b","ios":"levelo://app?vid=0947e67b-873d-4a3f-9b56-d2e288d8219b"},"vehicle_type_id":"4","last_reported":1767193919,"current_range_meters":11200,"station_id":"ce4bgl92rcd13ifvqbq0","pricing_plan_id":"cebpf4jnsgd1na2vs0mg"},{"bike_id":"7aa8deaf-4e60-441f-b4fa-11775b88c73b","system_id":"levelo_inurba_marseille","lat":43.29576,"lon":5.403,"is_reserved":false,"is_disabled":true,"rental_uris":{"android":"levelo://app?vid=7aa8deaf-4e60-441f-b4fa-11775b88c73b","ios":"levelo://app?vid=7aa8deaf-4e60-441f-b4fa-11775b88c73b"},"vehicle_type_id":"4","last_reported":1767193919,"current_range_meters":11200,"station_id":"","pricing_plan_id":"cebpf4jnsgd1na2vs0mg"},{"bike_id":"17ed143c-c6a8-4d0a-bc59-6cc80ba2c7cb","system_id":"levelo_inurba_marseille","lat":43.3212,"lon":5.36776,"is_reserved":false,"is_disabled":false,"rental_uris":{"android":"levelo://app?vid=17ed143c-c6a8-4d0a-bc59-6cc80ba2c7cb","ios":"levelo://app?vid=17ed143c-c6a8-4d0a-bc59-6cc80ba2c7cb"},"vehicle_type_id":"4","last_reported":1767193919,"current_range_meters":11200,"station_id":"ce4bhrh2rcd13ifvqhug","pricing_plan_id":"cebpf4jnsgd1na2vs0mg"},{"bike_id":"1e979309-d823-4aaf-b851-f1be8461cefe","system_id":"levelo_inurba_marseille","lat":43.284813,"lon":5.48397,"is_reserved":false,"is_disabled":false,"rental_uris":{"android":"levelo://app?vid=1e979309-d823-4aaf-b851-f1be8461cefe","ios":"levelo://app?vid=1e979309-d823-4aaf-b851-f1be8461cefe"},"vehicle_type_id":"4","last_reported":1767193919,"current_range_meters":11200,"station_id":"st_d3svhcjqgbts73a3dn0g","pricing_plan_id":"cebpf4jnsgd1na2vs0mg"},{"bike_id":"f297e1d0-d6d1-470d-832a-7cfd1d704b5f","system_id":"levelo_inurba_marseille","lat":43.26941,"lon":5.39302,"is_reserved":false,"is_disabled":false,"rental_uris":{"android":"levelo://app?vid=f297e1d0-d6d1-470d-832a-7cfd1d704b5f","ios":"levelo://app?vid=f297e1d0-d6d1-470d-832a-7cfd1d704b5f"},"vehicle_type_id":"4","last_reported":1767193919,"current_range_meters":11200,"station_id":"","pricing_plan_id":"cebpf4jnsgd1na2vs0mg"},{"bike_id":"64261d8c-6043-4f56-95bc-d20642b963c0","system_id":"levelo_inurba_marseille","lat":43.33338,"lon":5.41103,"is_reserved":false,"is_disabled":false,"rental_uris":{"android":"levelo://app?vid=64261d8c-6043-4f56-95bc-d20642b963c0","ios":"levelo://app?vid=64261d8c-6043-4f56-95bc-d20642b963c0"},"vehicle_type_id":"4","last_reported":1767193919,"current_range_meters":11200,"station_id":"","pricing_plan_id":"cebpf4jnsgd1na2vs0mg"},{"bike_id":"9afdc3ae-3e41-4546-9568-de7a2ba28e8b","system_id":"levelo_inurba_marseille","lat":43.28584,"lon":5.39498,"is_reserved":false,"is_disabled":false,"rental_uris":{"android":"levelo://app?vid=9afdc3ae-3e41-4546-9568-de7a2ba28e8b","ios":"levelo://app?vid=9afdc3ae-3e41-4546-9568-de7a2ba28e8b"},"vehicle_type_id":"4","last_reported":1767193919,"current_range_meters":11200,"station_id":"ce4bh292rcd13ifvqdg0","pricing_plan_id":"cebpf4jnsgd1na2vs0mg"},{"bike_id":"032a055e-9a90-4e55-b94b-ba42efad85d0","system_id":"levelo_inurba_marseille","lat":43.31705,"lon":5.37736,"is_reserved":false,"is_disabled":false,"rental_uris":{"android":"levelo://app?vid=032a055e-9a90-4e55-b94b-ba42efad85d0","ios":"levelo://app?vid=032a055e-9a90-4e55-b94b-ba42efad85d0"},"vehicle_type_id":"4","last_reported":1767193919,"current_range_meters":11200,"station_id":"ce4bgth2rcd13ifvqch0","pricing_plan_id":"cebpf4jnsgd1na2vs0mg"},{"bike_id":"4eb984c0-cff5-47bc-8a26-322fcbc1459a","system_id":"levelo_inurba_marseille","lat":43.28415,"lon":5.34982,"is_reserved":false,"is_disabled":false,"rental_uris":{"android":"levelo://app?vid=4eb984c0-cff5-47bc-8a26-322fcbc1459a","ios":"levelo://app?vid=4eb984c0-cff5-47bc-8a26-322fcbc1459a"},"vehicle_type_id":"4","last_reported":1767193919,"current_range_meters":11200,"station_id":"ce4bhbh2rcd13ifvqepg","pricing_plan_id":"cebpf4jnsgd1na2vs0mg"},{"bike_id":"cb433141-825a-49cd-bbee-623c4e5c0fcd","system_id":"levelo_inurba_marseille","lat":43.29757,"lon":5.42786,"is_reserved":false,"is_disabled":false,"rental_uris":{"android":"levelo://app?vid=cb433141-825a-49cd-bbee-623c4e5c0fcd","ios":"levelo://app?vid=cb433141-825a-49cd-bbee-623c4e5c0fcd"},"vehicle_type_id":"4","last_reported":1767193919,"current_range_meters":11200,"station_id":"st_d3md5207bmas73dh9klg","pricing_plan_id":"cebpf4jnsgd1na2vs0mg"},{"bike_id":"39c3fce9-4693-477b-9fe8-8ad320e518a8","system_id":"levelo_inurba_marseille","lat":43.29593,"lon":5.36731,"is_reserved":false,"is_disabled":false,"rental_uris":{"android":"levelo://app?vid=39c3fce9-4693-477b-9fe8-8ad320e518a8","ios":"levelo://app?vid=39c3fce9-4693-477b-9fe8-8ad320e518a8"},"vehicle_type_id":"4","last_reported":1767193919,"current_range_meters":11600,"station_id":"ce4bgph2rcd13ifvqc2g","pricing_plan_id":"cebpf4jnsgd1na2vs0mg"},{"bike_id":"891e9472-0c7d-482d-af3f-469c435b3746","system_id":"levelo_inurba_marseille","lat":43.29006,"lon":5.35608,"is_reserved":false,"is_disabled":false,"rental_uris":{"android":"levelo://app?vid=891e9472-0c7d-482d-af3f-469c435b3746","ios":"levelo://app?vid=891e9472-0c7d-482d-af3f-469c435b3746"},"vehicle_type_id":"4","last_reported":1767193919,"current_range_meters":11600,"station_id":"ce4bhb92rcd13ifvqen0","pricing_plan_id":"cebpf4jnsgd1na2vs0mg"},{"bike_id":"a02fb672-5bdf-46c8-9fc1-e8fcbc8dc4d2","system_id":"levelo_inurba_marseille","lat":43.303199,"lon":5.386564,"is_reserved":false,"is_disabled":false,"rental_uris":{"android":"levelo://app?vid=a02fb672-5bdf-46c8-9fc1-e8fcbc8dc4d2","ios":"levelo://app?vid=a02fb672-5bdf-46c8-9fc1-e8fcbc8dc4d2"},"vehicle_type_id":"4","last_reported":1767193919,"current_range_meters":11600,"station_id":"","pricing_plan_id":"cebpf4jnsgd1na2vs0mg"},{"bike_id":"602f0694-d002-4ef3-ad6b-d90ada23311f","system_id":"levelo_inurba_marseille","lat":43.297787,"lon":5.371014,"is_reserved":false,"is_disabled":false,"rental_uris":{"android":"levelo://app?vid=602f0694-d002-4ef3-ad6b-d90ada23311f","ios":"levelo://app?vid=602f0694-d002-4ef3-ad6b-d90ada23311f"},"vehicle_type_id":"4","last_reported":1767193919,"current_range_meters":11600,"station_id":"ce4bgop2rcd13ifvqc1g","pricing_plan_id":"cebpf4jnsgd1na2vs0mg"},{"bike_id":"94e16f28-7dcf-4273-940d-294336091110","system_id":"levelo_inurba_marseille","lat":43.29547,"lon":5.38141,"is_reserved":false,"is_disabled":false,"rental_uris":{"android":"levelo://app?vid=94e16f28-7dcf-4273-940d-294336091110","ios":"levelo://app?vid=94e16f28-7dcf-4273-940d-294336091110"},"vehicle_type_id":"4","last_reported":1767193919,"current_range_meters":11600,"station_id":"","pricing_plan_id":"cebpf4jnsgd1na2vs0mg"},{"bike_id":"36d67e4b-128f-462b-bf9e-2bbc09bb7b40","system_id":"levelo_inurba_marseille","lat":43.31028,"lon":5.37931,"is_reserved":false,"is_disabled":false,"rental_uris":{"android":"levelo://app?vid=36d67e4b-128f-462b-bf9e-2bbc09bb7b40","ios":"levelo://app?vid=36d67e4b-128f-462b-bf9e-2bbc09bb7b40"},"vehicle_type_id":"4","last_reported":1767193919,"current_range_meters":11600,"station_id":"","pricing_plan_id":"cebpf4jnsgd1na2vs0mg"},{"bike_id":"c4c638bc-d761-4620-bdae-4a1200de781d","system_id":"levelo_inurba_marseille","lat":43.30432,"lon":5.3889,"is_reserved":false,"is_disabled":false,"rental_uris":{"android":"levelo://app?vid=c4c638bc-d761-4620-bdae-4a1200de781d","ios":"levelo://app?vid=c4c638bc-d761-4620-bdae-4a1200de781d"},"vehicle_type_id":"4","last_reported":1767193919,"current_range_meters":11600,"station_id":"ce4bgk12rcd13ifvqbi0","pricing_plan_id":"cebpf4jnsgd1na2vs0mg"},{"bike_id":"b0293ba1-9759-452c-bd6f-a00a4fe053e4","system_id":"levelo_inurba_marseille","lat":43.2556,"lon":5.38237,"is_reserved":false,"is_disabled":false,"rental_uris":{"android":"levelo://app?vid=b0293ba1-9759-452c-bd6f-a00a4fe053e4","ios":"levelo://app?vid=b0293ba1-9759-452c-bd6f-a00a4fe053e4"},"vehicle_type_id":"4","last_reported":1767193919,"current_range_meters":11600,"station_id":"ce4bhih2rcd13ifvqfs0","pricing_plan_id":"cebpf4jnsgd1na2vs0mg"},{"bike_id":"db6d28d9-a96d-4c87-9186-bc8fab9306f5","system_id":"levelo_inurba_marseille","lat":43.28121,"lon":5.40664,"is_reserved":false,"is_disabled":false,"rental_uris":{"android":"levelo://app?vid=db6d28d9-a96d-4c87-9186-bc8fab9306f5","ios":"levelo://app?vid=db6d28d9-a96d-4c87-9186-bc8fab9306f5"},"vehicle_type_id":"4","last_reported":1767193919,"current_range_meters":11600,"station_id":"","pricing_plan_id":"cebpf4jnsgd1na2vs0mg"},{"bike_id":"6895ecdd-1253-423c-93ba-1d2572fa6898","system_id":"levelo_inurba_marseille","lat":43.27059,"lon":5.38309,"is_reserved":false,"is_disabled":false,"rental_uris":{"android":"levelo://app?vid=6895ecdd-1253-423c-93ba-1d2572fa6898","ios":"levelo://app?vid=6895ecdd-1253-423c-93ba-1d2572fa6898"},"vehicle_type_id":"4","last_reported":1767193919,"current_range_meters":12000,"station_id":"st_d3n2fo6cfp8s73cte1j0","pricing_plan_id":"cebpf4jnsgd1na2vs0mg"},{"bike_id":"01b14498-1ced-41d0-ab22-4340eb620b12","system_id":"levelo_inurba_marseille","lat":43.21753,"lon":5.34603,"is_reserved":false,"is_disabled":false,"rental_uris":{"android":"levelo://app?vid=01b14498-1ced-41d0-ab22-4340eb620b12","ios":"levelo://app?vid=01b14498-1ced-41d0-ab22-4340eb620b12"},"vehicle_type_id":"4","last_reported":1767193919,"current_range_meters":12000,"station_id":"st_cvj6r9ubvosntc0bgbag","pricing_plan_id":"cebpf4jnsgd1na2vs0mg"},{"bike_id":"1ebd2a0c-42a1-4a60-8730-e1ef90962935","system_id":"levelo_inurba_marseille","lat":43.32356,"lon":5.36758,"is_reserved":false,"is_disabled":false,"rental_uris":{"android":"levelo://app?vid=1ebd2a0c-42a1-4a60-8730-e1ef90962935","ios":"levelo://app?vid=1ebd2a0c-42a1-4a60-8730-e1ef90962935"},"vehicle_type_id":"4","last_reported":1767193919,"current_range_meters":12000,"station_id":"ce4bhsh2rcd13ifvqi2g","pricing_plan_id":"cebpf4jnsgd1na2vs0mg"},{"bike_id":"4e4be9e7-7142-4461-ad04-34a9693b261f","system_id":"levelo_inurba_marseille","lat":43.27062,"lon":5.4225,"is_reserved":false,"is_disabled":true,"rental_uris":{"android":"levelo://app?vid=4e4be9e7-7142-4461-ad04-34a9693b261f","ios":"levelo://app?vid=4e4be9e7-7142-4461-ad04-34a9693b261f"},"vehicle_type_id":"4","last_reported":1767193919,"current_range_meters":12000,"station_id":"ce4bhk92rcd13ifvqgb0","pricing_plan_id":"cebpf4jnsgd1na2vs0mg"},{"bike_id":"79b5f154-7cc7-44e6-a387-d261a3ea65b3","system_id":"levelo_inurba_marseille","lat":43.29843,"lon":5.36239,"is_reserved":false,"is_disabled":false,"rental_uris":{"android":"levelo://app?vid=79b5f154-7cc7-44e6-a387-d261a3ea65b3","ios":"levelo://app?vid=79b5f154-7cc7-44e6-a387-d261a3ea65b3"},"vehicle_type_id":"4","last_reported":1767193919,"current_range_meters":12000,"station_id":"ce4bgpp2rcd13ifvqc3g","pricing_plan_id":"cebpf4jnsgd1na2vs0mg"},{"bike_id":"e422d1e6-989b-48c2-be56-4107da9ba332","system_id":"levelo_inurba_marseille","lat":43.32097,"lon":5.36762,"is_reserved":false,"is_disabled":false,"rental_uris":{"android":"levelo://app?vid=e422d1e6-989b-48c2-be56-4107da9ba332","ios":"levelo://app?vid=e422d1e6-989b-48c2-be56-4107da9ba332"},"vehicle_type_id":"4","last_reported":1767193919,"current_range_meters":12000,"station_id":"ce4bhrh2rcd13ifvqhug","pricing_plan_id":"cebpf4jnsgd1na2vs0mg"},{"bike_id":"b5f80a1c-7345-44ae-9c2d-843287ace1f8","system_id":"levelo_inurba_marseille","lat":43.27434,"lon":5.42426,"is_reserved":false,"is_disabled":false,"rental_uris":{"android":"levelo://app?vid=b5f80a1c-7345-44ae-9c2d-843287ace1f8","ios":"levelo://app?vid=b5f80a1c-7345-44ae-9c2d-843287ace1f8"},"vehicle_type_id":"4","last_reported":1767193919,"current_range_meters":12000,"station_id":"","pricing_plan_id":"cebpf4jnsgd1na2vs0mg"},{"bike_id":"0788e991-1623-4154-b614-e1261a941949","system_id":"levelo_inurba_marseille","lat":43.312851,"lon":5.374081,"is_reserved":false,"is_disabled":false,"rental_uris":{"android":"levelo://app?vid=0788e991-1623-4154-b614-e1261a941949","ios":"levelo://app?vid=0788e991-1623-4154-b614-e1261a941949"},"vehicle_type_id":"4","last_reported":1767193919,"current_range_meters":12000,"station_id":"","pricing_plan_id":"cebpf4jnsgd1na2vs0mg"},{"bike_id":"9e5dafc7-f2da-4d0b-b668-e32cc043ceb4","system_id":"levelo_inurba_marseille","lat":43.28047,"lon":5.40073,"is_reserved":false,"is_disabled":false,"rental_uris":{"android":"levelo://app?vid=9e5dafc7-f2da-4d0b-b668-e32cc043ceb4","ios":"levelo://app?vid=9e5dafc7-f2da-4d0b-b668-e32cc043ceb4"},"vehicle_type_id":"4","last_reported":1767193919,"current_range_meters":12000,"station_id":"","pricing_plan_id":"cebpf4jnsgd1na2vs0mg"},{"bike_id":"7ec5cdbf-84a4-4e8c-9418-0f062e2443a8","system_id":"levelo_inurba_marseille","lat":43.29792,"lon":5.38084,"is_reserved":false,"is_disabled":false,"rental_uris":{"android":"levelo://app?vid=7ec5cdbf-84a4-4e8c-9418-0f062e2443a8","ios":"levelo://app?vid=7ec5cdbf-84a4-4e8c-9418-0f062e2443a8"},"vehicle_type_id":"4","last_reported":1767193919,"current_range_meters":12000,"station_id":"ce4bgip2rcd13ifvqbb0","pricing_plan_id":"cebpf4jnsgd1na2vs0mg"},{"bike_id":"ae8158ae-5098-479c-a0e1-90a3218c356d","system_id":"levelo_inurba_marseille","lat":43.28611,"lon":5.35101,"is_reserved":false,"is_disabled":false,"rental_uris":{"android":"levelo://app?vid=ae8158ae-5098-479c-a0e1-90a3218c356d","ios":"levelo://app?vid=ae8158ae-5098-479c-a0e1-90a3218c356d"},"vehicle_type_id":"4","last_reported":1767193919,"current_range_meters":12000,"station_id":"ce4bhch2rcd13ifvqeug","pricing_plan_id":"cebpf4jnsgd1na2vs0mg"},{"bike_id":"1a670a54-1840-4940-b62b-05b0e394ae95","system_id":"levelo_inurba_marseille","lat":43.28424,"lon":5.34988,"is_reserved":false,"is_disabled":false,"rental_uris":{"android":"levelo://app?vid=1a670a54-1840-4940-b62b-05b0e394ae95","ios":"levelo://app?vid=1a670a54-1840-4940-b62b-05b0e394ae95"},"vehicle_type_id":"4","last_reported":1767193919,"current_range_meters":12000,"station_id":"ce4bhbh2rcd13ifvqepg","pricing_plan_id":"cebpf4jnsgd1na2vs0mg"},{"bike_id":"f489c472-ee6d-42dd-8be8-3a531cfd3f02","system_id":"levelo_inurba_marseille","lat":43.28682,"lon":5.4552,"is_reserved":false,"is_disabled":false,"rental_uris":{"android":"levelo://app?vid=f489c472-ee6d-42dd-8be8-3a531cfd3f02","ios":"levelo://app?vid=f489c472-ee6d-42dd-8be8-3a531cfd3f02"},"vehicle_type_id":"4","last_reported":1767193919,"current_range_meters":12000,"station_id":"","pricing_plan_id":"cebpf4jnsgd1na2vs0mg"},{"bike_id":"4c71d3e3-6915-41f5-b00a-067dc2ee411b","system_id":"levelo_inurba_marseille","lat":43.29029,"lon":5.38643,"is_reserved":false,"is_disabled":false,"rental_uris":{"android":"levelo://app?vid=4c71d3e3-6915-41f5-b00a-067dc2ee411b","ios":"levelo://app?vid=4c71d3e3-6915-41f5-b00a-067dc2ee411b"},"vehicle_type_id":"4","last_reported":1767193919,"current_range_meters":12000,"station_id":"ce4bh4p2rcd13ifvqe0g","pricing_plan_id":"cebpf4jnsgd1na2vs0mg"},{"bike_id":"9b1331e5-2f96-4ea9-9c62-906ccff5946b","system_id":"levelo_inurba_marseille","lat":43.28463,"lon":5.35887,"is_reserved":false,"is_disabled":false,"rental_uris":{"android":"levelo://app?vid=9b1331e5-2f96-4ea9-9c62-906ccff5946b","ios":"levelo://app?vid=9b1331e5-2f96-4ea9-9c62-906ccff5946b"},"vehicle_type_id":"4","last_reported":1767193919,"current_range_meters":12000,"station_id":"ce4bhah2rcd13ifvqei0","pricing_plan_id":"cebpf4jnsgd1na2vs0mg"},{"bike_id":"05abd6cc-e89a-4eec-afef-f147aa5f395f","system_id":"levelo_inurba_marseille","lat":43.28617,"lon":5.35098,"is_reserved":false,"is_disabled":false,"rental_uris":{"android":"levelo://app?vid=05abd6cc-e89a-4eec-afef-f147aa5f395f","ios":"levelo://app?vid=05abd6cc-e89a-4eec-afef-f147aa5f395f"},"vehicle_type_id":"4","last_reported":1767193919,"current_range_meters":12400,"station_id":"ce4bhch2rcd13ifvqeug","pricing_plan_id":"cebpf4jnsgd1na2vs0mg"},{"bike_id":"b42867a7-20ab-45bb-b25b-6428a15ddf1c","system_id":"levelo_inurba_marseille","lat":43.26517,"lon":5.37956,"is_reserved":false,"is_disabled":false,"rental_uris":{"android":"levelo://app?vid=b42867a7-20ab-45bb-b25b-6428a15ddf1c","ios":"levelo://app?vid=b42867a7-20ab-45bb-b25b-6428a15ddf1c"},"vehicle_type_id":"4","last_reported":1767193919,"current_range_meters":12400,"station_id":"","pricing_plan_id":"cebpf4jnsgd1na2vs0mg"},{"bike_id":"4b33b5cb-7bec-4712-9fcc-36239248ffed","system_id":"levelo_inurba_marseille","lat":43.271253,"lon":5.392436,"is_reserved":false,"is_disabled":false,"rental_uris":{"android":"levelo://app?vid=4b33b5cb-7bec-4712-9fcc-36239248ffed","ios":"levelo://app?vid=4b33b5cb-7bec-4712-9fcc-36239248ffed"},"vehicle_type_id":"4","last_reported":1767193919,"current_range_meters":12400,"station_id":"","pricing_plan_id":"cebpf4jnsgd1na2vs0mg"},{"bike_id":"9b31c737-9919-4753-902d-88d0177986b8","system_id":"levelo_inurba_marseille","lat":43.28861,"lon":5.42516,"is_reserved":false,"is_disabled":false,"rental_uris":{"android":"levelo://app?vid=9b31c737-9919-4753-902d-88d0177986b8","ios":"levelo://app?vid=9b31c737-9919-4753-902d-88d0177986b8"},"vehicle_type_id":"4","last_reported":1767193919,"current_range_meters":12400,"station_id":"st_d3b462108ojc7389ooeg","pricing_plan_id":"cebpf4jnsgd1na2vs0mg"},{"bike_id":"f6b382f1-2f54-4f2a-8abd-265696951f1f","system_id":"levelo_inurba_marseille","lat":43.29614,"lon":5.37704,"is_reserved":false,"is_disabled":false,"rental_uris":{"android":"levelo://app?vid=f6b382f1-2f54-4f2a-8abd-265696951f1f","ios":"levelo://app?vid=f6b382f1-2f54-4f2a-8abd-265696951f1f"},"vehicle_type_id":"4","last_reported":1767193919,"current_range_meters":12400,"station_id":"ce4bgi92rcd13ifvqb90","pricing_plan_id":"cebpf4jnsgd1na2vs0mg"},{"bike_id":"36fc440a-33a3-4913-a0d8-b4b76e46bd70","system_id":"levelo_inurba_marseille","lat":43.32218,"lon":5.39434,"is_reserved":false,"is_disabled":false,"rental_uris":{"android":"levelo://app?vid=36fc440a-33a3-4913-a0d8-b4b76e46bd70","ios":"levelo://app?vid=36fc440a-33a3-4913-a0d8-b4b76e46bd70"},"vehicle_type_id":"4","last_reported":1767193919,"current_range_meters":12400,"station_id":"","pricing_plan_id":"cebpf4jnsgd1na2vs0mg"},{"bike_id":"038aea09-3f94-4832-8686-7f4a0e696f58","system_id":"levelo_inurba_marseille","lat":43.23867,"lon":5.36578,"is_reserved":false,"is_disabled":false,"rental_uris":{"android":"levelo://app?vid=038aea09-3f94-4832-8686-7f4a0e696f58","ios":"levelo://app?vid=038aea09-3f94-4832-8686-7f4a0e696f58"},"vehicle_type_id":"4","last_reported":1767193919,"current_range_meters":12400,"station_id":"st_d3nk18o9ro0c73en2l3g","pricing_plan_id":"cebpf4jnsgd1na2vs0mg"},{"bike_id":"f7907c1c-af28-49fc-9bf1-6ea5c9b9576d","system_id":"levelo_inurba_marseille","lat":43.281533,"lon":5.426376,"is_reserved":false,"is_disabled":true,"rental_uris":{"android":"levelo://app?vid=f7907c1c-af28-49fc-9bf1-6ea5c9b9576d","ios":"levelo://app?vid=f7907c1c-af28-49fc-9bf1-6ea5c9b9576d"},"vehicle_type_id":"4","last_reported":1767193919,"current_range_meters":12800,"station_id":"ce4bhnh2rcd13ifvqgug","pricing_plan_id":"cebpf4jnsgd1na2vs0mg"},{"bike_id":"d884c4a6-0be1-44d1-a381-33637463734c","system_id":"levelo_inurba_marseille","lat":43.29608,"lon":5.37735,"is_reserved":false,"is_disabled":false,"rental_uris":{"android":"levelo://app?vid=d884c4a6-0be1-44d1-a381-33637463734c","ios":"levelo://app?vid=d884c4a6-0be1-44d1-a381-33637463734c"},"vehicle_type_id":"4","last_reported":1767193919,"current_range_meters":12800,"station_id":"ce4bgi92rcd13ifvqb90","pricing_plan_id":"cebpf4jnsgd1na2vs0mg"},{"bike_id":"ae16ff2f-039d-4cdf-a936-aa3dd9f21d44","system_id":"levelo_inurba_marseille","lat":43.27059,"lon":5.383,"is_reserved":false,"is_disabled":false,"rental_uris":{"android":"levelo://app?vid=ae16ff2f-039d-4cdf-a936-aa3dd9f21d44","ios":"levelo://app?vid=ae16ff2f-039d-4cdf-a936-aa3dd9f21d44"},"vehicle_type_id":"4","last_reported":1767193919,"current_range_meters":12800,"station_id":"st_d3n2fo6cfp8s73cte1j0","pricing_plan_id":"cebpf4jnsgd1na2vs0mg"},{"bike_id":"14d851ab-a12d-4956-a0aa-19036330573c","system_id":"levelo_inurba_marseille","lat":43.3121,"lon":5.36872,"is_reserved":false,"is_disabled":false,"rental_uris":{"android":"levelo://app?vid=14d851ab-a12d-4956-a0aa-19036330573c","ios":"levelo://app?vid=14d851ab-a12d-4956-a0aa-19036330573c"},"vehicle_type_id":"4","last_reported":1767193919,"current_range_meters":12800,"station_id":"ce4bgl92rcd13ifvqbq0","pricing_plan_id":"cebpf4jnsgd1na2vs0mg"},{"bike_id":"2f6c6f7b-f9f8-4f76-b9a7-b08a8eff2692","system_id":"levelo_inurba_marseille","lat":43.21754,"lon":5.34605,"is_reserved":false,"is_disabled":false,"rental_uris":{"android":"levelo://app?vid=2f6c6f7b-f9f8-4f76-b9a7-b08a8eff2692","ios":"levelo://app?vid=2f6c6f7b-f9f8-4f76-b9a7-b08a8eff2692"},"vehicle_type_id":"4","last_reported":1767193919,"current_range_meters":12800,"station_id":"st_cvj6r9ubvosntc0bgbag","pricing_plan_id":"cebpf4jnsgd1na2vs0mg"},{"bike_id":"b0df4798-d5b8-4832-bb2f-c00ad9a32fae","system_id":"levelo_inurba_marseille","lat":43.29621,"lon":5.37169,"is_reserved":false,"is_disabled":false,"rental_uris":{"android":"levelo://app?vid=b0df4798-d5b8-4832-bb2f-c00ad9a32fae","ios":"levelo://app?vid=b0df4798-d5b8-4832-bb2f-c00ad9a32fae"},"vehicle_type_id":"4","last_reported":1767193919,"current_range_meters":12800,"station_id":"ce4bgnh2rcd13ifvqc0g","pricing_plan_id":"cebpf4jnsgd1na2vs0mg"},{"bike_id":"542b2ba6-9fa8-48fd-b661-4556081d0be1","system_id":"levelo_inurba_marseille","lat":43.30913,"lon":5.36827,"is_reserved":false,"is_disabled":false,"rental_uris":{"android":"levelo://app?vid=542b2ba6-9fa8-48fd-b661-4556081d0be1","ios":"levelo://app?vid=542b2ba6-9fa8-48fd-b661-4556081d0be1"},"vehicle_type_id":"4","last_reported":1767193919,"current_range_meters":12800,"station_id":"ce4bgn92rcd13ifvqbvg","pricing_plan_id":"cebpf4jnsgd1na2vs0mg"},{"bike_id":"5a24ebdf-e074-4fad-9347-7af5dcf172a0","system_id":"levelo_inurba_marseille","lat":43.2933,"lon":5.37153,"is_reserved":false,"is_disabled":false,"rental_uris":{"android":"levelo://app?vid=5a24ebdf-e074-4fad-9347-7af5dcf172a0","ios":"levelo://app?vid=5a24ebdf-e074-4fad-9347-7af5dcf172a0"},"vehicle_type_id":"4","last_reported":1767193919,"current_range_meters":12800,"station_id":"ce4bgh92rcd13ifvqb40","pricing_plan_id":"cebpf4jnsgd1na2vs0mg"},{"bike_id":"0938995e-ba33-411e-93cd-bce44cddc3e7","system_id":"levelo_inurba_marseille","lat":43.29967,"lon":5.37161,"is_reserved":false,"is_disabled":false,"rental_uris":{"android":"levelo://app?vid=0938995e-ba33-411e-93cd-bce44cddc3e7","ios":"levelo://app?vid=0938995e-ba33-411e-93cd-bce44cddc3e7"},"vehicle_type_id":"4","last_reported":1767193919,"current_range_meters":12800,"station_id":"ce4bgr92rcd13ifvqc7g","pricing_plan_id":"cebpf4jnsgd1na2vs0mg"},{"bike_id":"a770eb5f-2a92-46a3-b6fe-450aef9acb4a","system_id":"levelo_inurba_marseille","lat":43.30123,"lon":5.43116,"is_reserved":false,"is_disabled":false,"rental_uris":{"android":"levelo://app?vid=a770eb5f-2a92-46a3-b6fe-450aef9acb4a","ios":"levelo://app?vid=a770eb5f-2a92-46a3-b6fe-450aef9acb4a"},"vehicle_type_id":"4","last_reported":1767193919,"current_range_meters":12800,"station_id":"st_d3js3co5814s73ftftug","pricing_plan_id":"cebpf4jnsgd1na2vs0mg"},{"bike_id":"3a141d09-bba6-4b91-b46b-8b717408de2a","system_id":"levelo_inurba_marseille","lat":43.292888,"lon":5.401161,"is_reserved":false,"is_disabled":false,"rental_uris":{"android":"levelo://app?vid=3a141d09-bba6-4b91-b46b-8b717408de2a","ios":"levelo://app?vid=3a141d09-bba6-4b91-b46b-8b717408de2a"},"vehicle_type_id":"4","last_reported":1767193919,"current_range_meters":12800,"station_id":"ce4bh312rcd13ifvqdk0","pricing_plan_id":"cebpf4jnsgd1na2vs0mg"},{"bike_id":"e98ec8e2-fce4-4b38-942e-3bf912997c04","system_id":"levelo_inurba_marseille","lat":43.30766,"lon":5.42462,"is_reserved":false,"is_disabled":false,"rental_uris":{"android":"levelo://app?vid=e98ec8e2-fce4-4b38-942e-3bf912997c04","ios":"levelo://app?vid=e98ec8e2-fce4-4b38-942e-3bf912997c04"},"vehicle_type_id":"4","last_reported":1767193919,"current_range_meters":12800,"station_id":"st_cvj6ca6bvosntc0bfgr0","pricing_plan_id":"cebpf4jnsgd1na2vs0mg"},{"bike_id":"5ec5f671-59c3-4ecd-9999-1ced96b35817","system_id":"levelo_inurba_marseille","lat":43.241719,"lon":5.364023,"is_reserved":false,"is_disabled":false,"rental_uris":{"android":"levelo://app?vid=5ec5f671-59c3-4ecd-9999-1ced96b35817","ios":"levelo://app?vid=5ec5f671-59c3-4ecd-9999-1ced96b35817"},"vehicle_type_id":"4","last_reported":1767193919,"current_range_meters":13600,"station_id":"cpo36qri1sfpv3e86is0","pricing_plan_id":"cebpf4jnsgd1na2vs0mg"},{"bike_id":"ff8864c8-a009-4638-8215-25cbc945ccbf","system_id":"levelo_inurba_marseille","lat":43.31354,"lon":5.36723,"is_reserved":false,"is_disabled":false,"rental_uris":{"android":"levelo://app?vid=ff8864c8-a009-4638-8215-25cbc945ccbf","ios":"levelo://app?vid=ff8864c8-a009-4638-8215-25cbc945ccbf"},"vehicle_type_id":"4","last_reported":1767193919,"current_range_meters":13600,"station_id":"ce4bgr92rcd13ifvqc6g","pricing_plan_id":"cebpf4jnsgd1na2vs0mg"},{"bike_id":"ba4d9c7a-7aca-4b85-9206-966a264e9e7b","system_id":"levelo_inurba_marseille","lat":43.31556,"lon":5.38379,"is_reserved":false,"is_disabled":false,"rental_uris":{"android":"levelo://app?vid=ba4d9c7a-7aca-4b85-9206-966a264e9e7b","ios":"levelo://app?vid=ba4d9c7a-7aca-4b85-9206-966a264e9e7b"},"vehicle_type_id":"4","last_reported":1767193919,"current_range_meters":13600,"station_id":"","pricing_plan_id":"cebpf4jnsgd1na2vs0mg"},{"bike_id":"5d76c1ba-1a84-4b97-813c-5fad3301fab9","system_id":"levelo_inurba_marseille","lat":43.29853,"lon":5.3629,"is_reserved":false,"is_disabled":false,"rental_uris":{"android":"levelo://app?vid=5d76c1ba-1a84-4b97-813c-5fad3301fab9","ios":"levelo://app?vid=5d76c1ba-1a84-4b97-813c-5fad3301fab9"},"vehicle_type_id":"4","last_reported":1767193919,"current_range_meters":13600,"station_id":"ce4bgpp2rcd13ifvqc3g","pricing_plan_id":"cebpf4jnsgd1na2vs0mg"},{"bike_id":"8e533a3d-e630-44fb-bda8-99d9f21479dc","system_id":"levelo_inurba_marseille","lat":43.28468,"lon":5.38396,"is_reserved":false,"is_disabled":false,"rental_uris":{"android":"levelo://app?vid=8e533a3d-e630-44fb-bda8-99d9f21479dc","ios":"levelo://app?vid=8e533a3d-e630-44fb-bda8-99d9f21479dc"},"vehicle_type_id":"4","last_reported":1767193919,"current_range_meters":13600,"station_id":"ce4bh512rcd13ifvqe3g","pricing_plan_id":"cebpf4jnsgd1na2vs0mg"},{"bike_id":"fb5a8b96-db0e-42d7-9b3d-b5c3f0806ddf","system_id":"levelo_inurba_marseille","lat":43.303217,"lon":5.404435,"is_reserved":false,"is_disabled":false,"rental_uris":{"android":"levelo://app?vid=fb5a8b96-db0e-42d7-9b3d-b5c3f0806ddf","ios":"levelo://app?vid=fb5a8b96-db0e-42d7-9b3d-b5c3f0806ddf"},"vehicle_type_id":"4","last_reported":1767193919,"current_range_meters":13600,"station_id":"ce4bh012rcd13ifvqd10","pricing_plan_id":"cebpf4jnsgd1na2vs0mg"},{"bike_id":"0d8b64dc-d3a4-4c37-80be-c48d945a81e3","system_id":"levelo_inurba_marseille","lat":43.28469,"lon":5.3842,"is_reserved":false,"is_disabled":true,"rental_uris":{"android":"levelo://app?vid=0d8b64dc-d3a4-4c37-80be-c48d945a81e3","ios":"levelo://app?vid=0d8b64dc-d3a4-4c37-80be-c48d945a81e3"},"vehicle_type_id":"4","last_reported":1767193919,"current_range_meters":13600,"station_id":"ce4bh512rcd13ifvqe3g","pricing_plan_id":"cebpf4jnsgd1na2vs0mg"},{"bike_id":"3a5aab6e-cd17-41c2-835e-9aa91ad79f59","system_id":"levelo_inurba_marseille","lat":43.28412,"lon":5.37535,"is_reserved":false,"is_disabled":false,"rental_uris":{"android":"levelo://app?vid=3a5aab6e-cd17-41c2-835e-9aa91ad79f59","ios":"levelo://app?vid=3a5aab6e-cd17-41c2-835e-9aa91ad79f59"},"vehicle_type_id":"4","last_reported":1767193919,"current_range_meters":13600,"station_id":"ce4bh412rcd13ifvqds0","pricing_plan_id":"cebpf4jnsgd1na2vs0mg"},{"bike_id":"71feabac-18bb-4c38-9f1c-553d18ed10d6","system_id":"levelo_inurba_marseille","lat":43.29603,"lon":5.37178,"is_reserved":false,"is_disabled":false,"rental_uris":{"android":"levelo://app?vid=71feabac-18bb-4c38-9f1c-553d18ed10d6","ios":"levelo://app?vid=71feabac-18bb-4c38-9f1c-553d18ed10d6"},"vehicle_type_id":"4","last_reported":1767193919,"current_range_meters":13600,"station_id":"ce4bgnh2rcd13ifvqc0g","pricing_plan_id":"cebpf4jnsgd1na2vs0mg"},{"bike_id":"41379625-5614-46c5-883d-e15ab9ce2ea2","system_id":"levelo_inurba_marseille","lat":43.276173,"lon":5.361071,"is_reserved":false,"is_disabled":false,"rental_uris":{"android":"levelo://app?vid=41379625-5614-46c5-883d-e15ab9ce2ea2","ios":"levelo://app?vid=41379625-5614-46c5-883d-e15ab9ce2ea2"},"vehicle_type_id":"4","last_reported":1767193919,"current_range_meters":13600,"station_id":"ce4bgj92rcd13ifvqbe0","pricing_plan_id":"cebpf4jnsgd1na2vs0mg"},{"bike_id":"d994d60e-482c-4497-9663-5c2d7617b7f1","system_id":"levelo_inurba_marseille","lat":43.23807,"lon":5.36631,"is_reserved":false,"is_disabled":false,"rental_uris":{"android":"levelo://app?vid=d994d60e-482c-4497-9663-5c2d7617b7f1","ios":"levelo://app?vid=d994d60e-482c-4497-9663-5c2d7617b7f1"},"vehicle_type_id":"4","last_reported":1767193919,"current_range_meters":14000,"station_id":"st_d3nk18o9ro0c73en2l3g","pricing_plan_id":"cebpf4jnsgd1na2vs0mg"},{"bike_id":"e091a64d-3bea-4eb4-be23-0d33eb28eebf","system_id":"levelo_inurba_marseille","lat":43.26939,"lon":5.40279,"is_reserved":false,"is_disabled":false,"rental_uris":{"android":"levelo://app?vid=e091a64d-3bea-4eb4-be23-0d33eb28eebf","ios":"levelo://app?vid=e091a64d-3bea-4eb4-be23-0d33eb28eebf"},"vehicle_type_id":"4","last_reported":1767193919,"current_range_meters":14000,"station_id":"cjm6bp8fraef2m0cb0m0","pricing_plan_id":"cebpf4jnsgd1na2vs0mg"},{"bike_id":"a6b35a9b-2cf6-4669-b17f-ed9bea8188e1","system_id":"levelo_inurba_marseille","lat":43.29732,"lon":5.42775,"is_reserved":false,"is_disabled":true,"rental_uris":{"android":"levelo://app?vid=a6b35a9b-2cf6-4669-b17f-ed9bea8188e1","ios":"levelo://app?vid=a6b35a9b-2cf6-4669-b17f-ed9bea8188e1"},"vehicle_type_id":"4","last_reported":1767193919,"current_range_meters":14000,"station_id":"st_d3md5207bmas73dh9klg","pricing_plan_id":"cebpf4jnsgd1na2vs0mg"},{"bike_id":"ddfa40a0-cada-4f50-8b25-d17290013e65","system_id":"levelo_inurba_marseille","lat":43.2417,"lon":5.36405,"is_reserved":false,"is_disabled":false,"rental_uris":{"android":"levelo://app?vid=ddfa40a0-cada-4f50-8b25-d17290013e65","ios":"levelo://app?vid=ddfa40a0-cada-4f50-8b25-d17290013e65"},"vehicle_type_id":"4","last_reported":1767193919,"current_range_meters":14000,"station_id":"cpo36qri1sfpv3e86is0","pricing_plan_id":"cebpf4jnsgd1na2vs0mg"},{"bike_id":"c1fae6f8-648c-4aa1-8e06-3487fd404f71","system_id":"levelo_inurba_marseille","lat":43.27375,"lon":5.36259,"is_reserved":false,"is_disabled":false,"rental_uris":{"android":"levelo://app?vid=c1fae6f8-648c-4aa1-8e06-3487fd404f71","ios":"levelo://app?vid=c1fae6f8-648c-4aa1-8e06-3487fd404f71"},"vehicle_type_id":"4","last_reported":1767193919,"current_range_meters":14000,"station_id":"ce4bhbh2rcd13ifvqeo0","pricing_plan_id":"cebpf4jnsgd1na2vs0mg"},{"bike_id":"23609acc-8d6d-40f3-8171-9c1c4a427172","system_id":"levelo_inurba_marseille","lat":43.31133,"lon":5.37769,"is_reserved":false,"is_disabled":false,"rental_uris":{"android":"levelo://app?vid=23609acc-8d6d-40f3-8171-9c1c4a427172","ios":"levelo://app?vid=23609acc-8d6d-40f3-8171-9c1c4a427172"},"vehicle_type_id":"4","last_reported":1767193919,"current_range_meters":14000,"station_id":"ce4bgt92rcd13ifvqcg0","pricing_plan_id":"cebpf4jnsgd1na2vs0mg"},{"bike_id":"0d5b4d19-5ff7-4ab4-b1f1-164a6d5a8877","system_id":"levelo_inurba_marseille","lat":43.28846,"lon":5.35841,"is_reserved":false,"is_disabled":false,"rental_uris":{"android":"levelo://app?vid=0d5b4d19-5ff7-4ab4-b1f1-164a6d5a8877","ios":"levelo://app?vid=0d5b4d19-5ff7-4ab4-b1f1-164a6d5a8877"},"vehicle_type_id":"4","last_reported":1767193919,"current_range_meters":14000,"station_id":"ce4bhb12rcd13ifvqem0","pricing_plan_id":"cebpf4jnsgd1na2vs0mg"},{"bike_id":"46101f64-e8f3-45c6-a7fe-7eab62381f5f","system_id":"levelo_inurba_marseille","lat":43.29516,"lon":5.39047,"is_reserved":false,"is_disabled":false,"rental_uris":{"android":"levelo://app?vid=46101f64-e8f3-45c6-a7fe-7eab62381f5f","ios":"levelo://app?vid=46101f64-e8f3-45c6-a7fe-7eab62381f5f"},"vehicle_type_id":"4","last_reported":1767193919,"current_range_meters":14000,"station_id":"ce4bh3p2rcd13ifvqdp0","pricing_plan_id":"cebpf4jnsgd1na2vs0mg"},{"bike_id":"1a4b1176-e736-4f50-b4c7-db6082a325a5","system_id":"levelo_inurba_marseille","lat":43.29507,"lon":5.37486,"is_reserved":false,"is_disabled":false,"rental_uris":{"android":"levelo://app?vid=1a4b1176-e736-4f50-b4c7-db6082a325a5","ios":"levelo://app?vid=1a4b1176-e736-4f50-b4c7-db6082a325a5"},"vehicle_type_id":"4","last_reported":1767193919,"current_range_meters":14000,"station_id":"ce4bgkp2rcd13ifvqbmg","pricing_plan_id":"cebpf4jnsgd1na2vs0mg"},{"bike_id":"cda1f6ab-e0ee-4786-9e08-c7bcb481ee5b","system_id":"levelo_inurba_marseille","lat":43.29605,"lon":5.38089,"is_reserved":false,"is_disabled":false,"rental_uris":{"android":"levelo://app?vid=cda1f6ab-e0ee-4786-9e08-c7bcb481ee5b","ios":"levelo://app?vid=cda1f6ab-e0ee-4786-9e08-c7bcb481ee5b"},"vehicle_type_id":"4","last_reported":1767193919,"current_range_meters":14000,"station_id":"ce4bgl12rcd13ifvqbo0","pricing_plan_id":"cebpf4jnsgd1na2vs0mg"},{"bike_id":"2e432000-19e4-474b-acb8-4742408d8ecf","system_id":"levelo_inurba_marseille","lat":43.29646,"lon":5.37955,"is_reserved":false,"is_disabled":false,"rental_uris":{"android":"levelo://app?vid=2e432000-19e4-474b-acb8-4742408d8ecf","ios":"levelo://app?vid=2e432000-19e4-474b-acb8-4742408d8ecf"},"vehicle_type_id":"4","last_reported":1767193919,"current_range_meters":14000,"station_id":"","pricing_plan_id":"cebpf4jnsgd1na2vs0mg"},{"bike_id":"ea5031e4-b749-4d48-ba29-71e8d8d5383b","system_id":"levelo_inurba_marseille","lat":43.26369,"lon":5.37408,"is_reserved":false,"is_disabled":false,"rental_uris":{"android":"levelo://app?vid=ea5031e4-b749-4d48-ba29-71e8d8d5383b","ios":"levelo://app?vid=ea5031e4-b749-4d48-ba29-71e8d8d5383b"},"vehicle_type_id":"4","last_reported":1767193919,"current_range_meters":14000,"station_id":"","pricing_plan_id":"cebpf4jnsgd1na2vs0mg"},{"bike_id":"84f727f2-5b49-4034-9bf7-bd71a2787ced","system_id":"levelo_inurba_marseille","lat":43.24807,"lon":5.37461,"is_reserved":false,"is_disabled":false,"rental_uris":{"android":"levelo://app?vid=84f727f2-5b49-4034-9bf7-bd71a2787ced","ios":"levelo://app?vid=84f727f2-5b49-4034-9bf7-bd71a2787ced"},"vehicle_type_id":"4","last_reported":1767193919,"current_range_meters":14000,"station_id":"ce4bhgh2rcd13ifvqfb0","pricing_plan_id":"cebpf4jnsgd1na2vs0mg"},{"bike_id":"9751fe52-d74c-468e-9f6d-9474166e01a5","system_id":"levelo_inurba_marseille","lat":43.30263,"lon":5.40075,"is_reserved":false,"is_disabled":false,"rental_uris":{"android":"levelo://app?vid=9751fe52-d74c-468e-9f6d-9474166e01a5","ios":"levelo://app?vid=9751fe52-d74c-468e-9f6d-9474166e01a5"},"vehicle_type_id":"4","last_reported":1767193919,"current_range_meters":14000,"station_id":"ce4bgvh2rcd13ifvqcs0","pricing_plan_id":"cebpf4jnsgd1na2vs0mg"},{"bike_id":"eb269852-7820-4d94-ad5a-0aad3c945af8","system_id":"levelo_inurba_marseille","lat":43.24659,"lon":5.38159,"is_reserved":false,"is_disabled":false,"rental_uris":{"android":"levelo://app?vid=eb269852-7820-4d94-ad5a-0aad3c945af8","ios":"levelo://app?vid=eb269852-7820-4d94-ad5a-0aad3c945af8"},"vehicle_type_id":"4","last_reported":1767193919,"current_range_meters":14400,"station_id":"ce4bhih2rcd13ifvqfr0","pricing_plan_id":"cebpf4jnsgd1na2vs0mg"},{"bike_id":"c1c1bbd9-7f85-4a35-831d-72795b1b0948","system_id":"levelo_inurba_marseille","lat":43.32363,"lon":5.36733,"is_reserved":false,"is_disabled":false,"rental_uris":{"android":"levelo://app?vid=c1c1bbd9-7f85-4a35-831d-72795b1b0948","ios":"levelo://app?vid=c1c1bbd9-7f85-4a35-831d-72795b1b0948"},"vehicle_type_id":"4","last_reported":1767193919,"current_range_meters":14400,"station_id":"ce4bhsh2rcd13ifvqi2g","pricing_plan_id":"cebpf4jnsgd1na2vs0mg"},{"bike_id":"d8431e58-d3e8-4456-9570-729e3ebbcc73","system_id":"levelo_inurba_marseille","lat":43.30192,"lon":5.37257,"is_reserved":false,"is_disabled":false,"rental_uris":{"android":"levelo://app?vid=d8431e58-d3e8-4456-9570-729e3ebbcc73","ios":"levelo://app?vid=d8431e58-d3e8-4456-9570-729e3ebbcc73"},"vehicle_type_id":"4","last_reported":1767193919,"current_range_meters":14400,"station_id":"","pricing_plan_id":"cebpf4jnsgd1na2vs0mg"},{"bike_id":"d4c6dc95-f402-4619-8161-a90cb01a834e","system_id":"levelo_inurba_marseille","lat":43.28864,"lon":5.42513,"is_reserved":false,"is_disabled":false,"rental_uris":{"android":"levelo://app?vid=d4c6dc95-f402-4619-8161-a90cb01a834e","ios":"levelo://app?vid=d4c6dc95-f402-4619-8161-a90cb01a834e"},"vehicle_type_id":"4","last_reported":1767193919,"current_range_meters":14400,"station_id":"st_d3b462108ojc7389ooeg","pricing_plan_id":"cebpf4jnsgd1na2vs0mg"},{"bike_id":"8ed4747c-ffc4-4952-a58f-ccece03fc778","system_id":"levelo_inurba_marseille","lat":43.27188,"lon":5.40981,"is_reserved":false,"is_disabled":false,"rental_uris":{"android":"levelo://app?vid=8ed4747c-ffc4-4952-a58f-ccece03fc778","ios":"levelo://app?vid=8ed4747c-ffc4-4952-a58f-ccece03fc778"},"vehicle_type_id":"4","last_reported":1767193919,"current_range_meters":14400,"station_id":"ce4bhl12rcd13ifvqgf0","pricing_plan_id":"cebpf4jnsgd1na2vs0mg"},{"bike_id":"9ffd8e4e-6671-4e68-b198-26c59cc5e3d1","system_id":"levelo_inurba_marseille","lat":43.32623,"lon":5.41987,"is_reserved":false,"is_disabled":false,"rental_uris":{"android":"levelo://app?vid=9ffd8e4e-6671-4e68-b198-26c59cc5e3d1","ios":"levelo://app?vid=9ffd8e4e-6671-4e68-b198-26c59cc5e3d1"},"vehicle_type_id":"4","last_reported":1767193919,"current_range_meters":14400,"station_id":"","pricing_plan_id":"cebpf4jnsgd1na2vs0mg"},{"bike_id":"7763c88a-2179-4315-8d6d-d6c57266aa12","system_id":"levelo_inurba_marseille","lat":43.29797,"lon":5.38097,"is_reserved":false,"is_disabled":false,"rental_uris":{"android":"levelo://app?vid=7763c88a-2179-4315-8d6d-d6c57266aa12","ios":"levelo://app?vid=7763c88a-2179-4315-8d6d-d6c57266aa12"},"vehicle_type_id":"4","last_reported":1767193919,"current_range_meters":14400,"station_id":"ce4bgip2rcd13ifvqbb0","pricing_plan_id":"cebpf4jnsgd1na2vs0mg"},{"bike_id":"82d8538f-fccb-4d77-bb7b-1f55e2f347bf","system_id":"levelo_inurba_marseille","lat":43.21194,"lon":5.35076,"is_reserved":false,"is_disabled":false,"rental_uris":{"android":"levelo://app?vid=82d8538f-fccb-4d77-bb7b-1f55e2f347bf","ios":"levelo://app?vid=82d8538f-fccb-4d77-bb7b-1f55e2f347bf"},"vehicle_type_id":"4","last_reported":1767193919,"current_range_meters":14400,"station_id":"st_cvj6sg6p6f1abm77japg","pricing_plan_id":"cebpf4jnsgd1na2vs0mg"},{"bike_id":"652999ae-9f9a-402a-99d5-f3ed10a5e186","system_id":"levelo_inurba_marseille","lat":43.320846,"lon":5.36775,"is_reserved":false,"is_disabled":false,"rental_uris":{"android":"levelo://app?vid=652999ae-9f9a-402a-99d5-f3ed10a5e186","ios":"levelo://app?vid=652999ae-9f9a-402a-99d5-f3ed10a5e186"},"vehicle_type_id":"4","last_reported":1767193919,"current_range_meters":14400,"station_id":"ce4bhrh2rcd13ifvqhug","pricing_plan_id":"cebpf4jnsgd1na2vs0mg"},{"bike_id":"a6a2a150-a604-4ada-9c60-b24235468c07","system_id":"levelo_inurba_marseille","lat":43.31895,"lon":5.40737,"is_reserved":false,"is_disabled":false,"rental_uris":{"android":"levelo://app?vid=a6a2a150-a604-4ada-9c60-b24235468c07","ios":"levelo://app?vid=a6a2a150-a604-4ada-9c60-b24235468c07"},"vehicle_type_id":"4","last_reported":1767193919,"current_range_meters":14400,"station_id":"ce4bhq12rcd13ifvqhig","pricing_plan_id":"cebpf4jnsgd1na2vs0mg"},{"bike_id":"819953b1-b6e5-4e7b-93ab-771e36ff1d19","system_id":"levelo_inurba_marseille","lat":43.280418,"lon":5.369507,"is_reserved":false,"is_disabled":false,"rental_uris":{"android":"levelo://app?vid=819953b1-b6e5-4e7b-93ab-771e36ff1d19","ios":"levelo://app?vid=819953b1-b6e5-4e7b-93ab-771e36ff1d19"},"vehicle_type_id":"4","last_reported":1767193919,"current_range_meters":14400,"station_id":"ce4bht12rcd13ifvqi60","pricing_plan_id":"cebpf4jnsgd1na2vs0mg"},{"bike_id":"aa48a221-4d8f-4309-8b87-c6cda848887b","system_id":"levelo_inurba_marseille","lat":43.28612,"lon":5.35102,"is_reserved":false,"is_disabled":false,"rental_uris":{"android":"levelo://app?vid=aa48a221-4d8f-4309-8b87-c6cda848887b","ios":"levelo://app?vid=aa48a221-4d8f-4309-8b87-c6cda848887b"},"vehicle_type_id":"4","last_reported":1767193919,"current_range_meters":14400,"station_id":"ce4bhch2rcd13ifvqeug","pricing_plan_id":"cebpf4jnsgd1na2vs0mg"},{"bike_id":"0ba4f163-10f7-45b2-b23e-23862ef0a271","system_id":"levelo_inurba_marseille","lat":43.24084,"lon":5.3776,"is_reserved":false,"is_disabled":false,"rental_uris":{"android":"levelo://app?vid=0ba4f163-10f7-45b2-b23e-23862ef0a271","ios":"levelo://app?vid=0ba4f163-10f7-45b2-b23e-23862ef0a271"},"vehicle_type_id":"4","last_reported":1767193919,"current_range_meters":14800,"station_id":"ce4bhnp2rcd13ifvqgvg","pricing_plan_id":"cebpf4jnsgd1na2vs0mg"},{"bike_id":"67057471-b7f6-4964-9f3d-d28fd0a7dcdb","system_id":"levelo_inurba_marseille","lat":43.31901,"lon":5.40742,"is_reserved":false,"is_disabled":true,"rental_uris":{"android":"levelo://app?vid=67057471-b7f6-4964-9f3d-d28fd0a7dcdb","ios":"levelo://app?vid=67057471-b7f6-4964-9f3d-d28fd0a7dcdb"},"vehicle_type_id":"4","last_reported":1767193919,"current_range_meters":14800,"station_id":"ce4bhq12rcd13ifvqhig","pricing_plan_id":"cebpf4jnsgd1na2vs0mg"},{"bike_id":"f3a4c2fd-c27a-4ca6-bbe5-3949d2a88808","system_id":"levelo_inurba_marseille","lat":43.28579,"lon":5.42976,"is_reserved":false,"is_disabled":false,"rental_uris":{"android":"levelo://app?vid=f3a4c2fd-c27a-4ca6-bbe5-3949d2a88808","ios":"levelo://app?vid=f3a4c2fd-c27a-4ca6-bbe5-3949d2a88808"},"vehicle_type_id":"4","last_reported":1767193919,"current_range_meters":14800,"station_id":"","pricing_plan_id":"cebpf4jnsgd1na2vs0mg"},{"bike_id":"0c3b4b3e-5574-4acc-9ce6-160804ae0ebc","system_id":"levelo_inurba_marseille","lat":43.29909,"lon":5.43644,"is_reserved":false,"is_disabled":true,"rental_uris":{"android":"levelo://app?vid=0c3b4b3e-5574-4acc-9ce6-160804ae0ebc","ios":"levelo://app?vid=0c3b4b3e-5574-4acc-9ce6-160804ae0ebc"},"vehicle_type_id":"4","last_reported":1767193919,"current_range_meters":14800,"station_id":"ce4bhpp2rcd13ifvqhfg","pricing_plan_id":"cebpf4jnsgd1na2vs0mg"},{"bike_id":"fe33b998-ec51-4cd6-bc43-ae75eafd4483","system_id":"levelo_inurba_marseille","lat":43.29534,"lon":5.38547,"is_reserved":false,"is_disabled":false,"rental_uris":{"android":"levelo://app?vid=fe33b998-ec51-4cd6-bc43-ae75eafd4483","ios":"levelo://app?vid=fe33b998-ec51-4cd6-bc43-ae75eafd4483"},"vehicle_type_id":"4","last_reported":1767193919,"current_range_meters":14800,"station_id":"ce4bgih2rcd13ifvqba0","pricing_plan_id":"cebpf4jnsgd1na2vs0mg"},{"bike_id":"9d1c3079-c76b-4e33-9fb3-3a53abdcd033","system_id":"levelo_inurba_marseille","lat":43.2419,"lon":5.39719,"is_reserved":false,"is_disabled":false,"rental_uris":{"android":"levelo://app?vid=9d1c3079-c76b-4e33-9fb3-3a53abdcd033","ios":"levelo://app?vid=9d1c3079-c76b-4e33-9fb3-3a53abdcd033"},