{"last_updated":1742854166,"ttl":60,"version":"2.2","data":{"bikes":[{"bike_id":"490ec294-db2e-4b24-8933-899363a5f3ca","system_id":"levelo_inurba_marseille","lat":43.24984,"lon":5.39656,"is_reserved":false,"is_disabled":false,"rental_uris":{"android":"levelo://app?vid=490ec294-db2e-4b24-8933-899363a5f3ca","ios":"levelo://app?vid=490ec294-db2e-4b24-8933-899363a5f3ca"},"vehicle_type_id":"4","last_reported":1742854167,"current_range_meters":2800,"station_id":"","pricing_plan_id":"cebpf4jnsgd1na2vs0mg"},{"bike_id":"2b97c6c8-6b27-48dc-abad-8bcf29b097e0","system_id":"levelo_inurba_marseille","lat":43.26784,"lon":5.3942,"is_reserved":false,"is_disabled":true,"rental_uris":{"android":"levelo://app?vid=2b97c6c8-6b27-48dc-abad-8bcf29b097e0","ios":"levelo://app?vid=2b97c6c8-6b27-48dc-abad-8bcf29b097e0"},"vehicle_type_id":"4","last_reported":1742854167,"current_range_meters":3200,"station_id":"ce4bhh12rcd13ifvqfg0","pricing_plan_id":"cebpf4jnsgd1na2vs0mg"},{"bike_id":"86491cc3-e511-474e-9d79-bf1bb3a29b84","system_id":"levelo_inurba_marseille","lat":43.25116,"lon":5.40341,"is_reserved":false,"is_disabled":true,"rental_uris":{"android":"levelo://app?vid=86491cc3-e511-474e-9d79-bf1bb3a29b84","ios":"levelo://app?vid=86491cc3-e511-474e-9d79-bf1bb3a29b84"},"vehicle_type_id":"4","last_reported":1742854167,"current_range_meters":3200,"station_id":"ce4bhlh2rcd13ifvqgig","pricing_plan_id":"cebpf4jnsgd1na2vs0mg"},{"bike_id":"ac56a79b-b089-4e47-b9a5-37d2596c5392","system_id":"levelo_inurba_marseille","lat":43.30592,"lon":5.37232,"is_reserved":false,"is_disabled":true,"rental_uris":{"android":"levelo://app?vid=ac56a79b-b089-4e47-b9a5-37d2596c5392","ios":"levelo://app?vid=ac56a79b-b089-4e47-b9a5-37d2596c5392"},"vehicle_type_id":"4","last_reported":1742854167,"current_range_meters":3600,"station_id":"ce4bgqh2rcd13ifvqc4g","pricing_plan_id":"cebpf4jnsgd1na2vs0mg"},{"bike_id":"20a308b7-2ad0-4cde-8ccf-4dc5e7ec7cf1","system_id":"levelo_inurba_marseille","lat":43.27207,"lon":5.39185,"is_reserved":false,"is_disabled":false,"rental_uris":{"android":"levelo://app?vid=20a308b7-2ad0-4cde-8ccf-4dc5e7ec7cf1","ios":"levelo://app?vid=20a308b7-2ad0-4cde-8ccf-4dc5e7ec7cf1"},"vehicle_type_id":"4","last_reported":1742854167,"current_range_meters":3600,"station_id":"ce4bhhp2rcd13ifvqfm0","pricing_plan_id":"cebpf4jnsgd1na2vs0mg"},{"bike_id":"322f810b-b36c-47d7-b0c3-e952dfc0a0ff","system_id":"levelo_inurba_marseille","lat":43.32487,"lon":5.36565,"is_reserved":false,"is_disabled":false,"rental_uris":{"android":"levelo://app?vid=322f810b-b36c-47d7-b0c3-e952dfc0a0ff","ios":"levelo://app?vid=322f810b-b36c-47d7-b0c3-e952dfc0a0ff"},"vehicle_type_id":"4","last_reported":1742854167,"current_range_meters":4400,"station_id":"ce4bhs12rcd13ifvqhvg","pricing_plan_id":"cebpf4jnsgd1na2vs0mg"},{"bike_id":"a8a90f3b-e99a-4a49-9b91-01ba2232dc32","system_id":"levelo_inurba_marseille","lat":43.31091,"lon":5.42428,"is_reserved":false,"is_disabled":false,"rental_uris":{"android":"levelo://app?vid=a8a90f3b-e99a-4a49-9b91-01ba2232dc32","ios":"levelo://app?vid=a8a90f3b-e99a-4a49-9b91-01ba2232dc32"},"vehicle_type_id":"4","last_reported":1742854167,"current_range_meters":4800,"station_id":"","pricing_plan_id":"cebpf4jnsgd1na2vs0mg"},{"bike_id":"5b6c7924-a960-4a7c-84fd-32705138395d","system_id":"levelo_inurba_marseille","lat":43.32484,"lon":5.36562,"is_reserved":false,"is_disabled":false,"rental_uris":{"android":"levelo://app?vid=5b6c7924-a960-4a7c-84fd-32705138395d","ios":"levelo://app?vid=5b6c7924-a960-4a7c-84fd-32705138395d"},"vehicle_type_id":"4","last_reported":1742854167,"current_range_meters":5600,"station_id":"ce4bhs12rcd13ifvqhvg","pricing_plan_id":"cebpf4jnsgd1na2vs0mg"},{"bike_id":"c36cefb3-0db7-45d8-b171-a7dea51fd330","system_id":"levelo_inurba_marseille","lat":43.2572,"lon":5.41095,"is_reserved":false,"is_disabled":false,"rental_uris":{"android":"levelo://app?vid=c36cefb3-0db7-45d8-b171-a7dea51fd330","ios":"levelo://app?vid=c36cefb3-0db7-45d8-b171-a7dea51fd330"},"vehicle_type_id":"4","last_reported":1742854167,"current_range_meters":6000,"station_id":"ce4bhkp2rcd13ifvqgd0","pricing_plan_id":"cebpf4jnsgd1na2vs0mg"},{"bike_id":"1b7c5e4e-130d-4e75-8db2-feee0d51fa46","system_id":"levelo_inurba_marseille","lat":43.2414,"lon":5.39636,"is_reserved":false,"is_disabled":false,"rental_uris":{"android":"levelo://app?vid=1b7c5e4e-130d-4e75-8db2-feee0d51fa46","ios":"levelo://app?vid=1b7c5e4e-130d-4e75-8db2-feee0d51fa46"},"vehicle_type_id":"4","last_reported":1742854167,"current_range_meters":6000,"station_id":"ce4bhn12rcd13ifvqgpg","pricing_plan_id":"cebpf4jnsgd1na2vs0mg"},{"bike_id":"c328c08b-84d1-40c7-ac2b-4e12c9cee56c","system_id":"levelo_inurba_marseille","lat":43.26419,"lon":5.3738,"is_reserved":false,"is_disabled":false,"rental_uris":{"android":"levelo://app?vid=c328c08b-84d1-40c7-ac2b-4e12c9cee56c","ios":"levelo://app?vid=c328c08b-84d1-40c7-ac2b-4e12c9cee56c"},"vehicle_type_id":"4","last_reported":1742854167,"current_range_meters":6000,"station_id":"","pricing_plan_id":"cebpf4jnsgd1na2vs0mg"},{"bike_id":"d1f993ec-8e82-4e82-a38b-e848ded0cf74","system_id":"levelo_inurba_marseille","lat":43.25091,"lon":5.39528,"is_reserved":false,"is_disabled":false,"rental_uris":{"android":"levelo://app?vid=d1f993ec-8e82-4e82-a38b-e848ded0cf74","ios":"levelo://app?vid=d1f993ec-8e82-4e82-a38b-e848ded0cf74"},"vehicle_type_id":"4","last_reported":1742854167,"current_range_meters":6000,"station_id":"","pricing_plan_id":"cebpf4jnsgd1na2vs0mg"},{"bike_id":"8b630951-f900-4a02-a32e-de980d0f5c14","system_id":"levelo_inurba_marseille","lat":43.28272,"lon":5.35081,"is_reserved":false,"is_disabled":false,"rental_uris":{"android":"levelo://app?vid=8b630951-f900-4a02-a32e-de980d0f5c14","ios":"levelo://app?vid=8b630951-f900-4a02-a32e-de980d0f5c14"},"vehicle_type_id":"4","last_reported":1742854167,"current_range_meters":6000,"station_id":"ce4bhbp2rcd13ifvqerg","pricing_plan_id":"cebpf4jnsgd1na2vs0mg"},{"bike_id":"2e5c3384-1873-494e-8faa-0ed376757580","system_id":"levelo_inurba_marseille","lat":43.30799,"lon":5.43527,"is_reserved":false,"is_disabled":false,"rental_uris":{"android":"levelo://app?vid=2e5c3384-1873-494e-8faa-0ed376757580","ios":"levelo://app?vid=2e5c3384-1873-494e-8faa-0ed376757580"},"vehicle_type_id":"4","last_reported":1742854167,"current_range_meters":6400,"station_id":"ce4bhph2rcd13ifvqheg","pricing_plan_id":"cebpf4jnsgd1na2vs0mg"},{"bike_id":"bebbaaa4-9324-461e-b685-01f74c9202e0","system_id":"levelo_inurba_marseille","lat":43.23966,"lon":5.36618,"is_reserved":false,"is_disabled":false,"rental_uris":{"android":"levelo://app?vid=bebbaaa4-9324-461e-b685-01f74c9202e0","ios":"levelo://app?vid=bebbaaa4-9324-461e-b685-01f74c9202e0"},"vehicle_type_id":"4","last_reported":1742854167,"current_range_meters":6400,"station_id":"ce4bhi12rcd13ifvqfp0","pricing_plan_id":"cebpf4jnsgd1na2vs0mg"},{"bike_id":"0904d586-01f6-4087-bfc1-cd9843d1b7bf","system_id":"levelo_inurba_marseille","lat":43.29966,"lon":5.385,"is_reserved":false,"is_disabled":false,"rental_uris":{"android":"levelo://app?vid=0904d586-01f6-4087-bfc1-cd9843d1b7bf","ios":"levelo://app?vid=0904d586-01f6-4087-bfc1-cd9843d1b7bf"},"vehicle_type_id":"4","last_reported":1742854167,"current_range_meters":6400,"station_id":"ce4bgj92rcd13ifvqbd0","pricing_plan_id":"cebpf4jnsgd1na2vs0mg"},{"bike_id":"634c433d-3db3-4fd8-8be9-8b653dae530e","system_id":"levelo_inurba_marseille","lat":43.28046,"lon":5.39042,"is_reserved":false,"is_disabled":true,"rental_uris":{"android":"levelo://app?vid=634c433d-3db3-4fd8-8be9-8b653dae530e","ios":"levelo://app?vid=634c433d-3db3-4fd8-8be9-8b653dae530e"},"vehicle_type_id":"4","last_reported":1742854167,"current_range_meters":6400,"station_id":"","pricing_plan_id":"cebpf4jnsgd1na2vs0mg"},{"bike_id":"0e680333-b1df-418a-9e56-bc70c69af5af","system_id":"levelo_inurba_marseille","lat":43.27947,"lon":5.39578,"is_reserved":false,"is_disabled":false,"rental_uris":{"android":"levelo://app?vid=0e680333-b1df-418a-9e56-bc70c69af5af","ios":"levelo://app?vid=0e680333-b1df-418a-9e56-bc70c69af5af"},"vehicle_type_id":"4","last_reported":1742854167,"current_range_meters":6400,"station_id":"ce4bhf92rcd13ifvqf40","pricing_plan_id":"cebpf4jnsgd1na2vs0mg"},{"bike_id":"732a627f-01b2-4ae6-a8e5-331bcbff3b4f","system_id":"levelo_inurba_marseille","lat":43.25119,"lon":5.40326,"is_reserved":false,"is_disabled":false,"rental_uris":{"android":"levelo://app?vid=732a627f-01b2-4ae6-a8e5-331bcbff3b4f","ios":"levelo://app?vid=732a627f-01b2-4ae6-a8e5-331bcbff3b4f"},"vehicle_type_id":"4","last_reported":1742854167,"current_range_meters":6400,"station_id":"","pricing_plan_id":"cebpf4jnsgd1na2vs0mg"},{"bike_id":"86a65fab-1faf-4fc4-885c-2b086e92c069","system_id":"levelo_inurba_marseille","lat":43.24161,"lon":5.36395,"is_reserved":false,"is_disabled":false,"rental_uris":{"android":"levelo://app?vid=86a65fab-1faf-4fc4-885c-2b086e92c069","ios":"levelo://app?vid=86a65fab-1faf-4fc4-885c-2b086e92c069"},"vehicle_type_id":"4","last_reported":1742854167,"current_range_meters":6400,"station_id":"cpo36qri1sfpv3e86is0","pricing_plan_id":"cebpf4jnsgd1na2vs0mg"},{"bike_id":"6f023766-497a-44b5-8b39-a397e2b8fcb8","system_id":"levelo_inurba_marseille","lat":43.31074,"lon":5.42429,"is_reserved":false,"is_disabled":false,"rental_uris":{"android":"levelo://app?vid=6f023766-497a-44b5-8b39-a397e2b8fcb8","ios":"levelo://app?vid=6f023766-497a-44b5-8b39-a397e2b8fcb8"},"vehicle_type_id":"4","last_reported":1742854167,"current_range_meters":6800,"station_id":"ce4bhp92rcd13ifvqhag","pricing_plan_id":"cebpf4jnsgd1na2vs0mg"},{"bike_id":"21e3a6e5-11f0-467c-9e11-90aab4ee0f83","system_id":"levelo_inurba_marseille","lat":43.27382,"lon":5.36253,"is_reserved":false,"is_disabled":false,"rental_uris":{"android":"levelo://app?vid=21e3a6e5-11f0-467c-9e11-90aab4ee0f83","ios":"levelo://app?vid=21e3a6e5-11f0-467c-9e11-90aab4ee0f83"},"vehicle_type_id":"4","last_reported":1742854167,"current_range_meters":6800,"station_id":"ce4bhbh2rcd13ifvqeo0","pricing_plan_id":"cebpf4jnsgd1na2vs0mg"},{"bike_id":"bb7d553e-f91c-478a-a14a-5f3ea0dc4964","system_id":"levelo_inurba_marseille","lat":43.2455,"lon":5.39547,"is_reserved":false,"is_disabled":false,"rental_uris":{"android":"levelo://app?vid=bb7d553e-f91c-478a-a14a-5f3ea0dc4964","ios":"levelo://app?vid=bb7d553e-f91c-478a-a14a-5f3ea0dc4964"},"vehicle_type_id":"4","last_reported":1742854167,"current_range_meters":6800,"station_id":"ce4bhlp2rcd13ifvqgjg","pricing_plan_id":"cebpf4jnsgd1na2vs0mg"},{"bike_id":"76f3d16e-d7a5-4684-96dc-ab38a67e3c56","system_id":"levelo_inurba_marseille","lat":43.27827,"lon":5.40729,"is_reserved":false,"is_disabled":false,"rental_uris":{"android":"levelo://app?vid=76f3d16e-d7a5-4684-96dc-ab38a67e3c56","ios":"levelo://app?vid=76f3d16e-d7a5-4684-96dc-ab38a67e3c56"},"vehicle_type_id":"4","last_reported":1742854167,"current_range_meters":6800,"station_id":"ce4bhnh2rcd13ifvqgtg","pricing_plan_id":"cebpf4jnsgd1na2vs0mg"},{"bike_id":"91456e3b-facc-45cb-b00f-aea26e6eaf6c","system_id":"levelo_inurba_marseille","lat":43.27811,"lon":5.40719,"is_reserved":false,"is_disabled":true,"rental_uris":{"android":"levelo://app?vid=91456e3b-facc-45cb-b00f-aea26e6eaf6c","ios":"levelo://app?vid=91456e3b-facc-45cb-b00f-aea26e6eaf6c"},"vehicle_type_id":"4","last_reported":1742854167,"current_range_meters":6800,"station_id":"ce4bhnh2rcd13ifvqgtg","pricing_plan_id":"cebpf4jnsgd1na2vs0mg"},{"bike_id":"10c42ec5-dccb-4178-be47-09f500fda401","system_id":"levelo_inurba_marseille","lat":43.28706,"lon":5.39988,"is_reserved":false,"is_disabled":false,"rental_uris":{"android":"levelo://app?vid=10c42ec5-dccb-4178-be47-09f500fda401","ios":"levelo://app?vid=10c42ec5-dccb-4178-be47-09f500fda401"},"vehicle_type_id":"4","last_reported":1742854167,"current_range_meters":6800,"station_id":"ce4bho92rcd13ifvqh3g","pricing_plan_id":"cebpf4jnsgd1na2vs0mg"},{"bike_id":"6da44af1-8b7c-4791-bcb1-30013b0638eb","system_id":"levelo_inurba_marseille","lat":43.27323,"lon":5.39108,"is_reserved":false,"is_disabled":true,"rental_uris":{"android":"levelo://app?vid=6da44af1-8b7c-4791-bcb1-30013b0638eb","ios":"levelo://app?vid=6da44af1-8b7c-4791-bcb1-30013b0638eb"},"vehicle_type_id":"4","last_reported":1742854167,"current_range_meters":7200,"station_id":"","pricing_plan_id":"cebpf4jnsgd1na2vs0mg"},{"bike_id":"9fc87cb3-4f61-4e11-a37d-bb25cfffc8b7","system_id":"levelo_inurba_marseille","lat":43.24528,"lon":5.42889,"is_reserved":false,"is_disabled":false,"rental_uris":{"android":"levelo://app?vid=9fc87cb3-4f61-4e11-a37d-bb25cfffc8b7","ios":"levelo://app?vid=9fc87cb3-4f61-4e11-a37d-bb25cfffc8b7"},"vehicle_type_id":"4","last_reported":1742854167,"current_range_meters":7200,"station_id":"","pricing_plan_id":"cebpf4jnsgd1na2vs0mg"},{"bike_id":"ba77c809-1111-412f-8eae-c3c885fbd6c5","system_id":"levelo_inurba_marseille","lat":43.24167,"lon":5.36397,"is_reserved":false,"is_disabled":false,"rental_uris":{"android":"levelo://app?vid=ba77c809-1111-412f-8eae-c3c885fbd6c5","ios":"levelo://app?vid=ba77c809-1111-412f-8eae-c3c885fbd6c5"},"vehicle_type_id":"4","last_reported":1742854167,"current_range_meters":7200,"station_id":"cpo36qri1sfpv3e86is0","pricing_plan_id":"cebpf4jnsgd1na2vs0mg"},{"bike_id":"9099b1da-7fd7-401d-acb1-68ae757af661","system_id":"levelo_inurba_marseille","lat":43.23216,"lon":5.39966,"is_reserved":false,"is_disabled":false,"rental_uris":{"android":"levelo://app?vid=9099b1da-7fd7-401d-acb1-68ae757af661","ios":"levelo://app?vid=9099b1da-7fd7-401d-acb1-68ae757af661"},"vehicle_type_id":"4","last_reported":1742854167,"current_range_meters":7200,"station_id":"","pricing_plan_id":"cebpf4jnsgd1na2vs0mg"},{"bike_id":"4d9b981b-a366-4154-99e2-8062a3f50999","system_id":"levelo_inurba_marseille","lat":43.32533,"lon":5.41435,"is_reserved":false,"is_disabled":false,"rental_uris":{"android":"levelo://app?vid=4d9b981b-a366-4154-99e2-8062a3f50999","ios":"levelo://app?vid=4d9b981b-a366-4154-99e2-8062a3f50999"},"vehicle_type_id":"4","last_reported":1742854167,"current_range_meters":7200,"station_id":"ce4bhq12rcd13ifvqhhg","pricing_plan_id":"cebpf4jnsgd1na2vs0mg"},{"bike_id":"763cfa5b-c33b-448e-9f64-07102448a732","system_id":"levelo_inurba_marseille","lat":43.28168,"lon":5.42661,"is_reserved":false,"is_disabled":false,"rental_uris":{"android":"levelo://app?vid=763cfa5b-c33b-448e-9f64-07102448a732","ios":"levelo://app?vid=763cfa5b-c33b-448e-9f64-07102448a732"},"vehicle_type_id":"4","last_reported":1742854167,"current_range_meters":7200,"station_id":"ce4bhnh2rcd13ifvqgug","pricing_plan_id":"cebpf4jnsgd1na2vs0mg"},{"bike_id":"e3c6d100-9b3b-44e1-abd1-7cf3538ee12c","system_id":"levelo_inurba_marseille","lat":43.23189,"lon":5.35555,"is_reserved":false,"is_disabled":false,"rental_uris":{"android":"levelo://app?vid=e3c6d100-9b3b-44e1-abd1-7cf3538ee12c","ios":"levelo://app?vid=e3c6d100-9b3b-44e1-abd1-7cf3538ee12c"},"vehicle_type_id":"4","last_reported":1742854167,"current_range_meters":8000,"station_id":"ce4bhu92rcd13ifvqi70","pricing_plan_id":"cebpf4jnsgd1na2vs0mg"},{"bike_id":"f02a77b8-f810-41ff-bf5b-5ab742b469a7","system_id":"levelo_inurba_marseille","lat":43.23167,"lon":5.43702,"is_reserved":false,"is_disabled":false,"rental_uris":{"android":"levelo://app?vid=f02a77b8-f810-41ff-bf5b-5ab742b469a7","ios":"levelo://app?vid=f02a77b8-f810-41ff-bf5b-5ab742b469a7"},"vehicle_type_id":"4","last_reported":1742854167,"current_range_meters":8000,"station_id":"ce4bhmp2rcd13ifvqgog","pricing_plan_id":"cebpf4jnsgd1na2vs0mg"},{"bike_id":"c77ba74c-34b4-4065-8232-671a3f8577ef","system_id":"levelo_inurba_marseille","lat":43.26196,"lon":5.37928,"is_reserved":false,"is_disabled":false,"rental_uris":{"android":"levelo://app?vid=c77ba74c-34b4-4065-8232-671a3f8577ef","ios":"levelo://app?vid=c77ba74c-34b4-4065-8232-671a3f8577ef"},"vehicle_type_id":"4","last_reported":1742854167,"current_range_meters":8000,"station_id":"","pricing_plan_id":"cebpf4jnsgd1na2vs0mg"},{"bike_id":"7e392b4b-f521-41ae-841e-fe8a3cccc001","system_id":"levelo_inurba_marseille","lat":43.30799,"lon":5.43534,"is_reserved":false,"is_disabled":false,"rental_uris":{"android":"levelo://app?vid=7e392b4b-f521-41ae-841e-fe8a3cccc001","ios":"levelo://app?vid=7e392b4b-f521-41ae-841e-fe8a3cccc001"},"vehicle_type_id":"4","last_reported":1742854167,"current_range_meters":8000,"station_id":"ce4bhph2rcd13ifvqheg","pricing_plan_id":"cebpf4jnsgd1na2vs0mg"},{"bike_id":"b37b8334-a4d2-441f-a325-c846ac4151a4","system_id":"levelo_inurba_marseille","lat":43.28707,"lon":5.39992,"is_reserved":false,"is_disabled":false,"rental_uris":{"android":"levelo://app?vid=b37b8334-a4d2-441f-a325-c846ac4151a4","ios":"levelo://app?vid=b37b8334-a4d2-441f-a325-c846ac4151a4"},"vehicle_type_id":"4","last_reported":1742854167,"current_range_meters":8000,"station_id":"ce4bho92rcd13ifvqh3g","pricing_plan_id":"cebpf4jnsgd1na2vs0mg"},{"bike_id":"d942f3e8-444a-4f08-8153-7c5e4dca0232","system_id":"levelo_inurba_marseille","lat":43.31713,"lon":5.437,"is_reserved":false,"is_disabled":false,"rental_uris":{"android":"levelo://app?vid=d942f3e8-444a-4f08-8153-7c5e4dca0232","ios":"levelo://app?vid=d942f3e8-444a-4f08-8153-7c5e4dca0232"},"vehicle_type_id":"4","last_reported":1742854167,"current_range_meters":8000,"station_id":"ce4bhp92rcd13ifvqhcg","pricing_plan_id":"cebpf4jnsgd1na2vs0mg"},{"bike_id":"6767d65f-236c-4b2c-a7f3-3d513792b933","system_id":"levelo_inurba_marseille","lat":43.28083,"lon":5.39661,"is_reserved":false,"is_disabled":false,"rental_uris":{"android":"levelo://app?vid=6767d65f-236c-4b2c-a7f3-3d513792b933","ios":"levelo://app?vid=6767d65f-236c-4b2c-a7f3-3d513792b933"},"vehicle_type_id":"4","last_reported":1742854167,"current_range_meters":8000,"station_id":"ce4bho12rcd13ifvqh2g","pricing_plan_id":"cebpf4jnsgd1na2vs0mg"},{"bike_id":"86a44a05-0a83-4313-982b-6cc18fac25e6","system_id":"levelo_inurba_marseille","lat":43.30653,"lon":5.40067,"is_reserved":false,"is_disabled":false,"rental_uris":{"android":"levelo://app?vid=86a44a05-0a83-4313-982b-6cc18fac25e6","ios":"levelo://app?vid=86a44a05-0a83-4313-982b-6cc18fac25e6"},"vehicle_type_id":"4","last_reported":1742854167,"current_range_meters":8400,"station_id":"ce4bh112rcd13ifvqda0","pricing_plan_id":"cebpf4jnsgd1na2vs0mg"},{"bike_id":"19c4d38c-721f-4a6d-8de0-ad162aee3dc3","system_id":"levelo_inurba_marseille","lat":43.29871,"lon":5.38911,"is_reserved":false,"is_disabled":true,"rental_uris":{"android":"levelo://app?vid=19c4d38c-721f-4a6d-8de0-ad162aee3dc3","ios":"levelo://app?vid=19c4d38c-721f-4a6d-8de0-ad162aee3dc3"},"vehicle_type_id":"4","last_reported":1742854167,"current_range_meters":8400,"station_id":"ce4bh392rcd13ifvqdl0","pricing_plan_id":"cebpf4jnsgd1na2vs0mg"},{"bike_id":"ab109a35-cb7d-438b-8db8-1c92b3f80847","system_id":"levelo_inurba_marseille","lat":43.3203,"lon":5.38165,"is_reserved":false,"is_disabled":false,"rental_uris":{"android":"levelo://app?vid=ab109a35-cb7d-438b-8db8-1c92b3f80847","ios":"levelo://app?vid=ab109a35-cb7d-438b-8db8-1c92b3f80847"},"vehicle_type_id":"4","last_reported":1742854167,"current_range_meters":8400,"station_id":"ce4bhr12rcd13ifvqhpg","pricing_plan_id":"cebpf4jnsgd1na2vs0mg"},{"bike_id":"af5a5a7b-7c81-4426-8212-87d6aab64e0a","system_id":"levelo_inurba_marseille","lat":43.27441,"lon":5.39402,"is_reserved":false,"is_disabled":false,"rental_uris":{"android":"levelo://app?vid=af5a5a7b-7c81-4426-8212-87d6aab64e0a","ios":"levelo://app?vid=af5a5a7b-7c81-4426-8212-87d6aab64e0a"},"vehicle_type_id":"4","last_reported":1742854167,"current_range_meters":8800,"station_id":"ce4bhdp2rcd13ifvqf20","pricing_plan_id":"cebpf4jnsgd1na2vs0mg"},{"bike_id":"42a0b69b-f29a-4ea2-80ed-6573bad37aeb","system_id":"levelo_inurba_marseille","lat":43.24559,"lon":5.39519,"is_reserved":false,"is_disabled":false,"rental_uris":{"android":"levelo://app?vid=42a0b69b-f29a-4ea2-80ed-6573bad37aeb","ios":"levelo://app?vid=42a0b69b-f29a-4ea2-80ed-6573bad37aeb"},"vehicle_type_id":"4","last_reported":1742854167,"current_range_meters":8800,"station_id":"","pricing_plan_id":"cebpf4jnsgd1na2vs0mg"},{"bike_id":"8bb2a947-7c9b-4e44-b7e7-cc6c50d4e5ba","system_id":"levelo_inurba_marseille","lat":43.306366,"lon":5.400739,"is_reserved":false,"is_disabled":false,"rental_uris":{"android":"levelo://app?vid=8bb2a947-7c9b-4e44-b7e7-cc6c50d4e5ba","ios":"levelo://app?vid=8bb2a947-7c9b-4e44-b7e7-cc6c50d4e5ba"},"vehicle_type_id":"4","last_reported":1742854167,"current_range_meters":8800,"station_id":"ce4bh2h2rcd13ifvqdh0","pricing_plan_id":"cebpf4jnsgd1na2vs0mg"},{"bike_id":"03d1a04c-08db-49c7-b7e5-8ea81366c987","system_id":"levelo_inurba_marseille","lat":43.26555,"lon":5.39031,"is_reserved":false,"is_disabled":false,"rental_uris":{"android":"levelo://app?vid=03d1a04c-08db-49c7-b7e5-8ea81366c987","ios":"levelo://app?vid=03d1a04c-08db-49c7-b7e5-8ea81366c987"},"vehicle_type_id":"4","last_reported":1742854167,"current_range_meters":8800,"station_id":"ce4bhe12rcd13ifvqf30","pricing_plan_id":"cebpf4jnsgd1na2vs0mg"},{"bike_id":"ae7aa3dd-7755-481c-9fe1-ef1d518137c2","system_id":"levelo_inurba_marseille","lat":43.28076,"lon":5.39652,"is_reserved":false,"is_disabled":false,"rental_uris":{"android":"levelo://app?vid=ae7aa3dd-7755-481c-9fe1-ef1d518137c2","ios":"levelo://app?vid=ae7aa3dd-7755-481c-9fe1-ef1d518137c2"},"vehicle_type_id":"4","last_reported":1742854167,"current_range_meters":8800,"station_id":"ce4bho12rcd13ifvqh2g","pricing_plan_id":"cebpf4jnsgd1na2vs0mg"},{"bike_id":"5c28eaf8-9f68-47ec-9671-9c8d055a2dcd","system_id":"levelo_inurba_marseille","lat":43.31685,"lon":5.40475,"is_reserved":false,"is_disabled":false,"rental_uris":{"android":"levelo://app?vid=5c28eaf8-9f68-47ec-9671-9c8d055a2dcd","ios":"levelo://app?vid=5c28eaf8-9f68-47ec-9671-9c8d055a2dcd"},"vehicle_type_id":"4","last_reported":1742854167,"current_range_meters":8800,"station_id":"ce4bh012rcd13ifvqd00","pricing_plan_id":"cebpf4jnsgd1na2vs0mg"},{"bike_id":"2462aff4-312c-46a9-ae18-d864ef42c20c","system_id":"levelo_inurba_marseille","lat":43.241755,"lon":5.363995,"is_reserved":false,"is_disabled":false,"rental_uris":{"android":"levelo://app?vid=2462aff4-312c-46a9-ae18-d864ef42c20c","ios":"levelo://app?vid=2462aff4-312c-46a9-ae18-d864ef42c20c"},"vehicle_type_id":"4","last_reported":1742854167,"current_range_meters":9200,"station_id":"cpo36qri1sfpv3e86is0","pricing_plan_id":"cebpf4jnsgd1na2vs0mg"},{"bike_id":"1b8779ee-15bd-411f-8230-66fb3b9d06b8","system_id":"levelo_inurba_marseille","lat":43.2989,"lon":5.43672,"is_reserved":false,"is_disabled":false,"rental_uris":{"android":"levelo://app?vid=1b8779ee-15bd-411f-8230-66fb3b9d06b8","ios":"levelo://app?vid=1b8779ee-15bd-411f-8230-66fb3b9d06b8"},"vehicle_type_id":"4","last_reported":1742854167,"current_range_meters":9200,"station_id":"","pricing_plan_id":"cebpf4jnsgd1na2vs0mg"},{"bike_id":"a0a460eb-34d7-43d6-85ef-87b30455cbf0","system_id":"levelo_inurba_marseille","lat":43.23975,"lon":5.36609,"is_reserved":false,"is_disabled":false,"rental_uris":{"android":"levelo://app?vid=a0a460eb-34d7-43d6-85ef-87b30455cbf0","ios":"levelo://app?vid=a0a460eb-34d7-43d6-85ef-87b30455cbf0"},"vehicle_type_id":"4","last_reported":1742854167,"current_range_meters":9200,"station_id":"ce4bhi12rcd13ifvqfp0","pricing_plan_id":"cebpf4jnsgd1na2vs0mg"},{"bike_id":"2ff570d2-4d8e-48ed-9e8e-8a83ca9149b2","system_id":"levelo_inurba_marseille","lat":43.27043,"lon":5.42287,"is_reserved":false,"is_disabled":true,"rental_uris":{"android":"levelo://app?vid=2ff570d2-4d8e-48ed-9e8e-8a83ca9149b2","ios":"levelo://app?vid=2ff570d2-4d8e-48ed-9e8e-8a83ca9149b2"},"vehicle_type_id":"4","last_reported":1742854167,"current_range_meters":9200,"station_id":"ce4bhk92rcd13ifvqgb0","pricing_plan_id":"cebpf4jnsgd1na2vs0mg"},{"bike_id":"16a20090-4290-4041-8a23-3f924e32764f","system_id":"levelo_inurba_marseille","lat":43.30893,"lon":5.3962,"is_reserved":false,"is_disabled":false,"rental_uris":{"android":"levelo://app?vid=16a20090-4290-4041-8a23-3f924e32764f","ios":"levelo://app?vid=16a20090-4290-4041-8a23-3f924e32764f"},"vehicle_type_id":"4","last_reported":1742854167,"current_range_meters":9200,"station_id":"ce4bh012rcd13ifvqcv0","pricing_plan_id":"cebpf4jnsgd1na2vs0mg"},{"bike_id":"cc799e13-4938-4b46-8479-9b3783ed8fb9","system_id":"levelo_inurba_marseille","lat":43.3088,"lon":5.3965,"is_reserved":false,"is_disabled":false,"rental_uris":{"android":"levelo://app?vid=cc799e13-4938-4b46-8479-9b3783ed8fb9","ios":"levelo://app?vid=cc799e13-4938-4b46-8479-9b3783ed8fb9"},"vehicle_type_id":"4","last_reported":1742854167,"current_range_meters":9200,"station_id":"ce4bh012rcd13ifvqcv0","pricing_plan_id":"cebpf4jnsgd1na2vs0mg"},{"bike_id":"1bf06481-d9a0-4112-85ce-090f0c187592","system_id":"levelo_inurba_marseille","lat":43.30802,"lon":5.4354,"is_reserved":false,"is_disabled":false,"rental_uris":{"android":"levelo://app?vid=1bf06481-d9a0-4112-85ce-090f0c187592","ios":"levelo://app?vid=1bf06481-d9a0-4112-85ce-090f0c187592"},"vehicle_type_id":"4","last_reported":1742854167,"current_range_meters":9600,"station_id":"ce4bhph2rcd13ifvqheg","pricing_plan_id":"cebpf4jnsgd1na2vs0mg"},{"bike_id":"ebf86de8-a3f7-4563-b9cd-62f5316ef4ec","system_id":"levelo_inurba_marseille","lat":43.30919,"lon":5.40143,"is_reserved":false,"is_disabled":true,"rental_uris":{"android":"levelo://app?vid=ebf86de8-a3f7-4563-b9cd-62f5316ef4ec","ios":"levelo://app?vid=ebf86de8-a3f7-4563-b9cd-62f5316ef4ec"},"vehicle_type_id":"4","last_reported":1742854167,"current_range_meters":9600,"station_id":"ce4bgvp2rcd13ifvqct0","pricing_plan_id":"cebpf4jnsgd1na2vs0mg"},{"bike_id":"38e0f955-2686-4e43-b82b-9f7bda364270","system_id":"levelo_inurba_marseille","lat":43.28882,"lon":5.35832,"is_reserved":false,"is_disabled":false,"rental_uris":{"android":"levelo://app?vid=38e0f955-2686-4e43-b82b-9f7bda364270","ios":"levelo://app?vid=38e0f955-2686-4e43-b82b-9f7bda364270"},"vehicle_type_id":"4","last_reported":1742854167,"current_range_meters":9600,"station_id":"ce4bhb12rcd13ifvqem0","pricing_plan_id":"cebpf4jnsgd1na2vs0mg"},{"bike_id":"0c362fcf-65ba-4e5a-83a7-0b90070d3fa1","system_id":"levelo_inurba_marseille","lat":43.30315,"lon":5.36898,"is_reserved":false,"is_disabled":false,"rental_uris":{"android":"levelo://app?vid=0c362fcf-65ba-4e5a-83a7-0b90070d3fa1","ios":"levelo://app?vid=0c362fcf-65ba-4e5a-83a7-0b90070d3fa1"},"vehicle_type_id":"4","last_reported":1742854167,"current_range_meters":9600,"station_id":"ce4bgqh2rcd13ifvqc5g","pricing_plan_id":"cebpf4jnsgd1na2vs0mg"},{"bike_id":"ccd5323e-e780-4439-b4c7-d22e740499a4","system_id":"levelo_inurba_marseille","lat":43.2791,"lon":5.37987,"is_reserved":false,"is_disabled":false,"rental_uris":{"android":"levelo://app?vid=ccd5323e-e780-4439-b4c7-d22e740499a4","ios":"levelo://app?vid=ccd5323e-e780-4439-b4c7-d22e740499a4"},"vehicle_type_id":"4","last_reported":1742854167,"current_range_meters":9600,"station_id":"ce4bhf92rcd13ifvqf50","pricing_plan_id":"cebpf4jnsgd1na2vs0mg"},{"bike_id":"9eef2c13-4412-429d-a6b0-e32bea5d5b99","system_id":"levelo_inurba_marseille","lat":43.3248,"lon":5.36577,"is_reserved":false,"is_disabled":false,"rental_uris":{"android":"levelo://app?vid=9eef2c13-4412-429d-a6b0-e32bea5d5b99","ios":"levelo://app?vid=9eef2c13-4412-429d-a6b0-e32bea5d5b99"},"vehicle_type_id":"4","last_reported":1742854167,"current_range_meters":9600,"station_id":"ce4bhs12rcd13ifvqhvg","pricing_plan_id":"cebpf4jnsgd1na2vs0mg"},{"bike_id":"0dfb0d89-73f2-49b8-91e9-15d856e46939","system_id":"levelo_inurba_marseille","lat":43.24167,"lon":5.39747,"is_reserved":false,"is_disabled":false,"rental_uris":{"android":"levelo://app?vid=0dfb0d89-73f2-49b8-91e9-15d856e46939","ios":"levelo://app?vid=0dfb0d89-73f2-49b8-91e9-15d856e46939"},"vehicle_type_id":"4","last_reported":1742854167,"current_range_meters":9600,"station_id":"ce4bhn12rcd13ifvqgpg","pricing_plan_id":"cebpf4jnsgd1na2vs0mg"},{"bike_id":"e1b0e5a5-4d2c-439f-a035-eadd5217d570","system_id":"levelo_inurba_marseille","lat":43.31261,"lon":5.36831,"is_reserved":false,"is_disabled":true,"rental_uris":{"android":"levelo://app?vid=e1b0e5a5-4d2c-439f-a035-eadd5217d570","ios":"levelo://app?vid=e1b0e5a5-4d2c-439f-a035-eadd5217d570"},"vehicle_type_id":"4","last_reported":1742854167,"current_range_meters":9600,"station_id":"ce4bgl92rcd13ifvqbq0","pricing_plan_id":"cebpf4jnsgd1na2vs0mg"},{"bike_id":"9ce38cc6-6757-415f-8b3e-57e63a2ec031","system_id":"levelo_inurba_marseille","lat":43.27812,"lon":5.40725,"is_reserved":false,"is_disabled":false,"rental_uris":{"android":"levelo://app?vid=9ce38cc6-6757-415f-8b3e-57e63a2ec031","ios":"levelo://app?vid=9ce38cc6-6757-415f-8b3e-57e63a2ec031"},"vehicle_type_id":"4","last_reported":1742854167,"current_range_meters":9600,"station_id":"ce4bhnh2rcd13ifvqgtg","pricing_plan_id":"cebpf4jnsgd1na2vs0mg"},{"bike_id":"d6b9068b-bec0-4f76-9c03-273151aa3d54","system_id":"levelo_inurba_marseille","lat":43.26548,"lon":5.37288,"is_reserved":false,"is_disabled":false,"rental_uris":{"android":"levelo://app?vid=d6b9068b-bec0-4f76-9c03-273151aa3d54","ios":"levelo://app?vid=d6b9068b-bec0-4f76-9c03-273151aa3d54"},"vehicle_type_id":"4","last_reported":1742854167,"current_range_meters":9600,"station_id":"","pricing_plan_id":"cebpf4jnsgd1na2vs0mg"},{"bike_id":"f64a5f06-bff4-4284-a64d-ce271f664dc4","system_id":"levelo_inurba_marseille","lat":43.26167,"lon":5.40547,"is_reserved":false,"is_disabled":false,"rental_uris":{"android":"levelo://app?vid=f64a5f06-bff4-4284-a64d-ce271f664dc4","ios":"levelo://app?vid=f64a5f06-bff4-4284-a64d-ce271f664dc4"},"vehicle_type_id":"4","last_reported":1742854167,"current_range_meters":9600,"station_id":"","pricing_plan_id":"cebpf4jnsgd1na2vs0mg"},{"bike_id":"a0d4632a-7a87-4031-aeeb-061ca0feaca6","system_id":"levelo_inurba_marseille","lat":43.2396,"lon":5.36627,"is_reserved":false,"is_disabled":false,"rental_uris":{"android":"levelo://app?vid=a0d4632a-7a87-4031-aeeb-061ca0feaca6","ios":"levelo://app?vid=a0d4632a-7a87-4031-aeeb-061ca0feaca6"},"vehicle_type_id":"4","last_reported":1742854167,"current_range_meters":10000,"station_id":"ce4bhi12rcd13ifvqfp0","pricing_plan_id":"cebpf4jnsgd1na2vs0mg"},{"bike_id":"6cdf3912-8913-4675-8c27-ab8b24cff670","system_id":"levelo_inurba_marseille","lat":43.28356,"lon":5.38638,"is_reserved":false,"is_disabled":false,"rental_uris":{"android":"levelo://app?vid=6cdf3912-8913-4675-8c27-ab8b24cff670","ios":"levelo://app?vid=6cdf3912-8913-4675-8c27-ab8b24cff670"},"vehicle_type_id":"4","last_reported":1742854167,"current_range_meters":10000,"station_id":"ce4bh492rcd13ifvqdvg","pricing_plan_id":"cebpf4jnsgd1na2vs0mg"},{"bike_id":"f977c0fa-0831-48e0-84ba-e6382d1caf32","system_id":"levelo_inurba_marseille","lat":43.31069,"lon":5.38369,"is_reserved":false,"is_disabled":false,"rental_uris":{"android":"levelo://app?vid=f977c0fa-0831-48e0-84ba-e6382d1caf32","ios":"levelo://app?vid=f977c0fa-0831-48e0-84ba-e6382d1caf32"},"vehicle_type_id":"4","last_reported":1742854167,"current_range_meters":10000,"station_id":"ce4bgv92rcd13ifvqcr0","pricing_plan_id":"cebpf4jnsgd1na2vs0mg"},{"bike_id":"c9c19aa6-3fe4-401b-ab2c-9612f3df5e72","system_id":"levelo_inurba_marseille","lat":43.3095,"lon":5.39025,"is_reserved":false,"is_disabled":true,"rental_uris":{"android":"levelo://app?vid=c9c19aa6-3fe4-401b-ab2c-9612f3df5e72","ios":"levelo://app?vid=c9c19aa6-3fe4-401b-ab2c-9612f3df5e72"},"vehicle_type_id":"4","last_reported":1742854167,"current_range_meters":10000,"station_id":"ce4bgup2rcd13ifvqco0","pricing_plan_id":"cebpf4jnsgd1na2vs0mg"},{"bike_id":"95b42187-a238-4522-8177-b58ab5963f5c","system_id":"levelo_inurba_marseille","lat":43.30926,"lon":5.40158,"is_reserved":false,"is_disabled":false,"rental_uris":{"android":"levelo://app?vid=95b42187-a238-4522-8177-b58ab5963f5c","ios":"levelo://app?vid=95b42187-a238-4522-8177-b58ab5963f5c"},"vehicle_type_id":"4","last_reported":1742854167,"current_range_meters":10000,"station_id":"ce4bgvp2rcd13ifvqct0","pricing_plan_id":"cebpf4jnsgd1na2vs0mg"},{"bike_id":"a0d05f03-0e02-4b04-8fa4-3561235d49f8","system_id":"levelo_inurba_marseille","lat":43.28905,"lon":5.38399,"is_reserved":false,"is_disabled":true,"rental_uris":{"android":"levelo://app?vid=a0d05f03-0e02-4b04-8fa4-3561235d49f8","ios":"levelo://app?vid=a0d05f03-0e02-4b04-8fa4-3561235d49f8"},"vehicle_type_id":"4","last_reported":1742854167,"current_range_meters":10800,"station_id":"ce4bh612rcd13ifvqe6g","pricing_plan_id":"cebpf4jnsgd1na2vs0mg"},{"bike_id":"42e12277-2404-40c1-a358-f3ca2810181d","system_id":"levelo_inurba_marseille","lat":43.29858,"lon":5.36288,"is_reserved":false,"is_disabled":false,"rental_uris":{"android":"levelo://app?vid=42e12277-2404-40c1-a358-f3ca2810181d","ios":"levelo://app?vid=42e12277-2404-40c1-a358-f3ca2810181d"},"vehicle_type_id":"4","last_reported":1742854167,"current_range_meters":10800,"station_id":"ce4bgpp2rcd13ifvqc3g","pricing_plan_id":"cebpf4jnsgd1na2vs0mg"},{"bike_id":"365f09ab-8c99-476c-926d-06a67e798fc3","system_id":"levelo_inurba_marseille","lat":43.31747,"lon":5.40382,"is_reserved":false,"is_disabled":false,"rental_uris":{"android":"levelo://app?vid=365f09ab-8c99-476c-926d-06a67e798fc3","ios":"levelo://app?vid=365f09ab-8c99-476c-926d-06a67e798fc3"},"vehicle_type_id":"4","last_reported":1742854167,"current_range_meters":10800,"station_id":"","pricing_plan_id":"cebpf4jnsgd1na2vs0mg"},{"bike_id":"eef58434-f11d-4ef8-9c46-652018e16f5e","system_id":"levelo_inurba_marseille","lat":43.27062,"lon":5.42278,"is_reserved":false,"is_disabled":false,"rental_uris":{"android":"levelo://app?vid=eef58434-f11d-4ef8-9c46-652018e16f5e","ios":"levelo://app?vid=eef58434-f11d-4ef8-9c46-652018e16f5e"},"vehicle_type_id":"4","last_reported":1742854167,"current_range_meters":10800,"station_id":"ce4bhk92rcd13ifvqgb0","pricing_plan_id":"cebpf4jnsgd1na2vs0mg"},{"bike_id":"fbfecbb6-5794-4d9a-9176-1810e4b4a7ef","system_id":"levelo_inurba_marseille","lat":43.23061,"lon":5.35478,"is_reserved":false,"is_disabled":false,"rental_uris":{"android":"levelo://app?vid=fbfecbb6-5794-4d9a-9176-1810e4b4a7ef","ios":"levelo://app?vid=fbfecbb6-5794-4d9a-9176-1810e4b4a7ef"},"vehicle_type_id":"4","last_reported":1742854167,"current_range_meters":10800,"station_id":"","pricing_plan_id":"cebpf4jnsgd1na2vs0mg"},{"bike_id":"938c0f4e-65bf-479a-ba6e-fe7a68ff9b08","system_id":"levelo_inurba_marseille","lat":43.26532,"lon":5.37317,"is_reserved":false,"is_disabled":false,"rental_uris":{"android":"levelo://app?vid=938c0f4e-65bf-479a-ba6e-fe7a68ff9b08","ios":"levelo://app?vid=938c0f4e-65bf-479a-ba6e-fe7a68ff9b08"},"vehicle_type_id":"4","last_reported":1742854167,"current_range_meters":10800,"station_id":"","pricing_plan_id":"cebpf4jnsgd1na2vs0mg"},{"bike_id":"d851c0cc-b633-4d0d-bf05-68b394dfa36c","system_id":"levelo_inurba_marseille","lat":43.29363,"lon":5.40832,"is_reserved":false,"is_disabled":false,"rental_uris":{"android":"levelo://app?vid=d851c0cc-b633-4d0d-bf05-68b394dfa36c","ios":"levelo://app?vid=d851c0cc-b633-4d0d-bf05-68b394dfa36c"},"vehicle_type_id":"4","last_reported":1742854167,"current_range_meters":10800,"station_id":"","pricing_plan_id":"cebpf4jnsgd1na2vs0mg"},{"bike_id":"d86f0b79-86df-4645-9da6-1f38718cb3c8","system_id":"levelo_inurba_marseille","lat":43.28712,"lon":5.3998,"is_reserved":false,"is_disabled":false,"rental_uris":{"android":"levelo://app?vid=d86f0b79-86df-4645-9da6-1f38718cb3c8","ios":"levelo://app?vid=d86f0b79-86df-4645-9da6-1f38718cb3c8"},"vehicle_type_id":"4","last_reported":1742854167,"current_range_meters":10800,"station_id":"ce4bho92rcd13ifvqh3g","pricing_plan_id":"cebpf4jnsgd1na2vs0mg"},{"bike_id":"07273ad5-0d14-41f9-aa20-8a351943b18a","system_id":"levelo_inurba_marseille","lat":43.28184,"lon":5.42623,"is_reserved":false,"is_disabled":false,"rental_uris":{"android":"levelo://app?vid=07273ad5-0d14-41f9-aa20-8a351943b18a","ios":"levelo://app?vid=07273ad5-0d14-41f9-aa20-8a351943b18a"},"vehicle_type_id":"4","last_reported":1742854167,"current_range_meters":11200,"station_id":"ce4bhnh2rcd13ifvqgug","pricing_plan_id":"cebpf4jnsgd1na2vs0mg"},{"bike_id":"ef43d9bd-e531-4a59-b8a9-fdc80b41fa34","system_id":"levelo_inurba_marseille","lat":43.31273,"lon":5.40163,"is_reserved":false,"is_disabled":true,"rental_uris":{"android":"levelo://app?vid=ef43d9bd-e531-4a59-b8a9-fdc80b41fa34","ios":"levelo://app?vid=ef43d9bd-e531-4a59-b8a9-fdc80b41fa34"},"vehicle_type_id":"4","last_reported":1742854167,"current_range_meters":11200,"station_id":"ce4bh092rcd13ifvqd30","pricing_plan_id":"cebpf4jnsgd1na2vs0mg"},{"bike_id":"ea9a404e-5801-4712-9e40-3ea599f892fb","system_id":"levelo_inurba_marseille","lat":43.31075,"lon":5.38342,"is_reserved":false,"is_disabled":false,"rental_uris":{"android":"levelo://app?vid=ea9a404e-5801-4712-9e40-3ea599f892fb","ios":"levelo://app?vid=ea9a404e-5801-4712-9e40-3ea599f892fb"},"vehicle_type_id":"4","last_reported":1742854167,"current_range_meters":11200,"station_id":"ce4bgv92rcd13ifvqcr0","pricing_plan_id":"cebpf4jnsgd1na2vs0mg"},{"bike_id":"4fe82e65-425c-453e-9e10-5bbbfdd7a6b8","system_id":"levelo_inurba_marseille","lat":43.24156,"lon":5.39694,"is_reserved":false,"is_disabled":false,"rental_uris":{"android":"levelo://app?vid=4fe82e65-425c-453e-9e10-5bbbfdd7a6b8","ios":"levelo://app?vid=4fe82e65-425c-453e-9e10-5bbbfdd7a6b8"},"vehicle_type_id":"4","last_reported":1742854167,"current_range_meters":11200,"station_id":"ce4bhn12rcd13ifvqgpg","pricing_plan_id":"cebpf4jnsgd1na2vs0mg"},{"bike_id":"a5282f74-4fae-4145-92e0-0b61390c0994","system_id":"levelo_inurba_marseille","lat":43.2396,"lon":5.36628,"is_reserved":false,"is_disabled":false,"rental_uris":{"android":"levelo://app?vid=a5282f74-4fae-4145-92e0-0b61390c0994","ios":"levelo://app?vid=a5282f74-4fae-4145-92e0-0b61390c0994"},"vehicle_type_id":"4","last_reported":1742854167,"current_range_meters":11200,"station_id":"ce4bhi12rcd13ifvqfp0","pricing_plan_id":"cebpf4jnsgd1na2vs0mg"},{"bike_id":"a6c20288-f5a1-4928-9f6b-d04bd827a79e","system_id":"levelo_inurba_marseille","lat":43.24558,"lon":5.39524,"is_reserved":false,"is_disabled":false,"rental_uris":{"android":"levelo://app?vid=a6c20288-f5a1-4928-9f6b-d04bd827a79e","ios":"levelo://app?vid=a6c20288-f5a1-4928-9f6b-d04bd827a79e"},"vehicle_type_id":"4","last_reported":1742854167,"current_range_meters":11200,"station_id":"ce4bhlp2rcd13ifvqgjg","pricing_plan_id":"cebpf4jnsgd1na2vs0mg"},{"bike_id":"99cfdb63-e6ce-4bd6-adaf-52407562efcb","system_id":"levelo_inurba_marseille","lat":43.27993,"lon":5.41658,"is_reserved":false,"is_disabled":false,"rental_uris":{"android":"levelo://app?vid=99cfdb63-e6ce-4bd6-adaf-52407562efcb","ios":"levelo://app?vid=99cfdb63-e6ce-4bd6-adaf-52407562efcb"},"vehicle_type_id":"4","last_reported":1742854167,"current_range_meters":11200,"station_id":"ce4bho12rcd13ifvqh1g","pricing_plan_id":"cebpf4jnsgd1na2vs0mg"},{"bike_id":"2a99ecb7-4bf0-4c00-89bb-11ff019b8a6d","system_id":"levelo_inurba_marseille","lat":43.22915,"lon":5.3539,"is_reserved":false,"is_disabled":false,"rental_uris":{"android":"levelo://app?vid=2a99ecb7-4bf0-4c00-89bb-11ff019b8a6d","ios":"levelo://app?vid=2a99ecb7-4bf0-4c00-89bb-11ff019b8a6d"},"vehicle_type_id":"4","last_reported":1742854167,"current_range_meters":11600,"station_id":"cpo3532slgdg3j2ikp40","pricing_plan_id":"cebpf4jnsgd1na2vs0mg"},{"bike_id":"8284de5c-d227-47cd-b1ac-1bc2e0170d0f","system_id":"levelo_inurba_marseille","lat":43.27821,"lon":5.40702,"is_reserved":false,"is_disabled":true,"rental_uris":{"android":"levelo://app?vid=8284de5c-d227-47cd-b1ac-1bc2e0170d0f","ios":"levelo://app?vid=8284de5c-d227-47cd-b1ac-1bc2e0170d0f"},"vehicle_type_id":"4","last_reported":1742854167,"current_range_meters":11600,"station_id":"","pricing_plan_id":"cebpf4jnsgd1na2vs0mg"},{"bike_id":"37edeb0d-9f2a-4ca7-a5e6-671985783cf6","system_id":"levelo_inurba_marseille","lat":43.2811,"lon":5.37841,"is_reserved":false,"is_disabled":false,"rental_uris":{"android":"levelo://app?vid=37edeb0d-9f2a-4ca7-a5e6-671985783cf6","ios":"levelo://app?vid=37edeb0d-9f2a-4ca7-a5e6-671985783cf6"},"vehicle_type_id":"4","last_reported":1742854167,"current_range_meters":11600,"station_id":"ce4bha12rcd13ifvqee0","pricing_plan_id":"cebpf4jnsgd1na2vs0mg"},{"bike_id":"cc231a94-5122-47d6-8648-906d46a87b5c","system_id":"levelo_inurba_marseille","lat":43.26203,"lon":5.37929,"is_reserved":false,"is_disabled":false,"rental_uris":{"android":"levelo://app?vid=cc231a94-5122-47d6-8648-906d46a87b5c","ios":"levelo://app?vid=cc231a94-5122-47d6-8648-906d46a87b5c"},"vehicle_type_id":"4","last_reported":1742854167,"current_range_meters":11600,"station_id":"ce4bhjp2rcd13ifvqg90","pricing_plan_id":"cebpf4jnsgd1na2vs0mg"},{"bike_id":"d0ce6a4c-8c1a-4117-b620-bb8816808dbc","system_id":"levelo_inurba_marseille","lat":43.2398,"lon":5.36614,"is_reserved":false,"is_disabled":false,"rental_uris":{"android":"levelo://app?vid=d0ce6a4c-8c1a-4117-b620-bb8816808dbc","ios":"levelo://app?vid=d0ce6a4c-8c1a-4117-b620-bb8816808dbc"},"vehicle_type_id":"4","last_reported":1742854167,"current_range_meters":11600,"station_id":"ce4bhi12rcd13ifvqfp0","pricing_plan_id":"cebpf4jnsgd1na2vs0mg"},{"bike_id":"008c8db6-be2b-43ce-8a53-8af51fd8b577","system_id":"levelo_inurba_marseille","lat":43.24179,"lon":5.39732,"is_reserved":false,"is_disabled":false,"rental_uris":{"android":"levelo://app?vid=008c8db6-be2b-43ce-8a53-8af51fd8b577","ios":"levelo://app?vid=008c8db6-be2b-43ce-8a53-8af51fd8b577"},"vehicle_type_id":"4","last_reported":1742854167,"current_range_meters":11600,"station_id":"ce4bhn12rcd13ifvqgpg","pricing_plan_id":"cebpf4jnsgd1na2vs0mg"},{"bike_id":"a9ede7df-1743-4e40-808d-2fa0d1817681","system_id":"levelo_inurba_marseille","lat":43.27828,"lon":5.4073,"is_reserved":false,"is_disabled":false,"rental_uris":{"android":"levelo://app?vid=a9ede7df-1743-4e40-808d-2fa0d1817681","ios":"levelo://app?vid=a9ede7df-1743-4e40-808d-2fa0d1817681"},"vehicle_type_id":"4","last_reported":1742854167,"current_range_meters":11600,"station_id":"","pricing_plan_id":"cebpf4jnsgd1na2vs0mg"},{"bike_id":"c353c957-fbb8-408a-9097-46c8d6b68074","system_id":"levelo_inurba_marseille","lat":43.24163,"lon":5.39715,"is_reserved":false,"is_disabled":false,"rental_uris":{"android":"levelo://app?vid=c353c957-fbb8-408a-9097-46c8d6b68074","ios":"levelo://app?vid=c353c957-fbb8-408a-9097-46c8d6b68074"},"vehicle_type_id":"4","last_reported":1742854167,"current_range_meters":11600,"station_id":"ce4bhn12rcd13ifvqgpg","pricing_plan_id":"cebpf4jnsgd1na2vs0mg"},{"bike_id":"6bb6f1fc-5b4f-4f3d-97c1-f093e7e9a8ef","system_id":"levelo_inurba_marseille","lat":43.23062,"lon":5.35504,"is_reserved":false,"is_disabled":false,"rental_uris":{"android":"levelo://app?vid=6bb6f1fc-5b4f-4f3d-97c1-f093e7e9a8ef","ios":"levelo://app?vid=6bb6f1fc-5b4f-4f3d-97c1-f093e7e9a8ef"},"vehicle_type_id":"4","last_reported":1742854167,"current_range_meters":11600,"station_id":"cpo3342slgdg3j2ifvpg","pricing_plan_id":"cebpf4jnsgd1na2vs0mg"},{"bike_id":"0031fb59-10e6-43d7-8664-000399d296e9","system_id":"levelo_inurba_marseille","lat":43.26199,"lon":5.37927,"is_reserved":false,"is_disabled":false,"rental_uris":{"android":"levelo://app?vid=0031fb59-10e6-43d7-8664-000399d296e9","ios":"levelo://app?vid=0031fb59-10e6-43d7-8664-000399d296e9"},"vehicle_type_id":"4","last_reported":1742854167,"current_range_meters":11600,"station_id":"ce4bhjp2rcd13ifvqg90","pricing_plan_id":"cebpf4jnsgd1na2vs0mg"},{"bike_id":"8871fee1-c30f-4721-bb9f-022f22051a94","system_id":"levelo_inurba_marseille","lat":43.24179,"lon":5.39735,"is_reserved":false,"is_disabled":false,"rental_uris":{"android":"levelo://app?vid=8871fee1-c30f-4721-bb9f-022f22051a94","ios":"levelo://app?vid=8871fee1-c30f-4721-bb9f-022f22051a94"},"vehicle_type_id":"4","last_reported":1742854167,"current_range_meters":12000,"station_id":"ce4bhn12rcd13ifvqgpg","pricing_plan_id":"cebpf4jnsgd1na2vs0mg"},{"bike_id":"3b80d575-b6f6-47f6-86af-968f2f87e0de","system_id":"levelo_inurba_marseille","lat":43.30863,"lon":5.39629,"is_reserved":false,"is_disabled":false,"rental_uris":{"android":"levelo://app?vid=3b80d575-b6f6-47f6-86af-968f2f87e0de","ios":"levelo://app?vid=3b80d575-b6f6-47f6-86af-968f2f87e0de"},"vehicle_type_id":"4","last_reported":1742854167,"current_range_meters":12000,"station_id":"ce4bh012rcd13ifvqcv0","pricing_plan_id":"cebpf4jnsgd1na2vs0mg"},{"bike_id":"93ba6800-7c2d-4e0c-8546-d8c246ac09da","system_id":"levelo_inurba_marseille","lat":43.31317,"lon":5.39696,"is_reserved":false,"is_disabled":false,"rental_uris":{"android":"levelo://app?vid=93ba6800-7c2d-4e0c-8546-d8c246ac09da","ios":"levelo://app?vid=93ba6800-7c2d-4e0c-8546-d8c246ac09da"},"vehicle_type_id":"4","last_reported":1742854167,"current_range_meters":12000,"station_id":"ce4bgvp2rcd13ifvqcu0","pricing_plan_id":"cebpf4jnsgd1na2vs0mg"},{"bike_id":"2c49ac05-b437-4e53-a732-dd335b95df30","system_id":"levelo_inurba_marseille","lat":43.31067,"lon":5.42433,"is_reserved":false,"is_disabled":false,"rental_uris":{"android":"levelo://app?vid=2c49ac05-b437-4e53-a732-dd335b95df30","ios":"levelo://app?vid=2c49ac05-b437-4e53-a732-dd335b95df30"},"vehicle_type_id":"4","last_reported":1742854167,"current_range_meters":12000,"station_id":"","pricing_plan_id":"cebpf4jnsgd1na2vs0mg"},{"bike_id":"5cced8c2-e3b9-4f6d-88d2-83e105451a94","system_id":"levelo_inurba_marseille","lat":43.26575,"lon":5.39024,"is_reserved":false,"is_disabled":false,"rental_uris":{"android":"levelo://app?vid=5cced8c2-e3b9-4f6d-88d2-83e105451a94","ios":"levelo://app?vid=5cced8c2-e3b9-4f6d-88d2-83e105451a94"},"vehicle_type_id":"4","last_reported":1742854167,"current_range_meters":12000,"station_id":"ce4bhe12rcd13ifvqf30","pricing_plan_id":"cebpf4jnsgd1na2vs0mg"},{"bike_id":"6457a7c3-e47d-4e22-a706-55621349603c","system_id":"levelo_inurba_marseille","lat":43.26038,"lon":5.39374,"is_reserved":false,"is_disabled":false,"rental_uris":{"android":"levelo://app?vid=6457a7c3-e47d-4e22-a706-55621349603c","ios":"levelo://app?vid=6457a7c3-e47d-4e22-a706-55621349603c"},"vehicle_type_id":"4","last_reported":1742854167,"current_range_meters":12000,"station_id":"ce4bhh92rcd13ifvqfj0","pricing_plan_id":"cebpf4jnsgd1na2vs0mg"},{"bike_id":"e3f76d45-4904-44a7-aac2-e04832e991bb","system_id":"levelo_inurba_marseille","lat":43.2997,"lon":5.4133,"is_reserved":false,"is_disabled":true,"rental_uris":{"android":"levelo://app?vid=e3f76d45-4904-44a7-aac2-e04832e991bb","ios":"levelo://app?vid=e3f76d45-4904-44a7-aac2-e04832e991bb"},"vehicle_type_id":"4","last_reported":1742854167,"current_range_meters":12400,"station_id":"","pricing_plan_id":"cebpf4jnsgd1na2vs0mg"},{"bike_id":"1887fe37-51a0-4284-bd26-ea9ec274ce5e","system_id":"levelo_inurba_marseille","lat":43.25709,"lon":5.41022,"is_reserved":false,"is_disabled":false,"rental_uris":{"android":"levelo://app?vid=1887fe37-51a0-4284-bd26-ea9ec274ce5e","ios":"levelo://app?vid=1887fe37-51a0-4284-bd26-ea9ec274ce5e"},"vehicle_type_id":"4","last_reported":1742854167,"current_range_meters":12400,"station_id":"ce4bhkp2rcd13ifvqgd0","pricing_plan_id":"cebpf4jnsgd1na2vs0mg"},{"bike_id":"7da1780c-a707-4e5c-9536-83f171012129","system_id":"levelo_inurba_marseille","lat":43.31068,"lon":5.38354,"is_reserved":false,"is_disabled":false,"rental_uris":{"android":"levelo://app?vid=7da1780c-a707-4e5c-9536-83f171012129","ios":"levelo://app?vid=7da1780c-a707-4e5c-9536-83f171012129"},"vehicle_type_id":"4","last_reported":1742854167,"current_range_meters":12400,"station_id":"ce4bgv92rcd13ifvqcr0","pricing_plan_id":"cebpf4jnsgd1na2vs0mg"},{"bike_id":"e580df88-383b-4dc8-8589-a5626edc812c","system_id":"levelo_inurba_marseille","lat":43.29039,"lon":5.35907,"is_reserved":false,"is_disabled":false,"rental_uris":{"android":"levelo://app?vid=e580df88-383b-4dc8-8589-a5626edc812c","ios":"levelo://app?vid=e580df88-383b-4dc8-8589-a5626edc812c"},"vehicle_type_id":"4","last_reported":1742854167,"current_range_meters":12400,"station_id":"ce4bha92rcd13ifvqeg0","pricing_plan_id":"cebpf4jnsgd1na2vs0mg"},{"bike_id":"2f3e2a92-1301-4a27-8eaa-7b0ea525530e","system_id":"levelo_inurba_marseille","lat":43.31704,"lon":5.43703,"is_reserved":false,"is_disabled":false,"rental_uris":{"android":"levelo://app?vid=2f3e2a92-1301-4a27-8eaa-7b0ea525530e","ios":"levelo://app?vid=2f3e2a92-1301-4a27-8eaa-7b0ea525530e"},"vehicle_type_id":"4","last_reported":1742854167,"current_range_meters":12400,"station_id":"ce4bhp92rcd13ifvqhcg","pricing_plan_id":"cebpf4jnsgd1na2vs0mg"},{"bike_id":"3d50d2d4-f98c-466f-af60-d375a9debb10","system_id":"levelo_inurba_marseille","lat":43.32287,"lon":5.38269,"is_reserved":false,"is_disabled":false,"rental_uris":{"android":"levelo://app?vid=3d50d2d4-f98c-466f-af60-d375a9debb10","ios":"levelo://app?vid=3d50d2d4-f98c-466f-af60-d375a9debb10"},"vehicle_type_id":"4","last_reported":1742854167,"current_range_meters":12400,"station_id":"ce4bhr12rcd13ifvqhqg","pricing_plan_id":"cebpf4jnsgd1na2vs0mg"},{"bike_id":"9ef54973-d7d7-4db7-9359-823fb08a91ad","system_id":"levelo_inurba_marseille","lat":43.23977,"lon":5.36613,"is_reserved":false,"is_disabled":false,"rental_uris":{"android":"levelo://app?vid=9ef54973-d7d7-4db7-9359-823fb08a91ad","ios":"levelo://app?vid=9ef54973-d7d7-4db7-9359-823fb08a91ad"},"vehicle_type_id":"4","last_reported":1742854167,"current_range_meters":12400,"station_id":"ce4bhi12rcd13ifvqfp0","pricing_plan_id":"cebpf4jnsgd1na2vs0mg"},{"bike_id":"909d119a-3ce7-4d3c-8e09-401f0c93b321","system_id":"levelo_inurba_marseille","lat":43.272471,"lon":5.390696,"is_reserved":false,"is_disabled":false,"rental_uris":{"android":"levelo://app?vid=909d119a-3ce7-4d3c-8e09-401f0c93b321","ios":"levelo://app?vid=909d119a-3ce7-4d3c-8e09-401f0c93b321"},"vehicle_type_id":"4","last_reported":1742854167,"current_range_meters":12000,"station_id":"ce4bhg92rcd13ifvqf90","pricing_plan_id":"cebpf4jnsgd1na2vs0mg"},{"bike_id":"0a2fd2bd-0465-4490-8bf0-a948a7c174a7","system_id":"levelo_inurba_marseille","lat":43.26574,"lon":5.39015,"is_reserved":false,"is_disabled":true,"rental_uris":{"android":"levelo://app?vid=0a2fd2bd-0465-4490-8bf0-a948a7c174a7","ios":"levelo://app?vid=0a2fd2bd-0465-4490-8bf0-a948a7c174a7"},"vehicle_type_id":"4","last_reported":1742854167,"current_range_meters":12400,"station_id":"ce4bhe12rcd13ifvqf30","pricing_plan_id":"cebpf4jnsgd1na2vs0mg"},{"bike_id":"8772847d-49d3-4c26-b827-fa0194087d57","system_id":"levelo_inurba_marseille","lat":43.28456,"lon":5.35888,"is_reserved":false,"is_disabled":false,"rental_uris":{"android":"levelo://app?vid=8772847d-49d3-4c26-b827-fa0194087d57","ios":"levelo://app?vid=8772847d-49d3-4c26-b827-fa0194087d57"},"vehicle_type_id":"4","last_reported":1742854167,"current_range_meters":12400,"station_id":"ce4bhah2rcd13ifvqei0","pricing_plan_id":"cebpf4jnsgd1na2vs0mg"},{"bike_id":"cfba7878-c036-461e-a1a6-18cd6c9a5373","system_id":"levelo_inurba_marseille","lat":43.30247,"lon":5.40087,"is_reserved":false,"is_disabled":false,"rental_uris":{"android":"levelo://app?vid=cfba7878-c036-461e-a1a6-18cd6c9a5373","ios":"levelo://app?vid=cfba7878-c036-461e-a1a6-18cd6c9a5373"},"vehicle_type_id":"4","last_reported":1742854167,"current_range_meters":12400,"station_id":"","pricing_plan_id":"cebpf4jnsgd1na2vs0mg"},{"bike_id":"134a205d-46ae-4dee-8c1a-5e151dd78ec4","system_id":"levelo_inurba_marseille","lat":43.32982,"lon":5.39038,"is_reserved":false,"is_disabled":false,"rental_uris":{"android":"levelo://app?vid=134a205d-46ae-4dee-8c1a-5e151dd78ec4","ios":"levelo://app?vid=134a205d-46ae-4dee-8c1a-5e151dd78ec4"},"vehicle_type_id":"4","last_reported":1742854167,"current_range_meters":12800,"station_id":"","pricing_plan_id":"cebpf4jnsgd1na2vs0mg"},{"bike_id":"552fb8ff-98a7-4106-b06d-1880af44f89c","system_id":"levelo_inurba_marseille","lat":43.30071,"lon":5.39067,"is_reserved":false,"is_disabled":false,"rental_uris":{"android":"levelo://app?vid=552fb8ff-98a7-4106-b06d-1880af44f89c","ios":"levelo://app?vid=552fb8ff-98a7-4106-b06d-1880af44f89c"},"vehicle_type_id":"4","last_reported":1742854167,"current_range_meters":12800,"station_id":"ce4bh192rcd13ifvqdb0","pricing_plan_id":"cebpf4jnsgd1na2vs0mg"},{"bike_id":"1cd0e0bf-6fff-4d8c-86cf-a6eae67b1e4c","system_id":"levelo_inurba_marseille","lat":43.299273,"lon":5.365313,"is_reserved":false,"is_disabled":false,"rental_uris":{"android":"levelo://app?vid=1cd0e0bf-6fff-4d8c-86cf-a6eae67b1e4c","ios":"levelo://app?vid=1cd0e0bf-6fff-4d8c-86cf-a6eae67b1e4c"},"vehicle_type_id":"4","last_reported":1742854167,"current_range_meters":12800,"station_id":"ce4bgm92rcd13ifvqbr0","pricing_plan_id":"cebpf4jnsgd1na2vs0mg"},{"bike_id":"fee8dabf-4af3-4655-9fe1-7a1172d14609","system_id":"levelo_inurba_marseille","lat":43.27815,"lon":5.40749,"is_reserved":false,"is_disabled":false,"rental_uris":{"android":"levelo://app?vid=fee8dabf-4af3-4655-9fe1-7a1172d14609","ios":"levelo://app?vid=fee8dabf-4af3-4655-9fe1-7a1172d14609"},"vehicle_type_id":"4","last_reported":1742854167,"current_range_meters":12800,"station_id":"ce4bhnh2rcd13ifvqgtg","pricing_plan_id":"cebpf4jnsgd1na2vs0mg"},{"bike_id":"8f208df7-81e0-45c5-bd98-a49c85a38fa2","system_id":"levelo_inurba_marseille","lat":43.30317,"lon":5.36907,"is_reserved":false,"is_disabled":false,"rental_uris":{"android":"levelo://app?vid=8f208df7-81e0-45c5-bd98-a49c85a38fa2","ios":"levelo://app?vid=8f208df7-81e0-45c5-bd98-a49c85a38fa2"},"vehicle_type_id":"4","last_reported":1742854167,"current_range_meters":12800,"station_id":"ce4bgqh2rcd13ifvqc5g","pricing_plan_id":"cebpf4jnsgd1na2vs0mg"},{"bike_id":"6deae9dd-bbf2-400a-8902-a52b44f8b4d7","system_id":"levelo_inurba_marseille","lat":43.28694,"lon":5.39991,"is_reserved":false,"is_disabled":false,"rental_uris":{"android":"levelo://app?vid=6deae9dd-bbf2-400a-8902-a52b44f8b4d7","ios":"levelo://app?vid=6deae9dd-bbf2-400a-8902-a52b44f8b4d7"},"vehicle_type_id":"4","last_reported":1742854167,"current_range_meters":12800,"station_id":"ce4bho92rcd13ifvqh3g","pricing_plan_id":"cebpf4jnsgd1na2vs0mg"},{"bike_id":"6adb5407-e228-44f4-a1da-80d9852b3164","system_id":"levelo_inurba_marseille","lat":43.25005,"lon":5.38914,"is_reserved":false,"is_disabled":false,"rental_uris":{"android":"levelo://app?vid=6adb5407-e228-44f4-a1da-80d9852b3164","ios":"levelo://app?vid=6adb5407-e228-44f4-a1da-80d9852b3164"},"vehicle_type_id":"4","last_reported":1742854167,"current_range_meters":12800,"station_id":"ce4bhgp2rcd13ifvqfd0","pricing_plan_id":"cebpf4jnsgd1na2vs0mg"},{"bike_id":"89e75ed9-7f20-48f7-ad37-e0033e47c633","system_id":"levelo_inurba_marseille","lat":43.24641,"lon":5.38887,"is_reserved":false,"is_disabled":false,"rental_uris":{"android":"levelo://app?vid=89e75ed9-7f20-48f7-ad37-e0033e47c633","ios":"levelo://app?vid=89e75ed9-7f20-48f7-ad37-e0033e47c633"},"vehicle_type_id":"4","last_reported":1742854167,"current_range_meters":12800,"station_id":"ce4bhg12rcd13ifvqf60","pricing_plan_id":"cebpf4jnsgd1na2vs0mg"},{"bike_id":"b28ecb00-2b9b-4665-8ad5-1aeb61554a5a","system_id":"levelo_inurba_marseille","lat":43.29912,"lon":5.39737,"is_reserved":false,"is_disabled":false,"rental_uris":{"android":"levelo://app?vid=b28ecb00-2b9b-4665-8ad5-1aeb61554a5a","ios":"levelo://app?vid=b28ecb00-2b9b-4665-8ad5-1aeb61554a5a"},"vehicle_type_id":"4","last_reported":1742854167,"current_range_meters":13600,"station_id":"ce4bh0h2rcd13ifvqd50","pricing_plan_id":"cebpf4jnsgd1na2vs0mg"},{"bike_id":"033fd02a-369d-47fa-80d8-6fc1b8da07f1","system_id":"levelo_inurba_marseille","lat":43.30658,"lon":5.40074,"is_reserved":false,"is_disabled":false,"rental_uris":{"android":"levelo://app?vid=033fd02a-369d-47fa-80d8-6fc1b8da07f1","ios":"levelo://app?vid=033fd02a-369d-47fa-80d8-6fc1b8da07f1"},"vehicle_type_id":"4","last_reported":1742854167,"current_range_meters":13600,"station_id":"ce4bh112rcd13ifvqda0","pricing_plan_id":"cebpf4jnsgd1na2vs0mg"},{"bike_id":"2f95d84a-f03d-40d7-98e6-71c071e2bbde","system_id":"levelo_inurba_marseille","lat":43.28063,"lon":5.39663,"is_reserved":false,"is_disabled":false,"rental_uris":{"android":"levelo://app?vid=2f95d84a-f03d-40d7-98e6-71c071e2bbde","ios":"levelo://app?vid=2f95d84a-f03d-40d7-98e6-71c071e2bbde"},"vehicle_type_id":"4","last_reported":1742854167,"current_range_meters":13600,"station_id":"ce4bho12rcd13ifvqh2g","pricing_plan_id":"cebpf4jnsgd1na2vs0mg"},{"bike_id":"b4601df0-b0e0-46ad-afa6-1d44767e23db","system_id":"levelo_inurba_marseille","lat":43.29724,"lon":5.36605,"is_reserved":false,"is_disabled":false,"rental_uris":{"android":"levelo://app?vid=b4601df0-b0e0-46ad-afa6-1d44767e23db","ios":"levelo://app?vid=b4601df0-b0e0-46ad-afa6-1d44767e23db"},"vehicle_type_id":"4","last_reported":1742854167,"current_range_meters":13600,"station_id":"ce4bgn12rcd13ifvqbt0","pricing_plan_id":"cebpf4jnsgd1na2vs0mg"},{"bike_id":"d7c9b119-99cc-4acd-80c4-6ecaf67a26b1","system_id":"levelo_inurba_marseille","lat":43.23055,"lon":5.3552,"is_reserved":false,"is_disabled":false,"rental_uris":{"android":"levelo://app?vid=d7c9b119-99cc-4acd-80c4-6ecaf67a26b1","ios":"levelo://app?vid=d7c9b119-99cc-4acd-80c4-6ecaf67a26b1"},"vehicle_type_id":"4","last_reported":1742854167,"current_range_meters":13600,"station_id":"cpo3342slgdg3j2ifvpg","pricing_plan_id":"cebpf4jnsgd1na2vs0mg"},{"bike_id":"9d901bcb-7adf-402a-b67f-43b2cf34de78","system_id":"levelo_inurba_marseille","lat":43.28711,"lon":5.36115,"is_reserved":false,"is_disabled":false,"rental_uris":{"android":"levelo://app?vid=9d901bcb-7adf-402a-b67f-43b2cf34de78","ios":"levelo://app?vid=9d901bcb-7adf-402a-b67f-43b2cf34de78"},"vehicle_type_id":"4","last_reported":1742854167,"current_range_meters":13600,"station_id":"cki0cbj6b192h4jlfktg","pricing_plan_id":"cebpf4jnsgd1na2vs0mg"},{"bike_id":"4ce487c6-19fa-4f48-9bdd-3b50e801366f","system_id":"levelo_inurba_marseille","lat":43.27979,"lon":5.38739,"is_reserved":false,"is_disabled":false,"rental_uris":{"android":"levelo://app?vid=4ce487c6-19fa-4f48-9bdd-3b50e801366f","ios":"levelo://app?vid=4ce487c6-19fa-4f48-9bdd-3b50e801366f"},"vehicle_type_id":"4","last_reported":1742854167,"current_range_meters":13600,"station_id":"ce4bhg12rcd13ifvqf80","pricing_plan_id":"cebpf4jnsgd1na2vs0mg"},{"bike_id":"459f06fa-c531-4c1c-bac4-e41df8e788f4","system_id":"levelo_inurba_marseille","lat":43.298638,"lon":5.397475,"is_reserved":false,"is_disabled":false,"rental_uris":{"android":"levelo://app?vid=459f06fa-c531-4c1c-bac4-e41df8e788f4","ios":"levelo://app?vid=459f06fa-c531-4c1c-bac4-e41df8e788f4"},"vehicle_type_id":"4","last_reported":1742854167,"current_range_meters":14000,"station_id":"ce4bh0h2rcd13ifvqd50","pricing_plan_id":"cebpf4jnsgd1na2vs0mg"},{"bike_id":"74406c35-ee35-437d-be26-2d7711378046","system_id":"levelo_inurba_marseille","lat":43.32359,"lon":5.36767,"is_reserved":false,"is_disabled":false,"rental_uris":{"android":"levelo://app?vid=74406c35-ee35-437d-be26-2d7711378046","ios":"levelo://app?vid=74406c35-ee35-437d-be26-2d7711378046"},"vehicle_type_id":"4","last_reported":1742854167,"current_range_meters":14000,"station_id":"ce4bhsh2rcd13ifvqi2g","pricing_plan_id":"cebpf4jnsgd1na2vs0mg"},{"bike_id":"0ccd79b2-51ea-4b93-86a9-89925d01380f","system_id":"levelo_inurba_marseille","lat":43.23961,"lon":5.36617,"is_reserved":false,"is_disabled":false,"rental_uris":{"android":"levelo://app?vid=0ccd79b2-51ea-4b93-86a9-89925d01380f","ios":"levelo://app?vid=0ccd79b2-51ea-4b93-86a9-89925d01380f"},"vehicle_type_id":"4","last_reported":1742854167,"current_range_meters":14000,"station_id":"ce4bhi12rcd13ifvqfp0","pricing_plan_id":"cebpf4jnsgd1na2vs0mg"},{"bike_id":"c4036fd6-54b1-428a-b2ae-ac7c8c7cec48","system_id":"levelo_inurba_marseille","lat":43.28037,"lon":5.36951,"is_reserved":false,"is_disabled":false,"rental_uris":{"android":"levelo://app?vid=c4036fd6-54b1-428a-b2ae-ac7c8c7cec48","ios":"levelo://app?vid=c4036fd6-54b1-428a-b2ae-ac7c8c7cec48"},"vehicle_type_id":"4","last_reported":1742854167,"current_range_meters":14000,"station_id":"ce4bha12rcd13ifvqef0","pricing_plan_id":"cebpf4jnsgd1na2vs0mg"},{"bike_id":"c67b1c67-c041-427c-95f8-4becb2af791c","system_id":"levelo_inurba_marseille","lat":43.30638,"lon":5.4005,"is_reserved":false,"is_disabled":false,"rental_uris":{"android":"levelo://app?vid=c67b1c67-c041-427c-95f8-4becb2af791c","ios":"levelo://app?vid=c67b1c67-c041-427c-95f8-4becb2af791c"},"vehicle_type_id":"4","last_reported":1742854167,"current_range_meters":14000,"station_id":"ce4bh112rcd13ifvqda0","pricing_plan_id":"cebpf4jnsgd1na2vs0mg"},{"bike_id":"e442328f-4a29-40fe-a8c4-d4c2f7630696","system_id":"levelo_inurba_marseille","lat":43.28713,"lon":5.36106,"is_reserved":false,"is_disabled":false,"rental_uris":{"android":"levelo://app?vid=e442328f-4a29-40fe-a8c4-d4c2f7630696","ios":"levelo://app?vid=e442328f-4a29-40fe-a8c4-d4c2f7630696"},"vehicle_type_id":"4","last_reported":1742854167,"current_range_meters":14000,"station_id":"cki0cbj6b192h4jlfktg","pricing_plan_id":"cebpf4jnsgd1na2vs0mg"},{"bike_id":"31853493-08cd-48ca-8af6-a1f588cefafe","system_id":"levelo_inurba_marseille","lat":43.25828,"lon":5.39453,"is_reserved":false,"is_disabled":false,"rental_uris":{"android":"levelo://app?vid=31853493-08cd-48ca-8af6-a1f588cefafe","ios":"levelo://app?vid=31853493-08cd-48ca-8af6-a1f588cefafe"},"vehicle_type_id":"4","last_reported":1742854167,"current_range_meters":14000,"station_id":"ce4bhip2rcd13ifvqft0","pricing_plan_id":"cebpf4jnsgd1na2vs0mg"},{"bike_id":"8583bcae-e817-4db7-ab92-448c595780ea","system_id":"levelo_inurba_marseille","lat":43.33018,"lon":5.39042,"is_reserved":false,"is_disabled":false,"rental_uris":{"android":"levelo://app?vid=8583bcae-e817-4db7-ab92-448c595780ea","ios":"levelo://app?vid=8583bcae-e817-4db7-ab92-448c595780ea"},"vehicle_type_id":"4","last_reported":1742854167,"current_range_meters":14000,"station_id":"","pricing_plan_id":"cebpf4jnsgd1na2vs0mg"},{"bike_id":"11638dcf-c183-4940-bebb-985f736789bf","system_id":"levelo_inurba_marseille","lat":43.27674,"lon":5.38872,"is_reserved":false,"is_disabled":true,"rental_uris":{"android":"levelo://app?vid=11638dcf-c183-4940-bebb-985f736789bf","ios":"levelo://app?vid=11638dcf-c183-4940-bebb-985f736789bf"},"vehicle_type_id":"4","last_reported":1742854167,"current_range_meters":14400,"station_id":"ce4bhi12rcd13ifvqfo0","pricing_plan_id":"cebpf4jnsgd1na2vs0mg"},{"bike_id":"a18d6c1a-a883-4771-be1b-f48bcf1c35ff","system_id":"levelo_inurba_marseille","lat":43.30791,"lon":5.37655,"is_reserved":false,"is_disabled":false,"rental_uris":{"android":"levelo://app?vid=a18d6c1a-a883-4771-be1b-f48bcf1c35ff","ios":"levelo://app?vid=a18d6c1a-a883-4771-be1b-f48bcf1c35ff"},"vehicle_type_id":"4","last_reported":1742854167,"current_range_meters":14400,"station_id":"ce4bgv92rcd13ifvqcq0","pricing_plan_id":"cebpf4jnsgd1na2vs0mg"},{"bike_id":"670214b8-0c1a-44c6-9ec1-e4e7883cf534","system_id":"levelo_inurba_marseille","lat":43.30534,"lon":5.36537,"is_reserved":false,"is_disabled":false,"rental_uris":{"android":"levelo://app?vid=670214b8-0c1a-44c6-9ec1-e4e7883cf534","ios":"levelo://app?vid=670214b8-0c1a-44c6-9ec1-e4e7883cf534"},"vehicle_type_id":"4","last_reported":1742854167,"current_range_meters":14400,"station_id":"ce4bgs12rcd13ifvqcag","pricing_plan_id":"cebpf4jnsgd1na2vs0mg"},{"bike_id":"e1e35c11-11be-4d6b-9a98-3de91e1bd819","system_id":"levelo_inurba_marseille","lat":43.32488,"lon":5.365699,"is_reserved":false,"is_disabled":false,"rental_uris":{"android":"levelo://app?vid=e1e35c11-11be-4d6b-9a98-3de91e1bd819","ios":"levelo://app?vid=e1e35c11-11be-4d6b-9a98-3de91e1bd819"},"vehicle_type_id":"4","last_reported":1742854167,"current_range_meters":14400,"station_id":"ce4bhs12rcd13ifvqhvg","pricing_plan_id":"cebpf4jnsgd1na2vs0mg"},{"bike_id":"18a7fec5-cd4f-470b-b4aa-49a452d96c3f","system_id":"levelo_inurba_marseille","lat":43.30596,"lon":5.39347,"is_reserved":false,"is_disabled":true,"rental_uris":{"android":"levelo://app?vid=18a7fec5-cd4f-470b-b4aa-49a452d96c3f","ios":"levelo://app?vid=18a7fec5-cd4f-470b-b4aa-49a452d96c3f"},"vehicle_type_id":"4","last_reported":1742854167,"current_range_meters":14400,"station_id":"ce4bh0p2rcd13ifvqd80","pricing_plan_id":"cebpf4jnsgd1na2vs0mg"},{"bike_id":"94df6655-8453-45e4-b17a-34e66183c626","system_id":"levelo_inurba_marseille","lat":43.28721,"lon":5.37937,"is_reserved":false,"is_disabled":false,"rental_uris":{"android":"levelo://app?vid=94df6655-8453-45e4-b17a-34e66183c626","ios":"levelo://app?vid=94df6655-8453-45e4-b17a-34e66183c626"},"vehicle_type_id":"4","last_reported":1742854167,"current_range_meters":14400,"station_id":"ce4bh9p2rcd13ifvqec0","pricing_plan_id":"cebpf4jnsgd1na2vs0mg"},{"bike_id":"7e33566a-9a58-432c-9da1-39735f637eff","system_id":"levelo_inurba_marseille","lat":43.286015,"lon":5.350905,"is_reserved":false,"is_disabled":false,"rental_uris":{"android":"levelo://app?vid=7e33566a-9a58-432c-9da1-39735f637eff","ios":"levelo://app?vid=7e33566a-9a58-432c-9da1-39735f637eff"},"vehicle_type_id":"4","last_reported":1742854167,"current_range_meters":14400,"station_id":"ce4bhch2rcd13ifvqeug","pricing_plan_id":"cebpf4jnsgd1na2vs0mg"},{"bike_id":"0d89eca0-5671-404f-88cc-d263b1555cb5","system_id":"levelo_inurba_marseille","lat":43.25735,"lon":5.41076,"is_reserved":false,"is_disabled":false,"rental_uris":{"android":"levelo://app?vid=0d89eca0-5671-404f-88cc-d263b1555cb5","ios":"levelo://app?vid=0d89eca0-5671-404f-88cc-d263b1555cb5"},"vehicle_type_id":"4","last_reported":1742854167,"current_range_meters":14400,"station_id":"","pricing_plan_id":"cebpf4jnsgd1na2vs0mg"},{"bike_id":"7c2de8e8-262f-4f95-b05b-b7ebfc116ad0","system_id":"levelo_inurba_marseille","lat":43.28734,"lon":5.36089,"is_reserved":false,"is_disabled":false,"rental_uris":{"android":"levelo://app?vid=7c2de8e8-262f-4f95-b05b-b7ebfc116ad0","ios":"levelo://app?vid=7c2de8e8-262f-4f95-b05b-b7ebfc116ad0"},"vehicle_type_id":"4","last_reported":1742854167,"current_range_meters":14400,"station_id":"cki0cbj6b192h4jlfktg","pricing_plan_id":"cebpf4jnsgd1na2vs0mg"},{"bike_id":"4ef28296-00e9-4e4f-8ca3-3c012ef41f8f","system_id":"levelo_inurba_marseille","lat":43.27901,"lon":5.38016,"is_reserved":false,"is_disabled":false,"rental_uris":{"android":"levelo://app?vid=4ef28296-00e9-4e4f-8ca3-3c012ef41f8f","ios":"levelo://app?vid=4ef28296-00e9-4e4f-8ca3-3c012ef41f8f"},"vehicle_type_id":"4","last_reported":1742854167,"current_range_meters":14800,"station_id":"ce4bhf92rcd13ifvqf50","pricing_plan_id":"cebpf4jnsgd1na2vs0mg"},{"bike_id":"dea1f70c-3a59-4563-bb09-a9d3b04a8744","system_id":"levelo_inurba_marseille","lat":43.25845,"lon":5.3887,"is_reserved":false,"is_disabled":false,"rental_uris":{"android":"levelo://app?vid=dea1f70c-3a59-4563-bb09-a9d3b04a8744","ios":"levelo://app?vid=dea1f70c-3a59-4563-bb09-a9d3b04a8744"},"vehicle_type_id":"4","last_reported":1742854167,"current_range_meters":14800,"station_id":"","pricing_plan_id":"cebpf4jnsgd1na2vs0mg"},{"bike_id":"6633349b-54ae-41b8-88d5-61ec5d012302","system_id":"levelo_inurba_marseille","lat":43.32097,"lon":5.36804,"is_reserved":false,"is_disabled":false,"rental_uris":{"android":"levelo://app?vid=6633349b-54ae-41b8-88d5-61ec5d012302","ios":"levelo://app?vid=6633349b-54ae-41b8-88d5-61ec5d012302"},"vehicle_type_id":"4","last_reported":1742854167,"current_range_meters":14800,"station_id":"ce4bhrh2rcd13ifvqhug","pricing_plan_id":"cebpf4jnsgd1na2vs0mg"},{"bike_id":"779911e8-6b05-446d-8c68-8ad7891b5283","system_id":"levelo_inurba_marseille","lat":43.27813,"lon":5.39211,"is_reserved":false,"is_disabled":false,"rental_uris":{"android":"levelo://app?vid=779911e8-6b05-446d-8c68-8ad7891b5283","ios":"levelo://app?vid=779911e8-6b05-446d-8c68-8ad7891b5283"},"vehicle_type_id":"4","last_reported":1742854167,"current_range_meters":14400,"station_id":"ce4bhjp2rcd13ifvqga0","pricing_plan_id":"cebpf4jnsgd1na2vs0mg"},{"bike_id":"844d3370-21e5-4de2-9d45-2b091e1157d6","system_id":"levelo_inurba_marseille","lat":43.23955,"lon":5.36648,"is_reserved":false,"is_disabled":false,"rental_uris":{"android":"levelo://app?vid=844d3370-21e5-4de2-9d45-2b091e1157d6","ios":"levelo://app?vid=844d3370-21e5-4de2-9d45-2b091e1157d6"},"vehicle_type_id":"4","last_reported":1742854167,"current_range_meters":14800,"station_id":"ce4bhi12rcd13ifvqfp0","pricing_plan_id":"cebpf4jnsgd1na2vs0mg"},{"bike_id":"16d1a1e8-6833-46ef-8ac2-dd05daf383fb","system_id":"levelo_inurba_marseille","lat":43.27138,"lon":5.41666,"is_reserved":false,"is_disabled":false,"rental_uris":{"android":"levelo://app?vid=16d1a1e8-6833-46ef-8ac2-dd05daf383fb","ios":"levelo://app?vid=16d1a1e8-6833-46ef-8ac2-dd05daf383fb"},"vehicle_type_id":"4","last_reported":1742854167,"current_range_meters":14800,"station_id":"","pricing_plan_id":"cebpf4jnsgd1na2vs0mg"},{"bike_id":"7fe0c669-25a5-42e0-9ce2-dd43cabfc55e","system_id":"levelo_inurba_marseille","lat":43.29818,"lon":5.40395,"is_reserved":false,"is_disabled":false,"rental_uris":{"android":"levelo://app?vid=7fe0c669-25a5-42e0-9ce2-dd43cabfc55e","ios":"levelo://app?vid=7fe0c669-25a5-42e0-9ce2-dd43cabfc55e"},"vehicle_type_id":"4","last_reported":1742854167,"current_range_meters":14800,"station_id":"ce4bh112rcd13ifvqd90","pricing_plan_id":"cebpf4jnsgd1na2vs0mg"},{"bike_id":"71d053fe-72cd-4674-8064-9f91eaaa9762","system_id":"levelo_inurba_marseille","lat":43.28477,"lon":5.3856,"is_reserved":false,"is_disabled":true,"rental_uris":{"android":"levelo://app?vid=71d053fe-72cd-4674-8064-9f91eaaa9762","ios":"levelo://app?vid=71d053fe-72cd-4674-8064-9f91eaaa9762"},"vehicle_type_id":"4","last_reported":1742854167,"current_range_meters":14800,"station_id":"ce4bh8p2rcd13ifvqeb0","pricing_plan_id":"cebpf4jnsgd1na2vs0mg"},{"bike_id":"319fbde0-f02d-47c8-9ea3-00bb37a99bb2","system_id":"levelo_inurba_marseille","lat":43.24536,"lon":5.39521,"is_reserved":false,"is_disabled":false,"rental_uris":{"android":"levelo://app?vid=319fbde0-f02d-47c8-9ea3-00bb37a99bb2","ios":"levelo://app?vid=319fbde0-f02d-47c8-9ea3-00bb37a99bb2"},"vehicle_type_id":"4","last_reported":1742854167,"current_range_meters":15200,"station_id":"ce4bhlp2rcd13ifvqgjg","pricing_plan_id":"cebpf4jnsgd1na2vs0mg"},{"bike_id":"732afde0-16d7-4f20-9b67-df36751d524c","system_id":"levelo_inurba_marseille","lat":43.29589,"lon":5.37371,"is_reserved":false,"is_disabled":false,"rental_uris":{"android":"levelo://app?vid=732afde0-16d7-4f20-9b67-df36751d524c","ios":"levelo://app?vid=732afde0-16d7-4f20-9b67-df36751d524c"},"vehicle_type_id":"4","last_reported":1742854167,"current_range_meters":15200,"station_id":"","pricing_plan_id":"cebpf4jnsgd1na2vs0mg"},{"bike_id":"bb58f931-d39b-4674-bcbc-5096c1d815e7","system_id":"levelo_inurba_marseille","lat":43.24163,"lon":5.39727,"is_reserved":false,"is_disabled":false,"rental_uris":{"android":"levelo://app?vid=bb58f931-d39b-4674-bcbc-5096c1d815e7","ios":"levelo://app?vid=bb58f931-d39b-4674-bcbc-5096c1d815e7"},"vehicle_type_id":"4","last_reported":1742854167,"current_range_meters":15200,"station_id":"","pricing_plan_id":"cebpf4jnsgd1na2vs0mg"},{"bike_id":"25b9f0e6-edd8-46f6-9e22-276841eb5546","system_id":"levelo_inurba_marseille","lat":43.29705,"lon":5.36588,"is_reserved":false,"is_disabled":false,"rental_uris":{"android":"levelo://app?vid=25b9f0e6-edd8-46f6-9e22-276841eb5546","ios":"levelo://app?vid=25b9f0e6-edd8-46f6-9e22-276841eb5546"},"vehicle_type_id":"4","last_reported":1742854167,"current_range_meters":16000,"station_id":"ce4bgn12rcd13ifvqbt0","pricing_plan_id":"cebpf4jnsgd1na2vs0mg"},{"bike_id":"481bb1ff-e869-4e0c-bff6-d144a56689b8","system_id":"levelo_inurba_marseille","lat":43.31374,"lon":5.38499,"is_reserved":false,"is_disabled":false,"rental_uris":{"android":"levelo://app?vid=481bb1ff-e869-4e0c-bff6-d144a56689b8","ios":"levelo://app?vid=481bb1ff-e869-4e0c-bff6-d144a56689b8"},"vehicle_type_id":"4","last_reported":1742854167,"current_range_meters":16000,"station_id":"ce4bgt92rcd13ifvqcf0","pricing_plan_id":"cebpf4jnsgd1na2vs0mg"},{"bike_id":"653815b1-cbe6-45a2-92aa-a1b7d05a609d","system_id":"levelo_inurba_marseille","lat":43.27497,"lon":5.42449,"is_reserved":false,"is_disabled":false,"rental_uris":{"android":"levelo://app?vid=653815b1-cbe6-45a2-92aa-a1b7d05a609d","ios":"levelo://app?vid=653815b1-cbe6-45a2-92aa-a1b7d05a609d"},"vehicle_type_id":"4","last_reported":1742854167,"current_range_meters":16000,"station_id":"ce4bhn92rcd13ifvqgrg","pricing_plan_id":"cebpf4jnsgd1na2vs0mg"},{"bike_id":"26fa24fb-ac6c-440b-833a-f02e8547dc9a","system_id":"levelo_inurba_marseille","lat":43.30916,"lon":5.36842,"is_reserved":false,"is_disabled":false,"rental_uris":{"android":"levelo://app?vid=26fa24fb-ac6c-440b-833a-f02e8547dc9a","ios":"levelo://app?vid=26fa24fb-ac6c-440b-833a-f02e8547dc9a"},"vehicle_type_id":"4","last_reported":1742854167,"current_range_meters":16000,"station_id":"ce4bgn92rcd13ifvqbvg","pricing_plan_id":"cebpf4jnsgd1na2vs0mg"},{"bike_id":"b713c937-1b64-4737-8dbd-ff46df1e71b5","system_id":"levelo_inurba_marseille","lat":43.29277,"lon":5.36855,"is_reserved":false,"is_disabled":false,"rental_uris":{"android":"levelo://app?vid=b713c937-1b64-4737-8dbd-ff46df1e71b5","ios":"levelo://app?vid=b713c937-1b64-4737-8dbd-ff46df1e71b5"},"vehicle_type_id":"4","last_reported":1742854167,"current_range_meters":16000,"station_id":"ce4bhbp2rcd13ifvqesg","pricing_plan_id":"cebpf4jnsgd1na2vs0mg"},{"bike_id":"3a507784-1e32-42f9-9210-f04a2955b962","system_id":"levelo_inurba_marseille","lat":43.28047,"lon":5.39616,"is_reserved":false,"is_disabled":false,"rental_uris":{"android":"levelo://app?vid=3a507784-1e32-42f9-9210-f04a2955b962","ios":"levelo://app?vid=3a507784-1e32-42f9-9210-f04a2955b962"},"vehicle_type_id":"4","last_reported":1742854167,"current_range_meters":16000,"station_id":"ce4bho12rcd13ifvqh2g","pricing_plan_id":"cebpf4jnsgd1na2vs0mg"},{"bike_id":"c17e766d-72fd-4570-b62c-2beb5e983b80","system_id":"levelo_inurba_marseille","lat":43.28685,"lon":5.37417,"is_reserved":false,"is_disabled":false,"rental_uris":{"android":"levelo://app?vid=c17e766d-72fd-4570-b62c-2beb5e983b80","ios":"levelo://app?vid=c17e766d-72fd-4570-b62c-2beb5e983b80"},"vehicle_type_id":"4","last_reported":1742854167,"current_range_meters":16000,"station_id":"ce4bh3p2rcd13ifvqdq0","pricing_plan_id":"cebpf4jnsgd1na2vs0mg"},{"bike_id":"00d8699e-eac7-4b25-a5e5-4d2f462e0645","system_id":"levelo_inurba_marseille","lat":43.23185,"lon":5.39977,"is_reserved":false,"is_disabled":false,"rental_uris":{"android":"levelo://app?vid=00d8699e-eac7-4b25-a5e5-4d2f462e0645","ios":"levelo://app?vid=00d8699e-eac7-4b25-a5e5-4d2f462e0645"},"vehicle_type_id":"4","last_reported":1742854167,"current_range_meters":16000,"station_id":"ce4bhn12rcd13ifvqgqg","pricing_plan_id":"cebpf4jnsgd1na2vs0mg"},{"bike_id":"04357187-31a2-4621-9b88-fc476381d72a","system_id":"levelo_inurba_marseille","lat":43.25819,"lon":5.39441,"is_reserved":false,"is_disabled":false,"rental_uris":{"android":"levelo://app?vid=04357187-31a2-4621-9b88-fc476381d72a","ios":"levelo://app?vid=04357187-31a2-4621-9b88-fc476381d72a"},"vehicle_type_id":"4","last_reported":1742854167,"current_range_meters":16000,"station_id":"ce4bhip2rcd13ifvqft0","pricing_plan_id":"cebpf4jnsgd1na2vs0mg"},{"bike_id":"38351309-2dec-417c-a558-74c8bc991036","system_id":"levelo_inurba_marseille","lat":43.30798,"lon":5.40672,"is_reserved":false,"is_disabled":true,"rental_uris":{"android":"levelo://app?vid=38351309-2dec-417c-a558-74c8bc991036","ios":"levelo://app?vid=38351309-2dec-417c-a558-74c8bc991036"},"vehicle_type_id":"4","last_reported":1742854167,"current_range_meters":16000,"station_id":"","pricing_plan_id":"cebpf4jnsgd1na2vs0mg"},{"bike_id":"b599ec8c-9116-4cb3-980c-d0a7d1e83114","system_id":"levelo_inurba_marseille","lat":43.324746,"lon":5.365648,"is_reserved":false,"is_disabled":false,"rental_uris":{"android":"levelo://app?vid=b599ec8c-9116-4cb3-980c-d0a7d1e83114","ios":"levelo://app?vid=b599ec8c-9116-4cb3-980c-d0a7d1e83114"},"vehicle_type_id":"4","last_reported":1742854167,"current_range_meters":16000,"station_id":"ce4bhs12rcd13ifvqhvg","pricing_plan_id":"cebpf4jnsgd1na2vs0mg"},{"bike_id":"4a3cef67-7854-486a-96a1-875577c9d100","system_id":"levelo_inurba_marseille","lat":43.280891,"lon":5.396591,"is_reserved":false,"is_disabled":true,"rental_uris":{"android":"levelo://app?vid=4a3cef67-7854-486a-96a1-875577c9d100","ios":"levelo://app?vid=4a3cef67-7854-486a-96a1-875577c9d100"},"vehicle_type_id":"4","last_reported":1742854167,"current_range_meters":16000,"station_id":"ce4bho12rcd13ifvqh2g","pricing_plan_id":"cebpf4jnsgd1na2vs0mg"},{"bike_id":"98d38a64-15b2-410c-b614-5635d097b9ba","system_id":"levelo_inurba_marseille","lat":43.30305,"lon":5.3924,"is_reserved":false,"is_disabled":true,"rental_uris":{"android":"levelo://app?vid=98d38a64-15b2-410c-b614-5635d097b9ba","ios":"levelo://app?vid=98d38a64-15b2-410c-b614-5635d097b9ba"},"vehicle_type_id":"4","last_reported":1742854167,"current_range_meters":16000,"station_id":"ce4bgkh2rcd13ifvqbk0","pricing_plan_id":"cebpf4jnsgd1na2vs0mg"},{"bike_id":"ddad4632-6929-4629-9bc8-25db62ffd75b","system_id":"levelo_inurba_marseille","lat":43.28013,"lon":5.36949,"is_reserved":false,"is_disabled":false,"rental_uris":{"android":"levelo://app?vid=ddad4632-6929-4629-9bc8-25db62ffd75b","ios":"levelo://app?vid=ddad4632-6929-4629-9bc8-25db62ffd75b"},"vehicle_type_id":"4","last_reported":1742854167,"current_range_meters":16000,"station_id":"ce4bha12rcd13ifvqef0","pricing_plan_id":"cebpf4jnsgd1na2vs0mg"},{"bike_id":"298c1c73-2264-4bc9-9243-207093dca69e","system_id":"levelo_inurba_marseille","lat":43.31223,"lon":5.36859,"is_reserved":false,"is_disabled":false,"rental_uris":{"android":"levelo://app?vid=298c1c73-2264-4bc9-9243-207093dca69e","ios":"levelo://app?vid=298c1c73-2264-4bc9-9243-207093dca69e"},"vehicle_type_id":"4","last_reported":1742854167,"current_range_meters":16000,"station_id":"ce4bgl92rcd13ifvqbq0","pricing_plan_id":"cebpf4jnsgd1na2vs0mg"},{"bike_id":"62d3e845-03ac-4ecc-85de-0fb5d37fb5f9","system_id":"levelo_inurba_marseille","lat":43.29185,"lon":5.39322,"is_reserved":false,"is_disabled":false,"rental_uris":{"android":"levelo://app?vid=62d3e845-03ac-4ecc-85de-0fb5d37fb5f9","ios":"levelo://app?vid=62d3e845-03ac-4ecc-85de-0fb5d37fb5f9"},"vehicle_type_id":"4","last_reported":1742854167,"current_range_meters":16000,"station_id":"","pricing_plan_id":"cebpf4jnsgd1na2vs0mg"},{"bike_id":"87bc971d-7f2a-4f5b-9231-d1a713fc5fde","system_id":"levelo_inurba_marseille","lat":43.3207,"lon":5.381,"is_reserved":false,"is_disabled":false,"rental_uris":{"android":"levelo://app?vid=87bc971d-7f2a-4f5b-9231-d1a713fc5fde","ios":"levelo://app?vid=87bc971d-7f2a-4f5b-9231-d1a713fc5fde"},"vehicle_type_id":"4","last_reported":1742854167,"current_range_meters":16000,"station_id":"ce4bhr12rcd13ifvqhpg","pricing_plan_id":"cebpf4jnsgd1na2vs0mg"},{"bike_id":"49fbe21e-ba16-4e56-8617-5066ed12268a","system_id":"levelo_inurba_marseille","lat":43.31087,"lon":5.42452,"is_reserved":false,"is_disabled":false,"rental_uris":{"android":"levelo://app?vid=49fbe21e-ba16-4e56-8617-5066ed12268a","ios":"levelo://app?vid=49fbe21e-ba16-4e56-8617-5066ed12268a"},"vehicle_type_id":"4","last_reported":1742854167,"current_range_meters":16400,"station_id":"","pricing_plan_id":"cebpf4jnsgd1na2vs0mg"},{"bike_id":"7ba67112-1f90-4efe-8388-f7141c804634","system_id":"levelo_inurba_marseille","lat":43.29796,"lon":5.40401,"is_reserved":false,"is_disabled":false,"rental_uris":{"android":"levelo://app?vid=7ba67112-1f90-4efe-8388-f7141c804634","ios":"levelo://app?vid=7ba67112-1f90-4efe-8388-f7141c804634"},"vehicle_type_id":"4","last_reported":1742854167,"current_range_meters":16400,"station_id":"ce4bh112rcd13ifvqd90","pricing_plan_id":"cebpf4jnsgd1na2vs0mg"},{"bike_id":"04164eb8-9e45-49ab-a887-5338c09b0b0a","system_id":"levelo_inurba_marseille","lat":43.28929,"lon":5.36404,"is_reserved":false,"is_disabled":false,"rental_uris":{"android":"levelo://app?vid=04164eb8-9e45-49ab-a887-5338c09b0b0a","ios":"levelo://app?vid=04164eb8-9e45-49ab-a887-5338c09b0b0a"},"vehicle_type_id":"4","last_reported":1742854167,"current_range_meters":16400,"station_id":"ce4bhc92rcd13ifvqetg","pricing_plan_id":"cebpf4jnsgd1na2vs0mg"},{"bike_id":"28b8bdb3-c73f-4e95-859b-e9db1be690ff","system_id":"levelo_inurba_marseille","lat":43.33,"lon":5.39053,"is_reserved":false,"is_disabled":false,"rental_uris":{"android":"levelo://app?vid=28b8bdb3-c73f-4e95-859b-e9db1be690ff","ios":"levelo://app?vid=28b8bdb3-c73f-4e95-859b-e9db1be690ff"},"vehicle_type_id":"4","last_reported":1742854167,"current_range_meters":16400,"station_id":"","pricing_plan_id":"cebpf4jnsgd1na2vs0mg"},{"bike_id":"7fbb5cc4-ceec-4424-b26c-0b8b49614ca0","system_id":"levelo_inurba_marseille","lat":43.30136,"lon":5.39872,"is_reserved":false,"is_disabled":true,"rental_uris":{"android":"levelo://app?vid=7fbb5cc4-ceec-4424-b26c-0b8b49614ca0","ios":"levelo://app?vid=7fbb5cc4-ceec-4424-b26c-0b8b49614ca0"},"vehicle_type_id":"4","last_reported":1742854167,"current_range_meters":16400,"station_id":"","pricing_plan_id":"cebpf4jnsgd1na2vs0mg"},{"bike_id":"a602783d-307e-428e-9333-a3a9c7a1f968","system_id":"levelo_inurba_marseille","lat":43.29254,"lon":5.40911,"is_reserved":false,"is_disabled":false,"rental_uris":{"android":"levelo://app?vid=a602783d-307e-428e-9333-a3a9c7a1f968","ios":"levelo://app?vid=a602783d-307e-428e-9333-a3a9c7a1f968"},"vehicle_type_id":"4","last_reported":1742854167,"current_range_meters":16000,"station_id":"ce4bh192rcd13ifvqdc0","pricing_plan_id":"cebpf4jnsgd1na2vs0mg"},{"bike_id":"e30ed5ac-62f7-4c04-b9eb-84c33380aecb","system_id":"levelo_inurba_marseille","lat":43.28856,"lon":5.39302,"is_reserved":false,"is_disabled":false,"rental_uris":{"android":"levelo://app?vid=e30ed5ac-62f7-4c04-b9eb-84c33380aecb","ios":"levelo://app?vid=e30ed5ac-62f7-4c04-b9eb-84c33380aecb"},"vehicle_type_id":"4","last_reported":1742854167,"current_range_meters":16400,"station_id":"ce4bh2p2rcd13ifvqdi0","pricing_plan_id":"cebpf4jnsgd1na2vs0mg"},{"bike_id":"c4473013-2d99-4202-8013-b8eac469badd","system_id":"levelo_inurba_marseille","lat":43.31492,"lon":5.37309,"is_reserved":false,"is_disabled":false,"rental_uris":{"android":"levelo://app?vid=c4473013-2d99-4202-8013-b8eac469badd","ios":"levelo://app?vid=c4473013-2d99-4202-8013-b8eac469badd"},"vehicle_type_id":"4","last_reported":1742854167,"current_range_meters":16400,"station_id":"ce4bgt12rcd13ifvqcd0","pricing_plan_id":"cebpf4jnsgd1na2vs0mg"},{"bike_id":"8f21fa7e-4d4f-4350-b241-d07e79b33ad0","system_id":"levelo_inurba_marseille","lat":43.23963,"lon":5.36619,"is_reserved":false,"is_disabled":false,"rental_uris":{"android":"levelo://app?vid=8f21fa7e-4d4f-4350-b241-d07e79b33ad0","ios":"levelo://app?vid=8f21fa7e-4d4f-4350-b241-d07e79b33ad0"},"vehicle_type_id":"4","last_reported":1742854167,"current_range_meters":16400,"station_id":"ce4bhi12rcd13ifvqfp0","pricing_plan_id":"cebpf4jnsgd1na2vs0mg"},{"bike_id":"85be6fdd-7e00-4192-a669-6344acf18d2c","system_id":"levelo_inurba_marseille","lat":43.2958,"lon":5.37493,"is_reserved":false,"is_disabled":true,"rental_uris":{"android":"levelo://app?vid=85be6fdd-7e00-4192-a669-6344acf18d2c","ios":"levelo://app?vid=85be6fdd-7e00-4192-a669-6344acf18d2c"},"vehicle_type_id":"4","last_reported":1742854167,"current_range_meters":16400,"station_id":"ce4bgh92rcd13ifvqb50","pricing_plan_id":"cebpf4jnsgd1na2vs0mg"},{"bike_id":"9e61c971-7d3d-4684-a88b-9a35883d3dab","system_id":"levelo_inurba_marseille","lat":43.27914,"lon":5.3958,"is_reserved":false,"is_disabled":false,"rental_uris":{"android":"levelo://app?vid=9e61c971-7d3d-4684-a88b-9a35883d3dab","ios":"levelo://app?vid=9e61c971-7d3d-4684-a88b-9a35883d3dab"},"vehicle_type_id":"4","last_reported":1742854167,"current_range_meters":16400,"station_id":"ce4bhf92rcd13ifvqf40","pricing_plan_id":"cebpf4jnsgd1na2vs0mg"},{"bike_id":"1c775580-d1ab-41a6-9ca2-2ebea91682b8","system_id":"levelo_inurba_marseille","lat":43.27782,"lon":5.40684,"is_reserved":false,"is_disabled":false,"rental_uris":{"android":"levelo://app?vid=1c775580-d1ab-41a6-9ca2-2ebea91682b8","ios":"levelo://app?vid=1c775580-d1ab-41a6-9ca2-2ebea91682b8"},"vehicle_type_id":"4","last_reported":1742854167,"current_range_meters":16400,"station_id":"","pricing_plan_id":"cebpf4jnsgd1na2vs0mg"},{"bike_id":"7bd273ba-9c71-4fca-b071-df9ae72e7522","system_id":"levelo_inurba_marseille","lat":43.28398,"lon":5.37553,"is_reserved":false,"is_disabled":false,"rental_uris":{"android":"levelo://app?vid=7bd273ba-9c71-4fca-b071-df9ae72e7522","ios":"levelo://app?vid=7bd273ba-9c71-4fca-b071-df9ae72e7522"},"vehicle_type_id":"4","last_reported":1742854167,"current_range_meters":16400,"station_id":"ce4bh412rcd13ifvqds0","pricing_plan_id":"cebpf4jnsgd1na2vs0mg"},{"bike_id":"a3a02fa7-265d-4206-ace8-e502afe13474","system_id":"levelo_inurba_marseille","lat":43.29974,"lon":5.37175,"is_reserved":false,"is_disabled":false,"rental_uris":{"android":"levelo://app?vid=a3a02fa7-265d-4206-ace8-e502afe13474","ios":"levelo://app?vid=a3a02fa7-265d-4206-ace8-e502afe13474"},"vehicle_type_id":"4","last_reported":1742854167,"current_range_meters":16800,"station_id":"ce4bgr92rcd13ifvqc7g","pricing_plan_id":"cebpf4jnsgd1na2vs0mg"},{"bike_id":"84ac7625-b298-4252-bff8-80b302c2671a","system_id":"levelo_inurba_marseille","lat":43.30886,"lon":5.39621,"is_reserved":false,"is_disabled":false,"rental_uris":{"android":"levelo://app?vid=84ac7625-b298-4252-bff8-80b302c2671a","ios":"levelo://app?vid=84ac7625-b298-4252-bff8-80b302c2671a"},"vehicle_type_id":"4","last_reported":1742854167,"current_range_meters":16800,"station_id":"ce4bh012rcd13ifvqcv0","pricing_plan_id":"cebpf4jnsgd1na2vs0mg"},{"bike_id":"75ffd754-9941-4766-a82c-4299a9634530","system_id":"levelo_inurba_marseille","lat":43.29035,"lon":5.38617,"is_reserved":false,"is_disabled":false,"rental_uris":{"android":"levelo://app?vid=75ffd754-9941-4766-a82c-4299a9634530","ios":"levelo://app?vid=75ffd754-9941-4766-a82c-4299a9634530"},"vehicle_type_id":"4","last_reported":1742854167,"current_range_meters":17200,"station_id":"ce4bh4p2rcd13ifvqe0g","pricing_plan_id":"cebpf4jnsgd1na2vs0mg"},{"bike_id":"4bf82290-6c34-4724-be7a-fccc387df49e","system_id":"levelo_inurba_marseille","lat":43.31484,"lon":5.37307,"is_reserved":false,"is_disabled":false,"rental_uris":{"android":"levelo://app?vid=4bf82290-6c34-4724-be7a-fccc387df49e","ios":"levelo://app?vid=4bf82290-6c34-4724-be7a-fccc387df49e"},"vehicle_type_id":"4","last_reported":1742854167,"current_range_meters":16800,"station_id":"ce4bgt12rcd13ifvqcd0","pricing_plan_id":"cebpf4jnsgd1na2vs0mg"},{"bike_id":"d713038c-d334-4d52-a1e5-c192f6a88919","system_id":"levelo_inurba_marseille","lat":43.27816,"lon":5.39212,"is_reserved":false,"is_disabled":false,"rental_uris":{"android":"levelo://app?vid=d713038c-d334-4d52-a1e5-c192f6a88919","ios":"levelo://app?vid=d713038c-d334-4d52-a1e5-c192f6a88919"},"vehicle_type_id":"4","last_reported":1742854167,"current_range_meters":16800,"station_id":"ce4bhjp2rcd13ifvqga0","pricing_plan_id":"cebpf4jnsgd1na2vs0mg"},{"bike_id":"e7844ca5-b70d-4f5f-a38a-039ddece2ac1","system_id":"levelo_inurba_marseille","lat":43.30346,"lon":5.36839,"is_reserved":false,"is_disabled":false,"rental_uris":{"android":"levelo://app?vid=e7844ca5-b70d-4f5f-a38a-039ddece2ac1","ios":"levelo://app?vid=e7844ca5-b70d-4f5f-a38a-039ddece2ac1"},"vehicle_type_id":"4","last_reported":1742854167,"current_range_meters":16800,"station_id":"ce4bgqh2rcd13ifvqc5g","pricing_plan_id":"cebpf4jnsgd1na2vs0mg"},{"bike_id":"7e1a9145-ca6a-4a17-b5e6-320201ea3679","system_id":"levelo_inurba_marseille","lat":43.26578,"lon":5.39038,"is_reserved":false,"is_disabled":true,"rental_uris":{"android":"levelo://app?vid=7e1a9145-ca6a-4a17-b5e6-320201ea3679","ios":"levelo://app?vid=7e1a9145-ca6a-4a17-b5e6-320201ea3679"},"vehicle_type_id":"4","last_reported":1742854167,"current_range_meters":16800,"station_id":"ce4bhe12rcd13ifvqf30","pricing_plan_id":"cebpf4jnsgd1na2vs0mg"},{"bike_id":"6004f39a-9986-44bc-b884-5e75e6429081","system_id":"levelo_inurba_marseille","lat":43.28389,"lon":5.3757,"is_reserved":false,"is_disabled":false,"rental_uris":{"android":"levelo://app?vid=6004f39a-9986-44bc-b884-5e75e6429081","ios":"levelo://app?vid=6004f39a-9986-44bc-b884-5e75e6429081"},"vehicle_type_id":"4","last_reported":1742854167,"current_range_meters":16800,"station_id":"","pricing_plan_id":"cebpf4jnsgd1na2vs0mg"},{"bike_id":"07101b2e-7606-4bb3-bbe8-f0db91cd353d","system_id":"levelo_inurba_marseille","lat":43.28613,"lon":5.35115,"is_reserved":false,"is_disabled":false,"rental_uris":{"android":"levelo://app?vid=07101b2e-7606-4bb3-bbe8-f0db91cd353d","ios":"levelo://app?vid=07101b2e-7606-4bb3-bbe8-f0db91cd353d"},"vehicle_type_id":"4","last_reported":1742854167,"current_range_meters":16800,"station_id":"ce4bhch2rcd13ifvqeug","pricing_plan_id":"cebpf4jnsgd1na2vs0mg"},{"bike_id":"df1efd5f-be49-4301-af80-2a80146ee489","system_id":"levelo_inurba_marseille","lat":43.27487,"lon":5.4246,"is_reserved":false,"is_disabled":true,"rental_uris":{"android":"levelo://app?vid=df1efd5f-be49-4301-af80-2a80146ee489","ios":"levelo://app?vid=df1efd5f-be49-4301-af80-2a80146ee489"},"vehicle_type_id":"4","last_reported":1742854167,"current_range_meters":17200,"station_id":"ce4bhn92rcd13ifvqgrg","pricing_plan_id":"cebpf4jnsgd1na2vs0mg"},{"bike_id":"6cacd646-d929-49ec-bc8d-32b19dcf3130","system_id":"levelo_inurba_marseille","lat":43.2808,"lon":5.39672,"is_reserved":false,"is_disabled":false,"rental_uris":{"android":"levelo://app?vid=6cacd646-d929-49ec-bc8d-32b19dcf3130","ios":"levelo://app?vid=6cacd646-d929-49ec-bc8d-32b19dcf3130"},"vehicle_type_id":"4","last_reported":1742854167,"current_range_meters":17200,"station_id":"ce4bho12rcd13ifvqh2g","pricing_plan_id":"cebpf4jnsgd1na2vs0mg"},{"bike_id":"32bfd9ce-bb7c-4b0c-b17b-9c92af477a31","system_id":"levelo_inurba_marseille","lat":43.31373,"lon":5.385,"is_reserved":false,"is_disabled":false,"rental_uris":{"android":"levelo://app?vid=32bfd9ce-bb7c-4b0c-b17b-9c92af477a31","ios":"levelo://app?vid=32bfd9ce-bb7c-4b0c-b17b-9c92af477a31"},"vehicle_type_id":"4","last_reported":1742854167,"current_range_meters":17200,"station_id":"ce4bgt92rcd13ifvqcf0","pricing_plan_id":"cebpf4jnsgd1na2vs0mg"},{"bike_id":"d09fb3da-4390-4a32-afa1-6a5d5790441b","system_id":"levelo_inurba_marseille","lat":43.28034,"lon":5.36958,"is_reserved":false,"is_disabled":false,"rental_uris":{"android":"levelo://app?vid=d09fb3da-4390-4a32-afa1-6a5d5790441b","ios":"levelo://app?vid=d09fb3da-4390-4a32-afa1-6a5d5790441b"},"vehicle_type_id":"4","last_reported":1742854167,"current_range_meters":17200,"station_id":"ce4bha12rcd13ifvqef0","pricing_plan_id":"cebpf4jnsgd1na2vs0mg"},{"bike_id":"1f9a7b8e-ee03-4d2e-9c50-dc2dd6196d8b","system_id":"levelo_inurba_marseille","lat":43.27816,"lon":5.40735,"is_reserved":false,"is_disabled":false,"rental_uris":{"android":"levelo://app?vid=1f9a7b8e-ee03-4d2e-9c50-dc2dd6196d8b","ios":"levelo://app?vid=1f9a7b8e-ee03-4d2e-9c50-dc2dd6196d8b"},"vehicle_type_id":"4","last_reported":1742854167,"current_range_meters":17200,"station_id":"ce4bhnh2rcd13ifvqgtg","pricing_plan_id":"cebpf4jnsgd1na2vs0mg"},{"bike_id":"da43d894-069e-486e-a738-14255c3635ad","system_id":"levelo_inurba_marseille","lat":43.26047,"lon":5.39412,"is_reserved":false,"is_disabled":false,"rental_uris":{"android":"levelo://app?vid=da43d894-069e-486e-a738-14255c3635ad","ios":"levelo://app?vid=da43d894-069e-486e-a738-14255c3635ad"},"vehicle_type_id":"4","last_reported":1742854167,"current_range_meters":17200,"station_id":"ce4bhh92rcd13ifvqfj0","pricing_plan_id":"cebpf4jnsgd1na2vs0mg"},{"bike_id":"682f6eaa-4c29-4c3b-a483-b3baee9bd977","system_id":"levelo_inurba_marseille","lat":43.25936,"lon":5.40905,"is_reserved":false,"is_disabled":true,"rental_uris":{"android":"levelo://app?vid=682f6eaa-4c29-4c3b-a483-b3baee9bd977","ios":"levelo://app?vid=682f6eaa-4c29-4c3b-a483-b3baee9bd977"},"vehicle_type_id":"4","last_reported":1742854167,"current_range_meters":17200,"station_id":"ce4bhm92rcd13ifvqglg","pricing_plan_id":"cebpf4jnsgd1na2vs0mg"},{"bike_id":"b949dccb-c8af-4318-9be7-4d2310eb048a","system_id":"levelo_inurba_marseille","lat":43.2635,"lon":5.39919,"is_reserved":false,"is_disabled":false,"rental_uris":{"android":"levelo://app?vid=b949dccb-c8af-4318-9be7-4d2310eb048a","ios":"levelo://app?vid=b949dccb-c8af-4318-9be7-4d2310eb048a"},"vehicle_type_id":"4","last_reported":1742854167,"current_range_meters":17200,"station_id":"","pricing_plan_id":"cebpf4jnsgd1na2vs0mg"},{"bike_id":"3a6bfa7c-b04d-4ce1-a2ea-fd48803baff9","system_id":"levelo_inurba_marseille","lat":43.29893,"lon":5.3814,"is_reserved":false,"is_disabled":false,"rental_uris":{"android":"levelo://app?vid=3a6bfa7c-b04d-4ce1-a2ea-fd48803baff9","ios":"levelo://app?vid=3a6bfa7c-b04d-4ce1-a2ea-fd48803baff9"},"vehicle_type_id":"4","last_reported":1742854167,"current_range_meters":17200,"station_id":"ce4bgj12rcd13ifvqbc0","pricing_plan_id":"cebpf4jnsgd1na2vs0mg"},{"bike_id":"41e6d24a-5383-4b94-84c5-8fd9e0ce536c","system_id":"levelo_inurba_marseille","lat":43.25135,"lon":5.40355,"is_reserved":false,"is_disabled":false,"rental_uris":{"android":"levelo://app?vid=41e6d24a-5383-4b94-84c5-8fd9e0ce536c","ios":"levelo://app?vid=41e6d24a-5383-4b94-84c5-8fd9e0ce536c"},"vehicle_type_id":"4","last_reported":1742854167,"current_range_meters":17200,"station_id":"ce4bhlh2rcd13ifvqgig","pricing_plan_id":"cebpf4jnsgd1na2vs0mg"},{"bike_id":"31ec6964-50be-4514-b2f7-fc5cc146374f","system_id":"levelo_inurba_marseille","lat":43.28696,"lon":5.37396,"is_reserved":false,"is_disabled":false,"rental_uris":{"android":"levelo://app?vid=31ec6964-50be-4514-b2f7-fc5cc146374f","ios":"levelo://app?vid=31ec6964-50be-4514-b2f7-fc5cc146374f"},"vehicle_type_id":"4","last_reported":1742854167,"current_range_meters":17200,"station_id":"ce4bh3p2rcd13ifvqdq0","pricing_plan_id":"cebpf4jnsgd1na2vs0mg"},{"bike_id":"b99d814b-a9f5-4395-9d3a-f597d2f6105d","system_id":"levelo_inurba_marseille","lat":43.28595,"lon":5.37069,"is_reserved":false,"is_disabled":false,"rental_uris":{"android":"levelo://app?vid=b99d814b-a9f5-4395-9d3a-f597d2f6105d","ios":"levelo://app?vid=b99d814b-a9f5-4395-9d3a-f597d2f6105d"},"vehicle_type_id":"4","last_reported":1742854167,"current_range_meters":17200,"station_id":"ce4bht12rcd13ifvqi60","pricing_plan_id":"cebpf4jnsgd1na2vs0mg"},{"bike_id":"8909656e-b4da-45d6-ad35-a110be11736f","system_id":"levelo_inurba_marseille","lat":43.29187,"lon":5.35816,"is_reserved":false,"is_disabled":false,"rental_uris":{"android":"levelo://app?vid=8909656e-b4da-45d6-ad35-a110be11736f","ios":"levelo://app?vid=8909656e-b4da-45d6-ad35-a110be11736f"},"vehicle_type_id":"4","last_reported":1742854167,"current_range_meters":17200,"station_id":"ce4bhb12rcd13ifvqel0","pricing_plan_id":"cebpf4jnsgd1na2vs0mg"},{"bike_id":"faf455aa-a234-40c2-8b09-bb16b410ef3f","system_id":"levelo_inurba_marseille","lat":43.28457,"lon":5.35859,"is_reserved":false,"is_disabled":false,"rental_uris":{"android":"levelo://app?vid=faf455aa-a234-40c2-8b09-bb16b410ef3f","ios":"levelo://app?vid=faf455aa-a234-40c2-8b09-bb16b410ef3f"},"vehicle_type_id":"4","last_reported":1742854167,"current_range_meters":17600,"station_id":"ce4bhah2rcd13ifvqei0","pricing_plan_id":"cebpf4jnsgd1na2vs0mg"},{"bike_id":"84a7a785-5392-42bc-8088-fb903bcc7f5c","system_id":"levelo_inurba_marseille","lat":43.23074,"lon":5.35496,"is_reserved":false,"is_disabled":false,"rental_uris":{"android":"levelo://app?vid=84a7a785-5392-42bc-8088-fb903bcc7f5c","ios":"levelo://app?vid=84a7a785-5392-42bc-8088-fb903bcc7f5c"},"vehicle_type_id":"4","last_reported":1742854167,"current_range_meters":17600,"station_id":"cpo3342slgdg3j2ifvpg","pricing_plan_id":"cebpf4jnsgd1na2vs0mg"},{"bike_id":"56cdda37-ce98-40ee-a8cf-1237548ad2ed","system_id":"levelo_inurba_marseille","lat":43.23957,"lon":5.36641,"is_reserved":false,"is_disabled":false,"rental_uris":{"android":"levelo://app?vid=56cdda37-ce98-40ee-a8cf-1237548ad2ed","ios":"levelo://app?vid=56cdda37-ce98-40ee-a8cf-1237548ad2ed"},"vehicle_type_id":"4","last_reported":1742854167,"current_range_meters":17600,"station_id":"","pricing_plan_id":"cebpf4jnsgd1na2vs0mg"},{"bike_id":"9d952621-e096-4cf9-ba35-fda5067360a5","system_id":"levelo_inurba_marseille","lat":43.2886,"lon":5.358443,"is_reserved":false,"is_disabled":false,"rental_uris":{"android":"levelo://app?vid=9d952621-e096-4cf9-ba35-fda5067360a5","ios":"levelo://app?vid=9d952621-e096-4cf9-ba35-fda5067360a5"},"vehicle_type_id":"4","last_reported":1742854167,"current_range_meters":17600,"station_id":"ce4bhb12rcd13ifvqem0","pricing_plan_id":"cebpf4jnsgd1na2vs0mg"},{"bike_id":"b6b09f1e-aff5-4874-9bcf-607b083d39df","system_id":"levelo_inurba_marseille","lat":43.29021,"lon":5.35934,"is_reserved":false,"is_disabled":true,"rental_uris":{"android":"levelo://app?vid=b6b09f1e-aff5-4874-9bcf-607b083d39df","ios":"levelo://app?vid=b6b09f1e-aff5-4874-9bcf-607b083d39df"},"vehicle_type_id":"4","last_reported":1742854167,"current_range_meters":17600,"station_id":"ce4bha92rcd13ifvqeg0","pricing_plan_id":"cebpf4jnsgd1na2vs0mg"},{"bike_id":"13a02f40-e392-44ad-98b8-ba5d2dd3e71c","system_id":"levelo_inurba_marseille","lat":43.27054,"lon":5.40261,"is_reserved":false,"is_disabled":false,"rental_uris":{"android":"levelo://app?vid=13a02f40-e392-44ad-98b8-ba5d2dd3e71c","ios":"levelo://app?vid=13a02f40-e392-44ad-98b8-ba5d2dd3e71c"},"vehicle_type_id":"4","last_reported":1742854167,"current_range_meters":17600,"station_id":"ce4bhk92rcd13ifvqgc0","pricing_plan_id":"cebpf4jnsgd1na2vs0mg"},{"bike_id":"7aac1fa6-8563-4483-89a1-e00634e9c45b","system_id":"levelo_inurba_marseille","lat":43.303,"lon":5.36886,"is_reserved":false,"is_disabled":false,"rental_uris":{"android":"levelo://app?vid=7aac1fa6-8563-4483-89a1-e00634e9c45b","ios":"levelo://app?vid=7aac1fa6-8563-4483-89a1-e00634e9c45b"},"vehicle_type_id":"4","last_reported":1742854167,"current_range_meters":17600,"station_id":"ce4bgqh2rcd13ifvqc5g","pricing_plan_id":"cebpf4jnsgd1na2vs0mg"},{"bike_id":"728e9a20-9be0-4637-9345-44a87b0e3451","system_id":"levelo_inurba_marseille","lat":43.28426,"lon":5.37535,"is_reserved":false,"is_disabled":false,"rental_uris":{"android":"levelo://app?vid=728e9a20-9be0-4637-9345-44a87b0e3451","ios":"levelo://app?vid=728e9a20-9be0-4637-9345-44a87b0e3451"},"vehicle_type_id":"4","last_reported":1742854167,"current_range_meters":17600,"station_id":"ce4bh412rcd13ifvqds0","pricing_plan_id":"cebpf4jnsgd1na2vs0mg"},{"bike_id":"bb55a05d-fe63-45ff-b77a-60bcdf6f707e","system_id":"levelo_inurba_marseille","lat":43.27418,"lon":5.39439,"is_reserved":false,"is_disabled":false,"rental_uris":{"android":"levelo://app?vid=bb55a05d-fe63-45ff-b77a-60bcdf6f707e","ios":"levelo://app?vid=bb55a05d-fe63-45ff-b77a-60bcdf6f707e"},"vehicle_type_id":"4","last_reported":1742854167,"current_range_meters":17600,"station_id":"","pricing_plan_id":"cebpf4jnsgd1na2vs0mg"},{"bike_id":"da0ab484-1f56-40bf-91e0-c5f0556ec317","system_id":"levelo_inurba_marseille","lat":43.27808,"lon":5.40719,"is_reserved":false,"is_disabled":false,"rental_uris":{"android":"levelo://app?vid=da0ab484-1f56-40bf-91e0-c5f0556ec317","ios":"levelo://app?vid=da0ab484-1f56-40bf-91e0-c5f0556ec317"},"vehicle_type_id":"4","last_reported":1742854167,"current_range_meters":18000,"station_id":"","pricing_plan_id":"cebpf4jnsgd1na2vs0mg"},{"bike_id":"669a03dd-86fc-4194-9d1f-57d32977ea07","system_id":"levelo_inurba_marseille","lat":43.25095,"lon":5.39511,"is_reserved":false,"is_disabled":false,"rental_uris":{"android":"levelo://app?vid=669a03dd-86fc-4194-9d1f-57d32977ea07","ios":"levelo://app?vid=669a03dd-86fc-4194-9d1f-57d32977ea07"},"vehicle_type_id":"4","last_reported":1742854167,"current_range_meters":18000,"station_id":"ce4bhm12rcd13ifvqgkg","pricing_plan_id":"cebpf4jnsgd1na2vs0mg"},{"bike_id":"253854d6-c154-4801-9340-652d1ea24ec1","system_id":"levelo_inurba_marseille","lat":43.25729,"lon":5.41108,"is_reserved":false,"is_disabled":true,"rental_uris":{"android":"levelo://app?vid=253854d6-c154-4801-9340-652d1ea24ec1","ios":"levelo://app?vid=253854d6-c154-4801-9340-652d1ea24ec1"},"vehicle_type_id":"4","last_reported":1742854167,"current_range_meters":18000,"station_id":"ce4bhkp2rcd13ifvqgd0","pricing_plan_id":"cebpf4jnsgd1na2vs0mg"},{"bike_id":"e6f99c4c-5c62-4789-bafa-0ecb79b9c7a2","system_id":"levelo_inurba_marseille","lat":43.2397,"lon":5.36612,"is_reserved":false,"is_disabled":false,"rental_uris":{"android":"levelo://app?vid=e6f99c4c-5c62-4789-bafa-0ecb79b9c7a2","ios":"levelo://app?vid=e6f99c4c-5c62-4789-bafa-0ecb79b9c7a2"},"vehicle_type_id":"4","last_reported":1742854167,"current_range_meters":18000,"station_id":"","pricing_plan_id":"cebpf4jnsgd1na2vs0mg"},{"bike_id":"3ac996a2-73f6-4613-a7bf-0f92ec683728","system_id":"levelo_inurba_marseille","lat":43.29523,"lon":5.39411,"is_reserved":false,"is_disabled":false,"rental_uris":{"android":"levelo://app?vid=3ac996a2-73f6-4613-a7bf-0f92ec683728","ios":"levelo://app?vid=3ac996a2-73f6-4613-a7bf-0f92ec683728"},