{"last_updated":1747652957,"ttl":60,"version":"2.2","data":{"bikes":[{"bike_id":"c0b9fd4f-e181-46ce-b0bf-f5119973334f","system_id":"levelo_inurba_marseille","lat":43.33771,"lon":5.37424,"is_reserved":false,"is_disabled":true,"rental_uris":{"android":"levelo://app?vid=c0b9fd4f-e181-46ce-b0bf-f5119973334f","ios":"levelo://app?vid=c0b9fd4f-e181-46ce-b0bf-f5119973334f"},"vehicle_type_id":"4","last_reported":1747652957,"current_range_meters":0,"station_id":"","pricing_plan_id":"cebpf4jnsgd1na2vs0mg"},{"bike_id":"25b4f69a-1726-4c58-a89d-ca45327456b0","system_id":"levelo_inurba_marseille","lat":43.27275,"lon":5.36264,"is_reserved":false,"is_disabled":true,"rental_uris":{"android":"levelo://app?vid=25b4f69a-1726-4c58-a89d-ca45327456b0","ios":"levelo://app?vid=25b4f69a-1726-4c58-a89d-ca45327456b0"},"vehicle_type_id":"4","last_reported":1747652957,"current_range_meters":0,"station_id":"","pricing_plan_id":"cebpf4jnsgd1na2vs0mg"},{"bike_id":"fc2577e7-1497-425b-9d4f-ab8d7dc843c6","system_id":"levelo_inurba_marseille","lat":43.33771,"lon":5.37485,"is_reserved":false,"is_disabled":true,"rental_uris":{"android":"levelo://app?vid=fc2577e7-1497-425b-9d4f-ab8d7dc843c6","ios":"levelo://app?vid=fc2577e7-1497-425b-9d4f-ab8d7dc843c6"},"vehicle_type_id":"4","last_reported":1747652957,"current_range_meters":0,"station_id":"","pricing_plan_id":"cebpf4jnsgd1na2vs0mg"},{"bike_id":"522a6fa9-3b0f-41ae-92d4-659155b9e6e8","system_id":"levelo_inurba_marseille","lat":43.239272,"lon":5.36185,"is_reserved":false,"is_disabled":true,"rental_uris":{"android":"levelo://app?vid=522a6fa9-3b0f-41ae-92d4-659155b9e6e8","ios":"levelo://app?vid=522a6fa9-3b0f-41ae-92d4-659155b9e6e8"},"vehicle_type_id":"4","last_reported":1747652957,"current_range_meters":0,"station_id":"","pricing_plan_id":"cebpf4jnsgd1na2vs0mg"},{"bike_id":"8f3685e3-183d-4c98-9513-bfeeb8fbc041","system_id":"levelo_inurba_marseille","lat":43.2795,"lon":5.4124,"is_reserved":false,"is_disabled":true,"rental_uris":{"android":"levelo://app?vid=8f3685e3-183d-4c98-9513-bfeeb8fbc041","ios":"levelo://app?vid=8f3685e3-183d-4c98-9513-bfeeb8fbc041"},"vehicle_type_id":"4","last_reported":1747652957,"current_range_meters":0,"station_id":"","pricing_plan_id":"cebpf4jnsgd1na2vs0mg"},{"bike_id":"e9dd3aa4-b5e7-4480-926d-d7f537719bfa","system_id":"levelo_inurba_marseille","lat":43.23021,"lon":5.40179,"is_reserved":false,"is_disabled":true,"rental_uris":{"android":"levelo://app?vid=e9dd3aa4-b5e7-4480-926d-d7f537719bfa","ios":"levelo://app?vid=e9dd3aa4-b5e7-4480-926d-d7f537719bfa"},"vehicle_type_id":"4","last_reported":1747652957,"current_range_meters":0,"station_id":"","pricing_plan_id":"cebpf4jnsgd1na2vs0mg"},{"bike_id":"9fa0871d-b3ed-4e1c-bb89-c208dda7e851","system_id":"levelo_inurba_marseille","lat":43.30532,"lon":5.36559,"is_reserved":false,"is_disabled":true,"rental_uris":{"android":"levelo://app?vid=9fa0871d-b3ed-4e1c-bb89-c208dda7e851","ios":"levelo://app?vid=9fa0871d-b3ed-4e1c-bb89-c208dda7e851"},"vehicle_type_id":"4","last_reported":1747652957,"current_range_meters":0,"station_id":"ce4bgs12rcd13ifvqcag","pricing_plan_id":"cebpf4jnsgd1na2vs0mg"},{"bike_id":"b4f1e4d6-b85f-4b94-8ec7-2b1e55d74fdc","system_id":"levelo_inurba_marseille","lat":43.301175,"lon":5.391258,"is_reserved":false,"is_disabled":true,"rental_uris":{"android":"levelo://app?vid=b4f1e4d6-b85f-4b94-8ec7-2b1e55d74fdc","ios":"levelo://app?vid=b4f1e4d6-b85f-4b94-8ec7-2b1e55d74fdc"},"vehicle_type_id":"4","last_reported":1747652957,"current_range_meters":0,"station_id":"ce4bh192rcd13ifvqdb0","pricing_plan_id":"cebpf4jnsgd1na2vs0mg"},{"bike_id":"2a24e6ec-5b73-41fa-a18d-8a6c48a6c7f6","system_id":"levelo_inurba_marseille","lat":43.26143,"lon":5.37468,"is_reserved":false,"is_disabled":true,"rental_uris":{"android":"levelo://app?vid=2a24e6ec-5b73-41fa-a18d-8a6c48a6c7f6","ios":"levelo://app?vid=2a24e6ec-5b73-41fa-a18d-8a6c48a6c7f6"},"vehicle_type_id":"4","last_reported":1747652957,"current_range_meters":0,"station_id":"ce4bhgp2rcd13ifvqfc0","pricing_plan_id":"cebpf4jnsgd1na2vs0mg"},{"bike_id":"0c4afe23-1a18-4977-8d80-125503fc3b8d","system_id":"levelo_inurba_marseille","lat":43.26474,"lon":5.39555,"is_reserved":false,"is_disabled":true,"rental_uris":{"android":"levelo://app?vid=0c4afe23-1a18-4977-8d80-125503fc3b8d","ios":"levelo://app?vid=0c4afe23-1a18-4977-8d80-125503fc3b8d"},"vehicle_type_id":"4","last_reported":1747652957,"current_range_meters":0,"station_id":"ce4bhi12rcd13ifvqfq0","pricing_plan_id":"cebpf4jnsgd1na2vs0mg"},{"bike_id":"42856872-74c9-42e5-8674-f4e05fe06ee1","system_id":"levelo_inurba_marseille","lat":43.270794,"lon":5.423317,"is_reserved":false,"is_disabled":true,"rental_uris":{"android":"levelo://app?vid=42856872-74c9-42e5-8674-f4e05fe06ee1","ios":"levelo://app?vid=42856872-74c9-42e5-8674-f4e05fe06ee1"},"vehicle_type_id":"4","last_reported":1747652957,"current_range_meters":0,"station_id":"ce4bhk92rcd13ifvqgb0","pricing_plan_id":"cebpf4jnsgd1na2vs0mg"},{"bike_id":"5ed8493c-297f-45a9-a2f7-f93db5c54e0c","system_id":"levelo_inurba_marseille","lat":43.23184,"lon":5.3998,"is_reserved":false,"is_disabled":true,"rental_uris":{"android":"levelo://app?vid=5ed8493c-297f-45a9-a2f7-f93db5c54e0c","ios":"levelo://app?vid=5ed8493c-297f-45a9-a2f7-f93db5c54e0c"},"vehicle_type_id":"4","last_reported":1747652957,"current_range_meters":0,"station_id":"ce4bhn12rcd13ifvqgqg","pricing_plan_id":"cebpf4jnsgd1na2vs0mg"},{"bike_id":"44d0b098-f563-42df-a95e-388b32d9372c","system_id":"levelo_inurba_marseille","lat":43.2816,"lon":5.42618,"is_reserved":false,"is_disabled":true,"rental_uris":{"android":"levelo://app?vid=44d0b098-f563-42df-a95e-388b32d9372c","ios":"levelo://app?vid=44d0b098-f563-42df-a95e-388b32d9372c"},"vehicle_type_id":"4","last_reported":1747652957,"current_range_meters":0,"station_id":"ce4bhnh2rcd13ifvqgug","pricing_plan_id":"cebpf4jnsgd1na2vs0mg"},{"bike_id":"ed5a29de-cac2-4334-a5c7-073fa5dd8379","system_id":"levelo_inurba_marseille","lat":43.24087,"lon":5.37745,"is_reserved":false,"is_disabled":true,"rental_uris":{"android":"levelo://app?vid=ed5a29de-cac2-4334-a5c7-073fa5dd8379","ios":"levelo://app?vid=ed5a29de-cac2-4334-a5c7-073fa5dd8379"},"vehicle_type_id":"4","last_reported":1747652957,"current_range_meters":0,"station_id":"ce4bhnp2rcd13ifvqgvg","pricing_plan_id":"cebpf4jnsgd1na2vs0mg"},{"bike_id":"c9acf574-a9f7-43d0-99f7-8a0cc2dfccdc","system_id":"levelo_inurba_marseille","lat":43.28612,"lon":5.37056,"is_reserved":false,"is_disabled":true,"rental_uris":{"android":"levelo://app?vid=c9acf574-a9f7-43d0-99f7-8a0cc2dfccdc","ios":"levelo://app?vid=c9acf574-a9f7-43d0-99f7-8a0cc2dfccdc"},"vehicle_type_id":"4","last_reported":1747652957,"current_range_meters":0,"station_id":"ce4bht12rcd13ifvqi60","pricing_plan_id":"cebpf4jnsgd1na2vs0mg"},{"bike_id":"e0b02b80-518e-4f83-8a41-2021419fb253","system_id":"levelo_inurba_marseille","lat":43.29573,"lon":5.37502,"is_reserved":false,"is_disabled":true,"rental_uris":{"android":"levelo://app?vid=e0b02b80-518e-4f83-8a41-2021419fb253","ios":"levelo://app?vid=e0b02b80-518e-4f83-8a41-2021419fb253"},"vehicle_type_id":"4","last_reported":1747652957,"current_range_meters":400,"station_id":"ce4bgh92rcd13ifvqb50","pricing_plan_id":"cebpf4jnsgd1na2vs0mg"},{"bike_id":"095857d5-2861-454f-9168-425984504329","system_id":"levelo_inurba_marseille","lat":43.25002,"lon":5.38922,"is_reserved":false,"is_disabled":true,"rental_uris":{"android":"levelo://app?vid=095857d5-2861-454f-9168-425984504329","ios":"levelo://app?vid=095857d5-2861-454f-9168-425984504329"},"vehicle_type_id":"4","last_reported":1747652957,"current_range_meters":400,"station_id":"ce4bhgp2rcd13ifvqfd0","pricing_plan_id":"cebpf4jnsgd1na2vs0mg"},{"bike_id":"e313ca5d-c1dd-4054-a742-737decce464a","system_id":"levelo_inurba_marseille","lat":43.282867,"lon":5.350524,"is_reserved":false,"is_disabled":true,"rental_uris":{"android":"levelo://app?vid=e313ca5d-c1dd-4054-a742-737decce464a","ios":"levelo://app?vid=e313ca5d-c1dd-4054-a742-737decce464a"},"vehicle_type_id":"4","last_reported":1747652957,"current_range_meters":800,"station_id":"ce4bhbp2rcd13ifvqerg","pricing_plan_id":"cebpf4jnsgd1na2vs0mg"},{"bike_id":"b05b1f64-0753-4df6-9d99-52c918cd47ad","system_id":"levelo_inurba_marseille","lat":43.29035,"lon":5.39985,"is_reserved":false,"is_disabled":true,"rental_uris":{"android":"levelo://app?vid=b05b1f64-0753-4df6-9d99-52c918cd47ad","ios":"levelo://app?vid=b05b1f64-0753-4df6-9d99-52c918cd47ad"},"vehicle_type_id":"4","last_reported":1747652957,"current_range_meters":1200,"station_id":"ce4bh392rcd13ifvqdm0","pricing_plan_id":"cebpf4jnsgd1na2vs0mg"},{"bike_id":"1941186d-c915-4c56-8a3c-307023ed2c43","system_id":"levelo_inurba_marseille","lat":43.28358,"lon":5.38103,"is_reserved":false,"is_disabled":true,"rental_uris":{"android":"levelo://app?vid=1941186d-c915-4c56-8a3c-307023ed2c43","ios":"levelo://app?vid=1941186d-c915-4c56-8a3c-307023ed2c43"},"vehicle_type_id":"4","last_reported":1747652957,"current_range_meters":1200,"station_id":"ce4bh412rcd13ifvqdr0","pricing_plan_id":"cebpf4jnsgd1na2vs0mg"},{"bike_id":"05deac1b-c60d-4296-951b-1ba548945cc4","system_id":"levelo_inurba_marseille","lat":43.25505,"lon":5.37641,"is_reserved":false,"is_disabled":true,"rental_uris":{"android":"levelo://app?vid=05deac1b-c60d-4296-951b-1ba548945cc4","ios":"levelo://app?vid=05deac1b-c60d-4296-951b-1ba548945cc4"},"vehicle_type_id":"4","last_reported":1747652957,"current_range_meters":1600,"station_id":"ce4bhh12rcd13ifvqff0","pricing_plan_id":"cebpf4jnsgd1na2vs0mg"},{"bike_id":"96e3e7fd-1f96-4ab0-ae2a-baf3e4b2e2c2","system_id":"levelo_inurba_marseille","lat":43.29574,"lon":5.37517,"is_reserved":false,"is_disabled":true,"rental_uris":{"android":"levelo://app?vid=96e3e7fd-1f96-4ab0-ae2a-baf3e4b2e2c2","ios":"levelo://app?vid=96e3e7fd-1f96-4ab0-ae2a-baf3e4b2e2c2"},"vehicle_type_id":"4","last_reported":1747652957,"current_range_meters":2000,"station_id":"ce4bgh92rcd13ifvqb50","pricing_plan_id":"cebpf4jnsgd1na2vs0mg"},{"bike_id":"a78f07cb-1e24-40c7-8e38-18fdaf9a7723","system_id":"levelo_inurba_marseille","lat":43.28477,"lon":5.38417,"is_reserved":false,"is_disabled":true,"rental_uris":{"android":"levelo://app?vid=a78f07cb-1e24-40c7-8e38-18fdaf9a7723","ios":"levelo://app?vid=a78f07cb-1e24-40c7-8e38-18fdaf9a7723"},"vehicle_type_id":"4","last_reported":1747652957,"current_range_meters":2000,"station_id":"ce4bh512rcd13ifvqe3g","pricing_plan_id":"cebpf4jnsgd1na2vs0mg"},{"bike_id":"7e1f0e7f-ed52-4dbb-b25c-596fa30a3b26","system_id":"levelo_inurba_marseille","lat":43.28461,"lon":5.35885,"is_reserved":false,"is_disabled":false,"rental_uris":{"android":"levelo://app?vid=7e1f0e7f-ed52-4dbb-b25c-596fa30a3b26","ios":"levelo://app?vid=7e1f0e7f-ed52-4dbb-b25c-596fa30a3b26"},"vehicle_type_id":"4","last_reported":1747652957,"current_range_meters":2000,"station_id":"ce4bhah2rcd13ifvqei0","pricing_plan_id":"cebpf4jnsgd1na2vs0mg"},{"bike_id":"398a8fd1-747d-4b0d-84d1-22519fee4719","system_id":"levelo_inurba_marseille","lat":43.27374,"lon":5.36248,"is_reserved":false,"is_disabled":true,"rental_uris":{"android":"levelo://app?vid=398a8fd1-747d-4b0d-84d1-22519fee4719","ios":"levelo://app?vid=398a8fd1-747d-4b0d-84d1-22519fee4719"},"vehicle_type_id":"4","last_reported":1747652957,"current_range_meters":2000,"station_id":"ce4bhbh2rcd13ifvqeo0","pricing_plan_id":"cebpf4jnsgd1na2vs0mg"},{"bike_id":"a1dcc8d2-c785-4381-9c09-de43fad5d837","system_id":"levelo_inurba_marseille","lat":43.274043,"lon":5.389989,"is_reserved":false,"is_disabled":true,"rental_uris":{"android":"levelo://app?vid=a1dcc8d2-c785-4381-9c09-de43fad5d837","ios":"levelo://app?vid=a1dcc8d2-c785-4381-9c09-de43fad5d837"},"vehicle_type_id":"4","last_reported":1747652957,"current_range_meters":2000,"station_id":"ce4bhh12rcd13ifvqfg0","pricing_plan_id":"cebpf4jnsgd1na2vs0mg"},{"bike_id":"9784b439-cbcc-40f1-b7c0-6ac224ac5a74","system_id":"levelo_inurba_marseille","lat":43.290009,"lon":5.35618,"is_reserved":false,"is_disabled":false,"rental_uris":{"android":"levelo://app?vid=9784b439-cbcc-40f1-b7c0-6ac224ac5a74","ios":"levelo://app?vid=9784b439-cbcc-40f1-b7c0-6ac224ac5a74"},"vehicle_type_id":"4","last_reported":1747652957,"current_range_meters":3200,"station_id":"ce4bhb92rcd13ifvqen0","pricing_plan_id":"cebpf4jnsgd1na2vs0mg"},{"bike_id":"7a34698b-acd1-47cf-ae98-e1abe6859844","system_id":"levelo_inurba_marseille","lat":43.24069,"lon":5.37752,"is_reserved":false,"is_disabled":false,"rental_uris":{"android":"levelo://app?vid=7a34698b-acd1-47cf-ae98-e1abe6859844","ios":"levelo://app?vid=7a34698b-acd1-47cf-ae98-e1abe6859844"},"vehicle_type_id":"4","last_reported":1747652957,"current_range_meters":3600,"station_id":"ce4bhnp2rcd13ifvqgvg","pricing_plan_id":"cebpf4jnsgd1na2vs0mg"},{"bike_id":"c0db4030-ef30-480b-a735-af5435a471ed","system_id":"levelo_inurba_marseille","lat":43.27737,"lon":5.42698,"is_reserved":false,"is_disabled":false,"rental_uris":{"android":"levelo://app?vid=c0db4030-ef30-480b-a735-af5435a471ed","ios":"levelo://app?vid=c0db4030-ef30-480b-a735-af5435a471ed"},"vehicle_type_id":"4","last_reported":1747652957,"current_range_meters":4000,"station_id":"","pricing_plan_id":"cebpf4jnsgd1na2vs0mg"},{"bike_id":"827cbc60-5074-46a0-b861-2b0fa823970f","system_id":"levelo_inurba_marseille","lat":43.30473,"lon":5.37896,"is_reserved":false,"is_disabled":false,"rental_uris":{"android":"levelo://app?vid=827cbc60-5074-46a0-b861-2b0fa823970f","ios":"levelo://app?vid=827cbc60-5074-46a0-b861-2b0fa823970f"},"vehicle_type_id":"4","last_reported":1747652957,"current_range_meters":4000,"station_id":"ce4bgup2rcd13ifvqcn0","pricing_plan_id":"cebpf4jnsgd1na2vs0mg"},{"bike_id":"116d6b33-7568-4746-8e63-a17dbf9bca16","system_id":"levelo_inurba_marseille","lat":43.29168,"lon":5.37156,"is_reserved":false,"is_disabled":false,"rental_uris":{"android":"levelo://app?vid=116d6b33-7568-4746-8e63-a17dbf9bca16","ios":"levelo://app?vid=116d6b33-7568-4746-8e63-a17dbf9bca16"},"vehicle_type_id":"4","last_reported":1747652957,"current_range_meters":4400,"station_id":"ce4bha92rcd13ifvqeh0","pricing_plan_id":"cebpf4jnsgd1na2vs0mg"},{"bike_id":"f60ca26c-8788-4422-ac9a-2141b4f79b41","system_id":"levelo_inurba_marseille","lat":43.28266,"lon":5.35061,"is_reserved":false,"is_disabled":false,"rental_uris":{"android":"levelo://app?vid=f60ca26c-8788-4422-ac9a-2141b4f79b41","ios":"levelo://app?vid=f60ca26c-8788-4422-ac9a-2141b4f79b41"},"vehicle_type_id":"4","last_reported":1747652957,"current_range_meters":4400,"station_id":"ce4bhbp2rcd13ifvqerg","pricing_plan_id":"cebpf4jnsgd1na2vs0mg"},{"bike_id":"14603e41-b2dd-4757-a53c-2e366aa4f983","system_id":"levelo_inurba_marseille","lat":43.26988,"lon":5.42824,"is_reserved":false,"is_disabled":false,"rental_uris":{"android":"levelo://app?vid=14603e41-b2dd-4757-a53c-2e366aa4f983","ios":"levelo://app?vid=14603e41-b2dd-4757-a53c-2e366aa4f983"},"vehicle_type_id":"4","last_reported":1747652957,"current_range_meters":5600,"station_id":"","pricing_plan_id":"cebpf4jnsgd1na2vs0mg"},{"bike_id":"b911233e-8409-41d1-91ef-b6e7736d6a2b","system_id":"levelo_inurba_marseille","lat":43.29262,"lon":5.37615,"is_reserved":false,"is_disabled":false,"rental_uris":{"android":"levelo://app?vid=b911233e-8409-41d1-91ef-b6e7736d6a2b","ios":"levelo://app?vid=b911233e-8409-41d1-91ef-b6e7736d6a2b"},"vehicle_type_id":"4","last_reported":1747652957,"current_range_meters":5600,"station_id":"ce4bgi12rcd13ifvqb80","pricing_plan_id":"cebpf4jnsgd1na2vs0mg"},{"bike_id":"80ec3866-261b-41bb-90ab-860c97f83ed6","system_id":"levelo_inurba_marseille","lat":43.29937,"lon":5.36552,"is_reserved":false,"is_disabled":false,"rental_uris":{"android":"levelo://app?vid=80ec3866-261b-41bb-90ab-860c97f83ed6","ios":"levelo://app?vid=80ec3866-261b-41bb-90ab-860c97f83ed6"},"vehicle_type_id":"4","last_reported":1747652957,"current_range_meters":5600,"station_id":"ce4bgm92rcd13ifvqbr0","pricing_plan_id":"cebpf4jnsgd1na2vs0mg"},{"bike_id":"0fb02880-5c6e-4026-9e4a-07529c572b44","system_id":"levelo_inurba_marseille","lat":43.25486,"lon":5.37385,"is_reserved":false,"is_disabled":false,"rental_uris":{"android":"levelo://app?vid=0fb02880-5c6e-4026-9e4a-07529c572b44","ios":"levelo://app?vid=0fb02880-5c6e-4026-9e4a-07529c572b44"},"vehicle_type_id":"4","last_reported":1747652957,"current_range_meters":6000,"station_id":"","pricing_plan_id":"cebpf4jnsgd1na2vs0mg"},{"bike_id":"e0d038f5-c09a-4dac-9336-11b187a120a0","system_id":"levelo_inurba_marseille","lat":43.29873,"lon":5.3972,"is_reserved":false,"is_disabled":false,"rental_uris":{"android":"levelo://app?vid=e0d038f5-c09a-4dac-9336-11b187a120a0","ios":"levelo://app?vid=e0d038f5-c09a-4dac-9336-11b187a120a0"},"vehicle_type_id":"4","last_reported":1747652957,"current_range_meters":6000,"station_id":"ce4bh0h2rcd13ifvqd50","pricing_plan_id":"cebpf4jnsgd1na2vs0mg"},{"bike_id":"67d27710-f5fa-4a08-866b-f6bc8211b43c","system_id":"levelo_inurba_marseille","lat":43.28267,"lon":5.35067,"is_reserved":false,"is_disabled":false,"rental_uris":{"android":"levelo://app?vid=67d27710-f5fa-4a08-866b-f6bc8211b43c","ios":"levelo://app?vid=67d27710-f5fa-4a08-866b-f6bc8211b43c"},"vehicle_type_id":"4","last_reported":1747652957,"current_range_meters":6400,"station_id":"ce4bhbp2rcd13ifvqerg","pricing_plan_id":"cebpf4jnsgd1na2vs0mg"},{"bike_id":"0a80dab0-019f-412e-9426-7c721bdddfca","system_id":"levelo_inurba_marseille","lat":43.24681,"lon":5.38146,"is_reserved":false,"is_disabled":false,"rental_uris":{"android":"levelo://app?vid=0a80dab0-019f-412e-9426-7c721bdddfca","ios":"levelo://app?vid=0a80dab0-019f-412e-9426-7c721bdddfca"},"vehicle_type_id":"4","last_reported":1747652957,"current_range_meters":6400,"station_id":"ce4bhih2rcd13ifvqfr0","pricing_plan_id":"cebpf4jnsgd1na2vs0mg"},{"bike_id":"93adb21e-0831-48f3-8e4e-6045d2a8de73","system_id":"levelo_inurba_marseille","lat":43.24668,"lon":5.38148,"is_reserved":false,"is_disabled":false,"rental_uris":{"android":"levelo://app?vid=93adb21e-0831-48f3-8e4e-6045d2a8de73","ios":"levelo://app?vid=93adb21e-0831-48f3-8e4e-6045d2a8de73"},"vehicle_type_id":"4","last_reported":1747652957,"current_range_meters":6400,"station_id":"ce4bhih2rcd13ifvqfr0","pricing_plan_id":"cebpf4jnsgd1na2vs0mg"},{"bike_id":"4ff5357a-992b-44c4-8d52-511b0d87e59e","system_id":"levelo_inurba_marseille","lat":43.21755,"lon":5.34608,"is_reserved":false,"is_disabled":false,"rental_uris":{"android":"levelo://app?vid=4ff5357a-992b-44c4-8d52-511b0d87e59e","ios":"levelo://app?vid=4ff5357a-992b-44c4-8d52-511b0d87e59e"},"vehicle_type_id":"4","last_reported":1747652957,"current_range_meters":6400,"station_id":"st_cvj6r9ubvosntc0bgbag","pricing_plan_id":"cebpf4jnsgd1na2vs0mg"},{"bike_id":"ab8f9179-7004-466c-9f06-6aaf06b5d18f","system_id":"levelo_inurba_marseille","lat":43.24661,"lon":5.38166,"is_reserved":false,"is_disabled":false,"rental_uris":{"android":"levelo://app?vid=ab8f9179-7004-466c-9f06-6aaf06b5d18f","ios":"levelo://app?vid=ab8f9179-7004-466c-9f06-6aaf06b5d18f"},"vehicle_type_id":"4","last_reported":1747652957,"current_range_meters":6800,"station_id":"ce4bhih2rcd13ifvqfr0","pricing_plan_id":"cebpf4jnsgd1na2vs0mg"},{"bike_id":"c11edf16-e591-4b20-b9c1-ad2a31ee245a","system_id":"levelo_inurba_marseille","lat":43.23151,"lon":5.43721,"is_reserved":false,"is_disabled":false,"rental_uris":{"android":"levelo://app?vid=c11edf16-e591-4b20-b9c1-ad2a31ee245a","ios":"levelo://app?vid=c11edf16-e591-4b20-b9c1-ad2a31ee245a"},"vehicle_type_id":"4","last_reported":1747652957,"current_range_meters":6800,"station_id":"ce4bhmp2rcd13ifvqgog","pricing_plan_id":"cebpf4jnsgd1na2vs0mg"},{"bike_id":"a0dd5456-464c-4396-9a51-4f09ae0c67cc","system_id":"levelo_inurba_marseille","lat":43.2959,"lon":5.38103,"is_reserved":false,"is_disabled":false,"rental_uris":{"android":"levelo://app?vid=a0dd5456-464c-4396-9a51-4f09ae0c67cc","ios":"levelo://app?vid=a0dd5456-464c-4396-9a51-4f09ae0c67cc"},"vehicle_type_id":"4","last_reported":1747652957,"current_range_meters":7200,"station_id":"ce4bgl12rcd13ifvqbo0","pricing_plan_id":"cebpf4jnsgd1na2vs0mg"},{"bike_id":"98317da4-a2d7-48e1-9311-47ca98c63325","system_id":"levelo_inurba_marseille","lat":43.3078,"lon":5.37659,"is_reserved":false,"is_disabled":false,"rental_uris":{"android":"levelo://app?vid=98317da4-a2d7-48e1-9311-47ca98c63325","ios":"levelo://app?vid=98317da4-a2d7-48e1-9311-47ca98c63325"},"vehicle_type_id":"4","last_reported":1747652957,"current_range_meters":7200,"station_id":"ce4bgv92rcd13ifvqcq0","pricing_plan_id":"cebpf4jnsgd1na2vs0mg"},{"bike_id":"7c2f31a5-29a4-4b38-92a3-a37e6e9acbd5","system_id":"levelo_inurba_marseille","lat":43.257221,"lon":5.411019,"is_reserved":false,"is_disabled":false,"rental_uris":{"android":"levelo://app?vid=7c2f31a5-29a4-4b38-92a3-a37e6e9acbd5","ios":"levelo://app?vid=7c2f31a5-29a4-4b38-92a3-a37e6e9acbd5"},"vehicle_type_id":"4","last_reported":1747652957,"current_range_meters":7200,"station_id":"ce4bhkp2rcd13ifvqgd0","pricing_plan_id":"cebpf4jnsgd1na2vs0mg"},{"bike_id":"275b5b60-7e4a-4097-aa00-8752e9d745a7","system_id":"levelo_inurba_marseille","lat":43.32537,"lon":5.41424,"is_reserved":false,"is_disabled":false,"rental_uris":{"android":"levelo://app?vid=275b5b60-7e4a-4097-aa00-8752e9d745a7","ios":"levelo://app?vid=275b5b60-7e4a-4097-aa00-8752e9d745a7"},"vehicle_type_id":"4","last_reported":1747652957,"current_range_meters":7200,"station_id":"ce4bhq12rcd13ifvqhhg","pricing_plan_id":"cebpf4jnsgd1na2vs0mg"},{"bike_id":"ce87cf80-63bf-4464-bd62-ec9107d8ea0e","system_id":"levelo_inurba_marseille","lat":43.30424,"lon":5.39734,"is_reserved":false,"is_disabled":false,"rental_uris":{"android":"levelo://app?vid=ce87cf80-63bf-4464-bd62-ec9107d8ea0e","ios":"levelo://app?vid=ce87cf80-63bf-4464-bd62-ec9107d8ea0e"},"vehicle_type_id":"4","last_reported":1747652957,"current_range_meters":8000,"station_id":"ce4bh092rcd13ifvqd20","pricing_plan_id":"cebpf4jnsgd1na2vs0mg"},{"bike_id":"9e9bf122-002d-4b2b-80cf-72cefc9e6351","system_id":"levelo_inurba_marseille","lat":43.25938,"lon":5.40897,"is_reserved":false,"is_disabled":false,"rental_uris":{"android":"levelo://app?vid=9e9bf122-002d-4b2b-80cf-72cefc9e6351","ios":"levelo://app?vid=9e9bf122-002d-4b2b-80cf-72cefc9e6351"},"vehicle_type_id":"4","last_reported":1747652957,"current_range_meters":8000,"station_id":"ce4bhm92rcd13ifvqglg","pricing_plan_id":"cebpf4jnsgd1na2vs0mg"},{"bike_id":"4106f574-ab9b-40b2-b34e-1758475aa72b","system_id":"levelo_inurba_marseille","lat":43.313259,"lon":5.367361,"is_reserved":false,"is_disabled":false,"rental_uris":{"android":"levelo://app?vid=4106f574-ab9b-40b2-b34e-1758475aa72b","ios":"levelo://app?vid=4106f574-ab9b-40b2-b34e-1758475aa72b"},"vehicle_type_id":"4","last_reported":1747652957,"current_range_meters":8400,"station_id":"ce4bgr92rcd13ifvqc6g","pricing_plan_id":"cebpf4jnsgd1na2vs0mg"},{"bike_id":"b27ed3ec-2372-480e-ae38-31d138f1c032","system_id":"levelo_inurba_marseille","lat":43.3059,"lon":5.39355,"is_reserved":false,"is_disabled":false,"rental_uris":{"android":"levelo://app?vid=b27ed3ec-2372-480e-ae38-31d138f1c032","ios":"levelo://app?vid=b27ed3ec-2372-480e-ae38-31d138f1c032"},"vehicle_type_id":"4","last_reported":1747652957,"current_range_meters":8400,"station_id":"ce4bh0p2rcd13ifvqd80","pricing_plan_id":"cebpf4jnsgd1na2vs0mg"},{"bike_id":"33f1052b-03dd-4e29-8a37-6832cf65dacc","system_id":"levelo_inurba_marseille","lat":43.28458,"lon":5.35895,"is_reserved":false,"is_disabled":false,"rental_uris":{"android":"levelo://app?vid=33f1052b-03dd-4e29-8a37-6832cf65dacc","ios":"levelo://app?vid=33f1052b-03dd-4e29-8a37-6832cf65dacc"},"vehicle_type_id":"4","last_reported":1747652957,"current_range_meters":8400,"station_id":"ce4bhah2rcd13ifvqei0","pricing_plan_id":"cebpf4jnsgd1na2vs0mg"},{"bike_id":"80e0f9b9-e76b-4471-b7a7-6a175d19f571","system_id":"levelo_inurba_marseille","lat":43.288483,"lon":5.358356,"is_reserved":false,"is_disabled":false,"rental_uris":{"android":"levelo://app?vid=80e0f9b9-e76b-4471-b7a7-6a175d19f571","ios":"levelo://app?vid=80e0f9b9-e76b-4471-b7a7-6a175d19f571"},"vehicle_type_id":"4","last_reported":1747652957,"current_range_meters":8400,"station_id":"ce4bhb12rcd13ifvqem0","pricing_plan_id":"cebpf4jnsgd1na2vs0mg"},{"bike_id":"012904f8-8c9e-4c86-af5f-f7eb945b74aa","system_id":"levelo_inurba_marseille","lat":43.24665,"lon":5.38891,"is_reserved":false,"is_disabled":false,"rental_uris":{"android":"levelo://app?vid=012904f8-8c9e-4c86-af5f-f7eb945b74aa","ios":"levelo://app?vid=012904f8-8c9e-4c86-af5f-f7eb945b74aa"},"vehicle_type_id":"4","last_reported":1747652957,"current_range_meters":8400,"station_id":"ce4bhg12rcd13ifvqf60","pricing_plan_id":"cebpf4jnsgd1na2vs0mg"},{"bike_id":"0e4be12c-830a-4cbe-bc0c-dbe3be483ab7","system_id":"levelo_inurba_marseille","lat":43.32097,"lon":5.36797,"is_reserved":false,"is_disabled":false,"rental_uris":{"android":"levelo://app?vid=0e4be12c-830a-4cbe-bc0c-dbe3be483ab7","ios":"levelo://app?vid=0e4be12c-830a-4cbe-bc0c-dbe3be483ab7"},"vehicle_type_id":"4","last_reported":1747652957,"current_range_meters":8400,"station_id":"ce4bhrh2rcd13ifvqhug","pricing_plan_id":"cebpf4jnsgd1na2vs0mg"},{"bike_id":"3ff07cc8-ca75-4333-8778-9c9eeef8f172","system_id":"levelo_inurba_marseille","lat":43.27496,"lon":5.42448,"is_reserved":false,"is_disabled":false,"rental_uris":{"android":"levelo://app?vid=3ff07cc8-ca75-4333-8778-9c9eeef8f172","ios":"levelo://app?vid=3ff07cc8-ca75-4333-8778-9c9eeef8f172"},"vehicle_type_id":"4","last_reported":1747652957,"current_range_meters":8800,"station_id":"ce4bhn92rcd13ifvqgrg","pricing_plan_id":"cebpf4jnsgd1na2vs0mg"},{"bike_id":"887a8389-3396-447e-9711-c8383bd9e476","system_id":"levelo_inurba_marseille","lat":43.30462,"lon":5.37903,"is_reserved":false,"is_disabled":false,"rental_uris":{"android":"levelo://app?vid=887a8389-3396-447e-9711-c8383bd9e476","ios":"levelo://app?vid=887a8389-3396-447e-9711-c8383bd9e476"},"vehicle_type_id":"4","last_reported":1747652957,"current_range_meters":9200,"station_id":"ce4bgup2rcd13ifvqcn0","pricing_plan_id":"cebpf4jnsgd1na2vs0mg"},{"bike_id":"2e318a78-10e2-4ef5-b5f7-6f4ce318d672","system_id":"levelo_inurba_marseille","lat":43.28941,"lon":5.39641,"is_reserved":false,"is_disabled":false,"rental_uris":{"android":"levelo://app?vid=2e318a78-10e2-4ef5-b5f7-6f4ce318d672","ios":"levelo://app?vid=2e318a78-10e2-4ef5-b5f7-6f4ce318d672"},"vehicle_type_id":"4","last_reported":1747652957,"current_range_meters":9200,"station_id":"ce4bh3h2rcd13ifvqdn0","pricing_plan_id":"cebpf4jnsgd1na2vs0mg"},{"bike_id":"8d4e2e34-05a2-4d3e-b6c7-f13849ad11ab","system_id":"levelo_inurba_marseille","lat":43.28421,"lon":5.34972,"is_reserved":false,"is_disabled":false,"rental_uris":{"android":"levelo://app?vid=8d4e2e34-05a2-4d3e-b6c7-f13849ad11ab","ios":"levelo://app?vid=8d4e2e34-05a2-4d3e-b6c7-f13849ad11ab"},"vehicle_type_id":"4","last_reported":1747652957,"current_range_meters":9200,"station_id":"ce4bhbh2rcd13ifvqepg","pricing_plan_id":"cebpf4jnsgd1na2vs0mg"},{"bike_id":"008d419e-0fcd-41e3-a28b-30e3b81a6219","system_id":"levelo_inurba_marseille","lat":43.30591,"lon":5.39358,"is_reserved":false,"is_disabled":false,"rental_uris":{"android":"levelo://app?vid=008d419e-0fcd-41e3-a28b-30e3b81a6219","ios":"levelo://app?vid=008d419e-0fcd-41e3-a28b-30e3b81a6219"},"vehicle_type_id":"4","last_reported":1747652957,"current_range_meters":9600,"station_id":"ce4bh0p2rcd13ifvqd80","pricing_plan_id":"cebpf4jnsgd1na2vs0mg"},{"bike_id":"10060988-3632-4061-8c28-f32a68cdc17c","system_id":"levelo_inurba_marseille","lat":43.2467,"lon":5.38152,"is_reserved":false,"is_disabled":false,"rental_uris":{"android":"levelo://app?vid=10060988-3632-4061-8c28-f32a68cdc17c","ios":"levelo://app?vid=10060988-3632-4061-8c28-f32a68cdc17c"},"vehicle_type_id":"4","last_reported":1747652957,"current_range_meters":9600,"station_id":"ce4bhih2rcd13ifvqfr0","pricing_plan_id":"cebpf4jnsgd1na2vs0mg"},{"bike_id":"1251f3e6-f78a-418d-9e0a-7474b2b1d8ac","system_id":"levelo_inurba_marseille","lat":43.25898,"lon":5.40865,"is_reserved":false,"is_disabled":false,"rental_uris":{"android":"levelo://app?vid=1251f3e6-f78a-418d-9e0a-7474b2b1d8ac","ios":"levelo://app?vid=1251f3e6-f78a-418d-9e0a-7474b2b1d8ac"},"vehicle_type_id":"4","last_reported":1747652957,"current_range_meters":9600,"station_id":"ce4bhm92rcd13ifvqglg","pricing_plan_id":"cebpf4jnsgd1na2vs0mg"},{"bike_id":"05fd9000-fbd2-4e2d-baf5-973ae3330fbf","system_id":"levelo_inurba_marseille","lat":43.27814,"lon":5.40706,"is_reserved":false,"is_disabled":false,"rental_uris":{"android":"levelo://app?vid=05fd9000-fbd2-4e2d-baf5-973ae3330fbf","ios":"levelo://app?vid=05fd9000-fbd2-4e2d-baf5-973ae3330fbf"},"vehicle_type_id":"4","last_reported":1747652957,"current_range_meters":9600,"station_id":"ce4bhnh2rcd13ifvqgtg","pricing_plan_id":"cebpf4jnsgd1na2vs0mg"},{"bike_id":"12c4d802-2c6a-4c71-888e-000ffe312a3f","system_id":"levelo_inurba_marseille","lat":43.32365,"lon":5.36785,"is_reserved":false,"is_disabled":false,"rental_uris":{"android":"levelo://app?vid=12c4d802-2c6a-4c71-888e-000ffe312a3f","ios":"levelo://app?vid=12c4d802-2c6a-4c71-888e-000ffe312a3f"},"vehicle_type_id":"4","last_reported":1747652957,"current_range_meters":9600,"station_id":"ce4bhsh2rcd13ifvqi2g","pricing_plan_id":"cebpf4jnsgd1na2vs0mg"},{"bike_id":"b2d8cb22-bb08-445b-9edd-971005f2f520","system_id":"levelo_inurba_marseille","lat":43.30528,"lon":5.36708,"is_reserved":false,"is_disabled":false,"rental_uris":{"android":"levelo://app?vid=b2d8cb22-bb08-445b-9edd-971005f2f520","ios":"levelo://app?vid=b2d8cb22-bb08-445b-9edd-971005f2f520"},"vehicle_type_id":"4","last_reported":1747652957,"current_range_meters":10000,"station_id":"ce4bgrp2rcd13ifvqc9g","pricing_plan_id":"cebpf4jnsgd1na2vs0mg"},{"bike_id":"58c1d2a9-8eb8-43b1-a8c3-0d2a6e971d90","system_id":"levelo_inurba_marseille","lat":43.28275,"lon":5.35055,"is_reserved":false,"is_disabled":false,"rental_uris":{"android":"levelo://app?vid=58c1d2a9-8eb8-43b1-a8c3-0d2a6e971d90","ios":"levelo://app?vid=58c1d2a9-8eb8-43b1-a8c3-0d2a6e971d90"},"vehicle_type_id":"4","last_reported":1747652957,"current_range_meters":10000,"station_id":"ce4bhbp2rcd13ifvqerg","pricing_plan_id":"cebpf4jnsgd1na2vs0mg"},{"bike_id":"06e452b4-00bd-4194-8cf0-97e51cbae02e","system_id":"levelo_inurba_marseille","lat":43.23193,"lon":5.39975,"is_reserved":false,"is_disabled":false,"rental_uris":{"android":"levelo://app?vid=06e452b4-00bd-4194-8cf0-97e51cbae02e","ios":"levelo://app?vid=06e452b4-00bd-4194-8cf0-97e51cbae02e"},"vehicle_type_id":"4","last_reported":1747652957,"current_range_meters":10000,"station_id":"ce4bhn12rcd13ifvqgqg","pricing_plan_id":"cebpf4jnsgd1na2vs0mg"},{"bike_id":"12dc7b69-13f2-472b-88f6-002195ea0335","system_id":"levelo_inurba_marseille","lat":43.23178,"lon":5.39985,"is_reserved":false,"is_disabled":false,"rental_uris":{"android":"levelo://app?vid=12dc7b69-13f2-472b-88f6-002195ea0335","ios":"levelo://app?vid=12dc7b69-13f2-472b-88f6-002195ea0335"},"vehicle_type_id":"4","last_reported":1747652957,"current_range_meters":10000,"station_id":"ce4bhn12rcd13ifvqgqg","pricing_plan_id":"cebpf4jnsgd1na2vs0mg"},{"bike_id":"5efa36ca-1e40-429e-bf65-d5227ed3132a","system_id":"levelo_inurba_marseille","lat":43.297869,"lon":5.371032,"is_reserved":false,"is_disabled":false,"rental_uris":{"android":"levelo://app?vid=5efa36ca-1e40-429e-bf65-d5227ed3132a","ios":"levelo://app?vid=5efa36ca-1e40-429e-bf65-d5227ed3132a"},"vehicle_type_id":"4","last_reported":1747652957,"current_range_meters":10800,"station_id":"ce4bgop2rcd13ifvqc1g","pricing_plan_id":"cebpf4jnsgd1na2vs0mg"},{"bike_id":"cb403e01-63af-4c90-8790-9db8dcaacd91","system_id":"levelo_inurba_marseille","lat":43.31328,"lon":5.36731,"is_reserved":false,"is_disabled":false,"rental_uris":{"android":"levelo://app?vid=cb403e01-63af-4c90-8790-9db8dcaacd91","ios":"levelo://app?vid=cb403e01-63af-4c90-8790-9db8dcaacd91"},"vehicle_type_id":"4","last_reported":1747652957,"current_range_meters":10800,"station_id":"ce4bgr92rcd13ifvqc6g","pricing_plan_id":"cebpf4jnsgd1na2vs0mg"},{"bike_id":"b8cba434-6802-4e67-8d21-d1856122f515","system_id":"levelo_inurba_marseille","lat":43.30803,"lon":5.38151,"is_reserved":false,"is_disabled":false,"rental_uris":{"android":"levelo://app?vid=b8cba434-6802-4e67-8d21-d1856122f515","ios":"levelo://app?vid=b8cba434-6802-4e67-8d21-d1856122f515"},"vehicle_type_id":"4","last_reported":1747652957,"current_range_meters":10800,"station_id":"ce4bgt12rcd13ifvqce0","pricing_plan_id":"cebpf4jnsgd1na2vs0mg"},{"bike_id":"a46bea6a-6348-4a7e-9891-095da4fe1996","system_id":"levelo_inurba_marseille","lat":43.28415,"lon":5.34993,"is_reserved":false,"is_disabled":false,"rental_uris":{"android":"levelo://app?vid=a46bea6a-6348-4a7e-9891-095da4fe1996","ios":"levelo://app?vid=a46bea6a-6348-4a7e-9891-095da4fe1996"},"vehicle_type_id":"4","last_reported":1747652957,"current_range_meters":10800,"station_id":"ce4bhbh2rcd13ifvqepg","pricing_plan_id":"cebpf4jnsgd1na2vs0mg"},{"bike_id":"201476c2-6270-46bd-a5f5-e47f4ad7efa4","system_id":"levelo_inurba_marseille","lat":43.23145,"lon":5.43717,"is_reserved":false,"is_disabled":false,"rental_uris":{"android":"levelo://app?vid=201476c2-6270-46bd-a5f5-e47f4ad7efa4","ios":"levelo://app?vid=201476c2-6270-46bd-a5f5-e47f4ad7efa4"},"vehicle_type_id":"4","last_reported":1747652957,"current_range_meters":10800,"station_id":"ce4bhmp2rcd13ifvqgog","pricing_plan_id":"cebpf4jnsgd1na2vs0mg"},{"bike_id":"e2483e33-e22f-4969-8812-f7cdcc75c59a","system_id":"levelo_inurba_marseille","lat":43.32363,"lon":5.36764,"is_reserved":false,"is_disabled":false,"rental_uris":{"android":"levelo://app?vid=e2483e33-e22f-4969-8812-f7cdcc75c59a","ios":"levelo://app?vid=e2483e33-e22f-4969-8812-f7cdcc75c59a"},"vehicle_type_id":"4","last_reported":1747652957,"current_range_meters":10800,"station_id":"ce4bhsh2rcd13ifvqi2g","pricing_plan_id":"cebpf4jnsgd1na2vs0mg"},{"bike_id":"eebe45a2-25de-4f5f-9311-ab9612224a66","system_id":"levelo_inurba_marseille","lat":43.27448,"lon":5.39331,"is_reserved":false,"is_disabled":false,"rental_uris":{"android":"levelo://app?vid=eebe45a2-25de-4f5f-9311-ab9612224a66","ios":"levelo://app?vid=eebe45a2-25de-4f5f-9311-ab9612224a66"},"vehicle_type_id":"4","last_reported":1747652957,"current_range_meters":11200,"station_id":"","pricing_plan_id":"cebpf4jnsgd1na2vs0mg"},{"bike_id":"d3aa3bb3-98ef-4b20-a62b-15c0756234a9","system_id":"levelo_inurba_marseille","lat":43.29366,"lon":5.37843,"is_reserved":false,"is_disabled":false,"rental_uris":{"android":"levelo://app?vid=d3aa3bb3-98ef-4b20-a62b-15c0756234a9","ios":"levelo://app?vid=d3aa3bb3-98ef-4b20-a62b-15c0756234a9"},"vehicle_type_id":"4","last_reported":1747652957,"current_range_meters":11200,"station_id":"ce4bgjh2rcd13ifvqbf0","pricing_plan_id":"cebpf4jnsgd1na2vs0mg"},{"bike_id":"c26b8e89-06ba-4479-a961-b7421bebfc12","system_id":"levelo_inurba_marseille","lat":43.281955,"lon":5.403826,"is_reserved":false,"is_disabled":false,"rental_uris":{"android":"levelo://app?vid=c26b8e89-06ba-4479-a961-b7421bebfc12","ios":"levelo://app?vid=c26b8e89-06ba-4479-a961-b7421bebfc12"},"vehicle_type_id":"4","last_reported":1747652957,"current_range_meters":11200,"station_id":"ce4bhn92rcd13ifvqgrg","pricing_plan_id":"cebpf4jnsgd1na2vs0mg"},{"bike_id":"26c3e9e3-aa88-402f-917b-ab80500e56b5","system_id":"levelo_inurba_marseille","lat":43.27817,"lon":5.40695,"is_reserved":false,"is_disabled":false,"rental_uris":{"android":"levelo://app?vid=26c3e9e3-aa88-402f-917b-ab80500e56b5","ios":"levelo://app?vid=26c3e9e3-aa88-402f-917b-ab80500e56b5"},"vehicle_type_id":"4","last_reported":1747652957,"current_range_meters":11200,"station_id":"ce4bhnh2rcd13ifvqgtg","pricing_plan_id":"cebpf4jnsgd1na2vs0mg"},{"bike_id":"bcbdbd69-7be8-42f8-a855-a4358565de8f","system_id":"levelo_inurba_marseille","lat":43.27685,"lon":5.41356,"is_reserved":false,"is_disabled":false,"rental_uris":{"android":"levelo://app?vid=bcbdbd69-7be8-42f8-a855-a4358565de8f","ios":"levelo://app?vid=bcbdbd69-7be8-42f8-a855-a4358565de8f"},"vehicle_type_id":"4","last_reported":1747652957,"current_range_meters":11600,"station_id":"","pricing_plan_id":"cebpf4jnsgd1na2vs0mg"},{"bike_id":"a39430ae-4d19-4490-9236-74ddb8f739f6","system_id":"levelo_inurba_marseille","lat":43.30803,"lon":5.38162,"is_reserved":false,"is_disabled":false,"rental_uris":{"android":"levelo://app?vid=a39430ae-4d19-4490-9236-74ddb8f739f6","ios":"levelo://app?vid=a39430ae-4d19-4490-9236-74ddb8f739f6"},"vehicle_type_id":"4","last_reported":1747652957,"current_range_meters":11600,"station_id":"ce4bgt12rcd13ifvqce0","pricing_plan_id":"cebpf4jnsgd1na2vs0mg"},{"bike_id":"e74d7a88-0a59-4246-8675-88c01af4ede5","system_id":"levelo_inurba_marseille","lat":43.28349,"lon":5.38107,"is_reserved":false,"is_disabled":false,"rental_uris":{"android":"levelo://app?vid=e74d7a88-0a59-4246-8675-88c01af4ede5","ios":"levelo://app?vid=e74d7a88-0a59-4246-8675-88c01af4ede5"},"vehicle_type_id":"4","last_reported":1747652957,"current_range_meters":11600,"station_id":"ce4bh412rcd13ifvqdr0","pricing_plan_id":"cebpf4jnsgd1na2vs0mg"},{"bike_id":"d7716071-111e-4284-9e0a-4cd215db076f","system_id":"levelo_inurba_marseille","lat":43.28263,"lon":5.35077,"is_reserved":false,"is_disabled":false,"rental_uris":{"android":"levelo://app?vid=d7716071-111e-4284-9e0a-4cd215db076f","ios":"levelo://app?vid=d7716071-111e-4284-9e0a-4cd215db076f"},"vehicle_type_id":"4","last_reported":1747652957,"current_range_meters":11600,"station_id":"ce4bhbp2rcd13ifvqerg","pricing_plan_id":"cebpf4jnsgd1na2vs0mg"},{"bike_id":"1304491c-9598-4f85-b166-545686317b13","system_id":"levelo_inurba_marseille","lat":43.23126,"lon":5.43728,"is_reserved":false,"is_disabled":false,"rental_uris":{"android":"levelo://app?vid=1304491c-9598-4f85-b166-545686317b13","ios":"levelo://app?vid=1304491c-9598-4f85-b166-545686317b13"},"vehicle_type_id":"4","last_reported":1747652957,"current_range_meters":11600,"station_id":"ce4bhmp2rcd13ifvqgog","pricing_plan_id":"cebpf4jnsgd1na2vs0mg"},{"bike_id":"a0ef91e8-eab4-4e92-9764-f8b59bed148c","system_id":"levelo_inurba_marseille","lat":43.31363,"lon":5.38464,"is_reserved":false,"is_disabled":false,"rental_uris":{"android":"levelo://app?vid=a0ef91e8-eab4-4e92-9764-f8b59bed148c","ios":"levelo://app?vid=a0ef91e8-eab4-4e92-9764-f8b59bed148c"},"vehicle_type_id":"4","last_reported":1747652957,"current_range_meters":12000,"station_id":"ce4bgt92rcd13ifvqcf0","pricing_plan_id":"cebpf4jnsgd1na2vs0mg"},{"bike_id":"d4c201c9-b186-46f7-8946-b66051026c98","system_id":"levelo_inurba_marseille","lat":43.26683,"lon":5.38271,"is_reserved":false,"is_disabled":false,"rental_uris":{"android":"levelo://app?vid=d4c201c9-b186-46f7-8946-b66051026c98","ios":"levelo://app?vid=d4c201c9-b186-46f7-8946-b66051026c98"},"vehicle_type_id":"4","last_reported":1747652957,"current_range_meters":12000,"station_id":"ce4bhg92rcd13ifvqf90","pricing_plan_id":"cebpf4jnsgd1na2vs0mg"},{"bike_id":"5e529b3c-b903-4004-ac58-0fc02521e920","system_id":"levelo_inurba_marseille","lat":43.24553,"lon":5.39526,"is_reserved":false,"is_disabled":false,"rental_uris":{"android":"levelo://app?vid=5e529b3c-b903-4004-ac58-0fc02521e920","ios":"levelo://app?vid=5e529b3c-b903-4004-ac58-0fc02521e920"},"vehicle_type_id":"4","last_reported":1747652957,"current_range_meters":12000,"station_id":"ce4bhlp2rcd13ifvqgjg","pricing_plan_id":"cebpf4jnsgd1na2vs0mg"},{"bike_id":"4cba696e-1bc1-46cf-b2ae-88f1ebbbcbda","system_id":"levelo_inurba_marseille","lat":43.30856,"lon":5.37781,"is_reserved":false,"is_disabled":false,"rental_uris":{"android":"levelo://app?vid=4cba696e-1bc1-46cf-b2ae-88f1ebbbcbda","ios":"levelo://app?vid=4cba696e-1bc1-46cf-b2ae-88f1ebbbcbda"},"vehicle_type_id":"4","last_reported":1747652957,"current_range_meters":12400,"station_id":"","pricing_plan_id":"cebpf4jnsgd1na2vs0mg"},{"bike_id":"6c0481be-1d38-46a6-983f-2cb6a293456d","system_id":"levelo_inurba_marseille","lat":43.30139,"lon":5.3743,"is_reserved":false,"is_disabled":false,"rental_uris":{"android":"levelo://app?vid=6c0481be-1d38-46a6-983f-2cb6a293456d","ios":"levelo://app?vid=6c0481be-1d38-46a6-983f-2cb6a293456d"},"vehicle_type_id":"4","last_reported":1747652957,"current_range_meters":12400,"station_id":"ce4bgs92rcd13ifvqcc0","pricing_plan_id":"cebpf4jnsgd1na2vs0mg"},{"bike_id":"fba103a6-30ce-481c-a05a-9411e513bfcf","system_id":"levelo_inurba_marseille","lat":43.25932,"lon":5.40884,"is_reserved":false,"is_disabled":false,"rental_uris":{"android":"levelo://app?vid=fba103a6-30ce-481c-a05a-9411e513bfcf","ios":"levelo://app?vid=fba103a6-30ce-481c-a05a-9411e513bfcf"},"vehicle_type_id":"4","last_reported":1747652957,"current_range_meters":12400,"station_id":"ce4bhm92rcd13ifvqglg","pricing_plan_id":"cebpf4jnsgd1na2vs0mg"},{"bike_id":"9ceed656-7255-40fd-b473-baf2d748742a","system_id":"levelo_inurba_marseille","lat":43.27824,"lon":5.40727,"is_reserved":false,"is_disabled":false,"rental_uris":{"android":"levelo://app?vid=9ceed656-7255-40fd-b473-baf2d748742a","ios":"levelo://app?vid=9ceed656-7255-40fd-b473-baf2d748742a"},"vehicle_type_id":"4","last_reported":1747652957,"current_range_meters":12400,"station_id":"ce4bhnh2rcd13ifvqgtg","pricing_plan_id":"cebpf4jnsgd1na2vs0mg"},{"bike_id":"54337563-eceb-49aa-b495-7473e677712d","system_id":"levelo_inurba_marseille","lat":43.27971,"lon":5.41679,"is_reserved":false,"is_disabled":false,"rental_uris":{"android":"levelo://app?vid=54337563-eceb-49aa-b495-7473e677712d","ios":"levelo://app?vid=54337563-eceb-49aa-b495-7473e677712d"},"vehicle_type_id":"4","last_reported":1747652957,"current_range_meters":12400,"station_id":"ce4bho12rcd13ifvqh1g","pricing_plan_id":"cebpf4jnsgd1na2vs0mg"},{"bike_id":"cff8ff58-047a-4e45-89da-68f5f4acd81e","system_id":"levelo_inurba_marseille","lat":43.312477,"lon":5.368473,"is_reserved":false,"is_disabled":false,"rental_uris":{"android":"levelo://app?vid=cff8ff58-047a-4e45-89da-68f5f4acd81e","ios":"levelo://app?vid=cff8ff58-047a-4e45-89da-68f5f4acd81e"},"vehicle_type_id":"4","last_reported":1747652957,"current_range_meters":12800,"station_id":"ce4bgl92rcd13ifvqbq0","pricing_plan_id":"cebpf4jnsgd1na2vs0mg"},{"bike_id":"3c37537a-5e8c-4d3b-b3ed-9a08a3a7d1be","system_id":"levelo_inurba_marseille","lat":43.27497,"lon":5.42447,"is_reserved":false,"is_disabled":false,"rental_uris":{"android":"levelo://app?vid=3c37537a-5e8c-4d3b-b3ed-9a08a3a7d1be","ios":"levelo://app?vid=3c37537a-5e8c-4d3b-b3ed-9a08a3a7d1be"},"vehicle_type_id":"4","last_reported":1747652957,"current_range_meters":12800,"station_id":"ce4bhn92rcd13ifvqgrg","pricing_plan_id":"cebpf4jnsgd1na2vs0mg"},{"bike_id":"116bf2e7-3f91-4b9f-bb4c-b5c5cb913d96","system_id":"levelo_inurba_marseille","lat":43.28705,"lon":5.39993,"is_reserved":false,"is_disabled":false,"rental_uris":{"android":"levelo://app?vid=116bf2e7-3f91-4b9f-bb4c-b5c5cb913d96","ios":"levelo://app?vid=116bf2e7-3f91-4b9f-bb4c-b5c5cb913d96"},"vehicle_type_id":"4","last_reported":1747652957,"current_range_meters":12800,"station_id":"ce4bho92rcd13ifvqh3g","pricing_plan_id":"cebpf4jnsgd1na2vs0mg"},{"bike_id":"c584a215-342c-429b-a9c9-d510d09feeef","system_id":"levelo_inurba_marseille","lat":43.29574,"lon":5.37518,"is_reserved":false,"is_disabled":false,"rental_uris":{"android":"levelo://app?vid=c584a215-342c-429b-a9c9-d510d09feeef","ios":"levelo://app?vid=c584a215-342c-429b-a9c9-d510d09feeef"},"vehicle_type_id":"4","last_reported":1747652957,"current_range_meters":13600,"station_id":"ce4bgh92rcd13ifvqb50","pricing_plan_id":"cebpf4jnsgd1na2vs0mg"},{"bike_id":"33945245-6981-44cc-828d-d3ce50a8199a","system_id":"levelo_inurba_marseille","lat":43.29964,"lon":5.38505,"is_reserved":false,"is_disabled":false,"rental_uris":{"android":"levelo://app?vid=33945245-6981-44cc-828d-d3ce50a8199a","ios":"levelo://app?vid=33945245-6981-44cc-828d-d3ce50a8199a"},"vehicle_type_id":"4","last_reported":1747652957,"current_range_meters":13600,"station_id":"ce4bgj92rcd13ifvqbd0","pricing_plan_id":"cebpf4jnsgd1na2vs0mg"},{"bike_id":"cf0e6672-79f3-49bc-ae81-5a367314a352","system_id":"levelo_inurba_marseille","lat":43.31223,"lon":5.36856,"is_reserved":false,"is_disabled":false,"rental_uris":{"android":"levelo://app?vid=cf0e6672-79f3-49bc-ae81-5a367314a352","ios":"levelo://app?vid=cf0e6672-79f3-49bc-ae81-5a367314a352"},"vehicle_type_id":"4","last_reported":1747652957,"current_range_meters":13600,"station_id":"ce4bgl92rcd13ifvqbq0","pricing_plan_id":"cebpf4jnsgd1na2vs0mg"},{"bike_id":"f0be192c-ae4f-446a-8b5a-34019ce7051f","system_id":"levelo_inurba_marseille","lat":43.29845,"lon":5.3626,"is_reserved":false,"is_disabled":false,"rental_uris":{"android":"levelo://app?vid=f0be192c-ae4f-446a-8b5a-34019ce7051f","ios":"levelo://app?vid=f0be192c-ae4f-446a-8b5a-34019ce7051f"},"vehicle_type_id":"4","last_reported":1747652957,"current_range_meters":13600,"station_id":"ce4bgpp2rcd13ifvqc3g","pricing_plan_id":"cebpf4jnsgd1na2vs0mg"},{"bike_id":"0ebf5dd1-3b51-43ff-9f2d-6e51f6aec92b","system_id":"levelo_inurba_marseille","lat":43.30611,"lon":5.3725,"is_reserved":false,"is_disabled":false,"rental_uris":{"android":"levelo://app?vid=0ebf5dd1-3b51-43ff-9f2d-6e51f6aec92b","ios":"levelo://app?vid=0ebf5dd1-3b51-43ff-9f2d-6e51f6aec92b"},"vehicle_type_id":"4","last_reported":1747652957,"current_range_meters":13600,"station_id":"ce4bgqh2rcd13ifvqc4g","pricing_plan_id":"cebpf4jnsgd1na2vs0mg"},{"bike_id":"b692399f-600e-4295-9455-59b9103486c8","system_id":"levelo_inurba_marseille","lat":43.29096,"lon":5.3812,"is_reserved":false,"is_disabled":false,"rental_uris":{"android":"levelo://app?vid=b692399f-600e-4295-9455-59b9103486c8","ios":"levelo://app?vid=b692399f-600e-4295-9455-59b9103486c8"},"vehicle_type_id":"4","last_reported":1747652957,"current_range_meters":13600,"station_id":"ce4bh512rcd13ifvqe2g","pricing_plan_id":"cebpf4jnsgd1na2vs0mg"},{"bike_id":"902140b6-4fea-42a9-b682-8c7f5b209397","system_id":"levelo_inurba_marseille","lat":43.28273,"lon":5.35079,"is_reserved":false,"is_disabled":false,"rental_uris":{"android":"levelo://app?vid=902140b6-4fea-42a9-b682-8c7f5b209397","ios":"levelo://app?vid=902140b6-4fea-42a9-b682-8c7f5b209397"},"vehicle_type_id":"4","last_reported":1747652957,"current_range_meters":13600,"station_id":"ce4bhbp2rcd13ifvqerg","pricing_plan_id":"cebpf4jnsgd1na2vs0mg"},{"bike_id":"424c130a-dd6b-43c5-9adf-8e936ccf5500","system_id":"levelo_inurba_marseille","lat":43.25126,"lon":5.40319,"is_reserved":false,"is_disabled":false,"rental_uris":{"android":"levelo://app?vid=424c130a-dd6b-43c5-9adf-8e936ccf5500","ios":"levelo://app?vid=424c130a-dd6b-43c5-9adf-8e936ccf5500"},"vehicle_type_id":"4","last_reported":1747652957,"current_range_meters":13600,"station_id":"ce4bhlh2rcd13ifvqgig","pricing_plan_id":"cebpf4jnsgd1na2vs0mg"},{"bike_id":"f4ba9c6e-bcad-41c7-8d4e-bca01364d190","system_id":"levelo_inurba_marseille","lat":43.25936,"lon":5.40909,"is_reserved":false,"is_disabled":false,"rental_uris":{"android":"levelo://app?vid=f4ba9c6e-bcad-41c7-8d4e-bca01364d190","ios":"levelo://app?vid=f4ba9c6e-bcad-41c7-8d4e-bca01364d190"},"vehicle_type_id":"4","last_reported":1747652957,"current_range_meters":13600,"station_id":"ce4bhm92rcd13ifvqglg","pricing_plan_id":"cebpf4jnsgd1na2vs0mg"},{"bike_id":"11fefb45-acb7-427d-88b6-35762ca1ad16","system_id":"levelo_inurba_marseille","lat":43.27952,"lon":5.41663,"is_reserved":false,"is_disabled":false,"rental_uris":{"android":"levelo://app?vid=11fefb45-acb7-427d-88b6-35762ca1ad16","ios":"levelo://app?vid=11fefb45-acb7-427d-88b6-35762ca1ad16"},"vehicle_type_id":"4","last_reported":1747652957,"current_range_meters":13600,"station_id":"ce4bho12rcd13ifvqh1g","pricing_plan_id":"cebpf4jnsgd1na2vs0mg"},{"bike_id":"a486c409-50e3-4319-942b-256cc6c595ab","system_id":"levelo_inurba_marseille","lat":43.31227,"lon":5.36861,"is_reserved":false,"is_disabled":false,"rental_uris":{"android":"levelo://app?vid=a486c409-50e3-4319-942b-256cc6c595ab","ios":"levelo://app?vid=a486c409-50e3-4319-942b-256cc6c595ab"},"vehicle_type_id":"4","last_reported":1747652957,"current_range_meters":14000,"station_id":"ce4bgl92rcd13ifvqbq0","pricing_plan_id":"cebpf4jnsgd1na2vs0mg"},{"bike_id":"4d84e95c-d2af-4324-b46f-888d9bc5478f","system_id":"levelo_inurba_marseille","lat":43.312161,"lon":5.368609,"is_reserved":false,"is_disabled":false,"rental_uris":{"android":"levelo://app?vid=4d84e95c-d2af-4324-b46f-888d9bc5478f","ios":"levelo://app?vid=4d84e95c-d2af-4324-b46f-888d9bc5478f"},"vehicle_type_id":"4","last_reported":1747652957,"current_range_meters":14000,"station_id":"ce4bgl92rcd13ifvqbq0","pricing_plan_id":"cebpf4jnsgd1na2vs0mg"},{"bike_id":"bffbaf88-357a-4e87-a68c-a9a27a6e01e6","system_id":"levelo_inurba_marseille","lat":43.26231,"lon":5.42131,"is_reserved":false,"is_disabled":false,"rental_uris":{"android":"levelo://app?vid=bffbaf88-357a-4e87-a68c-a9a27a6e01e6","ios":"levelo://app?vid=bffbaf88-357a-4e87-a68c-a9a27a6e01e6"},"vehicle_type_id":"4","last_reported":1747652957,"current_range_meters":14400,"station_id":"","pricing_plan_id":"cebpf4jnsgd1na2vs0mg"},{"bike_id":"c3c11b11-8507-45b4-bd48-1e3bdd46fbbe","system_id":"levelo_inurba_marseille","lat":43.23192,"lon":5.3997,"is_reserved":false,"is_disabled":false,"rental_uris":{"android":"levelo://app?vid=c3c11b11-8507-45b4-bd48-1e3bdd46fbbe","ios":"levelo://app?vid=c3c11b11-8507-45b4-bd48-1e3bdd46fbbe"},"vehicle_type_id":"4","last_reported":1747652957,"current_range_meters":14400,"station_id":"ce4bhn12rcd13ifvqgqg","pricing_plan_id":"cebpf4jnsgd1na2vs0mg"},{"bike_id":"94bdc35b-713b-4ae7-9fdb-b1e4bed922c2","system_id":"levelo_inurba_marseille","lat":43.27492,"lon":5.42451,"is_reserved":false,"is_disabled":false,"rental_uris":{"android":"levelo://app?vid=94bdc35b-713b-4ae7-9fdb-b1e4bed922c2","ios":"levelo://app?vid=94bdc35b-713b-4ae7-9fdb-b1e4bed922c2"},"vehicle_type_id":"4","last_reported":1747652957,"current_range_meters":14400,"station_id":"ce4bhn92rcd13ifvqgrg","pricing_plan_id":"cebpf4jnsgd1na2vs0mg"},{"bike_id":"747f32cb-6b90-41cb-af47-7cc48fc9a982","system_id":"levelo_inurba_marseille","lat":43.21743,"lon":5.34619,"is_reserved":false,"is_disabled":false,"rental_uris":{"android":"levelo://app?vid=747f32cb-6b90-41cb-af47-7cc48fc9a982","ios":"levelo://app?vid=747f32cb-6b90-41cb-af47-7cc48fc9a982"},"vehicle_type_id":"4","last_reported":1747652957,"current_range_meters":14400,"station_id":"st_cvj6r9ubvosntc0bgbag","pricing_plan_id":"cebpf4jnsgd1na2vs0mg"},{"bike_id":"147f0919-b4f4-4da5-a06b-5f70c1438bc0","system_id":"levelo_inurba_marseille","lat":43.25929,"lon":5.40823,"is_reserved":false,"is_disabled":false,"rental_uris":{"android":"levelo://app?vid=147f0919-b4f4-4da5-a06b-5f70c1438bc0","ios":"levelo://app?vid=147f0919-b4f4-4da5-a06b-5f70c1438bc0"},"vehicle_type_id":"4","last_reported":1747652957,"current_range_meters":14800,"station_id":"ce4bhm92rcd13ifvqglg","pricing_plan_id":"cebpf4jnsgd1na2vs0mg"},{"bike_id":"d2006ca5-5ebe-4a4e-bba8-a06bc2367a9d","system_id":"levelo_inurba_marseille","lat":43.24178,"lon":5.3973,"is_reserved":false,"is_disabled":false,"rental_uris":{"android":"levelo://app?vid=d2006ca5-5ebe-4a4e-bba8-a06bc2367a9d","ios":"levelo://app?vid=d2006ca5-5ebe-4a4e-bba8-a06bc2367a9d"},"vehicle_type_id":"4","last_reported":1747652957,"current_range_meters":14800,"station_id":"ce4bhn12rcd13ifvqgpg","pricing_plan_id":"cebpf4jnsgd1na2vs0mg"},{"bike_id":"08129706-0840-4cc7-a7e9-4dbc2d7407ba","system_id":"levelo_inurba_marseille","lat":43.23171,"lon":5.40003,"is_reserved":false,"is_disabled":false,"rental_uris":{"android":"levelo://app?vid=08129706-0840-4cc7-a7e9-4dbc2d7407ba","ios":"levelo://app?vid=08129706-0840-4cc7-a7e9-4dbc2d7407ba"},"vehicle_type_id":"4","last_reported":1747652957,"current_range_meters":14800,"station_id":"ce4bhn12rcd13ifvqgqg","pricing_plan_id":"cebpf4jnsgd1na2vs0mg"},{"bike_id":"f279c363-3438-4a16-b545-887b946f5978","system_id":"levelo_inurba_marseille","lat":43.26804,"lon":5.40264,"is_reserved":false,"is_disabled":false,"rental_uris":{"android":"levelo://app?vid=f279c363-3438-4a16-b545-887b946f5978","ios":"levelo://app?vid=f279c363-3438-4a16-b545-887b946f5978"},"vehicle_type_id":"4","last_reported":1747652957,"current_range_meters":14800,"station_id":"ce501612rcd8frsf0b60","pricing_plan_id":"cebpf4jnsgd1na2vs0mg"},{"bike_id":"293589fd-7658-4273-9fdd-35b57ad2d7ce","system_id":"levelo_inurba_marseille","lat":43.3134,"lon":5.36646,"is_reserved":false,"is_disabled":false,"rental_uris":{"android":"levelo://app?vid=293589fd-7658-4273-9fdd-35b57ad2d7ce","ios":"levelo://app?vid=293589fd-7658-4273-9fdd-35b57ad2d7ce"},"vehicle_type_id":"4","last_reported":1747652957,"current_range_meters":15200,"station_id":"","pricing_plan_id":"cebpf4jnsgd1na2vs0mg"},{"bike_id":"c9a00e74-029a-454e-8e85-1b3d994b9d78","system_id":"levelo_inurba_marseille","lat":43.21192,"lon":5.35075,"is_reserved":false,"is_disabled":false,"rental_uris":{"android":"levelo://app?vid=c9a00e74-029a-454e-8e85-1b3d994b9d78","ios":"levelo://app?vid=c9a00e74-029a-454e-8e85-1b3d994b9d78"},"vehicle_type_id":"4","last_reported":1747652957,"current_range_meters":15200,"station_id":"","pricing_plan_id":"cebpf4jnsgd1na2vs0mg"},{"bike_id":"a29d28d6-c3f8-4ce7-a26d-6a24837c628c","system_id":"levelo_inurba_marseille","lat":43.30902,"lon":5.36842,"is_reserved":false,"is_disabled":false,"rental_uris":{"android":"levelo://app?vid=a29d28d6-c3f8-4ce7-a26d-6a24837c628c","ios":"levelo://app?vid=a29d28d6-c3f8-4ce7-a26d-6a24837c628c"},"vehicle_type_id":"4","last_reported":1747652957,"current_range_meters":15200,"station_id":"ce4bgn92rcd13ifvqbvg","pricing_plan_id":"cebpf4jnsgd1na2vs0mg"},{"bike_id":"3f072042-577a-4841-828d-6cfe85556bac","system_id":"levelo_inurba_marseille","lat":43.2318,"lon":5.39987,"is_reserved":false,"is_disabled":false,"rental_uris":{"android":"levelo://app?vid=3f072042-577a-4841-828d-6cfe85556bac","ios":"levelo://app?vid=3f072042-577a-4841-828d-6cfe85556bac"},"vehicle_type_id":"4","last_reported":1747652957,"current_range_meters":15200,"station_id":"ce4bhn12rcd13ifvqgqg","pricing_plan_id":"cebpf4jnsgd1na2vs0mg"},{"bike_id":"344d8a8a-02c5-4470-8403-f5d3dc56aec9","system_id":"levelo_inurba_marseille","lat":43.28497,"lon":5.38389,"is_reserved":false,"is_disabled":false,"rental_uris":{"android":"levelo://app?vid=344d8a8a-02c5-4470-8403-f5d3dc56aec9","ios":"levelo://app?vid=344d8a8a-02c5-4470-8403-f5d3dc56aec9"},"vehicle_type_id":"4","last_reported":1747652957,"current_range_meters":16000,"station_id":"ce4bh512rcd13ifvqe3g","pricing_plan_id":"cebpf4jnsgd1na2vs0mg"},{"bike_id":"47e833c7-b34c-476b-bfe7-81bdb4db04e4","system_id":"levelo_inurba_marseille","lat":43.25922,"lon":5.40908,"is_reserved":false,"is_disabled":false,"rental_uris":{"android":"levelo://app?vid=47e833c7-b34c-476b-bfe7-81bdb4db04e4","ios":"levelo://app?vid=47e833c7-b34c-476b-bfe7-81bdb4db04e4"},"vehicle_type_id":"4","last_reported":1747652957,"current_range_meters":16000,"station_id":"ce4bhm92rcd13ifvqglg","pricing_plan_id":"cebpf4jnsgd1na2vs0mg"},{"bike_id":"e8162579-a5ad-485f-ad83-fec8a2ebe7e1","system_id":"levelo_inurba_marseille","lat":43.26826,"lon":5.39099,"is_reserved":false,"is_disabled":false,"rental_uris":{"android":"levelo://app?vid=e8162579-a5ad-485f-ad83-fec8a2ebe7e1","ios":"levelo://app?vid=e8162579-a5ad-485f-ad83-fec8a2ebe7e1"},"vehicle_type_id":"4","last_reported":1747652957,"current_range_meters":16400,"station_id":"","pricing_plan_id":"cebpf4jnsgd1na2vs0mg"},{"bike_id":"e52715d6-f438-4613-9d15-16bf26392dbd","system_id":"levelo_inurba_marseille","lat":43.2572,"lon":5.41113,"is_reserved":false,"is_disabled":false,"rental_uris":{"android":"levelo://app?vid=e52715d6-f438-4613-9d15-16bf26392dbd","ios":"levelo://app?vid=e52715d6-f438-4613-9d15-16bf26392dbd"},"vehicle_type_id":"4","last_reported":1747652957,"current_range_meters":16400,"station_id":"ce4bhkp2rcd13ifvqgd0","pricing_plan_id":"cebpf4jnsgd1na2vs0mg"},{"bike_id":"58edc354-c183-4da4-b527-1ba0f2d395e0","system_id":"levelo_inurba_marseille","lat":43.27666,"lon":5.35757,"is_reserved":false,"is_disabled":false,"rental_uris":{"android":"levelo://app?vid=58edc354-c183-4da4-b527-1ba0f2d395e0","ios":"levelo://app?vid=58edc354-c183-4da4-b527-1ba0f2d395e0"},"vehicle_type_id":"4","last_reported":1747652957,"current_range_meters":16800,"station_id":"","pricing_plan_id":"cebpf4jnsgd1na2vs0mg"},{"bike_id":"8758c411-b839-423a-a293-54c4499bbe26","system_id":"levelo_inurba_marseille","lat":43.31219,"lon":5.36851,"is_reserved":false,"is_disabled":false,"rental_uris":{"android":"levelo://app?vid=8758c411-b839-423a-a293-54c4499bbe26","ios":"levelo://app?vid=8758c411-b839-423a-a293-54c4499bbe26"},"vehicle_type_id":"4","last_reported":1747652957,"current_range_meters":16800,"station_id":"ce4bgl92rcd13ifvqbq0","pricing_plan_id":"cebpf4jnsgd1na2vs0mg"},{"bike_id":"e3a0a1dc-b988-41af-bf62-7fd1cc60c615","system_id":"levelo_inurba_marseille","lat":43.24073,"lon":5.37773,"is_reserved":false,"is_disabled":false,"rental_uris":{"android":"levelo://app?vid=e3a0a1dc-b988-41af-bf62-7fd1cc60c615","ios":"levelo://app?vid=e3a0a1dc-b988-41af-bf62-7fd1cc60c615"},"vehicle_type_id":"4","last_reported":1747652957,"current_range_meters":16800,"station_id":"ce4bhnp2rcd13ifvqgvg","pricing_plan_id":"cebpf4jnsgd1na2vs0mg"},{"bike_id":"1844f55d-0b4f-4ef0-bf3a-b0b9b8d26988","system_id":"levelo_inurba_marseille","lat":43.32478,"lon":5.365854,"is_reserved":false,"is_disabled":false,"rental_uris":{"android":"levelo://app?vid=1844f55d-0b4f-4ef0-bf3a-b0b9b8d26988","ios":"levelo://app?vid=1844f55d-0b4f-4ef0-bf3a-b0b9b8d26988"},"vehicle_type_id":"4","last_reported":1747652957,"current_range_meters":16800,"station_id":"ce4bhs12rcd13ifvqhvg","pricing_plan_id":"cebpf4jnsgd1na2vs0mg"},{"bike_id":"28f45564-465a-406a-9f7f-ac04ecf5329b","system_id":"levelo_inurba_marseille","lat":43.32492,"lon":5.36555,"is_reserved":false,"is_disabled":false,"rental_uris":{"android":"levelo://app?vid=28f45564-465a-406a-9f7f-ac04ecf5329b","ios":"levelo://app?vid=28f45564-465a-406a-9f7f-ac04ecf5329b"},"vehicle_type_id":"4","last_reported":1747652957,"current_range_meters":16800,"station_id":"ce4bhs12rcd13ifvqhvg","pricing_plan_id":"cebpf4jnsgd1na2vs0mg"},{"bike_id":"0f5c92df-9eb3-43f2-ab31-5fe4585d1334","system_id":"levelo_inurba_marseille","lat":43.33781,"lon":5.37416,"is_reserved":false,"is_disabled":false,"rental_uris":{"android":"levelo://app?vid=0f5c92df-9eb3-43f2-ab31-5fe4585d1334","ios":"levelo://app?vid=0f5c92df-9eb3-43f2-ab31-5fe4585d1334"},"vehicle_type_id":"4","last_reported":1747652957,"current_range_meters":17200,"station_id":"","pricing_plan_id":"cebpf4jnsgd1na2vs0mg"},{"bike_id":"e2e3a6f6-0f08-4185-b27b-75bc9500a96d","system_id":"levelo_inurba_marseille","lat":43.21193,"lon":5.35071,"is_reserved":false,"is_disabled":false,"rental_uris":{"android":"levelo://app?vid=e2e3a6f6-0f08-4185-b27b-75bc9500a96d","ios":"levelo://app?vid=e2e3a6f6-0f08-4185-b27b-75bc9500a96d"},"vehicle_type_id":"4","last_reported":1747652957,"current_range_meters":17200,"station_id":"","pricing_plan_id":"cebpf4jnsgd1na2vs0mg"},{"bike_id":"65b05e62-1155-47a7-b5a7-3d8242137a17","system_id":"levelo_inurba_marseille","lat":43.30543,"lon":5.36705,"is_reserved":false,"is_disabled":false,"rental_uris":{"android":"levelo://app?vid=65b05e62-1155-47a7-b5a7-3d8242137a17","ios":"levelo://app?vid=65b05e62-1155-47a7-b5a7-3d8242137a17"},"vehicle_type_id":"4","last_reported":1747652957,"current_range_meters":17200,"station_id":"ce4bgrp2rcd13ifvqc9g","pricing_plan_id":"cebpf4jnsgd1na2vs0mg"},{"bike_id":"f0b46887-9e6e-4b4e-9603-991b1727398f","system_id":"levelo_inurba_marseille","lat":43.31075,"lon":5.38355,"is_reserved":false,"is_disabled":false,"rental_uris":{"android":"levelo://app?vid=f0b46887-9e6e-4b4e-9603-991b1727398f","ios":"levelo://app?vid=f0b46887-9e6e-4b4e-9603-991b1727398f"},"vehicle_type_id":"4","last_reported":1747652957,"current_range_meters":17200,"station_id":"ce4bgv92rcd13ifvqcr0","pricing_plan_id":"cebpf4jnsgd1na2vs0mg"},{"bike_id":"dcbf1d10-6f34-4bb2-b1fe-7e47f8bf8166","system_id":"levelo_inurba_marseille","lat":43.29885,"lon":5.38902,"is_reserved":false,"is_disabled":false,"rental_uris":{"android":"levelo://app?vid=dcbf1d10-6f34-4bb2-b1fe-7e47f8bf8166","ios":"levelo://app?vid=dcbf1d10-6f34-4bb2-b1fe-7e47f8bf8166"},"vehicle_type_id":"4","last_reported":1747652957,"current_range_meters":17200,"station_id":"ce4bh392rcd13ifvqdl0","pricing_plan_id":"cebpf4jnsgd1na2vs0mg"},{"bike_id":"c2621727-2a3e-4c0d-8a76-d0b21655c733","system_id":"levelo_inurba_marseille","lat":43.29232,"lon":5.36063,"is_reserved":false,"is_disabled":false,"rental_uris":{"android":"levelo://app?vid=c2621727-2a3e-4c0d-8a76-d0b21655c733","ios":"levelo://app?vid=c2621727-2a3e-4c0d-8a76-d0b21655c733"},"vehicle_type_id":"4","last_reported":1747652957,"current_range_meters":17200,"station_id":"ce4bhbh2rcd13ifvqeqg","pricing_plan_id":"cebpf4jnsgd1na2vs0mg"},{"bike_id":"a5fbda63-723d-4a0f-968f-b97363a065d3","system_id":"levelo_inurba_marseille","lat":43.282708,"lon":5.350564,"is_reserved":false,"is_disabled":false,"rental_uris":{"android":"levelo://app?vid=a5fbda63-723d-4a0f-968f-b97363a065d3","ios":"levelo://app?vid=a5fbda63-723d-4a0f-968f-b97363a065d3"},"vehicle_type_id":"4","last_reported":1747652957,"current_range_meters":17200,"station_id":"ce4bhbp2rcd13ifvqerg","pricing_plan_id":"cebpf4jnsgd1na2vs0mg"},{"bike_id":"30dde2a1-91e0-46af-a7e6-5a508e928a14","system_id":"levelo_inurba_marseille","lat":43.26204,"lon":5.37454,"is_reserved":false,"is_disabled":false,"rental_uris":{"android":"levelo://app?vid=30dde2a1-91e0-46af-a7e6-5a508e928a14","ios":"levelo://app?vid=30dde2a1-91e0-46af-a7e6-5a508e928a14"},"vehicle_type_id":"4","last_reported":1747652957,"current_range_meters":17200,"station_id":"ce4bhgp2rcd13ifvqfc0","pricing_plan_id":"cebpf4jnsgd1na2vs0mg"},{"bike_id":"53882ed9-e061-4498-98dc-917b66609f40","system_id":"levelo_inurba_marseille","lat":43.25928,"lon":5.40899,"is_reserved":false,"is_disabled":false,"rental_uris":{"android":"levelo://app?vid=53882ed9-e061-4498-98dc-917b66609f40","ios":"levelo://app?vid=53882ed9-e061-4498-98dc-917b66609f40"},"vehicle_type_id":"4","last_reported":1747652957,"current_range_meters":17200,"station_id":"ce4bhm92rcd13ifvqglg","pricing_plan_id":"cebpf4jnsgd1na2vs0mg"},{"bike_id":"3552fbf2-b43a-446f-93f5-d695fc251b73","system_id":"levelo_inurba_marseille","lat":43.251729,"lon":5.375204,"is_reserved":false,"is_disabled":false,"rental_uris":{"android":"levelo://app?vid=3552fbf2-b43a-446f-93f5-d695fc251b73","ios":"levelo://app?vid=3552fbf2-b43a-446f-93f5-d695fc251b73"},"vehicle_type_id":"4","last_reported":1747652957,"current_range_meters":17600,"station_id":"","pricing_plan_id":"cebpf4jnsgd1na2vs0mg"},{"bike_id":"da2d473c-13f1-4407-a5a9-c039f0276a5c","system_id":"levelo_inurba_marseille","lat":43.284245,"lon":5.349727,"is_reserved":false,"is_disabled":false,"rental_uris":{"android":"levelo://app?vid=da2d473c-13f1-4407-a5a9-c039f0276a5c","ios":"levelo://app?vid=da2d473c-13f1-4407-a5a9-c039f0276a5c"},"vehicle_type_id":"4","last_reported":1747652957,"current_range_meters":17600,"station_id":"","pricing_plan_id":"cebpf4jnsgd1na2vs0mg"},{"bike_id":"88033240-ada9-4ac7-a5a1-7bfd8553f527","system_id":"levelo_inurba_marseille","lat":43.281043,"lon":5.378415,"is_reserved":false,"is_disabled":false,"rental_uris":{"android":"levelo://app?vid=88033240-ada9-4ac7-a5a1-7bfd8553f527","ios":"levelo://app?vid=88033240-ada9-4ac7-a5a1-7bfd8553f527"},"vehicle_type_id":"4","last_reported":1747652957,"current_range_meters":17600,"station_id":"ce4bha12rcd13ifvqee0","pricing_plan_id":"cebpf4jnsgd1na2vs0mg"},{"bike_id":"496021db-b509-4e1f-98a0-90a64b05261c","system_id":"levelo_inurba_marseille","lat":43.28415,"lon":5.34984,"is_reserved":false,"is_disabled":false,"rental_uris":{"android":"levelo://app?vid=496021db-b509-4e1f-98a0-90a64b05261c","ios":"levelo://app?vid=496021db-b509-4e1f-98a0-90a64b05261c"},"vehicle_type_id":"4","last_reported":1747652957,"current_range_meters":17600,"station_id":"ce4bhbh2rcd13ifvqepg","pricing_plan_id":"cebpf4jnsgd1na2vs0mg"},{"bike_id":"48ff6fa3-e961-4fea-b48d-506cbfaba104","system_id":"levelo_inurba_marseille","lat":43.29271,"lon":5.36838,"is_reserved":false,"is_disabled":false,"rental_uris":{"android":"levelo://app?vid=48ff6fa3-e961-4fea-b48d-506cbfaba104","ios":"levelo://app?vid=48ff6fa3-e961-4fea-b48d-506cbfaba104"},"vehicle_type_id":"4","last_reported":1747652957,"current_range_meters":17600,"station_id":"ce4bhbp2rcd13ifvqesg","pricing_plan_id":"cebpf4jnsgd1na2vs0mg"},{"bike_id":"b4092363-ce05-481e-b8a5-74f257327df5","system_id":"levelo_inurba_marseille","lat":43.250869,"lon":5.395242,"is_reserved":false,"is_disabled":false,"rental_uris":{"android":"levelo://app?vid=b4092363-ce05-481e-b8a5-74f257327df5","ios":"levelo://app?vid=b4092363-ce05-481e-b8a5-74f257327df5"},"vehicle_type_id":"4","last_reported":1747652957,"current_range_meters":17600,"station_id":"ce4bhm12rcd13ifvqgkg","pricing_plan_id":"cebpf4jnsgd1na2vs0mg"},{"bike_id":"9c8038dc-1156-4130-8a24-62a9599816af","system_id":"levelo_inurba_marseille","lat":43.32354,"lon":5.36751,"is_reserved":false,"is_disabled":false,"rental_uris":{"android":"levelo://app?vid=9c8038dc-1156-4130-8a24-62a9599816af","ios":"levelo://app?vid=9c8038dc-1156-4130-8a24-62a9599816af"},"vehicle_type_id":"4","last_reported":1747652957,"current_range_meters":17600,"station_id":"ce4bhsh2rcd13ifvqi2g","pricing_plan_id":"cebpf4jnsgd1na2vs0mg"},{"bike_id":"7e725650-a685-48a9-a3b9-e8783e9a1ca3","system_id":"levelo_inurba_marseille","lat":43.3053,"lon":5.38427,"is_reserved":false,"is_disabled":false,"rental_uris":{"android":"levelo://app?vid=7e725650-a685-48a9-a3b9-e8783e9a1ca3","ios":"levelo://app?vid=7e725650-a685-48a9-a3b9-e8783e9a1ca3"},"vehicle_type_id":"4","last_reported":1747652957,"current_range_meters":18000,"station_id":"ce4bgg92rcd13ifvqb30","pricing_plan_id":"cebpf4jnsgd1na2vs0mg"},{"bike_id":"6fb6ed8b-8e95-4c9a-852b-ef1eb6a91e2b","system_id":"levelo_inurba_marseille","lat":43.29586,"lon":5.3751,"is_reserved":false,"is_disabled":false,"rental_uris":{"android":"levelo://app?vid=6fb6ed8b-8e95-4c9a-852b-ef1eb6a91e2b","ios":"levelo://app?vid=6fb6ed8b-8e95-4c9a-852b-ef1eb6a91e2b"},"vehicle_type_id":"4","last_reported":1747652957,"current_range_meters":18000,"station_id":"ce4bgh92rcd13ifvqb50","pricing_plan_id":"cebpf4jnsgd1na2vs0mg"},{"bike_id":"3f7fe803-6821-4217-89f8-fc9b77e464f6","system_id":"levelo_inurba_marseille","lat":43.31357,"lon":5.36711,"is_reserved":false,"is_disabled":false,"rental_uris":{"android":"levelo://app?vid=3f7fe803-6821-4217-89f8-fc9b77e464f6","ios":"levelo://app?vid=3f7fe803-6821-4217-89f8-fc9b77e464f6"},"vehicle_type_id":"4","last_reported":1747652957,"current_range_meters":18000,"station_id":"ce4bgr92rcd13ifvqc6g","pricing_plan_id":"cebpf4jnsgd1na2vs0mg"},{"bike_id":"d89061db-93ae-47c2-ab0b-6131f09f4e9f","system_id":"levelo_inurba_marseille","lat":43.27371,"lon":5.3626,"is_reserved":false,"is_disabled":false,"rental_uris":{"android":"levelo://app?vid=d89061db-93ae-47c2-ab0b-6131f09f4e9f","ios":"levelo://app?vid=d89061db-93ae-47c2-ab0b-6131f09f4e9f"},"vehicle_type_id":"4","last_reported":1747652957,"current_range_meters":18000,"station_id":"ce4bhbh2rcd13ifvqeo0","pricing_plan_id":"cebpf4jnsgd1na2vs0mg"},{"bike_id":"e66479b6-73f3-49f7-9f3f-0f494e28c757","system_id":"levelo_inurba_marseille","lat":43.2679,"lon":5.39413,"is_reserved":false,"is_disabled":false,"rental_uris":{"android":"levelo://app?vid=e66479b6-73f3-49f7-9f3f-0f494e28c757","ios":"levelo://app?vid=e66479b6-73f3-49f7-9f3f-0f494e28c757"},"vehicle_type_id":"4","last_reported":1747652957,"current_range_meters":18000,"station_id":"ce4bhh12rcd13ifvqfg0","pricing_plan_id":"cebpf4jnsgd1na2vs0mg"},{"bike_id":"85d0eee4-7023-4816-8341-7b198d182543","system_id":"levelo_inurba_marseille","lat":43.2592,"lon":5.40916,"is_reserved":false,"is_disabled":false,"rental_uris":{"android":"levelo://app?vid=85d0eee4-7023-4816-8341-7b198d182543","ios":"levelo://app?vid=85d0eee4-7023-4816-8341-7b198d182543"},"vehicle_type_id":"4","last_reported":1747652957,"current_range_meters":18000,"station_id":"ce4bhm92rcd13ifvqglg","pricing_plan_id":"cebpf4jnsgd1na2vs0mg"},{"bike_id":"677ce4f0-2027-4faf-ad67-006be1ba409d","system_id":"levelo_inurba_marseille","lat":43.31715,"lon":5.43716,"is_reserved":false,"is_disabled":false,"rental_uris":{"android":"levelo://app?vid=677ce4f0-2027-4faf-ad67-006be1ba409d","ios":"levelo://app?vid=677ce4f0-2027-4faf-ad67-006be1ba409d"},"vehicle_type_id":"4","last_reported":1747652957,"current_range_meters":18000,"station_id":"ce4bhp92rcd13ifvqhcg","pricing_plan_id":"cebpf4jnsgd1na2vs0mg"},{"bike_id":"a162cffd-ee20-4551-903b-8d20a74c4973","system_id":"levelo_inurba_marseille","lat":43.3055,"lon":5.36715,"is_reserved":false,"is_disabled":false,"rental_uris":{"android":"levelo://app?vid=a162cffd-ee20-4551-903b-8d20a74c4973","ios":"levelo://app?vid=a162cffd-ee20-4551-903b-8d20a74c4973"},"vehicle_type_id":"4","last_reported":1747652957,"current_range_meters":18800,"station_id":"ce4bgrp2rcd13ifvqc9g","pricing_plan_id":"cebpf4jnsgd1na2vs0mg"},{"bike_id":"8675cc91-343d-4f04-a5ab-d440461b07f3","system_id":"levelo_inurba_marseille","lat":43.25974,"lon":5.40838,"is_reserved":false,"is_disabled":false,"rental_uris":{"android":"levelo://app?vid=8675cc91-343d-4f04-a5ab-d440461b07f3","ios":"levelo://app?vid=8675cc91-343d-4f04-a5ab-d440461b07f3"},"vehicle_type_id":"4","last_reported":1747652957,"current_range_meters":18800,"station_id":"ce4bhm92rcd13ifvqglg","pricing_plan_id":"cebpf4jnsgd1na2vs0mg"},{"bike_id":"b2fb9e5b-0ba4-4789-9013-8b0cfd242aea","system_id":"levelo_inurba_marseille","lat":43.28612,"lon":5.37051,"is_reserved":false,"is_disabled":false,"rental_uris":{"android":"levelo://app?vid=b2fb9e5b-0ba4-4789-9013-8b0cfd242aea","ios":"levelo://app?vid=b2fb9e5b-0ba4-4789-9013-8b0cfd242aea"},"vehicle_type_id":"4","last_reported":1747652957,"current_range_meters":18800,"station_id":"ce4bht12rcd13ifvqi60","pricing_plan_id":"cebpf4jnsgd1na2vs0mg"},{"bike_id":"903be73a-e709-4b4c-872b-dbdb4cb1a17f","system_id":"levelo_inurba_marseille","lat":43.29936,"lon":5.36543,"is_reserved":false,"is_disabled":false,"rental_uris":{"android":"levelo://app?vid=903be73a-e709-4b4c-872b-dbdb4cb1a17f","ios":"levelo://app?vid=903be73a-e709-4b4c-872b-dbdb4cb1a17f"},"vehicle_type_id":"4","last_reported":1747652957,"current_range_meters":19200,"station_id":"ce4bgm92rcd13ifvqbr0","pricing_plan_id":"cebpf4jnsgd1na2vs0mg"},{"bike_id":"800b18d5-afe7-4aab-9e9d-52557b959315","system_id":"levelo_inurba_marseille","lat":43.29851,"lon":5.36258,"is_reserved":false,"is_disabled":false,"rental_uris":{"android":"levelo://app?vid=800b18d5-afe7-4aab-9e9d-52557b959315","ios":"levelo://app?vid=800b18d5-afe7-4aab-9e9d-52557b959315"},"vehicle_type_id":"4","last_reported":1747652957,"current_range_meters":19200,"station_id":"ce4bgpp2rcd13ifvqc3g","pricing_plan_id":"cebpf4jnsgd1na2vs0mg"},{"bike_id":"074e2bfd-2c60-4006-ad32-5c5458339857","system_id":"levelo_inurba_marseille","lat":43.25819,"lon":5.39425,"is_reserved":false,"is_disabled":false,"rental_uris":{"android":"levelo://app?vid=074e2bfd-2c60-4006-ad32-5c5458339857","ios":"levelo://app?vid=074e2bfd-2c60-4006-ad32-5c5458339857"},"vehicle_type_id":"4","last_reported":1747652957,"current_range_meters":19200,"station_id":"ce4bhip2rcd13ifvqft0","pricing_plan_id":"cebpf4jnsgd1na2vs0mg"},{"bike_id":"dc61c065-6ed1-487e-9ecf-5a93a8f61ca7","system_id":"levelo_inurba_marseille","lat":43.231822,"lon":5.399822,"is_reserved":false,"is_disabled":false,"rental_uris":{"android":"levelo://app?vid=dc61c065-6ed1-487e-9ecf-5a93a8f61ca7","ios":"levelo://app?vid=dc61c065-6ed1-487e-9ecf-5a93a8f61ca7"},"vehicle_type_id":"4","last_reported":1747652957,"current_range_meters":19200,"station_id":"ce4bhn12rcd13ifvqgqg","pricing_plan_id":"cebpf4jnsgd1na2vs0mg"},{"bike_id":"3fc2ad56-8122-434a-9bd2-63e0f44ca579","system_id":"levelo_inurba_marseille","lat":43.28606,"lon":5.37072,"is_reserved":false,"is_disabled":false,"rental_uris":{"android":"levelo://app?vid=3fc2ad56-8122-434a-9bd2-63e0f44ca579","ios":"levelo://app?vid=3fc2ad56-8122-434a-9bd2-63e0f44ca579"},"vehicle_type_id":"4","last_reported":1747652957,"current_range_meters":19200,"station_id":"ce4bht12rcd13ifvqi60","pricing_plan_id":"cebpf4jnsgd1na2vs0mg"},{"bike_id":"74caece3-0366-45d1-ad29-c4f1a1a87b31","system_id":"levelo_inurba_marseille","lat":43.21745,"lon":5.34588,"is_reserved":false,"is_disabled":false,"rental_uris":{"android":"levelo://app?vid=74caece3-0366-45d1-ad29-c4f1a1a87b31","ios":"levelo://app?vid=74caece3-0366-45d1-ad29-c4f1a1a87b31"},"vehicle_type_id":"4","last_reported":1747652957,"current_range_meters":19200,"station_id":"st_cvj6r9ubvosntc0bgbag","pricing_plan_id":"cebpf4jnsgd1na2vs0mg"},{"bike_id":"1f156ffd-7dfb-4551-9e19-798f44a4d5c4","system_id":"levelo_inurba_marseille","lat":43.29799,"lon":5.38087,"is_reserved":false,"is_disabled":false,"rental_uris":{"android":"levelo://app?vid=1f156ffd-7dfb-4551-9e19-798f44a4d5c4","ios":"levelo://app?vid=1f156ffd-7dfb-4551-9e19-798f44a4d5c4"},"vehicle_type_id":"4","last_reported":1747652957,"current_range_meters":19600,"station_id":"ce4bgip2rcd13ifvqbb0","pricing_plan_id":"cebpf4jnsgd1na2vs0mg"},{"bike_id":"8003f1f1-aabc-4a95-af5a-f8124d5a7728","system_id":"levelo_inurba_marseille","lat":43.23194,"lon":5.39979,"is_reserved":false,"is_disabled":false,"rental_uris":{"android":"levelo://app?vid=8003f1f1-aabc-4a95-af5a-f8124d5a7728","ios":"levelo://app?vid=8003f1f1-aabc-4a95-af5a-f8124d5a7728"},"vehicle_type_id":"4","last_reported":1747652957,"current_range_meters":19600,"station_id":"ce4bhn12rcd13ifvqgqg","pricing_plan_id":"cebpf4jnsgd1na2vs0mg"},{"bike_id":"3b638fb9-646c-46b2-ad5c-aa84252c4a42","system_id":"levelo_inurba_marseille","lat":43.28698,"lon":5.39999,"is_reserved":false,"is_disabled":false,"rental_uris":{"android":"levelo://app?vid=3b638fb9-646c-46b2-ad5c-aa84252c4a42","ios":"levelo://app?vid=3b638fb9-646c-46b2-ad5c-aa84252c4a42"},"vehicle_type_id":"4","last_reported":1747652957,"current_range_meters":19600,"station_id":"ce4bho92rcd13ifvqh3g","pricing_plan_id":"cebpf4jnsgd1na2vs0mg"},{"bike_id":"225f3cea-db27-4174-a5ef-9d9d69f7434c","system_id":"levelo_inurba_marseille","lat":43.29843,"lon":5.36268,"is_reserved":false,"is_disabled":false,"rental_uris":{"android":"levelo://app?vid=225f3cea-db27-4174-a5ef-9d9d69f7434c","ios":"levelo://app?vid=225f3cea-db27-4174-a5ef-9d9d69f7434c"},"vehicle_type_id":"4","last_reported":1747652957,"current_range_meters":20000,"station_id":"ce4bgpp2rcd13ifvqc3g","pricing_plan_id":"cebpf4jnsgd1na2vs0mg"},{"bike_id":"b16885f9-5458-41af-88a2-16a82d761449","system_id":"levelo_inurba_marseille","lat":43.28685,"lon":5.38647,"is_reserved":false,"is_disabled":false,"rental_uris":{"android":"levelo://app?vid=b16885f9-5458-41af-88a2-16a82d761449","ios":"levelo://app?vid=b16885f9-5458-41af-88a2-16a82d761449"},"vehicle_type_id":"4","last_reported":1747652957,"current_range_meters":20000,"station_id":"ce4bh492rcd13ifvqdug","pricing_plan_id":"cebpf4jnsgd1na2vs0mg"},{"bike_id":"a56115d0-a446-4c1c-8726-ad95dd085381","system_id":"levelo_inurba_marseille","lat":43.28155,"lon":5.42645,"is_reserved":false,"is_disabled":false,"rental_uris":{"android":"levelo://app?vid=a56115d0-a446-4c1c-8726-ad95dd085381","ios":"levelo://app?vid=a56115d0-a446-4c1c-8726-ad95dd085381"},"vehicle_type_id":"4","last_reported":1747652957,"current_range_meters":20000,"station_id":"ce4bhnh2rcd13ifvqgug","pricing_plan_id":"cebpf4jnsgd1na2vs0mg"},{"bike_id":"e1ee36d4-83f8-4dd8-b7e6-01c1122dc44f","system_id":"levelo_inurba_marseille","lat":43.28609,"lon":5.37064,"is_reserved":false,"is_disabled":false,"rental_uris":{"android":"levelo://app?vid=e1ee36d4-83f8-4dd8-b7e6-01c1122dc44f","ios":"levelo://app?vid=e1ee36d4-83f8-4dd8-b7e6-01c1122dc44f"},"vehicle_type_id":"4","last_reported":1747652957,"current_range_meters":20000,"station_id":"ce4bht12rcd13ifvqi60","pricing_plan_id":"cebpf4jnsgd1na2vs0mg"},{"bike_id":"bbae9470-c4e6-406c-8e2e-0ffe5e843b63","system_id":"levelo_inurba_marseille","lat":43.21756,"lon":5.346,"is_reserved":false,"is_disabled":false,"rental_uris":{"android":"levelo://app?vid=bbae9470-c4e6-406c-8e2e-0ffe5e843b63","ios":"levelo://app?vid=bbae9470-c4e6-406c-8e2e-0ffe5e843b63"},"vehicle_type_id":"4","last_reported":1747652957,"current_range_meters":20000,"station_id":"st_cvj6r9ubvosntc0bgbag","pricing_plan_id":"cebpf4jnsgd1na2vs0mg"},{"bike_id":"704ea015-f11e-4ad9-8dcb-3aa820a9c231","system_id":"levelo_inurba_marseille","lat":43.30552,"lon":5.36541,"is_reserved":false,"is_disabled":false,"rental_uris":{"android":"levelo://app?vid=704ea015-f11e-4ad9-8dcb-3aa820a9c231","ios":"levelo://app?vid=704ea015-f11e-4ad9-8dcb-3aa820a9c231"},"vehicle_type_id":"4","last_reported":1747652957,"current_range_meters":20400,"station_id":"ce4bgs12rcd13ifvqcag","pricing_plan_id":"cebpf4jnsgd1na2vs0mg"},{"bike_id":"6f760bad-879a-4404-b6a9-8f286cf27b7e","system_id":"levelo_inurba_marseille","lat":43.26027,"lon":5.37545,"is_reserved":false,"is_disabled":false,"rental_uris":{"android":"levelo://app?vid=6f760bad-879a-4404-b6a9-8f286cf27b7e","ios":"levelo://app?vid=6f760bad-879a-4404-b6a9-8f286cf27b7e"},"vehicle_type_id":"4","last_reported":1747652957,"current_range_meters":20400,"station_id":"ce4bhgh2rcd13ifvqfa0","pricing_plan_id":"cebpf4jnsgd1na2vs0mg"},{"bike_id":"54ae924e-e1f1-4a35-ab74-f2cb3be323ac","system_id":"levelo_inurba_marseille","lat":43.2695,"lon":5.38633,"is_reserved":false,"is_disabled":false,"rental_uris":{"android":"levelo://app?vid=54ae924e-e1f1-4a35-ab74-f2cb3be323ac","ios":"levelo://app?vid=54ae924e-e1f1-4a35-ab74-f2cb3be323ac"},"vehicle_type_id":"4","last_reported":1747652957,"current_range_meters":20400,"station_id":"ce4bhh92rcd13ifvqfh0","pricing_plan_id":"cebpf4jnsgd1na2vs0mg"},{"bike_id":"3a4d4d5c-85a5-447c-a965-2c9423f6fd09","system_id":"levelo_inurba_marseille","lat":43.21746,"lon":5.34614,"is_reserved":false,"is_disabled":false,"rental_uris":{"android":"levelo://app?vid=3a4d4d5c-85a5-447c-a965-2c9423f6fd09","ios":"levelo://app?vid=3a4d4d5c-85a5-447c-a965-2c9423f6fd09"},"vehicle_type_id":"4","last_reported":1747652957,"current_range_meters":20400,"station_id":"st_cvj6r9ubvosntc0bgbag","pricing_plan_id":"cebpf4jnsgd1na2vs0mg"},{"bike_id":"97a86dc9-cdbb-4884-892e-ffc3c535da38","system_id":"levelo_inurba_marseille","lat":43.2407,"lon":5.38159,"is_reserved":false,"is_disabled":false,"rental_uris":{"android":"levelo://app?vid=97a86dc9-cdbb-4884-892e-ffc3c535da38","ios":"levelo://app?vid=97a86dc9-cdbb-4884-892e-ffc3c535da38"},"vehicle_type_id":"4","last_reported":1747652957,"current_range_meters":20800,"station_id":"","pricing_plan_id":"cebpf4jnsgd1na2vs0mg"},{"bike_id":"bc0a6dcd-2faa-46ee-813e-994c1c7ff05a","system_id":"levelo_inurba_marseille","lat":43.28994,"lon":5.35884,"is_reserved":false,"is_disabled":false,"rental_uris":{"android":"levelo://app?vid=bc0a6dcd-2faa-46ee-813e-994c1c7ff05a","ios":"levelo://app?vid=bc0a6dcd-2faa-46ee-813e-994c1c7ff05a"},"vehicle_type_id":"4","last_reported":1747652957,"current_range_meters":20800,"station_id":"","pricing_plan_id":"cebpf4jnsgd1na2vs0mg"},{"bike_id":"b401f241-4d81-4ab2-bb8c-07c8e8fb464b","system_id":"levelo_inurba_marseille","lat":43.31107,"lon":5.37768,"is_reserved":false,"is_disabled":false,"rental_uris":{"android":"levelo://app?vid=b401f241-4d81-4ab2-bb8c-07c8e8fb464b","ios":"levelo://app?vid=b401f241-4d81-4ab2-bb8c-07c8e8fb464b"},"vehicle_type_id":"4","last_reported":1747652957,"current_range_meters":20800,"station_id":"ce4bgt92rcd13ifvqcg0","pricing_plan_id":"cebpf4jnsgd1na2vs0mg"},{"bike_id":"c7fa045b-8abd-4bd8-ac58-69864d07dca7","system_id":"levelo_inurba_marseille","lat":43.321154,"lon":5.36779,"is_reserved":false,"is_disabled":false,"rental_uris":{"android":"levelo://app?vid=c7fa045b-8abd-4bd8-ac58-69864d07dca7","ios":"levelo://app?vid=c7fa045b-8abd-4bd8-ac58-69864d07dca7"},"vehicle_type_id":"4","last_reported":1747652957,"current_range_meters":20800,"station_id":"ce4bhrh2rcd13ifvqhug","pricing_plan_id":"cebpf4jnsgd1na2vs0mg"},{"bike_id":"e9b2e933-96ca-4b69-854a-8772db6aef66","system_id":"levelo_inurba_marseille","lat":43.28608,"lon":5.37064,"is_reserved":false,"is_disabled":false,"rental_uris":{"android":"levelo://app?vid=e9b2e933-96ca-4b69-854a-8772db6aef66","ios":"levelo://app?vid=e9b2e933-96ca-4b69-854a-8772db6aef66"},"vehicle_type_id":"4","last_reported":1747652957,"current_range_meters":20800,"station_id":"ce4bht12rcd13ifvqi60","pricing_plan_id":"cebpf4jnsgd1na2vs0mg"},{"bike_id":"4da8d92d-2e85-499b-876d-db7d00373cf3","system_id":"levelo_inurba_marseille","lat":43.29912,"lon":5.38145,"is_reserved":false,"is_disabled":false,"rental_uris":{"android":"levelo://app?vid=4da8d92d-2e85-499b-876d-db7d00373cf3","ios":"levelo://app?vid=4da8d92d-2e85-499b-876d-db7d00373cf3"},"vehicle_type_id":"4","last_reported":1747652957,"current_range_meters":21600,"station_id":"ce4bgj12rcd13ifvqbc0","pricing_plan_id":"cebpf4jnsgd1na2vs0mg"},{"bike_id":"6bf9a0f9-6619-41bb-a135-f9d0073c713f","system_id":"levelo_inurba_marseille","lat":43.30911,"lon":5.36863,"is_reserved":false,"is_disabled":false,"rental_uris":{"android":"levelo://app?vid=6bf9a0f9-6619-41bb-a135-f9d0073c713f","ios":"levelo://app?vid=6bf9a0f9-6619-41bb-a135-f9d0073c713f"},"vehicle_type_id":"4","last_reported":1747652957,"current_range_meters":21600,"station_id":"ce4bgn92rcd13ifvqbvg","pricing_plan_id":"cebpf4jnsgd1na2vs0mg"},{"bike_id":"14cb6dee-ea26-4d10-ab83-b1473d3ff1d2","system_id":"levelo_inurba_marseille","lat":43.317677,"lon":5.37253,"is_reserved":false,"is_disabled":false,"rental_uris":{"android":"levelo://app?vid=14cb6dee-ea26-4d10-ab83-b1473d3ff1d2","ios":"levelo://app?vid=14cb6dee-ea26-4d10-ab83-b1473d3ff1d2"},"vehicle_type_id":"4","last_reported":1747652957,"current_range_meters":21600,"station_id":"ce4bgth2rcd13ifvqch0","pricing_plan_id":"cebpf4jnsgd1na2vs0mg"},{"bike_id":"e512b392-af77-4236-a84b-b57560b7916a","system_id":"levelo_inurba_marseille","lat":43.26413,"lon":5.39228,"is_reserved":false,"is_disabled":false,"rental_uris":{"android":"levelo://app?vid=e512b392-af77-4236-a84b-b57560b7916a","ios":"levelo://app?vid=e512b392-af77-4236-a84b-b57560b7916a"},"vehicle_type_id":"4","last_reported":1747652957,"current_range_meters":21600,"station_id":"ce4bh292rcd13ifvqdg0","pricing_plan_id":"cebpf4jnsgd1na2vs0mg"},{"bike_id":"f0609b17-33e9-4c8e-9321-fa4db99bdd6e","system_id":"levelo_inurba_marseille","lat":43.27678,"lon":5.38879,"is_reserved":false,"is_disabled":false,"rental_uris":{"android":"levelo://app?vid=f0609b17-33e9-4c8e-9321-fa4db99bdd6e","ios":"levelo://app?vid=f0609b17-33e9-4c8e-9321-fa4db99bdd6e"},"vehicle_type_id":"4","last_reported":1747652957,"current_range_meters":21600,"station_id":"ce4bhi12rcd13ifvqfo0","pricing_plan_id":"cebpf4jnsgd1na2vs0mg"},{"bike_id":"4db57987-7854-4b6c-9420-3d2a2da5e336","system_id":"levelo_inurba_marseille","lat":43.24541,"lon":5.39527,"is_reserved":false,"is_disabled":false,"rental_uris":{"android":"levelo://app?vid=4db57987-7854-4b6c-9420-3d2a2da5e336","ios":"levelo://app?vid=4db57987-7854-4b6c-9420-3d2a2da5e336"},"vehicle_type_id":"4","last_reported":1747652957,"current_range_meters":21600,"station_id":"ce4bhlp2rcd13ifvqgjg","pricing_plan_id":"cebpf4jnsgd1na2vs0mg"},{"bike_id":"08637440-fdae-4ac9-8b44-2e8dc6c70a79","system_id":"levelo_inurba_marseille","lat":43.3414,"lon":5.40909,"is_reserved":false,"is_disabled":false,"rental_uris":{"android":"levelo://app?vid=08637440-fdae-4ac9-8b44-2e8dc6c70a79","ios":"levelo://app?vid=08637440-fdae-4ac9-8b44-2e8dc6c70a79"},"vehicle_type_id":"4","last_reported":1747652957,"current_range_meters":21600,"station_id":"ce4bhqh2rcd13ifvqhlg","pricing_plan_id":"cebpf4jnsgd1na2vs0mg"},{"bike_id":"cc98e316-2a83-4148-9457-efe4b17acd5c","system_id":"levelo_inurba_marseille","lat":43.29624,"lon":5.3716,"is_reserved":false,"is_disabled":false,"rental_uris":{"android":"levelo://app?vid=cc98e316-2a83-4148-9457-efe4b17acd5c","ios":"levelo://app?vid=cc98e316-2a83-4148-9457-efe4b17acd5c"},"vehicle_type_id":"4","last_reported":1747652957,"current_range_meters":22000,"station_id":"ce4bgnh2rcd13ifvqc0g","pricing_plan_id":"cebpf4jnsgd1na2vs0mg"},{"bike_id":"18c043f7-3425-4ed6-aaff-75aaca8090fe","system_id":"levelo_inurba_marseille","lat":43.30307,"lon":5.36878,"is_reserved":false,"is_disabled":false,"rental_uris":{"android":"levelo://app?vid=18c043f7-3425-4ed6-aaff-75aaca8090fe","ios":"levelo://app?vid=18c043f7-3425-4ed6-aaff-75aaca8090fe"},"vehicle_type_id":"4","last_reported":1747652957,"current_range_meters":22000,"station_id":"ce4bgqh2rcd13ifvqc5g","pricing_plan_id":"cebpf4jnsgd1na2vs0mg"},{"bike_id":"3bf0d25a-addf-4c9a-8347-9f78c6c286b7","system_id":"levelo_inurba_marseille","lat":43.27557,"lon":5.38417,"is_reserved":false,"is_disabled":false,"rental_uris":{"android":"levelo://app?vid=3bf0d25a-addf-4c9a-8347-9f78c6c286b7","ios":"levelo://app?vid=3bf0d25a-addf-4c9a-8347-9f78c6c286b7"},"vehicle_type_id":"4","last_reported":1747652957,"current_range_meters":22000,"station_id":"ce4bhh92rcd13ifvqfi0","pricing_plan_id":"cebpf4jnsgd1na2vs0mg"},{"bike_id":"2a4b3516-2bab-4f78-a10c-03363976888b","system_id":"levelo_inurba_marseille","lat":43.24664,"lon":5.38163,"is_reserved":false,"is_disabled":false,"rental_uris":{"android":"levelo://app?vid=2a4b3516-2bab-4f78-a10c-03363976888b","ios":"levelo://app?vid=2a4b3516-2bab-4f78-a10c-03363976888b"},"vehicle_type_id":"4","last_reported":1747652957,"current_range_meters":22000,"station_id":"ce4bhih2rcd13ifvqfr0","pricing_plan_id":"cebpf4jnsgd1na2vs0mg"},{"bike_id":"bf31306f-1112-43c0-9921-48d7cfdeebc6","system_id":"levelo_inurba_marseille","lat":43.2717,"lon":5.4099,"is_reserved":false,"is_disabled":false,"rental_uris":{"android":"levelo://app?vid=bf31306f-1112-43c0-9921-48d7cfdeebc6","ios":"levelo://app?vid=bf31306f-1112-43c0-9921-48d7cfdeebc6"},"vehicle_type_id":"4","last_reported":1747652957,"current_range_meters":22000,"station_id":"ce4bhl12rcd13ifvqgf0","pricing_plan_id":"cebpf4jnsgd1na2vs0mg"},{"bike_id":"8ef1418b-8107-4b29-9300-8966ad8ddbc8","system_id":"levelo_inurba_marseille","lat":43.24077,"lon":5.37744,"is_reserved":false,"is_disabled":false,"rental_uris":{"android":"levelo://app?vid=8ef1418b-8107-4b29-9300-8966ad8ddbc8","ios":"levelo://app?vid=8ef1418b-8107-4b29-9300-8966ad8ddbc8"},"vehicle_type_id":"4","last_reported":1747652957,"current_range_meters":22000,"station_id":"ce4bhnp2rcd13ifvqgvg","pricing_plan_id":"cebpf4jnsgd1na2vs0mg"},{"bike_id":"24dc12dd-e0a1-4ccc-b473-486d35ddca69","system_id":"levelo_inurba_marseille","lat":43.31715,"lon":5.43699,"is_reserved":false,"is_disabled":false,"rental_uris":{"android":"levelo://app?vid=24dc12dd-e0a1-4ccc-b473-486d35ddca69","ios":"levelo://app?vid=24dc12dd-e0a1-4ccc-b473-486d35ddca69"},"vehicle_type_id":"4","last_reported":1747652957,"current_range_meters":22000,"station_id":"ce4bhp92rcd13ifvqhcg","pricing_plan_id":"cebpf4jnsgd1na2vs0mg"},{"bike_id":"d2c6b43e-73b6-4e1e-9b83-c94e993195bc","system_id":"levelo_inurba_marseille","lat":43.337516,"lon":5.374431,"is_reserved":false,"is_disabled":false,"rental_uris":{"android":"levelo://app?vid=d2c6b43e-73b6-4e1e-9b83-c94e993195bc","ios":"levelo://app?vid=d2c6b43e-73b6-4e1e-9b83-c94e993195bc"},"vehicle_type_id":"4","last_reported":1747652957,"current_range_meters":22400,"station_id":"","pricing_plan_id":"cebpf4jnsgd1na2vs0mg"},{"bike_id":"f9c76f71-2996-47ff-b040-ef4e3de88f3a","system_id":"levelo_inurba_marseille","lat":43.31327,"lon":5.39701,"is_reserved":false,"is_disabled":false,"rental_uris":{"android":"levelo://app?vid=f9c76f71-2996-47ff-b040-ef4e3de88f3a","ios":"levelo://app?vid=f9c76f71-2996-47ff-b040-ef4e3de88f3a"},"vehicle_type_id":"4","last_reported":1747652957,"current_range_meters":22400,"station_id":"ce4bgvp2rcd13ifvqcu0","pricing_plan_id":"cebpf4jnsgd1na2vs0mg"},{"bike_id":"76fbce20-0b76-43e6-beb2-bf9778cdb56a","system_id":"levelo_inurba_marseille","lat":43.28707,"lon":5.37915,"is_reserved":false,"is_disabled":false,"rental_uris":{"android":"levelo://app?vid=76fbce20-0b76-43e6-beb2-bf9778cdb56a","ios":"levelo://app?vid=76fbce20-0b76-43e6-beb2-bf9778cdb56a"},"vehicle_type_id":"4","last_reported":1747652957,"current_range_meters":22400,"station_id":"ce4bh9p2rcd13ifvqec0","pricing_plan_id":"cebpf4jnsgd1na2vs0mg"},{"bike_id":"60630da3-46bf-41aa-952a-6c5acaeb381f","system_id":"levelo_inurba_marseille","lat":43.26949,"lon":5.3863,"is_reserved":false,"is_disabled":false,"rental_uris":{"android":"levelo://app?vid=60630da3-46bf-41aa-952a-6c5acaeb381f","ios":"levelo://app?vid=60630da3-46bf-41aa-952a-6c5acaeb381f"},"vehicle_type_id":"4","last_reported":1747652957,"current_range_meters":22400,"station_id":"ce4bhh92rcd13ifvqfh0","pricing_plan_id":"cebpf4jnsgd1na2vs0mg"},{"bike_id":"f11457a2-b0a1-4b47-93bc-55c75a402bf3","system_id":"levelo_inurba_marseille","lat":43.24666,"lon":5.38162,"is_reserved":false,"is_disabled":false,"rental_uris":{"android":"levelo://app?vid=f11457a2-b0a1-4b47-93bc-55c75a402bf3","ios":"levelo://app?vid=f11457a2-b0a1-4b47-93bc-55c75a402bf3"},"vehicle_type_id":"4","last_reported":1747652957,"current_range_meters":22400,"station_id":"ce4bhih2rcd13ifvqfr0","pricing_plan_id":"cebpf4jnsgd1na2vs0mg"},{"bike_id":"10719f3a-a971-4c4c-84af-ef5cbb103b90","system_id":"levelo_inurba_marseille","lat":43.31531,"lon":5.38037,"is_reserved":false,"is_disabled":false,"rental_uris":{"android":"levelo://app?vid=10719f3a-a971-4c4c-84af-ef5cbb103b90","ios":"levelo://app?vid=10719f3a-a971-4c4c-84af-ef5cbb103b90"},"vehicle_type_id":"4","last_reported":1747652957,"current_range_meters":22400,"station_id":"ce4bhsp2rcd13ifvqi50","pricing_plan_id":"cebpf4jnsgd1na2vs0mg"},{"bike_id":"7cff6a3c-9d8f-4188-8e11-88a308f2a451","system_id":"levelo_inurba_marseille","lat":43.30829,"lon":5.37898,"is_reserved":false,"is_disabled":false,"rental_uris":{"android":"levelo://app?vid=7cff6a3c-9d8f-4188-8e11-88a308f2a451","ios":"levelo://app?vid=7cff6a3c-9d8f-4188-8e11-88a308f2a451"},"vehicle_type_id":"4","last_reported":1747652957,"current_range_meters":22800,"station_id":"","pricing_plan_id":"cebpf4jnsgd1na2vs0mg"},{"bike_id":"d72c7dc5-4435-4791-8844-6a8d2b2bb97b","system_id":"levelo_inurba_marseille","lat":43.30521,"lon":5.36535,"is_reserved":false,"is_disabled":false,"rental_uris":{"android":"levelo://app?vid=d72c7dc5-4435-4791-8844-6a8d2b2bb97b","ios":"levelo://app?vid=d72c7dc5-4435-4791-8844-6a8d2b2bb97b"},"vehicle_type_id":"4","last_reported":1747652957,"current_range_meters":22800,"station_id":"","pricing_plan_id":"cebpf4jnsgd1na2vs0mg"},{"bike_id":"89f81b46-b4ec-4383-8092-9c273932a4c4","system_id":"levelo_inurba_marseille","lat":43.3122,"lon":5.36855,"is_reserved":false,"is_disabled":false,"rental_uris":{"android":"levelo://app?vid=89f81b46-b4ec-4383-8092-9c273932a4c4","ios":"levelo://app?vid=89f81b46-b4ec-4383-8092-9c273932a4c4"},"vehicle_type_id":"4","last_reported":1747652957,"current_range_meters":22800,"station_id":"ce4bgl92rcd13ifvqbq0","pricing_plan_id":"cebpf4jnsgd1na2vs0mg"},{"bike_id":"692b4052-97f8-4b70-b357-dba7c97eca8b","system_id":"levelo_inurba_marseille","lat":43.31074,"lon":5.38347,"is_reserved":false,"is_disabled":false,"rental_uris":{"android":"levelo://app?vid=692b4052-97f8-4b70-b357-dba7c97eca8b","ios":"levelo://app?vid=692b4052-97f8-4b70-b357-dba7c97eca8b"},"vehicle_type_id":"4","last_reported":1747652957,"current_range_meters":22800,"station_id":"ce4bgv92rcd13ifvqcr0","pricing_plan_id":"cebpf4jnsgd1na2vs0mg"},{"bike_id":"a4a09425-8759-4462-88bf-5ca73cb920c3","system_id":"levelo_inurba_marseille","lat":43.30591,"lon":5.3936,"is_reserved":false,"is_disabled":false,"rental_uris":{"android":"levelo://app?vid=a4a09425-8759-4462-88bf-5ca73cb920c3","ios":"levelo://app?vid=a4a09425-8759-4462-88bf-5ca73cb920c3"},"vehicle_type_id":"4","last_reported":1747652957,"current_range_meters":22800,"station_id":"ce4bh0p2rcd13ifvqd80","pricing_plan_id":"cebpf4jnsgd1na2vs0mg"},{"bike_id":"342aaa6c-fe91-4307-b0bc-d233f2706f8a","system_id":"levelo_inurba_marseille","lat":43.29093,"lon":5.38124,"is_reserved":false,"is_disabled":false,"rental_uris":{"android":"levelo://app?vid=342aaa6c-fe91-4307-b0bc-d233f2706f8a","ios":"levelo://app?vid=342aaa6c-fe91-4307-b0bc-d233f2706f8a"},"vehicle_type_id":"4","last_reported":1747652957,"current_range_meters":22800,"station_id":"ce4bh512rcd13ifvqe2g","pricing_plan_id":"cebpf4jnsgd1na2vs0mg"},{"bike_id":"784c1d4c-7c08-4b56-8849-36adea768633","system_id":"levelo_inurba_marseille","lat":43.28997,"lon":5.37831,"is_reserved":false,"is_disabled":false,"rental_uris":{"android":"levelo://app?vid=784c1d4c-7c08-4b56-8849-36adea768633","ios":"levelo://app?vid=784c1d4c-7c08-4b56-8849-36adea768633"},"vehicle_type_id":"4","last_reported":1747652957,"current_range_meters":22800,"station_id":"ce4bh9p2rcd13ifvqed0","pricing_plan_id":"cebpf4jnsgd1na2vs0mg"},{"bike_id":"d5457729-18fe-4b05-b6fd-8904df4d14e1","system_id":"levelo_inurba_marseille","lat":43.251194,"lon":5.403218,"is_reserved":false,"is_disabled":false,"rental_uris":{"android":"levelo://app?vid=d5457729-18fe-4b05-b6fd-8904df4d14e1","ios":"levelo://app?vid=d5457729-18fe-4b05-b6fd-8904df4d14e1"},"vehicle_type_id":"4","last_reported":1747652957,"current_range_meters":22800,"station_id":"ce4bhlh2rcd13ifvqgig","pricing_plan_id":"cebpf4jnsgd1na2vs0mg"},{"bike_id":"ee5ea0b9-a622-418b-8cba-5aaee1759f0a","system_id":"levelo_inurba_marseille","lat":43.24148,"lon":5.39737,"is_reserved":false,"is_disabled":false,"rental_uris":{"android":"levelo://app?vid=ee5ea0b9-a622-418b-8cba-5aaee1759f0a","ios":"levelo://app?vid=ee5ea0b9-a622-418b-8cba-5aaee1759f0a"},"vehicle_type_id":"4","last_reported":1747652957,"current_range_meters":22800,"station_id":"ce4bhn12rcd13ifvqgpg","pricing_plan_id":"cebpf4jnsgd1na2vs0mg"},{"bike_id":"8da44370-a435-48f7-9bf8-4043a5db973f","system_id":"levelo_inurba_marseille","lat":43.26096,"lon":5.37856,"is_reserved":false,"is_disabled":false,"rental_uris":{"android":"levelo://app?vid=8da44370-a435-48f7-9bf8-4043a5db973f","ios":"levelo://app?vid=8da44370-a435-48f7-9bf8-4043a5db973f"},"vehicle_type_id":"4","last_reported":1747652957,"current_range_meters":23200,"station_id":"","pricing_plan_id":"cebpf4jnsgd1na2vs0mg"},{"bike_id":"d6e2115d-9d9f-416b-a795-293f7d92002c","system_id":"levelo_inurba_marseille","lat":43.29972,"lon":5.38499,"is_reserved":false,"is_disabled":false,"rental_uris":{"android":"levelo://app?vid=d6e2115d-9d9f-416b-a795-293f7d92002c","ios":"levelo://app?vid=d6e2115d-9d9f-416b-a795-293f7d92002c"},"vehicle_type_id":"4","last_reported":1747652957,"current_range_meters":23200,"station_id":"ce4bgj92rcd13ifvqbd0","pricing_plan_id":"cebpf4jnsgd1na2vs0mg"},{"bike_id":"5802d8bf-d8f5-4361-b796-ce1fc2391b89","system_id":"levelo_inurba_marseille","lat":43.30924,"lon":5.3686,"is_reserved":false,"is_disabled":false,"rental_uris":{"android":"levelo://app?vid=5802d8bf-d8f5-4361-b796-ce1fc2391b89","ios":"levelo://app?vid=5802d8bf-d8f5-4361-b796-ce1fc2391b89"},"vehicle_type_id":"4","last_reported":1747652957,"current_range_meters":23200,"station_id":"ce4bgn92rcd13ifvqbvg","pricing_plan_id":"cebpf4jnsgd1na2vs0mg"},{"bike_id":"31e80b91-12db-45fc-9b2d-bfa94709eee7","system_id":"levelo_inurba_marseille","lat":43.29858,"lon":5.36293,"is_reserved":false,"is_disabled":false,"rental_uris":{"android":"levelo://app?vid=31e80b91-12db-45fc-9b2d-bfa94709eee7","ios":"levelo://app?vid=31e80b91-12db-45fc-9b2d-bfa94709eee7"},"vehicle_type_id":"4","last_reported":1747652957,"current_range_meters":23200,"station_id":"ce4bgpp2rcd13ifvqc3g","pricing_plan_id":"cebpf4jnsgd1na2vs0mg"},{"bike_id":"e31833c9-3629-4b2f-810c-c09df0eb266c","system_id":"levelo_inurba_marseille","lat":43.33751,"lon":5.37509,"is_reserved":false,"is_disabled":false,"rental_uris":{"android":"levelo://app?vid=e31833c9-3629-4b2f-810c-c09df0eb266c","ios":"levelo://app?vid=e31833c9-3629-4b2f-810c-c09df0eb266c"},"vehicle_type_id":"4","last_reported":1747652957,"current_range_meters":24000,"station_id":"","pricing_plan_id":"cebpf4jnsgd1na2vs0mg"},{"bike_id":"a26a94df-e076-4336-b4dc-ffcaa92fd706","system_id":"levelo_inurba_marseille","lat":43.29579,"lon":5.37491,"is_reserved":false,"is_disabled":false,"rental_uris":{"android":"levelo://app?vid=a26a94df-e076-4336-b4dc-ffcaa92fd706","ios":"levelo://app?vid=a26a94df-e076-4336-b4dc-ffcaa92fd706"},"vehicle_type_id":"4","last_reported":1747652957,"current_range_meters":24000,"station_id":"ce4bgh92rcd13ifvqb50","pricing_plan_id":"cebpf4jnsgd1na2vs0mg"},{"bike_id":"71a5d7cf-3730-46e3-b5aa-072a3a752a0c","system_id":"levelo_inurba_marseille","lat":43.29784,"lon":5.3709,"is_reserved":false,"is_disabled":false,"rental_uris":{"android":"levelo://app?vid=71a5d7cf-3730-46e3-b5aa-072a3a752a0c","ios":"levelo://app?vid=71a5d7cf-3730-46e3-b5aa-072a3a752a0c"},"vehicle_type_id":"4","last_reported":1747652957,"current_range_meters":24000,"station_id":"ce4bgop2rcd13ifvqc1g","pricing_plan_id":"cebpf4jnsgd1na2vs0mg"},{"bike_id":"693de1a8-ab2c-4f15-9d1e-7ac2f4db02af","system_id":"levelo_inurba_marseille","lat":43.29853,"lon":5.36279,"is_reserved":false,"is_disabled":false,"rental_uris":{"android":"levelo://app?vid=693de1a8-ab2c-4f15-9d1e-7ac2f4db02af","ios":"levelo://app?vid=693de1a8-ab2c-4f15-9d1e-7ac2f4db02af"},"vehicle_type_id":"4","last_reported":1747652957,"current_range_meters":24000,"station_id":"ce4bgpp2rcd13ifvqc3g","pricing_plan_id":"cebpf4jnsgd1na2vs0mg"},{"bike_id":"0a8338a6-a40f-4c11-8e25-b9d798b04d2e","system_id":"levelo_inurba_marseille","lat":43.28853,"lon":5.35846,"is_reserved":false,"is_disabled":false,"rental_uris":{"android":"levelo://app?vid=0a8338a6-a40f-4c11-8e25-b9d798b04d2e","ios":"levelo://app?vid=0a8338a6-a40f-4c11-8e25-b9d798b04d2e"},"vehicle_type_id":"4","last_reported":1747652957,"current_range_meters":24000,"station_id":"ce4bhb12rcd13ifvqem0","pricing_plan_id":"cebpf4jnsgd1na2vs0mg"},{"bike_id":"3eec3339-3f6b-465d-8896-15d72acb2186","system_id":"levelo_inurba_marseille","lat":43.25004,"lon":5.38937,"is_reserved":false,"is_disabled":false,"rental_uris":{"android":"levelo://app?vid=3eec3339-3f6b-465d-8896-15d72acb2186","ios":"levelo://app?vid=3eec3339-3f6b-465d-8896-15d72acb2186"},"vehicle_type_id":"4","last_reported":1747652957,"current_range_meters":24000,"station_id":"ce4bhgp2rcd13ifvqfd0","pricing_plan_id":"cebpf4jnsgd1na2vs0mg"},{"bike_id":"ef377cee-2754-4f14-9d5c-d07cf928518d","system_id":"levelo_inurba_marseille","lat":43.23176,"lon":5.39993,"is_reserved":false,"is_disabled":false,"rental_uris":{"android":"levelo://app?vid=ef377cee-2754-4f14-9d5c-d07cf928518d","ios":"levelo://app?vid=ef377cee-2754-4f14-9d5c-d07cf928518d"},"vehicle_type_id":"4","last_reported":1747652957,"current_range_meters":24000,"station_id":"ce4bhn12rcd13ifvqgqg","pricing_plan_id":"cebpf4jnsgd1na2vs0mg"},{"bike_id":"512cad48-a180-4060-b1f1-89c6ef5852f2","system_id":"levelo_inurba_marseille","lat":43.2318,"lon":5.39977,"is_reserved":false,"is_disabled":false,"rental_uris":{"android":"levelo://app?vid=512cad48-a180-4060-b1f1-89c6ef5852f2","ios":"levelo://app?vid=512cad48-a180-4060-b1f1-89c6ef5852f2"},"vehicle_type_id":"4","last_reported":1747652957,"current_range_meters":24000,"station_id":"ce4bhn12rcd13ifvqgqg","pricing_plan_id":"cebpf4jnsgd1na2vs0mg"},{"bike_id":"c8440705-5806-4651-b547-eac05c45ec57","system_id":"levelo_inurba_marseille","lat":43.27494,"lon":5.42445,"is_reserved":false,"is_disabled":false,"rental_uris":{"android":"levelo://app?vid=c8440705-5806-4651-b547-eac05c45ec57","ios":"levelo://app?vid=c8440705-5806-4651-b547-eac05c45ec57"},"vehicle_type_id":"4","last_reported":1747652957,"current_range_meters":24000,"station_id":"ce4bhn92rcd13ifvqgrg","pricing_plan_id":"cebpf4jnsgd1na2vs0mg"},{"bike_id":"48d38226-80d0-4df8-9f41-d7eeff7010bd","system_id":"levelo_inurba_marseille","lat":43.28605,"lon":5.37068,"is_reserved":false,"is_disabled":false,"rental_uris":{"android":"levelo://app?vid=48d38226-80d0-4df8-9f41-d7eeff7010bd","ios":"levelo://app?vid=48d38226-80d0-4df8-9f41-d7eeff7010bd"},"vehicle_type_id":"4","last_reported":1747652957,"current_range_meters":24000,"station_id":"ce4bht12rcd13ifvqi60","pricing_plan_id":"cebpf4jnsgd1na2vs0mg"},{"bike_id":"15f178c0-ae84-4856-ae0e-aaef582799d5","system_id":"levelo_inurba_marseille","lat":43.21754,"lon":5.346,"is_reserved":false,"is_disabled":false,"rental_uris":{"android":"levelo://app?vid=15f178c0-ae84-4856-ae0e-aaef582799d5","ios":"levelo://app?vid=15f178c0-ae84-4856-ae0e-aaef582799d5"},"vehicle_type_id":"4","last_reported":1747652957,"current_range_meters":24000,"station_id":"st_cvj6r9ubvosntc0bgbag","pricing_plan_id":"cebpf4jnsgd1na2vs0mg"},