{"last_updated":1745414528,"ttl":60,"version":"2.2","data":{"bikes":[{"bike_id":"81067835-0db0-47b0-88a9-b87872329d31","system_id":"levelo_inurba_marseille","lat":43.30803,"lon":5.38163,"is_reserved":false,"is_disabled":false,"rental_uris":{"android":"levelo://app?vid=81067835-0db0-47b0-88a9-b87872329d31","ios":"levelo://app?vid=81067835-0db0-47b0-88a9-b87872329d31"},"vehicle_type_id":"4","last_reported":1745414528,"current_range_meters":2800,"station_id":"ce4bgt12rcd13ifvqce0","pricing_plan_id":"cebpf4jnsgd1na2vs0mg"},{"bike_id":"7af06b95-c927-45c3-b5f1-25978ee670ea","system_id":"levelo_inurba_marseille","lat":43.29305,"lon":5.37453,"is_reserved":false,"is_disabled":false,"rental_uris":{"android":"levelo://app?vid=7af06b95-c927-45c3-b5f1-25978ee670ea","ios":"levelo://app?vid=7af06b95-c927-45c3-b5f1-25978ee670ea"},"vehicle_type_id":"4","last_reported":1745414528,"current_range_meters":2800,"station_id":"ce4bgi12rcd13ifvqb70","pricing_plan_id":"cebpf4jnsgd1na2vs0mg"},{"bike_id":"ff23ba35-b2c7-4cf7-8fcb-a0d0923ca60a","system_id":"levelo_inurba_marseille","lat":43.26065,"lon":5.39394,"is_reserved":false,"is_disabled":false,"rental_uris":{"android":"levelo://app?vid=ff23ba35-b2c7-4cf7-8fcb-a0d0923ca60a","ios":"levelo://app?vid=ff23ba35-b2c7-4cf7-8fcb-a0d0923ca60a"},"vehicle_type_id":"4","last_reported":1745414528,"current_range_meters":2800,"station_id":"ce4bhh92rcd13ifvqfj0","pricing_plan_id":"cebpf4jnsgd1na2vs0mg"},{"bike_id":"f55e462f-3db3-47fc-92e4-121fc7b4f89d","system_id":"levelo_inurba_marseille","lat":43.29648,"lon":5.37396,"is_reserved":false,"is_disabled":false,"rental_uris":{"android":"levelo://app?vid=f55e462f-3db3-47fc-92e4-121fc7b4f89d","ios":"levelo://app?vid=f55e462f-3db3-47fc-92e4-121fc7b4f89d"},"vehicle_type_id":"4","last_reported":1745414528,"current_range_meters":2800,"station_id":"","pricing_plan_id":"cebpf4jnsgd1na2vs0mg"},{"bike_id":"1c669c54-8354-4f7d-8129-5a8fa96536a9","system_id":"levelo_inurba_marseille","lat":43.25861,"lon":5.399,"is_reserved":false,"is_disabled":false,"rental_uris":{"android":"levelo://app?vid=1c669c54-8354-4f7d-8129-5a8fa96536a9","ios":"levelo://app?vid=1c669c54-8354-4f7d-8129-5a8fa96536a9"},"vehicle_type_id":"4","last_reported":1745414528,"current_range_meters":3200,"station_id":"ce4bhl92rcd13ifvqghg","pricing_plan_id":"cebpf4jnsgd1na2vs0mg"},{"bike_id":"679e1d98-fca2-455a-9fb9-e7e9d77f4aba","system_id":"levelo_inurba_marseille","lat":43.26216,"lon":5.37443,"is_reserved":false,"is_disabled":false,"rental_uris":{"android":"levelo://app?vid=679e1d98-fca2-455a-9fb9-e7e9d77f4aba","ios":"levelo://app?vid=679e1d98-fca2-455a-9fb9-e7e9d77f4aba"},"vehicle_type_id":"4","last_reported":1745414528,"current_range_meters":3200,"station_id":"ce4bhgp2rcd13ifvqfc0","pricing_plan_id":"cebpf4jnsgd1na2vs0mg"},{"bike_id":"cbd8d7e0-2ea4-4d21-a3e4-16beba8f762a","system_id":"levelo_inurba_marseille","lat":43.23058,"lon":5.35501,"is_reserved":false,"is_disabled":false,"rental_uris":{"android":"levelo://app?vid=cbd8d7e0-2ea4-4d21-a3e4-16beba8f762a","ios":"levelo://app?vid=cbd8d7e0-2ea4-4d21-a3e4-16beba8f762a"},"vehicle_type_id":"4","last_reported":1745414528,"current_range_meters":3200,"station_id":"cpo3342slgdg3j2ifvpg","pricing_plan_id":"cebpf4jnsgd1na2vs0mg"},{"bike_id":"cac5818e-9e35-46dc-be67-1c0f78258b4f","system_id":"levelo_inurba_marseille","lat":43.2863,"lon":5.35093,"is_reserved":false,"is_disabled":false,"rental_uris":{"android":"levelo://app?vid=cac5818e-9e35-46dc-be67-1c0f78258b4f","ios":"levelo://app?vid=cac5818e-9e35-46dc-be67-1c0f78258b4f"},"vehicle_type_id":"4","last_reported":1745414528,"current_range_meters":3600,"station_id":"ce4bhch2rcd13ifvqeug","pricing_plan_id":"cebpf4jnsgd1na2vs0mg"},{"bike_id":"35ca16e2-99a8-4cab-87b8-cdc863f8af8a","system_id":"levelo_inurba_marseille","lat":43.24168,"lon":5.36384,"is_reserved":false,"is_disabled":false,"rental_uris":{"android":"levelo://app?vid=35ca16e2-99a8-4cab-87b8-cdc863f8af8a","ios":"levelo://app?vid=35ca16e2-99a8-4cab-87b8-cdc863f8af8a"},"vehicle_type_id":"4","last_reported":1745414528,"current_range_meters":3600,"station_id":"cpo36qri1sfpv3e86is0","pricing_plan_id":"cebpf4jnsgd1na2vs0mg"},{"bike_id":"34c614d5-1e78-4af9-bbc7-3ebce54fbdb1","system_id":"levelo_inurba_marseille","lat":43.30186,"lon":5.39354,"is_reserved":false,"is_disabled":false,"rental_uris":{"android":"levelo://app?vid=34c614d5-1e78-4af9-bbc7-3ebce54fbdb1","ios":"levelo://app?vid=34c614d5-1e78-4af9-bbc7-3ebce54fbdb1"},"vehicle_type_id":"4","last_reported":1745414528,"current_range_meters":3600,"station_id":"","pricing_plan_id":"cebpf4jnsgd1na2vs0mg"},{"bike_id":"322fb907-d562-429a-b282-a9770b46eff1","system_id":"levelo_inurba_marseille","lat":43.29855,"lon":5.36285,"is_reserved":false,"is_disabled":false,"rental_uris":{"android":"levelo://app?vid=322fb907-d562-429a-b282-a9770b46eff1","ios":"levelo://app?vid=322fb907-d562-429a-b282-a9770b46eff1"},"vehicle_type_id":"4","last_reported":1745414528,"current_range_meters":3600,"station_id":"ce4bgpp2rcd13ifvqc3g","pricing_plan_id":"cebpf4jnsgd1na2vs0mg"},{"bike_id":"452c877a-1cfd-47d1-b1a5-4fb0d54e221d","system_id":"levelo_inurba_marseille","lat":43.251188,"lon":5.403162,"is_reserved":false,"is_disabled":false,"rental_uris":{"android":"levelo://app?vid=452c877a-1cfd-47d1-b1a5-4fb0d54e221d","ios":"levelo://app?vid=452c877a-1cfd-47d1-b1a5-4fb0d54e221d"},"vehicle_type_id":"4","last_reported":1745414528,"current_range_meters":3600,"station_id":"ce4bhlh2rcd13ifvqgig","pricing_plan_id":"cebpf4jnsgd1na2vs0mg"},{"bike_id":"e9bf06d7-6ee4-45bf-9e42-ccee2e2b6709","system_id":"levelo_inurba_marseille","lat":43.24169,"lon":5.36386,"is_reserved":false,"is_disabled":false,"rental_uris":{"android":"levelo://app?vid=e9bf06d7-6ee4-45bf-9e42-ccee2e2b6709","ios":"levelo://app?vid=e9bf06d7-6ee4-45bf-9e42-ccee2e2b6709"},"vehicle_type_id":"4","last_reported":1745414528,"current_range_meters":4000,"station_id":"cpo36qri1sfpv3e86is0","pricing_plan_id":"cebpf4jnsgd1na2vs0mg"},{"bike_id":"1095bcc7-d6c8-4c85-ab44-d5c3b133476a","system_id":"levelo_inurba_marseille","lat":43.283478,"lon":5.381011,"is_reserved":false,"is_disabled":false,"rental_uris":{"android":"levelo://app?vid=1095bcc7-d6c8-4c85-ab44-d5c3b133476a","ios":"levelo://app?vid=1095bcc7-d6c8-4c85-ab44-d5c3b133476a"},"vehicle_type_id":"4","last_reported":1745414528,"current_range_meters":4000,"station_id":"ce4bh412rcd13ifvqdr0","pricing_plan_id":"cebpf4jnsgd1na2vs0mg"},{"bike_id":"20dd1905-e40d-4d88-8601-453b9b0bd2c0","system_id":"levelo_inurba_marseille","lat":43.29004,"lon":5.3562,"is_reserved":false,"is_disabled":false,"rental_uris":{"android":"levelo://app?vid=20dd1905-e40d-4d88-8601-453b9b0bd2c0","ios":"levelo://app?vid=20dd1905-e40d-4d88-8601-453b9b0bd2c0"},"vehicle_type_id":"4","last_reported":1745414528,"current_range_meters":3600,"station_id":"ce4bhb92rcd13ifvqen0","pricing_plan_id":"cebpf4jnsgd1na2vs0mg"},{"bike_id":"2a28d19f-28ef-46a1-ac1e-0568dccede2a","system_id":"levelo_inurba_marseille","lat":43.21192,"lon":5.35072,"is_reserved":false,"is_disabled":false,"rental_uris":{"android":"levelo://app?vid=2a28d19f-28ef-46a1-ac1e-0568dccede2a","ios":"levelo://app?vid=2a28d19f-28ef-46a1-ac1e-0568dccede2a"},"vehicle_type_id":"4","last_reported":1745414528,"current_range_meters":4000,"station_id":"st_cvj6sg6p6f1abm77japg","pricing_plan_id":"cebpf4jnsgd1na2vs0mg"},{"bike_id":"2e6ed5f0-dd2b-4f6e-92b8-b497434adf03","system_id":"levelo_inurba_marseille","lat":43.29538,"lon":5.37522,"is_reserved":false,"is_disabled":false,"rental_uris":{"android":"levelo://app?vid=2e6ed5f0-dd2b-4f6e-92b8-b497434adf03","ios":"levelo://app?vid=2e6ed5f0-dd2b-4f6e-92b8-b497434adf03"},"vehicle_type_id":"4","last_reported":1745414528,"current_range_meters":4000,"station_id":"ce4bgkp2rcd13ifvqbmg","pricing_plan_id":"cebpf4jnsgd1na2vs0mg"},{"bike_id":"75286f07-c6f2-4862-a674-dd17c0410a31","system_id":"levelo_inurba_marseille","lat":43.28726,"lon":5.37922,"is_reserved":false,"is_disabled":false,"rental_uris":{"android":"levelo://app?vid=75286f07-c6f2-4862-a674-dd17c0410a31","ios":"levelo://app?vid=75286f07-c6f2-4862-a674-dd17c0410a31"},"vehicle_type_id":"4","last_reported":1745414528,"current_range_meters":4000,"station_id":"ce4bh9p2rcd13ifvqec0","pricing_plan_id":"cebpf4jnsgd1na2vs0mg"},{"bike_id":"9487251a-c17e-4de8-b21d-7ace0ed06601","system_id":"levelo_inurba_marseille","lat":43.28704,"lon":5.40001,"is_reserved":false,"is_disabled":false,"rental_uris":{"android":"levelo://app?vid=9487251a-c17e-4de8-b21d-7ace0ed06601","ios":"levelo://app?vid=9487251a-c17e-4de8-b21d-7ace0ed06601"},"vehicle_type_id":"4","last_reported":1745414528,"current_range_meters":4400,"station_id":"ce4bho92rcd13ifvqh3g","pricing_plan_id":"cebpf4jnsgd1na2vs0mg"},{"bike_id":"0dcaab4b-be78-4b59-93cb-72dc008f233c","system_id":"levelo_inurba_marseille","lat":43.26026,"lon":5.37548,"is_reserved":false,"is_disabled":false,"rental_uris":{"android":"levelo://app?vid=0dcaab4b-be78-4b59-93cb-72dc008f233c","ios":"levelo://app?vid=0dcaab4b-be78-4b59-93cb-72dc008f233c"},"vehicle_type_id":"4","last_reported":1745414528,"current_range_meters":4000,"station_id":"ce4bhgh2rcd13ifvqfa0","pricing_plan_id":"cebpf4jnsgd1na2vs0mg"},{"bike_id":"d69b4840-a48c-46aa-8de4-1073f19f4178","system_id":"levelo_inurba_marseille","lat":43.28269,"lon":5.35073,"is_reserved":false,"is_disabled":true,"rental_uris":{"android":"levelo://app?vid=d69b4840-a48c-46aa-8de4-1073f19f4178","ios":"levelo://app?vid=d69b4840-a48c-46aa-8de4-1073f19f4178"},"vehicle_type_id":"4","last_reported":1745414528,"current_range_meters":4800,"station_id":"ce4bhbp2rcd13ifvqerg","pricing_plan_id":"cebpf4jnsgd1na2vs0mg"},{"bike_id":"72d02f1c-5e2a-4671-81c4-0888d0b52a97","system_id":"levelo_inurba_marseille","lat":43.25581,"lon":5.38228,"is_reserved":false,"is_disabled":false,"rental_uris":{"android":"levelo://app?vid=72d02f1c-5e2a-4671-81c4-0888d0b52a97","ios":"levelo://app?vid=72d02f1c-5e2a-4671-81c4-0888d0b52a97"},"vehicle_type_id":"4","last_reported":1745414528,"current_range_meters":4800,"station_id":"ce4bhih2rcd13ifvqfs0","pricing_plan_id":"cebpf4jnsgd1na2vs0mg"},{"bike_id":"708be7b7-0149-4dbc-a397-eaa80ac13987","system_id":"levelo_inurba_marseille","lat":43.2952,"lon":5.39047,"is_reserved":false,"is_disabled":false,"rental_uris":{"android":"levelo://app?vid=708be7b7-0149-4dbc-a397-eaa80ac13987","ios":"levelo://app?vid=708be7b7-0149-4dbc-a397-eaa80ac13987"},"vehicle_type_id":"4","last_reported":1745414528,"current_range_meters":4800,"station_id":"ce4bh3p2rcd13ifvqdp0","pricing_plan_id":"cebpf4jnsgd1na2vs0mg"},{"bike_id":"6a63fa00-b0fb-4bc7-8f2c-dea3b744d0cc","system_id":"levelo_inurba_marseille","lat":43.28843,"lon":5.39305,"is_reserved":false,"is_disabled":false,"rental_uris":{"android":"levelo://app?vid=6a63fa00-b0fb-4bc7-8f2c-dea3b744d0cc","ios":"levelo://app?vid=6a63fa00-b0fb-4bc7-8f2c-dea3b744d0cc"},"vehicle_type_id":"4","last_reported":1745414528,"current_range_meters":4800,"station_id":"ce4bh2p2rcd13ifvqdi0","pricing_plan_id":"cebpf4jnsgd1na2vs0mg"},{"bike_id":"e1f58108-25d4-4cef-8246-04486afbd199","system_id":"levelo_inurba_marseille","lat":43.27851,"lon":5.387987,"is_reserved":false,"is_disabled":false,"rental_uris":{"android":"levelo://app?vid=e1f58108-25d4-4cef-8246-04486afbd199","ios":"levelo://app?vid=e1f58108-25d4-4cef-8246-04486afbd199"},"vehicle_type_id":"4","last_reported":1745414528,"current_range_meters":4800,"station_id":"ce4bhg12rcd13ifvqf80","pricing_plan_id":"cebpf4jnsgd1na2vs0mg"},{"bike_id":"86ef9aa8-53f4-42af-aea5-9384b33dac8b","system_id":"levelo_inurba_marseille","lat":43.23146,"lon":5.43723,"is_reserved":false,"is_disabled":false,"rental_uris":{"android":"levelo://app?vid=86ef9aa8-53f4-42af-aea5-9384b33dac8b","ios":"levelo://app?vid=86ef9aa8-53f4-42af-aea5-9384b33dac8b"},"vehicle_type_id":"4","last_reported":1745414528,"current_range_meters":4800,"station_id":"ce4bhmp2rcd13ifvqgog","pricing_plan_id":"cebpf4jnsgd1na2vs0mg"},{"bike_id":"95e48ef1-3a41-44bd-adb6-8148faa28559","system_id":"levelo_inurba_marseille","lat":43.2953,"lon":5.37505,"is_reserved":false,"is_disabled":false,"rental_uris":{"android":"levelo://app?vid=95e48ef1-3a41-44bd-adb6-8148faa28559","ios":"levelo://app?vid=95e48ef1-3a41-44bd-adb6-8148faa28559"},"vehicle_type_id":"4","last_reported":1745414528,"current_range_meters":4800,"station_id":"ce4bgkp2rcd13ifvqbmg","pricing_plan_id":"cebpf4jnsgd1na2vs0mg"},{"bike_id":"0b657368-c75e-4777-b03a-31940d92b545","system_id":"levelo_inurba_marseille","lat":43.29411,"lon":5.38622,"is_reserved":false,"is_disabled":false,"rental_uris":{"android":"levelo://app?vid=0b657368-c75e-4777-b03a-31940d92b545","ios":"levelo://app?vid=0b657368-c75e-4777-b03a-31940d92b545"},"vehicle_type_id":"4","last_reported":1745414528,"current_range_meters":4400,"station_id":"ce4bh2h2rcd13ifvqdh0","pricing_plan_id":"cebpf4jnsgd1na2vs0mg"},{"bike_id":"6c610ca6-2303-4608-a3d8-aafaa36776de","system_id":"levelo_inurba_marseille","lat":43.28265,"lon":5.35064,"is_reserved":false,"is_disabled":false,"rental_uris":{"android":"levelo://app?vid=6c610ca6-2303-4608-a3d8-aafaa36776de","ios":"levelo://app?vid=6c610ca6-2303-4608-a3d8-aafaa36776de"},"vehicle_type_id":"4","last_reported":1745414528,"current_range_meters":4800,"station_id":"ce4bgpp2rcd13ifvqc3g","pricing_plan_id":"cebpf4jnsgd1na2vs0mg"},{"bike_id":"8f41389d-03ab-4512-bfad-e25f3350387b","system_id":"levelo_inurba_marseille","lat":43.25496,"lon":5.37648,"is_reserved":false,"is_disabled":false,"rental_uris":{"android":"levelo://app?vid=8f41389d-03ab-4512-bfad-e25f3350387b","ios":"levelo://app?vid=8f41389d-03ab-4512-bfad-e25f3350387b"},"vehicle_type_id":"4","last_reported":1745414528,"current_range_meters":4800,"station_id":"ce4bhh12rcd13ifvqff0","pricing_plan_id":"cebpf4jnsgd1na2vs0mg"},{"bike_id":"1f20bd92-8182-4244-8728-bcc9bb6b4851","system_id":"levelo_inurba_marseille","lat":43.31083,"lon":5.4243,"is_reserved":false,"is_disabled":false,"rental_uris":{"android":"levelo://app?vid=1f20bd92-8182-4244-8728-bcc9bb6b4851","ios":"levelo://app?vid=1f20bd92-8182-4244-8728-bcc9bb6b4851"},"vehicle_type_id":"4","last_reported":1745414528,"current_range_meters":5600,"station_id":"ce4bhp92rcd13ifvqhag","pricing_plan_id":"cebpf4jnsgd1na2vs0mg"},{"bike_id":"59f8d550-337a-475c-9348-01cbe28fe97f","system_id":"levelo_inurba_marseille","lat":43.28465,"lon":5.35885,"is_reserved":false,"is_disabled":false,"rental_uris":{"android":"levelo://app?vid=59f8d550-337a-475c-9348-01cbe28fe97f","ios":"levelo://app?vid=59f8d550-337a-475c-9348-01cbe28fe97f"},"vehicle_type_id":"4","last_reported":1745414528,"current_range_meters":4800,"station_id":"ce4bhah2rcd13ifvqei0","pricing_plan_id":"cebpf4jnsgd1na2vs0mg"},{"bike_id":"805b3977-466a-4f2f-b8f2-88a2709f8f93","system_id":"levelo_inurba_marseille","lat":43.28273,"lon":5.35062,"is_reserved":false,"is_disabled":false,"rental_uris":{"android":"levelo://app?vid=805b3977-466a-4f2f-b8f2-88a2709f8f93","ios":"levelo://app?vid=805b3977-466a-4f2f-b8f2-88a2709f8f93"},"vehicle_type_id":"4","last_reported":1745414528,"current_range_meters":5600,"station_id":"ce4bhbp2rcd13ifvqerg","pricing_plan_id":"cebpf4jnsgd1na2vs0mg"},{"bike_id":"01f11adf-fa3f-4026-943e-b294087da33a","system_id":"levelo_inurba_marseille","lat":43.299713,"lon":5.384867,"is_reserved":false,"is_disabled":false,"rental_uris":{"android":"levelo://app?vid=01f11adf-fa3f-4026-943e-b294087da33a","ios":"levelo://app?vid=01f11adf-fa3f-4026-943e-b294087da33a"},"vehicle_type_id":"4","last_reported":1745414528,"current_range_meters":6000,"station_id":"ce4bgj92rcd13ifvqbd0","pricing_plan_id":"cebpf4jnsgd1na2vs0mg"},{"bike_id":"a754b563-0074-43f1-96d3-b51af44aee5a","system_id":"levelo_inurba_marseille","lat":43.32856,"lon":5.39175,"is_reserved":false,"is_disabled":false,"rental_uris":{"android":"levelo://app?vid=a754b563-0074-43f1-96d3-b51af44aee5a","ios":"levelo://app?vid=a754b563-0074-43f1-96d3-b51af44aee5a"},"vehicle_type_id":"4","last_reported":1745414528,"current_range_meters":6400,"station_id":"","pricing_plan_id":"cebpf4jnsgd1na2vs0mg"},{"bike_id":"dd46c0c2-0404-4d1f-9bac-05855820dff4","system_id":"levelo_inurba_marseille","lat":43.30154,"lon":5.3808,"is_reserved":false,"is_disabled":false,"rental_uris":{"android":"levelo://app?vid=dd46c0c2-0404-4d1f-9bac-05855820dff4","ios":"levelo://app?vid=dd46c0c2-0404-4d1f-9bac-05855820dff4"},"vehicle_type_id":"4","last_reported":1745414528,"current_range_meters":6400,"station_id":"ce4bgjp2rcd13ifvqbh0","pricing_plan_id":"cebpf4jnsgd1na2vs0mg"},{"bike_id":"03a3589b-68ba-4c11-b491-6ddf7f6d8c7f","system_id":"levelo_inurba_marseille","lat":43.29716,"lon":5.3661,"is_reserved":false,"is_disabled":false,"rental_uris":{"android":"levelo://app?vid=03a3589b-68ba-4c11-b491-6ddf7f6d8c7f","ios":"levelo://app?vid=03a3589b-68ba-4c11-b491-6ddf7f6d8c7f"},"vehicle_type_id":"4","last_reported":1745414528,"current_range_meters":6400,"station_id":"ce4bgn12rcd13ifvqbt0","pricing_plan_id":"cebpf4jnsgd1na2vs0mg"},{"bike_id":"04cb011b-cb60-4711-9c6a-23a90dcf62c6","system_id":"levelo_inurba_marseille","lat":43.24386,"lon":5.37058,"is_reserved":false,"is_disabled":false,"rental_uris":{"android":"levelo://app?vid=04cb011b-cb60-4711-9c6a-23a90dcf62c6","ios":"levelo://app?vid=04cb011b-cb60-4711-9c6a-23a90dcf62c6"},"vehicle_type_id":"4","last_reported":1745414528,"current_range_meters":6800,"station_id":"ce4bhhh2rcd13ifvqfk0","pricing_plan_id":"cebpf4jnsgd1na2vs0mg"},{"bike_id":"19589f92-3ee0-408f-99d6-4c866275e0f3","system_id":"levelo_inurba_marseille","lat":43.286974,"lon":5.399763,"is_reserved":false,"is_disabled":false,"rental_uris":{"android":"levelo://app?vid=19589f92-3ee0-408f-99d6-4c866275e0f3","ios":"levelo://app?vid=19589f92-3ee0-408f-99d6-4c866275e0f3"},"vehicle_type_id":"4","last_reported":1745414528,"current_range_meters":6800,"station_id":"ce4bho92rcd13ifvqh3g","pricing_plan_id":"cebpf4jnsgd1na2vs0mg"},{"bike_id":"13089f96-a70b-487b-aee9-ac1a1bd45d19","system_id":"levelo_inurba_marseille","lat":43.30543,"lon":5.36556,"is_reserved":false,"is_disabled":false,"rental_uris":{"android":"levelo://app?vid=13089f96-a70b-487b-aee9-ac1a1bd45d19","ios":"levelo://app?vid=13089f96-a70b-487b-aee9-ac1a1bd45d19"},"vehicle_type_id":"4","last_reported":1745414528,"current_range_meters":6800,"station_id":"ce4bgs12rcd13ifvqcag","pricing_plan_id":"cebpf4jnsgd1na2vs0mg"},{"bike_id":"ca2cc504-b4fb-4074-a8d0-74959471610d","system_id":"levelo_inurba_marseille","lat":43.325319,"lon":5.366052,"is_reserved":false,"is_disabled":false,"rental_uris":{"android":"levelo://app?vid=ca2cc504-b4fb-4074-a8d0-74959471610d","ios":"levelo://app?vid=ca2cc504-b4fb-4074-a8d0-74959471610d"},"vehicle_type_id":"4","last_reported":1745414528,"current_range_meters":6800,"station_id":"ce4bhs12rcd13ifvqhvg","pricing_plan_id":"cebpf4jnsgd1na2vs0mg"},{"bike_id":"c94e26c1-7575-4802-86ec-0bd6f82482cc","system_id":"levelo_inurba_marseille","lat":43.28607,"lon":5.37066,"is_reserved":false,"is_disabled":false,"rental_uris":{"android":"levelo://app?vid=c94e26c1-7575-4802-86ec-0bd6f82482cc","ios":"levelo://app?vid=c94e26c1-7575-4802-86ec-0bd6f82482cc"},"vehicle_type_id":"4","last_reported":1745414528,"current_range_meters":7200,"station_id":"ce4bht12rcd13ifvqi60","pricing_plan_id":"cebpf4jnsgd1na2vs0mg"},{"bike_id":"46deeb45-9e0a-4b30-bac2-9bccefe401ed","system_id":"levelo_inurba_marseille","lat":43.27368,"lon":5.3625,"is_reserved":false,"is_disabled":false,"rental_uris":{"android":"levelo://app?vid=46deeb45-9e0a-4b30-bac2-9bccefe401ed","ios":"levelo://app?vid=46deeb45-9e0a-4b30-bac2-9bccefe401ed"},"vehicle_type_id":"4","last_reported":1745414528,"current_range_meters":7200,"station_id":"ce4bhbh2rcd13ifvqeo0","pricing_plan_id":"cebpf4jnsgd1na2vs0mg"},{"bike_id":"8d2789be-d356-436f-bee5-111c80e6604e","system_id":"levelo_inurba_marseille","lat":43.24167,"lon":5.36389,"is_reserved":false,"is_disabled":false,"rental_uris":{"android":"levelo://app?vid=8d2789be-d356-436f-bee5-111c80e6604e","ios":"levelo://app?vid=8d2789be-d356-436f-bee5-111c80e6604e"},"vehicle_type_id":"4","last_reported":1745414528,"current_range_meters":7200,"station_id":"cpo36qri1sfpv3e86is0","pricing_plan_id":"cebpf4jnsgd1na2vs0mg"},{"bike_id":"ee5dda03-9c11-44af-924a-02c76adb8049","system_id":"levelo_inurba_marseille","lat":43.24178,"lon":5.39729,"is_reserved":false,"is_disabled":false,"rental_uris":{"android":"levelo://app?vid=ee5dda03-9c11-44af-924a-02c76adb8049","ios":"levelo://app?vid=ee5dda03-9c11-44af-924a-02c76adb8049"},"vehicle_type_id":"4","last_reported":1745414528,"current_range_meters":7200,"station_id":"ce4bhn12rcd13ifvqgpg","pricing_plan_id":"cebpf4jnsgd1na2vs0mg"},{"bike_id":"51acf6c4-373e-4e95-95a1-cc88813eeeef","system_id":"levelo_inurba_marseille","lat":43.27371,"lon":5.36259,"is_reserved":false,"is_disabled":false,"rental_uris":{"android":"levelo://app?vid=51acf6c4-373e-4e95-95a1-cc88813eeeef","ios":"levelo://app?vid=51acf6c4-373e-4e95-95a1-cc88813eeeef"},"vehicle_type_id":"4","last_reported":1745414528,"current_range_meters":7200,"station_id":"ce4bhbh2rcd13ifvqeo0","pricing_plan_id":"cebpf4jnsgd1na2vs0mg"},{"bike_id":"49f26039-908e-49e8-bafd-d0e1f8c74636","system_id":"levelo_inurba_marseille","lat":43.29663,"lon":5.37919,"is_reserved":false,"is_disabled":false,"rental_uris":{"android":"levelo://app?vid=49f26039-908e-49e8-bafd-d0e1f8c74636","ios":"levelo://app?vid=49f26039-908e-49e8-bafd-d0e1f8c74636"},"vehicle_type_id":"4","last_reported":1745414528,"current_range_meters":7200,"station_id":"","pricing_plan_id":"cebpf4jnsgd1na2vs0mg"},{"bike_id":"5fc217d8-73ac-4f56-92da-4eb390b2a8b6","system_id":"levelo_inurba_marseille","lat":43.316895,"lon":5.376356,"is_reserved":false,"is_disabled":false,"rental_uris":{"android":"levelo://app?vid=5fc217d8-73ac-4f56-92da-4eb390b2a8b6","ios":"levelo://app?vid=5fc217d8-73ac-4f56-92da-4eb390b2a8b6"},"vehicle_type_id":"4","last_reported":1745414528,"current_range_meters":7200,"station_id":"","pricing_plan_id":"cebpf4jnsgd1na2vs0mg"},{"bike_id":"e88ac0aa-172e-418f-9134-2e3c247b5863","system_id":"levelo_inurba_marseille","lat":43.23967,"lon":5.36628,"is_reserved":false,"is_disabled":false,"rental_uris":{"android":"levelo://app?vid=e88ac0aa-172e-418f-9134-2e3c247b5863","ios":"levelo://app?vid=e88ac0aa-172e-418f-9134-2e3c247b5863"},"vehicle_type_id":"4","last_reported":1745414528,"current_range_meters":8000,"station_id":"ce4bhi12rcd13ifvqfp0","pricing_plan_id":"cebpf4jnsgd1na2vs0mg"},{"bike_id":"8d3d203c-c49c-4deb-a007-2f93fb4b57dd","system_id":"levelo_inurba_marseille","lat":43.29899,"lon":5.43656,"is_reserved":false,"is_disabled":false,"rental_uris":{"android":"levelo://app?vid=8d3d203c-c49c-4deb-a007-2f93fb4b57dd","ios":"levelo://app?vid=8d3d203c-c49c-4deb-a007-2f93fb4b57dd"},"vehicle_type_id":"4","last_reported":1745414528,"current_range_meters":8000,"station_id":"ce4bhpp2rcd13ifvqhfg","pricing_plan_id":"cebpf4jnsgd1na2vs0mg"},{"bike_id":"b63a0eeb-ccf1-4f73-a470-5828aa1d320e","system_id":"levelo_inurba_marseille","lat":43.26681,"lon":5.38263,"is_reserved":false,"is_disabled":false,"rental_uris":{"android":"levelo://app?vid=b63a0eeb-ccf1-4f73-a470-5828aa1d320e","ios":"levelo://app?vid=b63a0eeb-ccf1-4f73-a470-5828aa1d320e"},"vehicle_type_id":"4","last_reported":1745414528,"current_range_meters":8000,"station_id":"ce4bhg92rcd13ifvqf90","pricing_plan_id":"cebpf4jnsgd1na2vs0mg"},{"bike_id":"f73096c0-a009-4ed7-99af-1108e2037020","system_id":"levelo_inurba_marseille","lat":43.31074,"lon":5.38357,"is_reserved":false,"is_disabled":false,"rental_uris":{"android":"levelo://app?vid=f73096c0-a009-4ed7-99af-1108e2037020","ios":"levelo://app?vid=f73096c0-a009-4ed7-99af-1108e2037020"},"vehicle_type_id":"4","last_reported":1745414528,"current_range_meters":8000,"station_id":"ce4bgv92rcd13ifvqcr0","pricing_plan_id":"cebpf4jnsgd1na2vs0mg"},{"bike_id":"7f6f2eb5-ec79-4a2e-abb9-aec2cff2113f","system_id":"levelo_inurba_marseille","lat":43.295288,"lon":5.385473,"is_reserved":false,"is_disabled":false,"rental_uris":{"android":"levelo://app?vid=7f6f2eb5-ec79-4a2e-abb9-aec2cff2113f","ios":"levelo://app?vid=7f6f2eb5-ec79-4a2e-abb9-aec2cff2113f"},"vehicle_type_id":"4","last_reported":1745414528,"current_range_meters":8000,"station_id":"ce4bgih2rcd13ifvqba0","pricing_plan_id":"cebpf4jnsgd1na2vs0mg"},{"bike_id":"203edac6-808a-418e-a924-a5a89c94880e","system_id":"levelo_inurba_marseille","lat":43.28134,"lon":5.378632,"is_reserved":false,"is_disabled":false,"rental_uris":{"android":"levelo://app?vid=203edac6-808a-418e-a924-a5a89c94880e","ios":"levelo://app?vid=203edac6-808a-418e-a924-a5a89c94880e"},"vehicle_type_id":"4","last_reported":1745414528,"current_range_meters":8400,"station_id":"ce4bha12rcd13ifvqee0","pricing_plan_id":"cebpf4jnsgd1na2vs0mg"},{"bike_id":"b0adf757-07de-4737-b77c-af15182024d8","system_id":"levelo_inurba_marseille","lat":43.241778,"lon":5.397348,"is_reserved":false,"is_disabled":false,"rental_uris":{"android":"levelo://app?vid=b0adf757-07de-4737-b77c-af15182024d8","ios":"levelo://app?vid=b0adf757-07de-4737-b77c-af15182024d8"},"vehicle_type_id":"4","last_reported":1745414528,"current_range_meters":8400,"station_id":"ce4bhn12rcd13ifvqgpg","pricing_plan_id":"cebpf4jnsgd1na2vs0mg"},{"bike_id":"ff6ba0d0-efef-49a3-ad3c-0a87196dffc3","system_id":"levelo_inurba_marseille","lat":43.23135,"lon":5.4375,"is_reserved":false,"is_disabled":false,"rental_uris":{"android":"levelo://app?vid=ff6ba0d0-efef-49a3-ad3c-0a87196dffc3","ios":"levelo://app?vid=ff6ba0d0-efef-49a3-ad3c-0a87196dffc3"},"vehicle_type_id":"4","last_reported":1745414528,"current_range_meters":8400,"station_id":"ce4bhmp2rcd13ifvqgog","pricing_plan_id":"cebpf4jnsgd1na2vs0mg"},{"bike_id":"1b18c42e-a58f-4366-be3f-280b31d3078c","system_id":"levelo_inurba_marseille","lat":43.28278,"lon":5.3507,"is_reserved":false,"is_disabled":false,"rental_uris":{"android":"levelo://app?vid=1b18c42e-a58f-4366-be3f-280b31d3078c","ios":"levelo://app?vid=1b18c42e-a58f-4366-be3f-280b31d3078c"},"vehicle_type_id":"4","last_reported":1745414528,"current_range_meters":8400,"station_id":"ce4bhbp2rcd13ifvqerg","pricing_plan_id":"cebpf4jnsgd1na2vs0mg"},{"bike_id":"23c77b6c-8616-4ef9-8a1b-ab33345c619c","system_id":"levelo_inurba_marseille","lat":43.2549,"lon":5.37633,"is_reserved":false,"is_disabled":false,"rental_uris":{"android":"levelo://app?vid=23c77b6c-8616-4ef9-8a1b-ab33345c619c","ios":"levelo://app?vid=23c77b6c-8616-4ef9-8a1b-ab33345c619c"},"vehicle_type_id":"4","last_reported":1745414528,"current_range_meters":8400,"station_id":"","pricing_plan_id":"cebpf4jnsgd1na2vs0mg"},{"bike_id":"c1973247-da65-417e-b3cd-5c8761009385","system_id":"levelo_inurba_marseille","lat":43.30602,"lon":5.37216,"is_reserved":false,"is_disabled":false,"rental_uris":{"android":"levelo://app?vid=c1973247-da65-417e-b3cd-5c8761009385","ios":"levelo://app?vid=c1973247-da65-417e-b3cd-5c8761009385"},"vehicle_type_id":"4","last_reported":1745414528,"current_range_meters":8400,"station_id":"ce4bgqh2rcd13ifvqc4g","pricing_plan_id":"cebpf4jnsgd1na2vs0mg"},{"bike_id":"9d7cd68a-0b0d-4018-85fc-05b542aed804","system_id":"levelo_inurba_marseille","lat":43.3128,"lon":5.36843,"is_reserved":false,"is_disabled":false,"rental_uris":{"android":"levelo://app?vid=9d7cd68a-0b0d-4018-85fc-05b542aed804","ios":"levelo://app?vid=9d7cd68a-0b0d-4018-85fc-05b542aed804"},"vehicle_type_id":"4","last_reported":1745414528,"current_range_meters":8800,"station_id":"","pricing_plan_id":"cebpf4jnsgd1na2vs0mg"},{"bike_id":"ad890711-96af-460f-889b-baab1672ec45","system_id":"levelo_inurba_marseille","lat":43.27371,"lon":5.36247,"is_reserved":false,"is_disabled":false,"rental_uris":{"android":"levelo://app?vid=ad890711-96af-460f-889b-baab1672ec45","ios":"levelo://app?vid=ad890711-96af-460f-889b-baab1672ec45"},"vehicle_type_id":"4","last_reported":1745414528,"current_range_meters":8800,"station_id":"ce4bhbh2rcd13ifvqeo0","pricing_plan_id":"cebpf4jnsgd1na2vs0mg"},{"bike_id":"ae07f680-c3e0-4849-9f3f-c018b4d19ce1","system_id":"levelo_inurba_marseille","lat":43.28721,"lon":5.37939,"is_reserved":false,"is_disabled":false,"rental_uris":{"android":"levelo://app?vid=ae07f680-c3e0-4849-9f3f-c018b4d19ce1","ios":"levelo://app?vid=ae07f680-c3e0-4849-9f3f-c018b4d19ce1"},"vehicle_type_id":"4","last_reported":1745414528,"current_range_meters":8800,"station_id":"ce4bh9p2rcd13ifvqec0","pricing_plan_id":"cebpf4jnsgd1na2vs0mg"},{"bike_id":"eedb2026-eb5d-483c-bc0d-21a268962202","system_id":"levelo_inurba_marseille","lat":43.276184,"lon":5.360988,"is_reserved":false,"is_disabled":false,"rental_uris":{"android":"levelo://app?vid=eedb2026-eb5d-483c-bc0d-21a268962202","ios":"levelo://app?vid=eedb2026-eb5d-483c-bc0d-21a268962202"},"vehicle_type_id":"4","last_reported":1745414528,"current_range_meters":8800,"station_id":"ce4bgj92rcd13ifvqbe0","pricing_plan_id":"cebpf4jnsgd1na2vs0mg"},{"bike_id":"2b3bdd66-9672-4eee-af1c-689a170c834d","system_id":"levelo_inurba_marseille","lat":43.3176,"lon":5.39014,"is_reserved":false,"is_disabled":false,"rental_uris":{"android":"levelo://app?vid=2b3bdd66-9672-4eee-af1c-689a170c834d","ios":"levelo://app?vid=2b3bdd66-9672-4eee-af1c-689a170c834d"},"vehicle_type_id":"4","last_reported":1745414528,"current_range_meters":8800,"station_id":"ce4bhqp2rcd13ifvqhng","pricing_plan_id":"cebpf4jnsgd1na2vs0mg"},{"bike_id":"49c0f902-eac7-4a79-adf0-d142aff51e11","system_id":"levelo_inurba_marseille","lat":43.24179,"lon":5.36378,"is_reserved":false,"is_disabled":false,"rental_uris":{"android":"levelo://app?vid=49c0f902-eac7-4a79-adf0-d142aff51e11","ios":"levelo://app?vid=49c0f902-eac7-4a79-adf0-d142aff51e11"},"vehicle_type_id":"4","last_reported":1745414528,"current_range_meters":9200,"station_id":"cpo36qri1sfpv3e86is0","pricing_plan_id":"cebpf4jnsgd1na2vs0mg"},{"bike_id":"4db3326b-ad93-4426-b504-4a9fbe93c12d","system_id":"levelo_inurba_marseille","lat":43.28271,"lon":5.35064,"is_reserved":false,"is_disabled":false,"rental_uris":{"android":"levelo://app?vid=4db3326b-ad93-4426-b504-4a9fbe93c12d","ios":"levelo://app?vid=4db3326b-ad93-4426-b504-4a9fbe93c12d"},"vehicle_type_id":"4","last_reported":1745414528,"current_range_meters":8800,"station_id":"ce4bhbp2rcd13ifvqerg","pricing_plan_id":"cebpf4jnsgd1na2vs0mg"},{"bike_id":"728b7169-2c34-494f-ac43-6fdd418034b4","system_id":"levelo_inurba_marseille","lat":43.23149,"lon":5.43722,"is_reserved":false,"is_disabled":false,"rental_uris":{"android":"levelo://app?vid=728b7169-2c34-494f-ac43-6fdd418034b4","ios":"levelo://app?vid=728b7169-2c34-494f-ac43-6fdd418034b4"},"vehicle_type_id":"4","last_reported":1745414528,"current_range_meters":9600,"station_id":"ce4bhmp2rcd13ifvqgog","pricing_plan_id":"cebpf4jnsgd1na2vs0mg"},{"bike_id":"cd88269b-dc00-4d47-8ca9-bf11958c0ed4","system_id":"levelo_inurba_marseille","lat":43.301941,"lon":5.375955,"is_reserved":false,"is_disabled":false,"rental_uris":{"android":"levelo://app?vid=cd88269b-dc00-4d47-8ca9-bf11958c0ed4","ios":"levelo://app?vid=cd88269b-dc00-4d47-8ca9-bf11958c0ed4"},"vehicle_type_id":"4","last_reported":1745414528,"current_range_meters":9600,"station_id":"ce4bguh2rcd13ifvqcj0","pricing_plan_id":"cebpf4jnsgd1na2vs0mg"},{"bike_id":"7e926ec5-c408-4924-8c16-56cb62772317","system_id":"levelo_inurba_marseille","lat":43.303009,"lon":5.368886,"is_reserved":false,"is_disabled":false,"rental_uris":{"android":"levelo://app?vid=7e926ec5-c408-4924-8c16-56cb62772317","ios":"levelo://app?vid=7e926ec5-c408-4924-8c16-56cb62772317"},"vehicle_type_id":"4","last_reported":1745414528,"current_range_meters":9600,"station_id":"ce4bgqh2rcd13ifvqc5g","pricing_plan_id":"cebpf4jnsgd1na2vs0mg"},{"bike_id":"5717a1c7-e151-4553-b844-e9fc249a74bf","system_id":"levelo_inurba_marseille","lat":43.284142,"lon":5.349853,"is_reserved":false,"is_disabled":false,"rental_uris":{"android":"levelo://app?vid=5717a1c7-e151-4553-b844-e9fc249a74bf","ios":"levelo://app?vid=5717a1c7-e151-4553-b844-e9fc249a74bf"},"vehicle_type_id":"4","last_reported":1745414528,"current_range_meters":9600,"station_id":"ce4bhbh2rcd13ifvqepg","pricing_plan_id":"cebpf4jnsgd1na2vs0mg"},{"bike_id":"13ad5c2c-618c-41e7-8952-8411e5eda18e","system_id":"levelo_inurba_marseille","lat":43.32367,"lon":5.38879,"is_reserved":false,"is_disabled":false,"rental_uris":{"android":"levelo://app?vid=13ad5c2c-618c-41e7-8952-8411e5eda18e","ios":"levelo://app?vid=13ad5c2c-618c-41e7-8952-8411e5eda18e"},"vehicle_type_id":"4","last_reported":1745414528,"current_range_meters":10000,"station_id":"ce4bhqp2rcd13ifvqhog","pricing_plan_id":"cebpf4jnsgd1na2vs0mg"},{"bike_id":"c612583d-79c0-480f-8d78-405c84662324","system_id":"levelo_inurba_marseille","lat":43.29783,"lon":5.38113,"is_reserved":false,"is_disabled":false,"rental_uris":{"android":"levelo://app?vid=c612583d-79c0-480f-8d78-405c84662324","ios":"levelo://app?vid=c612583d-79c0-480f-8d78-405c84662324"},"vehicle_type_id":"4","last_reported":1745414528,"current_range_meters":10000,"station_id":"ce4bgip2rcd13ifvqbb0","pricing_plan_id":"cebpf4jnsgd1na2vs0mg"},{"bike_id":"6e28cf8b-726c-43ba-b395-f10156fb8da8","system_id":"levelo_inurba_marseille","lat":43.26823,"lon":5.40252,"is_reserved":false,"is_disabled":false,"rental_uris":{"android":"levelo://app?vid=6e28cf8b-726c-43ba-b395-f10156fb8da8","ios":"levelo://app?vid=6e28cf8b-726c-43ba-b395-f10156fb8da8"},"vehicle_type_id":"4","last_reported":1745414528,"current_range_meters":10000,"station_id":"ce501612rcd8frsf0b60","pricing_plan_id":"cebpf4jnsgd1na2vs0mg"},{"bike_id":"0e07d52e-e643-4c2e-a9a0-f081afe4d305","system_id":"levelo_inurba_marseille","lat":43.23053,"lon":5.35497,"is_reserved":false,"is_disabled":false,"rental_uris":{"android":"levelo://app?vid=0e07d52e-e643-4c2e-a9a0-f081afe4d305","ios":"levelo://app?vid=0e07d52e-e643-4c2e-a9a0-f081afe4d305"},"vehicle_type_id":"4","last_reported":1745414528,"current_range_meters":10000,"station_id":"cpo3342slgdg3j2ifvpg","pricing_plan_id":"cebpf4jnsgd1na2vs0mg"},{"bike_id":"3b55a5af-93f9-48c1-ad92-456aac3d92d1","system_id":"levelo_inurba_marseille","lat":43.30929,"lon":5.40143,"is_reserved":false,"is_disabled":false,"rental_uris":{"android":"levelo://app?vid=3b55a5af-93f9-48c1-ad92-456aac3d92d1","ios":"levelo://app?vid=3b55a5af-93f9-48c1-ad92-456aac3d92d1"},"vehicle_type_id":"4","last_reported":1745414528,"current_range_meters":9600,"station_id":"ce4bgvp2rcd13ifvqct0","pricing_plan_id":"cebpf4jnsgd1na2vs0mg"},{"bike_id":"fbb6be43-75ac-4697-af84-df6581464ee0","system_id":"levelo_inurba_marseille","lat":43.23961,"lon":5.36629,"is_reserved":false,"is_disabled":false,"rental_uris":{"android":"levelo://app?vid=fbb6be43-75ac-4697-af84-df6581464ee0","ios":"levelo://app?vid=fbb6be43-75ac-4697-af84-df6581464ee0"},"vehicle_type_id":"4","last_reported":1745414528,"current_range_meters":10000,"station_id":"ce4bhi12rcd13ifvqfp0","pricing_plan_id":"cebpf4jnsgd1na2vs0mg"},{"bike_id":"24014da3-7171-4e95-9ce7-39dc2f8fd1f1","system_id":"levelo_inurba_marseille","lat":43.30909,"lon":5.368528,"is_reserved":false,"is_disabled":false,"rental_uris":{"android":"levelo://app?vid=24014da3-7171-4e95-9ce7-39dc2f8fd1f1","ios":"levelo://app?vid=24014da3-7171-4e95-9ce7-39dc2f8fd1f1"},"vehicle_type_id":"4","last_reported":1745414528,"current_range_meters":10000,"station_id":"ce4bgl92rcd13ifvqbq0","pricing_plan_id":"cebpf4jnsgd1na2vs0mg"},{"bike_id":"7dc565c6-a02b-4678-b275-f86feda9a42f","system_id":"levelo_inurba_marseille","lat":43.28719,"lon":5.37937,"is_reserved":false,"is_disabled":false,"rental_uris":{"android":"levelo://app?vid=7dc565c6-a02b-4678-b275-f86feda9a42f","ios":"levelo://app?vid=7dc565c6-a02b-4678-b275-f86feda9a42f"},"vehicle_type_id":"4","last_reported":1745414528,"current_range_meters":10000,"station_id":"ce4bh9p2rcd13ifvqec0","pricing_plan_id":"cebpf4jnsgd1na2vs0mg"},{"bike_id":"e31fd892-b912-4e04-90cd-2ca757b459d7","system_id":"levelo_inurba_marseille","lat":43.26804,"lon":5.40269,"is_reserved":false,"is_disabled":false,"rental_uris":{"android":"levelo://app?vid=e31fd892-b912-4e04-90cd-2ca757b459d7","ios":"levelo://app?vid=e31fd892-b912-4e04-90cd-2ca757b459d7"},"vehicle_type_id":"4","last_reported":1745414528,"current_range_meters":10000,"station_id":"ce501612rcd8frsf0b60","pricing_plan_id":"cebpf4jnsgd1na2vs0mg"},{"bike_id":"8eff781b-82f9-4f45-83f1-a4a0e41621d7","system_id":"levelo_inurba_marseille","lat":43.31686,"lon":5.40467,"is_reserved":false,"is_disabled":false,"rental_uris":{"android":"levelo://app?vid=8eff781b-82f9-4f45-83f1-a4a0e41621d7","ios":"levelo://app?vid=8eff781b-82f9-4f45-83f1-a4a0e41621d7"},"vehicle_type_id":"4","last_reported":1745414528,"current_range_meters":10800,"station_id":"ce4bh012rcd13ifvqd00","pricing_plan_id":"cebpf4jnsgd1na2vs0mg"},{"bike_id":"29557cd6-e30c-4193-97f9-eb19785da0d9","system_id":"levelo_inurba_marseille","lat":43.30886,"lon":5.36854,"is_reserved":false,"is_disabled":false,"rental_uris":{"android":"levelo://app?vid=29557cd6-e30c-4193-97f9-eb19785da0d9","ios":"levelo://app?vid=29557cd6-e30c-4193-97f9-eb19785da0d9"},"vehicle_type_id":"4","last_reported":1745414528,"current_range_meters":10800,"station_id":"ce4bgn92rcd13ifvqbvg","pricing_plan_id":"cebpf4jnsgd1na2vs0mg"},{"bike_id":"c4b9c2ef-e6f5-4962-8873-2f7a95c931c3","system_id":"levelo_inurba_marseille","lat":43.26508,"lon":5.39532,"is_reserved":false,"is_disabled":false,"rental_uris":{"android":"levelo://app?vid=c4b9c2ef-e6f5-4962-8873-2f7a95c931c3","ios":"levelo://app?vid=c4b9c2ef-e6f5-4962-8873-2f7a95c931c3"},"vehicle_type_id":"4","last_reported":1745414528,"current_range_meters":11200,"station_id":"ce4bhi12rcd13ifvqfq0","pricing_plan_id":"cebpf4jnsgd1na2vs0mg"},{"bike_id":"d89a07f2-fb66-4b2b-8a73-3672708ff0a6","system_id":"levelo_inurba_marseille","lat":43.21194,"lon":5.35069,"is_reserved":false,"is_disabled":false,"rental_uris":{"android":"levelo://app?vid=d89a07f2-fb66-4b2b-8a73-3672708ff0a6","ios":"levelo://app?vid=d89a07f2-fb66-4b2b-8a73-3672708ff0a6"},"vehicle_type_id":"4","last_reported":1745414528,"current_range_meters":11200,"station_id":"st_cvj6sg6p6f1abm77japg","pricing_plan_id":"cebpf4jnsgd1na2vs0mg"},{"bike_id":"0b4789b6-3993-450c-8c36-e3b517186d82","system_id":"levelo_inurba_marseille","lat":43.29581,"lon":5.36744,"is_reserved":false,"is_disabled":false,"rental_uris":{"android":"levelo://app?vid=0b4789b6-3993-450c-8c36-e3b517186d82","ios":"levelo://app?vid=0b4789b6-3993-450c-8c36-e3b517186d82"},"vehicle_type_id":"4","last_reported":1745414528,"current_range_meters":11200,"station_id":"ce4bgph2rcd13ifvqc2g","pricing_plan_id":"cebpf4jnsgd1na2vs0mg"},{"bike_id":"f31bee90-1c13-4189-9679-0326782d9854","system_id":"levelo_inurba_marseille","lat":43.31762,"lon":5.39019,"is_reserved":false,"is_disabled":false,"rental_uris":{"android":"levelo://app?vid=f31bee90-1c13-4189-9679-0326782d9854","ios":"levelo://app?vid=f31bee90-1c13-4189-9679-0326782d9854"},"vehicle_type_id":"4","last_reported":1745414528,"current_range_meters":11600,"station_id":"ce4bhqp2rcd13ifvqhng","pricing_plan_id":"cebpf4jnsgd1na2vs0mg"},{"bike_id":"5546f93c-c7eb-4a36-b1e9-022b7fc99074","system_id":"levelo_inurba_marseille","lat":43.23194,"lon":5.35555,"is_reserved":false,"is_disabled":false,"rental_uris":{"android":"levelo://app?vid=5546f93c-c7eb-4a36-b1e9-022b7fc99074","ios":"levelo://app?vid=5546f93c-c7eb-4a36-b1e9-022b7fc99074"},"vehicle_type_id":"4","last_reported":1745414528,"current_range_meters":11600,"station_id":"ce4bhu92rcd13ifvqi70","pricing_plan_id":"cebpf4jnsgd1na2vs0mg"},{"bike_id":"9c325fd4-f154-4a48-857e-569f4cc367f9","system_id":"levelo_inurba_marseille","lat":43.22932,"lon":5.35375,"is_reserved":false,"is_disabled":false,"rental_uris":{"android":"levelo://app?vid=9c325fd4-f154-4a48-857e-569f4cc367f9","ios":"levelo://app?vid=9c325fd4-f154-4a48-857e-569f4cc367f9"},"vehicle_type_id":"4","last_reported":1745414528,"current_range_meters":11600,"station_id":"cpo3532slgdg3j2ikp40","pricing_plan_id":"cebpf4jnsgd1na2vs0mg"},{"bike_id":"67131355-bc71-4d54-9739-c36701821609","system_id":"levelo_inurba_marseille","lat":43.24809,"lon":5.37456,"is_reserved":false,"is_disabled":false,"rental_uris":{"android":"levelo://app?vid=67131355-bc71-4d54-9739-c36701821609","ios":"levelo://app?vid=67131355-bc71-4d54-9739-c36701821609"},"vehicle_type_id":"4","last_reported":1745414528,"current_range_meters":11600,"station_id":"ce4bhgh2rcd13ifvqfb0","pricing_plan_id":"cebpf4jnsgd1na2vs0mg"},{"bike_id":"fe9a0b76-50b8-421c-bb48-9d67be0909ab","system_id":"levelo_inurba_marseille","lat":43.23155,"lon":5.43711,"is_reserved":false,"is_disabled":false,"rental_uris":{"android":"levelo://app?vid=fe9a0b76-50b8-421c-bb48-9d67be0909ab","ios":"levelo://app?vid=fe9a0b76-50b8-421c-bb48-9d67be0909ab"},"vehicle_type_id":"4","last_reported":1745414528,"current_range_meters":12000,"station_id":"ce4bhmp2rcd13ifvqgog","pricing_plan_id":"cebpf4jnsgd1na2vs0mg"},{"bike_id":"4f5ff3aa-905a-4fcb-a864-40bbe104c0a6","system_id":"levelo_inurba_marseille","lat":43.294128,"lon":5.386237,"is_reserved":false,"is_disabled":false,"rental_uris":{"android":"levelo://app?vid=4f5ff3aa-905a-4fcb-a864-40bbe104c0a6","ios":"levelo://app?vid=4f5ff3aa-905a-4fcb-a864-40bbe104c0a6"},"vehicle_type_id":"4","last_reported":1745414528,"current_range_meters":12000,"station_id":"ce4bgk12rcd13ifvqbi0","pricing_plan_id":"cebpf4jnsgd1na2vs0mg"},{"bike_id":"f36d089e-788c-4bd3-9198-e8cacf91e002","system_id":"levelo_inurba_marseille","lat":43.31224,"lon":5.36868,"is_reserved":false,"is_disabled":false,"rental_uris":{"android":"levelo://app?vid=f36d089e-788c-4bd3-9198-e8cacf91e002","ios":"levelo://app?vid=f36d089e-788c-4bd3-9198-e8cacf91e002"},"vehicle_type_id":"4","last_reported":1745414528,"current_range_meters":12000,"station_id":"ce4bgl92rcd13ifvqbq0","pricing_plan_id":"cebpf4jnsgd1na2vs0mg"},{"bike_id":"688caaf3-ab91-4e9e-b3ad-9be627bd4609","system_id":"levelo_inurba_marseille","lat":43.23157,"lon":5.43731,"is_reserved":false,"is_disabled":false,"rental_uris":{"android":"levelo://app?vid=688caaf3-ab91-4e9e-b3ad-9be627bd4609","ios":"levelo://app?vid=688caaf3-ab91-4e9e-b3ad-9be627bd4609"},"vehicle_type_id":"4","last_reported":1745414528,"current_range_meters":12000,"station_id":"ce4bhmp2rcd13ifvqgog","pricing_plan_id":"cebpf4jnsgd1na2vs0mg"},{"bike_id":"3e8f0127-96fd-4fdd-97f2-be6e836f9523","system_id":"levelo_inurba_marseille","lat":43.3028,"lon":5.37697,"is_reserved":false,"is_disabled":false,"rental_uris":{"android":"levelo://app?vid=3e8f0127-96fd-4fdd-97f2-be6e836f9523","ios":"levelo://app?vid=3e8f0127-96fd-4fdd-97f2-be6e836f9523"},"vehicle_type_id":"4","last_reported":1745414528,"current_range_meters":12000,"station_id":"ce4bguh2rcd13ifvqcj0","pricing_plan_id":"cebpf4jnsgd1na2vs0mg"},{"bike_id":"b96d48d5-fc65-423b-9a30-5d2c864e8939","system_id":"levelo_inurba_marseille","lat":43.22513,"lon":5.34776,"is_reserved":false,"is_disabled":false,"rental_uris":{"android":"levelo://app?vid=b96d48d5-fc65-423b-9a30-5d2c864e8939","ios":"levelo://app?vid=b96d48d5-fc65-423b-9a30-5d2c864e8939"},"vehicle_type_id":"4","last_reported":1745414528,"current_range_meters":12400,"station_id":"st_cvj5dfep6f1abm77gieg","pricing_plan_id":"cebpf4jnsgd1na2vs0mg"},{"bike_id":"bfc57060-bf96-4e1e-978c-0c15aaef2b8b","system_id":"levelo_inurba_marseille","lat":43.29893,"lon":5.43662,"is_reserved":false,"is_disabled":false,"rental_uris":{"android":"levelo://app?vid=bfc57060-bf96-4e1e-978c-0c15aaef2b8b","ios":"levelo://app?vid=bfc57060-bf96-4e1e-978c-0c15aaef2b8b"},"vehicle_type_id":"4","last_reported":1745414528,"current_range_meters":12400,"station_id":"ce4bhpp2rcd13ifvqhfg","pricing_plan_id":"cebpf4jnsgd1na2vs0mg"},{"bike_id":"abd226a8-d003-4133-b9d2-b7c952b7ead1","system_id":"levelo_inurba_marseille","lat":43.23058,"lon":5.35495,"is_reserved":false,"is_disabled":false,"rental_uris":{"android":"levelo://app?vid=abd226a8-d003-4133-b9d2-b7c952b7ead1","ios":"levelo://app?vid=abd226a8-d003-4133-b9d2-b7c952b7ead1"},"vehicle_type_id":"4","last_reported":1745414528,"current_range_meters":12400,"station_id":"cpo3342slgdg3j2ifvpg","pricing_plan_id":"cebpf4jnsgd1na2vs0mg"},{"bike_id":"5654bb20-d7f4-42f3-a804-9e5bdd351297","system_id":"levelo_inurba_marseille","lat":43.23956,"lon":5.36637,"is_reserved":false,"is_disabled":false,"rental_uris":{"android":"levelo://app?vid=5654bb20-d7f4-42f3-a804-9e5bdd351297","ios":"levelo://app?vid=5654bb20-d7f4-42f3-a804-9e5bdd351297"},"vehicle_type_id":"4","last_reported":1745414528,"current_range_meters":12400,"station_id":"ce4bhi12rcd13ifvqfp0","pricing_plan_id":"cebpf4jnsgd1na2vs0mg"},{"bike_id":"fc95c022-5d99-4883-976b-3e014c5a3389","system_id":"levelo_inurba_marseille","lat":43.23152,"lon":5.43709,"is_reserved":false,"is_disabled":false,"rental_uris":{"android":"levelo://app?vid=fc95c022-5d99-4883-976b-3e014c5a3389","ios":"levelo://app?vid=fc95c022-5d99-4883-976b-3e014c5a3389"},"vehicle_type_id":"4","last_reported":1745414528,"current_range_meters":12400,"station_id":"ce4bhmp2rcd13ifvqgog","pricing_plan_id":"cebpf4jnsgd1na2vs0mg"},{"bike_id":"1722a673-2297-42bc-8c04-e0ec249871b0","system_id":"levelo_inurba_marseille","lat":43.299329,"lon":5.365476,"is_reserved":false,"is_disabled":false,"rental_uris":{"android":"levelo://app?vid=1722a673-2297-42bc-8c04-e0ec249871b0","ios":"levelo://app?vid=1722a673-2297-42bc-8c04-e0ec249871b0"},"vehicle_type_id":"4","last_reported":1745414528,"current_range_meters":12800,"station_id":"ce4bgm92rcd13ifvqbr0","pricing_plan_id":"cebpf4jnsgd1na2vs0mg"},{"bike_id":"33c9de7b-1662-4e3f-8bf7-663bfd518365","system_id":"levelo_inurba_marseille","lat":43.27606,"lon":5.36104,"is_reserved":false,"is_disabled":false,"rental_uris":{"android":"levelo://app?vid=33c9de7b-1662-4e3f-8bf7-663bfd518365","ios":"levelo://app?vid=33c9de7b-1662-4e3f-8bf7-663bfd518365"},"vehicle_type_id":"4","last_reported":1745414528,"current_range_meters":12800,"station_id":"ce4bgj92rcd13ifvqbe0","pricing_plan_id":"cebpf4jnsgd1na2vs0mg"},{"bike_id":"20b64f8b-1950-4564-b4bb-569a5fb45614","system_id":"levelo_inurba_marseille","lat":43.29704,"lon":5.36608,"is_reserved":false,"is_disabled":false,"rental_uris":{"android":"levelo://app?vid=20b64f8b-1950-4564-b4bb-569a5fb45614","ios":"levelo://app?vid=20b64f8b-1950-4564-b4bb-569a5fb45614"},"vehicle_type_id":"4","last_reported":1745414528,"current_range_meters":13600,"station_id":"ce4bgn12rcd13ifvqbt0","pricing_plan_id":"cebpf4jnsgd1na2vs0mg"},{"bike_id":"ae2607c9-27d0-4814-bc50-d40a7c41d115","system_id":"levelo_inurba_marseille","lat":43.30177,"lon":5.39329,"is_reserved":false,"is_disabled":false,"rental_uris":{"android":"levelo://app?vid=ae2607c9-27d0-4814-bc50-d40a7c41d115","ios":"levelo://app?vid=ae2607c9-27d0-4814-bc50-d40a7c41d115"},"vehicle_type_id":"4","last_reported":1745414528,"current_range_meters":13600,"station_id":"","pricing_plan_id":"cebpf4jnsgd1na2vs0mg"},{"bike_id":"7cb34d25-e96f-4f5f-8ff1-e1b64b822ff2","system_id":"levelo_inurba_marseille","lat":43.28936,"lon":5.36637,"is_reserved":false,"is_disabled":false,"rental_uris":{"android":"levelo://app?vid=7cb34d25-e96f-4f5f-8ff1-e1b64b822ff2","ios":"levelo://app?vid=7cb34d25-e96f-4f5f-8ff1-e1b64b822ff2"},"vehicle_type_id":"4","last_reported":1745414528,"current_range_meters":13600,"station_id":"ce4bhap2rcd13ifvqek0","pricing_plan_id":"cebpf4jnsgd1na2vs0mg"},{"bike_id":"527ab9af-1602-4e3b-a3d5-77f5acec1ebf","system_id":"levelo_inurba_marseille","lat":43.261897,"lon":5.374497,"is_reserved":false,"is_disabled":true,"rental_uris":{"android":"levelo://app?vid=527ab9af-1602-4e3b-a3d5-77f5acec1ebf","ios":"levelo://app?vid=527ab9af-1602-4e3b-a3d5-77f5acec1ebf"},"vehicle_type_id":"4","last_reported":1745414528,"current_range_meters":13600,"station_id":"ce4bhgp2rcd13ifvqfc0","pricing_plan_id":"cebpf4jnsgd1na2vs0mg"},{"bike_id":"1b8b7145-49a7-4fe1-96a2-72a1d6e84a54","system_id":"levelo_inurba_marseille","lat":43.23063,"lon":5.35491,"is_reserved":false,"is_disabled":false,"rental_uris":{"android":"levelo://app?vid=1b8b7145-49a7-4fe1-96a2-72a1d6e84a54","ios":"levelo://app?vid=1b8b7145-49a7-4fe1-96a2-72a1d6e84a54"},"vehicle_type_id":"4","last_reported":1745414528,"current_range_meters":13600,"station_id":"cpo3342slgdg3j2ifvpg","pricing_plan_id":"cebpf4jnsgd1na2vs0mg"},{"bike_id":"abaa6daa-8872-413f-aaf2-4552681f904a","system_id":"levelo_inurba_marseille","lat":43.28465,"lon":5.35878,"is_reserved":false,"is_disabled":false,"rental_uris":{"android":"levelo://app?vid=abaa6daa-8872-413f-aaf2-4552681f904a","ios":"levelo://app?vid=abaa6daa-8872-413f-aaf2-4552681f904a"},"vehicle_type_id":"4","last_reported":1745414528,"current_range_meters":13600,"station_id":"ce4bhah2rcd13ifvqei0","pricing_plan_id":"cebpf4jnsgd1na2vs0mg"},{"bike_id":"5dd67636-aa5c-463b-af68-44192c9d1d20","system_id":"levelo_inurba_marseille","lat":43.25122,"lon":5.40307,"is_reserved":false,"is_disabled":false,"rental_uris":{"android":"levelo://app?vid=5dd67636-aa5c-463b-af68-44192c9d1d20","ios":"levelo://app?vid=5dd67636-aa5c-463b-af68-44192c9d1d20"},"vehicle_type_id":"4","last_reported":1745414528,"current_range_meters":14000,"station_id":"ce4bhlh2rcd13ifvqgig","pricing_plan_id":"cebpf4jnsgd1na2vs0mg"},{"bike_id":"461d8654-46de-407a-af94-fab41b64a6f1","system_id":"levelo_inurba_marseille","lat":43.31331,"lon":5.39685,"is_reserved":false,"is_disabled":false,"rental_uris":{"android":"levelo://app?vid=461d8654-46de-407a-af94-fab41b64a6f1","ios":"levelo://app?vid=461d8654-46de-407a-af94-fab41b64a6f1"},"vehicle_type_id":"4","last_reported":1745414528,"current_range_meters":13600,"station_id":"ce4bgvp2rcd13ifvqcu0","pricing_plan_id":"cebpf4jnsgd1na2vs0mg"},{"bike_id":"b54e56f2-49b2-48b7-8d85-2b4d6afc696d","system_id":"levelo_inurba_marseille","lat":43.33024,"lon":5.3904,"is_reserved":false,"is_disabled":false,"rental_uris":{"android":"levelo://app?vid=b54e56f2-49b2-48b7-8d85-2b4d6afc696d","ios":"levelo://app?vid=b54e56f2-49b2-48b7-8d85-2b4d6afc696d"},"vehicle_type_id":"4","last_reported":1745414528,"current_range_meters":14000,"station_id":"ce4bhr92rcd13ifvqhrg","pricing_plan_id":"cebpf4jnsgd1na2vs0mg"},{"bike_id":"466f3730-64cd-4e55-9334-38ced4d5f1cc","system_id":"levelo_inurba_marseille","lat":43.31524,"lon":5.38039,"is_reserved":false,"is_disabled":false,"rental_uris":{"android":"levelo://app?vid=466f3730-64cd-4e55-9334-38ced4d5f1cc","ios":"levelo://app?vid=466f3730-64cd-4e55-9334-38ced4d5f1cc"},"vehicle_type_id":"4","last_reported":1745414528,"current_range_meters":14000,"station_id":"ce4bhsp2rcd13ifvqi50","pricing_plan_id":"cebpf4jnsgd1na2vs0mg"},{"bike_id":"49896f12-7e31-46a1-9203-5455b6601e06","system_id":"levelo_inurba_marseille","lat":43.30532,"lon":5.36539,"is_reserved":false,"is_disabled":false,"rental_uris":{"android":"levelo://app?vid=49896f12-7e31-46a1-9203-5455b6601e06","ios":"levelo://app?vid=49896f12-7e31-46a1-9203-5455b6601e06"},"vehicle_type_id":"4","last_reported":1745414528,"current_range_meters":14000,"station_id":"ce4bgs12rcd13ifvqcag","pricing_plan_id":"cebpf4jnsgd1na2vs0mg"},{"bike_id":"4b21e6b5-e274-4f26-8a5e-476592c09084","system_id":"levelo_inurba_marseille","lat":43.279016,"lon":5.395638,"is_reserved":false,"is_disabled":false,"rental_uris":{"android":"levelo://app?vid=4b21e6b5-e274-4f26-8a5e-476592c09084","ios":"levelo://app?vid=4b21e6b5-e274-4f26-8a5e-476592c09084"},"vehicle_type_id":"4","last_reported":1745414528,"current_range_meters":14000,"station_id":"","pricing_plan_id":"cebpf4jnsgd1na2vs0mg"},{"bike_id":"daf442ce-5346-4d40-a0b5-203393fcc7ea","system_id":"levelo_inurba_marseille","lat":43.32679,"lon":5.40972,"is_reserved":false,"is_disabled":false,"rental_uris":{"android":"levelo://app?vid=daf442ce-5346-4d40-a0b5-203393fcc7ea","ios":"levelo://app?vid=daf442ce-5346-4d40-a0b5-203393fcc7ea"},"vehicle_type_id":"4","last_reported":1745414528,"current_range_meters":14000,"station_id":"ce4bhpp2rcd13ifvqhgg","pricing_plan_id":"cebpf4jnsgd1na2vs0mg"},{"bike_id":"0c9a3cd6-d327-4ae3-88fc-1919953dad73","system_id":"levelo_inurba_marseille","lat":43.31111,"lon":5.37762,"is_reserved":false,"is_disabled":false,"rental_uris":{"android":"levelo://app?vid=0c9a3cd6-d327-4ae3-88fc-1919953dad73","ios":"levelo://app?vid=0c9a3cd6-d327-4ae3-88fc-1919953dad73"},"vehicle_type_id":"4","last_reported":1745414528,"current_range_meters":14000,"station_id":"ce4bgt92rcd13ifvqcg0","pricing_plan_id":"cebpf4jnsgd1na2vs0mg"},{"bike_id":"1ad1e23b-8f81-4992-81ae-a30e2545079c","system_id":"levelo_inurba_marseille","lat":43.28662,"lon":5.36355,"is_reserved":false,"is_disabled":false,"rental_uris":{"android":"levelo://app?vid=1ad1e23b-8f81-4992-81ae-a30e2545079c","ios":"levelo://app?vid=1ad1e23b-8f81-4992-81ae-a30e2545079c"},"vehicle_type_id":"4","last_reported":1745414528,"current_range_meters":13600,"station_id":"ce4bhah2rcd13ifvqej0","pricing_plan_id":"cebpf4jnsgd1na2vs0mg"},{"bike_id":"5946b16d-5555-4609-80c2-5c8e33fd1689","system_id":"levelo_inurba_marseille","lat":43.30536,"lon":5.36542,"is_reserved":false,"is_disabled":false,"rental_uris":{"android":"levelo://app?vid=5946b16d-5555-4609-80c2-5c8e33fd1689","ios":"levelo://app?vid=5946b16d-5555-4609-80c2-5c8e33fd1689"},"vehicle_type_id":"4","last_reported":1745414528,"current_range_meters":14400,"station_id":"ce4bgs12rcd13ifvqcag","pricing_plan_id":"cebpf4jnsgd1na2vs0mg"},{"bike_id":"00b08297-35d6-4846-bf8a-bff6cabbfb8e","system_id":"levelo_inurba_marseille","lat":43.23197,"lon":5.35548,"is_reserved":false,"is_disabled":false,"rental_uris":{"android":"levelo://app?vid=00b08297-35d6-4846-bf8a-bff6cabbfb8e","ios":"levelo://app?vid=00b08297-35d6-4846-bf8a-bff6cabbfb8e"},"vehicle_type_id":"4","last_reported":1745414528,"current_range_meters":14400,"station_id":"ce4bhu92rcd13ifvqi70","pricing_plan_id":"cebpf4jnsgd1na2vs0mg"},{"bike_id":"4b8921bc-5aaf-4418-89cf-4d61eddbd7dc","system_id":"levelo_inurba_marseille","lat":43.29594,"lon":5.36728,"is_reserved":false,"is_disabled":false,"rental_uris":{"android":"levelo://app?vid=4b8921bc-5aaf-4418-89cf-4d61eddbd7dc","ios":"levelo://app?vid=4b8921bc-5aaf-4418-89cf-4d61eddbd7dc"},"vehicle_type_id":"4","last_reported":1745414528,"current_range_meters":14400,"station_id":"ce4bgph2rcd13ifvqc2g","pricing_plan_id":"cebpf4jnsgd1na2vs0mg"},{"bike_id":"3f5bb908-8ac8-4fb2-a093-6b929f9ca79a","system_id":"levelo_inurba_marseille","lat":43.27372,"lon":5.36251,"is_reserved":false,"is_disabled":false,"rental_uris":{"android":"levelo://app?vid=3f5bb908-8ac8-4fb2-a093-6b929f9ca79a","ios":"levelo://app?vid=3f5bb908-8ac8-4fb2-a093-6b929f9ca79a"},"vehicle_type_id":"4","last_reported":1745414528,"current_range_meters":14400,"station_id":"ce4bhbh2rcd13ifvqeo0","pricing_plan_id":"cebpf4jnsgd1na2vs0mg"},{"bike_id":"ac9bebdb-d4a6-4b09-8175-bbc5cbbebca7","system_id":"levelo_inurba_marseille","lat":43.24778,"lon":5.37509,"is_reserved":false,"is_disabled":false,"rental_uris":{"android":"levelo://app?vid=ac9bebdb-d4a6-4b09-8175-bbc5cbbebca7","ios":"levelo://app?vid=ac9bebdb-d4a6-4b09-8175-bbc5cbbebca7"},"vehicle_type_id":"4","last_reported":1745414528,"current_range_meters":14800,"station_id":"ce4bhgh2rcd13ifvqfb0","pricing_plan_id":"cebpf4jnsgd1na2vs0mg"},{"bike_id":"56084b60-24d1-4e5c-bd86-337f80ab07eb","system_id":"levelo_inurba_marseille","lat":43.312715,"lon":5.401715,"is_reserved":false,"is_disabled":false,"rental_uris":{"android":"levelo://app?vid=56084b60-24d1-4e5c-bd86-337f80ab07eb","ios":"levelo://app?vid=56084b60-24d1-4e5c-bd86-337f80ab07eb"},"vehicle_type_id":"4","last_reported":1745414528,"current_range_meters":14800,"station_id":"ce4bh092rcd13ifvqd30","pricing_plan_id":"cebpf4jnsgd1na2vs0mg"},{"bike_id":"89226a86-c982-4201-b83d-9e83c7ead383","system_id":"levelo_inurba_marseille","lat":43.22932,"lon":5.35381,"is_reserved":false,"is_disabled":false,"rental_uris":{"android":"levelo://app?vid=89226a86-c982-4201-b83d-9e83c7ead383","ios":"levelo://app?vid=89226a86-c982-4201-b83d-9e83c7ead383"},"vehicle_type_id":"4","last_reported":1745414528,"current_range_meters":14800,"station_id":"cpo3532slgdg3j2ikp40","pricing_plan_id":"cebpf4jnsgd1na2vs0mg"},{"bike_id":"fa31d54b-2fe8-48fa-8dab-9813c0813675","system_id":"levelo_inurba_marseille","lat":43.284587,"lon":5.358917,"is_reserved":false,"is_disabled":false,"rental_uris":{"android":"levelo://app?vid=fa31d54b-2fe8-48fa-8dab-9813c0813675","ios":"levelo://app?vid=fa31d54b-2fe8-48fa-8dab-9813c0813675"},"vehicle_type_id":"4","last_reported":1745414528,"current_range_meters":15200,"station_id":"ce4bhih2rcd13ifvqfs0","pricing_plan_id":"cebpf4jnsgd1na2vs0mg"},{"bike_id":"b1af7e52-6ec0-43e9-af01-779db8633278","system_id":"levelo_inurba_marseille","lat":43.30427,"lon":5.39756,"is_reserved":false,"is_disabled":false,"rental_uris":{"android":"levelo://app?vid=b1af7e52-6ec0-43e9-af01-779db8633278","ios":"levelo://app?vid=b1af7e52-6ec0-43e9-af01-779db8633278"},"vehicle_type_id":"4","last_reported":1745414528,"current_range_meters":15200,"station_id":"ce4bh092rcd13ifvqd20","pricing_plan_id":"cebpf4jnsgd1na2vs0mg"},{"bike_id":"30c340c6-de1e-44fb-87e2-bedb1b45c782","system_id":"levelo_inurba_marseille","lat":43.284,"lon":5.34988,"is_reserved":false,"is_disabled":false,"rental_uris":{"android":"levelo://app?vid=30c340c6-de1e-44fb-87e2-bedb1b45c782","ios":"levelo://app?vid=30c340c6-de1e-44fb-87e2-bedb1b45c782"},"vehicle_type_id":"4","last_reported":1745414528,"current_range_meters":15200,"station_id":"ce4bhbh2rcd13ifvqepg","pricing_plan_id":"cebpf4jnsgd1na2vs0mg"},{"bike_id":"ece84852-7d2a-4875-8929-79898d06e002","system_id":"levelo_inurba_marseille","lat":43.247863,"lon":5.374704,"is_reserved":false,"is_disabled":false,"rental_uris":{"android":"levelo://app?vid=ece84852-7d2a-4875-8929-79898d06e002","ios":"levelo://app?vid=ece84852-7d2a-4875-8929-79898d06e002"},"vehicle_type_id":"4","last_reported":1745414528,"current_range_meters":15200,"station_id":"","pricing_plan_id":"cebpf4jnsgd1na2vs0mg"},{"bike_id":"420cd487-7b31-4070-8f2c-8e18d41c5e97","system_id":"levelo_inurba_marseille","lat":43.29281,"lon":5.36842,"is_reserved":false,"is_disabled":false,"rental_uris":{"android":"levelo://app?vid=420cd487-7b31-4070-8f2c-8e18d41c5e97","ios":"levelo://app?vid=420cd487-7b31-4070-8f2c-8e18d41c5e97"},"vehicle_type_id":"4","last_reported":1745414528,"current_range_meters":16000,"station_id":"ce4bhbp2rcd13ifvqesg","pricing_plan_id":"cebpf4jnsgd1na2vs0mg"},{"bike_id":"b217c7a4-92b6-4872-91fa-f2c2827250cc","system_id":"levelo_inurba_marseille","lat":43.2884,"lon":5.39215,"is_reserved":false,"is_disabled":false,"rental_uris":{"android":"levelo://app?vid=b217c7a4-92b6-4872-91fa-f2c2827250cc","ios":"levelo://app?vid=b217c7a4-92b6-4872-91fa-f2c2827250cc"},"vehicle_type_id":"4","last_reported":1745414528,"current_range_meters":16000,"station_id":"","pricing_plan_id":"cebpf4jnsgd1na2vs0mg"},{"bike_id":"2b30d130-759e-4ac9-b3b9-9d751eb27ae4","system_id":"levelo_inurba_marseille","lat":43.28406,"lon":5.37511,"is_reserved":false,"is_disabled":false,"rental_uris":{"android":"levelo://app?vid=2b30d130-759e-4ac9-b3b9-9d751eb27ae4","ios":"levelo://app?vid=2b30d130-759e-4ac9-b3b9-9d751eb27ae4"},"vehicle_type_id":"4","last_reported":1745414528,"current_range_meters":16400,"station_id":"ce4bh412rcd13ifvqds0","pricing_plan_id":"cebpf4jnsgd1na2vs0mg"},{"bike_id":"46374c49-3adc-4c5a-8966-e00f056c0d57","system_id":"levelo_inurba_marseille","lat":43.27846,"lon":5.35442,"is_reserved":false,"is_disabled":false,"rental_uris":{"android":"levelo://app?vid=46374c49-3adc-4c5a-8966-e00f056c0d57","ios":"levelo://app?vid=46374c49-3adc-4c5a-8966-e00f056c0d57"},"vehicle_type_id":"4","last_reported":1745414528,"current_range_meters":16400,"station_id":"","pricing_plan_id":"cebpf4jnsgd1na2vs0mg"},{"bike_id":"eafa6517-0b4d-4a14-a822-f8174fc93b3a","system_id":"levelo_inurba_marseille","lat":43.23968,"lon":5.36636,"is_reserved":false,"is_disabled":false,"rental_uris":{"android":"levelo://app?vid=eafa6517-0b4d-4a14-a822-f8174fc93b3a","ios":"levelo://app?vid=eafa6517-0b4d-4a14-a822-f8174fc93b3a"},"vehicle_type_id":"4","last_reported":1745414528,"current_range_meters":16000,"station_id":"ce4bhi12rcd13ifvqfp0","pricing_plan_id":"cebpf4jnsgd1na2vs0mg"},{"bike_id":"162104c9-c9c3-41e8-9022-0f16a6a968c6","system_id":"levelo_inurba_marseille","lat":43.330234,"lon":5.390449,"is_reserved":false,"is_disabled":false,"rental_uris":{"android":"levelo://app?vid=162104c9-c9c3-41e8-9022-0f16a6a968c6","ios":"levelo://app?vid=162104c9-c9c3-41e8-9022-0f16a6a968c6"},"vehicle_type_id":"4","last_reported":1745414528,"current_range_meters":16400,"station_id":"ce4bhr92rcd13ifvqhrg","pricing_plan_id":"cebpf4jnsgd1na2vs0mg"},{"bike_id":"fd8b3483-7f76-42e6-9541-116ca2066432","system_id":"levelo_inurba_marseille","lat":43.246492,"lon":5.388905,"is_reserved":false,"is_disabled":false,"rental_uris":{"android":"levelo://app?vid=fd8b3483-7f76-42e6-9541-116ca2066432","ios":"levelo://app?vid=fd8b3483-7f76-42e6-9541-116ca2066432"},"vehicle_type_id":"4","last_reported":1745414528,"current_range_meters":16400,"station_id":"ce4bhg12rcd13ifvqf60","pricing_plan_id":"cebpf4jnsgd1na2vs0mg"},{"bike_id":"c471d610-d809-4288-b9dc-d0a99bd8759d","system_id":"levelo_inurba_marseille","lat":43.27376,"lon":5.36253,"is_reserved":false,"is_disabled":false,"rental_uris":{"android":"levelo://app?vid=c471d610-d809-4288-b9dc-d0a99bd8759d","ios":"levelo://app?vid=c471d610-d809-4288-b9dc-d0a99bd8759d"},"vehicle_type_id":"4","last_reported":1745414528,"current_range_meters":16400,"station_id":"ce4bhbh2rcd13ifvqeo0","pricing_plan_id":"cebpf4jnsgd1na2vs0mg"},{"bike_id":"6d34b760-7502-4afd-8b23-00905c9e42f2","system_id":"levelo_inurba_marseille","lat":43.30535,"lon":5.36553,"is_reserved":false,"is_disabled":false,"rental_uris":{"android":"levelo://app?vid=6d34b760-7502-4afd-8b23-00905c9e42f2","ios":"levelo://app?vid=6d34b760-7502-4afd-8b23-00905c9e42f2"},"vehicle_type_id":"4","last_reported":1745414528,"current_range_meters":16400,"station_id":"ce4bgs12rcd13ifvqcag","pricing_plan_id":"cebpf4jnsgd1na2vs0mg"},{"bike_id":"3dbe1ed4-c340-42b0-845c-64c3e0baf4ca","system_id":"levelo_inurba_marseille","lat":43.29569,"lon":5.39964,"is_reserved":false,"is_disabled":false,"rental_uris":{"android":"levelo://app?vid=3dbe1ed4-c340-42b0-845c-64c3e0baf4ca","ios":"levelo://app?vid=3dbe1ed4-c340-42b0-845c-64c3e0baf4ca"},"vehicle_type_id":"4","last_reported":1745414528,"current_range_meters":16400,"station_id":"ce4bh312rcd13ifvqdj0","pricing_plan_id":"cebpf4jnsgd1na2vs0mg"},{"bike_id":"942fdf67-43fb-4ecb-97b6-c17a936b36ef","system_id":"levelo_inurba_marseille","lat":43.284573,"lon":5.358834,"is_reserved":false,"is_disabled":false,"rental_uris":{"android":"levelo://app?vid=942fdf67-43fb-4ecb-97b6-c17a936b36ef","ios":"levelo://app?vid=942fdf67-43fb-4ecb-97b6-c17a936b36ef"},"vehicle_type_id":"4","last_reported":1745414528,"current_range_meters":16400,"station_id":"ce4bhah2rcd13ifvqei0","pricing_plan_id":"cebpf4jnsgd1na2vs0mg"},{"bike_id":"9e1e9c99-2fa4-4b9c-bf93-33a66bb3a9c7","system_id":"levelo_inurba_marseille","lat":43.2736,"lon":5.3625,"is_reserved":false,"is_disabled":false,"rental_uris":{"android":"levelo://app?vid=9e1e9c99-2fa4-4b9c-bf93-33a66bb3a9c7","ios":"levelo://app?vid=9e1e9c99-2fa4-4b9c-bf93-33a66bb3a9c7"},"vehicle_type_id":"4","last_reported":1745414528,"current_range_meters":16000,"station_id":"ce4bhbh2rcd13ifvqeo0","pricing_plan_id":"cebpf4jnsgd1na2vs0mg"},{"bike_id":"9ec49457-910a-4a25-9cd0-b82d5625cff5","system_id":"levelo_inurba_marseille","lat":43.2315,"lon":5.43717,"is_reserved":false,"is_disabled":false,"rental_uris":{"android":"levelo://app?vid=9ec49457-910a-4a25-9cd0-b82d5625cff5","ios":"levelo://app?vid=9ec49457-910a-4a25-9cd0-b82d5625cff5"},"vehicle_type_id":"4","last_reported":1745414528,"current_range_meters":16400,"station_id":"ce4bhmp2rcd13ifvqgog","pricing_plan_id":"cebpf4jnsgd1na2vs0mg"},{"bike_id":"bceb8cba-0252-464f-a7c9-f9b4548f7a27","system_id":"levelo_inurba_marseille","lat":43.280682,"lon":5.396445,"is_reserved":false,"is_disabled":true,"rental_uris":{"android":"levelo://app?vid=bceb8cba-0252-464f-a7c9-f9b4548f7a27","ios":"levelo://app?vid=bceb8cba-0252-464f-a7c9-f9b4548f7a27"},"vehicle_type_id":"4","last_reported":1745414528,"current_range_meters":16400,"station_id":"ce4bho12rcd13ifvqh2g","pricing_plan_id":"cebpf4jnsgd1na2vs0mg"},{"bike_id":"fa062a87-826a-466f-a99d-3e3cf98e9d93","system_id":"levelo_inurba_marseille","lat":43.282745,"lon":5.350659,"is_reserved":false,"is_disabled":false,"rental_uris":{"android":"levelo://app?vid=fa062a87-826a-466f-a99d-3e3cf98e9d93","ios":"levelo://app?vid=fa062a87-826a-466f-a99d-3e3cf98e9d93"},"vehicle_type_id":"4","last_reported":1745414528,"current_range_meters":16400,"station_id":"ce4bhbp2rcd13ifvqerg","pricing_plan_id":"cebpf4jnsgd1na2vs0mg"},{"bike_id":"7cb503d8-a3ee-4291-8d4b-648ba2f1137c","system_id":"levelo_inurba_marseille","lat":43.2417,"lon":5.36399,"is_reserved":false,"is_disabled":false,"rental_uris":{"android":"levelo://app?vid=7cb503d8-a3ee-4291-8d4b-648ba2f1137c","ios":"levelo://app?vid=7cb503d8-a3ee-4291-8d4b-648ba2f1137c"},"vehicle_type_id":"4","last_reported":1745414528,"current_range_meters":16400,"station_id":"cpo36qri1sfpv3e86is0","pricing_plan_id":"cebpf4jnsgd1na2vs0mg"},{"bike_id":"977c3b2a-5c94-4b68-b726-c1ea4f56ac66","system_id":"levelo_inurba_marseille","lat":43.28611,"lon":5.37061,"is_reserved":false,"is_disabled":false,"rental_uris":{"android":"levelo://app?vid=977c3b2a-5c94-4b68-b726-c1ea4f56ac66","ios":"levelo://app?vid=977c3b2a-5c94-4b68-b726-c1ea4f56ac66"},"vehicle_type_id":"4","last_reported":1745414528,"current_range_meters":16800,"station_id":"ce4bht12rcd13ifvqi60","pricing_plan_id":"cebpf4jnsgd1na2vs0mg"},{"bike_id":"e74b7f13-f590-45e0-b15c-6eb5e48a77a9","system_id":"levelo_inurba_marseille","lat":43.28273,"lon":5.35076,"is_reserved":false,"is_disabled":false,"rental_uris":{"android":"levelo://app?vid=e74b7f13-f590-45e0-b15c-6eb5e48a77a9","ios":"levelo://app?vid=e74b7f13-f590-45e0-b15c-6eb5e48a77a9"},"vehicle_type_id":"4","last_reported":1745414528,"current_range_meters":17200,"station_id":"ce4bhbp2rcd13ifvqerg","pricing_plan_id":"cebpf4jnsgd1na2vs0mg"},{"bike_id":"9966e2c4-c438-4020-9570-af75c54f7699","system_id":"levelo_inurba_marseille","lat":43.2512,"lon":5.40307,"is_reserved":false,"is_disabled":false,"rental_uris":{"android":"levelo://app?vid=9966e2c4-c438-4020-9570-af75c54f7699","ios":"levelo://app?vid=9966e2c4-c438-4020-9570-af75c54f7699"},"vehicle_type_id":"4","last_reported":1745414528,"current_range_meters":17200,"station_id":"ce4bhlh2rcd13ifvqgig","pricing_plan_id":"cebpf4jnsgd1na2vs0mg"},{"bike_id":"29c27f6c-b172-4d99-add3-c74bdfc6be20","system_id":"levelo_inurba_marseille","lat":43.33023,"lon":5.39055,"is_reserved":false,"is_disabled":false,"rental_uris":{"android":"levelo://app?vid=29c27f6c-b172-4d99-add3-c74bdfc6be20","ios":"levelo://app?vid=29c27f6c-b172-4d99-add3-c74bdfc6be20"},"vehicle_type_id":"4","last_reported":1745414528,"current_range_meters":17600,"station_id":"ce4bhr92rcd13ifvqhrg","pricing_plan_id":"cebpf4jnsgd1na2vs0mg"},{"bike_id":"548a676c-6329-4f1b-a15f-51e09f419043","system_id":"levelo_inurba_marseille","lat":43.26941,"lon":5.38643,"is_reserved":false,"is_disabled":true,"rental_uris":{"android":"levelo://app?vid=548a676c-6329-4f1b-a15f-51e09f419043","ios":"levelo://app?vid=548a676c-6329-4f1b-a15f-51e09f419043"},"vehicle_type_id":"4","last_reported":1745414528,"current_range_meters":17600,"station_id":"ce4bhh92rcd13ifvqfh0","pricing_plan_id":"cebpf4jnsgd1na2vs0mg"},{"bike_id":"8d89104a-29c7-425d-bda9-af966dc2c6e6","system_id":"levelo_inurba_marseille","lat":43.24383,"lon":5.37059,"is_reserved":false,"is_disabled":false,"rental_uris":{"android":"levelo://app?vid=8d89104a-29c7-425d-bda9-af966dc2c6e6","ios":"levelo://app?vid=8d89104a-29c7-425d-bda9-af966dc2c6e6"},"vehicle_type_id":"4","last_reported":1745414528,"current_range_meters":17600,"station_id":"ce4bhhh2rcd13ifvqfk0","pricing_plan_id":"cebpf4jnsgd1na2vs0mg"},{"bike_id":"e8290a71-5fc2-4878-937c-06d62c378985","system_id":"levelo_inurba_marseille","lat":43.28729,"lon":5.37929,"is_reserved":false,"is_disabled":false,"rental_uris":{"android":"levelo://app?vid=e8290a71-5fc2-4878-937c-06d62c378985","ios":"levelo://app?vid=e8290a71-5fc2-4878-937c-06d62c378985"},"vehicle_type_id":"4","last_reported":1745414528,"current_range_meters":17200,"station_id":"ce4bh9p2rcd13ifvqec0","pricing_plan_id":"cebpf4jnsgd1na2vs0mg"},{"bike_id":"7489a429-3def-4314-b2fd-69eb5685941d","system_id":"levelo_inurba_marseille","lat":43.29866,"lon":5.36859,"is_reserved":false,"is_disabled":false,"rental_uris":{"android":"levelo://app?vid=7489a429-3def-4314-b2fd-69eb5685941d","ios":"levelo://app?vid=7489a429-3def-4314-b2fd-69eb5685941d"},"vehicle_type_id":"4","last_reported":1745414528,"current_range_meters":17600,"station_id":"","pricing_plan_id":"cebpf4jnsgd1na2vs0mg"},{"bike_id":"431f8e0d-2b86-4422-8cda-97ec47af7bcd","system_id":"levelo_inurba_marseille","lat":43.26204,"lon":5.40432,"is_reserved":false,"is_disabled":false,"rental_uris":{"android":"levelo://app?vid=431f8e0d-2b86-4422-8cda-97ec47af7bcd","ios":"levelo://app?vid=431f8e0d-2b86-4422-8cda-97ec47af7bcd"},"vehicle_type_id":"4","last_reported":1745414528,"current_range_meters":17600,"station_id":"ce4bhmh2rcd13ifvqgmg","pricing_plan_id":"cebpf4jnsgd1na2vs0mg"},{"bike_id":"0ea362ce-4354-4f0f-acc7-962b146816c7","system_id":"levelo_inurba_marseille","lat":43.25861,"lon":5.39915,"is_reserved":false,"is_disabled":true,"rental_uris":{"android":"levelo://app?vid=0ea362ce-4354-4f0f-acc7-962b146816c7","ios":"levelo://app?vid=0ea362ce-4354-4f0f-acc7-962b146816c7"},"vehicle_type_id":"4","last_reported":1745414528,"current_range_meters":18000,"station_id":"ce4bhl92rcd13ifvqghg","pricing_plan_id":"cebpf4jnsgd1na2vs0mg"},{"bike_id":"9f03d585-943b-4327-9128-af3ed4edb7b5","system_id":"levelo_inurba_marseille","lat":43.25943,"lon":5.40891,"is_reserved":false,"is_disabled":false,"rental_uris":{"android":"levelo://app?vid=9f03d585-943b-4327-9128-af3ed4edb7b5","ios":"levelo://app?vid=9f03d585-943b-4327-9128-af3ed4edb7b5"},"vehicle_type_id":"4","last_reported":1745414528,"current_range_meters":18000,"station_id":"ce4bhm92rcd13ifvqglg","pricing_plan_id":"cebpf4jnsgd1na2vs0mg"},{"bike_id":"7131e30f-ff3c-4429-a0ba-c922b217fc81","system_id":"levelo_inurba_marseille","lat":43.25582,"lon":5.3823,"is_reserved":false,"is_disabled":false,"rental_uris":{"android":"levelo://app?vid=7131e30f-ff3c-4429-a0ba-c922b217fc81","ios":"levelo://app?vid=7131e30f-ff3c-4429-a0ba-c922b217fc81"},"vehicle_type_id":"4","last_reported":1745414528,"current_range_meters":18000,"station_id":"ce4bhih2rcd13ifvqfs0","pricing_plan_id":"cebpf4jnsgd1na2vs0mg"},{"bike_id":"ee354981-1331-4223-a45e-4b1b7261b1e3","system_id":"levelo_inurba_marseille","lat":43.334357,"lon":5.400261,"is_reserved":false,"is_disabled":false,"rental_uris":{"android":"levelo://app?vid=ee354981-1331-4223-a45e-4b1b7261b1e3","ios":"levelo://app?vid=ee354981-1331-4223-a45e-4b1b7261b1e3"},"vehicle_type_id":"4","last_reported":1745414528,"current_range_meters":18000,"station_id":"","pricing_plan_id":"cebpf4jnsgd1na2vs0mg"},{"bike_id":"19fb865d-ce06-464b-9592-afad0037a8f4","system_id":"levelo_inurba_marseille","lat":43.30538,"lon":5.36559,"is_reserved":false,"is_disabled":false,"rental_uris":{"android":"levelo://app?vid=19fb865d-ce06-464b-9592-afad0037a8f4","ios":"levelo://app?vid=19fb865d-ce06-464b-9592-afad0037a8f4"},"vehicle_type_id":"4","last_reported":1745414528,"current_range_meters":18000,"station_id":"ce4bgs12rcd13ifvqcag","pricing_plan_id":"cebpf4jnsgd1na2vs0mg"},{"bike_id":"c542efc1-9241-49ad-a82c-6a2030fa9fc1","system_id":"levelo_inurba_marseille","lat":43.2737,"lon":5.36253,"is_reserved":false,"is_disabled":false,"rental_uris":{"android":"levelo://app?vid=c542efc1-9241-49ad-a82c-6a2030fa9fc1","ios":"levelo://app?vid=c542efc1-9241-49ad-a82c-6a2030fa9fc1"},"vehicle_type_id":"4","last_reported":1745414528,"current_range_meters":18000,"station_id":"ce4bhbh2rcd13ifvqeo0","pricing_plan_id":"cebpf4jnsgd1na2vs0mg"},{"bike_id":"c7b90bf3-baf1-4b35-b182-f85c92c205a4","system_id":"levelo_inurba_marseille","lat":43.28429,"lon":5.34996,"is_reserved":false,"is_disabled":false,"rental_uris":{"android":"levelo://app?vid=c7b90bf3-baf1-4b35-b182-f85c92c205a4","ios":"levelo://app?vid=c7b90bf3-baf1-4b35-b182-f85c92c205a4"},"vehicle_type_id":"4","last_reported":1745414528,"current_range_meters":18000,"station_id":"ce4bhbh2rcd13ifvqepg","pricing_plan_id":"cebpf4jnsgd1na2vs0mg"},{"bike_id":"ad435124-c9e7-428b-b34f-4515a72c402c","system_id":"levelo_inurba_marseille","lat":43.27369,"lon":5.36245,"is_reserved":false,"is_disabled":false,"rental_uris":{"android":"levelo://app?vid=ad435124-c9e7-428b-b34f-4515a72c402c","ios":"levelo://app?vid=ad435124-c9e7-428b-b34f-4515a72c402c"},"vehicle_type_id":"4","last_reported":1745414528,"current_range_meters":17600,"station_id":"ce4bhbh2rcd13ifvqeo0","pricing_plan_id":"cebpf4jnsgd1na2vs0mg"},{"bike_id":"42d3c5b5-1f93-4263-b5d2-2a48737e812c","system_id":"levelo_inurba_marseille","lat":43.29059,"lon":5.37785,"is_reserved":false,"is_disabled":false,"rental_uris":{"android":"levelo://app?vid=42d3c5b5-1f93-4263-b5d2-2a48737e812c","ios":"levelo://app?vid=42d3c5b5-1f93-4263-b5d2-2a48737e812c"},"vehicle_type_id":"4","last_reported":1745414528,"current_range_meters":19200,"station_id":"","pricing_plan_id":"cebpf4jnsgd1na2vs0mg"},{"bike_id":"76795801-15e6-4272-80f9-f24296731352","system_id":"levelo_inurba_marseille","lat":43.25008,"lon":5.38917,"is_reserved":false,"is_disabled":false,"rental_uris":{"android":"levelo://app?vid=76795801-15e6-4272-80f9-f24296731352","ios":"levelo://app?vid=76795801-15e6-4272-80f9-f24296731352"},"vehicle_type_id":"4","last_reported":1745414528,"current_range_meters":18800,"station_id":"ce4bhgp2rcd13ifvqfd0","pricing_plan_id":"cebpf4jnsgd1na2vs0mg"},{"bike_id":"94201ef7-9954-4e84-be72-e2fae875cbe9","system_id":"levelo_inurba_marseille","lat":43.282715,"lon":5.350798,"is_reserved":false,"is_disabled":false,"rental_uris":{"android":"levelo://app?vid=94201ef7-9954-4e84-be72-e2fae875cbe9","ios":"levelo://app?vid=94201ef7-9954-4e84-be72-e2fae875cbe9"},"vehicle_type_id":"4","last_reported":1745414528,"current_range_meters":18800,"station_id":"ce4bh5p2rcd13ifvqe4g","pricing_plan_id":"cebpf4jnsgd1na2vs0mg"},{"bike_id":"5914bf9c-0d58-4f9a-bf72-6f9e529b13d7","system_id":"levelo_inurba_marseille","lat":43.32373,"lon":5.38867,"is_reserved":false,"is_disabled":false,"rental_uris":{"android":"levelo://app?vid=5914bf9c-0d58-4f9a-bf72-6f9e529b13d7","ios":"levelo://app?vid=5914bf9c-0d58-4f9a-bf72-6f9e529b13d7"},"vehicle_type_id":"4","last_reported":1745414528,"current_range_meters":18800,"station_id":"ce4bhqp2rcd13ifvqhog","pricing_plan_id":"cebpf4jnsgd1na2vs0mg"},{"bike_id":"21c928b7-904a-4783-adf0-35f50edc7787","system_id":"levelo_inurba_marseille","lat":43.29278,"lon":5.40109,"is_reserved":false,"is_disabled":false,"rental_uris":{"android":"levelo://app?vid=21c928b7-904a-4783-adf0-35f50edc7787","ios":"levelo://app?vid=21c928b7-904a-4783-adf0-35f50edc7787"},"vehicle_type_id":"4","last_reported":1745414528,"current_range_meters":18800,"station_id":"ce4bh312rcd13ifvqdk0","pricing_plan_id":"cebpf4jnsgd1na2vs0mg"},{"bike_id":"fa8a552a-d2d3-4e8d-8d8e-02bdba037836","system_id":"levelo_inurba_marseille","lat":43.337444,"lon":5.374475,"is_reserved":false,"is_disabled":false,"rental_uris":{"android":"levelo://app?vid=fa8a552a-d2d3-4e8d-8d8e-02bdba037836","ios":"levelo://app?vid=fa8a552a-d2d3-4e8d-8d8e-02bdba037836"},"vehicle_type_id":"4","last_reported":1745414528,"current_range_meters":18800,"station_id":"","pricing_plan_id":"cebpf4jnsgd1na2vs0mg"},{"bike_id":"2eaf8beb-1cac-47a8-96ab-693b8610591d","system_id":"levelo_inurba_marseille","lat":43.241698,"lon":5.397273,"is_reserved":false,"is_disabled":false,"rental_uris":{"android":"levelo://app?vid=2eaf8beb-1cac-47a8-96ab-693b8610591d","ios":"levelo://app?vid=2eaf8beb-1cac-47a8-96ab-693b8610591d"},"vehicle_type_id":"4","last_reported":1745414528,"current_range_meters":19200,"station_id":"ce4bhn12rcd13ifvqgpg","pricing_plan_id":"cebpf4jnsgd1na2vs0mg"},{"bike_id":"e696add8-a032-49f5-983c-9ee9453354e8","system_id":"levelo_inurba_marseille","lat":43.26208,"lon":5.37443,"is_reserved":false,"is_disabled":false,"rental_uris":{"android":"levelo://app?vid=e696add8-a032-49f5-983c-9ee9453354e8","ios":"levelo://app?vid=e696add8-a032-49f5-983c-9ee9453354e8"},"vehicle_type_id":"4","last_reported":1745414528,"current_range_meters":19200,"station_id":"ce4bhgp2rcd13ifvqfc0","pricing_plan_id":"cebpf4jnsgd1na2vs0mg"},{"bike_id":"4f02ce0b-bc93-4c39-85d0-e691eb3979d7","system_id":"levelo_inurba_marseille","lat":43.250061,"lon":5.389194,"is_reserved":false,"is_disabled":false,"rental_uris":{"android":"levelo://app?vid=4f02ce0b-bc93-4c39-85d0-e691eb3979d7","ios":"levelo://app?vid=4f02ce0b-bc93-4c39-85d0-e691eb3979d7"},"vehicle_type_id":"4","last_reported":1745414528,"current_range_meters":19200,"station_id":"ce4bhgp2rcd13ifvqfd0","pricing_plan_id":"cebpf4jnsgd1na2vs0mg"},{"bike_id":"5cd950e7-60f7-4445-aded-54ac62f63538","system_id":"levelo_inurba_marseille","lat":43.292271,"lon":5.383564,"is_reserved":false,"is_disabled":false,"rental_uris":{"android":"levelo://app?vid=5cd950e7-60f7-4445-aded-54ac62f63538","ios":"levelo://app?vid=5cd950e7-60f7-4445-aded-54ac62f63538"},"vehicle_type_id":"4","last_reported":1745414528,"current_range_meters":19200,"station_id":"ce4bh692rcd13ifvqea0","pricing_plan_id":"cebpf4jnsgd1na2vs0mg"},{"bike_id":"db5aece3-f671-463b-8d4f-4d692a6fc18c","system_id":"levelo_inurba_marseille","lat":43.29712,"lon":5.36605,"is_reserved":false,"is_disabled":false,"rental_uris":{"android":"levelo://app?vid=db5aece3-f671-463b-8d4f-4d692a6fc18c","ios":"levelo://app?vid=db5aece3-f671-463b-8d4f-4d692a6fc18c"},"vehicle_type_id":"4","last_reported":1745414528,"current_range_meters":19200,"station_id":"ce4bgn12rcd13ifvqbt0","pricing_plan_id":"cebpf4jnsgd1na2vs0mg"},{"bike_id":"894b8530-885f-4d4d-a2ae-913958cbbe2f","system_id":"levelo_inurba_marseille","lat":43.25918,"lon":5.40896,"is_reserved":false,"is_disabled":false,"rental_uris":{"android":"levelo://app?vid=894b8530-885f-4d4d-a2ae-913958cbbe2f","ios":"levelo://app?vid=894b8530-885f-4d4d-a2ae-913958cbbe2f"},"vehicle_type_id":"4","last_reported":1745414528,"current_range_meters":19200,"station_id":"ce4bhm92rcd13ifvqglg","pricing_plan_id":"cebpf4jnsgd1na2vs0mg"},{"bike_id":"8b13a928-cf73-4379-a0db-2b466786b7d8","system_id":"levelo_inurba_marseille","lat":43.33803,"lon":5.37425,"is_reserved":false,"is_disabled":false,"rental_uris":{"android":"levelo://app?vid=8b13a928-cf73-4379-a0db-2b466786b7d8","ios":"levelo://app?vid=8b13a928-cf73-4379-a0db-2b466786b7d8"},"vehicle_type_id":"4","last_reported":1745414528,"current_range_meters":19600,"station_id":"","pricing_plan_id":"cebpf4jnsgd1na2vs0mg"},{"bike_id":"8f33f60c-520f-4816-886f-b784d01d7d2b","system_id":"levelo_inurba_marseille","lat":43.282743,"lon":5.350641,"is_reserved":false,"is_disabled":false,"rental_uris":{"android":"levelo://app?vid=8f33f60c-520f-4816-886f-b784d01d7d2b","ios":"levelo://app?vid=8f33f60c-520f-4816-886f-b784d01d7d2b"},"vehicle_type_id":"4","last_reported":1745414528,"current_range_meters":19600,"station_id":"ce4bhbp2rcd13ifvqerg","pricing_plan_id":"cebpf4jnsgd1na2vs0mg"},{"bike_id":"e08ed01d-b22c-48a8-8cd8-0c7d5e4e9163","system_id":"levelo_inurba_marseille","lat":43.2842,"lon":5.34992,"is_reserved":false,"is_disabled":false,"rental_uris":{"android":"levelo://app?vid=e08ed01d-b22c-48a8-8cd8-0c7d5e4e9163","ios":"levelo://app?vid=e08ed01d-b22c-48a8-8cd8-0c7d5e4e9163"},"vehicle_type_id":"4","last_reported":1745414528,"current_range_meters":19600,"station_id":"ce4bhbh2rcd13ifvqepg","pricing_plan_id":"cebpf4jnsgd1na2vs0mg"},{"bike_id":"1cfb199a-2fef-469c-b0e3-235be12b3413","system_id":"levelo_inurba_marseille","lat":43.30457,"lon":5.37898,"is_reserved":false,"is_disabled":false,"rental_uris":{"android":"levelo://app?vid=1cfb199a-2fef-469c-b0e3-235be12b3413","ios":"levelo://app?vid=1cfb199a-2fef-469c-b0e3-235be12b3413"},"vehicle_type_id":"4","last_reported":1745414528,"current_range_meters":19200,"station_id":"ce4bgup2rcd13ifvqcn0","pricing_plan_id":"cebpf4jnsgd1na2vs0mg"},{"bike_id":"7049f559-46ea-469f-b042-655207f67349","system_id":"levelo_inurba_marseille","lat":43.23146,"lon":5.43738,"is_reserved":false,"is_disabled":false,"rental_uris":{"android":"levelo://app?vid=7049f559-46ea-469f-b042-655207f67349","ios":"levelo://app?vid=7049f559-46ea-469f-b042-655207f67349"},"vehicle_type_id":"4","last_reported":1745414528,"current_range_meters":19600,"station_id":"ce4bhmp2rcd13ifvqgog","pricing_plan_id":"cebpf4jnsgd1na2vs0mg"},{"bike_id":"5dd12b3b-eef7-4dab-a6de-2ed4ff99da38","system_id":"levelo_inurba_marseille","lat":43.29022,"lon":5.37545,"is_reserved":false,"is_disabled":true,"rental_uris":{"android":"levelo://app?vid=5dd12b3b-eef7-4dab-a6de-2ed4ff99da38","ios":"levelo://app?vid=5dd12b3b-eef7-4dab-a6de-2ed4ff99da38"},"vehicle_type_id":"4","last_reported":1745414528,"current_range_meters":20000,"station_id":"ce4bh692rcd13ifvqe90","pricing_plan_id":"cebpf4jnsgd1na2vs0mg"},{"bike_id":"589fcaa6-2401-4f0d-97f3-3ab1d235c8e6","system_id":"levelo_inurba_marseille","lat":43.23967,"lon":5.36631,"is_reserved":false,"is_disabled":false,"rental_uris":{"android":"levelo://app?vid=589fcaa6-2401-4f0d-97f3-3ab1d235c8e6","ios":"levelo://app?vid=589fcaa6-2401-4f0d-97f3-3ab1d235c8e6"},"vehicle_type_id":"4","last_reported":1745414528,"current_range_meters":20000,"station_id":"ce4bhi12rcd13ifvqfp0","pricing_plan_id":"cebpf4jnsgd1na2vs0mg"},{"bike_id":"76c010ce-291d-42e8-8c9c-bb6e23877a8f","system_id":"levelo_inurba_marseille","lat":43.28415,"lon":5.3498,"is_reserved":false,"is_disabled":false,"rental_uris":{"android":"levelo://app?vid=76c010ce-291d-42e8-8c9c-bb6e23877a8f","ios":"levelo://app?vid=76c010ce-291d-42e8-8c9c-bb6e23877a8f"},"vehicle_type_id":"4","last_reported":1745414528,"current_range_meters":20000,"station_id":"ce4bhbh2rcd13ifvqepg","pricing_plan_id":"cebpf4jnsgd1na2vs0mg"},{"bike_id":"ab660249-0742-4ee6-9f3c-cbf7eabd0145","system_id":"levelo_inurba_marseille","lat":43.28626,"lon":5.37062,"is_reserved":false,"is_disabled":false,"rental_uris":{"android":"levelo://app?vid=ab660249-0742-4ee6-9f3c-cbf7eabd0145","ios":"levelo://app?vid=ab660249-0742-4ee6-9f3c-cbf7eabd0145"},"vehicle_type_id":"4","last_reported":1745414528,"current_range_meters":20000,"station_id":"ce4bht12rcd13ifvqi60","pricing_plan_id":"cebpf4jnsgd1na2vs0mg"},{"bike_id":"9f1fee8d-1394-4407-8f61-72d9212d83f0","system_id":"levelo_inurba_marseille","lat":43.29625,"lon":5.37731,"is_reserved":false,"is_disabled":false,"rental_uris":{"android":"levelo://app?vid=9f1fee8d-1394-4407-8f61-72d9212d83f0","ios":"levelo://app?vid=9f1fee8d-1394-4407-8f61-72d9212d83f0"},"vehicle_type_id":"4","last_reported":1745414528,"current_range_meters":20400,"station_id":"ce4bgi92rcd13ifvqb90","pricing_plan_id":"cebpf4jnsgd1na2vs0mg"},{"bike_id":"d67e280a-f708-44d7-ac1f-37a8ebf5003e","system_id":"levelo_inurba_marseille","lat":43.30192,"lon":5.39376,"is_reserved":false,"is_disabled":false,"rental_uris":{"android":"levelo://app?vid=d67e280a-f708-44d7-ac1f-37a8ebf5003e","ios":"levelo://app?vid=d67e280a-f708-44d7-ac1f-37a8ebf5003e"},"vehicle_type_id":"4","last_reported":1745414528,"current_range_meters":20400,"station_id":"","pricing_plan_id":"cebpf4jnsgd1na2vs0mg"},{"bike_id":"4913507c-096c-4918-8edb-802e1c951937","system_id":"levelo_inurba_marseille","lat":43.29929,"lon":5.43645,"is_reserved":false,"is_disabled":false,"rental_uris":{"android":"levelo://app?vid=4913507c-096c-4918-8edb-802e1c951937","ios":"levelo://app?vid=4913507c-096c-4918-8edb-802e1c951937"},"vehicle_type_id":"4","last_reported":1745414528,"current_range_meters":20400,"station_id":"","pricing_plan_id":"cebpf4jnsgd1na2vs0mg"},{"bike_id":"fccfb157-688a-49af-992a-1ce9f178a3c3","system_id":"levelo_inurba_marseille","lat":43.22936,"lon":5.35375,"is_reserved":false,"is_disabled":false,"rental_uris":{"android":"levelo://app?vid=fccfb157-688a-49af-992a-1ce9f178a3c3","ios":"levelo://app?vid=fccfb157-688a-49af-992a-1ce9f178a3c3"},"vehicle_type_id":"4","last_reported":1745414528,"current_range_meters":20400,"station_id":"cpo3532slgdg3j2ikp40","pricing_plan_id":"cebpf4jnsgd1na2vs0mg"},{"bike_id":"a294df07-99f5-41b2-8a74-86edcf13e44e","system_id":"levelo_inurba_marseille","lat":43.24379,"lon":5.37073,"is_reserved":false,"is_disabled":false,"rental_uris":{"android":"levelo://app?vid=a294df07-99f5-41b2-8a74-86edcf13e44e","ios":"levelo://app?vid=a294df07-99f5-41b2-8a74-86edcf13e44e"},"vehicle_type_id":"4","last_reported":1745414528,"current_range_meters":20400,"station_id":"ce4bhhh2rcd13ifvqfk0","pricing_plan_id":"cebpf4jnsgd1na2vs0mg"},{"bike_id":"17f64928-2dde-4002-ba54-81b220f041ae","system_id":"levelo_inurba_marseille","lat":43.28424,"lon":5.34984,"is_reserved":false,"is_disabled":false,"rental_uris":{"android":"levelo://app?vid=17f64928-2dde-4002-ba54-81b220f041ae","ios":"levelo://app?vid=17f64928-2dde-4002-ba54-81b220f041ae"},"vehicle_type_id":"4","last_reported":1745414528,"current_range_meters":20800,"station_id":"ce4bhbh2rcd13ifvqepg","pricing_plan_id":"cebpf4jnsgd1na2vs0mg"},{"bike_id":"394b5120-10bf-44a4-87e5-5bad9649243f","system_id":"levelo_inurba_marseille","lat":43.28426,"lon":5.34989,"is_reserved":false,"is_disabled":false,"rental_uris":{"android":"levelo://app?vid=394b5120-10bf-44a4-87e5-5bad9649243f","ios":"levelo://app?vid=394b5120-10bf-44a4-87e5-5bad9649243f"},"vehicle_type_id":"4","last_reported":1745414528,"current_range_meters":20800,"station_id":"ce4bhbh2rcd13ifvqepg","pricing_plan_id":"cebpf4jnsgd1na2vs0mg"},{"bike_id":"8b43b1fb-5cab-4db8-ae05-f66514d8855e","system_id":"levelo_inurba_marseille","lat":43.31291,"lon":5.37307,"is_reserved":false,"is_disabled":false,"rental_uris":{"android":"levelo://app?vid=8b43b1fb-5cab-4db8-ae05-f66514d8855e","ios":"levelo://app?vid=8b43b1fb-5cab-4db8-ae05-f66514d8855e"},"vehicle_type_id":"4","last_reported":1745414528,"current_range_meters":20800,"station_id":"","pricing_plan_id":"cebpf4jnsgd1na2vs0mg"},{"bike_id":"ab8406b2-4f8d-4381-8821-3db52b0a4d4d","system_id":"levelo_inurba_marseille","lat":43.27352,"lon":5.37823,"is_reserved":false,"is_disabled":false,"rental_uris":{"android":"levelo://app?vid=ab8406b2-4f8d-4381-8821-3db52b0a4d4d","ios":"levelo://app?vid=ab8406b2-4f8d-4381-8821-3db52b0a4d4d"},"vehicle_type_id":"4","last_reported":1745414528,"current_range_meters":20800,"station_id":"","pricing_plan_id":"cebpf4jnsgd1na2vs0mg"},{"bike_id":"08ada1c3-7a97-4c3f-b117-8c2b059e69be","system_id":"levelo_inurba_marseille","lat":43.317,"lon":5.37723,"is_reserved":false,"is_disabled":false,"rental_uris":{"android":"levelo://app?vid=08ada1c3-7a97-4c3f-b117-8c2b059e69be","ios":"levelo://app?vid=08ada1c3-7a97-4c3f-b117-8c2b059e69be"},"vehicle_type_id":"4","last_reported":1745414528,"current_range_meters":20800,"station_id":"ce4bgth2rcd13ifvqch0","pricing_plan_id":"cebpf4jnsgd1na2vs0mg"},{"bike_id":"ba8d2bbc-d88e-4cff-994b-6afb3f5ebca4","system_id":"levelo_inurba_marseille","lat":43.29266,"lon":5.40899,"is_reserved":false,"is_disabled":false,"rental_uris":{"android":"levelo://app?vid=ba8d2bbc-d88e-4cff-994b-6afb3f5ebca4","ios":"levelo://app?vid=ba8d2bbc-d88e-4cff-994b-6afb3f5ebca4"},"vehicle_type_id":"4","last_reported":1745414528,"current_range_meters":20800,"station_id":"ce4bh192rcd13ifvqdc0","pricing_plan_id":"cebpf4jnsgd1na2vs0mg"},{"bike_id":"c257b82f-33ec-4f50-a005-6b73adfc716c","system_id":"levelo_inurba_marseille","lat":43.2926,"lon":5.38424,"is_reserved":false,"is_disabled":false,"rental_uris":{"android":"levelo://app?vid=c257b82f-33ec-4f50-a005-6b73adfc716c","ios":"levelo://app?vid=c257b82f-33ec-4f50-a005-6b73adfc716c"},"vehicle_type_id":"4","last_reported":1745414528,"current_range_meters":21600,"station_id":"ce4bh692rcd13ifvqea0","pricing_plan_id":"cebpf4jnsgd1na2vs0mg"},{"bike_id":"a5856b95-9e19-4436-b973-344e5d5dcbd8","system_id":"levelo_inurba_marseille","lat":43.24146,"lon":5.36446,"is_reserved":false,"is_disabled":false,"rental_uris":{"android":"levelo://app?vid=a5856b95-9e19-4436-b973-344e5d5dcbd8","ios":"levelo://app?vid=a5856b95-9e19-4436-b973-344e5d5dcbd8"},"vehicle_type_id":"4","last_reported":1745414528,"current_range_meters":21600,"station_id":"cpo36qri1sfpv3e86is0","pricing_plan_id":"cebpf4jnsgd1na2vs0mg"},{"bike_id":"89b47fa9-a74f-4506-9c4b-e7be68bb76ad","system_id":"levelo_inurba_marseille","lat":43.29535,"lon":5.38532,"is_reserved":false,"is_disabled":false,"rental_uris":{"android":"levelo://app?vid=89b47fa9-a74f-4506-9c4b-e7be68bb76ad","ios":"levelo://app?vid=89b47fa9-a74f-4506-9c4b-e7be68bb76ad"},"vehicle_type_id":"4","last_reported":1745414528,"current_range_meters":21600,"station_id":"ce4bgih2rcd13ifvqba0","pricing_plan_id":"cebpf4jnsgd1na2vs0mg"},{"bike_id":"9b15e196-0993-48f2-9489-97ffc2d96769","system_id":"levelo_inurba_marseille","lat":43.29773,"lon":5.37106,"is_reserved":false,"is_disabled":false,"rental_uris":{"android":"levelo://app?vid=9b15e196-0993-48f2-9489-97ffc2d96769","ios":"levelo://app?vid=9b15e196-0993-48f2-9489-97ffc2d96769"},"vehicle_type_id":"4","last_reported":1745414528,"current_range_meters":21600,"station_id":"ce4bgop2rcd13ifvqc1g","pricing_plan_id":"cebpf4jnsgd1na2vs0mg"},{"bike_id":"b28b48a9-46d1-4b1c-b8f4-2647227b119c","system_id":"levelo_inurba_marseille","lat":43.284613,"lon":5.358874,"is_reserved":false,"is_disabled":false,"rental_uris":{"android":"levelo://app?vid=b28b48a9-46d1-4b1c-b8f4-2647227b119c","ios":"levelo://app?vid=b28b48a9-46d1-4b1c-b8f4-2647227b119c"},"vehicle_type_id":"4","last_reported":1745414528,"current_range_meters":22000,"station_id":"ce4bhah2rcd13ifvqei0","pricing_plan_id":"cebpf4jnsgd1na2vs0mg"},{"bike_id":"6555dac5-5a33-49f3-acd2-88b99bc0cc73","system_id":"levelo_inurba_marseille","lat":43.28363,"lon":5.38633,"is_reserved":false,"is_disabled":false,"rental_uris":{"android":"levelo://app?vid=6555dac5-5a33-49f3-acd2-88b99bc0cc73","ios":"levelo://app?vid=6555dac5-5a33-49f3-acd2-88b99bc0cc73"},"vehicle_type_id":"4","last_reported":1745414528,"current_range_meters":22000,"station_id":"ce4bh492rcd13ifvqdvg","pricing_plan_id":"cebpf4jnsgd1na2vs0mg"},{"bike_id":"eddcef58-df5c-45c3-bc20-e052314a0741","system_id":"levelo_inurba_marseille","lat":43.29529,"lon":5.39028,"is_reserved":false,"is_disabled":false,"rental_uris":{"android":"levelo://app?vid=eddcef58-df5c-45c3-bc20-e052314a0741","ios":"levelo://app?vid=eddcef58-df5c-45c3-bc20-e052314a0741"},"vehicle_type_id":"4","last_reported":1745414528,"current_range_meters":22000,"station_id":"ce4bh3p2rcd13ifvqdp0","pricing_plan_id":"cebpf4jnsgd1na2vs0mg"},{"bike_id":"fa9cbe56-e8be-4d11-ac82-c93c7be13178","system_id":"levelo_inurba_marseille","lat":43.30543,"lon":5.3654,"is_reserved":false,"is_disabled":false,"rental_uris":{"android":"levelo://app?vid=fa9cbe56-e8be-4d11-ac82-c93c7be13178","ios":"levelo://app?vid=fa9cbe56-e8be-4d11-ac82-c93c7be13178"},"vehicle_type_id":"4","last_reported":1745414528,"current_range_meters":22000,"station_id":"ce4bgs12rcd13ifvqcag","pricing_plan_id":"cebpf4jnsgd1na2vs0mg"},{"bike_id":"aa4c838d-c2f7-433d-906b-da7f8ea54b55","system_id":"levelo_inurba_marseille","lat":43.27998,"lon":5.40012,"is_reserved":false,"is_disabled":false,"rental_uris":{"android":"levelo://app?vid=aa4c838d-c2f7-433d-906b-da7f8ea54b55","ios":"levelo://app?vid=aa4c838d-c2f7-433d-906b-da7f8ea54b55"},"vehicle_type_id":"4","last_reported":1745414528,"current_range_meters":22000,"station_id":"ce4bho92rcd13ifvqh4g","pricing_plan_id":"cebpf4jnsgd1na2vs0mg"},{"bike_id":"0d38c5c4-e5b5-4054-8b6f-9944468c4814","system_id":"levelo_inurba_marseille","lat":43.23156,"lon":5.43697,"is_reserved":false,"is_disabled":false,"rental_uris":{"android":"levelo://app?vid=0d38c5c4-e5b5-4054-8b6f-9944468c4814","ios":"levelo://app?vid=0d38c5c4-e5b5-4054-8b6f-9944468c4814"},"vehicle_type_id":"4","last_reported":1745414528,"current_range_meters":22000,"station_id":"ce4bhmp2rcd13ifvqgog","pricing_plan_id":"cebpf4jnsgd1na2vs0mg"},{"bike_id":"c008cd5e-9a56-4498-80d1-de98f03a6e32","system_id":"levelo_inurba_marseille","lat":43.27367,"lon":5.36261,"is_reserved":false,"is_disabled":false,"rental_uris":{"android":"levelo://app?vid=c008cd5e-9a56-4498-80d1-de98f03a6e32","ios":"levelo://app?vid=c008cd5e-9a56-4498-80d1-de98f03a6e32"},"vehicle_type_id":"4","last_reported":1745414528,"current_range_meters":22000,"station_id":"ce4bhbh2rcd13ifvqeo0","pricing_plan_id":"cebpf4jnsgd1na2vs0mg"},{"bike_id":"9b8aa999-4fbf-482c-bd34-e6c3983a9ab2","system_id":"levelo_inurba_marseille","lat":43.2841,"lon":5.34985,"is_reserved":false,"is_disabled":false,"rental_uris":{"android":"levelo://app?vid=9b8aa999-4fbf-482c-bd34-e6c3983a9ab2","ios":"levelo://app?vid=9b8aa999-4fbf-482c-bd34-e6c3983a9ab2"},"vehicle_type_id":"4","last_reported":1745414528,"current_range_meters":22400,"station_id":"ce4bhbh2rcd13ifvqepg","pricing_plan_id":"cebpf4jnsgd1na2vs0mg"},{"bike_id":"7a4b6298-f4e2-4124-8bef-23c13f4c5654","system_id":"levelo_inurba_marseille","lat":43.28077,"lon":5.39652,"is_reserved":false,"is_disabled":false,"rental_uris":{"android":"levelo://app?vid=7a4b6298-f4e2-4124-8bef-23c13f4c5654","ios":"levelo://app?vid=7a4b6298-f4e2-4124-8bef-23c13f4c5654"},"vehicle_type_id":"4","last_reported":1745414528,"current_range_meters":22400,"station_id":"ce4bho12rcd13ifvqh2g","pricing_plan_id":"cebpf4jnsgd1na2vs0mg"},{"bike_id":"7a38cd50-7a93-4627-806c-1a69d66aceb3","system_id":"levelo_inurba_marseille","lat":43.307952,"lon":5.435229,"is_reserved":false,"is_disabled":false,"rental_uris":{"android":"levelo://app?vid=7a38cd50-7a93-4627-806c-1a69d66aceb3","ios":"levelo://app?vid=7a38cd50-7a93-4627-806c-1a69d66aceb3"},"vehicle_type_id":"4","last_reported":1745414528,"current_range_meters":22400,"station_id":"ce4bhph2rcd13ifvqheg","pricing_plan_id":"cebpf4jnsgd1na2vs0mg"},{"bike_id":"cadd2a19-c37c-493d-b003-1c5753f859f2","system_id":"levelo_inurba_marseille","lat":43.30523,"lon":5.38443,"is_reserved":false,"is_disabled":true,"rental_uris":{"android":"levelo://app?vid=cadd2a19-c37c-493d-b003-1c5753f859f2","ios":"levelo://app?vid=cadd2a19-c37c-493d-b003-1c5753f859f2"},"vehicle_type_id":"4","last_reported":1745414528,"current_range_meters":22800,"station_id":"ce4bgg92rcd13ifvqb30","pricing_plan_id":"cebpf4jnsgd1na2vs0mg"},{"bike_id":"dc420203-96bf-4739-9407-9543571db5d9","system_id":"levelo_inurba_marseille","lat":43.28716,"lon":5.37942,"is_reserved":false,"is_disabled":false,"rental_uris":{"android":"levelo://app?vid=dc420203-96bf-4739-9407-9543571db5d9","ios":"levelo://app?vid=dc420203-96bf-4739-9407-9543571db5d9"},"vehicle_type_id":"4","last_reported":1745414528,"current_range_meters":22800,"station_id":"ce4bh9p2rcd13ifvqec0","pricing_plan_id":"cebpf4jnsgd1na2vs0mg"},{"bike_id":"72f5c195-0c0a-4936-93eb-5a7ce49c6e12","system_id":"levelo_inurba_marseille","lat":43.32068,"lon":5.4153,"is_reserved":false,"is_disabled":false,"rental_uris":{"android":"levelo://app?vid=72f5c195-0c0a-4936-93eb-5a7ce49c6e12","ios":"levelo://app?vid=72f5c195-0c0a-4936-93eb-5a7ce49c6e12"},"vehicle_type_id":"4","last_reported":1745414528,"current_range_meters":22800,"station_id":"ce4bhq92rcd13ifvqhkg","pricing_plan_id":"cebpf4jnsgd1na2vs0mg"},{"bike_id":"129ea9c4-35d8-4d8a-97f1-d90eefdd4cf8","system_id":"levelo_inurba_marseille","lat":43.29192,"lon":5.39311,"is_reserved":false,"is_disabled":true,"rental_uris":{"android":"levelo://app?vid=129ea9c4-35d8-4d8a-97f1-d90eefdd4cf8","ios":"levelo://app?vid=129ea9c4-35d8-4d8a-97f1-d90eefdd4cf8"},"vehicle_type_id":"4","last_reported":1745414528,"current_range_meters":22800,"station_id":"ce4bh192rcd13ifvqdd0","pricing_plan_id":"cebpf4jnsgd1na2vs0mg"},{"bike_id":"73f40cff-bb71-4b7a-8ad7-f06c69fb0596","system_id":"levelo_inurba_marseille","lat":43.21192,"lon":5.3508,"is_reserved":false,"is_disabled":false,"rental_uris":{"android":"levelo://app?vid=73f40cff-bb71-4b7a-8ad7-f06c69fb0596","ios":"levelo://app?vid=73f40cff-bb71-4b7a-8ad7-f06c69fb0596"},"vehicle_type_id":"4","last_reported":1745414528,"current_range_meters":22800,"station_id":"st_cvj6sg6p6f1abm77japg","pricing_plan_id":"cebpf4jnsgd1na2vs0mg"},{"bike_id":"30da752e-5450-4da3-965e-773778ce5d7d","system_id":"levelo_inurba_marseille","lat":43.24176,"lon":5.36384,"is_reserved":false,"is_disabled":false,"rental_uris":{"android":"levelo://app?vid=30da752e-5450-4da3-965e-773778ce5d7d","ios":"levelo://app?vid=30da752e-5450-4da3-965e-773778ce5d7d"},"vehicle_type_id":"4","last_reported":1745414528,"current_range_meters":22800,"station_id":"cpo36qri1sfpv3e86is0","pricing_plan_id":"cebpf4jnsgd1na2vs0mg"},{"bike_id":"6223df4c-8f25-4e0f-85ea-450b8c410fda","system_id":"levelo_inurba_marseille","lat":43.31329,"lon":5.39689,"is_reserved":false,"is_disabled":false,"rental_uris":{"android":"levelo://app?vid=6223df4c-8f25-4e0f-85ea-450b8c410fda","ios":"levelo://app?vid=6223df4c-8f25-4e0f-85ea-450b8c410fda"},"vehicle_type_id":"4","last_reported":1745414528,"current_range_meters":22800,"station_id":"ce4bgvp2rcd13ifvqcu0","pricing_plan_id":"cebpf4jnsgd1na2vs0mg"},{"bike_id":"05c408f5-2af3-4b24-b660-fcade0e736ff","system_id":"levelo_inurba_marseille","lat":43.30064,"lon":5.38677,"is_reserved":false,"is_disabled":false,"rental_uris":{"android":"levelo://app?vid=05c408f5-2af3-4b24-b660-fcade0e736ff","ios":"levelo://app?vid=05c408f5-2af3-4b24-b660-fcade0e736ff"},"vehicle_type_id":"4","last_reported":1745414528,"current_range_meters":23200,"station_id":"","pricing_plan_id":"cebpf4jnsgd1na2vs0mg"},{"bike_id":"48b2b305-fab6-445e-8992-69d37101e086","system_id":"levelo_inurba_marseille","lat":43.29526,"lon":5.38538,"is_reserved":false,"is_disabled":false,"rental_uris":{"android":"levelo://app?vid=48b2b305-fab6-445e-8992-69d37101e086","ios":"levelo://app?vid=48b2b305-fab6-445e-8992-69d37101e086"},"vehicle_type_id":"4","last_reported":1745414528,"current_range_meters":23200,"station_id":"ce4bgih2rcd13ifvqba0","pricing_plan_id":"cebpf4jnsgd1na2vs0mg"},{"bike_id":"5f3ff3e3-8270-454b-a8b6-9ec778187a3e","system_id":"levelo_inurba_marseille","lat":43.31333,"lon":5.39704,"is_reserved":false,"is_disabled":false,"rental_uris":{"android":"levelo://app?vid=5f3ff3e3-8270-454b-a8b6-9ec778187a3e","ios":"levelo://app?vid=5f3ff3e3-8270-454b-a8b6-9ec778187a3e"},"vehicle_type_id":"4","last_reported":1745414528,"current_range_meters":23200,"station_id":"ce4bgvp2rcd13ifvqcu0","pricing_plan_id":"cebpf4jnsgd1na2vs0mg"},{"bike_id":"469ffe37-1d2e-49f0-9210-eaa8250ec996","system_id":"levelo_inurba_marseille","lat":43.28421,"lon":5.34991,"is_reserved":false,"is_disabled":false,"rental_uris":{"android":"levelo://app?vid=469ffe37-1d2e-49f0-9210-eaa8250ec996","ios":"levelo://app?vid=469ffe37-1d2e-49f0-9210-eaa8250ec996"},"vehicle_type_id":"4","last_reported":1745414528,"current_range_meters":23200,"station_id":"ce4bhbh2rcd13ifvqepg","pricing_plan_id":"cebpf4jnsgd1na2vs0mg"},{"bike_id":"829c6fcd-db9b-437e-9138-8a1821730e18","system_id":"levelo_inurba_marseille","lat":43.32337,"lon":5.40616,"is_reserved":false,"is_disabled":false,"rental_uris":{"android":"levelo://app?vid=829c6fcd-db9b-437e-9138-8a1821730e18","ios":"levelo://app?vid=829c6fcd-db9b-437e-9138-8a1821730e18"},"vehicle_type_id":"4","last_reported":1745414528,"current_range_meters":23200,"station_id":"ce4bhq92rcd13ifvqhjg","pricing_plan_id":"cebpf4jnsgd1na2vs0mg"},{"bike_id":"63da7982-49b4-46d7-9e4d-7825507de977","system_id":"levelo_inurba_marseille","lat":43.29275,"lon":5.36848,"is_reserved":false,"is_disabled":false,"rental_uris":{"android":"levelo://app?vid=63da7982-49b4-46d7-9e4d-7825507de977","ios":"levelo://app?vid=63da7982-49b4-46d7-9e4d-7825507de977"},"vehicle_type_id":"4","last_reported":1745414528,"current_range_meters":23200,"station_id":"ce4bhbp2rcd13ifvqesg","pricing_plan_id":"cebpf4jnsgd1na2vs0mg"},{"bike_id":"cf23c2a3-aece-4eaa-a7f1-9b35a13962bc","system_id":"levelo_inurba_marseille","lat":43.23184,"lon":5.35559,"is_reserved":false,"is_disabled":false,"rental_uris":{"android":"levelo://app?vid=cf23c2a3-aece-4eaa-a7f1-9b35a13962bc","ios":"levelo://app?vid=cf23c2a3-aece-4eaa-a7f1-9b35a13962bc"},"vehicle_type_id":"4","last_reported":1745414528,"current_range_meters":23200,"station_id":"ce4bhu92rcd13ifvqi70","pricing_plan_id":"cebpf4jnsgd1na2vs0mg"},{"bike_id":"97a53f29-0a17-4c7c-84e6-a59d7b410514","system_id":"levelo_inurba_marseille","lat":43.25112,"lon":5.40319,"is_reserved":false,"is_disabled":false,"rental_uris":{"android":"levelo://app?vid=97a53f29-0a17-4c7c-84e6-a59d7b410514","ios":"levelo://app?vid=97a53f29-0a17-4c7c-84e6-a59d7b410514"},