{"last_updated":1692486364,"ttl":30,"version":"2.2","data":{"bikes":[{"bike_id":"08022e2c-294c-4ebf-8452-32bcb1cb8509","system_id":"levelo_inurba_marseille","lat":43.31341,"lon":5.367098,"is_reserved":false,"is_disabled":false,"rental_uris":{"android":"levelo://app?vid=08022e2c-294c-4ebf-8452-32bcb1cb8509","ios":"levelo://app?vid=08022e2c-294c-4ebf-8452-32bcb1cb8509"},"vehicle_type_id":"4","last_reported":1692486364,"current_range_meters":19600,"station_id":"ce4bgr92rcd13ifvqc6g","pricing_plan_id":"free"},{"bike_id":"f22ca441-4e4e-4660-b824-b2f46943e54d","system_id":"levelo_inurba_marseille","lat":43.312239,"lon":5.368562,"is_reserved":false,"is_disabled":false,"rental_uris":{"android":"levelo://app?vid=f22ca441-4e4e-4660-b824-b2f46943e54d","ios":"levelo://app?vid=f22ca441-4e4e-4660-b824-b2f46943e54d"},"vehicle_type_id":"4","last_reported":1692486364,"current_range_meters":31200,"station_id":"ce4bgl92rcd13ifvqbq0","pricing_plan_id":"free"},{"bike_id":"bc77e46d-d78f-425e-b14b-80ff6845d9bb","system_id":"levelo_inurba_marseille","lat":43.314811,"lon":5.373103,"is_reserved":false,"is_disabled":false,"rental_uris":{"android":"levelo://app?vid=bc77e46d-d78f-425e-b14b-80ff6845d9bb","ios":"levelo://app?vid=bc77e46d-d78f-425e-b14b-80ff6845d9bb"},"vehicle_type_id":"4","last_reported":1692486364,"current_range_meters":31200,"station_id":"ce4bgt12rcd13ifvqcd0","pricing_plan_id":"free"},{"bike_id":"a4f73a09-20aa-4b23-9cc6-358045278a71","system_id":"levelo_inurba_marseille","lat":43.31497,"lon":5.37299,"is_reserved":false,"is_disabled":false,"rental_uris":{"android":"levelo://app?vid=a4f73a09-20aa-4b23-9cc6-358045278a71","ios":"levelo://app?vid=a4f73a09-20aa-4b23-9cc6-358045278a71"},"vehicle_type_id":"4","last_reported":1692486364,"current_range_meters":4400,"station_id":"ce4bgt12rcd13ifvqcd0","pricing_plan_id":"free"},{"bike_id":"c4862672-2506-4eeb-9676-abde96d32ea4","system_id":"levelo_inurba_marseille","lat":43.31496,"lon":5.373,"is_reserved":false,"is_disabled":false,"rental_uris":{"android":"levelo://app?vid=c4862672-2506-4eeb-9676-abde96d32ea4","ios":"levelo://app?vid=c4862672-2506-4eeb-9676-abde96d32ea4"},"vehicle_type_id":"4","last_reported":1692486364,"current_range_meters":30800,"station_id":"ce4bgt12rcd13ifvqcd0","pricing_plan_id":"free"},{"bike_id":"53c91014-a5b4-435d-b89b-180d1174bf64","system_id":"levelo_inurba_marseille","lat":43.314811,"lon":5.373103,"is_reserved":false,"is_disabled":false,"rental_uris":{"android":"levelo://app?vid=53c91014-a5b4-435d-b89b-180d1174bf64","ios":"levelo://app?vid=53c91014-a5b4-435d-b89b-180d1174bf64"},"vehicle_type_id":"4","last_reported":1692486364,"current_range_meters":31200,"station_id":"ce4bgt12rcd13ifvqcd0","pricing_plan_id":"free"},{"bike_id":"ba91ad35-0e41-46c6-99bd-d262b01d804c","system_id":"levelo_inurba_marseille","lat":43.314811,"lon":5.373103,"is_reserved":false,"is_disabled":false,"rental_uris":{"android":"levelo://app?vid=ba91ad35-0e41-46c6-99bd-d262b01d804c","ios":"levelo://app?vid=ba91ad35-0e41-46c6-99bd-d262b01d804c"},"vehicle_type_id":"4","last_reported":1692486364,"current_range_meters":28000,"station_id":"ce4bgt12rcd13ifvqcd0","pricing_plan_id":"free"},{"bike_id":"904b9fdb-a508-47c9-9ccc-9245695aaebe","system_id":"levelo_inurba_marseille","lat":43.314811,"lon":5.373103,"is_reserved":false,"is_disabled":false,"rental_uris":{"android":"levelo://app?vid=904b9fdb-a508-47c9-9ccc-9245695aaebe","ios":"levelo://app?vid=904b9fdb-a508-47c9-9ccc-9245695aaebe"},"vehicle_type_id":"4","last_reported":1692486364,"current_range_meters":23600,"station_id":"ce4bgt12rcd13ifvqcd0","pricing_plan_id":"free"},{"bike_id":"79e0819e-481d-4de0-aec5-8b403e467974","system_id":"levelo_inurba_marseille","lat":43.314811,"lon":5.373103,"is_reserved":false,"is_disabled":false,"rental_uris":{"android":"levelo://app?vid=79e0819e-481d-4de0-aec5-8b403e467974","ios":"levelo://app?vid=79e0819e-481d-4de0-aec5-8b403e467974"},"vehicle_type_id":"4","last_reported":1692486364,"current_range_meters":31600,"station_id":"ce4bgt12rcd13ifvqcd0","pricing_plan_id":"free"},{"bike_id":"1ec1fc95-3051-4b9e-a138-6c62ea4f1d70","system_id":"levelo_inurba_marseille","lat":43.31501,"lon":5.37309,"is_reserved":false,"is_disabled":false,"rental_uris":{"android":"levelo://app?vid=1ec1fc95-3051-4b9e-a138-6c62ea4f1d70","ios":"levelo://app?vid=1ec1fc95-3051-4b9e-a138-6c62ea4f1d70"},"vehicle_type_id":"4","last_reported":1692486364,"current_range_meters":20000,"station_id":"ce4bgt12rcd13ifvqcd0","pricing_plan_id":"free"},{"bike_id":"854f4d4d-aa5c-42c9-9d8e-ddd63e64c8e2","system_id":"levelo_inurba_marseille","lat":43.309039,"lon":5.371797,"is_reserved":false,"is_disabled":false,"rental_uris":{"android":"levelo://app?vid=854f4d4d-aa5c-42c9-9d8e-ddd63e64c8e2","ios":"levelo://app?vid=854f4d4d-aa5c-42c9-9d8e-ddd63e64c8e2"},"vehicle_type_id":"4","last_reported":1692486364,"current_range_meters":27600,"station_id":"ce4bguh2rcd13ifvqckg","pricing_plan_id":"free"},{"bike_id":"386ed8e3-b71e-4f68-86af-202c5b76503e","system_id":"levelo_inurba_marseille","lat":43.305368,"lon":5.367343,"is_reserved":false,"is_disabled":false,"rental_uris":{"android":"levelo://app?vid=386ed8e3-b71e-4f68-86af-202c5b76503e","ios":"levelo://app?vid=386ed8e3-b71e-4f68-86af-202c5b76503e"},"vehicle_type_id":"4","last_reported":1692486364,"current_range_meters":23200,"station_id":"ce4bgrp2rcd13ifvqc9g","pricing_plan_id":"free"},{"bike_id":"9fbe6e18-d192-44c2-98b5-cafb68b41aa4","system_id":"levelo_inurba_marseille","lat":43.30539,"lon":5.36539,"is_reserved":false,"is_disabled":false,"rental_uris":{"android":"levelo://app?vid=9fbe6e18-d192-44c2-98b5-cafb68b41aa4","ios":"levelo://app?vid=9fbe6e18-d192-44c2-98b5-cafb68b41aa4"},"vehicle_type_id":"4","last_reported":1692486364,"current_range_meters":9200,"station_id":"ce4bgs12rcd13ifvqcag","pricing_plan_id":"free"},{"bike_id":"94041592-cdd9-4873-b0a1-721b91db882e","system_id":"levelo_inurba_marseille","lat":43.311131,"lon":5.377651,"is_reserved":false,"is_disabled":false,"rental_uris":{"android":"levelo://app?vid=94041592-cdd9-4873-b0a1-721b91db882e","ios":"levelo://app?vid=94041592-cdd9-4873-b0a1-721b91db882e"},"vehicle_type_id":"4","last_reported":1692486364,"current_range_meters":10400,"station_id":"ce4bgt92rcd13ifvqcg0","pricing_plan_id":"free"},{"bike_id":"eb22a160-87e7-4911-bf49-43b057b3924c","system_id":"levelo_inurba_marseille","lat":43.311131,"lon":5.377651,"is_reserved":false,"is_disabled":false,"rental_uris":{"android":"levelo://app?vid=eb22a160-87e7-4911-bf49-43b057b3924c","ios":"levelo://app?vid=eb22a160-87e7-4911-bf49-43b057b3924c"},"vehicle_type_id":"4","last_reported":1692486364,"current_range_meters":21200,"station_id":"ce4bgt92rcd13ifvqcg0","pricing_plan_id":"free"},{"bike_id":"23fa1577-981b-4b36-b415-bec8d7f47377","system_id":"levelo_inurba_marseille","lat":43.311131,"lon":5.377651,"is_reserved":false,"is_disabled":false,"rental_uris":{"android":"levelo://app?vid=23fa1577-981b-4b36-b415-bec8d7f47377","ios":"levelo://app?vid=23fa1577-981b-4b36-b415-bec8d7f47377"},"vehicle_type_id":"4","last_reported":1692486364,"current_range_meters":10400,"station_id":"ce4bgt92rcd13ifvqcg0","pricing_plan_id":"free"},{"bike_id":"87ab68f3-32c9-45b4-a175-f88c537ed362","system_id":"levelo_inurba_marseille","lat":43.311125,"lon":5.377624,"is_reserved":false,"is_disabled":false,"rental_uris":{"android":"levelo://app?vid=87ab68f3-32c9-45b4-a175-f88c537ed362","ios":"levelo://app?vid=87ab68f3-32c9-45b4-a175-f88c537ed362"},"vehicle_type_id":"4","last_reported":1692486364,"current_range_meters":17200,"station_id":"ce4bgt92rcd13ifvqcg0","pricing_plan_id":"free"},{"bike_id":"cb8d2a5a-c39b-4ace-b0d8-0dd3d44251b4","system_id":"levelo_inurba_marseille","lat":43.311125,"lon":5.377624,"is_reserved":false,"is_disabled":false,"rental_uris":{"android":"levelo://app?vid=cb8d2a5a-c39b-4ace-b0d8-0dd3d44251b4","ios":"levelo://app?vid=cb8d2a5a-c39b-4ace-b0d8-0dd3d44251b4"},"vehicle_type_id":"4","last_reported":1692486364,"current_range_meters":5200,"station_id":"ce4bgt92rcd13ifvqcg0","pricing_plan_id":"free"},{"bike_id":"da1e4bf2-42ac-4a5e-b196-fe8aef49bd3d","system_id":"levelo_inurba_marseille","lat":43.311131,"lon":5.377651,"is_reserved":false,"is_disabled":false,"rental_uris":{"android":"levelo://app?vid=da1e4bf2-42ac-4a5e-b196-fe8aef49bd3d","ios":"levelo://app?vid=da1e4bf2-42ac-4a5e-b196-fe8aef49bd3d"},"vehicle_type_id":"4","last_reported":1692486364,"current_range_meters":9200,"station_id":"ce4bgt92rcd13ifvqcg0","pricing_plan_id":"free"},{"bike_id":"bbecaafc-74dc-45ae-accc-aedef8fec9ad","system_id":"levelo_inurba_marseille","lat":43.31122,"lon":5.37772,"is_reserved":false,"is_disabled":false,"rental_uris":{"android":"levelo://app?vid=bbecaafc-74dc-45ae-accc-aedef8fec9ad","ios":"levelo://app?vid=bbecaafc-74dc-45ae-accc-aedef8fec9ad"},"vehicle_type_id":"4","last_reported":1692486364,"current_range_meters":2400,"station_id":"ce4bgt92rcd13ifvqcg0","pricing_plan_id":"free"},{"bike_id":"884b3016-eba9-4d91-bba3-e506fab90d45","system_id":"levelo_inurba_marseille","lat":43.311131,"lon":5.377651,"is_reserved":false,"is_disabled":false,"rental_uris":{"android":"levelo://app?vid=884b3016-eba9-4d91-bba3-e506fab90d45","ios":"levelo://app?vid=884b3016-eba9-4d91-bba3-e506fab90d45"},"vehicle_type_id":"4","last_reported":1692486364,"current_range_meters":0,"station_id":"ce4bgt92rcd13ifvqcg0","pricing_plan_id":"free"},{"bike_id":"e92c44c6-bfb0-45fa-b2fe-a367fd139d46","system_id":"levelo_inurba_marseille","lat":43.317075,"lon":5.377367,"is_reserved":false,"is_disabled":false,"rental_uris":{"android":"levelo://app?vid=e92c44c6-bfb0-45fa-b2fe-a367fd139d46","ios":"levelo://app?vid=e92c44c6-bfb0-45fa-b2fe-a367fd139d46"},"vehicle_type_id":"4","last_reported":1692486364,"current_range_meters":19600,"station_id":"ce4bgth2rcd13ifvqch0","pricing_plan_id":"free"},{"bike_id":"92db7c80-0a0e-4af2-89b7-ed4320c3a0ab","system_id":"levelo_inurba_marseille","lat":43.30304,"lon":5.368987,"is_reserved":false,"is_disabled":false,"rental_uris":{"android":"levelo://app?vid=92db7c80-0a0e-4af2-89b7-ed4320c3a0ab","ios":"levelo://app?vid=92db7c80-0a0e-4af2-89b7-ed4320c3a0ab"},"vehicle_type_id":"4","last_reported":1692486364,"current_range_meters":5200,"station_id":"ce4bgqh2rcd13ifvqc5g","pricing_plan_id":"free"},{"bike_id":"60a188f1-f9d4-42ff-b4a8-4d65de0c076c","system_id":"levelo_inurba_marseille","lat":43.31537,"lon":5.38026,"is_reserved":false,"is_disabled":false,"rental_uris":{"android":"levelo://app?vid=60a188f1-f9d4-42ff-b4a8-4d65de0c076c","ios":"levelo://app?vid=60a188f1-f9d4-42ff-b4a8-4d65de0c076c"},"vehicle_type_id":"4","last_reported":1692486364,"current_range_meters":0,"station_id":"ce4bhsp2rcd13ifvqi50","pricing_plan_id":"free"},{"bike_id":"0871042d-4c98-4a0d-a09d-36eb6b88fae9","system_id":"levelo_inurba_marseille","lat":43.31533,"lon":5.38029,"is_reserved":false,"is_disabled":false,"rental_uris":{"android":"levelo://app?vid=0871042d-4c98-4a0d-a09d-36eb6b88fae9","ios":"levelo://app?vid=0871042d-4c98-4a0d-a09d-36eb6b88fae9"},"vehicle_type_id":"4","last_reported":1692486364,"current_range_meters":22400,"station_id":"ce4bhsp2rcd13ifvqi50","pricing_plan_id":"free"},{"bike_id":"d25633c2-027a-4b2b-98ca-7f8554f64ae3","system_id":"levelo_inurba_marseille","lat":43.31535,"lon":5.38037,"is_reserved":false,"is_disabled":false,"rental_uris":{"android":"levelo://app?vid=d25633c2-027a-4b2b-98ca-7f8554f64ae3","ios":"levelo://app?vid=d25633c2-027a-4b2b-98ca-7f8554f64ae3"},"vehicle_type_id":"4","last_reported":1692486364,"current_range_meters":18800,"station_id":"ce4bhsp2rcd13ifvqi50","pricing_plan_id":"free"},{"bike_id":"bd920d03-2841-42b3-a7bf-30deb221e0fe","system_id":"levelo_inurba_marseille","lat":43.301939,"lon":5.366286,"is_reserved":false,"is_disabled":false,"rental_uris":{"android":"levelo://app?vid=bd920d03-2841-42b3-a7bf-30deb221e0fe","ios":"levelo://app?vid=bd920d03-2841-42b3-a7bf-30deb221e0fe"},"vehicle_type_id":"4","last_reported":1692486364,"current_range_meters":8800,"station_id":"ce4bgrh2rcd13ifvqc8g","pricing_plan_id":"free"},{"bike_id":"4591db34-e0f6-4398-b4ff-a723f44cd665","system_id":"levelo_inurba_marseille","lat":43.30776,"lon":5.3815,"is_reserved":false,"is_disabled":false,"rental_uris":{"android":"levelo://app?vid=4591db34-e0f6-4398-b4ff-a723f44cd665","ios":"levelo://app?vid=4591db34-e0f6-4398-b4ff-a723f44cd665"},"vehicle_type_id":"4","last_reported":1692486364,"current_range_meters":11200,"station_id":"ce4bgt12rcd13ifvqce0","pricing_plan_id":"free"},{"bike_id":"f5d2e1ad-0fe1-4b60-9a87-37cce3a93696","system_id":"levelo_inurba_marseille","lat":43.304606,"lon":5.379026,"is_reserved":false,"is_disabled":false,"rental_uris":{"android":"levelo://app?vid=f5d2e1ad-0fe1-4b60-9a87-37cce3a93696","ios":"levelo://app?vid=f5d2e1ad-0fe1-4b60-9a87-37cce3a93696"},"vehicle_type_id":"4","last_reported":1692486364,"current_range_meters":8800,"station_id":"ce4bgup2rcd13ifvqcn0","pricing_plan_id":"free"},{"bike_id":"2cd28c41-5992-4acd-9d0b-2816fd9f18fc","system_id":"levelo_inurba_marseille","lat":43.296263,"lon":5.377094,"is_reserved":false,"is_disabled":false,"rental_uris":{"android":"levelo://app?vid=2cd28c41-5992-4acd-9d0b-2816fd9f18fc","ios":"levelo://app?vid=2cd28c41-5992-4acd-9d0b-2816fd9f18fc"},"vehicle_type_id":"4","last_reported":1692486364,"current_range_meters":2400,"station_id":"ce4bgi92rcd13ifvqb90","pricing_plan_id":"free"},{"bike_id":"2853069c-edb4-47a8-8b6a-798f5cd95477","system_id":"levelo_inurba_marseille","lat":43.31997,"lon":5.38152,"is_reserved":false,"is_disabled":false,"rental_uris":{"android":"levelo://app?vid=2853069c-edb4-47a8-8b6a-798f5cd95477","ios":"levelo://app?vid=2853069c-edb4-47a8-8b6a-798f5cd95477"},"vehicle_type_id":"4","last_reported":1692486364,"current_range_meters":1600,"station_id":"ce4bhr12rcd13ifvqhpg","pricing_plan_id":"free"},{"bike_id":"dc1f2da0-dccf-493b-8ea4-0d7a5a45e295","system_id":"levelo_inurba_marseille","lat":43.31369,"lon":5.38482,"is_reserved":false,"is_disabled":false,"rental_uris":{"android":"levelo://app?vid=dc1f2da0-dccf-493b-8ea4-0d7a5a45e295","ios":"levelo://app?vid=dc1f2da0-dccf-493b-8ea4-0d7a5a45e295"},"vehicle_type_id":"4","last_reported":1692486364,"current_range_meters":20000,"station_id":"ce4bgt92rcd13ifvqcf0","pricing_plan_id":"free"},{"bike_id":"560df2f7-48af-4129-aaca-899cbbb3ac92","system_id":"levelo_inurba_marseille","lat":43.31361,"lon":5.38485,"is_reserved":false,"is_disabled":false,"rental_uris":{"android":"levelo://app?vid=560df2f7-48af-4129-aaca-899cbbb3ac92","ios":"levelo://app?vid=560df2f7-48af-4129-aaca-899cbbb3ac92"},"vehicle_type_id":"4","last_reported":1692486364,"current_range_meters":23600,"station_id":"ce4bgt92rcd13ifvqcf0","pricing_plan_id":"free"},{"bike_id":"a7516fd6-aa29-4f13-92cd-b486a98cf9b5","system_id":"levelo_inurba_marseille","lat":43.31358,"lon":5.38488,"is_reserved":false,"is_disabled":false,"rental_uris":{"android":"levelo://app?vid=a7516fd6-aa29-4f13-92cd-b486a98cf9b5","ios":"levelo://app?vid=a7516fd6-aa29-4f13-92cd-b486a98cf9b5"},"vehicle_type_id":"4","last_reported":1692486364,"current_range_meters":0,"station_id":"ce4bgt92rcd13ifvqcf0","pricing_plan_id":"free"},{"bike_id":"9649f5aa-af23-4d2b-9d99-ee696c53843c","system_id":"levelo_inurba_marseille","lat":43.31367,"lon":5.3849,"is_reserved":false,"is_disabled":false,"rental_uris":{"android":"levelo://app?vid=9649f5aa-af23-4d2b-9d99-ee696c53843c","ios":"levelo://app?vid=9649f5aa-af23-4d2b-9d99-ee696c53843c"},"vehicle_type_id":"4","last_reported":1692486364,"current_range_meters":400,"station_id":"ce4bgt92rcd13ifvqcf0","pricing_plan_id":"free"},{"bike_id":"66a85102-d3be-452a-bf6c-182362e6a30b","system_id":"levelo_inurba_marseille","lat":43.31357,"lon":5.38492,"is_reserved":false,"is_disabled":false,"rental_uris":{"android":"levelo://app?vid=66a85102-d3be-452a-bf6c-182362e6a30b","ios":"levelo://app?vid=66a85102-d3be-452a-bf6c-182362e6a30b"},"vehicle_type_id":"4","last_reported":1692486364,"current_range_meters":0,"station_id":"ce4bgt92rcd13ifvqcf0","pricing_plan_id":"free"},{"bike_id":"0eeb8e68-8187-4a7a-a934-cf11504f2a19","system_id":"levelo_inurba_marseille","lat":43.31362,"lon":5.38492,"is_reserved":false,"is_disabled":false,"rental_uris":{"android":"levelo://app?vid=0eeb8e68-8187-4a7a-a934-cf11504f2a19","ios":"levelo://app?vid=0eeb8e68-8187-4a7a-a934-cf11504f2a19"},"vehicle_type_id":"4","last_reported":1692486364,"current_range_meters":14800,"station_id":"ce4bgt92rcd13ifvqcf0","pricing_plan_id":"free"},{"bike_id":"3d4f373c-52a2-4fab-b725-fe40076ab0c8","system_id":"levelo_inurba_marseille","lat":43.31362,"lon":5.38493,"is_reserved":false,"is_disabled":false,"rental_uris":{"android":"levelo://app?vid=3d4f373c-52a2-4fab-b725-fe40076ab0c8","ios":"levelo://app?vid=3d4f373c-52a2-4fab-b725-fe40076ab0c8"},"vehicle_type_id":"4","last_reported":1692486364,"current_range_meters":5200,"station_id":"ce4bgt92rcd13ifvqcf0","pricing_plan_id":"free"},{"bike_id":"ab0accb4-2f7f-4f5f-b4ad-85e25c20e2d7","system_id":"levelo_inurba_marseille","lat":43.3136,"lon":5.38494,"is_reserved":false,"is_disabled":false,"rental_uris":{"android":"levelo://app?vid=ab0accb4-2f7f-4f5f-b4ad-85e25c20e2d7","ios":"levelo://app?vid=ab0accb4-2f7f-4f5f-b4ad-85e25c20e2d7"},"vehicle_type_id":"4","last_reported":1692486364,"current_range_meters":8800,"station_id":"ce4bgt92rcd13ifvqcf0","pricing_plan_id":"free"},{"bike_id":"704cd585-970a-4962-89e0-776ae7869d8c","system_id":"levelo_inurba_marseille","lat":43.31368,"lon":5.38494,"is_reserved":false,"is_disabled":false,"rental_uris":{"android":"levelo://app?vid=704cd585-970a-4962-89e0-776ae7869d8c","ios":"levelo://app?vid=704cd585-970a-4962-89e0-776ae7869d8c"},"vehicle_type_id":"4","last_reported":1692486364,"current_range_meters":400,"station_id":"ce4bgt92rcd13ifvqcf0","pricing_plan_id":"free"},{"bike_id":"c5f312d4-c28f-465e-8514-9f11d5942dde","system_id":"levelo_inurba_marseille","lat":43.31369,"lon":5.38494,"is_reserved":false,"is_disabled":false,"rental_uris":{"android":"levelo://app?vid=c5f312d4-c28f-465e-8514-9f11d5942dde","ios":"levelo://app?vid=c5f312d4-c28f-465e-8514-9f11d5942dde"},"vehicle_type_id":"4","last_reported":1692486364,"current_range_meters":5200,"station_id":"ce4bgt92rcd13ifvqcf0","pricing_plan_id":"free"},{"bike_id":"5eb5f735-b1c7-4db7-ace5-3e733f2d502b","system_id":"levelo_inurba_marseille","lat":43.31359,"lon":5.38495,"is_reserved":false,"is_disabled":false,"rental_uris":{"android":"levelo://app?vid=5eb5f735-b1c7-4db7-ace5-3e733f2d502b","ios":"levelo://app?vid=5eb5f735-b1c7-4db7-ace5-3e733f2d502b"},"vehicle_type_id":"4","last_reported":1692486364,"current_range_meters":20800,"station_id":"ce4bgt92rcd13ifvqcf0","pricing_plan_id":"free"},{"bike_id":"8cf80f6e-5e13-468d-9cbc-e106ff2260fe","system_id":"levelo_inurba_marseille","lat":43.31373,"lon":5.38495,"is_reserved":false,"is_disabled":false,"rental_uris":{"android":"levelo://app?vid=8cf80f6e-5e13-468d-9cbc-e106ff2260fe","ios":"levelo://app?vid=8cf80f6e-5e13-468d-9cbc-e106ff2260fe"},"vehicle_type_id":"4","last_reported":1692486364,"current_range_meters":11200,"station_id":"ce4bgt92rcd13ifvqcf0","pricing_plan_id":"free"},{"bike_id":"ddf499a0-9cad-436a-bd9d-beb40632bba1","system_id":"levelo_inurba_marseille","lat":43.31363,"lon":5.38496,"is_reserved":false,"is_disabled":false,"rental_uris":{"android":"levelo://app?vid=ddf499a0-9cad-436a-bd9d-beb40632bba1","ios":"levelo://app?vid=ddf499a0-9cad-436a-bd9d-beb40632bba1"},"vehicle_type_id":"4","last_reported":1692486364,"current_range_meters":12000,"station_id":"ce4bgt92rcd13ifvqcf0","pricing_plan_id":"free"},{"bike_id":"df5d59ce-4b7d-4c47-934b-0044844d7f01","system_id":"levelo_inurba_marseille","lat":43.298433,"lon":5.362774,"is_reserved":false,"is_disabled":false,"rental_uris":{"android":"levelo://app?vid=df5d59ce-4b7d-4c47-934b-0044844d7f01","ios":"levelo://app?vid=df5d59ce-4b7d-4c47-934b-0044844d7f01"},"vehicle_type_id":"4","last_reported":1692486364,"current_range_meters":4000,"station_id":"ce4bgpp2rcd13ifvqc3g","pricing_plan_id":"free"},{"bike_id":"430547df-b5cc-486d-b59e-4f641a686380","system_id":"levelo_inurba_marseille","lat":43.305364,"lon":5.384119,"is_reserved":false,"is_disabled":false,"rental_uris":{"android":"levelo://app?vid=430547df-b5cc-486d-b59e-4f641a686380","ios":"levelo://app?vid=430547df-b5cc-486d-b59e-4f641a686380"},"vehicle_type_id":"4","last_reported":1692486364,"current_range_meters":28800,"station_id":"ce4bgg92rcd13ifvqb30","pricing_plan_id":"free"},{"bike_id":"b885f463-e8c5-42cc-902f-7152167ce1c7","system_id":"levelo_inurba_marseille","lat":43.299243,"lon":5.374807,"is_reserved":false,"is_disabled":false,"rental_uris":{"android":"levelo://app?vid=b885f463-e8c5-42cc-902f-7152167ce1c7","ios":"levelo://app?vid=b885f463-e8c5-42cc-902f-7152167ce1c7"},"vehicle_type_id":"4","last_reported":1692486364,"current_range_meters":31200,"station_id":"ce4bgjh2rcd13ifvqbg0","pricing_plan_id":"free"},{"bike_id":"f56ce5b8-99b3-4081-a848-f7e16cfc9798","system_id":"levelo_inurba_marseille","lat":43.311722,"lon":5.387247,"is_reserved":false,"is_disabled":false,"rental_uris":{"android":"levelo://app?vid=f56ce5b8-99b3-4081-a848-f7e16cfc9798","ios":"levelo://app?vid=f56ce5b8-99b3-4081-a848-f7e16cfc9798"},"vehicle_type_id":"4","last_reported":1692486364,"current_range_meters":6800,"station_id":"ce4bgv12rcd13ifvqcp0","pricing_plan_id":"free"},{"bike_id":"fd14f601-7016-4638-87c4-063e66f9d4a3","system_id":"levelo_inurba_marseille","lat":43.311722,"lon":5.387247,"is_reserved":false,"is_disabled":false,"rental_uris":{"android":"levelo://app?vid=fd14f601-7016-4638-87c4-063e66f9d4a3","ios":"levelo://app?vid=fd14f601-7016-4638-87c4-063e66f9d4a3"},"vehicle_type_id":"4","last_reported":1692486364,"current_range_meters":0,"station_id":"ce4bgv12rcd13ifvqcp0","pricing_plan_id":"free"},{"bike_id":"a1600a53-f261-4ae9-877b-3628425da18a","system_id":"levelo_inurba_marseille","lat":43.311722,"lon":5.387247,"is_reserved":false,"is_disabled":false,"rental_uris":{"android":"levelo://app?vid=a1600a53-f261-4ae9-877b-3628425da18a","ios":"levelo://app?vid=a1600a53-f261-4ae9-877b-3628425da18a"},"vehicle_type_id":"4","last_reported":1692486364,"current_range_meters":17600,"station_id":"ce4bgv12rcd13ifvqcp0","pricing_plan_id":"free"},{"bike_id":"e2153a1a-b1b0-4abc-9cdd-99a10ecdea74","system_id":"levelo_inurba_marseille","lat":43.311722,"lon":5.387247,"is_reserved":false,"is_disabled":false,"rental_uris":{"android":"levelo://app?vid=e2153a1a-b1b0-4abc-9cdd-99a10ecdea74","ios":"levelo://app?vid=e2153a1a-b1b0-4abc-9cdd-99a10ecdea74"},"vehicle_type_id":"4","last_reported":1692486364,"current_range_meters":21200,"station_id":"ce4bgv12rcd13ifvqcp0","pricing_plan_id":"free"},{"bike_id":"785a6f9c-1faa-4fa0-bb2f-e8c4ad5cd6a1","system_id":"levelo_inurba_marseille","lat":43.311722,"lon":5.387247,"is_reserved":false,"is_disabled":false,"rental_uris":{"android":"levelo://app?vid=785a6f9c-1faa-4fa0-bb2f-e8c4ad5cd6a1","ios":"levelo://app?vid=785a6f9c-1faa-4fa0-bb2f-e8c4ad5cd6a1"},"vehicle_type_id":"4","last_reported":1692486364,"current_range_meters":31200,"station_id":"ce4bgv12rcd13ifvqcp0","pricing_plan_id":"free"},{"bike_id":"cabfad2e-e0c3-45fe-90ce-fe723eaf226a","system_id":"levelo_inurba_marseille","lat":43.311722,"lon":5.387247,"is_reserved":false,"is_disabled":false,"rental_uris":{"android":"levelo://app?vid=cabfad2e-e0c3-45fe-90ce-fe723eaf226a","ios":"levelo://app?vid=cabfad2e-e0c3-45fe-90ce-fe723eaf226a"},"vehicle_type_id":"4","last_reported":1692486364,"current_range_meters":0,"station_id":"ce4bgv12rcd13ifvqcp0","pricing_plan_id":"free"},{"bike_id":"b815ce0f-8c6d-460d-8747-b98d1251b4b3","system_id":"levelo_inurba_marseille","lat":43.32291,"lon":5.38254,"is_reserved":false,"is_disabled":false,"rental_uris":{"android":"levelo://app?vid=b815ce0f-8c6d-460d-8747-b98d1251b4b3","ios":"levelo://app?vid=b815ce0f-8c6d-460d-8747-b98d1251b4b3"},"vehicle_type_id":"4","last_reported":1692486364,"current_range_meters":14000,"station_id":"ce4bhr12rcd13ifvqhqg","pricing_plan_id":"free"},{"bike_id":"5b5c8cae-b425-4976-9ba8-5ae205664d6b","system_id":"levelo_inurba_marseille","lat":43.3229,"lon":5.38263,"is_reserved":false,"is_disabled":false,"rental_uris":{"android":"levelo://app?vid=5b5c8cae-b425-4976-9ba8-5ae205664d6b","ios":"levelo://app?vid=5b5c8cae-b425-4976-9ba8-5ae205664d6b"},"vehicle_type_id":"4","last_reported":1692486364,"current_range_meters":17600,"station_id":"ce4bhr12rcd13ifvqhqg","pricing_plan_id":"free"},{"bike_id":"648dadf8-ff22-438c-bfb7-5c83267bdf3f","system_id":"levelo_inurba_marseille","lat":43.32291,"lon":5.38273,"is_reserved":false,"is_disabled":false,"rental_uris":{"android":"levelo://app?vid=648dadf8-ff22-438c-bfb7-5c83267bdf3f","ios":"levelo://app?vid=648dadf8-ff22-438c-bfb7-5c83267bdf3f"},"vehicle_type_id":"4","last_reported":1692486364,"current_range_meters":30000,"station_id":"ce4bhr12rcd13ifvqhqg","pricing_plan_id":"free"},{"bike_id":"20066552-063e-4d3e-9e10-e0e8a6d2c838","system_id":"levelo_inurba_marseille","lat":43.32291,"lon":5.38279,"is_reserved":false,"is_disabled":false,"rental_uris":{"android":"levelo://app?vid=20066552-063e-4d3e-9e10-e0e8a6d2c838","ios":"levelo://app?vid=20066552-063e-4d3e-9e10-e0e8a6d2c838"},"vehicle_type_id":"4","last_reported":1692486364,"current_range_meters":28400,"station_id":"ce4bhr12rcd13ifvqhqg","pricing_plan_id":"free"},{"bike_id":"b9784bc4-a1f4-4e7b-a996-3746dcc4c656","system_id":"levelo_inurba_marseille","lat":43.3229,"lon":5.38282,"is_reserved":false,"is_disabled":false,"rental_uris":{"android":"levelo://app?vid=b9784bc4-a1f4-4e7b-a996-3746dcc4c656","ios":"levelo://app?vid=b9784bc4-a1f4-4e7b-a996-3746dcc4c656"},"vehicle_type_id":"4","last_reported":1692486364,"current_range_meters":8800,"station_id":"ce4bhr12rcd13ifvqhqg","pricing_plan_id":"free"},{"bike_id":"a1f7b084-f437-4e0c-8b20-334f54c48d59","system_id":"levelo_inurba_marseille","lat":43.3229,"lon":5.38289,"is_reserved":false,"is_disabled":false,"rental_uris":{"android":"levelo://app?vid=a1f7b084-f437-4e0c-8b20-334f54c48d59","ios":"levelo://app?vid=a1f7b084-f437-4e0c-8b20-334f54c48d59"},"vehicle_type_id":"4","last_reported":1692486364,"current_range_meters":18000,"station_id":"ce4bhr12rcd13ifvqhqg","pricing_plan_id":"free"},{"bike_id":"0f135836-946e-4e91-9b15-72b385cbdf04","system_id":"levelo_inurba_marseille","lat":43.328371,"lon":5.366909,"is_reserved":false,"is_disabled":false,"rental_uris":{"android":"levelo://app?vid=0f135836-946e-4e91-9b15-72b385cbdf04","ios":"levelo://app?vid=0f135836-946e-4e91-9b15-72b385cbdf04"},"vehicle_type_id":"4","last_reported":1692486364,"current_range_meters":30800,"station_id":"ce4bhs92rcd13ifvqi0g","pricing_plan_id":"free"},{"bike_id":"2ab2c619-9cfb-4da7-9f78-cfb4995f9eec","system_id":"levelo_inurba_marseille","lat":43.32829,"lon":5.36687,"is_reserved":false,"is_disabled":false,"rental_uris":{"android":"levelo://app?vid=2ab2c619-9cfb-4da7-9f78-cfb4995f9eec","ios":"levelo://app?vid=2ab2c619-9cfb-4da7-9f78-cfb4995f9eec"},"vehicle_type_id":"4","last_reported":1692486364,"current_range_meters":6000,"station_id":"ce4bhs92rcd13ifvqi0g","pricing_plan_id":"free"},{"bike_id":"e46538af-25f2-4cf7-b48b-cb94e11b800f","system_id":"levelo_inurba_marseille","lat":43.328371,"lon":5.366909,"is_reserved":false,"is_disabled":false,"rental_uris":{"android":"levelo://app?vid=e46538af-25f2-4cf7-b48b-cb94e11b800f","ios":"levelo://app?vid=e46538af-25f2-4cf7-b48b-cb94e11b800f"},"vehicle_type_id":"4","last_reported":1692486364,"current_range_meters":14000,"station_id":"ce4bhs92rcd13ifvqi0g","pricing_plan_id":"free"},{"bike_id":"a6eaca4d-e5e7-4db0-a760-7ab92bd9f747","system_id":"levelo_inurba_marseille","lat":43.328371,"lon":5.366909,"is_reserved":false,"is_disabled":false,"rental_uris":{"android":"levelo://app?vid=a6eaca4d-e5e7-4db0-a760-7ab92bd9f747","ios":"levelo://app?vid=a6eaca4d-e5e7-4db0-a760-7ab92bd9f747"},"vehicle_type_id":"4","last_reported":1692486364,"current_range_meters":6800,"station_id":"ce4bhs92rcd13ifvqi0g","pricing_plan_id":"free"},{"bike_id":"dd789220-e7b5-42c1-b9dc-dc4243148021","system_id":"levelo_inurba_marseille","lat":43.297163,"lon":5.365866,"is_reserved":false,"is_disabled":false,"rental_uris":{"android":"levelo://app?vid=dd789220-e7b5-42c1-b9dc-dc4243148021","ios":"levelo://app?vid=dd789220-e7b5-42c1-b9dc-dc4243148021"},"vehicle_type_id":"4","last_reported":1692486364,"current_range_meters":31200,"station_id":"ce4bgn12rcd13ifvqbt0","pricing_plan_id":"free"},{"bike_id":"bb155e93-116e-494a-9911-2df351c7dae8","system_id":"levelo_inurba_marseille","lat":43.296131,"lon":5.370773,"is_reserved":false,"is_disabled":false,"rental_uris":{"android":"levelo://app?vid=bb155e93-116e-494a-9911-2df351c7dae8","ios":"levelo://app?vid=bb155e93-116e-494a-9911-2df351c7dae8"},"vehicle_type_id":"4","last_reported":1692486364,"current_range_meters":29200,"station_id":"ce4bgnh2rcd13ifvqc0g","pricing_plan_id":"free"},{"bike_id":"d3139180-8ba9-4c91-b6e4-8baae3c22113","system_id":"levelo_inurba_marseille","lat":43.296131,"lon":5.370773,"is_reserved":false,"is_disabled":false,"rental_uris":{"android":"levelo://app?vid=d3139180-8ba9-4c91-b6e4-8baae3c22113","ios":"levelo://app?vid=d3139180-8ba9-4c91-b6e4-8baae3c22113"},"vehicle_type_id":"4","last_reported":1692486364,"current_range_meters":31200,"station_id":"ce4bgnh2rcd13ifvqc0g","pricing_plan_id":"free"},{"bike_id":"41ea3b88-cf23-48a7-8fe4-01219b3be8de","system_id":"levelo_inurba_marseille","lat":43.30968,"lon":5.39032,"is_reserved":false,"is_disabled":false,"rental_uris":{"android":"levelo://app?vid=41ea3b88-cf23-48a7-8fe4-01219b3be8de","ios":"levelo://app?vid=41ea3b88-cf23-48a7-8fe4-01219b3be8de"},"vehicle_type_id":"4","last_reported":1692486364,"current_range_meters":22800,"station_id":"ce4bgup2rcd13ifvqco0","pricing_plan_id":"free"},{"bike_id":"2cfa417d-555d-435b-9845-78bc2b46c879","system_id":"levelo_inurba_marseille","lat":43.309589,"lon":5.390258,"is_reserved":false,"is_disabled":false,"rental_uris":{"android":"levelo://app?vid=2cfa417d-555d-435b-9845-78bc2b46c879","ios":"levelo://app?vid=2cfa417d-555d-435b-9845-78bc2b46c879"},"vehicle_type_id":"4","last_reported":1692486364,"current_range_meters":6400,"station_id":"ce4bgup2rcd13ifvqco0","pricing_plan_id":"free"},{"bike_id":"57a93481-da18-4d8f-99ea-ea519ddc4ea0","system_id":"levelo_inurba_marseille","lat":43.3096,"lon":5.3904,"is_reserved":false,"is_disabled":false,"rental_uris":{"android":"levelo://app?vid=57a93481-da18-4d8f-99ea-ea519ddc4ea0","ios":"levelo://app?vid=57a93481-da18-4d8f-99ea-ea519ddc4ea0"},"vehicle_type_id":"4","last_reported":1692486364,"current_range_meters":8800,"station_id":"ce4bgup2rcd13ifvqco0","pricing_plan_id":"free"},{"bike_id":"a22df4c6-f7e5-48e7-85bf-07d77c9a1d2e","system_id":"levelo_inurba_marseille","lat":43.299028,"lon":5.381509,"is_reserved":false,"is_disabled":false,"rental_uris":{"android":"levelo://app?vid=a22df4c6-f7e5-48e7-85bf-07d77c9a1d2e","ios":"levelo://app?vid=a22df4c6-f7e5-48e7-85bf-07d77c9a1d2e"},"vehicle_type_id":"4","last_reported":1692486364,"current_range_meters":11600,"station_id":"ce4bgj12rcd13ifvqbc0","pricing_plan_id":"free"},{"bike_id":"ca95d661-6dd9-46a1-b8f1-ae7ac1f092a9","system_id":"levelo_inurba_marseille","lat":43.30941,"lon":5.390527,"is_reserved":false,"is_disabled":false,"rental_uris":{"android":"levelo://app?vid=ca95d661-6dd9-46a1-b8f1-ae7ac1f092a9","ios":"levelo://app?vid=ca95d661-6dd9-46a1-b8f1-ae7ac1f092a9"},"vehicle_type_id":"4","last_reported":1692486364,"current_range_meters":18400,"station_id":"","pricing_plan_id":"free"},{"bike_id":"296c8ab9-45e6-4164-9dff-112207cc488a","system_id":"levelo_inurba_marseille","lat":43.31752,"lon":5.39019,"is_reserved":false,"is_disabled":false,"rental_uris":{"android":"levelo://app?vid=296c8ab9-45e6-4164-9dff-112207cc488a","ios":"levelo://app?vid=296c8ab9-45e6-4164-9dff-112207cc488a"},"vehicle_type_id":"4","last_reported":1692486364,"current_range_meters":1200,"station_id":"ce4bhqp2rcd13ifvqhng","pricing_plan_id":"free"},{"bike_id":"18ce2835-86aa-429e-b3de-f2665669dc8a","system_id":"levelo_inurba_marseille","lat":43.31753,"lon":5.39019,"is_reserved":false,"is_disabled":false,"rental_uris":{"android":"levelo://app?vid=18ce2835-86aa-429e-b3de-f2665669dc8a","ios":"levelo://app?vid=18ce2835-86aa-429e-b3de-f2665669dc8a"},"vehicle_type_id":"4","last_reported":1692486364,"current_range_meters":28400,"station_id":"ce4bhqp2rcd13ifvqhng","pricing_plan_id":"free"},{"bike_id":"fed882c2-5fc5-4b8a-9eee-3fcce8be89ee","system_id":"levelo_inurba_marseille","lat":43.29797,"lon":5.38089,"is_reserved":false,"is_disabled":false,"rental_uris":{"android":"levelo://app?vid=fed882c2-5fc5-4b8a-9eee-3fcce8be89ee","ios":"levelo://app?vid=fed882c2-5fc5-4b8a-9eee-3fcce8be89ee"},"vehicle_type_id":"4","last_reported":1692486364,"current_range_meters":14000,"station_id":"ce4bgip2rcd13ifvqbb0","pricing_plan_id":"free"},{"bike_id":"a4df99ce-0488-49dd-a888-94686f562e88","system_id":"levelo_inurba_marseille","lat":43.295748,"lon":5.37522,"is_reserved":false,"is_disabled":false,"rental_uris":{"android":"levelo://app?vid=a4df99ce-0488-49dd-a888-94686f562e88","ios":"levelo://app?vid=a4df99ce-0488-49dd-a888-94686f562e88"},"vehicle_type_id":"4","last_reported":1692486364,"current_range_meters":30000,"station_id":"ce4bgh92rcd13ifvqb50","pricing_plan_id":"free"},{"bike_id":"1bdffa29-9d38-482f-9ddc-84ac08c52959","system_id":"levelo_inurba_marseille","lat":43.304274,"lon":5.388873,"is_reserved":false,"is_disabled":false,"rental_uris":{"android":"levelo://app?vid=1bdffa29-9d38-482f-9ddc-84ac08c52959","ios":"levelo://app?vid=1bdffa29-9d38-482f-9ddc-84ac08c52959"},"vehicle_type_id":"4","last_reported":1692486364,"current_range_meters":31200,"station_id":"ce4bgk12rcd13ifvqbi0","pricing_plan_id":"free"},{"bike_id":"21fcea45-e491-4a85-bcbf-bf5cd0b62ccf","system_id":"levelo_inurba_marseille","lat":43.32365,"lon":5.38881,"is_reserved":false,"is_disabled":false,"rental_uris":{"android":"levelo://app?vid=21fcea45-e491-4a85-bcbf-bf5cd0b62ccf","ios":"levelo://app?vid=21fcea45-e491-4a85-bcbf-bf5cd0b62ccf"},"vehicle_type_id":"4","last_reported":1692486364,"current_range_meters":30400,"station_id":"ce4bhqp2rcd13ifvqhog","pricing_plan_id":"free"},{"bike_id":"55f08f4d-333e-4077-9882-16e72e12ddbf","system_id":"levelo_inurba_marseille","lat":43.32367,"lon":5.388836,"is_reserved":false,"is_disabled":false,"rental_uris":{"android":"levelo://app?vid=55f08f4d-333e-4077-9882-16e72e12ddbf","ios":"levelo://app?vid=55f08f4d-333e-4077-9882-16e72e12ddbf"},"vehicle_type_id":"4","last_reported":1692486364,"current_range_meters":26400,"station_id":"ce4bhqp2rcd13ifvqhog","pricing_plan_id":"free"},{"bike_id":"a97f77a2-1520-4bfc-9df0-0f9c62851caa","system_id":"levelo_inurba_marseille","lat":43.32367,"lon":5.38883,"is_reserved":false,"is_disabled":false,"rental_uris":{"android":"levelo://app?vid=a97f77a2-1520-4bfc-9df0-0f9c62851caa","ios":"levelo://app?vid=a97f77a2-1520-4bfc-9df0-0f9c62851caa"},"vehicle_type_id":"4","last_reported":1692486364,"current_range_meters":26800,"station_id":"ce4bhqp2rcd13ifvqhog","pricing_plan_id":"free"},{"bike_id":"0126f869-77bb-4690-a14f-53e2dd9d4689","system_id":"levelo_inurba_marseille","lat":43.32368,"lon":5.38887,"is_reserved":false,"is_disabled":false,"rental_uris":{"android":"levelo://app?vid=0126f869-77bb-4690-a14f-53e2dd9d4689","ios":"levelo://app?vid=0126f869-77bb-4690-a14f-53e2dd9d4689"},"vehicle_type_id":"4","last_reported":1692486364,"current_range_meters":24000,"station_id":"ce4bhqp2rcd13ifvqhog","pricing_plan_id":"free"},{"bike_id":"6b6cba89-d2b8-44bb-8454-5df08cf65f67","system_id":"levelo_inurba_marseille","lat":43.32367,"lon":5.38888,"is_reserved":false,"is_disabled":false,"rental_uris":{"android":"levelo://app?vid=6b6cba89-d2b8-44bb-8454-5df08cf65f67","ios":"levelo://app?vid=6b6cba89-d2b8-44bb-8454-5df08cf65f67"},"vehicle_type_id":"4","last_reported":1692486364,"current_range_meters":11200,"station_id":"ce4bhqp2rcd13ifvqhog","pricing_plan_id":"free"},{"bike_id":"729585a6-6040-4937-af32-fd49d682d0d6","system_id":"levelo_inurba_marseille","lat":43.32366,"lon":5.38889,"is_reserved":false,"is_disabled":false,"rental_uris":{"android":"levelo://app?vid=729585a6-6040-4937-af32-fd49d682d0d6","ios":"levelo://app?vid=729585a6-6040-4937-af32-fd49d682d0d6"},"vehicle_type_id":"4","last_reported":1692486364,"current_range_meters":0,"station_id":"ce4bhqp2rcd13ifvqhog","pricing_plan_id":"free"},{"bike_id":"cbdfdf6f-4880-4684-826d-8e1c7ca94f15","system_id":"levelo_inurba_marseille","lat":43.32366,"lon":5.3889,"is_reserved":false,"is_disabled":false,"rental_uris":{"android":"levelo://app?vid=cbdfdf6f-4880-4684-826d-8e1c7ca94f15","ios":"levelo://app?vid=cbdfdf6f-4880-4684-826d-8e1c7ca94f15"},"vehicle_type_id":"4","last_reported":1692486364,"current_range_meters":18000,"station_id":"ce4bhqp2rcd13ifvqhog","pricing_plan_id":"free"},{"bike_id":"2b94dc22-1f8e-486d-b15e-28a2daf77552","system_id":"levelo_inurba_marseille","lat":43.293249,"lon":5.371578,"is_reserved":false,"is_disabled":false,"rental_uris":{"android":"levelo://app?vid=2b94dc22-1f8e-486d-b15e-28a2daf77552","ios":"levelo://app?vid=2b94dc22-1f8e-486d-b15e-28a2daf77552"},"vehicle_type_id":"4","last_reported":1692486364,"current_range_meters":31200,"station_id":"ce4bgh92rcd13ifvqb40","pricing_plan_id":"free"},{"bike_id":"ee3d087f-e458-4047-87ab-3cf90f61b2f7","system_id":"levelo_inurba_marseille","lat":43.29316,"lon":5.37465,"is_reserved":false,"is_disabled":false,"rental_uris":{"android":"levelo://app?vid=ee3d087f-e458-4047-87ab-3cf90f61b2f7","ios":"levelo://app?vid=ee3d087f-e458-4047-87ab-3cf90f61b2f7"},"vehicle_type_id":"4","last_reported":1692486364,"current_range_meters":0,"station_id":"ce4bgi12rcd13ifvqb70","pricing_plan_id":"free"},{"bike_id":"38fef587-7cc5-4800-b069-87b8f296a10a","system_id":"levelo_inurba_marseille","lat":43.293009,"lon":5.374584,"is_reserved":false,"is_disabled":false,"rental_uris":{"android":"levelo://app?vid=38fef587-7cc5-4800-b069-87b8f296a10a","ios":"levelo://app?vid=38fef587-7cc5-4800-b069-87b8f296a10a"},"vehicle_type_id":"4","last_reported":1692486364,"current_range_meters":31200,"station_id":"ce4bgi12rcd13ifvqb70","pricing_plan_id":"free"},{"bike_id":"8830a386-ef12-497e-88df-6c85c883f1e5","system_id":"levelo_inurba_marseille","lat":43.30306,"lon":5.39204,"is_reserved":false,"is_disabled":false,"rental_uris":{"android":"levelo://app?vid=8830a386-ef12-497e-88df-6c85c883f1e5","ios":"levelo://app?vid=8830a386-ef12-497e-88df-6c85c883f1e5"},"vehicle_type_id":"4","last_reported":1692486364,"current_range_meters":6400,"station_id":"ce4bgkh2rcd13ifvqbk0","pricing_plan_id":"free"},{"bike_id":"2b4750f0-7114-41f3-b2ff-70ba565e9cac","system_id":"levelo_inurba_marseille","lat":43.30312,"lon":5.39211,"is_reserved":false,"is_disabled":false,"rental_uris":{"android":"levelo://app?vid=2b4750f0-7114-41f3-b2ff-70ba565e9cac","ios":"levelo://app?vid=2b4750f0-7114-41f3-b2ff-70ba565e9cac"},"vehicle_type_id":"4","last_reported":1692486364,"current_range_meters":0,"station_id":"ce4bgkh2rcd13ifvqbk0","pricing_plan_id":"free"},{"bike_id":"8f57fd94-29ec-4690-9d98-05fd0e2f1201","system_id":"levelo_inurba_marseille","lat":43.2936,"lon":5.37835,"is_reserved":false,"is_disabled":false,"rental_uris":{"android":"levelo://app?vid=8f57fd94-29ec-4690-9d98-05fd0e2f1201","ios":"levelo://app?vid=8f57fd94-29ec-4690-9d98-05fd0e2f1201"},"vehicle_type_id":"4","last_reported":1692486364,"current_range_meters":30800,"station_id":"ce4bgjh2rcd13ifvqbf0","pricing_plan_id":"free"},{"bike_id":"9abd0730-5c4b-4c7d-a296-f9354fd8df86","system_id":"levelo_inurba_marseille","lat":43.313291,"lon":5.396838,"is_reserved":false,"is_disabled":false,"rental_uris":{"android":"levelo://app?vid=9abd0730-5c4b-4c7d-a296-f9354fd8df86","ios":"levelo://app?vid=9abd0730-5c4b-4c7d-a296-f9354fd8df86"},"vehicle_type_id":"4","last_reported":1692486364,"current_range_meters":19200,"station_id":"ce4bgvp2rcd13ifvqcu0","pricing_plan_id":"free"},{"bike_id":"ef624301-919c-49f6-bb53-f696ce622e93","system_id":"levelo_inurba_marseille","lat":43.31336,"lon":5.39696,"is_reserved":false,"is_disabled":false,"rental_uris":{"android":"levelo://app?vid=ef624301-919c-49f6-bb53-f696ce622e93","ios":"levelo://app?vid=ef624301-919c-49f6-bb53-f696ce622e93"},"vehicle_type_id":"4","last_reported":1692486364,"current_range_meters":1200,"station_id":"ce4bgvp2rcd13ifvqcu0","pricing_plan_id":"free"},{"bike_id":"6b485f0d-ee8d-42bd-9c40-412fb331f88a","system_id":"levelo_inurba_marseille","lat":43.289184,"lon":5.366408,"is_reserved":false,"is_disabled":false,"rental_uris":{"android":"levelo://app?vid=6b485f0d-ee8d-42bd-9c40-412fb331f88a","ios":"levelo://app?vid=6b485f0d-ee8d-42bd-9c40-412fb331f88a"},"vehicle_type_id":"4","last_reported":1692486364,"current_range_meters":31600,"station_id":"ce4bhap2rcd13ifvqek0","pricing_plan_id":"free"},{"bike_id":"c98b6d23-bd18-4c09-9f13-3a561bb0fcd4","system_id":"levelo_inurba_marseille","lat":43.289184,"lon":5.366408,"is_reserved":false,"is_disabled":false,"rental_uris":{"android":"levelo://app?vid=c98b6d23-bd18-4c09-9f13-3a561bb0fcd4","ios":"levelo://app?vid=c98b6d23-bd18-4c09-9f13-3a561bb0fcd4"},"vehicle_type_id":"4","last_reported":1692486364,"current_range_meters":19600,"station_id":"ce4bhap2rcd13ifvqek0","pricing_plan_id":"free"},{"bike_id":"64982411-1c8a-43e3-be3c-f93d4b780090","system_id":"levelo_inurba_marseille","lat":43.289184,"lon":5.366408,"is_reserved":false,"is_disabled":false,"rental_uris":{"android":"levelo://app?vid=64982411-1c8a-43e3-be3c-f93d4b780090","ios":"levelo://app?vid=64982411-1c8a-43e3-be3c-f93d4b780090"},"vehicle_type_id":"4","last_reported":1692486364,"current_range_meters":7200,"station_id":"ce4bhap2rcd13ifvqek0","pricing_plan_id":"free"},{"bike_id":"3ea15c63-b326-426e-9797-0e88c899ee0a","system_id":"levelo_inurba_marseille","lat":43.289184,"lon":5.366408,"is_reserved":false,"is_disabled":false,"rental_uris":{"android":"levelo://app?vid=3ea15c63-b326-426e-9797-0e88c899ee0a","ios":"levelo://app?vid=3ea15c63-b326-426e-9797-0e88c899ee0a"},"vehicle_type_id":"4","last_reported":1692486364,"current_range_meters":800,"station_id":"ce4bhap2rcd13ifvqek0","pricing_plan_id":"free"},{"bike_id":"417dc678-6892-42a3-81e9-a4a3d6b18a77","system_id":"levelo_inurba_marseille","lat":43.289184,"lon":5.366408,"is_reserved":false,"is_disabled":false,"rental_uris":{"android":"levelo://app?vid=417dc678-6892-42a3-81e9-a4a3d6b18a77","ios":"levelo://app?vid=417dc678-6892-42a3-81e9-a4a3d6b18a77"},"vehicle_type_id":"4","last_reported":1692486364,"current_range_meters":18000,"station_id":"ce4bhap2rcd13ifvqek0","pricing_plan_id":"free"},{"bike_id":"e1447903-97fb-4e52-bdf6-c2e1a0e4e191","system_id":"levelo_inurba_marseille","lat":43.29263,"lon":5.3845,"is_reserved":false,"is_disabled":false,"rental_uris":{"android":"levelo://app?vid=e1447903-97fb-4e52-bdf6-c2e1a0e4e191","ios":"levelo://app?vid=e1447903-97fb-4e52-bdf6-c2e1a0e4e191"},"vehicle_type_id":"4","last_reported":1692486364,"current_range_meters":29600,"station_id":"ce4bh692rcd13ifvqea0","pricing_plan_id":"free"},{"bike_id":"de450cac-4370-4660-9455-3e94463307a2","system_id":"levelo_inurba_marseille","lat":43.33039,"lon":5.38918,"is_reserved":false,"is_disabled":false,"rental_uris":{"android":"levelo://app?vid=de450cac-4370-4660-9455-3e94463307a2","ios":"levelo://app?vid=de450cac-4370-4660-9455-3e94463307a2"},"vehicle_type_id":"4","last_reported":1692486364,"current_range_meters":18000,"station_id":"ce4bhr92rcd13ifvqhrg","pricing_plan_id":"free"},{"bike_id":"86eac789-1e56-496d-abfa-705e29d378c7","system_id":"levelo_inurba_marseille","lat":43.33044,"lon":5.38913,"is_reserved":false,"is_disabled":false,"rental_uris":{"android":"levelo://app?vid=86eac789-1e56-496d-abfa-705e29d378c7","ios":"levelo://app?vid=86eac789-1e56-496d-abfa-705e29d378c7"},"vehicle_type_id":"4","last_reported":1692486364,"current_range_meters":30000,"station_id":"ce4bhr92rcd13ifvqhrg","pricing_plan_id":"free"},{"bike_id":"c8619c93-5f6a-45f4-8e07-c81fcc1e21be","system_id":"levelo_inurba_marseille","lat":43.33045,"lon":5.38912,"is_reserved":false,"is_disabled":false,"rental_uris":{"android":"levelo://app?vid=c8619c93-5f6a-45f4-8e07-c81fcc1e21be","ios":"levelo://app?vid=c8619c93-5f6a-45f4-8e07-c81fcc1e21be"},"vehicle_type_id":"4","last_reported":1692486364,"current_range_meters":27600,"station_id":"ce4bhr92rcd13ifvqhrg","pricing_plan_id":"free"},{"bike_id":"a5d7998c-4c76-4390-bbcf-8c2a2abd7eba","system_id":"levelo_inurba_marseille","lat":43.3304,"lon":5.3892,"is_reserved":false,"is_disabled":false,"rental_uris":{"android":"levelo://app?vid=a5d7998c-4c76-4390-bbcf-8c2a2abd7eba","ios":"levelo://app?vid=a5d7998c-4c76-4390-bbcf-8c2a2abd7eba"},"vehicle_type_id":"4","last_reported":1692486364,"current_range_meters":31200,"station_id":"ce4bhr92rcd13ifvqhrg","pricing_plan_id":"free"},{"bike_id":"d2b15eb2-4474-4e56-aace-fe335ab0092e","system_id":"levelo_inurba_marseille","lat":43.33039,"lon":5.38922,"is_reserved":false,"is_disabled":false,"rental_uris":{"android":"levelo://app?vid=d2b15eb2-4474-4e56-aace-fe335ab0092e","ios":"levelo://app?vid=d2b15eb2-4474-4e56-aace-fe335ab0092e"},"vehicle_type_id":"4","last_reported":1692486364,"current_range_meters":15200,"station_id":"ce4bhr92rcd13ifvqhrg","pricing_plan_id":"free"},{"bike_id":"3b3e7c42-cded-4bde-b175-99650afa4f17","system_id":"levelo_inurba_marseille","lat":43.33045,"lon":5.38914,"is_reserved":false,"is_disabled":false,"rental_uris":{"android":"levelo://app?vid=3b3e7c42-cded-4bde-b175-99650afa4f17","ios":"levelo://app?vid=3b3e7c42-cded-4bde-b175-99650afa4f17"},"vehicle_type_id":"4","last_reported":1692486364,"current_range_meters":24400,"station_id":"ce4bhr92rcd13ifvqhrg","pricing_plan_id":"free"},{"bike_id":"16105e4d-cb4a-4aae-91bb-2ecd41a7406b","system_id":"levelo_inurba_marseille","lat":43.3304,"lon":5.38922,"is_reserved":false,"is_disabled":false,"rental_uris":{"android":"levelo://app?vid=16105e4d-cb4a-4aae-91bb-2ecd41a7406b","ios":"levelo://app?vid=16105e4d-cb4a-4aae-91bb-2ecd41a7406b"},"vehicle_type_id":"4","last_reported":1692486364,"current_range_meters":22800,"station_id":"ce4bhr92rcd13ifvqhrg","pricing_plan_id":"free"},{"bike_id":"70576a93-fbdb-4696-908e-c08c0f1995f8","system_id":"levelo_inurba_marseille","lat":43.33045,"lon":5.38915,"is_reserved":false,"is_disabled":false,"rental_uris":{"android":"levelo://app?vid=70576a93-fbdb-4696-908e-c08c0f1995f8","ios":"levelo://app?vid=70576a93-fbdb-4696-908e-c08c0f1995f8"},"vehicle_type_id":"4","last_reported":1692486364,"current_range_meters":26000,"station_id":"ce4bhr92rcd13ifvqhrg","pricing_plan_id":"free"},{"bike_id":"4acef044-58d4-4046-9f8b-3557af517e74","system_id":"levelo_inurba_marseille","lat":43.33042,"lon":5.3892,"is_reserved":false,"is_disabled":false,"rental_uris":{"android":"levelo://app?vid=4acef044-58d4-4046-9f8b-3557af517e74","ios":"levelo://app?vid=4acef044-58d4-4046-9f8b-3557af517e74"},"vehicle_type_id":"4","last_reported":1692486364,"current_range_meters":12800,"station_id":"ce4bhr92rcd13ifvqhrg","pricing_plan_id":"free"},{"bike_id":"331b6e0a-8cfc-4305-9eef-0266cde03da7","system_id":"levelo_inurba_marseille","lat":43.33045,"lon":5.38916,"is_reserved":false,"is_disabled":false,"rental_uris":{"android":"levelo://app?vid=331b6e0a-8cfc-4305-9eef-0266cde03da7","ios":"levelo://app?vid=331b6e0a-8cfc-4305-9eef-0266cde03da7"},"vehicle_type_id":"4","last_reported":1692486364,"current_range_meters":16400,"station_id":"ce4bhr92rcd13ifvqhrg","pricing_plan_id":"free"},{"bike_id":"024f4d94-1555-4991-925c-5e7448051bbb","system_id":"levelo_inurba_marseille","lat":43.33041,"lon":5.38923,"is_reserved":false,"is_disabled":false,"rental_uris":{"android":"levelo://app?vid=024f4d94-1555-4991-925c-5e7448051bbb","ios":"levelo://app?vid=024f4d94-1555-4991-925c-5e7448051bbb"},"vehicle_type_id":"4","last_reported":1692486364,"current_range_meters":28800,"station_id":"ce4bhr92rcd13ifvqhrg","pricing_plan_id":"free"},{"bike_id":"eb950724-6c95-4fb2-915f-35b08a8cfd23","system_id":"levelo_inurba_marseille","lat":43.33045,"lon":5.38917,"is_reserved":false,"is_disabled":false,"rental_uris":{"android":"levelo://app?vid=eb950724-6c95-4fb2-915f-35b08a8cfd23","ios":"levelo://app?vid=eb950724-6c95-4fb2-915f-35b08a8cfd23"},"vehicle_type_id":"4","last_reported":1692486364,"current_range_meters":20000,"station_id":"ce4bhr92rcd13ifvqhrg","pricing_plan_id":"free"},{"bike_id":"9e24a65c-fe1e-45dc-88b9-dd0cad85064c","system_id":"levelo_inurba_marseille","lat":43.33042,"lon":5.38923,"is_reserved":false,"is_disabled":false,"rental_uris":{"android":"levelo://app?vid=9e24a65c-fe1e-45dc-88b9-dd0cad85064c","ios":"levelo://app?vid=9e24a65c-fe1e-45dc-88b9-dd0cad85064c"},"vehicle_type_id":"4","last_reported":1692486364,"current_range_meters":29600,"station_id":"ce4bhr92rcd13ifvqhrg","pricing_plan_id":"free"},{"bike_id":"5c8c244a-8618-42d9-abf2-521b07f6577d","system_id":"levelo_inurba_marseille","lat":43.33046,"lon":5.38917,"is_reserved":false,"is_disabled":false,"rental_uris":{"android":"levelo://app?vid=5c8c244a-8618-42d9-abf2-521b07f6577d","ios":"levelo://app?vid=5c8c244a-8618-42d9-abf2-521b07f6577d"},"vehicle_type_id":"4","last_reported":1692486364,"current_range_meters":27600,"station_id":"ce4bhr92rcd13ifvqhrg","pricing_plan_id":"free"},{"bike_id":"9ec93851-2c12-4e8a-b52c-89084ec976ac","system_id":"levelo_inurba_marseille","lat":43.33045,"lon":5.38919,"is_reserved":false,"is_disabled":false,"rental_uris":{"android":"levelo://app?vid=9ec93851-2c12-4e8a-b52c-89084ec976ac","ios":"levelo://app?vid=9ec93851-2c12-4e8a-b52c-89084ec976ac"},"vehicle_type_id":"4","last_reported":1692486364,"current_range_meters":2400,"station_id":"ce4bhr92rcd13ifvqhrg","pricing_plan_id":"free"},{"bike_id":"52662068-d06a-40c1-bfee-ce6664dc3a83","system_id":"levelo_inurba_marseille","lat":43.33048,"lon":5.38915,"is_reserved":false,"is_disabled":false,"rental_uris":{"android":"levelo://app?vid=52662068-d06a-40c1-bfee-ce6664dc3a83","ios":"levelo://app?vid=52662068-d06a-40c1-bfee-ce6664dc3a83"},"vehicle_type_id":"4","last_reported":1692486364,"current_range_meters":3600,"station_id":"ce4bhr92rcd13ifvqhrg","pricing_plan_id":"free"},{"bike_id":"5036c72a-6252-47f4-a9fb-50fd514d506a","system_id":"levelo_inurba_marseille","lat":43.33046,"lon":5.38919,"is_reserved":false,"is_disabled":false,"rental_uris":{"android":"levelo://app?vid=5036c72a-6252-47f4-a9fb-50fd514d506a","ios":"levelo://app?vid=5036c72a-6252-47f4-a9fb-50fd514d506a"},"vehicle_type_id":"4","last_reported":1692486364,"current_range_meters":22800,"station_id":"ce4bhr92rcd13ifvqhrg","pricing_plan_id":"free"},{"bike_id":"7d19a255-9f7a-4d0e-beba-2bfebb3c7b5e","system_id":"levelo_inurba_marseille","lat":43.33046,"lon":5.38919,"is_reserved":false,"is_disabled":false,"rental_uris":{"android":"levelo://app?vid=7d19a255-9f7a-4d0e-beba-2bfebb3c7b5e","ios":"levelo://app?vid=7d19a255-9f7a-4d0e-beba-2bfebb3c7b5e"},"vehicle_type_id":"4","last_reported":1692486364,"current_range_meters":22400,"station_id":"ce4bhr92rcd13ifvqhrg","pricing_plan_id":"free"},{"bike_id":"708f7f21-b221-4c14-94b6-b5d8e3289350","system_id":"levelo_inurba_marseille","lat":43.33048,"lon":5.38918,"is_reserved":false,"is_disabled":false,"rental_uris":{"android":"levelo://app?vid=708f7f21-b221-4c14-94b6-b5d8e3289350","ios":"levelo://app?vid=708f7f21-b221-4c14-94b6-b5d8e3289350"},"vehicle_type_id":"4","last_reported":1692486364,"current_range_meters":20800,"station_id":"ce4bhr92rcd13ifvqhrg","pricing_plan_id":"free"},{"bike_id":"86535332-25ae-4735-984f-2b7a7387a6af","system_id":"levelo_inurba_marseille","lat":43.33049,"lon":5.38917,"is_reserved":false,"is_disabled":false,"rental_uris":{"android":"levelo://app?vid=86535332-25ae-4735-984f-2b7a7387a6af","ios":"levelo://app?vid=86535332-25ae-4735-984f-2b7a7387a6af"},"vehicle_type_id":"4","last_reported":1692486364,"current_range_meters":30400,"station_id":"ce4bhr92rcd13ifvqhrg","pricing_plan_id":"free"},{"bike_id":"70b945ba-f638-423a-86f4-61bdde9d3373","system_id":"levelo_inurba_marseille","lat":43.29787,"lon":5.39347,"is_reserved":false,"is_disabled":false,"rental_uris":{"android":"levelo://app?vid=70b945ba-f638-423a-86f4-61bdde9d3373","ios":"levelo://app?vid=70b945ba-f638-423a-86f4-61bdde9d3373"},"vehicle_type_id":"4","last_reported":1692486364,"current_range_meters":4000,"station_id":"chh1huq6cuj3fo74tm60","pricing_plan_id":"free"},{"bike_id":"122303ab-a008-459e-8ae9-9394327d8432","system_id":"levelo_inurba_marseille","lat":43.297815,"lon":5.393548,"is_reserved":false,"is_disabled":false,"rental_uris":{"android":"levelo://app?vid=122303ab-a008-459e-8ae9-9394327d8432","ios":"levelo://app?vid=122303ab-a008-459e-8ae9-9394327d8432"},"vehicle_type_id":"4","last_reported":1692486364,"current_range_meters":1200,"station_id":"chh1huq6cuj3fo74tm60","pricing_plan_id":"free"},{"bike_id":"1b325d19-de2b-4d2f-8a02-84b14ce21fd3","system_id":"levelo_inurba_marseille","lat":43.295169,"lon":5.390426,"is_reserved":false,"is_disabled":false,"rental_uris":{"android":"levelo://app?vid=1b325d19-de2b-4d2f-8a02-84b14ce21fd3","ios":"levelo://app?vid=1b325d19-de2b-4d2f-8a02-84b14ce21fd3"},"vehicle_type_id":"4","last_reported":1692486364,"current_range_meters":18000,"station_id":"ce4bh3p2rcd13ifvqdp0","pricing_plan_id":"free"},{"bike_id":"b3dcc6a1-7051-4f60-bca0-05868f78c073","system_id":"levelo_inurba_marseille","lat":43.295169,"lon":5.390426,"is_reserved":false,"is_disabled":false,"rental_uris":{"android":"levelo://app?vid=b3dcc6a1-7051-4f60-bca0-05868f78c073","ios":"levelo://app?vid=b3dcc6a1-7051-4f60-bca0-05868f78c073"},"vehicle_type_id":"4","last_reported":1692486364,"current_range_meters":23600,"station_id":"ce4bh3p2rcd13ifvqdp0","pricing_plan_id":"free"},{"bike_id":"09d3d904-f358-4f8c-974b-375f5d62d1fb","system_id":"levelo_inurba_marseille","lat":43.295169,"lon":5.390426,"is_reserved":false,"is_disabled":false,"rental_uris":{"android":"levelo://app?vid=09d3d904-f358-4f8c-974b-375f5d62d1fb","ios":"levelo://app?vid=09d3d904-f358-4f8c-974b-375f5d62d1fb"},"vehicle_type_id":"4","last_reported":1692486364,"current_range_meters":11200,"station_id":"ce4bh3p2rcd13ifvqdp0","pricing_plan_id":"free"},{"bike_id":"73146a94-a717-4547-91d3-5e01d14b093e","system_id":"levelo_inurba_marseille","lat":43.295169,"lon":5.390426,"is_reserved":false,"is_disabled":false,"rental_uris":{"android":"levelo://app?vid=73146a94-a717-4547-91d3-5e01d14b093e","ios":"levelo://app?vid=73146a94-a717-4547-91d3-5e01d14b093e"},"vehicle_type_id":"4","last_reported":1692486364,"current_range_meters":0,"station_id":"ce4bh3p2rcd13ifvqdp0","pricing_plan_id":"free"},{"bike_id":"eff46615-ff2c-400b-87bc-be398e4456ff","system_id":"levelo_inurba_marseille","lat":43.2901,"lon":5.381269,"is_reserved":false,"is_disabled":false,"rental_uris":{"android":"levelo://app?vid=eff46615-ff2c-400b-87bc-be398e4456ff","ios":"levelo://app?vid=eff46615-ff2c-400b-87bc-be398e4456ff"},"vehicle_type_id":"4","last_reported":1692486364,"current_range_meters":31200,"station_id":"ce4bh4p2rcd13ifvqe1g","pricing_plan_id":"free"},{"bike_id":"bd18cc83-308c-44dc-98c2-4cd13d64ba9d","system_id":"levelo_inurba_marseille","lat":43.290218,"lon":5.381379,"is_reserved":false,"is_disabled":false,"rental_uris":{"android":"levelo://app?vid=bd18cc83-308c-44dc-98c2-4cd13d64ba9d","ios":"levelo://app?vid=bd18cc83-308c-44dc-98c2-4cd13d64ba9d"},"vehicle_type_id":"4","last_reported":1692486364,"current_range_meters":31200,"station_id":"ce4bh4p2rcd13ifvqe1g","pricing_plan_id":"free"},{"bike_id":"76b58b56-2038-4531-a6fd-61ee18af5182","system_id":"levelo_inurba_marseille","lat":43.2901,"lon":5.381269,"is_reserved":false,"is_disabled":false,"rental_uris":{"android":"levelo://app?vid=76b58b56-2038-4531-a6fd-61ee18af5182","ios":"levelo://app?vid=76b58b56-2038-4531-a6fd-61ee18af5182"},"vehicle_type_id":"4","last_reported":1692486364,"current_range_meters":31200,"station_id":"ce4bh4p2rcd13ifvqe1g","pricing_plan_id":"free"},{"bike_id":"5605b26e-d398-45a1-b3ca-72a9887f4c11","system_id":"levelo_inurba_marseille","lat":43.2901,"lon":5.381269,"is_reserved":false,"is_disabled":false,"rental_uris":{"android":"levelo://app?vid=5605b26e-d398-45a1-b3ca-72a9887f4c11","ios":"levelo://app?vid=5605b26e-d398-45a1-b3ca-72a9887f4c11"},"vehicle_type_id":"4","last_reported":1692486364,"current_range_meters":31200,"station_id":"ce4bh4p2rcd13ifvqe1g","pricing_plan_id":"free"},{"bike_id":"299a9cb6-d43e-4430-bf8c-66dc9ecfe2fd","system_id":"levelo_inurba_marseille","lat":43.2901,"lon":5.381269,"is_reserved":false,"is_disabled":false,"rental_uris":{"android":"levelo://app?vid=299a9cb6-d43e-4430-bf8c-66dc9ecfe2fd","ios":"levelo://app?vid=299a9cb6-d43e-4430-bf8c-66dc9ecfe2fd"},"vehicle_type_id":"4","last_reported":1692486364,"current_range_meters":31200,"station_id":"ce4bh4p2rcd13ifvqe1g","pricing_plan_id":"free"},{"bike_id":"fdba5af8-2355-4f92-b9b1-7abebb728036","system_id":"levelo_inurba_marseille","lat":43.309371,"lon":5.401449,"is_reserved":false,"is_disabled":false,"rental_uris":{"android":"levelo://app?vid=fdba5af8-2355-4f92-b9b1-7abebb728036","ios":"levelo://app?vid=fdba5af8-2355-4f92-b9b1-7abebb728036"},"vehicle_type_id":"4","last_reported":1692486364,"current_range_meters":0,"station_id":"ce4bgvp2rcd13ifvqct0","pricing_plan_id":"free"},{"bike_id":"ebea3e90-b4a3-4a58-9d43-4dfbd0e962f3","system_id":"levelo_inurba_marseille","lat":43.337457,"lon":5.374633,"is_reserved":false,"is_disabled":false,"rental_uris":{"android":"levelo://app?vid=ebea3e90-b4a3-4a58-9d43-4dfbd0e962f3","ios":"levelo://app?vid=ebea3e90-b4a3-4a58-9d43-4dfbd0e962f3"},"vehicle_type_id":"4","last_reported":1692486364,"current_range_meters":29600,"station_id":"","pricing_plan_id":"free"},{"bike_id":"38cd9f63-a18d-4f06-91c5-b8e14018bad3","system_id":"levelo_inurba_marseille","lat":43.309371,"lon":5.401449,"is_reserved":false,"is_disabled":false,"rental_uris":{"android":"levelo://app?vid=38cd9f63-a18d-4f06-91c5-b8e14018bad3","ios":"levelo://app?vid=38cd9f63-a18d-4f06-91c5-b8e14018bad3"},"vehicle_type_id":"4","last_reported":1692486364,"current_range_meters":0,"station_id":"ce4bgvp2rcd13ifvqct0","pricing_plan_id":"free"},{"bike_id":"b4285352-367f-4ff5-ae20-c33baa545261","system_id":"levelo_inurba_marseille","lat":43.30138,"lon":5.39862,"is_reserved":false,"is_disabled":false,"rental_uris":{"android":"levelo://app?vid=b4285352-367f-4ff5-ae20-c33baa545261","ios":"levelo://app?vid=b4285352-367f-4ff5-ae20-c33baa545261"},"vehicle_type_id":"4","last_reported":1692486364,"current_range_meters":6800,"station_id":"ce4bh0h2rcd13ifvqd40","pricing_plan_id":"free"},{"bike_id":"4749dfa4-be2a-4938-96db-3dee16928a5e","system_id":"levelo_inurba_marseille","lat":43.30144,"lon":5.39869,"is_reserved":false,"is_disabled":false,"rental_uris":{"android":"levelo://app?vid=4749dfa4-be2a-4938-96db-3dee16928a5e","ios":"levelo://app?vid=4749dfa4-be2a-4938-96db-3dee16928a5e"},"vehicle_type_id":"4","last_reported":1692486364,"current_range_meters":30400,"station_id":"ce4bh0h2rcd13ifvqd40","pricing_plan_id":"free"},{"bike_id":"30c75a7e-ed04-4fc8-a814-c8bc4a52a6eb","system_id":"levelo_inurba_marseille","lat":43.298681,"lon":5.397225,"is_reserved":false,"is_disabled":false,"rental_uris":{"android":"levelo://app?vid=30c75a7e-ed04-4fc8-a814-c8bc4a52a6eb","ios":"levelo://app?vid=30c75a7e-ed04-4fc8-a814-c8bc4a52a6eb"},"vehicle_type_id":"4","last_reported":1692486364,"current_range_meters":13600,"station_id":"ce4bh0h2rcd13ifvqd50","pricing_plan_id":"free"},{"bike_id":"23542ef4-3ab2-45de-b0be-af3f2110fe9d","system_id":"levelo_inurba_marseille","lat":43.304188,"lon":5.412904,"is_reserved":false,"is_disabled":false,"rental_uris":{"android":"levelo://app?vid=23542ef4-3ab2-45de-b0be-af3f2110fe9d","ios":"levelo://app?vid=23542ef4-3ab2-45de-b0be-af3f2110fe9d"},"vehicle_type_id":"4","last_reported":1692486364,"current_range_meters":28000,"station_id":"ce4bhop2rcd13ifvqh8g","pricing_plan_id":"free"},{"bike_id":"a895eeb5-0b6a-4e86-9afd-fd93ae119cf4","system_id":"levelo_inurba_marseille","lat":43.298681,"lon":5.397225,"is_reserved":false,"is_disabled":false,"rental_uris":{"android":"levelo://app?vid=a895eeb5-0b6a-4e86-9afd-fd93ae119cf4","ios":"levelo://app?vid=a895eeb5-0b6a-4e86-9afd-fd93ae119cf4"},"vehicle_type_id":"4","last_reported":1692486364,"current_range_meters":6800,"station_id":"ce4bh0h2rcd13ifvqd50","pricing_plan_id":"free"},{"bike_id":"75199276-b705-4ad7-b6a9-49aeaa84628a","system_id":"levelo_inurba_marseille","lat":43.286591,"lon":5.363346,"is_reserved":false,"is_disabled":false,"rental_uris":{"android":"levelo://app?vid=75199276-b705-4ad7-b6a9-49aeaa84628a","ios":"levelo://app?vid=75199276-b705-4ad7-b6a9-49aeaa84628a"},"vehicle_type_id":"4","last_reported":1692486364,"current_range_meters":31200,"station_id":"ce4bhah2rcd13ifvqej0","pricing_plan_id":"free"},{"bike_id":"f1c92a05-f147-4555-9eea-70dcfc516f70","system_id":"levelo_inurba_marseille","lat":43.29523,"lon":5.39393,"is_reserved":false,"is_disabled":false,"rental_uris":{"android":"levelo://app?vid=f1c92a05-f147-4555-9eea-70dcfc516f70","ios":"levelo://app?vid=f1c92a05-f147-4555-9eea-70dcfc516f70"},"vehicle_type_id":"4","last_reported":1692486364,"current_range_meters":16000,"station_id":"ce4bh292rcd13ifvqdf0","pricing_plan_id":"free"},{"bike_id":"008ec54c-0841-4c75-919e-f9feac16af21","system_id":"levelo_inurba_marseille","lat":43.286961,"lon":5.373785,"is_reserved":false,"is_disabled":false,"rental_uris":{"android":"levelo://app?vid=008ec54c-0841-4c75-919e-f9feac16af21","ios":"levelo://app?vid=008ec54c-0841-4c75-919e-f9feac16af21"},"vehicle_type_id":"4","last_reported":1692486364,"current_range_meters":24000,"station_id":"ce4bh3p2rcd13ifvqdq0","pricing_plan_id":"free"},{"bike_id":"7af33a0f-faa4-459a-8ff7-b29e7a95bfcc","system_id":"levelo_inurba_marseille","lat":43.30256,"lon":5.40066,"is_reserved":false,"is_disabled":false,"rental_uris":{"android":"levelo://app?vid=7af33a0f-faa4-459a-8ff7-b29e7a95bfcc","ios":"levelo://app?vid=7af33a0f-faa4-459a-8ff7-b29e7a95bfcc"},"vehicle_type_id":"4","last_reported":1692486364,"current_range_meters":19600,"station_id":"","pricing_plan_id":"free"},{"bike_id":"24a32764-9cfa-445a-8cc5-9478fca2ecbf","system_id":"levelo_inurba_marseille","lat":43.3024,"lon":5.4006,"is_reserved":false,"is_disabled":false,"rental_uris":{"android":"levelo://app?vid=24a32764-9cfa-445a-8cc5-9478fca2ecbf","ios":"levelo://app?vid=24a32764-9cfa-445a-8cc5-9478fca2ecbf"},"vehicle_type_id":"4","last_reported":1692486364,"current_range_meters":20800,"station_id":"ce4bgvh2rcd13ifvqcs0","pricing_plan_id":"free"},{"bike_id":"4ae00035-f661-4343-8548-c6a621612092","system_id":"levelo_inurba_marseille","lat":43.302759,"lon":5.400793,"is_reserved":false,"is_disabled":false,"rental_uris":{"android":"levelo://app?vid=4ae00035-f661-4343-8548-c6a621612092","ios":"levelo://app?vid=4ae00035-f661-4343-8548-c6a621612092"},"vehicle_type_id":"4","last_reported":1692486364,"current_range_meters":22000,"station_id":"ce4bgvh2rcd13ifvqcs0","pricing_plan_id":"free"},{"bike_id":"53e18d14-f2f1-46ee-8354-d5dcc4b1d131","system_id":"levelo_inurba_marseille","lat":43.302759,"lon":5.400793,"is_reserved":false,"is_disabled":false,"rental_uris":{"android":"levelo://app?vid=53e18d14-f2f1-46ee-8354-d5dcc4b1d131","ios":"levelo://app?vid=53e18d14-f2f1-46ee-8354-d5dcc4b1d131"},"vehicle_type_id":"4","last_reported":1692486364,"current_range_meters":21200,"station_id":"ce4bgvh2rcd13ifvqcs0","pricing_plan_id":"free"},{"bike_id":"c2a23576-a824-4e1a-9d42-e7b9a36da2cf","system_id":"levelo_inurba_marseille","lat":43.302759,"lon":5.400793,"is_reserved":false,"is_disabled":false,"rental_uris":{"android":"levelo://app?vid=c2a23576-a824-4e1a-9d42-e7b9a36da2cf","ios":"levelo://app?vid=c2a23576-a824-4e1a-9d42-e7b9a36da2cf"},"vehicle_type_id":"4","last_reported":1692486364,"current_range_meters":16000,"station_id":"ce4bgvh2rcd13ifvqcs0","pricing_plan_id":"free"},{"bike_id":"2311768e-633b-4b4b-aea4-474fa03e9e2c","system_id":"levelo_inurba_marseille","lat":43.302759,"lon":5.400793,"is_reserved":false,"is_disabled":false,"rental_uris":{"android":"levelo://app?vid=2311768e-633b-4b4b-aea4-474fa03e9e2c","ios":"levelo://app?vid=2311768e-633b-4b4b-aea4-474fa03e9e2c"},"vehicle_type_id":"4","last_reported":1692486364,"current_range_meters":6400,"station_id":"ce4bgvh2rcd13ifvqcs0","pricing_plan_id":"free"},{"bike_id":"c262baec-1bc7-43cc-827f-1778c29e4990","system_id":"levelo_inurba_marseille","lat":43.287184,"lon":5.37937,"is_reserved":false,"is_disabled":false,"rental_uris":{"android":"levelo://app?vid=c262baec-1bc7-43cc-827f-1778c29e4990","ios":"levelo://app?vid=c262baec-1bc7-43cc-827f-1778c29e4990"},"vehicle_type_id":"4","last_reported":1692486364,"current_range_meters":25200,"station_id":"ce4bh9p2rcd13ifvqec0","pricing_plan_id":"free"},{"bike_id":"0278445c-f55e-478d-b087-1118ca288042","system_id":"levelo_inurba_marseille","lat":43.287184,"lon":5.37937,"is_reserved":false,"is_disabled":false,"rental_uris":{"android":"levelo://app?vid=0278445c-f55e-478d-b087-1118ca288042","ios":"levelo://app?vid=0278445c-f55e-478d-b087-1118ca288042"},"vehicle_type_id":"4","last_reported":1692486364,"current_range_meters":2400,"station_id":"ce4bh9p2rcd13ifvqec0","pricing_plan_id":"free"},{"bike_id":"e0626edd-6ac3-47bc-a336-fd641a34a48a","system_id":"levelo_inurba_marseille","lat":43.287184,"lon":5.37937,"is_reserved":false,"is_disabled":false,"rental_uris":{"android":"levelo://app?vid=e0626edd-6ac3-47bc-a336-fd641a34a48a","ios":"levelo://app?vid=e0626edd-6ac3-47bc-a336-fd641a34a48a"},"vehicle_type_id":"4","last_reported":1692486364,"current_range_meters":0,"station_id":"ce4bh9p2rcd13ifvqec0","pricing_plan_id":"free"},{"bike_id":"7da9e437-1e79-4b5f-9ab0-65254ac17dd7","system_id":"levelo_inurba_marseille","lat":43.31651,"lon":5.40428,"is_reserved":false,"is_disabled":false,"rental_uris":{"android":"levelo://app?vid=7da9e437-1e79-4b5f-9ab0-65254ac17dd7","ios":"levelo://app?vid=7da9e437-1e79-4b5f-9ab0-65254ac17dd7"},"vehicle_type_id":"4","last_reported":1692486364,"current_range_meters":24000,"station_id":"ce4bh012rcd13ifvqd00","pricing_plan_id":"free"},{"bike_id":"3900aecb-e903-4fb7-be12-31c6fe1392f5","system_id":"levelo_inurba_marseille","lat":43.28476,"lon":5.3588,"is_reserved":false,"is_disabled":false,"rental_uris":{"android":"levelo://app?vid=3900aecb-e903-4fb7-be12-31c6fe1392f5","ios":"levelo://app?vid=3900aecb-e903-4fb7-be12-31c6fe1392f5"},"vehicle_type_id":"4","last_reported":1692486364,"current_range_meters":0,"station_id":"ce4bhah2rcd13ifvqei0","pricing_plan_id":"free"},{"bike_id":"46edc8a3-d453-4c86-8399-6fc4dfbeb4b6","system_id":"levelo_inurba_marseille","lat":43.294314,"lon":5.397498,"is_reserved":false,"is_disabled":false,"rental_uris":{"android":"levelo://app?vid=46edc8a3-d453-4c86-8399-6fc4dfbeb4b6","ios":"levelo://app?vid=46edc8a3-d453-4c86-8399-6fc4dfbeb4b6"},"vehicle_type_id":"4","last_reported":1692486364,"current_range_meters":4400,"station_id":"ce4bh3h2rcd13ifvqdo0","pricing_plan_id":"free"},{"bike_id":"8e3d8fa2-47e0-408c-a17c-cb5e06820dbf","system_id":"levelo_inurba_marseille","lat":43.294314,"lon":5.397498,"is_reserved":false,"is_disabled":false,"rental_uris":{"android":"levelo://app?vid=8e3d8fa2-47e0-408c-a17c-cb5e06820dbf","ios":"levelo://app?vid=8e3d8fa2-47e0-408c-a17c-cb5e06820dbf"},"vehicle_type_id":"4","last_reported":1692486364,"current_range_meters":14400,"station_id":"ce4bh3h2rcd13ifvqdo0","pricing_plan_id":"free"},{"bike_id":"35eec3a1-aa54-4990-8eb4-78e6c0dd24d0","system_id":"levelo_inurba_marseille","lat":43.285856,"lon":5.350771,"is_reserved":false,"is_disabled":false,"rental_uris":{"android":"levelo://app?vid=35eec3a1-aa54-4990-8eb4-78e6c0dd24d0","ios":"levelo://app?vid=35eec3a1-aa54-4990-8eb4-78e6c0dd24d0"},"vehicle_type_id":"4","last_reported":1692486364,"current_range_meters":8800,"station_id":"ce4bhch2rcd13ifvqeug","pricing_plan_id":"free"},{"bike_id":"fc62c0c5-551b-43b8-bfaf-2a81d2428c26","system_id":"levelo_inurba_marseille","lat":43.2842,"lon":5.37517,"is_reserved":false,"is_disabled":false,"rental_uris":{"android":"levelo://app?vid=fc62c0c5-551b-43b8-bfaf-2a81d2428c26","ios":"levelo://app?vid=fc62c0c5-551b-43b8-bfaf-2a81d2428c26"},"vehicle_type_id":"4","last_reported":1692486364,"current_range_meters":18000,"station_id":"ce4bh412rcd13ifvqds0","pricing_plan_id":"free"},{"bike_id":"2363d3b5-6c15-401a-a59c-ee80bd4af927","system_id":"levelo_inurba_marseille","lat":43.28415,"lon":5.37522,"is_reserved":false,"is_disabled":false,"rental_uris":{"android":"levelo://app?vid=2363d3b5-6c15-401a-a59c-ee80bd4af927","ios":"levelo://app?vid=2363d3b5-6c15-401a-a59c-ee80bd4af927"},"vehicle_type_id":"4","last_reported":1692486364,"current_range_meters":19200,"station_id":"ce4bh412rcd13ifvqds0","pricing_plan_id":"free"},{"bike_id":"c3876631-7286-43fd-844c-d45b53e4ce44","system_id":"levelo_inurba_marseille","lat":43.2841,"lon":5.37513,"is_reserved":false,"is_disabled":false,"rental_uris":{"android":"levelo://app?vid=c3876631-7286-43fd-844c-d45b53e4ce44","ios":"levelo://app?vid=c3876631-7286-43fd-844c-d45b53e4ce44"},"vehicle_type_id":"4","last_reported":1692486364,"current_range_meters":400,"station_id":"ce4bh412rcd13ifvqds0","pricing_plan_id":"free"},{"bike_id":"73eb7953-a425-4547-a4cb-4862d326ce17","system_id":"levelo_inurba_marseille","lat":43.295713,"lon":5.399639,"is_reserved":false,"is_disabled":false,"rental_uris":{"android":"levelo://app?vid=73eb7953-a425-4547-a4cb-4862d326ce17","ios":"levelo://app?vid=73eb7953-a425-4547-a4cb-4862d326ce17"},"vehicle_type_id":"4","last_reported":1692486364,"current_range_meters":0,"station_id":"ce4bh312rcd13ifvqdj0","pricing_plan_id":"free"},{"bike_id":"5d46cdab-8f5e-476a-a223-e7332f073b68","system_id":"levelo_inurba_marseille","lat":43.295713,"lon":5.399639,"is_reserved":false,"is_disabled":false,"rental_uris":{"android":"levelo://app?vid=5d46cdab-8f5e-476a-a223-e7332f073b68","ios":"levelo://app?vid=5d46cdab-8f5e-476a-a223-e7332f073b68"},"vehicle_type_id":"4","last_reported":1692486364,"current_range_meters":4000,"station_id":"ce4bh312rcd13ifvqdj0","pricing_plan_id":"free"},{"bike_id":"41a77056-eb8b-45b8-8f50-4260437a573d","system_id":"levelo_inurba_marseille","lat":43.295713,"lon":5.399639,"is_reserved":false,"is_disabled":false,"rental_uris":{"android":"levelo://app?vid=41a77056-eb8b-45b8-8f50-4260437a573d","ios":"levelo://app?vid=41a77056-eb8b-45b8-8f50-4260437a573d"},"vehicle_type_id":"4","last_reported":1692486364,"current_range_meters":15600,"station_id":"ce4bh312rcd13ifvqdj0","pricing_plan_id":"free"},{"bike_id":"bdc3f47b-e1d1-4a3a-b0c1-e8a91d4b0833","system_id":"levelo_inurba_marseille","lat":43.31882,"lon":5.40734,"is_reserved":false,"is_disabled":false,"rental_uris":{"android":"levelo://app?vid=bdc3f47b-e1d1-4a3a-b0c1-e8a91d4b0833","ios":"levelo://app?vid=bdc3f47b-e1d1-4a3a-b0c1-e8a91d4b0833"},"vehicle_type_id":"4","last_reported":1692486364,"current_range_meters":19600,"station_id":"","pricing_plan_id":"free"},{"bike_id":"e78bd4e4-c14d-4a01-b72e-65351e2b8a18","system_id":"levelo_inurba_marseille","lat":43.30318,"lon":5.40631,"is_reserved":false,"is_disabled":false,"rental_uris":{"android":"levelo://app?vid=e78bd4e4-c14d-4a01-b72e-65351e2b8a18","ios":"levelo://app?vid=e78bd4e4-c14d-4a01-b72e-65351e2b8a18"},"vehicle_type_id":"4","last_reported":1692486364,"current_range_meters":0,"station_id":"","pricing_plan_id":"free"},{"bike_id":"17105054-6fd8-493b-b0be-1ed88688055c","system_id":"levelo_inurba_marseille","lat":43.33721,"lon":5.39182,"is_reserved":false,"is_disabled":false,"rental_uris":{"android":"levelo://app?vid=17105054-6fd8-493b-b0be-1ed88688055c","ios":"levelo://app?vid=17105054-6fd8-493b-b0be-1ed88688055c"},"vehicle_type_id":"4","last_reported":1692486364,"current_range_meters":29200,"station_id":"ce4bhr92rcd13ifvqhsg","pricing_plan_id":"free"},{"bike_id":"7d2969ab-a065-4a23-b19e-667095d799c9","system_id":"levelo_inurba_marseille","lat":43.33718,"lon":5.3919,"is_reserved":false,"is_disabled":false,"rental_uris":{"android":"levelo://app?vid=7d2969ab-a065-4a23-b19e-667095d799c9","ios":"levelo://app?vid=7d2969ab-a065-4a23-b19e-667095d799c9"},"vehicle_type_id":"4","last_reported":1692486364,"current_range_meters":9200,"station_id":"ce4bhr92rcd13ifvqhsg","pricing_plan_id":"free"},{"bike_id":"02f29c2d-847e-4148-9200-bdb4c19acc46","system_id":"levelo_inurba_marseille","lat":43.33721,"lon":5.39185,"is_reserved":false,"is_disabled":false,"rental_uris":{"android":"levelo://app?vid=02f29c2d-847e-4148-9200-bdb4c19acc46","ios":"levelo://app?vid=02f29c2d-847e-4148-9200-bdb4c19acc46"},"vehicle_type_id":"4","last_reported":1692486364,"current_range_meters":29200,"station_id":"ce4bhr92rcd13ifvqhsg","pricing_plan_id":"free"},{"bike_id":"72fc020d-a1d4-460a-a3d1-6187a1ea65d2","system_id":"levelo_inurba_marseille","lat":43.33725,"lon":5.3918,"is_reserved":false,"is_disabled":false,"rental_uris":{"android":"levelo://app?vid=72fc020d-a1d4-460a-a3d1-6187a1ea65d2","ios":"levelo://app?vid=72fc020d-a1d4-460a-a3d1-6187a1ea65d2"},"vehicle_type_id":"4","last_reported":1692486364,"current_range_meters":26400,"station_id":"ce4bhr92rcd13ifvqhsg","pricing_plan_id":"free"},{"bike_id":"db0a8054-293b-4caa-b72d-316d0557cd0c","system_id":"levelo_inurba_marseille","lat":43.32334,"lon":5.40619,"is_reserved":false,"is_disabled":false,"rental_uris":{"android":"levelo://app?vid=db0a8054-293b-4caa-b72d-316d0557cd0c","ios":"levelo://app?vid=db0a8054-293b-4caa-b72d-316d0557cd0c"},"vehicle_type_id":"4","last_reported":1692486364,"current_range_meters":17200,"station_id":"","pricing_plan_id":"free"},{"bike_id":"12c0f407-4ac2-49d3-b1e8-783bd26a8644","system_id":"levelo_inurba_marseille","lat":43.33718,"lon":5.39194,"is_reserved":false,"is_disabled":false,"rental_uris":{"android":"levelo://app?vid=12c0f407-4ac2-49d3-b1e8-783bd26a8644","ios":"levelo://app?vid=12c0f407-4ac2-49d3-b1e8-783bd26a8644"},"vehicle_type_id":"4","last_reported":1692486364,"current_range_meters":28800,"station_id":"ce4bhr92rcd13ifvqhsg","pricing_plan_id":"free"},{"bike_id":"baef72cb-b22b-4d30-82e9-ac3a300140d7","system_id":"levelo_inurba_marseille","lat":43.323464,"lon":5.406297,"is_reserved":false,"is_disabled":false,"rental_uris":{"android":"levelo://app?vid=baef72cb-b22b-4d30-82e9-ac3a300140d7","ios":"levelo://app?vid=baef72cb-b22b-4d30-82e9-ac3a300140d7"},"vehicle_type_id":"4","last_reported":1692486364,"current_range_meters":30800,"station_id":"ce4bhq92rcd13ifvqhjg","pricing_plan_id":"free"},{"bike_id":"d6b2beca-f6dc-4b6e-8c6e-d6e59c330286","system_id":"levelo_inurba_marseille","lat":43.32335,"lon":5.40619,"is_reserved":false,"is_disabled":false,"rental_uris":{"android":"levelo://app?vid=d6b2beca-f6dc-4b6e-8c6e-d6e59c330286","ios":"levelo://app?vid=d6b2beca-f6dc-4b6e-8c6e-d6e59c330286"},"vehicle_type_id":"4","last_reported":1692486364,"current_range_meters":14400,"station_id":"ce4bhq92rcd13ifvqhjg","pricing_plan_id":"free"},{"bike_id":"f2dec21d-e1ba-4c13-a07a-5d853e46abbf","system_id":"levelo_inurba_marseille","lat":43.32334,"lon":5.4062,"is_reserved":false,"is_disabled":false,"rental_uris":{"android":"levelo://app?vid=f2dec21d-e1ba-4c13-a07a-5d853e46abbf","ios":"levelo://app?vid=f2dec21d-e1ba-4c13-a07a-5d853e46abbf"},"vehicle_type_id":"4","last_reported":1692486364,"current_range_meters":2400,"station_id":"ce4bhq92rcd13ifvqhjg","pricing_plan_id":"free"},{"bike_id":"e0be890e-9aa2-4fa9-9c4a-6a79ed37f68e","system_id":"levelo_inurba_marseille","lat":43.28496,"lon":5.38415,"is_reserved":false,"is_disabled":false,"rental_uris":{"android":"levelo://app?vid=e0be890e-9aa2-4fa9-9c4a-6a79ed37f68e","ios":"levelo://app?vid=e0be890e-9aa2-4fa9-9c4a-6a79ed37f68e"},"vehicle_type_id":"4","last_reported":1692486364,"current_range_meters":16000,"station_id":"ce4bh512rcd13ifvqe3g","pricing_plan_id":"free"},{"bike_id":"d3b7ca63-e616-456b-9e2d-d17ed72c8be4","system_id":"levelo_inurba_marseille","lat":43.32333,"lon":5.40621,"is_reserved":false,"is_disabled":false,"rental_uris":{"android":"levelo://app?vid=d3b7ca63-e616-456b-9e2d-d17ed72c8be4","ios":"levelo://app?vid=d3b7ca63-e616-456b-9e2d-d17ed72c8be4"},"vehicle_type_id":"4","last_reported":1692486364,"current_range_meters":7600,"station_id":"ce4bhq92rcd13ifvqhjg","pricing_plan_id":"free"},{"bike_id":"d97a4812-dc20-44c9-9507-728e24101e66","system_id":"levelo_inurba_marseille","lat":43.32333,"lon":5.40622,"is_reserved":false,"is_disabled":false,"rental_uris":{"android":"levelo://app?vid=d97a4812-dc20-44c9-9507-728e24101e66","ios":"levelo://app?vid=d97a4812-dc20-44c9-9507-728e24101e66"},"vehicle_type_id":"4","last_reported":1692486364,"current_range_meters":0,"station_id":"ce4bhq92rcd13ifvqhjg","pricing_plan_id":"free"},{"bike_id":"0dda2562-498f-4f90-abfb-f3c666db2d2e","system_id":"levelo_inurba_marseille","lat":43.33725,"lon":5.39187,"is_reserved":false,"is_disabled":false,"rental_uris":{"android":"levelo://app?vid=0dda2562-498f-4f90-abfb-f3c666db2d2e","ios":"levelo://app?vid=0dda2562-498f-4f90-abfb-f3c666db2d2e"},"vehicle_type_id":"4","last_reported":1692486364,"current_range_meters":22800,"station_id":"ce4bhr92rcd13ifvqhsg","pricing_plan_id":"free"},{"bike_id":"2df00781-d244-4c8e-a1fa-49dc3db8cc40","system_id":"levelo_inurba_marseille","lat":43.323534,"lon":5.406133,"is_reserved":false,"is_disabled":false,"rental_uris":{"android":"levelo://app?vid=2df00781-d244-4c8e-a1fa-49dc3db8cc40","ios":"levelo://app?vid=2df00781-d244-4c8e-a1fa-49dc3db8cc40"},"vehicle_type_id":"4","last_reported":1692486364,"current_range_meters":5600,"station_id":"ce4bhq92rcd13ifvqhjg","pricing_plan_id":"free"},{"bike_id":"2b3f06e0-8f2d-4133-9563-f19f57fe46e5","system_id":"levelo_inurba_marseille","lat":43.33717,"lon":5.391857,"is_reserved":false,"is_disabled":false,"rental_uris":{"android":"levelo://app?vid=2b3f06e0-8f2d-4133-9563-f19f57fe46e5","ios":"levelo://app?vid=2b3f06e0-8f2d-4133-9563-f19f57fe46e5"},"vehicle_type_id":"4","last_reported":1692486364,"current_range_meters":9600,"station_id":"ce4bhr92rcd13ifvqhsg","pricing_plan_id":"free"},{"bike_id":"f771b1ad-8927-491b-8919-c54810690370","system_id":"levelo_inurba_marseille","lat":43.32336,"lon":5.40623,"is_reserved":false,"is_disabled":false,"rental_uris":{"android":"levelo://app?vid=f771b1ad-8927-491b-8919-c54810690370","ios":"levelo://app?vid=f771b1ad-8927-491b-8919-c54810690370"},"vehicle_type_id":"4","last_reported":1692486364,"current_range_meters":6400,"station_id":"ce4bhq92rcd13ifvqhjg","pricing_plan_id":"free"},{"bike_id":"efe8b264-ad35-4139-b98d-40041f267f16","system_id":"levelo_inurba_marseille","lat":43.33728,"lon":5.39184,"is_reserved":false,"is_disabled":false,"rental_uris":{"android":"levelo://app?vid=efe8b264-ad35-4139-b98d-40041f267f16","ios":"levelo://app?vid=efe8b264-ad35-4139-b98d-40041f267f16"},"vehicle_type_id":"4","last_reported":1692486364,"current_range_meters":26400,"station_id":"ce4bhr92rcd13ifvqhsg","pricing_plan_id":"free"},{"bike_id":"e45012d8-673a-4bd6-93d3-a427f767a00d","system_id":"levelo_inurba_marseille","lat":43.33728,"lon":5.39187,"is_reserved":false,"is_disabled":false,"rental_uris":{"android":"levelo://app?vid=e45012d8-673a-4bd6-93d3-a427f767a00d","ios":"levelo://app?vid=e45012d8-673a-4bd6-93d3-a427f767a00d"},"vehicle_type_id":"4","last_reported":1692486364,"current_range_meters":26800,"station_id":"ce4bhr92rcd13ifvqhsg","pricing_plan_id":"free"},{"bike_id":"afec74e1-dc2b-42ed-af0f-94d00f5fc581","system_id":"levelo_inurba_marseille","lat":43.32336,"lon":5.40626,"is_reserved":false,"is_disabled":false,"rental_uris":{"android":"levelo://app?vid=afec74e1-dc2b-42ed-af0f-94d00f5fc581","ios":"levelo://app?vid=afec74e1-dc2b-42ed-af0f-94d00f5fc581"},"vehicle_type_id":"4","last_reported":1692486364,"current_range_meters":4400,"station_id":"ce4bhq92rcd13ifvqhjg","pricing_plan_id":"free"},{"bike_id":"c3f1a799-40b8-4098-9115-0b78fcf6eb78","system_id":"levelo_inurba_marseille","lat":43.32344,"lon":5.40622,"is_reserved":false,"is_disabled":false,"rental_uris":{"android":"levelo://app?vid=c3f1a799-40b8-4098-9115-0b78fcf6eb78","ios":"levelo://app?vid=c3f1a799-40b8-4098-9115-0b78fcf6eb78"},"vehicle_type_id":"4","last_reported":1692486364,"current_range_meters":28000,"station_id":"ce4bhq92rcd13ifvqhjg","pricing_plan_id":"free"},{"bike_id":"01f563c5-7ac0-4d44-b1b3-0549f3b949f3","system_id":"levelo_inurba_marseille","lat":43.33729,"lon":5.39187,"is_reserved":false,"is_disabled":false,"rental_uris":{"android":"levelo://app?vid=01f563c5-7ac0-4d44-b1b3-0549f3b949f3","ios":"levelo://app?vid=01f563c5-7ac0-4d44-b1b3-0549f3b949f3"},"vehicle_type_id":"4","last_reported":1692486364,"current_range_meters":29200,"station_id":"ce4bhr92rcd13ifvqhsg","pricing_plan_id":"free"},{"bike_id":"c24cecf2-0503-470c-b3d3-fc37f377f710","system_id":"levelo_inurba_marseille","lat":43.33732,"lon":5.39186,"is_reserved":false,"is_disabled":false,"rental_uris":{"android":"levelo://app?vid=c24cecf2-0503-470c-b3d3-fc37f377f710","ios":"levelo://app?vid=c24cecf2-0503-470c-b3d3-fc37f377f710"},"vehicle_type_id":"4","last_reported":1692486364,"current_range_meters":28400,"station_id":"ce4bhr92rcd13ifvqhsg","pricing_plan_id":"free"},{"bike_id":"186ddf38-a5ca-44a9-9dd3-9bfe2a53544b","system_id":"levelo_inurba_marseille","lat":43.33732,"lon":5.39195,"is_reserved":false,"is_disabled":false,"rental_uris":{"android":"levelo://app?vid=186ddf38-a5ca-44a9-9dd3-9bfe2a53544b","ios":"levelo://app?vid=186ddf38-a5ca-44a9-9dd3-9bfe2a53544b"},"vehicle_type_id":"4","last_reported":1692486364,"current_range_meters":28400,"station_id":"ce4bhr92rcd13ifvqhsg","pricing_plan_id":"free"},{"bike_id":"8bd09c71-02ae-4371-8b55-ce1e7e2bf2df","system_id":"levelo_inurba_marseille","lat":43.33735,"lon":5.39195,"is_reserved":false,"is_disabled":false,"rental_uris":{"android":"levelo://app?vid=8bd09c71-02ae-4371-8b55-ce1e7e2bf2df","ios":"levelo://app?vid=8bd09c71-02ae-4371-8b55-ce1e7e2bf2df"},"vehicle_type_id":"4","last_reported":1692486364,"current_range_meters":29600,"station_id":"ce4bhr92rcd13ifvqhsg","pricing_plan_id":"free"},{"bike_id":"6fb36002-bc24-427c-a16e-585470e55deb","system_id":"levelo_inurba_marseille","lat":43.32606,"lon":5.40481,"is_reserved":false,"is_disabled":false,"rental_uris":{"android":"levelo://app?vid=6fb36002-bc24-427c-a16e-585470e55deb","ios":"levelo://app?vid=6fb36002-bc24-427c-a16e-585470e55deb"},"vehicle_type_id":"4","last_reported":1692486364,"current_range_meters":21600,"station_id":"","pricing_plan_id":"free"},{"bike_id":"bd7badb3-5d9e-460f-983e-21a382a4e73f","system_id":"levelo_inurba_marseille","lat":43.29803,"lon":5.40405,"is_reserved":false,"is_disabled":false,"rental_uris":{"android":"levelo://app?vid=bd7badb3-5d9e-460f-983e-21a382a4e73f","ios":"levelo://app?vid=bd7badb3-5d9e-460f-983e-21a382a4e73f"},"vehicle_type_id":"4","last_reported":1692486364,"current_range_meters":400,"station_id":"ce4bh112rcd13ifvqd90","pricing_plan_id":"free"},{"bike_id":"9601bc0b-7cec-44d4-afd1-7f02a22af5c2","system_id":"levelo_inurba_marseille","lat":43.298,"lon":5.40409,"is_reserved":false,"is_disabled":false,"rental_uris":{"android":"levelo://app?vid=9601bc0b-7cec-44d4-afd1-7f02a22af5c2","ios":"levelo://app?vid=9601bc0b-7cec-44d4-afd1-7f02a22af5c2"},"vehicle_type_id":"4","last_reported":1692486364,"current_range_meters":6400,"station_id":"ce4bh112rcd13ifvqd90","pricing_plan_id":"free"},{"bike_id":"9b467aee-eb8d-4d87-8da4-e0cd25672eaf","system_id":"levelo_inurba_marseille","lat":43.288497,"lon":5.393089,"is_reserved":false,"is_disabled":false,"rental_uris":{"android":"levelo://app?vid=9b467aee-eb8d-4d87-8da4-e0cd25672eaf","ios":"levelo://app?vid=9b467aee-eb8d-4d87-8da4-e0cd25672eaf"},"vehicle_type_id":"4","last_reported":1692486364,"current_range_meters":0,"station_id":"ce4bh2p2rcd13ifvqdi0","pricing_plan_id":"free"},{"bike_id":"f50aca5f-cf5b-4020-925f-826a2e34874f","system_id":"levelo_inurba_marseille","lat":43.289363,"lon":5.396322,"is_reserved":false,"is_disabled":false,"rental_uris":{"android":"levelo://app?vid=f50aca5f-cf5b-4020-925f-826a2e34874f","ios":"levelo://app?vid=f50aca5f-cf5b-4020-925f-826a2e34874f"},"vehicle_type_id":"4","last_reported":1692486364,"current_range_meters":31200,"station_id":"ce4bh3h2rcd13ifvqdn0","pricing_plan_id":"free"},{"bike_id":"06322e1a-e7d8-4b14-b1b1-5645bcedfdd1","system_id":"levelo_inurba_marseille","lat":43.29283,"lon":5.40114,"is_reserved":false,"is_disabled":false,"rental_uris":{"android":"levelo://app?vid=06322e1a-e7d8-4b14-b1b1-5645bcedfdd1","ios":"levelo://app?vid=06322e1a-e7d8-4b14-b1b1-5645bcedfdd1"},"vehicle_type_id":"4","last_reported":1692486364,"current_range_meters":0,"station_id":"ce4bh312rcd13ifvqdk0","pricing_plan_id":"free"},{"bike_id":"5cec26ac-344f-432b-af34-450b75305b9b","system_id":"levelo_inurba_marseille","lat":43.292724,"lon":5.401131,"is_reserved":false,"is_disabled":false,"rental_uris":{"android":"levelo://app?vid=5cec26ac-344f-432b-af34-450b75305b9b","ios":"levelo://app?vid=5cec26ac-344f-432b-af34-450b75305b9b"},"vehicle_type_id":"4","last_reported":1692486364,"current_range_meters":29200,"station_id":"ce4bh312rcd13ifvqdk0","pricing_plan_id":"free"},{"bike_id":"88940920-727e-47f8-bee6-24feedff1167","system_id":"levelo_inurba_marseille","lat":43.282744,"lon":5.350533,"is_reserved":false,"is_disabled":false,"rental_uris":{"android":"levelo://app?vid=88940920-727e-47f8-bee6-24feedff1167","ios":"levelo://app?vid=88940920-727e-47f8-bee6-24feedff1167"},"vehicle_type_id":"4","last_reported":1692486364,"current_range_meters":29600,"station_id":"ce4bhbp2rcd13ifvqerg","pricing_plan_id":"free"},{"bike_id":"9f46cfde-4f76-4076-bade-5765c2d3d473","system_id":"levelo_inurba_marseille","lat":43.28039,"lon":5.369297,"is_reserved":false,"is_disabled":false,"rental_uris":{"android":"levelo://app?vid=9f46cfde-4f76-4076-bade-5765c2d3d473","ios":"levelo://app?vid=9f46cfde-4f76-4076-bade-5765c2d3d473"},"vehicle_type_id":"4","last_reported":1692486364,"current_range_meters":31600,"station_id":"ce4bha12rcd13ifvqef0","pricing_plan_id":"free"},{"bike_id":"a5e0f064-e188-4c5b-81db-94f42c1e0fbf","system_id":"levelo_inurba_marseille","lat":43.29041,"lon":5.3996,"is_reserved":false,"is_disabled":false,"rental_uris":{"android":"levelo://app?vid=a5e0f064-e188-4c5b-81db-94f42c1e0fbf","ios":"levelo://app?vid=a5e0f064-e188-4c5b-81db-94f42c1e0fbf"},"vehicle_type_id":"4","last_reported":1692486364,"current_range_meters":1200,"station_id":"ce4bh392rcd13ifvqdm0","pricing_plan_id":"free"},{"bike_id":"fe121952-3193-4eee-874e-eb581899e5b6","system_id":"levelo_inurba_marseille","lat":43.290412,"lon":5.399633,"is_reserved":false,"is_disabled":false,"rental_uris":{"android":"levelo://app?vid=fe121952-3193-4eee-874e-eb581899e5b6","ios":"levelo://app?vid=fe121952-3193-4eee-874e-eb581899e5b6"},"vehicle_type_id":"4","last_reported":1692486364,"current_range_meters":4000,"station_id":"ce4bh392rcd13ifvqdm0","pricing_plan_id":"free"},{"bike_id":"e517543f-7c7c-4ca0-af7f-769604958cd4","system_id":"levelo_inurba_marseille","lat":43.28108,"lon":5.37831,"is_reserved":false,"is_disabled":false,"rental_uris":{"android":"levelo://app?vid=e517543f-7c7c-4ca0-af7f-769604958cd4","ios":"levelo://app?vid=e517543f-7c7c-4ca0-af7f-769604958cd4"},"vehicle_type_id":"4","last_reported":1692486364,"current_range_meters":18400,"station_id":"ce4bha12rcd13ifvqee0","pricing_plan_id":"free"},{"bike_id":"9a1f7db8-4ea2-419c-b870-c7dae5f9235d","system_id":"levelo_inurba_marseille","lat":43.28108,"lon":5.37835,"is_reserved":false,"is_disabled":false,"rental_uris":{"android":"levelo://app?vid=9a1f7db8-4ea2-419c-b870-c7dae5f9235d","ios":"levelo://app?vid=9a1f7db8-4ea2-419c-b870-c7dae5f9235d"},"vehicle_type_id":"4","last_reported":1692486364,"current_range_meters":17600,"station_id":"ce4bha12rcd13ifvqee0","pricing_plan_id":"free"},{"bike_id":"a8a545d2-73ec-40ef-b15b-03656d0b7938","system_id":"levelo_inurba_marseille","lat":43.28107,"lon":5.37833,"is_reserved":false,"is_disabled":false,"rental_uris":{"android":"levelo://app?vid=a8a545d2-73ec-40ef-b15b-03656d0b7938","ios":"levelo://app?vid=a8a545d2-73ec-40ef-b15b-03656d0b7938"},"vehicle_type_id":"4","last_reported":1692486364,"current_range_meters":26400,"station_id":"ce4bha12rcd13ifvqee0","pricing_plan_id":"free"},{"bike_id":"c4732be9-4cae-4f28-999e-99c5a6bf05c0","system_id":"levelo_inurba_marseille","lat":43.28105,"lon":5.3783,"is_reserved":false,"is_disabled":false,"rental_uris":{"android":"levelo://app?vid=c4732be9-4cae-4f28-999e-99c5a6bf05c0","ios":"levelo://app?vid=c4732be9-4cae-4f28-999e-99c5a6bf05c0"},"vehicle_type_id":"4","last_reported":1692486364,"current_range_meters":9600,"station_id":"ce4bha12rcd13ifvqee0","pricing_plan_id":"free"},{"bike_id":"63dc3010-9917-46d2-ac03-524de92af207","system_id":"levelo_inurba_marseille","lat":43.296263,"lon":5.40601,"is_reserved":false,"is_disabled":false,"rental_uris":{"android":"levelo://app?vid=63dc3010-9917-46d2-ac03-524de92af207","ios":"levelo://app?vid=63dc3010-9917-46d2-ac03-524de92af207"},"vehicle_type_id":"4","last_reported":1692486364,"current_range_meters":26400,"station_id":"ce4bh0h2rcd13ifvqd60","pricing_plan_id":"free"},{"bike_id":"e1f7e36d-34c4-46ed-952c-73737ab97418","system_id":"levelo_inurba_marseille","lat":43.28102,"lon":5.37835,"is_reserved":false,"is_disabled":false,"rental_uris":{"android":"levelo://app?vid=e1f7e36d-34c4-46ed-952c-73737ab97418","ios":"levelo://app?vid=e1f7e36d-34c4-46ed-952c-73737ab97418"},"vehicle_type_id":"4","last_reported":1692486364,"current_range_meters":0,"station_id":"ce4bha12rcd13ifvqee0","pricing_plan_id":"free"},{"bike_id":"2cbd486a-4657-420d-a507-21d8da88b53e","system_id":"levelo_inurba_marseille","lat":43.29633,"lon":5.40596,"is_reserved":false,"is_disabled":false,"rental_uris":{"android":"levelo://app?vid=2cbd486a-4657-420d-a507-21d8da88b53e","ios":"levelo://app?vid=2cbd486a-4657-420d-a507-21d8da88b53e"},"vehicle_type_id":"4","last_reported":1692486364,"current_range_meters":7200,"station_id":"ce4bh0h2rcd13ifvqd60","pricing_plan_id":"free"},{"bike_id":"96c9251b-93c7-4468-b7c0-edb7afe124d0","system_id":"levelo_inurba_marseille","lat":43.28438,"lon":5.39184,"is_reserved":false,"is_disabled":false,"rental_uris":{"android":"levelo://app?vid=96c9251b-93c7-4468-b7c0-edb7afe124d0","ios":"levelo://app?vid=96c9251b-93c7-4468-b7c0-edb7afe124d0"},"vehicle_type_id":"4","last_reported":1692486364,"current_range_meters":11200,"station_id":"ce4bhoh2rcd13ifvqh5g","pricing_plan_id":"free"},{"bike_id":"1a57f75c-f3fe-4401-a214-493615e19806","system_id":"levelo_inurba_marseille","lat":43.284462,"lon":5.392121,"is_reserved":false,"is_disabled":false,"rental_uris":{"android":"levelo://app?vid=1a57f75c-f3fe-4401-a214-493615e19806","ios":"levelo://app?vid=1a57f75c-f3fe-4401-a214-493615e19806"},"vehicle_type_id":"4","last_reported":1692486364,"current_range_meters":11600,"station_id":"ce4bhoh2rcd13ifvqh5g","pricing_plan_id":"free"},{"bike_id":"ddf328de-28ba-4dcc-be6b-3a507f65a49b","system_id":"levelo_inurba_marseille","lat":43.285742,"lon":5.395004,"is_reserved":false,"is_disabled":false,"rental_uris":{"android":"levelo://app?vid=ddf328de-28ba-4dcc-be6b-3a507f65a49b","ios":"levelo://app?vid=ddf328de-28ba-4dcc-be6b-3a507f65a49b"},"vehicle_type_id":"4","last_reported":1692486364,"current_range_meters":30800,"station_id":"ce4bh292rcd13ifvqdg0","pricing_plan_id":"free"},{"bike_id":"49d20649-b380-494e-9897-508b2459f111","system_id":"levelo_inurba_marseille","lat":43.285742,"lon":5.395004,"is_reserved":false,"is_disabled":false,"rental_uris":{"android":"levelo://app?vid=49d20649-b380-494e-9897-508b2459f111","ios":"levelo://app?vid=49d20649-b380-494e-9897-508b2459f111"},"vehicle_type_id":"4","last_reported":1692486364,"current_range_meters":26000,"station_id":"ce4bh292rcd13ifvqdg0","pricing_plan_id":"free"},{"bike_id":"3192f301-7501-4ac0-8cfd-a8dcb5b9fa88","system_id":"levelo_inurba_marseille","lat":43.28573,"lon":5.394992,"is_reserved":false,"is_disabled":false,"rental_uris":{"android":"levelo://app?vid=3192f301-7501-4ac0-8cfd-a8dcb5b9fa88","ios":"levelo://app?vid=3192f301-7501-4ac0-8cfd-a8dcb5b9fa88"},"vehicle_type_id":"4","last_reported":1692486364,"current_range_meters":16400,"station_id":"ce4bh292rcd13ifvqdg0","pricing_plan_id":"free"},{"bike_id":"f8ef4f78-badc-40d1-a4a9-077301466e56","system_id":"levelo_inurba_marseille","lat":43.32662,"lon":5.40978,"is_reserved":false,"is_disabled":false,"rental_uris":{"android":"levelo://app?vid=f8ef4f78-badc-40d1-a4a9-077301466e56","ios":"levelo://app?vid=f8ef4f78-badc-40d1-a4a9-077301466e56"},"vehicle_type_id":"4","last_reported":1692486364,"current_range_meters":11200,"station_id":"ce4bhpp2rcd13ifvqhgg","pricing_plan_id":"free"},{"bike_id":"4a6a385d-da72-4a29-9d98-1adf508d1979","system_id":"levelo_inurba_marseille","lat":43.3266,"lon":5.40994,"is_reserved":false,"is_disabled":false,"rental_uris":{"android":"levelo://app?vid=4a6a385d-da72-4a29-9d98-1adf508d1979","ios":"levelo://app?vid=4a6a385d-da72-4a29-9d98-1adf508d1979"},"vehicle_type_id":"4","last_reported":1692486364,"current_range_meters":21200,"station_id":"","pricing_plan_id":"free"},{"bike_id":"c82907f4-5237-4da4-931f-1cb6ec5394a0","system_id":"levelo_inurba_marseille","lat":43.304188,"lon":5.412904,"is_reserved":false,"is_disabled":false,"rental_uris":{"android":"levelo://app?vid=c82907f4-5237-4da4-931f-1cb6ec5394a0","ios":"levelo://app?vid=c82907f4-5237-4da4-931f-1cb6ec5394a0"},"vehicle_type_id":"4","last_reported":1692486364,"current_range_meters":24000,"station_id":"ce4bhop2rcd13ifvqh8g","pricing_plan_id":"free"},{"bike_id":"d34494e4-1edb-4582-b6ae-c19bffbb5fd8","system_id":"levelo_inurba_marseille","lat":43.304188,"lon":5.412904,"is_reserved":false,"is_disabled":false,"rental_uris":{"android":"levelo://app?vid=d34494e4-1edb-4582-b6ae-c19bffbb5fd8","ios":"levelo://app?vid=d34494e4-1edb-4582-b6ae-c19bffbb5fd8"},"vehicle_type_id":"4","last_reported":1692486364,"current_range_meters":28800,"station_id":"ce4bhop2rcd13ifvqh8g","pricing_plan_id":"free"},{"bike_id":"7a5d6e4b-3b06-4afd-93d5-b5923a90e77c","system_id":"levelo_inurba_marseille","lat":43.279087,"lon":5.380114,"is_reserved":false,"is_disabled":false,"rental_uris":{"android":"levelo://app?vid=7a5d6e4b-3b06-4afd-93d5-b5923a90e77c","ios":"levelo://app?vid=7a5d6e4b-3b06-4afd-93d5-b5923a90e77c"},"vehicle_type_id":"4","last_reported":1692486364,"current_range_meters":20000,"station_id":"ce4bhf92rcd13ifvqf50","pricing_plan_id":"free"},{"bike_id":"f11c394f-2f53-408d-8cad-bac6f9887834","system_id":"levelo_inurba_marseille","lat":43.287154,"lon":5.399979,"is_reserved":false,"is_disabled":false,"rental_uris":{"android":"levelo://app?vid=f11c394f-2f53-408d-8cad-bac6f9887834","ios":"levelo://app?vid=f11c394f-2f53-408d-8cad-bac6f9887834"},"vehicle_type_id":"4","last_reported":1692486364,"current_range_meters":0,"station_id":"ce4bho92rcd13ifvqh3g","pricing_plan_id":"free"},{"bike_id":"e911199b-649d-4524-94d2-14523633047b","system_id":"levelo_inurba_marseille","lat":43.287154,"lon":5.399979,"is_reserved":false,"is_disabled":false,"rental_uris":{"android":"levelo://app?vid=e911199b-649d-4524-94d2-14523633047b","ios":"levelo://app?vid=e911199b-649d-4524-94d2-14523633047b"},"vehicle_type_id":"4","last_reported":1692486364,"current_range_meters":25200,"station_id":"ce4bho92rcd13ifvqh3g","pricing_plan_id":"free"},{"bike_id":"84629a49-851e-46a2-9da8-578fb0268e07","system_id":"levelo_inurba_marseille","lat":43.287154,"lon":5.399979,"is_reserved":false,"is_disabled":false,"rental_uris":{"android":"levelo://app?vid=84629a49-851e-46a2-9da8-578fb0268e07","ios":"levelo://app?vid=84629a49-851e-46a2-9da8-578fb0268e07"},"vehicle_type_id":"4","last_reported":1692486364,"current_range_meters":8400,"station_id":"ce4bho92rcd13ifvqh3g","pricing_plan_id":"free"},{"bike_id":"b13534d3-d4c2-47b4-9d88-2070b6021302","system_id":"levelo_inurba_marseille","lat":43.287154,"lon":5.399979,"is_reserved":false,"is_disabled":false,"rental_uris":{"android":"levelo://app?vid=b13534d3-d4c2-47b4-9d88-2070b6021302","ios":"levelo://app?vid=b13534d3-d4c2-47b4-9d88-2070b6021302"},"vehicle_type_id":"4","last_reported":1692486364,"current_range_meters":24400,"station_id":"ce4bho92rcd13ifvqh3g","pricing_plan_id":"free"},{"bike_id":"4d641b34-5c42-47f8-b9ae-099151bb9d43","system_id":"levelo_inurba_marseille","lat":43.287154,"lon":5.399979,"is_reserved":false,"is_disabled":false,"rental_uris":{"android":"levelo://app?vid=4d641b34-5c42-47f8-b9ae-099151bb9d43","ios":"levelo://app?vid=4d641b34-5c42-47f8-b9ae-099151bb9d43"},"vehicle_type_id":"4","last_reported":1692486364,"current_range_meters":30800,"station_id":"ce4bho92rcd13ifvqh3g","pricing_plan_id":"free"},{"bike_id":"79e70418-c1f4-448a-b654-e155996429b8","system_id":"levelo_inurba_marseille","lat":43.299579,"lon":5.413255,"is_reserved":false,"is_disabled":false,"rental_uris":{"android":"levelo://app?vid=79e70418-c1f4-448a-b654-e155996429b8","ios":"levelo://app?vid=79e70418-c1f4-448a-b654-e155996429b8"},"vehicle_type_id":"4","last_reported":1692486364,"current_range_meters":22000,"station_id":"ce4bhp12rcd13ifvqh9g","pricing_plan_id":"free"},{"bike_id":"e4d30b70-a50d-4a1d-885d-431b4fea59ac","system_id":"levelo_inurba_marseille","lat":43.299579,"lon":5.413255,"is_reserved":false,"is_disabled":false,"rental_uris":{"android":"levelo://app?vid=e4d30b70-a50d-4a1d-885d-431b4fea59ac","ios":"levelo://app?vid=e4d30b70-a50d-4a1d-885d-431b4fea59ac"},"vehicle_type_id":"4","last_reported":1692486364,"current_range_meters":26800,"station_id":"ce4bhp12rcd13ifvqh9g","pricing_plan_id":"free"},{"bike_id":"c327718a-8fe6-4791-a349-aba0f8f94e82","system_id":"levelo_inurba_marseille","lat":43.2798,"lon":5.38749,"is_reserved":false,"is_disabled":false,"rental_uris":{"android":"levelo://app?vid=c327718a-8fe6-4791-a349-aba0f8f94e82","ios":"levelo://app?vid=c327718a-8fe6-4791-a349-aba0f8f94e82"},"vehicle_type_id":"4","last_reported":1692486364,"current_range_meters":26000,"station_id":"ce4bhg12rcd13ifvqf80","pricing_plan_id":"free"},{"bike_id":"a170c304-a55a-4f9c-babf-7e65e73de820","system_id":"levelo_inurba_marseille","lat":43.292569,"lon":5.409107,"is_reserved":false,"is_disabled":false,"rental_uris":{"android":"levelo://app?vid=a170c304-a55a-4f9c-babf-7e65e73de820","ios":"levelo://app?vid=a170c304-a55a-4f9c-babf-7e65e73de820"},"vehicle_type_id":"4","last_reported":1692486364,"current_range_meters":27600,"station_id":"ce4bh192rcd13ifvqdc0","pricing_plan_id":"free"},{"bike_id":"480eed89-9bfe-4799-90d1-b5ded03d30b8","system_id":"levelo_inurba_marseille","lat":43.292571,"lon":5.409107,"is_reserved":false,"is_disabled":false,"rental_uris":{"android":"levelo://app?vid=480eed89-9bfe-4799-90d1-b5ded03d30b8","ios":"levelo://app?vid=480eed89-9bfe-4799-90d1-b5ded03d30b8"},"vehicle_type_id":"4","last_reported":1692486364,"current_range_meters":17600,"station_id":"ce4bh192rcd13ifvqdc0","pricing_plan_id":"free"},{"bike_id":"f713dce9-5cae-429b-b2f4-d5ba8535758c","system_id":"levelo_inurba_marseille","lat":43.27379,"lon":5.36251,"is_reserved":false,"is_disabled":false,"rental_uris":{"android":"levelo://app?vid=f713dce9-5cae-429b-b2f4-d5ba8535758c","ios":"levelo://app?vid=f713dce9-5cae-429b-b2f4-d5ba8535758c"},"vehicle_type_id":"4","last_reported":1692486364,"current_range_meters":0,"station_id":"ce4bhbh2rcd13ifvqeo0","pricing_plan_id":"free"},{"bike_id":"d8ef3ca6-f789-4a6c-af7a-16a378c68291","system_id":"levelo_inurba_marseille","lat":43.273613,"lon":5.362705,"is_reserved":false,"is_disabled":false,"rental_uris":{"android":"levelo://app?vid=d8ef3ca6-f789-4a6c-af7a-16a378c68291","ios":"levelo://app?vid=d8ef3ca6-f789-4a6c-af7a-16a378c68291"},"vehicle_type_id":"4","last_reported":1692486364,"current_range_meters":23600,"station_id":"ce4bhbh2rcd13ifvqeo0","pricing_plan_id":"free"},{"bike_id":"2b8a404e-effd-458a-80fb-a168313ae0c4","system_id":"levelo_inurba_marseille","lat":43.273609,"lon":5.362708,"is_reserved":false,"is_disabled":false,"rental_uris":{"android":"levelo://app?vid=2b8a404e-effd-458a-80fb-a168313ae0c4","ios":"levelo://app?vid=2b8a404e-effd-458a-80fb-a168313ae0c4"},"vehicle_type_id":"4","last_reported":1692486364,"current_range_meters":4000,"station_id":"ce4bhbh2rcd13ifvqeo0","pricing_plan_id":"free"},{"bike_id":"cf57ca0f-6e7a-45a7-b5fa-87f92b8836ac","system_id":"levelo_inurba_marseille","lat":43.273613,"lon":5.362705,"is_reserved":false,"is_disabled":false,"rental_uris":{"android":"levelo://app?vid=cf57ca0f-6e7a-45a7-b5fa-87f92b8836ac","ios":"levelo://app?vid=cf57ca0f-6e7a-45a7-b5fa-87f92b8836ac"},