{"last_updated":1730711469,"ttl":60,"version":"2.2","data":{"bikes":[{"bike_id":"9faa884b-c96b-4fcc-b943-120c49dce965","system_id":"levelo_inurba_marseille","lat":43.3059,"lon":5.39359,"is_reserved":false,"is_disabled":false,"rental_uris":{"android":"levelo://app?vid=9faa884b-c96b-4fcc-b943-120c49dce965","ios":"levelo://app?vid=9faa884b-c96b-4fcc-b943-120c49dce965"},"vehicle_type_id":"4","last_reported":1730711469,"current_range_meters":8400,"station_id":"ce4bh0p2rcd13ifvqd80","pricing_plan_id":"cebpf4jnsgd1na2vs0mg"},{"bike_id":"26b317e8-ce18-48b2-a007-d3d366b9e948","system_id":"levelo_inurba_marseille","lat":43.31362,"lon":5.38488,"is_reserved":false,"is_disabled":false,"rental_uris":{"android":"levelo://app?vid=26b317e8-ce18-48b2-a007-d3d366b9e948","ios":"levelo://app?vid=26b317e8-ce18-48b2-a007-d3d366b9e948"},"vehicle_type_id":"4","last_reported":1730711469,"current_range_meters":20800,"station_id":"ce4bgt92rcd13ifvqcf0","pricing_plan_id":"cebpf4jnsgd1na2vs0mg"},{"bike_id":"d48d3854-7979-4947-9453-e181fcf30089","system_id":"levelo_inurba_marseille","lat":43.27499,"lon":5.42454,"is_reserved":false,"is_disabled":false,"rental_uris":{"android":"levelo://app?vid=d48d3854-7979-4947-9453-e181fcf30089","ios":"levelo://app?vid=d48d3854-7979-4947-9453-e181fcf30089"},"vehicle_type_id":"4","last_reported":1730711469,"current_range_meters":27600,"station_id":"ce4bhn92rcd13ifvqgrg","pricing_plan_id":"cebpf4jnsgd1na2vs0mg"},{"bike_id":"8fb6f5e5-9352-4a52-a752-980b1ca639d1","system_id":"levelo_inurba_marseille","lat":43.33606,"lon":5.41025,"is_reserved":false,"is_disabled":false,"rental_uris":{"android":"levelo://app?vid=8fb6f5e5-9352-4a52-a752-980b1ca639d1","ios":"levelo://app?vid=8fb6f5e5-9352-4a52-a752-980b1ca639d1"},"vehicle_type_id":"4","last_reported":1730711469,"current_range_meters":27600,"station_id":"ce4bhqh2rcd13ifvqhmg","pricing_plan_id":"cebpf4jnsgd1na2vs0mg"},{"bike_id":"32e0bd39-8846-4b8b-9ff5-b45ce87f8492","system_id":"levelo_inurba_marseille","lat":43.25944,"lon":5.40896,"is_reserved":false,"is_disabled":false,"rental_uris":{"android":"levelo://app?vid=32e0bd39-8846-4b8b-9ff5-b45ce87f8492","ios":"levelo://app?vid=32e0bd39-8846-4b8b-9ff5-b45ce87f8492"},"vehicle_type_id":"4","last_reported":1730711469,"current_range_meters":24000,"station_id":"ce4bhm92rcd13ifvqglg","pricing_plan_id":"cebpf4jnsgd1na2vs0mg"},{"bike_id":"b45d93e2-137e-40d9-b8b9-f9ceab009d23","system_id":"levelo_inurba_marseille","lat":43.24183,"lon":5.39734,"is_reserved":false,"is_disabled":false,"rental_uris":{"android":"levelo://app?vid=b45d93e2-137e-40d9-b8b9-f9ceab009d23","ios":"levelo://app?vid=b45d93e2-137e-40d9-b8b9-f9ceab009d23"},"vehicle_type_id":"4","last_reported":1730711469,"current_range_meters":38800,"station_id":"ce4bhn12rcd13ifvqgpg","pricing_plan_id":"cebpf4jnsgd1na2vs0mg"},{"bike_id":"23a8e268-b759-4997-95af-80a8eb1043b2","system_id":"levelo_inurba_marseille","lat":43.26497,"lon":5.39544,"is_reserved":false,"is_disabled":false,"rental_uris":{"android":"levelo://app?vid=23a8e268-b759-4997-95af-80a8eb1043b2","ios":"levelo://app?vid=23a8e268-b759-4997-95af-80a8eb1043b2"},"vehicle_type_id":"4","last_reported":1730711469,"current_range_meters":29600,"station_id":"ce4bhi12rcd13ifvqfq0","pricing_plan_id":"cebpf4jnsgd1na2vs0mg"},{"bike_id":"c7a51b24-0fab-4242-b11c-e03d2ff6fb2e","system_id":"levelo_inurba_marseille","lat":43.29025,"lon":5.39972,"is_reserved":false,"is_disabled":false,"rental_uris":{"android":"levelo://app?vid=c7a51b24-0fab-4242-b11c-e03d2ff6fb2e","ios":"levelo://app?vid=c7a51b24-0fab-4242-b11c-e03d2ff6fb2e"},"vehicle_type_id":"4","last_reported":1730711469,"current_range_meters":18000,"station_id":"ce4bh392rcd13ifvqdm0","pricing_plan_id":"cebpf4jnsgd1na2vs0mg"},{"bike_id":"37c14f64-b8de-4bcf-822e-ff939133b996","system_id":"levelo_inurba_marseille","lat":43.24076,"lon":5.37754,"is_reserved":false,"is_disabled":false,"rental_uris":{"android":"levelo://app?vid=37c14f64-b8de-4bcf-822e-ff939133b996","ios":"levelo://app?vid=37c14f64-b8de-4bcf-822e-ff939133b996"},"vehicle_type_id":"4","last_reported":1730711469,"current_range_meters":20800,"station_id":"ce4bhnp2rcd13ifvqgvg","pricing_plan_id":"cebpf4jnsgd1na2vs0mg"},{"bike_id":"fd57cfbe-65d2-404b-90bd-28ce1e3e1db9","system_id":"levelo_inurba_marseille","lat":43.33606,"lon":5.41027,"is_reserved":false,"is_disabled":false,"rental_uris":{"android":"levelo://app?vid=fd57cfbe-65d2-404b-90bd-28ce1e3e1db9","ios":"levelo://app?vid=fd57cfbe-65d2-404b-90bd-28ce1e3e1db9"},"vehicle_type_id":"4","last_reported":1730711469,"current_range_meters":11600,"station_id":"ce4bhqh2rcd13ifvqhmg","pricing_plan_id":"cebpf4jnsgd1na2vs0mg"},{"bike_id":"3367b0d9-ce8d-4885-971b-3fc1140ee5c3","system_id":"levelo_inurba_marseille","lat":43.26952,"lon":5.38628,"is_reserved":false,"is_disabled":false,"rental_uris":{"android":"levelo://app?vid=3367b0d9-ce8d-4885-971b-3fc1140ee5c3","ios":"levelo://app?vid=3367b0d9-ce8d-4885-971b-3fc1140ee5c3"},"vehicle_type_id":"4","last_reported":1730711469,"current_range_meters":24000,"station_id":"ce4bhh92rcd13ifvqfh0","pricing_plan_id":"cebpf4jnsgd1na2vs0mg"},{"bike_id":"2a39fee9-2e1a-4506-90a5-52fa3c1e7f62","system_id":"levelo_inurba_marseille","lat":43.24079,"lon":5.37748,"is_reserved":false,"is_disabled":false,"rental_uris":{"android":"levelo://app?vid=2a39fee9-2e1a-4506-90a5-52fa3c1e7f62","ios":"levelo://app?vid=2a39fee9-2e1a-4506-90a5-52fa3c1e7f62"},"vehicle_type_id":"4","last_reported":1730711469,"current_range_meters":34800,"station_id":"ce4bhnp2rcd13ifvqgvg","pricing_plan_id":"cebpf4jnsgd1na2vs0mg"},{"bike_id":"13ce73ff-de39-4563-8ef2-5b5e2775bdeb","system_id":"levelo_inurba_marseille","lat":43.32534,"lon":5.41449,"is_reserved":false,"is_disabled":false,"rental_uris":{"android":"levelo://app?vid=13ce73ff-de39-4563-8ef2-5b5e2775bdeb","ios":"levelo://app?vid=13ce73ff-de39-4563-8ef2-5b5e2775bdeb"},"vehicle_type_id":"4","last_reported":1730711469,"current_range_meters":15200,"station_id":"ce4bhq12rcd13ifvqhhg","pricing_plan_id":"cebpf4jnsgd1na2vs0mg"},{"bike_id":"4147bbfb-4b14-4aca-b782-8ec6c0473609","system_id":"levelo_inurba_marseille","lat":43.23597,"lon":5.40344,"is_reserved":false,"is_disabled":false,"rental_uris":{"android":"levelo://app?vid=4147bbfb-4b14-4aca-b782-8ec6c0473609","ios":"levelo://app?vid=4147bbfb-4b14-4aca-b782-8ec6c0473609"},"vehicle_type_id":"4","last_reported":1730711469,"current_range_meters":16400,"station_id":"","pricing_plan_id":"cebpf4jnsgd1na2vs0mg"},{"bike_id":"70980a44-d60f-4b5e-882d-6b758a677d3e","system_id":"levelo_inurba_marseille","lat":43.27493,"lon":5.42451,"is_reserved":false,"is_disabled":false,"rental_uris":{"android":"levelo://app?vid=70980a44-d60f-4b5e-882d-6b758a677d3e","ios":"levelo://app?vid=70980a44-d60f-4b5e-882d-6b758a677d3e"},"vehicle_type_id":"4","last_reported":1730711469,"current_range_meters":9200,"station_id":"ce4bhn92rcd13ifvqgrg","pricing_plan_id":"cebpf4jnsgd1na2vs0mg"},{"bike_id":"1d10918d-554d-47ec-8d25-d82fc486ecda","system_id":"levelo_inurba_marseille","lat":43.28739,"lon":5.37928,"is_reserved":false,"is_disabled":false,"rental_uris":{"android":"levelo://app?vid=1d10918d-554d-47ec-8d25-d82fc486ecda","ios":"levelo://app?vid=1d10918d-554d-47ec-8d25-d82fc486ecda"},"vehicle_type_id":"4","last_reported":1730711469,"current_range_meters":24400,"station_id":"ce4bh9p2rcd13ifvqec0","pricing_plan_id":"cebpf4jnsgd1na2vs0mg"},{"bike_id":"3d473990-960c-4acb-aeaa-a5b8fa2d912b","system_id":"levelo_inurba_marseille","lat":43.30275,"lon":5.37697,"is_reserved":false,"is_disabled":false,"rental_uris":{"android":"levelo://app?vid=3d473990-960c-4acb-aeaa-a5b8fa2d912b","ios":"levelo://app?vid=3d473990-960c-4acb-aeaa-a5b8fa2d912b"},"vehicle_type_id":"4","last_reported":1730711469,"current_range_meters":23200,"station_id":"ce4bguh2rcd13ifvqcj0","pricing_plan_id":"cebpf4jnsgd1na2vs0mg"},{"bike_id":"c3c4d41d-7148-4370-b749-aace2892e397","system_id":"levelo_inurba_marseille","lat":43.2315,"lon":5.43715,"is_reserved":false,"is_disabled":false,"rental_uris":{"android":"levelo://app?vid=c3c4d41d-7148-4370-b749-aace2892e397","ios":"levelo://app?vid=c3c4d41d-7148-4370-b749-aace2892e397"},"vehicle_type_id":"4","last_reported":1730711469,"current_range_meters":36400,"station_id":"ce4bhmp2rcd13ifvqgog","pricing_plan_id":"cebpf4jnsgd1na2vs0mg"},{"bike_id":"8ab3cef0-5266-4bca-856c-d0d5ed115b5e","system_id":"levelo_inurba_marseille","lat":43.29033,"lon":5.39958,"is_reserved":false,"is_disabled":false,"rental_uris":{"android":"levelo://app?vid=8ab3cef0-5266-4bca-856c-d0d5ed115b5e","ios":"levelo://app?vid=8ab3cef0-5266-4bca-856c-d0d5ed115b5e"},"vehicle_type_id":"4","last_reported":1730711469,"current_range_meters":28400,"station_id":"ce4bh392rcd13ifvqdm0","pricing_plan_id":"cebpf4jnsgd1na2vs0mg"},{"bike_id":"b97d9adc-ce60-4c39-8afd-921a04111eb6","system_id":"levelo_inurba_marseille","lat":43.34146,"lon":5.40897,"is_reserved":false,"is_disabled":false,"rental_uris":{"android":"levelo://app?vid=b97d9adc-ce60-4c39-8afd-921a04111eb6","ios":"levelo://app?vid=b97d9adc-ce60-4c39-8afd-921a04111eb6"},"vehicle_type_id":"4","last_reported":1730711469,"current_range_meters":38800,"station_id":"ce4bhqh2rcd13ifvqhlg","pricing_plan_id":"cebpf4jnsgd1na2vs0mg"},{"bike_id":"70fb30a5-5579-4fdc-b200-7b5805fb889f","system_id":"levelo_inurba_marseille","lat":43.30422,"lon":5.41285,"is_reserved":false,"is_disabled":false,"rental_uris":{"android":"levelo://app?vid=70fb30a5-5579-4fdc-b200-7b5805fb889f","ios":"levelo://app?vid=70fb30a5-5579-4fdc-b200-7b5805fb889f"},"vehicle_type_id":"4","last_reported":1730711469,"current_range_meters":8400,"station_id":"ce4bhop2rcd13ifvqh8g","pricing_plan_id":"cebpf4jnsgd1na2vs0mg"},{"bike_id":"f8676706-151e-428b-bc5c-68e7f8be586a","system_id":"levelo_inurba_marseille","lat":43.33612,"lon":5.41022,"is_reserved":false,"is_disabled":false,"rental_uris":{"android":"levelo://app?vid=f8676706-151e-428b-bc5c-68e7f8be586a","ios":"levelo://app?vid=f8676706-151e-428b-bc5c-68e7f8be586a"},"vehicle_type_id":"4","last_reported":1730711469,"current_range_meters":39200,"station_id":"ce4bhqh2rcd13ifvqhmg","pricing_plan_id":"cebpf4jnsgd1na2vs0mg"},{"bike_id":"baea6945-ac3f-4195-a6a4-4b887db0844f","system_id":"levelo_inurba_marseille","lat":43.27071,"lon":5.42274,"is_reserved":false,"is_disabled":false,"rental_uris":{"android":"levelo://app?vid=baea6945-ac3f-4195-a6a4-4b887db0844f","ios":"levelo://app?vid=baea6945-ac3f-4195-a6a4-4b887db0844f"},"vehicle_type_id":"4","last_reported":1730711469,"current_range_meters":38000,"station_id":"ce4bhk92rcd13ifvqgb0","pricing_plan_id":"cebpf4jnsgd1na2vs0mg"},{"bike_id":"2378f453-72a7-4eb2-ab3b-946285d406fd","system_id":"levelo_inurba_marseille","lat":43.29227,"lon":5.377276,"is_reserved":false,"is_disabled":false,"rental_uris":{"android":"levelo://app?vid=2378f453-72a7-4eb2-ab3b-946285d406fd","ios":"levelo://app?vid=2378f453-72a7-4eb2-ab3b-946285d406fd"},"vehicle_type_id":"4","last_reported":1730711469,"current_range_meters":8800,"station_id":"","pricing_plan_id":"cebpf4jnsgd1na2vs0mg"},{"bike_id":"69c5828b-16b5-4e21-9a89-eb78828b437f","system_id":"levelo_inurba_marseille","lat":43.27067,"lon":5.42268,"is_reserved":false,"is_disabled":false,"rental_uris":{"android":"levelo://app?vid=69c5828b-16b5-4e21-9a89-eb78828b437f","ios":"levelo://app?vid=69c5828b-16b5-4e21-9a89-eb78828b437f"},"vehicle_type_id":"4","last_reported":1730711469,"current_range_meters":33600,"station_id":"ce4bhk92rcd13ifvqgb0","pricing_plan_id":"cebpf4jnsgd1na2vs0mg"},{"bike_id":"45e37847-060c-4fbe-958a-f63e7f57fa30","system_id":"levelo_inurba_marseille","lat":43.27069,"lon":5.42271,"is_reserved":false,"is_disabled":false,"rental_uris":{"android":"levelo://app?vid=45e37847-060c-4fbe-958a-f63e7f57fa30","ios":"levelo://app?vid=45e37847-060c-4fbe-958a-f63e7f57fa30"},"vehicle_type_id":"4","last_reported":1730711469,"current_range_meters":19200,"station_id":"ce4bhk92rcd13ifvqgb0","pricing_plan_id":"cebpf4jnsgd1na2vs0mg"},{"bike_id":"f65a5750-8f48-47e1-a4f3-7a0755ef340d","system_id":"levelo_inurba_marseille","lat":43.337444,"lon":5.374475,"is_reserved":false,"is_disabled":false,"rental_uris":{"android":"levelo://app?vid=f65a5750-8f48-47e1-a4f3-7a0755ef340d","ios":"levelo://app?vid=f65a5750-8f48-47e1-a4f3-7a0755ef340d"},"vehicle_type_id":"4","last_reported":1730711469,"current_range_meters":28000,"station_id":"","pricing_plan_id":"cebpf4jnsgd1na2vs0mg"},{"bike_id":"14792c36-645f-4c2a-b394-bf0eeaac67a9","system_id":"levelo_inurba_marseille","lat":43.24081,"lon":5.37749,"is_reserved":false,"is_disabled":false,"rental_uris":{"android":"levelo://app?vid=14792c36-645f-4c2a-b394-bf0eeaac67a9","ios":"levelo://app?vid=14792c36-645f-4c2a-b394-bf0eeaac67a9"},"vehicle_type_id":"4","last_reported":1730711469,"current_range_meters":38400,"station_id":"ce4bhnp2rcd13ifvqgvg","pricing_plan_id":"cebpf4jnsgd1na2vs0mg"},{"bike_id":"61dbaa79-fb29-4ce6-ad78-01486dfbbfff","system_id":"levelo_inurba_marseille","lat":43.23969,"lon":5.36632,"is_reserved":false,"is_disabled":false,"rental_uris":{"android":"levelo://app?vid=61dbaa79-fb29-4ce6-ad78-01486dfbbfff","ios":"levelo://app?vid=61dbaa79-fb29-4ce6-ad78-01486dfbbfff"},"vehicle_type_id":"4","last_reported":1730711469,"current_range_meters":38800,"station_id":"ce4bhi12rcd13ifvqfp0","pricing_plan_id":"cebpf4jnsgd1na2vs0mg"},{"bike_id":"8d1b79fc-650a-4f5e-aa51-c63e111832ad","system_id":"levelo_inurba_marseille","lat":43.31887,"lon":5.40738,"is_reserved":false,"is_disabled":false,"rental_uris":{"android":"levelo://app?vid=8d1b79fc-650a-4f5e-aa51-c63e111832ad","ios":"levelo://app?vid=8d1b79fc-650a-4f5e-aa51-c63e111832ad"},"vehicle_type_id":"4","last_reported":1730711469,"current_range_meters":5600,"station_id":"ce4bhq12rcd13ifvqhig","pricing_plan_id":"cebpf4jnsgd1na2vs0mg"},{"bike_id":"4837ac20-b9ff-4190-897a-6e0a95af7af3","system_id":"levelo_inurba_marseille","lat":43.27498,"lon":5.42445,"is_reserved":false,"is_disabled":false,"rental_uris":{"android":"levelo://app?vid=4837ac20-b9ff-4190-897a-6e0a95af7af3","ios":"levelo://app?vid=4837ac20-b9ff-4190-897a-6e0a95af7af3"},"vehicle_type_id":"4","last_reported":1730711469,"current_range_meters":38800,"station_id":"ce4bhn92rcd13ifvqgrg","pricing_plan_id":"cebpf4jnsgd1na2vs0mg"},{"bike_id":"3bd62d41-958b-4c0c-872c-6a72b57371ab","system_id":"levelo_inurba_marseille","lat":43.2407,"lon":5.3776,"is_reserved":false,"is_disabled":false,"rental_uris":{"android":"levelo://app?vid=3bd62d41-958b-4c0c-872c-6a72b57371ab","ios":"levelo://app?vid=3bd62d41-958b-4c0c-872c-6a72b57371ab"},"vehicle_type_id":"4","last_reported":1730711469,"current_range_meters":25600,"station_id":"ce4bhnp2rcd13ifvqgvg","pricing_plan_id":"cebpf4jnsgd1na2vs0mg"},{"bike_id":"b8c6da7c-66b0-4441-a8f2-3198c852a6dc","system_id":"levelo_inurba_marseille","lat":43.2872,"lon":5.37931,"is_reserved":false,"is_disabled":false,"rental_uris":{"android":"levelo://app?vid=b8c6da7c-66b0-4441-a8f2-3198c852a6dc","ios":"levelo://app?vid=b8c6da7c-66b0-4441-a8f2-3198c852a6dc"},"vehicle_type_id":"4","last_reported":1730711469,"current_range_meters":31200,"station_id":"ce4bh9p2rcd13ifvqec0","pricing_plan_id":"cebpf4jnsgd1na2vs0mg"},{"bike_id":"dbaee213-8369-49f1-935e-faaf8a60f54c","system_id":"levelo_inurba_marseille","lat":43.30543,"lon":5.36694,"is_reserved":false,"is_disabled":false,"rental_uris":{"android":"levelo://app?vid=dbaee213-8369-49f1-935e-faaf8a60f54c","ios":"levelo://app?vid=dbaee213-8369-49f1-935e-faaf8a60f54c"},"vehicle_type_id":"4","last_reported":1730711469,"current_range_meters":33200,"station_id":"ce4bgrp2rcd13ifvqc9g","pricing_plan_id":"cebpf4jnsgd1na2vs0mg"},{"bike_id":"5f182c0f-58e8-4d44-8169-760b9016320b","system_id":"levelo_inurba_marseille","lat":43.28153,"lon":5.42643,"is_reserved":false,"is_disabled":false,"rental_uris":{"android":"levelo://app?vid=5f182c0f-58e8-4d44-8169-760b9016320b","ios":"levelo://app?vid=5f182c0f-58e8-4d44-8169-760b9016320b"},"vehicle_type_id":"4","last_reported":1730711469,"current_range_meters":30400,"station_id":"ce4bhnh2rcd13ifvqgug","pricing_plan_id":"cebpf4jnsgd1na2vs0mg"},{"bike_id":"729ed762-2084-40cb-ba5b-e8d2d89903cd","system_id":"levelo_inurba_marseille","lat":43.25932,"lon":5.40909,"is_reserved":false,"is_disabled":false,"rental_uris":{"android":"levelo://app?vid=729ed762-2084-40cb-ba5b-e8d2d89903cd","ios":"levelo://app?vid=729ed762-2084-40cb-ba5b-e8d2d89903cd"},"vehicle_type_id":"4","last_reported":1730711469,"current_range_meters":19200,"station_id":"ce4bhm92rcd13ifvqglg","pricing_plan_id":"cebpf4jnsgd1na2vs0mg"},{"bike_id":"49a8e4b9-6882-4760-8dce-fb3cea7e15a3","system_id":"levelo_inurba_marseille","lat":43.30912,"lon":5.36853,"is_reserved":false,"is_disabled":false,"rental_uris":{"android":"levelo://app?vid=49a8e4b9-6882-4760-8dce-fb3cea7e15a3","ios":"levelo://app?vid=49a8e4b9-6882-4760-8dce-fb3cea7e15a3"},"vehicle_type_id":"4","last_reported":1730711469,"current_range_meters":16000,"station_id":"ce4bgn92rcd13ifvqbvg","pricing_plan_id":"cebpf4jnsgd1na2vs0mg"},{"bike_id":"1f426912-0a52-4bca-b2ca-60a7d9494c81","system_id":"levelo_inurba_marseille","lat":43.29616,"lon":5.3773,"is_reserved":false,"is_disabled":false,"rental_uris":{"android":"levelo://app?vid=1f426912-0a52-4bca-b2ca-60a7d9494c81","ios":"levelo://app?vid=1f426912-0a52-4bca-b2ca-60a7d9494c81"},"vehicle_type_id":"4","last_reported":1730711469,"current_range_meters":35200,"station_id":"ce4bgi92rcd13ifvqb90","pricing_plan_id":"cebpf4jnsgd1na2vs0mg"},{"bike_id":"6773b473-5ca0-41b3-8986-273b1e9c8956","system_id":"levelo_inurba_marseille","lat":43.30533,"lon":5.36705,"is_reserved":false,"is_disabled":false,"rental_uris":{"android":"levelo://app?vid=6773b473-5ca0-41b3-8986-273b1e9c8956","ios":"levelo://app?vid=6773b473-5ca0-41b3-8986-273b1e9c8956"},"vehicle_type_id":"4","last_reported":1730711469,"current_range_meters":22400,"station_id":"ce4bgrp2rcd13ifvqc9g","pricing_plan_id":"cebpf4jnsgd1na2vs0mg"},{"bike_id":"75576e24-6890-4288-9aa5-db2804891d6f","system_id":"levelo_inurba_marseille","lat":43.26949,"lon":5.40243,"is_reserved":false,"is_disabled":false,"rental_uris":{"android":"levelo://app?vid=75576e24-6890-4288-9aa5-db2804891d6f","ios":"levelo://app?vid=75576e24-6890-4288-9aa5-db2804891d6f"},"vehicle_type_id":"4","last_reported":1730711469,"current_range_meters":35200,"station_id":"cjm6bp8fraef2m0cb0m0","pricing_plan_id":"cebpf4jnsgd1na2vs0mg"},{"bike_id":"6257c3e9-db65-483b-845c-aa1296813a0e","system_id":"levelo_inurba_marseille","lat":43.30282,"lon":5.37695,"is_reserved":false,"is_disabled":false,"rental_uris":{"android":"levelo://app?vid=6257c3e9-db65-483b-845c-aa1296813a0e","ios":"levelo://app?vid=6257c3e9-db65-483b-845c-aa1296813a0e"},"vehicle_type_id":"4","last_reported":1730711469,"current_range_meters":29600,"station_id":"ce4bguh2rcd13ifvqcj0","pricing_plan_id":"cebpf4jnsgd1na2vs0mg"},{"bike_id":"55f742b5-36de-4ab6-be4b-1a69d46dca51","system_id":"levelo_inurba_marseille","lat":43.296197,"lon":5.377152,"is_reserved":false,"is_disabled":false,"rental_uris":{"android":"levelo://app?vid=55f742b5-36de-4ab6-be4b-1a69d46dca51","ios":"levelo://app?vid=55f742b5-36de-4ab6-be4b-1a69d46dca51"},"vehicle_type_id":"4","last_reported":1730711469,"current_range_meters":24400,"station_id":"ce4bgi92rcd13ifvqb90","pricing_plan_id":"cebpf4jnsgd1na2vs0mg"},{"bike_id":"8f0bee40-ac87-40ef-97cb-0858e49a1186","system_id":"levelo_inurba_marseille","lat":43.25938,"lon":5.40902,"is_reserved":false,"is_disabled":false,"rental_uris":{"android":"levelo://app?vid=8f0bee40-ac87-40ef-97cb-0858e49a1186","ios":"levelo://app?vid=8f0bee40-ac87-40ef-97cb-0858e49a1186"},"vehicle_type_id":"4","last_reported":1730711469,"current_range_meters":21600,"station_id":"ce4bhm92rcd13ifvqglg","pricing_plan_id":"cebpf4jnsgd1na2vs0mg"},{"bike_id":"bfb4e9f1-502b-4eee-ad84-0c905afe5629","system_id":"levelo_inurba_marseille","lat":43.32482,"lon":5.3657,"is_reserved":false,"is_disabled":false,"rental_uris":{"android":"levelo://app?vid=bfb4e9f1-502b-4eee-ad84-0c905afe5629","ios":"levelo://app?vid=bfb4e9f1-502b-4eee-ad84-0c905afe5629"},"vehicle_type_id":"4","last_reported":1730711469,"current_range_meters":29600,"station_id":"ce4bhs12rcd13ifvqhvg","pricing_plan_id":"cebpf4jnsgd1na2vs0mg"},{"bike_id":"91ab9f3e-0a6a-433c-b133-3a29425ab881","system_id":"levelo_inurba_marseille","lat":43.30266,"lon":5.37698,"is_reserved":false,"is_disabled":false,"rental_uris":{"android":"levelo://app?vid=91ab9f3e-0a6a-433c-b133-3a29425ab881","ios":"levelo://app?vid=91ab9f3e-0a6a-433c-b133-3a29425ab881"},"vehicle_type_id":"4","last_reported":1730711469,"current_range_meters":38800,"station_id":"ce4bguh2rcd13ifvqcj0","pricing_plan_id":"cebpf4jnsgd1na2vs0mg"},{"bike_id":"7fa9e0db-d5db-4e00-9bab-71088473e9a3","system_id":"levelo_inurba_marseille","lat":43.28345,"lon":5.38115,"is_reserved":false,"is_disabled":false,"rental_uris":{"android":"levelo://app?vid=7fa9e0db-d5db-4e00-9bab-71088473e9a3","ios":"levelo://app?vid=7fa9e0db-d5db-4e00-9bab-71088473e9a3"},"vehicle_type_id":"4","last_reported":1730711469,"current_range_meters":30400,"station_id":"ce4bh412rcd13ifvqdr0","pricing_plan_id":"cebpf4jnsgd1na2vs0mg"},{"bike_id":"fcda431b-00f7-4fd8-bb18-897981fe927f","system_id":"levelo_inurba_marseille","lat":43.26679,"lon":5.38263,"is_reserved":false,"is_disabled":false,"rental_uris":{"android":"levelo://app?vid=fcda431b-00f7-4fd8-bb18-897981fe927f","ios":"levelo://app?vid=fcda431b-00f7-4fd8-bb18-897981fe927f"},"vehicle_type_id":"4","last_reported":1730711469,"current_range_meters":38000,"station_id":"ce4bhg92rcd13ifvqf90","pricing_plan_id":"cebpf4jnsgd1na2vs0mg"},{"bike_id":"da06faf3-8146-4200-88f2-9af71dcd839e","system_id":"levelo_inurba_marseille","lat":43.26676,"lon":5.38274,"is_reserved":false,"is_disabled":false,"rental_uris":{"android":"levelo://app?vid=da06faf3-8146-4200-88f2-9af71dcd839e","ios":"levelo://app?vid=da06faf3-8146-4200-88f2-9af71dcd839e"},"vehicle_type_id":"4","last_reported":1730711469,"current_range_meters":36800,"station_id":"ce4bhg92rcd13ifvqf90","pricing_plan_id":"cebpf4jnsgd1na2vs0mg"},{"bike_id":"8d0bafa5-3e07-4a4f-ab05-9bc750c7af39","system_id":"levelo_inurba_marseille","lat":43.30781,"lon":5.37648,"is_reserved":false,"is_disabled":false,"rental_uris":{"android":"levelo://app?vid=8d0bafa5-3e07-4a4f-ab05-9bc750c7af39","ios":"levelo://app?vid=8d0bafa5-3e07-4a4f-ab05-9bc750c7af39"},"vehicle_type_id":"4","last_reported":1730711469,"current_range_meters":28400,"station_id":"ce4bgv92rcd13ifvqcq0","pricing_plan_id":"cebpf4jnsgd1na2vs0mg"},{"bike_id":"0d3646af-7641-4f41-a526-b0f0065e39da","system_id":"levelo_inurba_marseille","lat":43.27493,"lon":5.4245,"is_reserved":false,"is_disabled":false,"rental_uris":{"android":"levelo://app?vid=0d3646af-7641-4f41-a526-b0f0065e39da","ios":"levelo://app?vid=0d3646af-7641-4f41-a526-b0f0065e39da"},"vehicle_type_id":"4","last_reported":1730711469,"current_range_meters":34000,"station_id":"ce4bhn92rcd13ifvqgrg","pricing_plan_id":"cebpf4jnsgd1na2vs0mg"},{"bike_id":"d9b13aff-b16e-4abb-a7a0-e1af1f6b59f9","system_id":"levelo_inurba_marseille","lat":43.26568,"lon":5.38996,"is_reserved":false,"is_disabled":false,"rental_uris":{"android":"levelo://app?vid=d9b13aff-b16e-4abb-a7a0-e1af1f6b59f9","ios":"levelo://app?vid=d9b13aff-b16e-4abb-a7a0-e1af1f6b59f9"},"vehicle_type_id":"4","last_reported":1730711469,"current_range_meters":26000,"station_id":"ce4bhe12rcd13ifvqf30","pricing_plan_id":"cebpf4jnsgd1na2vs0mg"},{"bike_id":"e7a3d151-226c-42a3-bf04-f4e759e7fcc7","system_id":"levelo_inurba_marseille","lat":43.25868,"lon":5.39896,"is_reserved":false,"is_disabled":false,"rental_uris":{"android":"levelo://app?vid=e7a3d151-226c-42a3-bf04-f4e759e7fcc7","ios":"levelo://app?vid=e7a3d151-226c-42a3-bf04-f4e759e7fcc7"},"vehicle_type_id":"4","last_reported":1730711469,"current_range_meters":4400,"station_id":"ce4bhl92rcd13ifvqghg","pricing_plan_id":"cebpf4jnsgd1na2vs0mg"},{"bike_id":"a1022dd0-4012-4c5a-8d7b-dff970082031","system_id":"levelo_inurba_marseille","lat":43.26951,"lon":5.38633,"is_reserved":false,"is_disabled":false,"rental_uris":{"android":"levelo://app?vid=a1022dd0-4012-4c5a-8d7b-dff970082031","ios":"levelo://app?vid=a1022dd0-4012-4c5a-8d7b-dff970082031"},"vehicle_type_id":"4","last_reported":1730711469,"current_range_meters":6400,"station_id":"ce4bhh92rcd13ifvqfh0","pricing_plan_id":"cebpf4jnsgd1na2vs0mg"},{"bike_id":"7f823f81-0de8-4399-ac99-85f8a1cd0193","system_id":"levelo_inurba_marseille","lat":43.26951,"lon":5.38627,"is_reserved":false,"is_disabled":false,"rental_uris":{"android":"levelo://app?vid=7f823f81-0de8-4399-ac99-85f8a1cd0193","ios":"levelo://app?vid=7f823f81-0de8-4399-ac99-85f8a1cd0193"},"vehicle_type_id":"4","last_reported":1730711469,"current_range_meters":35600,"station_id":"ce4bhh92rcd13ifvqfh0","pricing_plan_id":"cebpf4jnsgd1na2vs0mg"},{"bike_id":"7ce77be2-28e6-467f-9494-16f057502bba","system_id":"levelo_inurba_marseille","lat":43.28153,"lon":5.42632,"is_reserved":false,"is_disabled":false,"rental_uris":{"android":"levelo://app?vid=7ce77be2-28e6-467f-9494-16f057502bba","ios":"levelo://app?vid=7ce77be2-28e6-467f-9494-16f057502bba"},"vehicle_type_id":"4","last_reported":1730711469,"current_range_meters":29600,"station_id":"ce4bhnh2rcd13ifvqgug","pricing_plan_id":"cebpf4jnsgd1na2vs0mg"},{"bike_id":"c8fe287c-8773-492c-bff9-8bcf9d982888","system_id":"levelo_inurba_marseille","lat":43.31352,"lon":5.36718,"is_reserved":false,"is_disabled":false,"rental_uris":{"android":"levelo://app?vid=c8fe287c-8773-492c-bff9-8bcf9d982888","ios":"levelo://app?vid=c8fe287c-8773-492c-bff9-8bcf9d982888"},"vehicle_type_id":"4","last_reported":1730711469,"current_range_meters":27600,"station_id":"ce4bgr92rcd13ifvqc6g","pricing_plan_id":"cebpf4jnsgd1na2vs0mg"},{"bike_id":"5a9508a0-ffb8-440d-8e57-b079acad0af1","system_id":"levelo_inurba_marseille","lat":43.27491,"lon":5.42451,"is_reserved":false,"is_disabled":false,"rental_uris":{"android":"levelo://app?vid=5a9508a0-ffb8-440d-8e57-b079acad0af1","ios":"levelo://app?vid=5a9508a0-ffb8-440d-8e57-b079acad0af1"},"vehicle_type_id":"4","last_reported":1730711469,"current_range_meters":8000,"station_id":"ce4bhn92rcd13ifvqgrg","pricing_plan_id":"cebpf4jnsgd1na2vs0mg"},{"bike_id":"091ea288-464d-4521-8a4e-3784b9dba245","system_id":"levelo_inurba_marseille","lat":43.27205,"lon":5.39181,"is_reserved":false,"is_disabled":false,"rental_uris":{"android":"levelo://app?vid=091ea288-464d-4521-8a4e-3784b9dba245","ios":"levelo://app?vid=091ea288-464d-4521-8a4e-3784b9dba245"},"vehicle_type_id":"4","last_reported":1730711469,"current_range_meters":18800,"station_id":"ce4bhhp2rcd13ifvqfm0","pricing_plan_id":"cebpf4jnsgd1na2vs0mg"},{"bike_id":"fa40f091-6067-48f8-a967-aeb74b2ceea5","system_id":"levelo_inurba_marseille","lat":43.28715,"lon":5.37936,"is_reserved":false,"is_disabled":false,"rental_uris":{"android":"levelo://app?vid=fa40f091-6067-48f8-a967-aeb74b2ceea5","ios":"levelo://app?vid=fa40f091-6067-48f8-a967-aeb74b2ceea5"},"vehicle_type_id":"4","last_reported":1730711469,"current_range_meters":32400,"station_id":"ce4bh9p2rcd13ifvqec0","pricing_plan_id":"cebpf4jnsgd1na2vs0mg"},{"bike_id":"496d1592-f444-4219-9dc2-55373938e639","system_id":"levelo_inurba_marseille","lat":43.28149,"lon":5.42627,"is_reserved":false,"is_disabled":false,"rental_uris":{"android":"levelo://app?vid=496d1592-f444-4219-9dc2-55373938e639","ios":"levelo://app?vid=496d1592-f444-4219-9dc2-55373938e639"},"vehicle_type_id":"4","last_reported":1730711469,"current_range_meters":36000,"station_id":"ce4bhnh2rcd13ifvqgug","pricing_plan_id":"cebpf4jnsgd1na2vs0mg"},{"bike_id":"a00d593c-4c7a-4d12-adbe-01c899ca408a","system_id":"levelo_inurba_marseille","lat":43.27902,"lon":5.38004,"is_reserved":false,"is_disabled":false,"rental_uris":{"android":"levelo://app?vid=a00d593c-4c7a-4d12-adbe-01c899ca408a","ios":"levelo://app?vid=a00d593c-4c7a-4d12-adbe-01c899ca408a"},"vehicle_type_id":"4","last_reported":1730711469,"current_range_meters":38000,"station_id":"ce4bhf92rcd13ifvqf50","pricing_plan_id":"cebpf4jnsgd1na2vs0mg"},{"bike_id":"9dc3374b-0b85-4a8b-88a8-db8ad8f687c8","system_id":"levelo_inurba_marseille","lat":43.24082,"lon":5.37747,"is_reserved":false,"is_disabled":false,"rental_uris":{"android":"levelo://app?vid=9dc3374b-0b85-4a8b-88a8-db8ad8f687c8","ios":"levelo://app?vid=9dc3374b-0b85-4a8b-88a8-db8ad8f687c8"},"vehicle_type_id":"4","last_reported":1730711469,"current_range_meters":12000,"station_id":"ce4bhnp2rcd13ifvqgvg","pricing_plan_id":"cebpf4jnsgd1na2vs0mg"},{"bike_id":"08c559bc-c31a-45d3-ae9e-2ae7901b2067","system_id":"levelo_inurba_marseille","lat":43.23149,"lon":5.43718,"is_reserved":false,"is_disabled":false,"rental_uris":{"android":"levelo://app?vid=08c559bc-c31a-45d3-ae9e-2ae7901b2067","ios":"levelo://app?vid=08c559bc-c31a-45d3-ae9e-2ae7901b2067"},"vehicle_type_id":"4","last_reported":1730711469,"current_range_meters":5600,"station_id":"ce4bhmp2rcd13ifvqgog","pricing_plan_id":"cebpf4jnsgd1na2vs0mg"},{"bike_id":"ef91460b-fafc-46be-9d84-f66d7fe91567","system_id":"levelo_inurba_marseille","lat":43.24071,"lon":5.37759,"is_reserved":false,"is_disabled":false,"rental_uris":{"android":"levelo://app?vid=ef91460b-fafc-46be-9d84-f66d7fe91567","ios":"levelo://app?vid=ef91460b-fafc-46be-9d84-f66d7fe91567"},"vehicle_type_id":"4","last_reported":1730711469,"current_range_meters":30000,"station_id":"ce4bhnp2rcd13ifvqgvg","pricing_plan_id":"cebpf4jnsgd1na2vs0mg"},{"bike_id":"c6e847b9-0da7-4220-baaf-b696661d2f92","system_id":"levelo_inurba_marseille","lat":43.30152,"lon":5.37427,"is_reserved":false,"is_disabled":false,"rental_uris":{"android":"levelo://app?vid=c6e847b9-0da7-4220-baaf-b696661d2f92","ios":"levelo://app?vid=c6e847b9-0da7-4220-baaf-b696661d2f92"},"vehicle_type_id":"4","last_reported":1730711469,"current_range_meters":23200,"station_id":"ce4bgs92rcd13ifvqcc0","pricing_plan_id":"cebpf4jnsgd1na2vs0mg"},{"bike_id":"f940d3bc-1548-4b13-b28c-e609ab16e0f2","system_id":"levelo_inurba_marseille","lat":43.31354,"lon":5.36702,"is_reserved":false,"is_disabled":false,"rental_uris":{"android":"levelo://app?vid=f940d3bc-1548-4b13-b28c-e609ab16e0f2","ios":"levelo://app?vid=f940d3bc-1548-4b13-b28c-e609ab16e0f2"},"vehicle_type_id":"4","last_reported":1730711469,"current_range_meters":18000,"station_id":"ce4bgr92rcd13ifvqc6g","pricing_plan_id":"cebpf4jnsgd1na2vs0mg"},{"bike_id":"b922572a-dcbd-4d6d-933a-e448369bf48e","system_id":"levelo_inurba_marseille","lat":43.289124,"lon":5.362601,"is_reserved":false,"is_disabled":false,"rental_uris":{"android":"levelo://app?vid=b922572a-dcbd-4d6d-933a-e448369bf48e","ios":"levelo://app?vid=b922572a-dcbd-4d6d-933a-e448369bf48e"},"vehicle_type_id":"4","last_reported":1730711469,"current_range_meters":32000,"station_id":"ce4bhc92rcd13ifvqetg","pricing_plan_id":"cebpf4jnsgd1na2vs0mg"},{"bike_id":"c88b59c9-20a3-449e-b16b-550f4923cd7b","system_id":"levelo_inurba_marseille","lat":43.29623,"lon":5.37711,"is_reserved":false,"is_disabled":false,"rental_uris":{"android":"levelo://app?vid=c88b59c9-20a3-449e-b16b-550f4923cd7b","ios":"levelo://app?vid=c88b59c9-20a3-449e-b16b-550f4923cd7b"},"vehicle_type_id":"4","last_reported":1730711469,"current_range_meters":36800,"station_id":"ce4bgi92rcd13ifvqb90","pricing_plan_id":"cebpf4jnsgd1na2vs0mg"},{"bike_id":"edd6181d-02cf-49c3-8386-d50835f0a5d1","system_id":"levelo_inurba_marseille","lat":43.29714,"lon":5.37688,"is_reserved":false,"is_disabled":false,"rental_uris":{"android":"levelo://app?vid=edd6181d-02cf-49c3-8386-d50835f0a5d1","ios":"levelo://app?vid=edd6181d-02cf-49c3-8386-d50835f0a5d1"},"vehicle_type_id":"4","last_reported":1730711469,"current_range_meters":24000,"station_id":"ce4bgkh2rcd13ifvqbl0","pricing_plan_id":"cebpf4jnsgd1na2vs0mg"},{"bike_id":"29aa3fae-0afc-4610-bec7-b8ecd82301a8","system_id":"levelo_inurba_marseille","lat":43.31083,"lon":5.42429,"is_reserved":false,"is_disabled":false,"rental_uris":{"android":"levelo://app?vid=29aa3fae-0afc-4610-bec7-b8ecd82301a8","ios":"levelo://app?vid=29aa3fae-0afc-4610-bec7-b8ecd82301a8"},"vehicle_type_id":"4","last_reported":1730711469,"current_range_meters":25200,"station_id":"ce4bhp92rcd13ifvqhag","pricing_plan_id":"cebpf4jnsgd1na2vs0mg"},{"bike_id":"4b7e9a1a-6a08-4645-9fa7-5d05db2ed889","system_id":"levelo_inurba_marseille","lat":43.25111,"lon":5.40325,"is_reserved":false,"is_disabled":false,"rental_uris":{"android":"levelo://app?vid=4b7e9a1a-6a08-4645-9fa7-5d05db2ed889","ios":"levelo://app?vid=4b7e9a1a-6a08-4645-9fa7-5d05db2ed889"},"vehicle_type_id":"4","last_reported":1730711469,"current_range_meters":31200,"station_id":"ce4bhlh2rcd13ifvqgig","pricing_plan_id":"cebpf4jnsgd1na2vs0mg"},{"bike_id":"ca05696c-7616-416c-bade-67c722f005a6","system_id":"levelo_inurba_marseille","lat":43.28105,"lon":5.37837,"is_reserved":false,"is_disabled":false,"rental_uris":{"android":"levelo://app?vid=ca05696c-7616-416c-bade-67c722f005a6","ios":"levelo://app?vid=ca05696c-7616-416c-bade-67c722f005a6"},"vehicle_type_id":"4","last_reported":1730711469,"current_range_meters":33600,"station_id":"ce4bha12rcd13ifvqee0","pricing_plan_id":"cebpf4jnsgd1na2vs0mg"},{"bike_id":"3a38eb60-07fa-498b-8680-f7a2deecf1cc","system_id":"levelo_inurba_marseille","lat":43.27182,"lon":5.40985,"is_reserved":false,"is_disabled":false,"rental_uris":{"android":"levelo://app?vid=3a38eb60-07fa-498b-8680-f7a2deecf1cc","ios":"levelo://app?vid=3a38eb60-07fa-498b-8680-f7a2deecf1cc"},"vehicle_type_id":"4","last_reported":1730711469,"current_range_meters":28400,"station_id":"ce4bhl12rcd13ifvqgf0","pricing_plan_id":"cebpf4jnsgd1na2vs0mg"},{"bike_id":"b68d6422-f1ad-46b9-b257-35e69ef59c6c","system_id":"levelo_inurba_marseille","lat":43.30913,"lon":5.36849,"is_reserved":false,"is_disabled":false,"rental_uris":{"android":"levelo://app?vid=b68d6422-f1ad-46b9-b257-35e69ef59c6c","ios":"levelo://app?vid=b68d6422-f1ad-46b9-b257-35e69ef59c6c"},"vehicle_type_id":"4","last_reported":1730711469,"current_range_meters":25200,"station_id":"ce4bgn92rcd13ifvqbvg","pricing_plan_id":"cebpf4jnsgd1na2vs0mg"},{"bike_id":"d4472d20-9c4b-4c70-ad00-3a005519a429","system_id":"levelo_inurba_marseille","lat":43.35385,"lon":5.35726,"is_reserved":false,"is_disabled":false,"rental_uris":{"android":"levelo://app?vid=d4472d20-9c4b-4c70-ad00-3a005519a429","ios":"levelo://app?vid=d4472d20-9c4b-4c70-ad00-3a005519a429"},"vehicle_type_id":"4","last_reported":1730711469,"current_range_meters":9600,"station_id":"","pricing_plan_id":"cebpf4jnsgd1na2vs0mg"},{"bike_id":"4bd01789-c771-47ac-86c8-73b3d5706e40","system_id":"levelo_inurba_marseille","lat":43.25935,"lon":5.40911,"is_reserved":false,"is_disabled":false,"rental_uris":{"android":"levelo://app?vid=4bd01789-c771-47ac-86c8-73b3d5706e40","ios":"levelo://app?vid=4bd01789-c771-47ac-86c8-73b3d5706e40"},"vehicle_type_id":"4","last_reported":1730711469,"current_range_meters":32800,"station_id":"ce4bhm92rcd13ifvqglg","pricing_plan_id":"cebpf4jnsgd1na2vs0mg"},{"bike_id":"912e0a3f-207a-4c5b-b2b7-675e07ddaafd","system_id":"levelo_inurba_marseille","lat":43.30553,"lon":5.36532,"is_reserved":false,"is_disabled":false,"rental_uris":{"android":"levelo://app?vid=912e0a3f-207a-4c5b-b2b7-675e07ddaafd","ios":"levelo://app?vid=912e0a3f-207a-4c5b-b2b7-675e07ddaafd"},"vehicle_type_id":"4","last_reported":1730711469,"current_range_meters":38000,"station_id":"ce4bgs12rcd13ifvqcag","pricing_plan_id":"cebpf4jnsgd1na2vs0mg"},{"bike_id":"c09a7329-74d9-48dd-a3d8-26a52258e13f","system_id":"levelo_inurba_marseille","lat":43.23151,"lon":5.43714,"is_reserved":false,"is_disabled":false,"rental_uris":{"android":"levelo://app?vid=c09a7329-74d9-48dd-a3d8-26a52258e13f","ios":"levelo://app?vid=c09a7329-74d9-48dd-a3d8-26a52258e13f"},"vehicle_type_id":"4","last_reported":1730711469,"current_range_meters":4800,"station_id":"ce4bhmp2rcd13ifvqgog","pricing_plan_id":"cebpf4jnsgd1na2vs0mg"},{"bike_id":"c0fc0309-9932-4078-9c3a-40d60c422eb6","system_id":"levelo_inurba_marseille","lat":43.29017,"lon":5.38126,"is_reserved":false,"is_disabled":false,"rental_uris":{"android":"levelo://app?vid=c0fc0309-9932-4078-9c3a-40d60c422eb6","ios":"levelo://app?vid=c0fc0309-9932-4078-9c3a-40d60c422eb6"},"vehicle_type_id":"4","last_reported":1730711469,"current_range_meters":8000,"station_id":"ce4bh4p2rcd13ifvqe1g","pricing_plan_id":"cebpf4jnsgd1na2vs0mg"},{"bike_id":"240844dc-81d1-4e72-bfc2-c793d5228104","system_id":"levelo_inurba_marseille","lat":43.29717,"lon":5.37699,"is_reserved":false,"is_disabled":false,"rental_uris":{"android":"levelo://app?vid=240844dc-81d1-4e72-bfc2-c793d5228104","ios":"levelo://app?vid=240844dc-81d1-4e72-bfc2-c793d5228104"},"vehicle_type_id":"4","last_reported":1730711469,"current_range_meters":22400,"station_id":"ce4bgkh2rcd13ifvqbl0","pricing_plan_id":"cebpf4jnsgd1na2vs0mg"},{"bike_id":"f8833f7b-49c8-440c-b671-beb72799bdec","system_id":"levelo_inurba_marseille","lat":43.24979,"lon":5.37507,"is_reserved":false,"is_disabled":false,"rental_uris":{"android":"levelo://app?vid=f8833f7b-49c8-440c-b671-beb72799bdec","ios":"levelo://app?vid=f8833f7b-49c8-440c-b671-beb72799bdec"},"vehicle_type_id":"4","last_reported":1730711469,"current_range_meters":27200,"station_id":"","pricing_plan_id":"cebpf4jnsgd1na2vs0mg"},{"bike_id":"0f8f14ee-1866-47bb-b28d-ae58cb8d7404","system_id":"levelo_inurba_marseille","lat":43.31222,"lon":5.36855,"is_reserved":false,"is_disabled":false,"rental_uris":{"android":"levelo://app?vid=0f8f14ee-1866-47bb-b28d-ae58cb8d7404","ios":"levelo://app?vid=0f8f14ee-1866-47bb-b28d-ae58cb8d7404"},"vehicle_type_id":"4","last_reported":1730711469,"current_range_meters":28000,"station_id":"ce4bgl92rcd13ifvqbq0","pricing_plan_id":"cebpf4jnsgd1na2vs0mg"},{"bike_id":"84f1db65-2ddd-4a81-bd8c-ae36a6c13b73","system_id":"levelo_inurba_marseille","lat":43.29034,"lon":5.39978,"is_reserved":false,"is_disabled":false,"rental_uris":{"android":"levelo://app?vid=84f1db65-2ddd-4a81-bd8c-ae36a6c13b73","ios":"levelo://app?vid=84f1db65-2ddd-4a81-bd8c-ae36a6c13b73"},"vehicle_type_id":"4","last_reported":1730711469,"current_range_meters":36800,"station_id":"ce4bh392rcd13ifvqdm0","pricing_plan_id":"cebpf4jnsgd1na2vs0mg"},{"bike_id":"2fba5a19-cee8-433f-8d6f-f3e474f37387","system_id":"levelo_inurba_marseille","lat":43.31366,"lon":5.36719,"is_reserved":false,"is_disabled":false,"rental_uris":{"android":"levelo://app?vid=2fba5a19-cee8-433f-8d6f-f3e474f37387","ios":"levelo://app?vid=2fba5a19-cee8-433f-8d6f-f3e474f37387"},"vehicle_type_id":"4","last_reported":1730711469,"current_range_meters":34000,"station_id":"ce4bgr92rcd13ifvqc6g","pricing_plan_id":"cebpf4jnsgd1na2vs0mg"},{"bike_id":"7dbc5c61-122b-45ec-b9fb-9274fc54d230","system_id":"levelo_inurba_marseille","lat":43.32544,"lon":5.41424,"is_reserved":false,"is_disabled":false,"rental_uris":{"android":"levelo://app?vid=7dbc5c61-122b-45ec-b9fb-9274fc54d230","ios":"levelo://app?vid=7dbc5c61-122b-45ec-b9fb-9274fc54d230"},"vehicle_type_id":"4","last_reported":1730711469,"current_range_meters":25600,"station_id":"ce4bhq12rcd13ifvqhhg","pricing_plan_id":"cebpf4jnsgd1na2vs0mg"},{"bike_id":"98c11371-ec47-468c-8c3d-1f20f9e8bc05","system_id":"levelo_inurba_marseille","lat":43.24074,"lon":5.37759,"is_reserved":false,"is_disabled":false,"rental_uris":{"android":"levelo://app?vid=98c11371-ec47-468c-8c3d-1f20f9e8bc05","ios":"levelo://app?vid=98c11371-ec47-468c-8c3d-1f20f9e8bc05"},"vehicle_type_id":"4","last_reported":1730711469,"current_range_meters":22800,"station_id":"ce4bhnp2rcd13ifvqgvg","pricing_plan_id":"cebpf4jnsgd1na2vs0mg"},{"bike_id":"eeb5af3d-79f9-45ed-95f9-f60e99a90a19","system_id":"levelo_inurba_marseille","lat":43.23153,"lon":5.437356,"is_reserved":false,"is_disabled":false,"rental_uris":{"android":"levelo://app?vid=eeb5af3d-79f9-45ed-95f9-f60e99a90a19","ios":"levelo://app?vid=eeb5af3d-79f9-45ed-95f9-f60e99a90a19"},"vehicle_type_id":"4","last_reported":1730711469,"current_range_meters":18000,"station_id":"ce4bhmp2rcd13ifvqgog","pricing_plan_id":"cebpf4jnsgd1na2vs0mg"},{"bike_id":"128c6138-7b8f-41fb-8846-b155b9e9fc62","system_id":"levelo_inurba_marseille","lat":43.30948,"lon":5.39035,"is_reserved":false,"is_disabled":false,"rental_uris":{"android":"levelo://app?vid=128c6138-7b8f-41fb-8846-b155b9e9fc62","ios":"levelo://app?vid=128c6138-7b8f-41fb-8846-b155b9e9fc62"},"vehicle_type_id":"4","last_reported":1730711469,"current_range_meters":38800,"station_id":"ce4bgup2rcd13ifvqco0","pricing_plan_id":"cebpf4jnsgd1na2vs0mg"},{"bike_id":"40733afb-19be-48a8-9714-ec11f089b48a","system_id":"levelo_inurba_marseille","lat":43.28615,"lon":5.37048,"is_reserved":false,"is_disabled":false,"rental_uris":{"android":"levelo://app?vid=40733afb-19be-48a8-9714-ec11f089b48a","ios":"levelo://app?vid=40733afb-19be-48a8-9714-ec11f089b48a"},"vehicle_type_id":"4","last_reported":1730711469,"current_range_meters":32800,"station_id":"ce4bht12rcd13ifvqi60","pricing_plan_id":"cebpf4jnsgd1na2vs0mg"},{"bike_id":"94c8aa08-abc9-45cb-b45a-ab6494a06b08","system_id":"levelo_inurba_marseille","lat":43.30552,"lon":5.36533,"is_reserved":false,"is_disabled":false,"rental_uris":{"android":"levelo://app?vid=94c8aa08-abc9-45cb-b45a-ab6494a06b08","ios":"levelo://app?vid=94c8aa08-abc9-45cb-b45a-ab6494a06b08"},"vehicle_type_id":"4","last_reported":1730711469,"current_range_meters":30400,"station_id":"ce4bgs12rcd13ifvqcag","pricing_plan_id":"cebpf4jnsgd1na2vs0mg"},{"bike_id":"047c2de7-07cc-42b9-a607-ec4d58ef9aa4","system_id":"levelo_inurba_marseille","lat":43.28327,"lon":5.4058,"is_reserved":false,"is_disabled":false,"rental_uris":{"android":"levelo://app?vid=047c2de7-07cc-42b9-a607-ec4d58ef9aa4","ios":"levelo://app?vid=047c2de7-07cc-42b9-a607-ec4d58ef9aa4"},"vehicle_type_id":"4","last_reported":1730711469,"current_range_meters":7200,"station_id":"","pricing_plan_id":"cebpf4jnsgd1na2vs0mg"},{"bike_id":"53d85954-6ca7-4085-b02a-f029d56d24dc","system_id":"levelo_inurba_marseille","lat":43.28615,"lon":5.35101,"is_reserved":false,"is_disabled":false,"rental_uris":{"android":"levelo://app?vid=53d85954-6ca7-4085-b02a-f029d56d24dc","ios":"levelo://app?vid=53d85954-6ca7-4085-b02a-f029d56d24dc"},"vehicle_type_id":"4","last_reported":1730711469,"current_range_meters":8800,"station_id":"ce4bhch2rcd13ifvqeug","pricing_plan_id":"cebpf4jnsgd1na2vs0mg"},{"bike_id":"1db175d3-3ea2-4883-b679-33db78b42664","system_id":"levelo_inurba_marseille","lat":43.27063,"lon":5.40258,"is_reserved":false,"is_disabled":false,"rental_uris":{"android":"levelo://app?vid=1db175d3-3ea2-4883-b679-33db78b42664","ios":"levelo://app?vid=1db175d3-3ea2-4883-b679-33db78b42664"},"vehicle_type_id":"4","last_reported":1730711469,"current_range_meters":30800,"station_id":"ce4bhk92rcd13ifvqgc0","pricing_plan_id":"cebpf4jnsgd1na2vs0mg"},{"bike_id":"9eddccab-61b1-4e9e-acd5-5666919cc058","system_id":"levelo_inurba_marseille","lat":43.30144,"lon":5.37424,"is_reserved":false,"is_disabled":false,"rental_uris":{"android":"levelo://app?vid=9eddccab-61b1-4e9e-acd5-5666919cc058","ios":"levelo://app?vid=9eddccab-61b1-4e9e-acd5-5666919cc058"},"vehicle_type_id":"4","last_reported":1730711469,"current_range_meters":22400,"station_id":"ce4bgs92rcd13ifvqcc0","pricing_plan_id":"cebpf4jnsgd1na2vs0mg"},{"bike_id":"a3fae01f-28f3-43fc-93b6-516371068c6a","system_id":"levelo_inurba_marseille","lat":43.28472,"lon":5.384,"is_reserved":false,"is_disabled":false,"rental_uris":{"android":"levelo://app?vid=a3fae01f-28f3-43fc-93b6-516371068c6a","ios":"levelo://app?vid=a3fae01f-28f3-43fc-93b6-516371068c6a"},"vehicle_type_id":"4","last_reported":1730711469,"current_range_meters":39200,"station_id":"ce4bh512rcd13ifvqe3g","pricing_plan_id":"cebpf4jnsgd1na2vs0mg"},{"bike_id":"d998a56d-74bc-44a3-a2a1-5119a7e357f9","system_id":"levelo_inurba_marseille","lat":43.28974,"lon":5.37835,"is_reserved":false,"is_disabled":false,"rental_uris":{"android":"levelo://app?vid=d998a56d-74bc-44a3-a2a1-5119a7e357f9","ios":"levelo://app?vid=d998a56d-74bc-44a3-a2a1-5119a7e357f9"},"vehicle_type_id":"4","last_reported":1730711469,"current_range_meters":38000,"station_id":"ce4bh9p2rcd13ifvqed0","pricing_plan_id":"cebpf4jnsgd1na2vs0mg"},{"bike_id":"cfceb85a-8c7b-4241-b2ee-fb768a9758e3","system_id":"levelo_inurba_marseille","lat":43.27994,"lon":5.41663,"is_reserved":false,"is_disabled":false,"rental_uris":{"android":"levelo://app?vid=cfceb85a-8c7b-4241-b2ee-fb768a9758e3","ios":"levelo://app?vid=cfceb85a-8c7b-4241-b2ee-fb768a9758e3"},"vehicle_type_id":"4","last_reported":1730711469,"current_range_meters":37600,"station_id":"ce4bho12rcd13ifvqh1g","pricing_plan_id":"cebpf4jnsgd1na2vs0mg"},{"bike_id":"8cff5f0e-439f-4c57-842e-e2ee2698540e","system_id":"levelo_inurba_marseille","lat":43.272144,"lon":5.391821,"is_reserved":false,"is_disabled":false,"rental_uris":{"android":"levelo://app?vid=8cff5f0e-439f-4c57-842e-e2ee2698540e","ios":"levelo://app?vid=8cff5f0e-439f-4c57-842e-e2ee2698540e"},"vehicle_type_id":"4","last_reported":1730711469,"current_range_meters":38800,"station_id":"ce4bhhp2rcd13ifvqfm0","pricing_plan_id":"cebpf4jnsgd1na2vs0mg"},{"bike_id":"7aad5d6f-422f-478a-abc6-e20286c98efd","system_id":"levelo_inurba_marseille","lat":43.29588,"lon":5.37521,"is_reserved":false,"is_disabled":false,"rental_uris":{"android":"levelo://app?vid=7aad5d6f-422f-478a-abc6-e20286c98efd","ios":"levelo://app?vid=7aad5d6f-422f-478a-abc6-e20286c98efd"},"vehicle_type_id":"4","last_reported":1730711469,"current_range_meters":30400,"station_id":"ce4bgh92rcd13ifvqb50","pricing_plan_id":"cebpf4jnsgd1na2vs0mg"},{"bike_id":"52c87382-fa2b-4b96-89a5-f73605f11272","system_id":"levelo_inurba_marseille","lat":43.23849,"lon":5.38957,"is_reserved":false,"is_disabled":false,"rental_uris":{"android":"levelo://app?vid=52c87382-fa2b-4b96-89a5-f73605f11272","ios":"levelo://app?vid=52c87382-fa2b-4b96-89a5-f73605f11272"},"vehicle_type_id":"4","last_reported":1730711469,"current_range_meters":23200,"station_id":"","pricing_plan_id":"cebpf4jnsgd1na2vs0mg"},{"bike_id":"ba5dbdeb-fc6a-4b1e-966f-6d742c9f71e5","system_id":"levelo_inurba_marseille","lat":43.2873,"lon":5.3793,"is_reserved":false,"is_disabled":false,"rental_uris":{"android":"levelo://app?vid=ba5dbdeb-fc6a-4b1e-966f-6d742c9f71e5","ios":"levelo://app?vid=ba5dbdeb-fc6a-4b1e-966f-6d742c9f71e5"},"vehicle_type_id":"4","last_reported":1730711469,"current_range_meters":34000,"station_id":"ce4bh9p2rcd13ifvqec0","pricing_plan_id":"cebpf4jnsgd1na2vs0mg"},{"bike_id":"a1637a4b-5969-42e5-b096-5a17078386cb","system_id":"levelo_inurba_marseille","lat":43.31354,"lon":5.36717,"is_reserved":false,"is_disabled":false,"rental_uris":{"android":"levelo://app?vid=a1637a4b-5969-42e5-b096-5a17078386cb","ios":"levelo://app?vid=a1637a4b-5969-42e5-b096-5a17078386cb"},"vehicle_type_id":"4","last_reported":1730711469,"current_range_meters":11200,"station_id":"ce4bgr92rcd13ifvqc6g","pricing_plan_id":"cebpf4jnsgd1na2vs0mg"},{"bike_id":"d9a1fa31-947a-4b97-8e33-aa5c2150e4b5","system_id":"levelo_inurba_marseille","lat":43.33614,"lon":5.41027,"is_reserved":false,"is_disabled":false,"rental_uris":{"android":"levelo://app?vid=d9a1fa31-947a-4b97-8e33-aa5c2150e4b5","ios":"levelo://app?vid=d9a1fa31-947a-4b97-8e33-aa5c2150e4b5"},"vehicle_type_id":"4","last_reported":1730711469,"current_range_meters":14000,"station_id":"ce4bhqh2rcd13ifvqhmg","pricing_plan_id":"cebpf4jnsgd1na2vs0mg"},{"bike_id":"5908bc81-a7f9-48ff-a0cb-2e9155342915","system_id":"levelo_inurba_marseille","lat":43.31069,"lon":5.3834,"is_reserved":false,"is_disabled":false,"rental_uris":{"android":"levelo://app?vid=5908bc81-a7f9-48ff-a0cb-2e9155342915","ios":"levelo://app?vid=5908bc81-a7f9-48ff-a0cb-2e9155342915"},"vehicle_type_id":"4","last_reported":1730711469,"current_range_meters":24800,"station_id":"ce4bgv92rcd13ifvqcr0","pricing_plan_id":"cebpf4jnsgd1na2vs0mg"},{"bike_id":"4adb7e65-e18e-4ef1-be00-3ea3c7f6dd44","system_id":"levelo_inurba_marseille","lat":43.24076,"lon":5.37732,"is_reserved":false,"is_disabled":false,"rental_uris":{"android":"levelo://app?vid=4adb7e65-e18e-4ef1-be00-3ea3c7f6dd44","ios":"levelo://app?vid=4adb7e65-e18e-4ef1-be00-3ea3c7f6dd44"},"vehicle_type_id":"4","last_reported":1730711469,"current_range_meters":27600,"station_id":"ce4bhnp2rcd13ifvqgvg","pricing_plan_id":"cebpf4jnsgd1na2vs0mg"},{"bike_id":"82ddcd16-6e33-4839-b269-008091a238aa","system_id":"levelo_inurba_marseille","lat":43.29984,"lon":5.38481,"is_reserved":false,"is_disabled":false,"rental_uris":{"android":"levelo://app?vid=82ddcd16-6e33-4839-b269-008091a238aa","ios":"levelo://app?vid=82ddcd16-6e33-4839-b269-008091a238aa"},"vehicle_type_id":"4","last_reported":1730711469,"current_range_meters":30000,"station_id":"ce4bgj92rcd13ifvqbd0","pricing_plan_id":"cebpf4jnsgd1na2vs0mg"},{"bike_id":"ee3dccf9-22bf-4760-8927-68d482635c84","system_id":"levelo_inurba_marseille","lat":43.30541,"lon":5.36527,"is_reserved":false,"is_disabled":false,"rental_uris":{"android":"levelo://app?vid=ee3dccf9-22bf-4760-8927-68d482635c84","ios":"levelo://app?vid=ee3dccf9-22bf-4760-8927-68d482635c84"},"vehicle_type_id":"4","last_reported":1730711469,"current_range_meters":38800,"station_id":"ce4bgs12rcd13ifvqcag","pricing_plan_id":"cebpf4jnsgd1na2vs0mg"},{"bike_id":"1b80601b-8be3-4b0b-bcc4-eebb89de1629","system_id":"levelo_inurba_marseille","lat":43.25832,"lon":5.39431,"is_reserved":false,"is_disabled":false,"rental_uris":{"android":"levelo://app?vid=1b80601b-8be3-4b0b-bcc4-eebb89de1629","ios":"levelo://app?vid=1b80601b-8be3-4b0b-bcc4-eebb89de1629"},"vehicle_type_id":"4","last_reported":1730711469,"current_range_meters":30400,"station_id":"ce4bhip2rcd13ifvqft0","pricing_plan_id":"cebpf4jnsgd1na2vs0mg"},{"bike_id":"07375330-8a2d-460b-9c4b-da855d067c37","system_id":"levelo_inurba_marseille","lat":43.337594,"lon":5.374549,"is_reserved":false,"is_disabled":false,"rental_uris":{"android":"levelo://app?vid=07375330-8a2d-460b-9c4b-da855d067c37","ios":"levelo://app?vid=07375330-8a2d-460b-9c4b-da855d067c37"},"vehicle_type_id":"4","last_reported":1730711469,"current_range_meters":38800,"station_id":"","pricing_plan_id":"cebpf4jnsgd1na2vs0mg"},{"bike_id":"e2c5451f-301a-4c16-b015-3aa237f8aa06","system_id":"levelo_inurba_marseille","lat":43.29938,"lon":5.36542,"is_reserved":false,"is_disabled":false,"rental_uris":{"android":"levelo://app?vid=e2c5451f-301a-4c16-b015-3aa237f8aa06","ios":"levelo://app?vid=e2c5451f-301a-4c16-b015-3aa237f8aa06"},"vehicle_type_id":"4","last_reported":1730711469,"current_range_meters":32000,"station_id":"ce4bgm92rcd13ifvqbr0","pricing_plan_id":"cebpf4jnsgd1na2vs0mg"},{"bike_id":"34d79294-ce7d-4438-be71-ec19030923fc","system_id":"levelo_inurba_marseille","lat":43.27495,"lon":5.42452,"is_reserved":false,"is_disabled":false,"rental_uris":{"android":"levelo://app?vid=34d79294-ce7d-4438-be71-ec19030923fc","ios":"levelo://app?vid=34d79294-ce7d-4438-be71-ec19030923fc"},"vehicle_type_id":"4","last_reported":1730711469,"current_range_meters":31200,"station_id":"ce4bhn92rcd13ifvqgrg","pricing_plan_id":"cebpf4jnsgd1na2vs0mg"},{"bike_id":"8c4b86bc-c636-40d1-85fc-5c97eb499250","system_id":"levelo_inurba_marseille","lat":43.287028,"lon":5.399921,"is_reserved":false,"is_disabled":false,"rental_uris":{"android":"levelo://app?vid=8c4b86bc-c636-40d1-85fc-5c97eb499250","ios":"levelo://app?vid=8c4b86bc-c636-40d1-85fc-5c97eb499250"},"vehicle_type_id":"4","last_reported":1730711469,"current_range_meters":4000,"station_id":"ce4bho92rcd13ifvqh3g","pricing_plan_id":"cebpf4jnsgd1na2vs0mg"},{"bike_id":"d68eb9cf-4f50-4d96-b665-d665e6bf6219","system_id":"levelo_inurba_marseille","lat":43.28349,"lon":5.38111,"is_reserved":false,"is_disabled":false,"rental_uris":{"android":"levelo://app?vid=d68eb9cf-4f50-4d96-b665-d665e6bf6219","ios":"levelo://app?vid=d68eb9cf-4f50-4d96-b665-d665e6bf6219"},"vehicle_type_id":"4","last_reported":1730711469,"current_range_meters":38800,"station_id":"ce4bh412rcd13ifvqdr0","pricing_plan_id":"cebpf4jnsgd1na2vs0mg"},{"bike_id":"c87ad16f-287a-4530-9f45-be77bc1c26d2","system_id":"levelo_inurba_marseille","lat":43.30142,"lon":5.37412,"is_reserved":false,"is_disabled":false,"rental_uris":{"android":"levelo://app?vid=c87ad16f-287a-4530-9f45-be77bc1c26d2","ios":"levelo://app?vid=c87ad16f-287a-4530-9f45-be77bc1c26d2"},"vehicle_type_id":"4","last_reported":1730711469,"current_range_meters":31200,"station_id":"ce4bgs92rcd13ifvqcc0","pricing_plan_id":"cebpf4jnsgd1na2vs0mg"},{"bike_id":"02df76cb-88bc-418c-bab6-92598cda0426","system_id":"levelo_inurba_marseille","lat":43.27203,"lon":5.39173,"is_reserved":false,"is_disabled":false,"rental_uris":{"android":"levelo://app?vid=02df76cb-88bc-418c-bab6-92598cda0426","ios":"levelo://app?vid=02df76cb-88bc-418c-bab6-92598cda0426"},"vehicle_type_id":"4","last_reported":1730711469,"current_range_meters":35200,"station_id":"ce4bhhp2rcd13ifvqfm0","pricing_plan_id":"cebpf4jnsgd1na2vs0mg"},{"bike_id":"c8ff769d-3de8-4ba5-b126-ee1befb95d70","system_id":"levelo_inurba_marseille","lat":43.2386,"lon":5.38979,"is_reserved":false,"is_disabled":false,"rental_uris":{"android":"levelo://app?vid=c8ff769d-3de8-4ba5-b126-ee1befb95d70","ios":"levelo://app?vid=c8ff769d-3de8-4ba5-b126-ee1befb95d70"},"vehicle_type_id":"4","last_reported":1730711469,"current_range_meters":9200,"station_id":"","pricing_plan_id":"cebpf4jnsgd1na2vs0mg"},{"bike_id":"1751e87c-3dd4-4ebc-91e4-1968bdeaacdc","system_id":"levelo_inurba_marseille","lat":43.30552,"lon":5.36695,"is_reserved":false,"is_disabled":false,"rental_uris":{"android":"levelo://app?vid=1751e87c-3dd4-4ebc-91e4-1968bdeaacdc","ios":"levelo://app?vid=1751e87c-3dd4-4ebc-91e4-1968bdeaacdc"},"vehicle_type_id":"4","last_reported":1730711469,"current_range_meters":39200,"station_id":"ce4bgrp2rcd13ifvqc9g","pricing_plan_id":"cebpf4jnsgd1na2vs0mg"},{"bike_id":"beeef4e4-0d45-4dfa-9ccc-aedb2ce31115","system_id":"levelo_inurba_marseille","lat":43.32107,"lon":5.36766,"is_reserved":false,"is_disabled":false,"rental_uris":{"android":"levelo://app?vid=beeef4e4-0d45-4dfa-9ccc-aedb2ce31115","ios":"levelo://app?vid=beeef4e4-0d45-4dfa-9ccc-aedb2ce31115"},"vehicle_type_id":"4","last_reported":1730711469,"current_range_meters":31200,"station_id":"ce4bhrh2rcd13ifvqhug","pricing_plan_id":"cebpf4jnsgd1na2vs0mg"},{"bike_id":"e057b72f-da22-4f74-b632-7c26ad219f8c","system_id":"levelo_inurba_marseille","lat":43.32289,"lon":5.38278,"is_reserved":false,"is_disabled":false,"rental_uris":{"android":"levelo://app?vid=e057b72f-da22-4f74-b632-7c26ad219f8c","ios":"levelo://app?vid=e057b72f-da22-4f74-b632-7c26ad219f8c"},"vehicle_type_id":"4","last_reported":1730711469,"current_range_meters":38800,"station_id":"ce4bhr12rcd13ifvqhqg","pricing_plan_id":"cebpf4jnsgd1na2vs0mg"},{"bike_id":"dcad223a-dec2-4896-b82b-a08ea958ce75","system_id":"levelo_inurba_marseille","lat":43.30134,"lon":5.37416,"is_reserved":false,"is_disabled":false,"rental_uris":{"android":"levelo://app?vid=dcad223a-dec2-4896-b82b-a08ea958ce75","ios":"levelo://app?vid=dcad223a-dec2-4896-b82b-a08ea958ce75"},"vehicle_type_id":"4","last_reported":1730711469,"current_range_meters":27600,"station_id":"ce4bgs92rcd13ifvqcc0","pricing_plan_id":"cebpf4jnsgd1na2vs0mg"},{"bike_id":"1baec5b1-2835-4aae-9fa9-ee83d2a6ae7c","system_id":"levelo_inurba_marseille","lat":43.27318,"lon":5.39059,"is_reserved":false,"is_disabled":false,"rental_uris":{"android":"levelo://app?vid=1baec5b1-2835-4aae-9fa9-ee83d2a6ae7c","ios":"levelo://app?vid=1baec5b1-2835-4aae-9fa9-ee83d2a6ae7c"},"vehicle_type_id":"4","last_reported":1730711469,"current_range_meters":9600,"station_id":"ce4bhgp2rcd13ifvqfe0","pricing_plan_id":"cebpf4jnsgd1na2vs0mg"},{"bike_id":"05541cc8-e50e-4ef2-9e57-937d9f130ea0","system_id":"levelo_inurba_marseille","lat":43.27219,"lon":5.3918,"is_reserved":false,"is_disabled":false,"rental_uris":{"android":"levelo://app?vid=05541cc8-e50e-4ef2-9e57-937d9f130ea0","ios":"levelo://app?vid=05541cc8-e50e-4ef2-9e57-937d9f130ea0"},"vehicle_type_id":"4","last_reported":1730711469,"current_range_meters":12800,"station_id":"ce4bhhp2rcd13ifvqfm0","pricing_plan_id":"cebpf4jnsgd1na2vs0mg"},{"bike_id":"55a5ca7c-6af1-429c-9c94-9fa3bccda2bb","system_id":"levelo_inurba_marseille","lat":43.28347,"lon":5.3811,"is_reserved":false,"is_disabled":false,"rental_uris":{"android":"levelo://app?vid=55a5ca7c-6af1-429c-9c94-9fa3bccda2bb","ios":"levelo://app?vid=55a5ca7c-6af1-429c-9c94-9fa3bccda2bb"},"vehicle_type_id":"4","last_reported":1730711469,"current_range_meters":28000,"station_id":"ce4bh412rcd13ifvqdr0","pricing_plan_id":"cebpf4jnsgd1na2vs0mg"},{"bike_id":"b0d285de-6099-447e-a29c-05a573e401b8","system_id":"levelo_inurba_marseille","lat":43.31334,"lon":5.36744,"is_reserved":false,"is_disabled":false,"rental_uris":{"android":"levelo://app?vid=b0d285de-6099-447e-a29c-05a573e401b8","ios":"levelo://app?vid=b0d285de-6099-447e-a29c-05a573e401b8"},"vehicle_type_id":"4","last_reported":1730711469,"current_range_meters":30000,"station_id":"ce4bgr92rcd13ifvqc6g","pricing_plan_id":"cebpf4jnsgd1na2vs0mg"},{"bike_id":"f96ca6c2-ba6c-4815-bdd1-aeffffe5cb3c","system_id":"levelo_inurba_marseille","lat":43.28702,"lon":5.37383,"is_reserved":false,"is_disabled":false,"rental_uris":{"android":"levelo://app?vid=f96ca6c2-ba6c-4815-bdd1-aeffffe5cb3c","ios":"levelo://app?vid=f96ca6c2-ba6c-4815-bdd1-aeffffe5cb3c"},"vehicle_type_id":"4","last_reported":1730711469,"current_range_meters":38800,"station_id":"ce4bh3p2rcd13ifvqdq0","pricing_plan_id":"cebpf4jnsgd1na2vs0mg"},{"bike_id":"905ab8e9-1f53-439c-a3ce-7d736f026964","system_id":"levelo_inurba_marseille","lat":43.30549,"lon":5.36702,"is_reserved":false,"is_disabled":false,"rental_uris":{"android":"levelo://app?vid=905ab8e9-1f53-439c-a3ce-7d736f026964","ios":"levelo://app?vid=905ab8e9-1f53-439c-a3ce-7d736f026964"},"vehicle_type_id":"4","last_reported":1730711469,"current_range_meters":38800,"station_id":"ce4bgrp2rcd13ifvqc9g","pricing_plan_id":"cebpf4jnsgd1na2vs0mg"},{"bike_id":"4783aed0-5b0b-4b8b-9cc3-515df70a4cea","system_id":"levelo_inurba_marseille","lat":43.27493,"lon":5.42455,"is_reserved":false,"is_disabled":false,"rental_uris":{"android":"levelo://app?vid=4783aed0-5b0b-4b8b-9cc3-515df70a4cea","ios":"levelo://app?vid=4783aed0-5b0b-4b8b-9cc3-515df70a4cea"},"vehicle_type_id":"4","last_reported":1730711469,"current_range_meters":30800,"station_id":"ce4bhn92rcd13ifvqgrg","pricing_plan_id":"cebpf4jnsgd1na2vs0mg"},{"bike_id":"bf0d33f1-9cf6-4b97-97e6-0130f5e48af5","system_id":"levelo_inurba_marseille","lat":43.299436,"lon":5.365642,"is_reserved":false,"is_disabled":false,"rental_uris":{"android":"levelo://app?vid=bf0d33f1-9cf6-4b97-97e6-0130f5e48af5","ios":"levelo://app?vid=bf0d33f1-9cf6-4b97-97e6-0130f5e48af5"},"vehicle_type_id":"4","last_reported":1730711469,"current_range_meters":28000,"station_id":"ce4bgm92rcd13ifvqbr0","pricing_plan_id":"cebpf4jnsgd1na2vs0mg"},{"bike_id":"7b8934ab-1a6b-4c2d-b5fa-40771c000556","system_id":"levelo_inurba_marseille","lat":43.27069,"lon":5.4227,"is_reserved":false,"is_disabled":false,"rental_uris":{"android":"levelo://app?vid=7b8934ab-1a6b-4c2d-b5fa-40771c000556","ios":"levelo://app?vid=7b8934ab-1a6b-4c2d-b5fa-40771c000556"},"vehicle_type_id":"4","last_reported":1730711469,"current_range_meters":17600,"station_id":"ce4bhk92rcd13ifvqgb0","pricing_plan_id":"cebpf4jnsgd1na2vs0mg"},{"bike_id":"a0ed6699-83e8-4db1-b811-73c5e9f3475e","system_id":"levelo_inurba_marseille","lat":43.2749,"lon":5.42457,"is_reserved":false,"is_disabled":false,"rental_uris":{"android":"levelo://app?vid=a0ed6699-83e8-4db1-b811-73c5e9f3475e","ios":"levelo://app?vid=a0ed6699-83e8-4db1-b811-73c5e9f3475e"},"vehicle_type_id":"4","last_reported":1730711469,"current_range_meters":32000,"station_id":"ce4bhn92rcd13ifvqgrg","pricing_plan_id":"cebpf4jnsgd1na2vs0mg"},{"bike_id":"bb2e6a10-81d5-4268-b926-34be8f4924b1","system_id":"levelo_inurba_marseille","lat":43.28939,"lon":5.36637,"is_reserved":false,"is_disabled":false,"rental_uris":{"android":"levelo://app?vid=bb2e6a10-81d5-4268-b926-34be8f4924b1","ios":"levelo://app?vid=bb2e6a10-81d5-4268-b926-34be8f4924b1"},"vehicle_type_id":"4","last_reported":1730711469,"current_range_meters":38400,"station_id":"ce4bhap2rcd13ifvqek0","pricing_plan_id":"cebpf4jnsgd1na2vs0mg"},{"bike_id":"0dcca800-5fb1-42a6-8e25-f7e86ee0ca25","system_id":"levelo_inurba_marseille","lat":43.2693,"lon":5.38912,"is_reserved":false,"is_disabled":false,"rental_uris":{"android":"levelo://app?vid=0dcca800-5fb1-42a6-8e25-f7e86ee0ca25","ios":"levelo://app?vid=0dcca800-5fb1-42a6-8e25-f7e86ee0ca25"},"vehicle_type_id":"4","last_reported":1730711469,"current_range_meters":38000,"station_id":"ce4bhhh2rcd13ifvqfl0","pricing_plan_id":"cebpf4jnsgd1na2vs0mg"},{"bike_id":"7580d83e-3d7c-46be-82b1-25f013a114af","system_id":"levelo_inurba_marseille","lat":43.31082,"lon":5.40117,"is_reserved":false,"is_disabled":false,"rental_uris":{"android":"levelo://app?vid=7580d83e-3d7c-46be-82b1-25f013a114af","ios":"levelo://app?vid=7580d83e-3d7c-46be-82b1-25f013a114af"},"vehicle_type_id":"4","last_reported":1730711469,"current_range_meters":22800,"station_id":"","pricing_plan_id":"cebpf4jnsgd1na2vs0mg"},{"bike_id":"23318a29-34d2-4d10-917f-6b9fe01ef36a","system_id":"levelo_inurba_marseille","lat":43.27494,"lon":5.42446,"is_reserved":false,"is_disabled":false,"rental_uris":{"android":"levelo://app?vid=23318a29-34d2-4d10-917f-6b9fe01ef36a","ios":"levelo://app?vid=23318a29-34d2-4d10-917f-6b9fe01ef36a"},"vehicle_type_id":"4","last_reported":1730711469,"current_range_meters":36400,"station_id":"ce4bhn92rcd13ifvqgrg","pricing_plan_id":"cebpf4jnsgd1na2vs0mg"},{"bike_id":"37e2ac36-77af-4e7b-b0fd-43420207efda","system_id":"levelo_inurba_marseille","lat":43.28062,"lon":5.40985,"is_reserved":false,"is_disabled":false,"rental_uris":{"android":"levelo://app?vid=37e2ac36-77af-4e7b-b0fd-43420207efda","ios":"levelo://app?vid=37e2ac36-77af-4e7b-b0fd-43420207efda"},"vehicle_type_id":"4","last_reported":1730711469,"current_range_meters":36800,"station_id":"","pricing_plan_id":"cebpf4jnsgd1na2vs0mg"},{"bike_id":"bdf0900a-d0fd-4670-b5cd-531c3b49d4d0","system_id":"levelo_inurba_marseille","lat":43.30466,"lon":5.37903,"is_reserved":false,"is_disabled":false,"rental_uris":{"android":"levelo://app?vid=bdf0900a-d0fd-4670-b5cd-531c3b49d4d0","ios":"levelo://app?vid=bdf0900a-d0fd-4670-b5cd-531c3b49d4d0"},"vehicle_type_id":"4","last_reported":1730711469,"current_range_meters":38000,"station_id":"ce4bgup2rcd13ifvqcn0","pricing_plan_id":"cebpf4jnsgd1na2vs0mg"},{"bike_id":"ba0dc76e-39d3-45e2-b06a-88fc2809aa39","system_id":"levelo_inurba_marseille","lat":43.27486,"lon":5.42452,"is_reserved":false,"is_disabled":false,"rental_uris":{"android":"levelo://app?vid=ba0dc76e-39d3-45e2-b06a-88fc2809aa39","ios":"levelo://app?vid=ba0dc76e-39d3-45e2-b06a-88fc2809aa39"},"vehicle_type_id":"4","last_reported":1730711469,"current_range_meters":31200,"station_id":"ce4bhn92rcd13ifvqgrg","pricing_plan_id":"cebpf4jnsgd1na2vs0mg"},{"bike_id":"84826187-31ec-4949-bd9b-654531a44675","system_id":"levelo_inurba_marseille","lat":43.23159,"lon":5.43706,"is_reserved":false,"is_disabled":false,"rental_uris":{"android":"levelo://app?vid=84826187-31ec-4949-bd9b-654531a44675","ios":"levelo://app?vid=84826187-31ec-4949-bd9b-654531a44675"},"vehicle_type_id":"4","last_reported":1730711469,"current_range_meters":26800,"station_id":"ce4bhmp2rcd13ifvqgog","pricing_plan_id":"cebpf4jnsgd1na2vs0mg"},{"bike_id":"0b597ca6-8a05-4580-9840-f0829a5e4450","system_id":"levelo_inurba_marseille","lat":43.26778,"lon":5.39424,"is_reserved":false,"is_disabled":false,"rental_uris":{"android":"levelo://app?vid=0b597ca6-8a05-4580-9840-f0829a5e4450","ios":"levelo://app?vid=0b597ca6-8a05-4580-9840-f0829a5e4450"},"vehicle_type_id":"4","last_reported":1730711469,"current_range_meters":12400,"station_id":"ce4bhh12rcd13ifvqfg0","pricing_plan_id":"cebpf4jnsgd1na2vs0mg"},{"bike_id":"710ee38e-77b0-4542-9111-fce7597ff620","system_id":"levelo_inurba_marseille","lat":43.27059,"lon":5.40256,"is_reserved":false,"is_disabled":false,"rental_uris":{"android":"levelo://app?vid=710ee38e-77b0-4542-9111-fce7597ff620","ios":"levelo://app?vid=710ee38e-77b0-4542-9111-fce7597ff620"},"vehicle_type_id":"4","last_reported":1730711469,"current_range_meters":11600,"station_id":"ce4bhk92rcd13ifvqgc0","pricing_plan_id":"cebpf4jnsgd1na2vs0mg"},{"bike_id":"a9364874-09c0-4338-aaad-5744c0a13e2c","system_id":"levelo_inurba_marseille","lat":43.301759,"lon":5.366232,"is_reserved":false,"is_disabled":false,"rental_uris":{"android":"levelo://app?vid=a9364874-09c0-4338-aaad-5744c0a13e2c","ios":"levelo://app?vid=a9364874-09c0-4338-aaad-5744c0a13e2c"},"vehicle_type_id":"4","last_reported":1730711469,"current_range_meters":6400,"station_id":"ce4bgrh2rcd13ifvqc8g","pricing_plan_id":"cebpf4jnsgd1na2vs0mg"},{"bike_id":"f096c496-f8db-4185-9b36-b85c627b721a","system_id":"levelo_inurba_marseille","lat":43.33607,"lon":5.41025,"is_reserved":false,"is_disabled":false,"rental_uris":{"android":"levelo://app?vid=f096c496-f8db-4185-9b36-b85c627b721a","ios":"levelo://app?vid=f096c496-f8db-4185-9b36-b85c627b721a"},"vehicle_type_id":"4","last_reported":1730711469,"current_range_meters":9200,"station_id":"ce4bhqh2rcd13ifvqhmg","pricing_plan_id":"cebpf4jnsgd1na2vs0mg"},{"bike_id":"909fd824-d8fe-4d38-b958-5046d8c9169b","system_id":"levelo_inurba_marseille","lat":43.3248,"lon":5.36556,"is_reserved":false,"is_disabled":false,"rental_uris":{"android":"levelo://app?vid=909fd824-d8fe-4d38-b958-5046d8c9169b","ios":"levelo://app?vid=909fd824-d8fe-4d38-b958-5046d8c9169b"},"vehicle_type_id":"4","last_reported":1730711469,"current_range_meters":38800,"station_id":"ce4bhs12rcd13ifvqhvg","pricing_plan_id":"cebpf4jnsgd1na2vs0mg"},{"bike_id":"d74200e6-8722-4834-ae0b-188969c02116","system_id":"levelo_inurba_marseille","lat":43.30443,"lon":5.38892,"is_reserved":false,"is_disabled":false,"rental_uris":{"android":"levelo://app?vid=d74200e6-8722-4834-ae0b-188969c02116","ios":"levelo://app?vid=d74200e6-8722-4834-ae0b-188969c02116"},"vehicle_type_id":"4","last_reported":1730711469,"current_range_meters":38400,"station_id":"ce4bgk12rcd13ifvqbi0","pricing_plan_id":"cebpf4jnsgd1na2vs0mg"},{"bike_id":"31e65bd8-c3e1-4ed0-8c7f-057ff8939736","system_id":"levelo_inurba_marseille","lat":43.299686,"lon":5.384852,"is_reserved":false,"is_disabled":false,"rental_uris":{"android":"levelo://app?vid=31e65bd8-c3e1-4ed0-8c7f-057ff8939736","ios":"levelo://app?vid=31e65bd8-c3e1-4ed0-8c7f-057ff8939736"},"vehicle_type_id":"4","last_reported":1730711469,"current_range_meters":29600,"station_id":"ce4bgj92rcd13ifvqbd0","pricing_plan_id":"cebpf4jnsgd1na2vs0mg"},{"bike_id":"f618011d-b4b5-45f1-9b25-0be7c95294a0","system_id":"levelo_inurba_marseille","lat":43.27207,"lon":5.39179,"is_reserved":false,"is_disabled":false,"rental_uris":{"android":"levelo://app?vid=f618011d-b4b5-45f1-9b25-0be7c95294a0","ios":"levelo://app?vid=f618011d-b4b5-45f1-9b25-0be7c95294a0"},"vehicle_type_id":"4","last_reported":1730711469,"current_range_meters":8800,"station_id":"ce4bhhp2rcd13ifvqfm0","pricing_plan_id":"cebpf4jnsgd1na2vs0mg"},{"bike_id":"4705c0d3-b4af-4a5c-a724-56db07bc322e","system_id":"levelo_inurba_marseille","lat":43.2953,"lon":5.37497,"is_reserved":false,"is_disabled":false,"rental_uris":{"android":"levelo://app?vid=4705c0d3-b4af-4a5c-a724-56db07bc322e","ios":"levelo://app?vid=4705c0d3-b4af-4a5c-a724-56db07bc322e"},"vehicle_type_id":"4","last_reported":1730711469,"current_range_meters":20800,"station_id":"ce4bgkp2rcd13ifvqbmg","pricing_plan_id":"cebpf4jnsgd1na2vs0mg"},{"bike_id":"189fcf22-bb66-4f86-b251-7af65e539acb","system_id":"levelo_inurba_marseille","lat":43.29282,"lon":5.36849,"is_reserved":false,"is_disabled":false,"rental_uris":{"android":"levelo://app?vid=189fcf22-bb66-4f86-b251-7af65e539acb","ios":"levelo://app?vid=189fcf22-bb66-4f86-b251-7af65e539acb"},"vehicle_type_id":"4","last_reported":1730711469,"current_range_meters":37600,"station_id":"ce4bhbp2rcd13ifvqesg","pricing_plan_id":"cebpf4jnsgd1na2vs0mg"},{"bike_id":"78ada3a5-f152-4628-bba4-f6e137d16cf2","system_id":"levelo_inurba_marseille","lat":43.29016,"lon":5.38128,"is_reserved":false,"is_disabled":false,"rental_uris":{"android":"levelo://app?vid=78ada3a5-f152-4628-bba4-f6e137d16cf2","ios":"levelo://app?vid=78ada3a5-f152-4628-bba4-f6e137d16cf2"},"vehicle_type_id":"4","last_reported":1730711469,"current_range_meters":30000,"station_id":"ce4bh4p2rcd13ifvqe1g","pricing_plan_id":"cebpf4jnsgd1na2vs0mg"},{"bike_id":"fa134206-6c91-4874-9910-4e1c8a7365c7","system_id":"levelo_inurba_marseille","lat":43.30545,"lon":5.3655,"is_reserved":false,"is_disabled":false,"rental_uris":{"android":"levelo://app?vid=fa134206-6c91-4874-9910-4e1c8a7365c7","ios":"levelo://app?vid=fa134206-6c91-4874-9910-4e1c8a7365c7"},"vehicle_type_id":"4","last_reported":1730711469,"current_range_meters":22800,"station_id":"ce4bgs12rcd13ifvqcag","pricing_plan_id":"cebpf4jnsgd1na2vs0mg"},{"bike_id":"d92c8444-a65d-4737-a606-0c5d8234cf5e","system_id":"levelo_inurba_marseille","lat":43.28971,"lon":5.37841,"is_reserved":false,"is_disabled":false,"rental_uris":{"android":"levelo://app?vid=d92c8444-a65d-4737-a606-0c5d8234cf5e","ios":"levelo://app?vid=d92c8444-a65d-4737-a606-0c5d8234cf5e"},"vehicle_type_id":"4","last_reported":1730711469,"current_range_meters":28000,"station_id":"ce4bh9p2rcd13ifvqed0","pricing_plan_id":"cebpf4jnsgd1na2vs0mg"},{"bike_id":"8f31e753-c0d2-41d7-8ee6-6bafa8c9e072","system_id":"levelo_inurba_marseille","lat":43.2408,"lon":5.37747,"is_reserved":false,"is_disabled":false,"rental_uris":{"android":"levelo://app?vid=8f31e753-c0d2-41d7-8ee6-6bafa8c9e072","ios":"levelo://app?vid=8f31e753-c0d2-41d7-8ee6-6bafa8c9e072"},"vehicle_type_id":"4","last_reported":1730711469,"current_range_meters":32800,"station_id":"ce4bhnp2rcd13ifvqgvg","pricing_plan_id":"cebpf4jnsgd1na2vs0mg"},{"bike_id":"c8be83ec-a714-4715-83ad-d9df4b03c898","system_id":"levelo_inurba_marseille","lat":43.30286,"lon":5.37696,"is_reserved":false,"is_disabled":false,"rental_uris":{"android":"levelo://app?vid=c8be83ec-a714-4715-83ad-d9df4b03c898","ios":"levelo://app?vid=c8be83ec-a714-4715-83ad-d9df4b03c898"},"vehicle_type_id":"4","last_reported":1730711469,"current_range_meters":27600,"station_id":"ce4bguh2rcd13ifvqcj0","pricing_plan_id":"cebpf4jnsgd1na2vs0mg"},{"bike_id":"5cebc7c7-1425-4012-8ecc-1436e09ba8ae","system_id":"levelo_inurba_marseille","lat":43.30136,"lon":5.37405,"is_reserved":false,"is_disabled":false,"rental_uris":{"android":"levelo://app?vid=5cebc7c7-1425-4012-8ecc-1436e09ba8ae","ios":"levelo://app?vid=5cebc7c7-1425-4012-8ecc-1436e09ba8ae"},"vehicle_type_id":"4","last_reported":1730711469,"current_range_meters":19200,"station_id":"ce4bgs92rcd13ifvqcc0","pricing_plan_id":"cebpf4jnsgd1na2vs0mg"},{"bike_id":"baee8935-462a-45e7-89ea-2647d185d886","system_id":"levelo_inurba_marseille","lat":43.26952,"lon":5.38625,"is_reserved":false,"is_disabled":false,"rental_uris":{"android":"levelo://app?vid=baee8935-462a-45e7-89ea-2647d185d886","ios":"levelo://app?vid=baee8935-462a-45e7-89ea-2647d185d886"},"vehicle_type_id":"4","last_reported":1730711469,"current_range_meters":34000,"station_id":"ce4bhh92rcd13ifvqfh0","pricing_plan_id":"cebpf4jnsgd1na2vs0mg"},{"bike_id":"20ba62ee-2151-4dc9-8a72-2d3c7b78e768","system_id":"levelo_inurba_marseille","lat":43.2594,"lon":5.40901,"is_reserved":false,"is_disabled":false,"rental_uris":{"android":"levelo://app?vid=20ba62ee-2151-4dc9-8a72-2d3c7b78e768","ios":"levelo://app?vid=20ba62ee-2151-4dc9-8a72-2d3c7b78e768"},"vehicle_type_id":"4","last_reported":1730711469,"current_range_meters":34000,"station_id":"ce4bhm92rcd13ifvqglg","pricing_plan_id":"cebpf4jnsgd1na2vs0mg"},{"bike_id":"fe144177-327f-48aa-98bf-b0d3318680db","system_id":"levelo_inurba_marseille","lat":43.24078,"lon":5.37748,"is_reserved":false,"is_disabled":false,"rental_uris":{"android":"levelo://app?vid=fe144177-327f-48aa-98bf-b0d3318680db","ios":"levelo://app?vid=fe144177-327f-48aa-98bf-b0d3318680db"},"vehicle_type_id":"4","last_reported":1730711469,"current_range_meters":11200,"station_id":"ce4bhnp2rcd13ifvqgvg","pricing_plan_id":"cebpf4jnsgd1na2vs0mg"},{"bike_id":"f694ebb7-e638-4ed7-86d7-2d00bda4debe","system_id":"levelo_inurba_marseille","lat":43.26682,"lon":5.38267,"is_reserved":false,"is_disabled":false,"rental_uris":{"android":"levelo://app?vid=f694ebb7-e638-4ed7-86d7-2d00bda4debe","ios":"levelo://app?vid=f694ebb7-e638-4ed7-86d7-2d00bda4debe"},"vehicle_type_id":"4","last_reported":1730711469,"current_range_meters":13600,"station_id":"ce4bhg92rcd13ifvqf90","pricing_plan_id":"cebpf4jnsgd1na2vs0mg"},{"bike_id":"61864400-2b8e-4568-889d-c79c7cc8f788","system_id":"levelo_inurba_marseille","lat":43.23154,"lon":5.43711,"is_reserved":false,"is_disabled":false,"rental_uris":{"android":"levelo://app?vid=61864400-2b8e-4568-889d-c79c7cc8f788","ios":"levelo://app?vid=61864400-2b8e-4568-889d-c79c7cc8f788"},"vehicle_type_id":"4","last_reported":1730711469,"current_range_meters":9200,"station_id":"ce4bhmp2rcd13ifvqgog","pricing_plan_id":"cebpf4jnsgd1na2vs0mg"},{"bike_id":"adc68074-c1bf-489b-b4fb-7f92cf64c2cc","system_id":"levelo_inurba_marseille","lat":43.2696,"lon":5.3863,"is_reserved":false,"is_disabled":false,"rental_uris":{"android":"levelo://app?vid=adc68074-c1bf-489b-b4fb-7f92cf64c2cc","ios":"levelo://app?vid=adc68074-c1bf-489b-b4fb-7f92cf64c2cc"},"vehicle_type_id":"4","last_reported":1730711469,"current_range_meters":24400,"station_id":"ce4bhh92rcd13ifvqfh0","pricing_plan_id":"cebpf4jnsgd1na2vs0mg"},{"bike_id":"9abc7f42-0ef9-4b5d-8d44-7a0bdbbd691d","system_id":"levelo_inurba_marseille","lat":43.24648,"lon":5.38888,"is_reserved":false,"is_disabled":false,"rental_uris":{"android":"levelo://app?vid=9abc7f42-0ef9-4b5d-8d44-7a0bdbbd691d","ios":"levelo://app?vid=9abc7f42-0ef9-4b5d-8d44-7a0bdbbd691d"},"vehicle_type_id":"4","last_reported":1730711469,"current_range_meters":8000,"station_id":"ce4bhg12rcd13ifvqf60","pricing_plan_id":"cebpf4jnsgd1na2vs0mg"},{"bike_id":"1b56f3e0-0650-48d0-93de-8403c6c77295","system_id":"levelo_inurba_marseille","lat":43.30469,"lon":5.37887,"is_reserved":false,"is_disabled":false,"rental_uris":{"android":"levelo://app?vid=1b56f3e0-0650-48d0-93de-8403c6c77295","ios":"levelo://app?vid=1b56f3e0-0650-48d0-93de-8403c6c77295"},"vehicle_type_id":"4","last_reported":1730711469,"current_range_meters":16800,"station_id":"ce4bgup2rcd13ifvqcn0","pricing_plan_id":"cebpf4jnsgd1na2vs0mg"},{"bike_id":"7a58136c-3165-4313-8fac-2c364b399752","system_id":"levelo_inurba_marseille","lat":43.33716,"lon":5.39173,"is_reserved":false,"is_disabled":false,"rental_uris":{"android":"levelo://app?vid=7a58136c-3165-4313-8fac-2c364b399752","ios":"levelo://app?vid=7a58136c-3165-4313-8fac-2c364b399752"},"vehicle_type_id":"4","last_reported":1730711469,"current_range_meters":30400,"station_id":"ce4bhr92rcd13ifvqhsg","pricing_plan_id":"cebpf4jnsgd1na2vs0mg"},{"bike_id":"d2d0a015-43a6-4cea-af94-a40e504385fa","system_id":"levelo_inurba_marseille","lat":43.24075,"lon":5.37759,"is_reserved":false,"is_disabled":false,"rental_uris":{"android":"levelo://app?vid=d2d0a015-43a6-4cea-af94-a40e504385fa","ios":"levelo://app?vid=d2d0a015-43a6-4cea-af94-a40e504385fa"},"vehicle_type_id":"4","last_reported":1730711469,"current_range_meters":11600,"station_id":"ce4bhnp2rcd13ifvqgvg","pricing_plan_id":"cebpf4jnsgd1na2vs0mg"},{"bike_id":"20f9361c-368f-4e72-96c2-1d07a8966480","system_id":"levelo_inurba_marseille","lat":43.27502,"lon":5.42449,"is_reserved":false,"is_disabled":false,"rental_uris":{"android":"levelo://app?vid=20f9361c-368f-4e72-96c2-1d07a8966480","ios":"levelo://app?vid=20f9361c-368f-4e72-96c2-1d07a8966480"},"vehicle_type_id":"4","last_reported":1730711469,"current_range_meters":28400,"station_id":"ce4bhn92rcd13ifvqgrg","pricing_plan_id":"cebpf4jnsgd1na2vs0mg"},{"bike_id":"93c75a8f-5cac-4a4f-be7d-374f1440d4d7","system_id":"levelo_inurba_marseille","lat":43.29595,"lon":5.38094,"is_reserved":false,"is_disabled":false,"rental_uris":{"android":"levelo://app?vid=93c75a8f-5cac-4a4f-be7d-374f1440d4d7","ios":"levelo://app?vid=93c75a8f-5cac-4a4f-be7d-374f1440d4d7"},"vehicle_type_id":"4","last_reported":1730711469,"current_range_meters":33600,"station_id":"ce4bgl12rcd13ifvqbo0","pricing_plan_id":"cebpf4jnsgd1na2vs0mg"},{"bike_id":"a3ae4c1b-8ed3-43f0-95b2-9f60ca274476","system_id":"levelo_inurba_marseille","lat":43.32476,"lon":5.3657,"is_reserved":false,"is_disabled":false,"rental_uris":{"android":"levelo://app?vid=a3ae4c1b-8ed3-43f0-95b2-9f60ca274476","ios":"levelo://app?vid=a3ae4c1b-8ed3-43f0-95b2-9f60ca274476"},"vehicle_type_id":"4","last_reported":1730711469,"current_range_meters":39200,"station_id":"ce4bhs12rcd13ifvqhvg","pricing_plan_id":"cebpf4jnsgd1na2vs0mg"},{"bike_id":"ab9173ec-0645-441d-90af-326a5e948990","system_id":"levelo_inurba_marseille","lat":43.28347,"lon":5.38112,"is_reserved":false,"is_disabled":false,"rental_uris":{"android":"levelo://app?vid=ab9173ec-0645-441d-90af-326a5e948990","ios":"levelo://app?vid=ab9173ec-0645-441d-90af-326a5e948990"},"vehicle_type_id":"4","last_reported":1730711469,"current_range_meters":28400,"station_id":"ce4bh412rcd13ifvqdr0","pricing_plan_id":"cebpf4jnsgd1na2vs0mg"},{"bike_id":"f08a039b-3d3b-48da-b898-8fc889b7e4f7","system_id":"levelo_inurba_marseille","lat":43.30685,"lon":5.40041,"is_reserved":false,"is_disabled":false,"rental_uris":{"android":"levelo://app?vid=f08a039b-3d3b-48da-b898-8fc889b7e4f7","ios":"levelo://app?vid=f08a039b-3d3b-48da-b898-8fc889b7e4f7"},"vehicle_type_id":"4","last_reported":1730711469,"current_range_meters":26000,"station_id":"ce4bh192rcd13ifvqdb0","pricing_plan_id":"cebpf4jnsgd1na2vs0mg"},{"bike_id":"77da8c0e-0043-48d9-9bee-c58df7d82bb8","system_id":"levelo_inurba_marseille","lat":43.30528,"lon":5.36704,"is_reserved":false,"is_disabled":false,"rental_uris":{"android":"levelo://app?vid=77da8c0e-0043-48d9-9bee-c58df7d82bb8","ios":"levelo://app?vid=77da8c0e-0043-48d9-9bee-c58df7d82bb8"},"vehicle_type_id":"4","last_reported":1730711469,"current_range_meters":18000,"station_id":"ce4bgrp2rcd13ifvqc9g","pricing_plan_id":"cebpf4jnsgd1na2vs0mg"},{"bike_id":"cf4eb3f6-e263-4365-af01-c27b1f0f289a","system_id":"levelo_inurba_marseille","lat":43.31125,"lon":5.37763,"is_reserved":false,"is_disabled":false,"rental_uris":{"android":"levelo://app?vid=cf4eb3f6-e263-4365-af01-c27b1f0f289a","ios":"levelo://app?vid=cf4eb3f6-e263-4365-af01-c27b1f0f289a"},"vehicle_type_id":"4","last_reported":1730711469,"current_range_meters":37600,"station_id":"ce4bgt92rcd13ifvqcg0","pricing_plan_id":"cebpf4jnsgd1na2vs0mg"},{"bike_id":"493d40b9-a581-4129-a3d4-fee20b359c39","system_id":"levelo_inurba_marseille","lat":43.31234,"lon":5.36861,"is_reserved":false,"is_disabled":false,"rental_uris":{"android":"levelo://app?vid=493d40b9-a581-4129-a3d4-fee20b359c39","ios":"levelo://app?vid=493d40b9-a581-4129-a3d4-fee20b359c39"},"vehicle_type_id":"4","last_reported":1730711469,"current_range_meters":32800,"station_id":"ce4bgl92rcd13ifvqbq0","pricing_plan_id":"cebpf4jnsgd1na2vs0mg"},{"bike_id":"d5154aa7-9f6d-4f09-8dd7-076b92df9944","system_id":"levelo_inurba_marseille","lat":43.3095,"lon":5.39024,"is_reserved":false,"is_disabled":false,"rental_uris":{"android":"levelo://app?vid=d5154aa7-9f6d-4f09-8dd7-076b92df9944","ios":"levelo://app?vid=d5154aa7-9f6d-4f09-8dd7-076b92df9944"},"vehicle_type_id":"4","last_reported":1730711469,"current_range_meters":34800,"station_id":"ce4bgup2rcd13ifvqco0","pricing_plan_id":"cebpf4jnsgd1na2vs0mg"},{"bike_id":"6e7dd636-a5c9-49a8-9da5-13f5d56a1f4c","system_id":"levelo_inurba_marseille","lat":43.30135,"lon":5.37412,"is_reserved":false,"is_disabled":false,"rental_uris":{"android":"levelo://app?vid=6e7dd636-a5c9-49a8-9da5-13f5d56a1f4c","ios":"levelo://app?vid=6e7dd636-a5c9-49a8-9da5-13f5d56a1f4c"},"vehicle_type_id":"4","last_reported":1730711469,"current_range_meters":12800,"station_id":"ce4bgs92rcd13ifvqcc0","pricing_plan_id":"cebpf4jnsgd1na2vs0mg"},{"bike_id":"ad6b9979-2833-497c-ae59-5afeb88a87ce","system_id":"levelo_inurba_marseille","lat":43.32359,"lon":5.36756,"is_reserved":false,"is_disabled":false,"rental_uris":{"android":"levelo://app?vid=ad6b9979-2833-497c-ae59-5afeb88a87ce","ios":"levelo://app?vid=ad6b9979-2833-497c-ae59-5afeb88a87ce"},"vehicle_type_id":"4","last_reported":1730711469,"current_range_meters":36800,"station_id":"ce4bhsh2rcd13ifvqi2g","pricing_plan_id":"cebpf4jnsgd1na2vs0mg"},{"bike_id":"b68db036-3fa9-493f-89e6-b4fbc6cc60b2","system_id":"levelo_inurba_marseille","lat":43.27491,"lon":5.42454,"is_reserved":false,"is_disabled":false,"rental_uris":{"android":"levelo://app?vid=b68db036-3fa9-493f-89e6-b4fbc6cc60b2","ios":"levelo://app?vid=b68db036-3fa9-493f-89e6-b4fbc6cc60b2"},"vehicle_type_id":"4","last_reported":1730711469,"current_range_meters":14400,"station_id":"ce4bhn92rcd13ifvqgrg","pricing_plan_id":"cebpf4jnsgd1na2vs0mg"},{"bike_id":"fa4b79b7-0b68-44fd-a86a-a3d67eed44d0","system_id":"levelo_inurba_marseille","lat":43.33612,"lon":5.41031,"is_reserved":false,"is_disabled":false,"rental_uris":{"android":"levelo://app?vid=fa4b79b7-0b68-44fd-a86a-a3d67eed44d0","ios":"levelo://app?vid=fa4b79b7-0b68-44fd-a86a-a3d67eed44d0"},"vehicle_type_id":"4","last_reported":1730711469,"current_range_meters":30400,"station_id":"ce4bhqh2rcd13ifvqhmg","pricing_plan_id":"cebpf4jnsgd1na2vs0mg"},{"bike_id":"33071df0-20b9-4ab8-ad94-d29e9a89dac7","system_id":"levelo_inurba_marseille","lat":43.31352,"lon":5.3671,"is_reserved":false,"is_disabled":false,"rental_uris":{"android":"levelo://app?vid=33071df0-20b9-4ab8-ad94-d29e9a89dac7","ios":"levelo://app?vid=33071df0-20b9-4ab8-ad94-d29e9a89dac7"},"vehicle_type_id":"4","last_reported":1730711469,"current_range_meters":32800,"station_id":"ce4bgr92rcd13ifvqc6g","pricing_plan_id":"cebpf4jnsgd1na2vs0mg"},{"bike_id":"a7b1441d-2d19-4e46-a196-841ca58e64a6","system_id":"levelo_inurba_marseille","lat":43.29276,"lon":5.36848,"is_reserved":false,"is_disabled":false,"rental_uris":{"android":"levelo://app?vid=a7b1441d-2d19-4e46-a196-841ca58e64a6","ios":"levelo://app?vid=a7b1441d-2d19-4e46-a196-841ca58e64a6"},"vehicle_type_id":"4","last_reported":1730711469,"current_range_meters":36400,"station_id":"ce4bhbp2rcd13ifvqesg","pricing_plan_id":"cebpf4jnsgd1na2vs0mg"},{"bike_id":"d2738cce-314b-4cee-88e4-e667009c47fa","system_id":"levelo_inurba_marseille","lat":43.25915,"lon":5.40871,"is_reserved":false,"is_disabled":false,"rental_uris":{"android":"levelo://app?vid=d2738cce-314b-4cee-88e4-e667009c47fa","ios":"levelo://app?vid=d2738cce-314b-4cee-88e4-e667009c47fa"},"vehicle_type_id":"4","last_reported":1730711469,"current_range_meters":6800,"station_id":"ce4bhm92rcd13ifvqglg","pricing_plan_id":"cebpf4jnsgd1na2vs0mg"},{"bike_id":"e27f425f-d6b1-4843-94d4-2027a11e6983","system_id":"levelo_inurba_marseille","lat":43.27492,"lon":5.42453,"is_reserved":false,"is_disabled":false,"rental_uris":{"android":"levelo://app?vid=e27f425f-d6b1-4843-94d4-2027a11e6983","ios":"levelo://app?vid=e27f425f-d6b1-4843-94d4-2027a11e6983"},"vehicle_type_id":"4","last_reported":1730711469,"current_range_meters":32000,"station_id":"ce4bhn92rcd13ifvqgrg","pricing_plan_id":"cebpf4jnsgd1na2vs0mg"},{"bike_id":"790f6d51-1d0f-4282-81b4-c3311a005c05","system_id":"levelo_inurba_marseille","lat":43.29017,"lon":5.38131,"is_reserved":false,"is_disabled":false,"rental_uris":{"android":"levelo://app?vid=790f6d51-1d0f-4282-81b4-c3311a005c05","ios":"levelo://app?vid=790f6d51-1d0f-4282-81b4-c3311a005c05"},"vehicle_type_id":"4","last_reported":1730711469,"current_range_meters":36000,"station_id":"ce4bh4p2rcd13ifvqe1g","pricing_plan_id":"cebpf4jnsgd1na2vs0mg"},{"bike_id":"3ea98146-e7ec-4434-906e-145512b44a69","system_id":"levelo_inurba_marseille","lat":43.30136,"lon":5.37408,"is_reserved":false,"is_disabled":false,"rental_uris":{"android":"levelo://app?vid=3ea98146-e7ec-4434-906e-145512b44a69","ios":"levelo://app?vid=3ea98146-e7ec-4434-906e-145512b44a69"},"vehicle_type_id":"4","last_reported":1730711469,"current_range_meters":36000,"station_id":"ce4bgs92rcd13ifvqcc0","pricing_plan_id":"cebpf4jnsgd1na2vs0mg"},{"bike_id":"22277462-ea58-4946-ba2c-ef08f6cd7659","system_id":"levelo_inurba_marseille","lat":43.2797,"lon":5.4105,"is_reserved":false,"is_disabled":false,"rental_uris":{"android":"levelo://app?vid=22277462-ea58-4946-ba2c-ef08f6cd7659","ios":"levelo://app?vid=22277462-ea58-4946-ba2c-ef08f6cd7659"},"vehicle_type_id":"4","last_reported":1730711469,"current_range_meters":12800,"station_id":"","pricing_plan_id":"cebpf4jnsgd1na2vs0mg"},{"bike_id":"d3207af1-66a7-4287-baa5-91c7352c4689","system_id":"levelo_inurba_marseille","lat":43.33732,"lon":5.37456,"is_reserved":false,"is_disabled":false,"rental_uris":{"android":"levelo://app?vid=d3207af1-66a7-4287-baa5-91c7352c4689","ios":"levelo://app?vid=d3207af1-66a7-4287-baa5-91c7352c4689"},"vehicle_type_id":"4","last_reported":1730711469,"current_range_meters":27200,"station_id":"","pricing_plan_id":"cebpf4jnsgd1na2vs0mg"},{"bike_id":"86285ce3-d06d-43fa-aff5-7dec079c234c","system_id":"levelo_inurba_marseille","lat":43.31069,"lon":5.38349,"is_reserved":false,"is_disabled":false,"rental_uris":{"android":"levelo://app?vid=86285ce3-d06d-43fa-aff5-7dec079c234c","ios":"levelo://app?vid=86285ce3-d06d-43fa-aff5-7dec079c234c"},"vehicle_type_id":"4","last_reported":1730711469,"current_range_meters":18800,"station_id":"ce4bgv92rcd13ifvqcr0","pricing_plan_id":"cebpf4jnsgd1na2vs0mg"},{"bike_id":"04fa565f-0f6d-4a6d-bb9b-75d314b37774","system_id":"levelo_inurba_marseille","lat":43.29031,"lon":5.39975,"is_reserved":false,"is_disabled":false,"rental_uris":{"android":"levelo://app?vid=04fa565f-0f6d-4a6d-bb9b-75d314b37774","ios":"levelo://app?vid=04fa565f-0f6d-4a6d-bb9b-75d314b37774"},"vehicle_type_id":"4","last_reported":1730711469,"current_range_meters":36000,"station_id":"ce4bh392rcd13ifvqdm0","pricing_plan_id":"cebpf4jnsgd1na2vs0mg"},{"bike_id":"e4a90c98-0c2d-4ab5-993c-216c1e0970cf","system_id":"levelo_inurba_marseille","lat":43.27205,"lon":5.39187,"is_reserved":false,"is_disabled":false,"rental_uris":{"android":"levelo://app?vid=e4a90c98-0c2d-4ab5-993c-216c1e0970cf","ios":"levelo://app?vid=e4a90c98-0c2d-4ab5-993c-216c1e0970cf"},"vehicle_type_id":"4","last_reported":1730711469,"current_range_meters":24000,"station_id":"ce4bhhp2rcd13ifvqfm0","pricing_plan_id":"cebpf4jnsgd1na2vs0mg"},{"bike_id":"b19ed350-96e8-4003-8f7a-008153e449b3","system_id":"levelo_inurba_marseille","lat":43.24179,"lon":5.39731,"is_reserved":false,"is_disabled":false,"rental_uris":{"android":"levelo://app?vid=b19ed350-96e8-4003-8f7a-008153e449b3","ios":"levelo://app?vid=b19ed350-96e8-4003-8f7a-008153e449b3"},"vehicle_type_id":"4","last_reported":1730711469,"current_range_meters":13600,"station_id":"ce4bhn12rcd13ifvqgpg","pricing_plan_id":"cebpf4jnsgd1na2vs0mg"},{"bike_id":"d0dcbb3a-18eb-44e3-9933-f7f7f781950f","system_id":"levelo_inurba_marseille","lat":43.27204,"lon":5.39182,"is_reserved":false,"is_disabled":false,"rental_uris":{"android":"levelo://app?vid=d0dcbb3a-18eb-44e3-9933-f7f7f781950f","ios":"levelo://app?vid=d0dcbb3a-18eb-44e3-9933-f7f7f781950f"},"vehicle_type_id":"4","last_reported":1730711469,"current_range_meters":26000,"station_id":"ce4bhhp2rcd13ifvqfm0","pricing_plan_id":"cebpf4jnsgd1na2vs0mg"},{"bike_id":"c8efe2a2-4104-4ae8-8ad5-26ff762b7c15","system_id":"levelo_inurba_marseille","lat":43.30913,"lon":5.36846,"is_reserved":false,"is_disabled":false,"rental_uris":{"android":"levelo://app?vid=c8efe2a2-4104-4ae8-8ad5-26ff762b7c15","ios":"levelo://app?vid=c8efe2a2-4104-4ae8-8ad5-26ff762b7c15"},"vehicle_type_id":"4","last_reported":1730711469,"current_range_meters":32800,"station_id":"ce4bgn92rcd13ifvqbvg","pricing_plan_id":"cebpf4jnsgd1na2vs0mg"},{"bike_id":"a171064d-8438-4181-94ef-68492c8e63fa","system_id":"levelo_inurba_marseille","lat":43.27495,"lon":5.42454,"is_reserved":false,"is_disabled":false,"rental_uris":{"android":"levelo://app?vid=a171064d-8438-4181-94ef-68492c8e63fa","ios":"levelo://app?vid=a171064d-8438-4181-94ef-68492c8e63fa"},"vehicle_type_id":"4","last_reported":1730711469,"current_range_meters":14800,"station_id":"ce4bhn92rcd13ifvqgrg","pricing_plan_id":"cebpf4jnsgd1na2vs0mg"},{"bike_id":"71ea2c8b-166a-40fd-90a8-5806feea75af","system_id":"levelo_inurba_marseille","lat":43.25001,"lon":5.38927,"is_reserved":false,"is_disabled":false,"rental_uris":{"android":"levelo://app?vid=71ea2c8b-166a-40fd-90a8-5806feea75af","ios":"levelo://app?vid=71ea2c8b-166a-40fd-90a8-5806feea75af"},"vehicle_type_id":"4","last_reported":1730711469,"current_range_meters":24800,"station_id":"ce4bhgp2rcd13ifvqfd0","pricing_plan_id":"cebpf4jnsgd1na2vs0mg"},{"bike_id":"7d9ee8ba-656e-46e2-afbf-5eed9f48fbad","system_id":"levelo_inurba_marseille","lat":43.3123,"lon":5.3685,"is_reserved":false,"is_disabled":false,"rental_uris":{"android":"levelo://app?vid=7d9ee8ba-656e-46e2-afbf-5eed9f48fbad","ios":"levelo://app?vid=7d9ee8ba-656e-46e2-afbf-5eed9f48fbad"},"vehicle_type_id":"4","last_reported":1730711469,"current_range_meters":38000,"station_id":"ce4bgl92rcd13ifvqbq0","pricing_plan_id":"cebpf4jnsgd1na2vs0mg"},{"bike_id":"2a4ec70a-39cc-4be2-ba99-e5bbf5dfb6ae","system_id":"levelo_inurba_marseille","lat":43.25862,"lon":5.39897,"is_reserved":false,"is_disabled":false,"rental_uris":{"android":"levelo://app?vid=2a4ec70a-39cc-4be2-ba99-e5bbf5dfb6ae","ios":"levelo://app?vid=2a4ec70a-39cc-4be2-ba99-e5bbf5dfb6ae"},"vehicle_type_id":"4","last_reported":1730711469,"current_range_meters":8800,"station_id":"ce4bhl92rcd13ifvqghg","pricing_plan_id":"cebpf4jnsgd1na2vs0mg"},{"bike_id":"056d940f-31dc-4442-997b-16fbc4016281","system_id":"levelo_inurba_marseille","lat":43.2848,"lon":5.3841,"is_reserved":false,"is_disabled":false,"rental_uris":{"android":"levelo://app?vid=056d940f-31dc-4442-997b-16fbc4016281","ios":"levelo://app?vid=056d940f-31dc-4442-997b-16fbc4016281"},"vehicle_type_id":"4","last_reported":1730711469,"current_range_meters":39200,"station_id":"ce4bh512rcd13ifvqe3g","pricing_plan_id":"cebpf4jnsgd1na2vs0mg"},{"bike_id":"9a3c9924-4d33-43b2-9add-c558cd4e5c7d","system_id":"levelo_inurba_marseille","lat":43.30464,"lon":5.37896,"is_reserved":false,"is_disabled":false,"rental_uris":{"android":"levelo://app?vid=9a3c9924-4d33-43b2-9add-c558cd4e5c7d","ios":"levelo://app?vid=9a3c9924-4d33-43b2-9add-c558cd4e5c7d"},"vehicle_type_id":"4","last_reported":1730711469,"current_range_meters":30800,"station_id":"ce4bgup2rcd13ifvqcn0","pricing_plan_id":"cebpf4jnsgd1na2vs0mg"},{"bike_id":"444298e4-443b-4c3b-a020-4132fc610d68","system_id":"levelo_inurba_marseille","lat":43.29962,"lon":5.37165,"is_reserved":false,"is_disabled":false,"rental_uris":{"android":"levelo://app?vid=444298e4-443b-4c3b-a020-4132fc610d68","ios":"levelo://app?vid=444298e4-443b-4c3b-a020-4132fc610d68"},"vehicle_type_id":"4","last_reported":1730711469,"current_range_meters":38800,"station_id":"ce4bgr92rcd13ifvqc7g","pricing_plan_id":"cebpf4jnsgd1na2vs0mg"},{"bike_id":"cb81e8a1-f5c2-4c95-bfcd-076f7f535ffd","system_id":"levelo_inurba_marseille","lat":43.29708,"lon":5.37148,"is_reserved":false,"is_disabled":false,"rental_uris":{"android":"levelo://app?vid=cb81e8a1-f5c2-4c95-bfcd-076f7f535ffd","ios":"levelo://app?vid=cb81e8a1-f5c2-4c95-bfcd-076f7f535ffd"},"vehicle_type_id":"4","last_reported":1730711469,"current_range_meters":20000,"station_id":"","pricing_plan_id":"cebpf4jnsgd1na2vs0mg"},{"bike_id":"b002bdad-c1af-41c6-891d-1723b6bdf0d4","system_id":"levelo_inurba_marseille","lat":43.30964,"lon":5.3904,"is_reserved":false,"is_disabled":false,"rental_uris":{"android":"levelo://app?vid=b002bdad-c1af-41c6-891d-1723b6bdf0d4","ios":"levelo://app?vid=b002bdad-c1af-41c6-891d-1723b6bdf0d4"},"vehicle_type_id":"4","last_reported":1730711469,"current_range_meters":20000,"station_id":"ce4bgup2rcd13ifvqco0","pricing_plan_id":"cebpf4jnsgd1na2vs0mg"},{"bike_id":"5a5ca637-4a18-4597-b859-7ab9a6b224f3","system_id":"levelo_inurba_marseille","lat":43.23148,"lon":5.43726,"is_reserved":false,"is_disabled":false,"rental_uris":{"android":"levelo://app?vid=5a5ca637-4a18-4597-b859-7ab9a6b224f3","ios":"levelo://app?vid=5a5ca637-4a18-4597-b859-7ab9a6b224f3"},"vehicle_type_id":"4","last_reported":1730711469,"current_range_meters":9600,"station_id":"ce4bhmp2rcd13ifvqgog","pricing_plan_id":"cebpf4jnsgd1na2vs0mg"},{"bike_id":"0010a6aa-a10e-44f2-ad68-04a562a5f99a","system_id":"levelo_inurba_marseille","lat":43.33606,"lon":5.41027,"is_reserved":false,"is_disabled":false,"rental_uris":{"android":"levelo://app?vid=0010a6aa-a10e-44f2-ad68-04a562a5f99a","ios":"levelo://app?vid=0010a6aa-a10e-44f2-ad68-04a562a5f99a"},"vehicle_type_id":"4","last_reported":1730711469,"current_range_meters":22400,"station_id":"ce4bhqh2rcd13ifvqhmg","pricing_plan_id":"cebpf4jnsgd1na2vs0mg"},{"bike_id":"0e96aa8a-6651-4df6-8c72-fb29a760544e","system_id":"levelo_inurba_marseille","lat":43.2991,"lon":5.37469,"is_reserved":false,"is_disabled":false,"rental_uris":{"android":"levelo://app?vid=0e96aa8a-6651-4df6-8c72-fb29a760544e","ios":"levelo://app?vid=0e96aa8a-6651-4df6-8c72-fb29a760544e"},"vehicle_type_id":"4","last_reported":1730711469,"current_range_meters":21600,"station_id":"ce4bgjh2rcd13ifvqbg0","pricing_plan_id":"cebpf4jnsgd1na2vs0mg"},{"bike_id":"52a821c5-15fc-4225-bf0f-42790ec77571","system_id":"levelo_inurba_marseille","lat":43.29906,"lon":5.37469,"is_reserved":false,"is_disabled":false,"rental_uris":{"android":"levelo://app?vid=52a821c5-15fc-4225-bf0f-42790ec77571","ios":"levelo://app?vid=52a821c5-15fc-4225-bf0f-42790ec77571"},"vehicle_type_id":"4","last_reported":1730711469,"current_range_meters":34800,"station_id":"ce4bgjh2rcd13ifvqbg0","pricing_plan_id":"cebpf4jnsgd1na2vs0mg"},{"bike_id":"471aa3b6-48f8-4c36-95dd-47522fb042dc","system_id":"levelo_inurba_marseille","lat":43.25108,"lon":5.40322,"is_reserved":false,"is_disabled":false,"rental_uris":{"android":"levelo://app?vid=471aa3b6-48f8-4c36-95dd-47522fb042dc","ios":"levelo://app?vid=471aa3b6-48f8-4c36-95dd-47522fb042dc"},"vehicle_type_id":"4","last_reported":1730711469,"current_range_meters":28800,"station_id":"ce4bhlh2rcd13ifvqgig","pricing_plan_id":"cebpf4jnsgd1na2vs0mg"},{"bike_id":"c2e5ff9a-9dd4-479a-9dd6-52948c6f960c","system_id":"levelo_inurba_marseille","lat":43.337568,"lon":5.374549,"is_reserved":false,"is_disabled":false,"rental_uris":{"android":"levelo://app?vid=c2e5ff9a-9dd4-479a-9dd6-52948c6f960c","ios":"levelo://app?vid=c2e5ff9a-9dd4-479a-9dd6-52948c6f960c"},"vehicle_type_id":"4","last_reported":1730711469,"current_range_meters":38400,"station_id":"","pricing_plan_id":"cebpf4jnsgd1na2vs0mg"},{"bike_id":"b1078aa1-07c9-43e0-baad-b05bfd4fd1d1","system_id":"levelo_inurba_marseille","lat":43.30537,"lon":5.3654,"is_reserved":false,"is_disabled":false,"rental_uris":{"android":"levelo://app?vid=b1078aa1-07c9-43e0-baad-b05bfd4fd1d1","ios":"levelo://app?vid=b1078aa1-07c9-43e0-baad-b05bfd4fd1d1"},"vehicle_type_id":"4","last_reported":1730711469,"current_range_meters":19200,"station_id":"ce4bgs12rcd13ifvqcag","pricing_plan_id":"cebpf4jnsgd1na2vs0mg"},{"bike_id":"a7ce3e07-385e-4247-9f14-8d58313f5c7d","system_id":"levelo_inurba_marseille","lat":43.32481,"lon":5.36571,"is_reserved":false,"is_disabled":false,"rental_uris":{"android":"levelo://app?vid=a7ce3e07-385e-4247-9f14-8d58313f5c7d","ios":"levelo://app?vid=a7ce3e07-385e-4247-9f14-8d58313f5c7d"},"vehicle_type_id":"4","last_reported":1730711469,"current_range_meters":29600,"station_id":"","pricing_plan_id":"cebpf4jnsgd1na2vs0mg"},{"bike_id":"9c1312fd-3089-4426-b2f8-bc2b6e09e373","system_id":"levelo_inurba_marseille","lat":43.27834,"lon":5.39217,"is_reserved":false,"is_disabled":false,"rental_uris":{"android":"levelo://app?vid=9c1312fd-3089-4426-b2f8-bc2b6e09e373","ios":"levelo://app?vid=9c1312fd-3089-4426-b2f8-bc2b6e09e373"},"vehicle_type_id":"4","last_reported":1730711469,"current_range_meters":37600,"station_id":"ce4bhjp2rcd13ifvqga0","pricing_plan_id":"cebpf4jnsgd1na2vs0mg"},{"bike_id":"2e83a5ec-539f-4da3-96ad-d96c270d4bff","system_id":"levelo_inurba_marseille","lat":43.32536,"lon":5.41429,"is_reserved":false,"is_disabled":false,"rental_uris":{"android":"levelo://app?vid=2e83a5ec-539f-4da3-96ad-d96c270d4bff","ios":"levelo://app?vid=2e83a5ec-539f-4da3-96ad-d96c270d4bff"},"vehicle_type_id":"4","last_reported":1730711469,"current_range_meters":26800,"station_id":"ce4bhq12rcd13ifvqhhg","pricing_plan_id":"cebpf4jnsgd1na2vs0mg"},{"bike_id":"f476710f-91c6-4560-8599-a267875445ba","system_id":"levelo_inurba_marseille","lat":43.26951,"lon":5.38627,"is_reserved":false,"is_disabled":false,"rental_uris":{"android":"levelo://app?vid=f476710f-91c6-4560-8599-a267875445ba","ios":"levelo://app?vid=f476710f-91c6-4560-8599-a267875445ba"},"vehicle_type_id":"4","last_reported":1730711469,"current_range_meters":38800,"station_id":"ce4bhh92rcd13ifvqfh0","pricing_plan_id":"cebpf4jnsgd1na2vs0mg"},{"bike_id":"b660520d-7bca-4b11-8965-e79652640606","system_id":"levelo_inurba_marseille","lat":43.32362,"lon":5.36763,"is_reserved":false,"is_disabled":false,"rental_uris":{"android":"levelo://app?vid=b660520d-7bca-4b11-8965-e79652640606","ios":"levelo://app?vid=b660520d-7bca-4b11-8965-e79652640606"},"vehicle_type_id":"4","last_reported":1730711469,"current_range_meters":8400,"station_id":"ce4bhsh2rcd13ifvqi2g","pricing_plan_id":"cebpf4jnsgd1na2vs0mg"},{"bike_id":"11f492fb-fe6d-4832-8698-6015ba1dfb67","system_id":"levelo_inurba_marseille","lat":43.259125,"lon":5.409342,"is_reserved":false,"is_disabled":false,"rental_uris":{"android":"levelo://app?vid=11f492fb-fe6d-4832-8698-6015ba1dfb67","ios":"levelo://app?vid=11f492fb-fe6d-4832-8698-6015ba1dfb67"},"vehicle_type_id":"4","last_reported":1730711469,"current_range_meters":16800,"station_id":"ce4bhm92rcd13ifvqglg","pricing_plan_id":"cebpf4jnsgd1na2vs0mg"},{"bike_id":"62701713-e84f-4529-a354-f4701c0c871c","system_id":"levelo_inurba_marseille","lat":43.2407,"lon":5.37762,"is_reserved":false,"is_disabled":false,"rental_uris":{"android":"levelo://app?vid=62701713-e84f-4529-a354-f4701c0c871c","ios":"levelo://app?vid=62701713-e84f-4529-a354-f4701c0c871c"},"vehicle_type_id":"4","last_reported":1730711469,"current_range_meters":22000,"station_id":"ce4bhnp2rcd13ifvqgvg","pricing_plan_id":"cebpf4jnsgd1na2vs0mg"},{"bike_id":"556240cc-e7f2-48a4-aa5e-c4d59f7c9bed","system_id":"levelo_inurba_marseille","lat":43.26958,"lon":5.38631,"is_reserved":false,"is_disabled":false,"rental_uris":{"android":"levelo://app?vid=556240cc-e7f2-48a4-aa5e-c4d59f7c9bed","ios":"levelo://app?vid=556240cc-e7f2-48a4-aa5e-c4d59f7c9bed"},"vehicle_type_id":"4","last_reported":1730711469,"current_range_meters":38800,"station_id":"ce4bhh92rcd13ifvqfh0","pricing_plan_id":"cebpf4jnsgd1na2vs0mg"},{"bike_id":"63a65b91-603b-4aa1-b0c4-693c0f219c31","system_id":"levelo_inurba_marseille","lat":43.2408,"lon":5.37757,"is_reserved":false,"is_disabled":false,"rental_uris":{"android":"levelo://app?vid=63a65b91-603b-4aa1-b0c4-693c0f219c31","ios":"levelo://app?vid=63a65b91-603b-4aa1-b0c4-693c0f219c31"},"vehicle_type_id":"4","last_reported":1730711469,"current_range_meters":32400,"station_id":"ce4bhnp2rcd13ifvqgvg","pricing_plan_id":"cebpf4jnsgd1na2vs0mg"},{"bike_id":"c43f9cce-d490-4fd1-801b-69c9ee4842e7","system_id":"levelo_inurba_marseille","lat":43.26949,"lon":5.3864,"is_reserved":false,"is_disabled":false,"rental_uris":{"android":"levelo://app?vid=c43f9cce-d490-4fd1-801b-69c9ee4842e7","ios":"levelo://app?vid=c43f9cce-d490-4fd1-801b-69c9ee4842e7"},"vehicle_type_id":"4","last_reported":1730711469,"current_range_meters":38800,"station_id":"ce4bhh92rcd13ifvqfh0","pricing_plan_id":"cebpf4jnsgd1na2vs0mg"},{"bike_id":"86cb08db-fc82-413c-ae52-0b92a5fcb407","system_id":"levelo_inurba_marseille","lat":43.3055,"lon":5.36698,"is_reserved":false,"is_disabled":false,"rental_uris":{"android":"levelo://app?vid=86cb08db-fc82-413c-ae52-0b92a5fcb407","ios":"levelo://app?vid=86cb08db-fc82-413c-ae52-0b92a5fcb407"},"vehicle_type_id":"4","last_reported":1730711469,"current_range_meters":38400,"station_id":"ce4bgrp2rcd13ifvqc9g","pricing_plan_id":"cebpf4jnsgd1na2vs0mg"},{"bike_id":"0aba54e2-6d88-4b1a-8332-43a7e09880dd","system_id":"levelo_inurba_marseille","lat":43.26951,"lon":5.38633,"is_reserved":false,"is_disabled":false,"rental_uris":{"android":"levelo://app?vid=0aba54e2-6d88-4b1a-8332-43a7e09880dd","ios":"levelo://app?vid=0aba54e2-6d88-4b1a-8332-43a7e09880dd"},"vehicle_type_id":"4","last_reported":1730711469,"current_range_meters":38800,"station_id":"ce4bhh92rcd13ifvqfh0","pricing_plan_id":"cebpf4jnsgd1na2vs0mg"},