{"last_updated":1727284071,"ttl":60,"version":"2.2","data":{"bikes":[{"bike_id":"9ddf417c-0160-415f-b43a-79fff0c1bc96","system_id":"levelo_inurba_marseille","lat":43.29867,"lon":5.39737,"is_reserved":false,"is_disabled":false,"rental_uris":{"android":"levelo://app?vid=9ddf417c-0160-415f-b43a-79fff0c1bc96","ios":"levelo://app?vid=9ddf417c-0160-415f-b43a-79fff0c1bc96"},"vehicle_type_id":"4","last_reported":1727284071,"current_range_meters":22400,"station_id":"ce4bh0h2rcd13ifvqd50","pricing_plan_id":"cebpf4jnsgd1na2vs0mg"},{"bike_id":"cb6a4804-c688-4057-bd84-4cc83eec7f00","system_id":"levelo_inurba_marseille","lat":43.28468,"lon":5.35876,"is_reserved":false,"is_disabled":false,"rental_uris":{"android":"levelo://app?vid=cb6a4804-c688-4057-bd84-4cc83eec7f00","ios":"levelo://app?vid=cb6a4804-c688-4057-bd84-4cc83eec7f00"},"vehicle_type_id":"4","last_reported":1727284071,"current_range_meters":33600,"station_id":"ce4bhah2rcd13ifvqei0","pricing_plan_id":"cebpf4jnsgd1na2vs0mg"},{"bike_id":"dce8fdfe-8a24-4473-914b-d38d68ce0f1c","system_id":"levelo_inurba_marseille","lat":43.294128,"lon":5.386252,"is_reserved":false,"is_disabled":false,"rental_uris":{"android":"levelo://app?vid=dce8fdfe-8a24-4473-914b-d38d68ce0f1c","ios":"levelo://app?vid=dce8fdfe-8a24-4473-914b-d38d68ce0f1c"},"vehicle_type_id":"4","last_reported":1727284071,"current_range_meters":7200,"station_id":"ce4bh2h2rcd13ifvqdh0","pricing_plan_id":"cebpf4jnsgd1na2vs0mg"},{"bike_id":"d3ce0e04-dccf-4e83-9200-edab7a080f39","system_id":"levelo_inurba_marseille","lat":43.31334,"lon":5.39691,"is_reserved":false,"is_disabled":false,"rental_uris":{"android":"levelo://app?vid=d3ce0e04-dccf-4e83-9200-edab7a080f39","ios":"levelo://app?vid=d3ce0e04-dccf-4e83-9200-edab7a080f39"},"vehicle_type_id":"4","last_reported":1727284071,"current_range_meters":18000,"station_id":"ce4bgvp2rcd13ifvqcu0","pricing_plan_id":"cebpf4jnsgd1na2vs0mg"},{"bike_id":"45eba069-19b2-45c4-a67b-478acc0442e0","system_id":"levelo_inurba_marseille","lat":43.32666,"lon":5.40994,"is_reserved":false,"is_disabled":false,"rental_uris":{"android":"levelo://app?vid=45eba069-19b2-45c4-a67b-478acc0442e0","ios":"levelo://app?vid=45eba069-19b2-45c4-a67b-478acc0442e0"},"vehicle_type_id":"4","last_reported":1727284071,"current_range_meters":39200,"station_id":"ce4bhpp2rcd13ifvqhgg","pricing_plan_id":"cebpf4jnsgd1na2vs0mg"},{"bike_id":"42a38fb8-549c-4925-bfd5-059df21d4756","system_id":"levelo_inurba_marseille","lat":43.33025,"lon":5.39036,"is_reserved":false,"is_disabled":false,"rental_uris":{"android":"levelo://app?vid=42a38fb8-549c-4925-bfd5-059df21d4756","ios":"levelo://app?vid=42a38fb8-549c-4925-bfd5-059df21d4756"},"vehicle_type_id":"4","last_reported":1727284071,"current_range_meters":8800,"station_id":"ce4bhr92rcd13ifvqhrg","pricing_plan_id":"cebpf4jnsgd1na2vs0mg"},{"bike_id":"bdf247ae-bc02-4762-979a-3a1ad75c6085","system_id":"levelo_inurba_marseille","lat":43.30801,"lon":5.43526,"is_reserved":false,"is_disabled":false,"rental_uris":{"android":"levelo://app?vid=bdf247ae-bc02-4762-979a-3a1ad75c6085","ios":"levelo://app?vid=bdf247ae-bc02-4762-979a-3a1ad75c6085"},"vehicle_type_id":"4","last_reported":1727284071,"current_range_meters":8400,"station_id":"ce4bhph2rcd13ifvqheg","pricing_plan_id":"cebpf4jnsgd1na2vs0mg"},{"bike_id":"1b2b0906-0693-4ebf-8447-8802fdc1609d","system_id":"levelo_inurba_marseille","lat":43.29193,"lon":5.35804,"is_reserved":false,"is_disabled":false,"rental_uris":{"android":"levelo://app?vid=1b2b0906-0693-4ebf-8447-8802fdc1609d","ios":"levelo://app?vid=1b2b0906-0693-4ebf-8447-8802fdc1609d"},"vehicle_type_id":"4","last_reported":1727284071,"current_range_meters":6000,"station_id":"ce4bhb12rcd13ifvqel0","pricing_plan_id":"cebpf4jnsgd1na2vs0mg"},{"bike_id":"804bb71b-13a7-4e79-985b-bba7bf123aab","system_id":"levelo_inurba_marseille","lat":43.27812,"lon":5.40713,"is_reserved":false,"is_disabled":false,"rental_uris":{"android":"levelo://app?vid=804bb71b-13a7-4e79-985b-bba7bf123aab","ios":"levelo://app?vid=804bb71b-13a7-4e79-985b-bba7bf123aab"},"vehicle_type_id":"4","last_reported":1727284071,"current_range_meters":5600,"station_id":"ce4bhnh2rcd13ifvqgtg","pricing_plan_id":"cebpf4jnsgd1na2vs0mg"},{"bike_id":"6d6e1376-0000-4cc9-bbf7-6274e722226f","system_id":"levelo_inurba_marseille","lat":43.30306,"lon":5.36882,"is_reserved":false,"is_disabled":false,"rental_uris":{"android":"levelo://app?vid=6d6e1376-0000-4cc9-bbf7-6274e722226f","ios":"levelo://app?vid=6d6e1376-0000-4cc9-bbf7-6274e722226f"},"vehicle_type_id":"4","last_reported":1727284071,"current_range_meters":15200,"station_id":"ce4bgqh2rcd13ifvqc5g","pricing_plan_id":"cebpf4jnsgd1na2vs0mg"},{"bike_id":"0cbde1ce-f06b-434b-a134-2eb90b4eedfc","system_id":"levelo_inurba_marseille","lat":43.32487,"lon":5.36563,"is_reserved":false,"is_disabled":false,"rental_uris":{"android":"levelo://app?vid=0cbde1ce-f06b-434b-a134-2eb90b4eedfc","ios":"levelo://app?vid=0cbde1ce-f06b-434b-a134-2eb90b4eedfc"},"vehicle_type_id":"4","last_reported":1727284071,"current_range_meters":38800,"station_id":"ce4bhs12rcd13ifvqhvg","pricing_plan_id":"cebpf4jnsgd1na2vs0mg"},{"bike_id":"7737b815-6daf-41f0-8354-4b28ba75917f","system_id":"levelo_inurba_marseille","lat":43.30197,"lon":5.39829,"is_reserved":false,"is_disabled":false,"rental_uris":{"android":"levelo://app?vid=7737b815-6daf-41f0-8354-4b28ba75917f","ios":"levelo://app?vid=7737b815-6daf-41f0-8354-4b28ba75917f"},"vehicle_type_id":"4","last_reported":1727284071,"current_range_meters":16800,"station_id":"ce4bgvp2rcd13ifvqct0","pricing_plan_id":"cebpf4jnsgd1na2vs0mg"},{"bike_id":"8a7be956-eece-4a5e-8dfa-3a6409ec3e54","system_id":"levelo_inurba_marseille","lat":43.29197,"lon":5.35802,"is_reserved":false,"is_disabled":false,"rental_uris":{"android":"levelo://app?vid=8a7be956-eece-4a5e-8dfa-3a6409ec3e54","ios":"levelo://app?vid=8a7be956-eece-4a5e-8dfa-3a6409ec3e54"},"vehicle_type_id":"4","last_reported":1727284071,"current_range_meters":7200,"station_id":"ce4bhb12rcd13ifvqel0","pricing_plan_id":"cebpf4jnsgd1na2vs0mg"},{"bike_id":"32b0fffd-2b5a-4be1-82e6-4d5267b47402","system_id":"levelo_inurba_marseille","lat":43.2603,"lon":5.37549,"is_reserved":false,"is_disabled":false,"rental_uris":{"android":"levelo://app?vid=32b0fffd-2b5a-4be1-82e6-4d5267b47402","ios":"levelo://app?vid=32b0fffd-2b5a-4be1-82e6-4d5267b47402"},"vehicle_type_id":"4","last_reported":1727284071,"current_range_meters":38400,"station_id":"ce4bhgh2rcd13ifvqfa0","pricing_plan_id":"cebpf4jnsgd1na2vs0mg"},{"bike_id":"f7e47048-ff1d-408c-8781-8fb379817a78","system_id":"levelo_inurba_marseille","lat":43.290436,"lon":5.359172,"is_reserved":false,"is_disabled":false,"rental_uris":{"android":"levelo://app?vid=f7e47048-ff1d-408c-8781-8fb379817a78","ios":"levelo://app?vid=f7e47048-ff1d-408c-8781-8fb379817a78"},"vehicle_type_id":"4","last_reported":1727284071,"current_range_meters":20800,"station_id":"ce4bhbh2rcd13ifvqepg","pricing_plan_id":"cebpf4jnsgd1na2vs0mg"},{"bike_id":"0bcb85c3-e1e5-4a20-8fe0-2f8b37a23c6e","system_id":"levelo_inurba_marseille","lat":43.3265,"lon":5.41001,"is_reserved":false,"is_disabled":false,"rental_uris":{"android":"levelo://app?vid=0bcb85c3-e1e5-4a20-8fe0-2f8b37a23c6e","ios":"levelo://app?vid=0bcb85c3-e1e5-4a20-8fe0-2f8b37a23c6e"},"vehicle_type_id":"4","last_reported":1727284071,"current_range_meters":37600,"station_id":"ce4bhpp2rcd13ifvqhgg","pricing_plan_id":"cebpf4jnsgd1na2vs0mg"},{"bike_id":"d9d095a3-f181-49d1-ba05-34ce67541f6a","system_id":"levelo_inurba_marseille","lat":43.29002,"lon":5.35607,"is_reserved":false,"is_disabled":false,"rental_uris":{"android":"levelo://app?vid=d9d095a3-f181-49d1-ba05-34ce67541f6a","ios":"levelo://app?vid=d9d095a3-f181-49d1-ba05-34ce67541f6a"},"vehicle_type_id":"4","last_reported":1727284071,"current_range_meters":24400,"station_id":"ce4bhb92rcd13ifvqen0","pricing_plan_id":"cebpf4jnsgd1na2vs0mg"},{"bike_id":"26f9e76f-02c8-4eb7-a8c5-f145697ef279","system_id":"levelo_inurba_marseille","lat":43.28008,"lon":5.40011,"is_reserved":false,"is_disabled":false,"rental_uris":{"android":"levelo://app?vid=26f9e76f-02c8-4eb7-a8c5-f145697ef279","ios":"levelo://app?vid=26f9e76f-02c8-4eb7-a8c5-f145697ef279"},"vehicle_type_id":"4","last_reported":1727284071,"current_range_meters":8000,"station_id":"ce4bho92rcd13ifvqh4g","pricing_plan_id":"cebpf4jnsgd1na2vs0mg"},{"bike_id":"7a8458d5-44ac-4f2e-abef-3f01eb31f7ca","system_id":"levelo_inurba_marseille","lat":43.337444,"lon":5.374475,"is_reserved":false,"is_disabled":false,"rental_uris":{"android":"levelo://app?vid=7a8458d5-44ac-4f2e-abef-3f01eb31f7ca","ios":"levelo://app?vid=7a8458d5-44ac-4f2e-abef-3f01eb31f7ca"},"vehicle_type_id":"4","last_reported":1727284071,"current_range_meters":24800,"station_id":"","pricing_plan_id":"cebpf4jnsgd1na2vs0mg"},{"bike_id":"1d29ea8f-1a24-4ea1-8241-9e6418ab4fd4","system_id":"levelo_inurba_marseille","lat":43.29254,"lon":5.40901,"is_reserved":false,"is_disabled":false,"rental_uris":{"android":"levelo://app?vid=1d29ea8f-1a24-4ea1-8241-9e6418ab4fd4","ios":"levelo://app?vid=1d29ea8f-1a24-4ea1-8241-9e6418ab4fd4"},"vehicle_type_id":"4","last_reported":1727284071,"current_range_meters":33200,"station_id":"ce4bh192rcd13ifvqdc0","pricing_plan_id":"cebpf4jnsgd1na2vs0mg"},{"bike_id":"a99d38d1-aa77-42e1-bdea-9a43b9fb8403","system_id":"levelo_inurba_marseille","lat":43.28853,"lon":5.35854,"is_reserved":false,"is_disabled":false,"rental_uris":{"android":"levelo://app?vid=a99d38d1-aa77-42e1-bdea-9a43b9fb8403","ios":"levelo://app?vid=a99d38d1-aa77-42e1-bdea-9a43b9fb8403"},"vehicle_type_id":"4","last_reported":1727284071,"current_range_meters":2800,"station_id":"ce4bhb12rcd13ifvqem0","pricing_plan_id":"cebpf4jnsgd1na2vs0mg"},{"bike_id":"33611f90-ca85-445b-af92-8feb9bb0bf75","system_id":"levelo_inurba_marseille","lat":43.29182,"lon":5.35804,"is_reserved":false,"is_disabled":false,"rental_uris":{"android":"levelo://app?vid=33611f90-ca85-445b-af92-8feb9bb0bf75","ios":"levelo://app?vid=33611f90-ca85-445b-af92-8feb9bb0bf75"},"vehicle_type_id":"4","last_reported":1727284071,"current_range_meters":9600,"station_id":"ce4bhb12rcd13ifvqel0","pricing_plan_id":"cebpf4jnsgd1na2vs0mg"},{"bike_id":"ed9d69a6-a921-4251-b073-fdfe53c8cdc2","system_id":"levelo_inurba_marseille","lat":43.24079,"lon":5.37755,"is_reserved":false,"is_disabled":false,"rental_uris":{"android":"levelo://app?vid=ed9d69a6-a921-4251-b073-fdfe53c8cdc2","ios":"levelo://app?vid=ed9d69a6-a921-4251-b073-fdfe53c8cdc2"},"vehicle_type_id":"4","last_reported":1727284071,"current_range_meters":38800,"station_id":"ce4bhnp2rcd13ifvqgvg","pricing_plan_id":"cebpf4jnsgd1na2vs0mg"},{"bike_id":"91334fc2-c7d6-4624-afa7-1080e7a74b93","system_id":"levelo_inurba_marseille","lat":43.26031,"lon":5.37548,"is_reserved":false,"is_disabled":false,"rental_uris":{"android":"levelo://app?vid=91334fc2-c7d6-4624-afa7-1080e7a74b93","ios":"levelo://app?vid=91334fc2-c7d6-4624-afa7-1080e7a74b93"},"vehicle_type_id":"4","last_reported":1727284071,"current_range_meters":6400,"station_id":"ce4bhgh2rcd13ifvqfa0","pricing_plan_id":"cebpf4jnsgd1na2vs0mg"},{"bike_id":"4c113923-aaa1-4dd4-b737-7c3de02f9b64","system_id":"levelo_inurba_marseille","lat":43.27914,"lon":5.38007,"is_reserved":false,"is_disabled":false,"rental_uris":{"android":"levelo://app?vid=4c113923-aaa1-4dd4-b737-7c3de02f9b64","ios":"levelo://app?vid=4c113923-aaa1-4dd4-b737-7c3de02f9b64"},"vehicle_type_id":"4","last_reported":1727284071,"current_range_meters":12400,"station_id":"ce4bhf92rcd13ifvqf50","pricing_plan_id":"cebpf4jnsgd1na2vs0mg"},{"bike_id":"38c4ca2a-ce92-4693-8c35-506ea892b5b0","system_id":"levelo_inurba_marseille","lat":43.30411,"lon":5.41291,"is_reserved":false,"is_disabled":false,"rental_uris":{"android":"levelo://app?vid=38c4ca2a-ce92-4693-8c35-506ea892b5b0","ios":"levelo://app?vid=38c4ca2a-ce92-4693-8c35-506ea892b5b0"},"vehicle_type_id":"4","last_reported":1727284071,"current_range_meters":38000,"station_id":"ce4bhop2rcd13ifvqh8g","pricing_plan_id":"cebpf4jnsgd1na2vs0mg"},{"bike_id":"877add64-dfc2-44af-8922-5310d563cc5e","system_id":"levelo_inurba_marseille","lat":43.27998,"lon":5.40015,"is_reserved":false,"is_disabled":false,"rental_uris":{"android":"levelo://app?vid=877add64-dfc2-44af-8922-5310d563cc5e","ios":"levelo://app?vid=877add64-dfc2-44af-8922-5310d563cc5e"},"vehicle_type_id":"4","last_reported":1727284071,"current_range_meters":8000,"station_id":"ce4bho92rcd13ifvqh4g","pricing_plan_id":"cebpf4jnsgd1na2vs0mg"},{"bike_id":"79a05bb1-ccec-47f0-8ebd-1f95854549f8","system_id":"levelo_inurba_marseille","lat":43.31285,"lon":5.38042,"is_reserved":false,"is_disabled":false,"rental_uris":{"android":"levelo://app?vid=79a05bb1-ccec-47f0-8ebd-1f95854549f8","ios":"levelo://app?vid=79a05bb1-ccec-47f0-8ebd-1f95854549f8"},"vehicle_type_id":"4","last_reported":1727284071,"current_range_meters":10000,"station_id":"","pricing_plan_id":"cebpf4jnsgd1na2vs0mg"},{"bike_id":"c8f9ce4c-b0a8-4f7f-a01c-8ebf2b760da3","system_id":"levelo_inurba_marseille","lat":43.292,"lon":5.35812,"is_reserved":false,"is_disabled":false,"rental_uris":{"android":"levelo://app?vid=c8f9ce4c-b0a8-4f7f-a01c-8ebf2b760da3","ios":"levelo://app?vid=c8f9ce4c-b0a8-4f7f-a01c-8ebf2b760da3"},"vehicle_type_id":"4","last_reported":1727284071,"current_range_meters":38800,"station_id":"ce4bhb12rcd13ifvqel0","pricing_plan_id":"cebpf4jnsgd1na2vs0mg"},{"bike_id":"f403ee30-bfaf-4070-b814-e0f1666207da","system_id":"levelo_inurba_marseille","lat":43.29555,"lon":5.42293,"is_reserved":false,"is_disabled":false,"rental_uris":{"android":"levelo://app?vid=f403ee30-bfaf-4070-b814-e0f1666207da","ios":"levelo://app?vid=f403ee30-bfaf-4070-b814-e0f1666207da"},"vehicle_type_id":"4","last_reported":1727284071,"current_range_meters":23200,"station_id":"ce4bhph2rcd13ifvqhdg","pricing_plan_id":"cebpf4jnsgd1na2vs0mg"},{"bike_id":"5e30c947-70c0-440e-ba3f-921b6b81a3a6","system_id":"levelo_inurba_marseille","lat":43.24808,"lon":5.37458,"is_reserved":false,"is_disabled":false,"rental_uris":{"android":"levelo://app?vid=5e30c947-70c0-440e-ba3f-921b6b81a3a6","ios":"levelo://app?vid=5e30c947-70c0-440e-ba3f-921b6b81a3a6"},"vehicle_type_id":"4","last_reported":1727284071,"current_range_meters":30800,"station_id":"ce4bhgh2rcd13ifvqfb0","pricing_plan_id":"cebpf4jnsgd1na2vs0mg"},{"bike_id":"245d2aee-fea2-4e6d-8688-1719f141a8a1","system_id":"levelo_inurba_marseille","lat":43.25826,"lon":5.39431,"is_reserved":false,"is_disabled":false,"rental_uris":{"android":"levelo://app?vid=245d2aee-fea2-4e6d-8688-1719f141a8a1","ios":"levelo://app?vid=245d2aee-fea2-4e6d-8688-1719f141a8a1"},"vehicle_type_id":"4","last_reported":1727284071,"current_range_meters":25200,"station_id":"ce4bhip2rcd13ifvqft0","pricing_plan_id":"cebpf4jnsgd1na2vs0mg"},{"bike_id":"e008b475-7ef8-4dbb-8d48-be4853659333","system_id":"levelo_inurba_marseille","lat":43.30247,"lon":5.40082,"is_reserved":false,"is_disabled":false,"rental_uris":{"android":"levelo://app?vid=e008b475-7ef8-4dbb-8d48-be4853659333","ios":"levelo://app?vid=e008b475-7ef8-4dbb-8d48-be4853659333"},"vehicle_type_id":"4","last_reported":1727284071,"current_range_meters":38800,"station_id":"ce4bgvh2rcd13ifvqcs0","pricing_plan_id":"cebpf4jnsgd1na2vs0mg"},{"bike_id":"8d82087e-dd55-44f9-8934-cd3d54beb4ec","system_id":"levelo_inurba_marseille","lat":43.264999,"lon":5.395359,"is_reserved":false,"is_disabled":false,"rental_uris":{"android":"levelo://app?vid=8d82087e-dd55-44f9-8934-cd3d54beb4ec","ios":"levelo://app?vid=8d82087e-dd55-44f9-8934-cd3d54beb4ec"},"vehicle_type_id":"4","last_reported":1727284071,"current_range_meters":20000,"station_id":"ce4bhi12rcd13ifvqfq0","pricing_plan_id":"cebpf4jnsgd1na2vs0mg"},{"bike_id":"f0a28f2f-aefc-41ec-af88-4d504c3e354d","system_id":"levelo_inurba_marseille","lat":43.3153,"lon":5.38035,"is_reserved":false,"is_disabled":false,"rental_uris":{"android":"levelo://app?vid=f0a28f2f-aefc-41ec-af88-4d504c3e354d","ios":"levelo://app?vid=f0a28f2f-aefc-41ec-af88-4d504c3e354d"},"vehicle_type_id":"4","last_reported":1727284071,"current_range_meters":12400,"station_id":"ce4bhsp2rcd13ifvqi50","pricing_plan_id":"cebpf4jnsgd1na2vs0mg"},{"bike_id":"51f67a70-50f9-4189-8cf7-0045d547ba4f","system_id":"levelo_inurba_marseille","lat":43.31693,"lon":5.40462,"is_reserved":false,"is_disabled":false,"rental_uris":{"android":"levelo://app?vid=51f67a70-50f9-4189-8cf7-0045d547ba4f","ios":"levelo://app?vid=51f67a70-50f9-4189-8cf7-0045d547ba4f"},"vehicle_type_id":"4","last_reported":1727284071,"current_range_meters":38800,"station_id":"ce4bh012rcd13ifvqd00","pricing_plan_id":"cebpf4jnsgd1na2vs0mg"},{"bike_id":"5c961961-9f81-44d5-97ae-b3bfdcadbb08","system_id":"levelo_inurba_marseille","lat":43.29306,"lon":5.37457,"is_reserved":false,"is_disabled":false,"rental_uris":{"android":"levelo://app?vid=5c961961-9f81-44d5-97ae-b3bfdcadbb08","ios":"levelo://app?vid=5c961961-9f81-44d5-97ae-b3bfdcadbb08"},"vehicle_type_id":"4","last_reported":1727284071,"current_range_meters":16000,"station_id":"ce4bh292rcd13ifvqdf0","pricing_plan_id":"cebpf4jnsgd1na2vs0mg"},{"bike_id":"e7193ed9-005c-469a-b6ec-8a2003b03c16","system_id":"levelo_inurba_marseille","lat":43.28045,"lon":5.36944,"is_reserved":false,"is_disabled":false,"rental_uris":{"android":"levelo://app?vid=e7193ed9-005c-469a-b6ec-8a2003b03c16","ios":"levelo://app?vid=e7193ed9-005c-469a-b6ec-8a2003b03c16"},"vehicle_type_id":"4","last_reported":1727284071,"current_range_meters":28400,"station_id":"ce4bha12rcd13ifvqef0","pricing_plan_id":"cebpf4jnsgd1na2vs0mg"},{"bike_id":"27caab4c-f2f5-4af5-a558-546ec6df4b54","system_id":"levelo_inurba_marseille","lat":43.25492,"lon":5.37647,"is_reserved":false,"is_disabled":false,"rental_uris":{"android":"levelo://app?vid=27caab4c-f2f5-4af5-a558-546ec6df4b54","ios":"levelo://app?vid=27caab4c-f2f5-4af5-a558-546ec6df4b54"},"vehicle_type_id":"4","last_reported":1727284071,"current_range_meters":3200,"station_id":"ce4bhh12rcd13ifvqff0","pricing_plan_id":"cebpf4jnsgd1na2vs0mg"},{"bike_id":"a3f7c797-2788-4cea-aa51-2735e90fcd90","system_id":"levelo_inurba_marseille","lat":43.30795,"lon":5.4353,"is_reserved":false,"is_disabled":false,"rental_uris":{"android":"levelo://app?vid=a3f7c797-2788-4cea-aa51-2735e90fcd90","ios":"levelo://app?vid=a3f7c797-2788-4cea-aa51-2735e90fcd90"},"vehicle_type_id":"4","last_reported":1727284071,"current_range_meters":7200,"station_id":"ce4bhph2rcd13ifvqheg","pricing_plan_id":"cebpf4jnsgd1na2vs0mg"},{"bike_id":"151ae5a0-0125-4c57-b528-7b871427d957","system_id":"levelo_inurba_marseille","lat":43.29964,"lon":5.38498,"is_reserved":false,"is_disabled":false,"rental_uris":{"android":"levelo://app?vid=151ae5a0-0125-4c57-b528-7b871427d957","ios":"levelo://app?vid=151ae5a0-0125-4c57-b528-7b871427d957"},"vehicle_type_id":"4","last_reported":1727284071,"current_range_meters":38800,"station_id":"ce4bgj92rcd13ifvqbd0","pricing_plan_id":"cebpf4jnsgd1na2vs0mg"},{"bike_id":"0c60e8d3-3809-4d77-b614-f4c181bc615d","system_id":"levelo_inurba_marseille","lat":43.28365,"lon":5.38628,"is_reserved":false,"is_disabled":false,"rental_uris":{"android":"levelo://app?vid=0c60e8d3-3809-4d77-b614-f4c181bc615d","ios":"levelo://app?vid=0c60e8d3-3809-4d77-b614-f4c181bc615d"},"vehicle_type_id":"4","last_reported":1727284071,"current_range_meters":4000,"station_id":"ce4bh492rcd13ifvqdvg","pricing_plan_id":"cebpf4jnsgd1na2vs0mg"},{"bike_id":"7f66ea78-04e1-404a-9812-9bf088ece948","system_id":"levelo_inurba_marseille","lat":43.32343,"lon":5.40623,"is_reserved":false,"is_disabled":false,"rental_uris":{"android":"levelo://app?vid=7f66ea78-04e1-404a-9812-9bf088ece948","ios":"levelo://app?vid=7f66ea78-04e1-404a-9812-9bf088ece948"},"vehicle_type_id":"4","last_reported":1727284071,"current_range_meters":38800,"station_id":"ce4bhq92rcd13ifvqhjg","pricing_plan_id":"cebpf4jnsgd1na2vs0mg"},{"bike_id":"1fc9b54f-afc1-4f6d-ab6f-e9d04dbc8748","system_id":"levelo_inurba_marseille","lat":43.28414,"lon":5.37502,"is_reserved":false,"is_disabled":false,"rental_uris":{"android":"levelo://app?vid=1fc9b54f-afc1-4f6d-ab6f-e9d04dbc8748","ios":"levelo://app?vid=1fc9b54f-afc1-4f6d-ab6f-e9d04dbc8748"},"vehicle_type_id":"4","last_reported":1727284071,"current_range_meters":28400,"station_id":"ce4bha92rcd13ifvqeh0","pricing_plan_id":"cebpf4jnsgd1na2vs0mg"},{"bike_id":"5c93b95c-0549-41f0-a4a9-6211e260d1dc","system_id":"levelo_inurba_marseille","lat":43.31888,"lon":5.40743,"is_reserved":false,"is_disabled":false,"rental_uris":{"android":"levelo://app?vid=5c93b95c-0549-41f0-a4a9-6211e260d1dc","ios":"levelo://app?vid=5c93b95c-0549-41f0-a4a9-6211e260d1dc"},"vehicle_type_id":"4","last_reported":1727284071,"current_range_meters":4400,"station_id":"ce4bhq12rcd13ifvqhig","pricing_plan_id":"cebpf4jnsgd1na2vs0mg"},{"bike_id":"67dc150e-ead6-42f3-970d-e24096f6e63b","system_id":"levelo_inurba_marseille","lat":43.324707,"lon":5.365615,"is_reserved":false,"is_disabled":false,"rental_uris":{"android":"levelo://app?vid=67dc150e-ead6-42f3-970d-e24096f6e63b","ios":"levelo://app?vid=67dc150e-ead6-42f3-970d-e24096f6e63b"},"vehicle_type_id":"4","last_reported":1727284071,"current_range_meters":38800,"station_id":"ce4bhs12rcd13ifvqhvg","pricing_plan_id":"cebpf4jnsgd1na2vs0mg"},{"bike_id":"ce13e191-c4df-4ee8-86a1-3492f2f5c0e9","system_id":"levelo_inurba_marseille","lat":43.29574,"lon":5.39971,"is_reserved":false,"is_disabled":false,"rental_uris":{"android":"levelo://app?vid=ce13e191-c4df-4ee8-86a1-3492f2f5c0e9","ios":"levelo://app?vid=ce13e191-c4df-4ee8-86a1-3492f2f5c0e9"},"vehicle_type_id":"4","last_reported":1727284071,"current_range_meters":33600,"station_id":"ce4bh312rcd13ifvqdj0","pricing_plan_id":"cebpf4jnsgd1na2vs0mg"},{"bike_id":"a75d11e4-5000-41f8-9ff2-fbd2a76366d5","system_id":"levelo_inurba_marseille","lat":43.33958,"lon":5.42065,"is_reserved":false,"is_disabled":false,"rental_uris":{"android":"levelo://app?vid=a75d11e4-5000-41f8-9ff2-fbd2a76366d5","ios":"levelo://app?vid=a75d11e4-5000-41f8-9ff2-fbd2a76366d5"},"vehicle_type_id":"4","last_reported":1727284071,"current_range_meters":20000,"station_id":"","pricing_plan_id":"cebpf4jnsgd1na2vs0mg"},{"bike_id":"a8dbb7ca-dbd7-4a9b-b66d-741369926bef","system_id":"levelo_inurba_marseille","lat":43.29034,"lon":5.37568,"is_reserved":false,"is_disabled":false,"rental_uris":{"android":"levelo://app?vid=a8dbb7ca-dbd7-4a9b-b66d-741369926bef","ios":"levelo://app?vid=a8dbb7ca-dbd7-4a9b-b66d-741369926bef"},"vehicle_type_id":"4","last_reported":1727284071,"current_range_meters":8000,"station_id":"ce4bh692rcd13ifvqe90","pricing_plan_id":"cebpf4jnsgd1na2vs0mg"},{"bike_id":"28b534f2-caf7-4ad6-b8dc-05aa6c7682c1","system_id":"levelo_inurba_marseille","lat":43.2718,"lon":5.40995,"is_reserved":false,"is_disabled":false,"rental_uris":{"android":"levelo://app?vid=28b534f2-caf7-4ad6-b8dc-05aa6c7682c1","ios":"levelo://app?vid=28b534f2-caf7-4ad6-b8dc-05aa6c7682c1"},"vehicle_type_id":"4","last_reported":1727284071,"current_range_meters":38800,"station_id":"ce4bhl12rcd13ifvqgf0","pricing_plan_id":"cebpf4jnsgd1na2vs0mg"},{"bike_id":"271e5f76-ff2b-49c5-9d92-d6a7bdccc634","system_id":"levelo_inurba_marseille","lat":43.28273,"lon":5.35077,"is_reserved":false,"is_disabled":false,"rental_uris":{"android":"levelo://app?vid=271e5f76-ff2b-49c5-9d92-d6a7bdccc634","ios":"levelo://app?vid=271e5f76-ff2b-49c5-9d92-d6a7bdccc634"},"vehicle_type_id":"4","last_reported":1727284071,"current_range_meters":38800,"station_id":"ce4bhbp2rcd13ifvqerg","pricing_plan_id":"cebpf4jnsgd1na2vs0mg"},{"bike_id":"1c1a1319-60ab-4b3f-aa7e-d809da79f70f","system_id":"levelo_inurba_marseille","lat":43.30883,"lon":5.39652,"is_reserved":false,"is_disabled":false,"rental_uris":{"android":"levelo://app?vid=1c1a1319-60ab-4b3f-aa7e-d809da79f70f","ios":"levelo://app?vid=1c1a1319-60ab-4b3f-aa7e-d809da79f70f"},"vehicle_type_id":"4","last_reported":1727284071,"current_range_meters":6400,"station_id":"ce4bh012rcd13ifvqcv0","pricing_plan_id":"cebpf4jnsgd1na2vs0mg"},{"bike_id":"9283ec36-710a-40cf-8ee7-4dc96ce15420","system_id":"levelo_inurba_marseille","lat":43.27916,"lon":5.3958,"is_reserved":false,"is_disabled":false,"rental_uris":{"android":"levelo://app?vid=9283ec36-710a-40cf-8ee7-4dc96ce15420","ios":"levelo://app?vid=9283ec36-710a-40cf-8ee7-4dc96ce15420"},"vehicle_type_id":"4","last_reported":1727284071,"current_range_meters":28800,"station_id":"ce4bhf92rcd13ifvqf40","pricing_plan_id":"cebpf4jnsgd1na2vs0mg"},{"bike_id":"2f274528-4d0a-4cb5-92a0-00009116a01b","system_id":"levelo_inurba_marseille","lat":43.28617,"lon":5.351,"is_reserved":false,"is_disabled":false,"rental_uris":{"android":"levelo://app?vid=2f274528-4d0a-4cb5-92a0-00009116a01b","ios":"levelo://app?vid=2f274528-4d0a-4cb5-92a0-00009116a01b"},"vehicle_type_id":"4","last_reported":1727284071,"current_range_meters":3200,"station_id":"ce4bhch2rcd13ifvqeug","pricing_plan_id":"cebpf4jnsgd1na2vs0mg"},{"bike_id":"e5bd0fa9-5f87-41bf-b1c3-9068bc1e13e2","system_id":"levelo_inurba_marseille","lat":43.32367,"lon":5.38881,"is_reserved":false,"is_disabled":false,"rental_uris":{"android":"levelo://app?vid=e5bd0fa9-5f87-41bf-b1c3-9068bc1e13e2","ios":"levelo://app?vid=e5bd0fa9-5f87-41bf-b1c3-9068bc1e13e2"},"vehicle_type_id":"4","last_reported":1727284071,"current_range_meters":24400,"station_id":"ce4bhqp2rcd13ifvqhog","pricing_plan_id":"cebpf4jnsgd1na2vs0mg"},{"bike_id":"857e79c9-3a4f-40b7-b386-c329fae4b9e5","system_id":"levelo_inurba_marseille","lat":43.29419,"lon":5.38626,"is_reserved":false,"is_disabled":false,"rental_uris":{"android":"levelo://app?vid=857e79c9-3a4f-40b7-b386-c329fae4b9e5","ios":"levelo://app?vid=857e79c9-3a4f-40b7-b386-c329fae4b9e5"},"vehicle_type_id":"4","last_reported":1727284071,"current_range_meters":22400,"station_id":"ce4bh2h2rcd13ifvqdh0","pricing_plan_id":"cebpf4jnsgd1na2vs0mg"},{"bike_id":"95b46114-746a-41e3-8766-d21cf713a259","system_id":"levelo_inurba_marseille","lat":43.28349,"lon":5.3811,"is_reserved":false,"is_disabled":false,"rental_uris":{"android":"levelo://app?vid=95b46114-746a-41e3-8766-d21cf713a259","ios":"levelo://app?vid=95b46114-746a-41e3-8766-d21cf713a259"},"vehicle_type_id":"4","last_reported":1727284071,"current_range_meters":10800,"station_id":"ce4bh412rcd13ifvqdr0","pricing_plan_id":"cebpf4jnsgd1na2vs0mg"},{"bike_id":"6a695384-562e-4203-bd1c-dff87877264e","system_id":"levelo_inurba_marseille","lat":43.29532,"lon":5.38549,"is_reserved":false,"is_disabled":false,"rental_uris":{"android":"levelo://app?vid=6a695384-562e-4203-bd1c-dff87877264e","ios":"levelo://app?vid=6a695384-562e-4203-bd1c-dff87877264e"},"vehicle_type_id":"4","last_reported":1727284071,"current_range_meters":31200,"station_id":"ce4bgih2rcd13ifvqba0","pricing_plan_id":"cebpf4jnsgd1na2vs0mg"},{"bike_id":"579ca450-e0c2-45fa-b5c3-22c592624e30","system_id":"levelo_inurba_marseille","lat":43.33026,"lon":5.39039,"is_reserved":false,"is_disabled":false,"rental_uris":{"android":"levelo://app?vid=579ca450-e0c2-45fa-b5c3-22c592624e30","ios":"levelo://app?vid=579ca450-e0c2-45fa-b5c3-22c592624e30"},"vehicle_type_id":"4","last_reported":1727284071,"current_range_meters":12000,"station_id":"ce4bhr92rcd13ifvqhrg","pricing_plan_id":"cebpf4jnsgd1na2vs0mg"},{"bike_id":"da98e33d-72a1-4f68-a476-a83a07f5592d","system_id":"levelo_inurba_marseille","lat":43.27172,"lon":5.40994,"is_reserved":false,"is_disabled":false,"rental_uris":{"android":"levelo://app?vid=da98e33d-72a1-4f68-a476-a83a07f5592d","ios":"levelo://app?vid=da98e33d-72a1-4f68-a476-a83a07f5592d"},"vehicle_type_id":"4","last_reported":1727284071,"current_range_meters":16400,"station_id":"ce4bhl12rcd13ifvqgf0","pricing_plan_id":"cebpf4jnsgd1na2vs0mg"},{"bike_id":"ce6e7983-0be1-4501-a9ad-397eec7fa8b7","system_id":"levelo_inurba_marseille","lat":43.284136,"lon":5.349741,"is_reserved":false,"is_disabled":false,"rental_uris":{"android":"levelo://app?vid=ce6e7983-0be1-4501-a9ad-397eec7fa8b7","ios":"levelo://app?vid=ce6e7983-0be1-4501-a9ad-397eec7fa8b7"},"vehicle_type_id":"4","last_reported":1727284071,"current_range_meters":35200,"station_id":"ce4bhbh2rcd13ifvqepg","pricing_plan_id":"cebpf4jnsgd1na2vs0mg"},{"bike_id":"f2ef5102-6b9b-41a6-9e50-e7b3a0230a29","system_id":"levelo_inurba_marseille","lat":43.28461,"lon":5.35883,"is_reserved":false,"is_disabled":false,"rental_uris":{"android":"levelo://app?vid=f2ef5102-6b9b-41a6-9e50-e7b3a0230a29","ios":"levelo://app?vid=f2ef5102-6b9b-41a6-9e50-e7b3a0230a29"},"vehicle_type_id":"4","last_reported":1727284071,"current_range_meters":4400,"station_id":"ce4bhah2rcd13ifvqei0","pricing_plan_id":"cebpf4jnsgd1na2vs0mg"},{"bike_id":"733d7942-3338-4c1e-ad88-38177ccc61bf","system_id":"levelo_inurba_marseille","lat":43.29281,"lon":5.36836,"is_reserved":false,"is_disabled":false,"rental_uris":{"android":"levelo://app?vid=733d7942-3338-4c1e-ad88-38177ccc61bf","ios":"levelo://app?vid=733d7942-3338-4c1e-ad88-38177ccc61bf"},"vehicle_type_id":"4","last_reported":1727284071,"current_range_meters":6000,"station_id":"ce4bhbp2rcd13ifvqesg","pricing_plan_id":"cebpf4jnsgd1na2vs0mg"},{"bike_id":"d2d4d7c4-ba0a-4a96-baf1-db34e32af38d","system_id":"levelo_inurba_marseille","lat":43.3207,"lon":5.41571,"is_reserved":false,"is_disabled":false,"rental_uris":{"android":"levelo://app?vid=d2d4d7c4-ba0a-4a96-baf1-db34e32af38d","ios":"levelo://app?vid=d2d4d7c4-ba0a-4a96-baf1-db34e32af38d"},"vehicle_type_id":"4","last_reported":1727284071,"current_range_meters":36800,"station_id":"ce4bhq92rcd13ifvqhkg","pricing_plan_id":"cebpf4jnsgd1na2vs0mg"},{"bike_id":"aad5f998-14cf-4370-a7d3-34ad492000d8","system_id":"levelo_inurba_marseille","lat":43.28,"lon":5.40002,"is_reserved":false,"is_disabled":false,"rental_uris":{"android":"levelo://app?vid=aad5f998-14cf-4370-a7d3-34ad492000d8","ios":"levelo://app?vid=aad5f998-14cf-4370-a7d3-34ad492000d8"},"vehicle_type_id":"4","last_reported":1727284071,"current_range_meters":14000,"station_id":"ce4bho92rcd13ifvqh4g","pricing_plan_id":"cebpf4jnsgd1na2vs0mg"},{"bike_id":"4d4f1993-4644-4eea-b076-c3953b9ce0cd","system_id":"levelo_inurba_marseille","lat":43.23196,"lon":5.35557,"is_reserved":false,"is_disabled":false,"rental_uris":{"android":"levelo://app?vid=4d4f1993-4644-4eea-b076-c3953b9ce0cd","ios":"levelo://app?vid=4d4f1993-4644-4eea-b076-c3953b9ce0cd"},"vehicle_type_id":"4","last_reported":1727284071,"current_range_meters":6800,"station_id":"ce4bhu92rcd13ifvqi70","pricing_plan_id":"cebpf4jnsgd1na2vs0mg"},{"bike_id":"b0a0d333-0016-4567-932a-d9af5b04bdb9","system_id":"levelo_inurba_marseille","lat":43.27425,"lon":5.39412,"is_reserved":false,"is_disabled":false,"rental_uris":{"android":"levelo://app?vid=b0a0d333-0016-4567-932a-d9af5b04bdb9","ios":"levelo://app?vid=b0a0d333-0016-4567-932a-d9af5b04bdb9"},"vehicle_type_id":"4","last_reported":1727284071,"current_range_meters":8800,"station_id":"ce4bhdp2rcd13ifvqf20","pricing_plan_id":"cebpf4jnsgd1na2vs0mg"},{"bike_id":"4364323a-021e-48b9-b4c4-eecb776b8299","system_id":"levelo_inurba_marseille","lat":43.31694,"lon":5.40474,"is_reserved":false,"is_disabled":false,"rental_uris":{"android":"levelo://app?vid=4364323a-021e-48b9-b4c4-eecb776b8299","ios":"levelo://app?vid=4364323a-021e-48b9-b4c4-eecb776b8299"},"vehicle_type_id":"4","last_reported":1727284071,"current_range_meters":3200,"station_id":"ce4bh012rcd13ifvqd00","pricing_plan_id":"cebpf4jnsgd1na2vs0mg"},{"bike_id":"7f4c5356-2bb1-4b01-9c47-cd24cc016dfb","system_id":"levelo_inurba_marseille","lat":43.292725,"lon":5.368138,"is_reserved":false,"is_disabled":false,"rental_uris":{"android":"levelo://app?vid=7f4c5356-2bb1-4b01-9c47-cd24cc016dfb","ios":"levelo://app?vid=7f4c5356-2bb1-4b01-9c47-cd24cc016dfb"},"vehicle_type_id":"4","last_reported":1727284071,"current_range_meters":28000,"station_id":"ce4bhbp2rcd13ifvqesg","pricing_plan_id":"cebpf4jnsgd1na2vs0mg"},{"bike_id":"8a132991-8af8-4c9e-b34c-d1e6da802d35","system_id":"levelo_inurba_marseille","lat":43.30408,"lon":5.41291,"is_reserved":false,"is_disabled":false,"rental_uris":{"android":"levelo://app?vid=8a132991-8af8-4c9e-b34c-d1e6da802d35","ios":"levelo://app?vid=8a132991-8af8-4c9e-b34c-d1e6da802d35"},"vehicle_type_id":"4","last_reported":1727284071,"current_range_meters":20000,"station_id":"ce4bhop2rcd13ifvqh8g","pricing_plan_id":"cebpf4jnsgd1na2vs0mg"},{"bike_id":"fb693bae-1712-4d9e-987d-f2b020a56c63","system_id":"levelo_inurba_marseille","lat":43.29851,"lon":5.36285,"is_reserved":false,"is_disabled":false,"rental_uris":{"android":"levelo://app?vid=fb693bae-1712-4d9e-987d-f2b020a56c63","ios":"levelo://app?vid=fb693bae-1712-4d9e-987d-f2b020a56c63"},"vehicle_type_id":"4","last_reported":1727284071,"current_range_meters":38400,"station_id":"ce4bgpp2rcd13ifvqc3g","pricing_plan_id":"cebpf4jnsgd1na2vs0mg"},{"bike_id":"109c1725-dfc6-4d7c-a70b-f02c9ccd9eee","system_id":"levelo_inurba_marseille","lat":43.29412,"lon":5.3862,"is_reserved":false,"is_disabled":false,"rental_uris":{"android":"levelo://app?vid=109c1725-dfc6-4d7c-a70b-f02c9ccd9eee","ios":"levelo://app?vid=109c1725-dfc6-4d7c-a70b-f02c9ccd9eee"},"vehicle_type_id":"4","last_reported":1727284071,"current_range_meters":26000,"station_id":"ce4bh2h2rcd13ifvqdh0","pricing_plan_id":"cebpf4jnsgd1na2vs0mg"},{"bike_id":"72ae16dd-cb46-4633-95bd-2993b2f2974b","system_id":"levelo_inurba_marseille","lat":43.289407,"lon":5.39629,"is_reserved":false,"is_disabled":false,"rental_uris":{"android":"levelo://app?vid=72ae16dd-cb46-4633-95bd-2993b2f2974b","ios":"levelo://app?vid=72ae16dd-cb46-4633-95bd-2993b2f2974b"},"vehicle_type_id":"4","last_reported":1727284071,"current_range_meters":16400,"station_id":"ce4bha12rcd13ifvqee0","pricing_plan_id":"cebpf4jnsgd1na2vs0mg"},{"bike_id":"34ac9bac-7a90-4a31-b5a7-38571b0ea8d8","system_id":"levelo_inurba_marseille","lat":43.26554,"lon":5.37283,"is_reserved":false,"is_disabled":false,"rental_uris":{"android":"levelo://app?vid=34ac9bac-7a90-4a31-b5a7-38571b0ea8d8","ios":"levelo://app?vid=34ac9bac-7a90-4a31-b5a7-38571b0ea8d8"},"vehicle_type_id":"4","last_reported":1727284071,"current_range_meters":16800,"station_id":"ce4bhg12rcd13ifvqf70","pricing_plan_id":"cebpf4jnsgd1na2vs0mg"},{"bike_id":"4c44469c-d596-4dc6-9a9b-26aa734ebbae","system_id":"levelo_inurba_marseille","lat":43.29608,"lon":5.37714,"is_reserved":false,"is_disabled":false,"rental_uris":{"android":"levelo://app?vid=4c44469c-d596-4dc6-9a9b-26aa734ebbae","ios":"levelo://app?vid=4c44469c-d596-4dc6-9a9b-26aa734ebbae"},"vehicle_type_id":"4","last_reported":1727284071,"current_range_meters":22400,"station_id":"ce4bgi92rcd13ifvqb90","pricing_plan_id":"cebpf4jnsgd1na2vs0mg"},{"bike_id":"5f6c79fc-4a32-4034-b731-a210b1c8c48d","system_id":"levelo_inurba_marseille","lat":43.30458,"lon":5.36613,"is_reserved":false,"is_disabled":false,"rental_uris":{"android":"levelo://app?vid=5f6c79fc-4a32-4034-b731-a210b1c8c48d","ios":"levelo://app?vid=5f6c79fc-4a32-4034-b731-a210b1c8c48d"},"vehicle_type_id":"4","last_reported":1727284071,"current_range_meters":10800,"station_id":"ce4bgrp2rcd13ifvqc9g","pricing_plan_id":"cebpf4jnsgd1na2vs0mg"},{"bike_id":"6384da77-0f8b-4a22-ac8e-7095f91b2491","system_id":"levelo_inurba_marseille","lat":43.28617,"lon":5.35103,"is_reserved":false,"is_disabled":false,"rental_uris":{"android":"levelo://app?vid=6384da77-0f8b-4a22-ac8e-7095f91b2491","ios":"levelo://app?vid=6384da77-0f8b-4a22-ac8e-7095f91b2491"},"vehicle_type_id":"4","last_reported":1727284071,"current_range_meters":20000,"station_id":"ce4bhch2rcd13ifvqeug","pricing_plan_id":"cebpf4jnsgd1na2vs0mg"},{"bike_id":"d1e9e4db-bc77-4ac3-91d3-97528b238df6","system_id":"levelo_inurba_marseille","lat":43.24185,"lon":5.39727,"is_reserved":false,"is_disabled":false,"rental_uris":{"android":"levelo://app?vid=d1e9e4db-bc77-4ac3-91d3-97528b238df6","ios":"levelo://app?vid=d1e9e4db-bc77-4ac3-91d3-97528b238df6"},"vehicle_type_id":"4","last_reported":1727284071,"current_range_meters":38800,"station_id":"ce4bhn12rcd13ifvqgpg","pricing_plan_id":"cebpf4jnsgd1na2vs0mg"},{"bike_id":"988b6603-fb3f-44d3-821d-105f605ecb67","system_id":"levelo_inurba_marseille","lat":43.29299,"lon":5.37466,"is_reserved":false,"is_disabled":false,"rental_uris":{"android":"levelo://app?vid=988b6603-fb3f-44d3-821d-105f605ecb67","ios":"levelo://app?vid=988b6603-fb3f-44d3-821d-105f605ecb67"},"vehicle_type_id":"4","last_reported":1727284071,"current_range_meters":38400,"station_id":"ce4bgi12rcd13ifvqb70","pricing_plan_id":"cebpf4jnsgd1na2vs0mg"},{"bike_id":"ede8e1bc-5889-464e-8937-0b5b4b75e4cc","system_id":"levelo_inurba_marseille","lat":43.32487,"lon":5.36566,"is_reserved":false,"is_disabled":false,"rental_uris":{"android":"levelo://app?vid=ede8e1bc-5889-464e-8937-0b5b4b75e4cc","ios":"levelo://app?vid=ede8e1bc-5889-464e-8937-0b5b4b75e4cc"},"vehicle_type_id":"4","last_reported":1727284071,"current_range_meters":6800,"station_id":"ce4bhs12rcd13ifvqhvg","pricing_plan_id":"cebpf4jnsgd1na2vs0mg"},{"bike_id":"08114953-0dbe-40c6-8170-388597f7d4b2","system_id":"levelo_inurba_marseille","lat":43.28979,"lon":5.37838,"is_reserved":false,"is_disabled":false,"rental_uris":{"android":"levelo://app?vid=08114953-0dbe-40c6-8170-388597f7d4b2","ios":"levelo://app?vid=08114953-0dbe-40c6-8170-388597f7d4b2"},"vehicle_type_id":"4","last_reported":1727284071,"current_range_meters":28000,"station_id":"ce4bh9p2rcd13ifvqed0","pricing_plan_id":"cebpf4jnsgd1na2vs0mg"},{"bike_id":"7116ab73-d701-41c0-ab45-a8cc7e9a129c","system_id":"levelo_inurba_marseille","lat":43.26938,"lon":5.40261,"is_reserved":false,"is_disabled":false,"rental_uris":{"android":"levelo://app?vid=7116ab73-d701-41c0-ab45-a8cc7e9a129c","ios":"levelo://app?vid=7116ab73-d701-41c0-ab45-a8cc7e9a129c"},"vehicle_type_id":"4","last_reported":1727284071,"current_range_meters":8800,"station_id":"cjm6bp8fraef2m0cb0m0","pricing_plan_id":"cebpf4jnsgd1na2vs0mg"},{"bike_id":"2fae6e32-d619-4775-956a-e0ef4966aef5","system_id":"levelo_inurba_marseille","lat":43.29941,"lon":5.36545,"is_reserved":false,"is_disabled":false,"rental_uris":{"android":"levelo://app?vid=2fae6e32-d619-4775-956a-e0ef4966aef5","ios":"levelo://app?vid=2fae6e32-d619-4775-956a-e0ef4966aef5"},"vehicle_type_id":"4","last_reported":1727284071,"current_range_meters":36800,"station_id":"ce4bgm92rcd13ifvqbr0","pricing_plan_id":"cebpf4jnsgd1na2vs0mg"},{"bike_id":"f372a897-468f-435c-a4eb-87877308a301","system_id":"levelo_inurba_marseille","lat":43.305425,"lon":5.366993,"is_reserved":false,"is_disabled":false,"rental_uris":{"android":"levelo://app?vid=f372a897-468f-435c-a4eb-87877308a301","ios":"levelo://app?vid=f372a897-468f-435c-a4eb-87877308a301"},"vehicle_type_id":"4","last_reported":1727284071,"current_range_meters":39200,"station_id":"ce4bgrp2rcd13ifvqc9g","pricing_plan_id":"cebpf4jnsgd1na2vs0mg"},{"bike_id":"8bf9cddf-bd66-4f35-b0a0-b7b73755f6f4","system_id":"levelo_inurba_marseille","lat":43.29971,"lon":5.37174,"is_reserved":false,"is_disabled":false,"rental_uris":{"android":"levelo://app?vid=8bf9cddf-bd66-4f35-b0a0-b7b73755f6f4","ios":"levelo://app?vid=8bf9cddf-bd66-4f35-b0a0-b7b73755f6f4"},"vehicle_type_id":"4","last_reported":1727284071,"current_range_meters":37600,"station_id":"","pricing_plan_id":"cebpf4jnsgd1na2vs0mg"},{"bike_id":"89c6a22f-9716-4914-9413-0ca694ba97d8","system_id":"levelo_inurba_marseille","lat":43.260706,"lon":5.393895,"is_reserved":false,"is_disabled":false,"rental_uris":{"android":"levelo://app?vid=89c6a22f-9716-4914-9413-0ca694ba97d8","ios":"levelo://app?vid=89c6a22f-9716-4914-9413-0ca694ba97d8"},"vehicle_type_id":"4","last_reported":1727284071,"current_range_meters":6000,"station_id":"ce4bhh92rcd13ifvqfj0","pricing_plan_id":"cebpf4jnsgd1na2vs0mg"},{"bike_id":"2476007a-4805-471b-af46-4586a1928f6a","system_id":"levelo_inurba_marseille","lat":43.25584,"lon":5.38232,"is_reserved":false,"is_disabled":false,"rental_uris":{"android":"levelo://app?vid=2476007a-4805-471b-af46-4586a1928f6a","ios":"levelo://app?vid=2476007a-4805-471b-af46-4586a1928f6a"},"vehicle_type_id":"4","last_reported":1727284071,"current_range_meters":9200,"station_id":"ce4bhih2rcd13ifvqfs0","pricing_plan_id":"cebpf4jnsgd1na2vs0mg"},{"bike_id":"e241dfea-1fec-492c-8cd3-84474dd76cfd","system_id":"levelo_inurba_marseille","lat":43.2862,"lon":5.35107,"is_reserved":false,"is_disabled":false,"rental_uris":{"android":"levelo://app?vid=e241dfea-1fec-492c-8cd3-84474dd76cfd","ios":"levelo://app?vid=e241dfea-1fec-492c-8cd3-84474dd76cfd"},"vehicle_type_id":"4","last_reported":1727284071,"current_range_meters":24000,"station_id":"ce4bhch2rcd13ifvqeug","pricing_plan_id":"cebpf4jnsgd1na2vs0mg"},{"bike_id":"078f21e7-2136-4f15-b925-3823a1acd5d2","system_id":"levelo_inurba_marseille","lat":43.29279,"lon":5.36853,"is_reserved":false,"is_disabled":false,"rental_uris":{"android":"levelo://app?vid=078f21e7-2136-4f15-b925-3823a1acd5d2","ios":"levelo://app?vid=078f21e7-2136-4f15-b925-3823a1acd5d2"},"vehicle_type_id":"4","last_reported":1727284071,"current_range_meters":7200,"station_id":"ce4bhbp2rcd13ifvqesg","pricing_plan_id":"cebpf4jnsgd1na2vs0mg"},{"bike_id":"74d0fcba-1c7a-4f26-ac7c-330b0875b104","system_id":"levelo_inurba_marseille","lat":43.29009,"lon":5.35621,"is_reserved":false,"is_disabled":false,"rental_uris":{"android":"levelo://app?vid=74d0fcba-1c7a-4f26-ac7c-330b0875b104","ios":"levelo://app?vid=74d0fcba-1c7a-4f26-ac7c-330b0875b104"},"vehicle_type_id":"4","last_reported":1727284071,"current_range_meters":37600,"station_id":"ce4bhb92rcd13ifvqen0","pricing_plan_id":"cebpf4jnsgd1na2vs0mg"},{"bike_id":"4811510e-dca8-4c47-983b-579005a11b79","system_id":"levelo_inurba_marseille","lat":43.2872,"lon":5.3794,"is_reserved":false,"is_disabled":false,"rental_uris":{"android":"levelo://app?vid=4811510e-dca8-4c47-983b-579005a11b79","ios":"levelo://app?vid=4811510e-dca8-4c47-983b-579005a11b79"},"vehicle_type_id":"4","last_reported":1727284071,"current_range_meters":16400,"station_id":"ce4bh9p2rcd13ifvqec0","pricing_plan_id":"cebpf4jnsgd1na2vs0mg"},{"bike_id":"164c5150-fd82-49d7-aff9-b769aa561f0f","system_id":"levelo_inurba_marseille","lat":43.31999,"lon":5.38158,"is_reserved":false,"is_disabled":false,"rental_uris":{"android":"levelo://app?vid=164c5150-fd82-49d7-aff9-b769aa561f0f","ios":"levelo://app?vid=164c5150-fd82-49d7-aff9-b769aa561f0f"},"vehicle_type_id":"4","last_reported":1727284071,"current_range_meters":30000,"station_id":"ce4bhr12rcd13ifvqhpg","pricing_plan_id":"cebpf4jnsgd1na2vs0mg"},{"bike_id":"0bcfe246-d087-46c6-a3da-cd91997e5687","system_id":"levelo_inurba_marseille","lat":43.256836,"lon":5.410501,"is_reserved":false,"is_disabled":false,"rental_uris":{"android":"levelo://app?vid=0bcfe246-d087-46c6-a3da-cd91997e5687","ios":"levelo://app?vid=0bcfe246-d087-46c6-a3da-cd91997e5687"},"vehicle_type_id":"4","last_reported":1727284071,"current_range_meters":6000,"station_id":"ce4bhkp2rcd13ifvqgd0","pricing_plan_id":"cebpf4jnsgd1na2vs0mg"},{"bike_id":"08078619-2d95-4323-93c5-6e05823f0d4b","system_id":"levelo_inurba_marseille","lat":43.31713,"lon":5.37752,"is_reserved":false,"is_disabled":false,"rental_uris":{"android":"levelo://app?vid=08078619-2d95-4323-93c5-6e05823f0d4b","ios":"levelo://app?vid=08078619-2d95-4323-93c5-6e05823f0d4b"},"vehicle_type_id":"4","last_reported":1727284071,"current_range_meters":4400,"station_id":"ce4bgth2rcd13ifvqch0","pricing_plan_id":"cebpf4jnsgd1na2vs0mg"},{"bike_id":"0794ce70-ff88-4d68-bc9f-b28dd19fdfbc","system_id":"levelo_inurba_marseille","lat":43.26806,"lon":5.4027,"is_reserved":false,"is_disabled":false,"rental_uris":{"android":"levelo://app?vid=0794ce70-ff88-4d68-bc9f-b28dd19fdfbc","ios":"levelo://app?vid=0794ce70-ff88-4d68-bc9f-b28dd19fdfbc"},"vehicle_type_id":"4","last_reported":1727284071,"current_range_meters":17200,"station_id":"ce501612rcd8frsf0b60","pricing_plan_id":"cebpf4jnsgd1na2vs0mg"},{"bike_id":"2116d9a1-6766-4fb7-99fe-5d9bca7f776a","system_id":"levelo_inurba_marseille","lat":43.24804,"lon":5.37455,"is_reserved":false,"is_disabled":false,"rental_uris":{"android":"levelo://app?vid=2116d9a1-6766-4fb7-99fe-5d9bca7f776a","ios":"levelo://app?vid=2116d9a1-6766-4fb7-99fe-5d9bca7f776a"},"vehicle_type_id":"4","last_reported":1727284071,"current_range_meters":4800,"station_id":"ce4bhgh2rcd13ifvqfb0","pricing_plan_id":"cebpf4jnsgd1na2vs0mg"},{"bike_id":"76f11e95-8454-4535-aecc-3af2d47697d4","system_id":"levelo_inurba_marseille","lat":43.232971,"lon":5.357246,"is_reserved":false,"is_disabled":false,"rental_uris":{"android":"levelo://app?vid=76f11e95-8454-4535-aecc-3af2d47697d4","ios":"levelo://app?vid=76f11e95-8454-4535-aecc-3af2d47697d4"},"vehicle_type_id":"4","last_reported":1727284071,"current_range_meters":22800,"station_id":"ce4bhg92rcd13ifvqf90","pricing_plan_id":"cebpf4jnsgd1na2vs0mg"},{"bike_id":"5ece6534-697d-4101-8fbb-94c5df553a2d","system_id":"levelo_inurba_marseille","lat":43.24083,"lon":5.37769,"is_reserved":false,"is_disabled":false,"rental_uris":{"android":"levelo://app?vid=5ece6534-697d-4101-8fbb-94c5df553a2d","ios":"levelo://app?vid=5ece6534-697d-4101-8fbb-94c5df553a2d"},"vehicle_type_id":"4","last_reported":1727284071,"current_range_meters":37600,"station_id":"ce4bhnp2rcd13ifvqgvg","pricing_plan_id":"cebpf4jnsgd1na2vs0mg"},{"bike_id":"a7bca3df-0344-4204-86d7-b742d4769839","system_id":"levelo_inurba_marseille","lat":43.30863,"lon":5.3685,"is_reserved":false,"is_disabled":false,"rental_uris":{"android":"levelo://app?vid=a7bca3df-0344-4204-86d7-b742d4769839","ios":"levelo://app?vid=a7bca3df-0344-4204-86d7-b742d4769839"},"vehicle_type_id":"4","last_reported":1727284071,"current_range_meters":27200,"station_id":"ce4bgn92rcd13ifvqbvg","pricing_plan_id":"cebpf4jnsgd1na2vs0mg"},{"bike_id":"94644ccd-57a2-402c-bed5-bedd7aade736","system_id":"levelo_inurba_marseille","lat":43.291913,"lon":5.357907,"is_reserved":false,"is_disabled":false,"rental_uris":{"android":"levelo://app?vid=94644ccd-57a2-402c-bed5-bedd7aade736","ios":"levelo://app?vid=94644ccd-57a2-402c-bed5-bedd7aade736"},"vehicle_type_id":"4","last_reported":1727284071,"current_range_meters":20400,"station_id":"ce4bhb12rcd13ifvqel0","pricing_plan_id":"cebpf4jnsgd1na2vs0mg"},{"bike_id":"e16f6f8d-c11f-4cd6-9cb5-3e07f0251e5c","system_id":"levelo_inurba_marseille","lat":43.29709,"lon":5.37693,"is_reserved":false,"is_disabled":false,"rental_uris":{"android":"levelo://app?vid=e16f6f8d-c11f-4cd6-9cb5-3e07f0251e5c","ios":"levelo://app?vid=e16f6f8d-c11f-4cd6-9cb5-3e07f0251e5c"},"vehicle_type_id":"4","last_reported":1727284071,"current_range_meters":39200,"station_id":"ce4bgkh2rcd13ifvqbl0","pricing_plan_id":"cebpf4jnsgd1na2vs0mg"},{"bike_id":"b5a407c9-8ce8-4a3d-af73-014c6c7f0ed2","system_id":"levelo_inurba_marseille","lat":43.31688,"lon":5.40476,"is_reserved":false,"is_disabled":false,"rental_uris":{"android":"levelo://app?vid=b5a407c9-8ce8-4a3d-af73-014c6c7f0ed2","ios":"levelo://app?vid=b5a407c9-8ce8-4a3d-af73-014c6c7f0ed2"},"vehicle_type_id":"4","last_reported":1727284071,"current_range_meters":38800,"station_id":"ce4bh012rcd13ifvqd00","pricing_plan_id":"cebpf4jnsgd1na2vs0mg"},{"bike_id":"7827170f-fe53-4f76-acc5-1f9d10e67145","system_id":"levelo_inurba_marseille","lat":43.2293,"lon":5.35375,"is_reserved":false,"is_disabled":false,"rental_uris":{"android":"levelo://app?vid=7827170f-fe53-4f76-acc5-1f9d10e67145","ios":"levelo://app?vid=7827170f-fe53-4f76-acc5-1f9d10e67145"},"vehicle_type_id":"4","last_reported":1727284071,"current_range_meters":38000,"station_id":"cpo3532slgdg3j2ikp40","pricing_plan_id":"cebpf4jnsgd1na2vs0mg"},{"bike_id":"d831a0c8-0bcd-4449-91a5-836df1a52d4b","system_id":"levelo_inurba_marseille","lat":43.307183,"lon":5.37276,"is_reserved":false,"is_disabled":false,"rental_uris":{"android":"levelo://app?vid=d831a0c8-0bcd-4449-91a5-836df1a52d4b","ios":"levelo://app?vid=d831a0c8-0bcd-4449-91a5-836df1a52d4b"},"vehicle_type_id":"4","last_reported":1727284071,"current_range_meters":9600,"station_id":"","pricing_plan_id":"cebpf4jnsgd1na2vs0mg"},{"bike_id":"080f2267-c6dc-4cfa-a0ad-1bd2f1409d0e","system_id":"levelo_inurba_marseille","lat":43.24833,"lon":5.374602,"is_reserved":false,"is_disabled":false,"rental_uris":{"android":"levelo://app?vid=080f2267-c6dc-4cfa-a0ad-1bd2f1409d0e","ios":"levelo://app?vid=080f2267-c6dc-4cfa-a0ad-1bd2f1409d0e"},"vehicle_type_id":"4","last_reported":1727284071,"current_range_meters":28000,"station_id":"ce4bhgh2rcd13ifvqfb0","pricing_plan_id":"cebpf4jnsgd1na2vs0mg"},{"bike_id":"3dc7ba62-6ad8-4218-86aa-63676435285d","system_id":"levelo_inurba_marseille","lat":43.29573,"lon":5.39981,"is_reserved":false,"is_disabled":false,"rental_uris":{"android":"levelo://app?vid=3dc7ba62-6ad8-4218-86aa-63676435285d","ios":"levelo://app?vid=3dc7ba62-6ad8-4218-86aa-63676435285d"},"vehicle_type_id":"4","last_reported":1727284071,"current_range_meters":16800,"station_id":"ce4bh312rcd13ifvqdj0","pricing_plan_id":"cebpf4jnsgd1na2vs0mg"},{"bike_id":"05e6141d-6472-47b1-9981-c44b26218d68","system_id":"levelo_inurba_marseille","lat":43.28461,"lon":5.35892,"is_reserved":false,"is_disabled":false,"rental_uris":{"android":"levelo://app?vid=05e6141d-6472-47b1-9981-c44b26218d68","ios":"levelo://app?vid=05e6141d-6472-47b1-9981-c44b26218d68"},"vehicle_type_id":"4","last_reported":1727284071,"current_range_meters":18000,"station_id":"ce4bhah2rcd13ifvqei0","pricing_plan_id":"cebpf4jnsgd1na2vs0mg"},{"bike_id":"72e1b16f-bfd4-4874-8b3a-6efcee732bf5","system_id":"levelo_inurba_marseille","lat":43.29362,"lon":5.37836,"is_reserved":false,"is_disabled":false,"rental_uris":{"android":"levelo://app?vid=72e1b16f-bfd4-4874-8b3a-6efcee732bf5","ios":"levelo://app?vid=72e1b16f-bfd4-4874-8b3a-6efcee732bf5"},"vehicle_type_id":"4","last_reported":1727284071,"current_range_meters":14400,"station_id":"ce4bgjh2rcd13ifvqbf0","pricing_plan_id":"cebpf4jnsgd1na2vs0mg"},{"bike_id":"4a4bfd88-bdfc-4802-b3a8-e798e4274727","system_id":"levelo_inurba_marseille","lat":43.32293,"lon":5.38265,"is_reserved":false,"is_disabled":false,"rental_uris":{"android":"levelo://app?vid=4a4bfd88-bdfc-4802-b3a8-e798e4274727","ios":"levelo://app?vid=4a4bfd88-bdfc-4802-b3a8-e798e4274727"},"vehicle_type_id":"4","last_reported":1727284071,"current_range_meters":27600,"station_id":"ce4bhr12rcd13ifvqhqg","pricing_plan_id":"cebpf4jnsgd1na2vs0mg"},{"bike_id":"16c0e7f0-4572-4a71-af76-d664a8697932","system_id":"levelo_inurba_marseille","lat":43.29697,"lon":5.36607,"is_reserved":false,"is_disabled":false,"rental_uris":{"android":"levelo://app?vid=16c0e7f0-4572-4a71-af76-d664a8697932","ios":"levelo://app?vid=16c0e7f0-4572-4a71-af76-d664a8697932"},"vehicle_type_id":"4","last_reported":1727284071,"current_range_meters":36000,"station_id":"ce4bgn12rcd13ifvqbt0","pricing_plan_id":"cebpf4jnsgd1na2vs0mg"},{"bike_id":"a96ea08e-3fcc-4892-b7f5-3d84a8e30a13","system_id":"levelo_inurba_marseille","lat":43.29037,"lon":5.38665,"is_reserved":false,"is_disabled":false,"rental_uris":{"android":"levelo://app?vid=a96ea08e-3fcc-4892-b7f5-3d84a8e30a13","ios":"levelo://app?vid=a96ea08e-3fcc-4892-b7f5-3d84a8e30a13"},"vehicle_type_id":"4","last_reported":1727284071,"current_range_meters":7200,"station_id":"ce4bh4p2rcd13ifvqe0g","pricing_plan_id":"cebpf4jnsgd1na2vs0mg"},{"bike_id":"de8ff9a9-709a-4424-83ed-039925aabde2","system_id":"levelo_inurba_marseille","lat":43.24071,"lon":5.37763,"is_reserved":false,"is_disabled":false,"rental_uris":{"android":"levelo://app?vid=de8ff9a9-709a-4424-83ed-039925aabde2","ios":"levelo://app?vid=de8ff9a9-709a-4424-83ed-039925aabde2"},"vehicle_type_id":"4","last_reported":1727284071,"current_range_meters":16800,"station_id":"ce4bhnp2rcd13ifvqgvg","pricing_plan_id":"cebpf4jnsgd1na2vs0mg"},{"bike_id":"4660de8f-6b1d-4ec7-86e9-b37d4a58ce76","system_id":"levelo_inurba_marseille","lat":43.32293,"lon":5.38269,"is_reserved":false,"is_disabled":false,"rental_uris":{"android":"levelo://app?vid=4660de8f-6b1d-4ec7-86e9-b37d4a58ce76","ios":"levelo://app?vid=4660de8f-6b1d-4ec7-86e9-b37d4a58ce76"},"vehicle_type_id":"4","last_reported":1727284071,"current_range_meters":36800,"station_id":"ce4bhr12rcd13ifvqhqg","pricing_plan_id":"cebpf4jnsgd1na2vs0mg"},{"bike_id":"ccc86cb2-ba2d-4f8a-834c-6c3163778f6c","system_id":"levelo_inurba_marseille","lat":43.24804,"lon":5.37456,"is_reserved":false,"is_disabled":false,"rental_uris":{"android":"levelo://app?vid=ccc86cb2-ba2d-4f8a-834c-6c3163778f6c","ios":"levelo://app?vid=ccc86cb2-ba2d-4f8a-834c-6c3163778f6c"},"vehicle_type_id":"4","last_reported":1727284071,"current_range_meters":26800,"station_id":"ce4bhgh2rcd13ifvqfb0","pricing_plan_id":"cebpf4jnsgd1na2vs0mg"},{"bike_id":"6b4f8128-14e7-47fe-8124-63153cd2bde3","system_id":"levelo_inurba_marseille","lat":43.29703,"lon":5.36612,"is_reserved":false,"is_disabled":false,"rental_uris":{"android":"levelo://app?vid=6b4f8128-14e7-47fe-8124-63153cd2bde3","ios":"levelo://app?vid=6b4f8128-14e7-47fe-8124-63153cd2bde3"},"vehicle_type_id":"4","last_reported":1727284071,"current_range_meters":30000,"station_id":"ce4bgn12rcd13ifvqbt0","pricing_plan_id":"cebpf4jnsgd1na2vs0mg"},{"bike_id":"51685063-69c1-44df-9929-57ce7603e59e","system_id":"levelo_inurba_marseille","lat":43.31129,"lon":5.38334,"is_reserved":false,"is_disabled":false,"rental_uris":{"android":"levelo://app?vid=51685063-69c1-44df-9929-57ce7603e59e","ios":"levelo://app?vid=51685063-69c1-44df-9929-57ce7603e59e"},"vehicle_type_id":"4","last_reported":1727284071,"current_range_meters":33200,"station_id":"","pricing_plan_id":"cebpf4jnsgd1na2vs0mg"},{"bike_id":"4e4ec72a-7645-46be-a0f3-56eee7165860","system_id":"levelo_inurba_marseille","lat":43.31485,"lon":5.37308,"is_reserved":false,"is_disabled":false,"rental_uris":{"android":"levelo://app?vid=4e4ec72a-7645-46be-a0f3-56eee7165860","ios":"levelo://app?vid=4e4ec72a-7645-46be-a0f3-56eee7165860"},"vehicle_type_id":"4","last_reported":1727284071,"current_range_meters":36800,"station_id":"ce4bgt12rcd13ifvqcd0","pricing_plan_id":"cebpf4jnsgd1na2vs0mg"},{"bike_id":"5db96f2f-efcf-4964-8de0-bc2404197a2b","system_id":"levelo_inurba_marseille","lat":43.32495,"lon":5.36568,"is_reserved":false,"is_disabled":false,"rental_uris":{"android":"levelo://app?vid=5db96f2f-efcf-4964-8de0-bc2404197a2b","ios":"levelo://app?vid=5db96f2f-efcf-4964-8de0-bc2404197a2b"},"vehicle_type_id":"4","last_reported":1727284071,"current_range_meters":6000,"station_id":"ce4bhs12rcd13ifvqhvg","pricing_plan_id":"cebpf4jnsgd1na2vs0mg"},{"bike_id":"7fb0d0fb-dd7a-4ace-98da-9e3c8b1d73b0","system_id":"levelo_inurba_marseille","lat":43.22928,"lon":5.35374,"is_reserved":false,"is_disabled":false,"rental_uris":{"android":"levelo://app?vid=7fb0d0fb-dd7a-4ace-98da-9e3c8b1d73b0","ios":"levelo://app?vid=7fb0d0fb-dd7a-4ace-98da-9e3c8b1d73b0"},"vehicle_type_id":"4","last_reported":1727284071,"current_range_meters":25600,"station_id":"cpo3532slgdg3j2ikp40","pricing_plan_id":"cebpf4jnsgd1na2vs0mg"},{"bike_id":"346c0805-e8b1-4f57-8e57-57296559817c","system_id":"levelo_inurba_marseille","lat":43.24181,"lon":5.39724,"is_reserved":false,"is_disabled":false,"rental_uris":{"android":"levelo://app?vid=346c0805-e8b1-4f57-8e57-57296559817c","ios":"levelo://app?vid=346c0805-e8b1-4f57-8e57-57296559817c"},"vehicle_type_id":"4","last_reported":1727284071,"current_range_meters":38800,"station_id":"ce4bhn12rcd13ifvqgpg","pricing_plan_id":"cebpf4jnsgd1na2vs0mg"},{"bike_id":"0701c551-2423-46e6-bb36-1fbd2e19330c","system_id":"levelo_inurba_marseille","lat":43.290863,"lon":5.381437,"is_reserved":false,"is_disabled":false,"rental_uris":{"android":"levelo://app?vid=0701c551-2423-46e6-bb36-1fbd2e19330c","ios":"levelo://app?vid=0701c551-2423-46e6-bb36-1fbd2e19330c"},"vehicle_type_id":"4","last_reported":1727284071,"current_range_meters":36800,"station_id":"ce4bh512rcd13ifvqe2g","pricing_plan_id":"cebpf4jnsgd1na2vs0mg"},{"bike_id":"74ba0a2e-c7b4-4c4b-bd1e-2380631ebef5","system_id":"levelo_inurba_marseille","lat":43.31074,"lon":5.38356,"is_reserved":false,"is_disabled":false,"rental_uris":{"android":"levelo://app?vid=74ba0a2e-c7b4-4c4b-bd1e-2380631ebef5","ios":"levelo://app?vid=74ba0a2e-c7b4-4c4b-bd1e-2380631ebef5"},"vehicle_type_id":"4","last_reported":1727284071,"current_range_meters":6400,"station_id":"ce4bgv92rcd13ifvqcr0","pricing_plan_id":"cebpf4jnsgd1na2vs0mg"},{"bike_id":"59c50760-084a-4cdf-88dc-d6dc8d9ce387","system_id":"levelo_inurba_marseille","lat":43.24806,"lon":5.37455,"is_reserved":false,"is_disabled":false,"rental_uris":{"android":"levelo://app?vid=59c50760-084a-4cdf-88dc-d6dc8d9ce387","ios":"levelo://app?vid=59c50760-084a-4cdf-88dc-d6dc8d9ce387"},"vehicle_type_id":"4","last_reported":1727284071,"current_range_meters":9200,"station_id":"ce4bhgh2rcd13ifvqfb0","pricing_plan_id":"cebpf4jnsgd1na2vs0mg"},{"bike_id":"86bfeee6-c672-48f3-9dff-b0d1b0bdc0b5","system_id":"levelo_inurba_marseille","lat":43.29257,"lon":5.40905,"is_reserved":false,"is_disabled":false,"rental_uris":{"android":"levelo://app?vid=86bfeee6-c672-48f3-9dff-b0d1b0bdc0b5","ios":"levelo://app?vid=86bfeee6-c672-48f3-9dff-b0d1b0bdc0b5"},"vehicle_type_id":"4","last_reported":1727284071,"current_range_meters":25600,"station_id":"ce4bh192rcd13ifvqdc0","pricing_plan_id":"cebpf4jnsgd1na2vs0mg"},{"bike_id":"d179648a-4ef1-4876-b2c5-bc1c5690714b","system_id":"levelo_inurba_marseille","lat":43.29198,"lon":5.35805,"is_reserved":false,"is_disabled":false,"rental_uris":{"android":"levelo://app?vid=d179648a-4ef1-4876-b2c5-bc1c5690714b","ios":"levelo://app?vid=d179648a-4ef1-4876-b2c5-bc1c5690714b"},"vehicle_type_id":"4","last_reported":1727284071,"current_range_meters":21600,"station_id":"ce4bhb12rcd13ifvqel0","pricing_plan_id":"cebpf4jnsgd1na2vs0mg"},{"bike_id":"17af08b1-c04f-49dc-b2fb-4f318522b41e","system_id":"levelo_inurba_marseille","lat":43.29623,"lon":5.37729,"is_reserved":false,"is_disabled":false,"rental_uris":{"android":"levelo://app?vid=17af08b1-c04f-49dc-b2fb-4f318522b41e","ios":"levelo://app?vid=17af08b1-c04f-49dc-b2fb-4f318522b41e"},"vehicle_type_id":"4","last_reported":1727284071,"current_range_meters":23200,"station_id":"ce4bgi92rcd13ifvqb90","pricing_plan_id":"cebpf4jnsgd1na2vs0mg"},{"bike_id":"3d160dae-6782-4e53-81e7-e40908ad46c5","system_id":"levelo_inurba_marseille","lat":43.31871,"lon":5.37427,"is_reserved":false,"is_disabled":false,"rental_uris":{"android":"levelo://app?vid=3d160dae-6782-4e53-81e7-e40908ad46c5","ios":"levelo://app?vid=3d160dae-6782-4e53-81e7-e40908ad46c5"},"vehicle_type_id":"4","last_reported":1727284071,"current_range_meters":35200,"station_id":"","pricing_plan_id":"cebpf4jnsgd1na2vs0mg"},{"bike_id":"7eb77d62-0d91-4754-962e-c4a50dc18428","system_id":"levelo_inurba_marseille","lat":43.25868,"lon":5.3989,"is_reserved":false,"is_disabled":false,"rental_uris":{"android":"levelo://app?vid=7eb77d62-0d91-4754-962e-c4a50dc18428","ios":"levelo://app?vid=7eb77d62-0d91-4754-962e-c4a50dc18428"},"vehicle_type_id":"4","last_reported":1727284071,"current_range_meters":9600,"station_id":"ce4bhl92rcd13ifvqghg","pricing_plan_id":"cebpf4jnsgd1na2vs0mg"},{"bike_id":"1cafb7e2-bb2d-4cdd-850c-a35197648656","system_id":"levelo_inurba_marseille","lat":43.32296,"lon":5.38277,"is_reserved":false,"is_disabled":false,"rental_uris":{"android":"levelo://app?vid=1cafb7e2-bb2d-4cdd-850c-a35197648656","ios":"levelo://app?vid=1cafb7e2-bb2d-4cdd-850c-a35197648656"},"vehicle_type_id":"4","last_reported":1727284071,"current_range_meters":23200,"station_id":"ce4bhr12rcd13ifvqhqg","pricing_plan_id":"cebpf4jnsgd1na2vs0mg"},{"bike_id":"07b5d860-5697-4b5b-930f-7567a26525db","system_id":"levelo_inurba_marseille","lat":43.25585,"lon":5.38244,"is_reserved":false,"is_disabled":false,"rental_uris":{"android":"levelo://app?vid=07b5d860-5697-4b5b-930f-7567a26525db","ios":"levelo://app?vid=07b5d860-5697-4b5b-930f-7567a26525db"},"vehicle_type_id":"4","last_reported":1727284071,"current_range_meters":4400,"station_id":"ce4bhih2rcd13ifvqfs0","pricing_plan_id":"cebpf4jnsgd1na2vs0mg"},{"bike_id":"81ddf8e0-61b1-4f79-8d7f-0681c3178007","system_id":"levelo_inurba_marseille","lat":43.29201,"lon":5.3581,"is_reserved":false,"is_disabled":false,"rental_uris":{"android":"levelo://app?vid=81ddf8e0-61b1-4f79-8d7f-0681c3178007","ios":"levelo://app?vid=81ddf8e0-61b1-4f79-8d7f-0681c3178007"},"vehicle_type_id":"4","last_reported":1727284071,"current_range_meters":37600,"station_id":"ce4bhb12rcd13ifvqel0","pricing_plan_id":"cebpf4jnsgd1na2vs0mg"},{"bike_id":"1540e817-8e46-4d4c-b4c1-7cd2c1e7abf8","system_id":"levelo_inurba_marseille","lat":43.28613,"lon":5.35105,"is_reserved":false,"is_disabled":false,"rental_uris":{"android":"levelo://app?vid=1540e817-8e46-4d4c-b4c1-7cd2c1e7abf8","ios":"levelo://app?vid=1540e817-8e46-4d4c-b4c1-7cd2c1e7abf8"},"vehicle_type_id":"4","last_reported":1727284071,"current_range_meters":2000,"station_id":"ce4bhch2rcd13ifvqeug","pricing_plan_id":"cebpf4jnsgd1na2vs0mg"},{"bike_id":"16618f1d-5546-416e-b671-d66e54ac5186","system_id":"levelo_inurba_marseille","lat":43.29889,"lon":5.38898,"is_reserved":false,"is_disabled":false,"rental_uris":{"android":"levelo://app?vid=16618f1d-5546-416e-b671-d66e54ac5186","ios":"levelo://app?vid=16618f1d-5546-416e-b671-d66e54ac5186"},"vehicle_type_id":"4","last_reported":1727284071,"current_range_meters":23200,"station_id":"ce4bh392rcd13ifvqdl0","pricing_plan_id":"cebpf4jnsgd1na2vs0mg"},{"bike_id":"66bf1344-c9d8-4c49-990d-c578820e6245","system_id":"levelo_inurba_marseille","lat":43.29868,"lon":5.39731,"is_reserved":false,"is_disabled":false,"rental_uris":{"android":"levelo://app?vid=66bf1344-c9d8-4c49-990d-c578820e6245","ios":"levelo://app?vid=66bf1344-c9d8-4c49-990d-c578820e6245"},"vehicle_type_id":"4","last_reported":1727284071,"current_range_meters":38800,"station_id":"ce4bh0h2rcd13ifvqd50","pricing_plan_id":"cebpf4jnsgd1na2vs0mg"},{"bike_id":"fdb0b917-6bf6-42e7-8cb2-35f4390fce35","system_id":"levelo_inurba_marseille","lat":43.28463,"lon":5.35894,"is_reserved":false,"is_disabled":false,"rental_uris":{"android":"levelo://app?vid=fdb0b917-6bf6-42e7-8cb2-35f4390fce35","ios":"levelo://app?vid=fdb0b917-6bf6-42e7-8cb2-35f4390fce35"},"vehicle_type_id":"4","last_reported":1727284071,"current_range_meters":34800,"station_id":"ce4bhah2rcd13ifvqei0","pricing_plan_id":"cebpf4jnsgd1na2vs0mg"},{"bike_id":"5603d559-8c96-4655-82d6-77f84cb82491","system_id":"levelo_inurba_marseille","lat":43.29543,"lon":5.39399,"is_reserved":false,"is_disabled":false,"rental_uris":{"android":"levelo://app?vid=5603d559-8c96-4655-82d6-77f84cb82491","ios":"levelo://app?vid=5603d559-8c96-4655-82d6-77f84cb82491"},"vehicle_type_id":"4","last_reported":1727284071,"current_range_meters":39200,"station_id":"ce4bh292rcd13ifvqdf0","pricing_plan_id":"cebpf4jnsgd1na2vs0mg"},{"bike_id":"d6855356-e979-4a89-ac1d-2d77da8747fc","system_id":"levelo_inurba_marseille","lat":43.28789,"lon":5.38863,"is_reserved":false,"is_disabled":false,"rental_uris":{"android":"levelo://app?vid=d6855356-e979-4a89-ac1d-2d77da8747fc","ios":"levelo://app?vid=d6855356-e979-4a89-ac1d-2d77da8747fc"},"vehicle_type_id":"4","last_reported":1727284071,"current_range_meters":6400,"station_id":"ce4bhip2rcd13ifvqft0","pricing_plan_id":"cebpf4jnsgd1na2vs0mg"},{"bike_id":"d3a61b6a-71e8-4c6c-8c6c-30262b2b9bc2","system_id":"levelo_inurba_marseille","lat":43.337444,"lon":5.374475,"is_reserved":false,"is_disabled":false,"rental_uris":{"android":"levelo://app?vid=d3a61b6a-71e8-4c6c-8c6c-30262b2b9bc2","ios":"levelo://app?vid=d3a61b6a-71e8-4c6c-8c6c-30262b2b9bc2"},"vehicle_type_id":"4","last_reported":1727284071,"current_range_meters":35200,"station_id":"","pricing_plan_id":"cebpf4jnsgd1na2vs0mg"},{"bike_id":"0c78d6b2-d524-4555-8aad-d3f6d942671e","system_id":"levelo_inurba_marseille","lat":43.29163,"lon":5.3715,"is_reserved":false,"is_disabled":false,"rental_uris":{"android":"levelo://app?vid=0c78d6b2-d524-4555-8aad-d3f6d942671e","ios":"levelo://app?vid=0c78d6b2-d524-4555-8aad-d3f6d942671e"},"vehicle_type_id":"4","last_reported":1727284071,"current_range_meters":11600,"station_id":"ce4bha92rcd13ifvqeh0","pricing_plan_id":"cebpf4jnsgd1na2vs0mg"},{"bike_id":"818a823f-6df1-4ef6-859e-4b0ed42d984f","system_id":"levelo_inurba_marseille","lat":43.28038,"lon":5.36943,"is_reserved":false,"is_disabled":false,"rental_uris":{"android":"levelo://app?vid=818a823f-6df1-4ef6-859e-4b0ed42d984f","ios":"levelo://app?vid=818a823f-6df1-4ef6-859e-4b0ed42d984f"},"vehicle_type_id":"4","last_reported":1727284071,"current_range_meters":7200,"station_id":"ce4bha12rcd13ifvqef0","pricing_plan_id":"cebpf4jnsgd1na2vs0mg"},{"bike_id":"3d96491d-08f7-46cb-81ce-4fdc694b9089","system_id":"levelo_inurba_marseille","lat":43.31074,"lon":5.38363,"is_reserved":false,"is_disabled":false,"rental_uris":{"android":"levelo://app?vid=3d96491d-08f7-46cb-81ce-4fdc694b9089","ios":"levelo://app?vid=3d96491d-08f7-46cb-81ce-4fdc694b9089"},"vehicle_type_id":"4","last_reported":1727284071,"current_range_meters":36400,"station_id":"ce4bgv92rcd13ifvqcr0","pricing_plan_id":"cebpf4jnsgd1na2vs0mg"},{"bike_id":"cea08d20-fec8-4844-8053-0cf06700ed4a","system_id":"levelo_inurba_marseille","lat":43.27624,"lon":5.3611,"is_reserved":false,"is_disabled":false,"rental_uris":{"android":"levelo://app?vid=cea08d20-fec8-4844-8053-0cf06700ed4a","ios":"levelo://app?vid=cea08d20-fec8-4844-8053-0cf06700ed4a"},"vehicle_type_id":"4","last_reported":1727284071,"current_range_meters":9600,"station_id":"ce4bgj92rcd13ifvqbe0","pricing_plan_id":"cebpf4jnsgd1na2vs0mg"},{"bike_id":"15439e9b-92af-446d-8863-ad96513210e2","system_id":"levelo_inurba_marseille","lat":43.297,"lon":5.36611,"is_reserved":false,"is_disabled":false,"rental_uris":{"android":"levelo://app?vid=15439e9b-92af-446d-8863-ad96513210e2","ios":"levelo://app?vid=15439e9b-92af-446d-8863-ad96513210e2"},"vehicle_type_id":"4","last_reported":1727284071,"current_range_meters":8400,"station_id":"ce4bgn12rcd13ifvqbt0","pricing_plan_id":"cebpf4jnsgd1na2vs0mg"},{"bike_id":"9eca0dcc-a2a5-4fad-b102-80869b04a50d","system_id":"levelo_inurba_marseille","lat":43.310992,"lon":5.369112,"is_reserved":false,"is_disabled":false,"rental_uris":{"android":"levelo://app?vid=9eca0dcc-a2a5-4fad-b102-80869b04a50d","ios":"levelo://app?vid=9eca0dcc-a2a5-4fad-b102-80869b04a50d"},"vehicle_type_id":"4","last_reported":1727284071,"current_range_meters":38800,"station_id":"","pricing_plan_id":"cebpf4jnsgd1na2vs0mg"},{"bike_id":"c42a7599-e113-40be-a99f-999c1ccadbc8","system_id":"levelo_inurba_marseille","lat":43.27919,"lon":5.38022,"is_reserved":false,"is_disabled":false,"rental_uris":{"android":"levelo://app?vid=c42a7599-e113-40be-a99f-999c1ccadbc8","ios":"levelo://app?vid=c42a7599-e113-40be-a99f-999c1ccadbc8"},"vehicle_type_id":"4","last_reported":1727284071,"current_range_meters":20400,"station_id":"ce4bhf92rcd13ifvqf50","pricing_plan_id":"cebpf4jnsgd1na2vs0mg"},{"bike_id":"9050d0c4-f22d-4c94-803f-48072f0e0adc","system_id":"levelo_inurba_marseille","lat":43.3248,"lon":5.36563,"is_reserved":false,"is_disabled":false,"rental_uris":{"android":"levelo://app?vid=9050d0c4-f22d-4c94-803f-48072f0e0adc","ios":"levelo://app?vid=9050d0c4-f22d-4c94-803f-48072f0e0adc"},"vehicle_type_id":"4","last_reported":1727284071,"current_range_meters":28400,"station_id":"ce4bhs12rcd13ifvqhvg","pricing_plan_id":"cebpf4jnsgd1na2vs0mg"},{"bike_id":"0bb89330-4456-4fca-be7f-36107f6bc726","system_id":"levelo_inurba_marseille","lat":43.30793,"lon":5.38149,"is_reserved":false,"is_disabled":false,"rental_uris":{"android":"levelo://app?vid=0bb89330-4456-4fca-be7f-36107f6bc726","ios":"levelo://app?vid=0bb89330-4456-4fca-be7f-36107f6bc726"},"vehicle_type_id":"4","last_reported":1727284071,"current_range_meters":18000,"station_id":"ce4bgt12rcd13ifvqce0","pricing_plan_id":"cebpf4jnsgd1na2vs0mg"},{"bike_id":"b758bb5f-adae-4881-83e7-0e917c4e39a1","system_id":"levelo_inurba_marseille","lat":43.31996,"lon":5.38151,"is_reserved":false,"is_disabled":false,"rental_uris":{"android":"levelo://app?vid=b758bb5f-adae-4881-83e7-0e917c4e39a1","ios":"levelo://app?vid=b758bb5f-adae-4881-83e7-0e917c4e39a1"},"vehicle_type_id":"4","last_reported":1727284071,"current_range_meters":5600,"station_id":"ce4bhr12rcd13ifvqhpg","pricing_plan_id":"cebpf4jnsgd1na2vs0mg"},{"bike_id":"f0f783e0-febc-4278-923f-53f676eaa118","system_id":"levelo_inurba_marseille","lat":43.31172,"lon":5.38717,"is_reserved":false,"is_disabled":false,"rental_uris":{"android":"levelo://app?vid=f0f783e0-febc-4278-923f-53f676eaa118","ios":"levelo://app?vid=f0f783e0-febc-4278-923f-53f676eaa118"},"vehicle_type_id":"4","last_reported":1727284071,"current_range_meters":6400,"station_id":"ce4bgv12rcd13ifvqcp0","pricing_plan_id":"cebpf4jnsgd1na2vs0mg"},{"bike_id":"4efd18bc-f2cf-47ec-88f1-fc0782fd696b","system_id":"levelo_inurba_marseille","lat":43.26806,"lon":5.40272,"is_reserved":false,"is_disabled":false,"rental_uris":{"android":"levelo://app?vid=4efd18bc-f2cf-47ec-88f1-fc0782fd696b","ios":"levelo://app?vid=4efd18bc-f2cf-47ec-88f1-fc0782fd696b"},"vehicle_type_id":"4","last_reported":1727284071,"current_range_meters":10000,"station_id":"ce501612rcd8frsf0b60","pricing_plan_id":"cebpf4jnsgd1na2vs0mg"},{"bike_id":"a832b3cd-8759-4176-b9b4-7acc3d4bc8f1","system_id":"levelo_inurba_marseille","lat":43.30418,"lon":5.41286,"is_reserved":false,"is_disabled":false,"rental_uris":{"android":"levelo://app?vid=a832b3cd-8759-4176-b9b4-7acc3d4bc8f1","ios":"levelo://app?vid=a832b3cd-8759-4176-b9b4-7acc3d4bc8f1"},"vehicle_type_id":"4","last_reported":1727284071,"current_range_meters":33200,"station_id":"ce4bhop2rcd13ifvqh8g","pricing_plan_id":"cebpf4jnsgd1na2vs0mg"},{"bike_id":"2b82c5a9-5630-4f75-abbe-d17fbb279347","system_id":"levelo_inurba_marseille","lat":43.25085,"lon":5.39528,"is_reserved":false,"is_disabled":false,"rental_uris":{"android":"levelo://app?vid=2b82c5a9-5630-4f75-abbe-d17fbb279347","ios":"levelo://app?vid=2b82c5a9-5630-4f75-abbe-d17fbb279347"},"vehicle_type_id":"4","last_reported":1727284071,"current_range_meters":38800,"station_id":"ce4bhm12rcd13ifvqgkg","pricing_plan_id":"cebpf4jnsgd1na2vs0mg"},{"bike_id":"eaeb482a-75d7-48e7-a9fc-689efded2184","system_id":"levelo_inurba_marseille","lat":43.30129,"lon":5.39864,"is_reserved":false,"is_disabled":false,"rental_uris":{"android":"levelo://app?vid=eaeb482a-75d7-48e7-a9fc-689efded2184","ios":"levelo://app?vid=eaeb482a-75d7-48e7-a9fc-689efded2184"},"vehicle_type_id":"4","last_reported":1727284071,"current_range_meters":0,"station_id":"ce4bh0h2rcd13ifvqd40","pricing_plan_id":"cebpf4jnsgd1na2vs0mg"},{"bike_id":"35468556-a5b4-4873-9d5c-ed273a8abd73","system_id":"levelo_inurba_marseille","lat":43.30119,"lon":5.39869,"is_reserved":false,"is_disabled":false,"rental_uris":{"android":"levelo://app?vid=35468556-a5b4-4873-9d5c-ed273a8abd73","ios":"levelo://app?vid=35468556-a5b4-4873-9d5c-ed273a8abd73"},"vehicle_type_id":"4","last_reported":1727284071,"current_range_meters":26800,"station_id":"ce4bh0h2rcd13ifvqd40","pricing_plan_id":"cebpf4jnsgd1na2vs0mg"},{"bike_id":"ef71a54f-5b11-42e3-b92d-446cc02144dd","system_id":"levelo_inurba_marseille","lat":43.25826,"lon":5.39429,"is_reserved":false,"is_disabled":false,"rental_uris":{"android":"levelo://app?vid=ef71a54f-5b11-42e3-b92d-446cc02144dd","ios":"levelo://app?vid=ef71a54f-5b11-42e3-b92d-446cc02144dd"},"vehicle_type_id":"4","last_reported":1727284071,"current_range_meters":17600,"station_id":"ce4bhip2rcd13ifvqft0","pricing_plan_id":"cebpf4jnsgd1na2vs0mg"},{"bike_id":"f17dbafc-151f-485c-a428-c0c83c10c6c9","system_id":"levelo_inurba_marseille","lat":43.29153,"lon":5.43982,"is_reserved":false,"is_disabled":false,"rental_uris":{"android":"levelo://app?vid=f17dbafc-151f-485c-a428-c0c83c10c6c9","ios":"levelo://app?vid=f17dbafc-151f-485c-a428-c0c83c10c6c9"},"vehicle_type_id":"4","last_reported":1727284071,"current_range_meters":28400,"station_id":"","pricing_plan_id":"cebpf4jnsgd1na2vs0mg"},{"bike_id":"2967527c-22fb-45d4-b562-e6db39218b8e","system_id":"levelo_inurba_marseille","lat":43.29312,"lon":5.37147,"is_reserved":false,"is_disabled":false,"rental_uris":{"android":"levelo://app?vid=2967527c-22fb-45d4-b562-e6db39218b8e","ios":"levelo://app?vid=2967527c-22fb-45d4-b562-e6db39218b8e"},"vehicle_type_id":"4","last_reported":1727284071,"current_range_meters":33600,"station_id":"ce4bgh92rcd13ifvqb40","pricing_plan_id":"cebpf4jnsgd1na2vs0mg"},{"bike_id":"ed6a28b9-644d-4283-ae7e-3ccd19c0eb5d","system_id":"levelo_inurba_marseille","lat":43.27833,"lon":5.39207,"is_reserved":false,"is_disabled":false,"rental_uris":{"android":"levelo://app?vid=ed6a28b9-644d-4283-ae7e-3ccd19c0eb5d","ios":"levelo://app?vid=ed6a28b9-644d-4283-ae7e-3ccd19c0eb5d"},"vehicle_type_id":"4","last_reported":1727284071,"current_range_meters":30800,"station_id":"ce4bhjp2rcd13ifvqga0","pricing_plan_id":"cebpf4jnsgd1na2vs0mg"},{"bike_id":"2710dfbf-5b47-4cbc-a43a-67f035c81374","system_id":"levelo_inurba_marseille","lat":43.29006,"lon":5.35608,"is_reserved":false,"is_disabled":false,"rental_uris":{"android":"levelo://app?vid=2710dfbf-5b47-4cbc-a43a-67f035c81374","ios":"levelo://app?vid=2710dfbf-5b47-4cbc-a43a-67f035c81374"},"vehicle_type_id":"4","last_reported":1727284071,"current_range_meters":20400,"station_id":"ce4bhb92rcd13ifvqen0","pricing_plan_id":"cebpf4jnsgd1na2vs0mg"},{"bike_id":"1a8b491b-997a-4ae0-985b-5697ae561945","system_id":"levelo_inurba_marseille","lat":43.29847,"lon":5.36275,"is_reserved":false,"is_disabled":false,"rental_uris":{"android":"levelo://app?vid=1a8b491b-997a-4ae0-985b-5697ae561945","ios":"levelo://app?vid=1a8b491b-997a-4ae0-985b-5697ae561945"},"vehicle_type_id":"4","last_reported":1727284071,"current_range_meters":9200,"station_id":"ce4bgpp2rcd13ifvqc3g","pricing_plan_id":"cebpf4jnsgd1na2vs0mg"},{"bike_id":"6d29c173-a5d7-4e28-90ed-e783ab021ecb","system_id":"levelo_inurba_marseille","lat":43.24802,"lon":5.37454,"is_reserved":false,"is_disabled":false,"rental_uris":{"android":"levelo://app?vid=6d29c173-a5d7-4e28-90ed-e783ab021ecb","ios":"levelo://app?vid=6d29c173-a5d7-4e28-90ed-e783ab021ecb"},"vehicle_type_id":"4","last_reported":1727284071,"current_range_meters":16400,"station_id":"ce4bhgh2rcd13ifvqfb0","pricing_plan_id":"cebpf4jnsgd1na2vs0mg"},{"bike_id":"8425a020-dd6c-4fda-a352-f8354f835836","system_id":"levelo_inurba_marseille","lat":43.31718,"lon":5.37753,"is_reserved":false,"is_disabled":false,"rental_uris":{"android":"levelo://app?vid=8425a020-dd6c-4fda-a352-f8354f835836","ios":"levelo://app?vid=8425a020-dd6c-4fda-a352-f8354f835836"},"vehicle_type_id":"4","last_reported":1727284071,"current_range_meters":39200,"station_id":"ce4bgth2rcd13ifvqch0","pricing_plan_id":"cebpf4jnsgd1na2vs0mg"},{"bike_id":"70ea79f5-5903-4704-b598-0996cbbacc62","system_id":"levelo_inurba_marseille","lat":43.23199,"lon":5.35546,"is_reserved":false,"is_disabled":false,"rental_uris":{"android":"levelo://app?vid=70ea79f5-5903-4704-b598-0996cbbacc62","ios":"levelo://app?vid=70ea79f5-5903-4704-b598-0996cbbacc62"},"vehicle_type_id":"4","last_reported":1727284071,"current_range_meters":6800,"station_id":"ce4bhu92rcd13ifvqi70","pricing_plan_id":"cebpf4jnsgd1na2vs0mg"},{"bike_id":"37ece250-d7e0-4a73-9a59-4f218f64c777","system_id":"levelo_inurba_marseille","lat":43.298691,"lon":5.397318,"is_reserved":false,"is_disabled":false,"rental_uris":{"android":"levelo://app?vid=37ece250-d7e0-4a73-9a59-4f218f64c777","ios":"levelo://app?vid=37ece250-d7e0-4a73-9a59-4f218f64c777"},"vehicle_type_id":"4","last_reported":1727284071,"current_range_meters":17200,"station_id":"ce4bh0h2rcd13ifvqd50","pricing_plan_id":"cebpf4jnsgd1na2vs0mg"},{"bike_id":"3011603d-4a97-43d2-9a11-ca473cb5d92b","system_id":"levelo_inurba_marseille","lat":43.31714,"lon":5.37771,"is_reserved":false,"is_disabled":false,"rental_uris":{"android":"levelo://app?vid=3011603d-4a97-43d2-9a11-ca473cb5d92b","ios":"levelo://app?vid=3011603d-4a97-43d2-9a11-ca473cb5d92b"},"vehicle_type_id":"4","last_reported":1727284071,"current_range_meters":28000,"station_id":"ce4bgth2rcd13ifvqch0","pricing_plan_id":"cebpf4jnsgd1na2vs0mg"},{"bike_id":"ce28c8b5-f7c8-4bb0-8e5c-874a5945d77d","system_id":"levelo_inurba_marseille","lat":43.30898,"lon":5.371885,"is_reserved":false,"is_disabled":false,"rental_uris":{"android":"levelo://app?vid=ce28c8b5-f7c8-4bb0-8e5c-874a5945d77d","ios":"levelo://app?vid=ce28c8b5-f7c8-4bb0-8e5c-874a5945d77d"},"vehicle_type_id":"4","last_reported":1727284071,"current_range_meters":38800,"station_id":"ce4bguh2rcd13ifvqckg","pricing_plan_id":"cebpf4jnsgd1na2vs0mg"},{"bike_id":"0f268a5d-84a8-4626-b851-2a909c8a6ceb","system_id":"levelo_inurba_marseille","lat":43.25583,"lon":5.38233,"is_reserved":false,"is_disabled":false,"rental_uris":{"android":"levelo://app?vid=0f268a5d-84a8-4626-b851-2a909c8a6ceb","ios":"levelo://app?vid=0f268a5d-84a8-4626-b851-2a909c8a6ceb"},"vehicle_type_id":"4","last_reported":1727284071,"current_range_meters":38000,"station_id":"ce4bhih2rcd13ifvqfs0","pricing_plan_id":"cebpf4jnsgd1na2vs0mg"},{"bike_id":"538ca312-1882-48c8-96d9-b28acd1d73d1","system_id":"levelo_inurba_marseille","lat":43.24161,"lon":5.3973,"is_reserved":false,"is_disabled":false,"rental_uris":{"android":"levelo://app?vid=538ca312-1882-48c8-96d9-b28acd1d73d1","ios":"levelo://app?vid=538ca312-1882-48c8-96d9-b28acd1d73d1"},"vehicle_type_id":"4","last_reported":1727284071,"current_range_meters":38800,"station_id":"ce4bhn12rcd13ifvqgpg","pricing_plan_id":"cebpf4jnsgd1na2vs0mg"},{"bike_id":"ebefa1a0-01cc-4d07-880d-dc31c787825c","system_id":"levelo_inurba_marseille","lat":43.28421,"lon":5.34977,"is_reserved":false,"is_disabled":false,"rental_uris":{"android":"levelo://app?vid=ebefa1a0-01cc-4d07-880d-dc31c787825c","ios":"levelo://app?vid=ebefa1a0-01cc-4d07-880d-dc31c787825c"},"vehicle_type_id":"4","last_reported":1727284071,"current_range_meters":2800,"station_id":"ce4bhbh2rcd13ifvqepg","pricing_plan_id":"cebpf4jnsgd1na2vs0mg"},{"bike_id":"1fc3dbcc-c1f7-4e90-bbd0-dc4ee642e8cb","system_id":"levelo_inurba_marseille","lat":43.28476,"lon":5.38069,"is_reserved":false,"is_disabled":false,"rental_uris":{"android":"levelo://app?vid=1fc3dbcc-c1f7-4e90-bbd0-dc4ee642e8cb","ios":"levelo://app?vid=1fc3dbcc-c1f7-4e90-bbd0-dc4ee642e8cb"},"vehicle_type_id":"4","last_reported":1727284071,"current_range_meters":14400,"station_id":"ce4bh412rcd13ifvqdr0","pricing_plan_id":"cebpf4jnsgd1na2vs0mg"},{"bike_id":"7ee96ec9-52e9-4a87-b353-4d22f14a3881","system_id":"levelo_inurba_marseille","lat":43.25002,"lon":5.38923,"is_reserved":false,"is_disabled":false,"rental_uris":{"android":"levelo://app?vid=7ee96ec9-52e9-4a87-b353-4d22f14a3881","ios":"levelo://app?vid=7ee96ec9-52e9-4a87-b353-4d22f14a3881"},"vehicle_type_id":"4","last_reported":1727284071,"current_range_meters":2800,"station_id":"ce4bhgp2rcd13ifvqfd0","pricing_plan_id":"cebpf4jnsgd1na2vs0mg"},{"bike_id":"15b5f263-c977-4723-83fc-aad02dd4379b","system_id":"levelo_inurba_marseille","lat":43.284058,"lon":5.349745,"is_reserved":false,"is_disabled":false,"rental_uris":{"android":"levelo://app?vid=15b5f263-c977-4723-83fc-aad02dd4379b","ios":"levelo://app?vid=15b5f263-c977-4723-83fc-aad02dd4379b"},"vehicle_type_id":"4","last_reported":1727284071,"current_range_meters":8000,"station_id":"ce4bhbh2rcd13ifvqepg","pricing_plan_id":"cebpf4jnsgd1na2vs0mg"},{"bike_id":"b79f92fd-4519-43af-9073-cdf6f08dcc99","system_id":"levelo_inurba_marseille","lat":43.24177,"lon":5.39735,"is_reserved":false,"is_disabled":false,"rental_uris":{"android":"levelo://app?vid=b79f92fd-4519-43af-9073-cdf6f08dcc99","ios":"levelo://app?vid=b79f92fd-4519-43af-9073-cdf6f08dcc99"},"vehicle_type_id":"4","last_reported":1727284071,"current_range_meters":38800,"station_id":"ce4bhn12rcd13ifvqgpg","pricing_plan_id":"cebpf4jnsgd1na2vs0mg"},{"bike_id":"d09e65e8-8821-414a-8606-4134bc02168f","system_id":"levelo_inurba_marseille","lat":43.32294,"lon":5.38268,"is_reserved":false,"is_disabled":false,"rental_uris":{"android":"levelo://app?vid=d09e65e8-8821-414a-8606-4134bc02168f","ios":"levelo://app?vid=d09e65e8-8821-414a-8606-4134bc02168f"},"vehicle_type_id":"4","last_reported":1727284071,"current_range_meters":24800,"station_id":"ce4bhr12rcd13ifvqhqg","pricing_plan_id":"cebpf4jnsgd1na2vs0mg"},{"bike_id":"0ff30b45-71aa-4b38-b43e-bc243fabcd13","system_id":"levelo_inurba_marseille","lat":43.28708,"lon":5.35195,"is_reserved":false,"is_disabled":false,"rental_uris":{"android":"levelo://app?vid=0ff30b45-71aa-4b38-b43e-bc243fabcd13","ios":"levelo://app?vid=0ff30b45-71aa-4b38-b43e-bc243fabcd13"},"vehicle_type_id":"4","last_reported":1727284071,"current_range_meters":22800,"station_id":"","pricing_plan_id":"cebpf4jnsgd1na2vs0mg"},{"bike_id":"3ecf2cc6-a7b2-4e51-8121-c23c75f91ce7","system_id":"levelo_inurba_marseille","lat":43.29192,"lon":5.35799,"is_reserved":false,"is_disabled":false,"rental_uris":{"android":"levelo://app?vid=3ecf2cc6-a7b2-4e51-8121-c23c75f91ce7","ios":"levelo://app?vid=3ecf2cc6-a7b2-4e51-8121-c23c75f91ce7"},"vehicle_type_id":"4","last_reported":1727284071,"current_range_meters":10800,"station_id":"ce4bhb12rcd13ifvqel0","pricing_plan_id":"cebpf4jnsgd1na2vs0mg"},{"bike_id":"cc1791b4-8a9d-47ac-b089-41f49588816a","system_id":"levelo_inurba_marseille","lat":43.24385,"lon":5.37059,"is_reserved":false,"is_disabled":false,"rental_uris":{"android":"levelo://app?vid=cc1791b4-8a9d-47ac-b089-41f49588816a","ios":"levelo://app?vid=cc1791b4-8a9d-47ac-b089-41f49588816a"},"vehicle_type_id":"4","last_reported":1727284071,"current_range_meters":36000,"station_id":"ce4bhhh2rcd13ifvqfk0","pricing_plan_id":"cebpf4jnsgd1na2vs0mg"},{"bike_id":"83f90daa-e3af-4d08-9059-db8e9bbc0b97","system_id":"levelo_inurba_marseille","lat":43.28111,"lon":5.37835,"is_reserved":false,"is_disabled":false,"rental_uris":{"android":"levelo://app?vid=83f90daa-e3af-4d08-9059-db8e9bbc0b97","ios":"levelo://app?vid=83f90daa-e3af-4d08-9059-db8e9bbc0b97"},"vehicle_type_id":"4","last_reported":1727284071,"current_range_meters":10000,"station_id":"ce4bha12rcd13ifvqee0","pricing_plan_id":"cebpf4jnsgd1na2vs0mg"},{"bike_id":"13ea4239-c096-49ce-9014-c218f3491066","system_id":"levelo_inurba_marseille","lat":43.24083,"lon":5.37748,"is_reserved":false,"is_disabled":false,"rental_uris":{"android":"levelo://app?vid=13ea4239-c096-49ce-9014-c218f3491066","ios":"levelo://app?vid=13ea4239-c096-49ce-9014-c218f3491066"},"vehicle_type_id":"4","last_reported":1727284071,"current_range_meters":9200,"station_id":"ce4bhnp2rcd13ifvqgvg","pricing_plan_id":"cebpf4jnsgd1na2vs0mg"},{"bike_id":"8f9940ab-5de3-43f7-af4d-e055bc9f9839","system_id":"levelo_inurba_marseille","lat":43.3054,"lon":5.36629,"is_reserved":false,"is_disabled":false,"rental_uris":{"android":"levelo://app?vid=8f9940ab-5de3-43f7-af4d-e055bc9f9839","ios":"levelo://app?vid=8f9940ab-5de3-43f7-af4d-e055bc9f9839"},"vehicle_type_id":"4","last_reported":1727284071,"current_range_meters":38400,"station_id":"","pricing_plan_id":"cebpf4jnsgd1na2vs0mg"},{"bike_id":"daa1c4d9-69cd-48e9-af28-4298948bca9c","system_id":"levelo_inurba_marseille","lat":43.29001,"lon":5.3561,"is_reserved":false,"is_disabled":false,"rental_uris":{"android":"levelo://app?vid=daa1c4d9-69cd-48e9-af28-4298948bca9c","ios":"levelo://app?vid=daa1c4d9-69cd-48e9-af28-4298948bca9c"},"vehicle_type_id":"4","last_reported":1727284071,"current_range_meters":3200,"station_id":"ce4bhb92rcd13ifvqen0","pricing_plan_id":"cebpf4jnsgd1na2vs0mg"},{"bike_id":"0b6c4597-ed68-409d-a23d-5e770c69e13b","system_id":"levelo_inurba_marseille","lat":43.29877,"lon":5.39744,"is_reserved":false,"is_disabled":false,"rental_uris":{"android":"levelo://app?vid=0b6c4597-ed68-409d-a23d-5e770c69e13b","ios":"levelo://app?vid=0b6c4597-ed68-409d-a23d-5e770c69e13b"},"vehicle_type_id":"4","last_reported":1727284071,"current_range_meters":38400,"station_id":"ce4bh0h2rcd13ifvqd50","pricing_plan_id":"cebpf4jnsgd1na2vs0mg"},{"bike_id":"bfbd7ce3-57c8-4c62-aaa8-52c7c05e68d8","system_id":"levelo_inurba_marseille","lat":43.337444,"lon":5.374475,"is_reserved":false,"is_disabled":false,"rental_uris":{"android":"levelo://app?vid=bfbd7ce3-57c8-4c62-aaa8-52c7c05e68d8","ios":"levelo://app?vid=bfbd7ce3-57c8-4c62-aaa8-52c7c05e68d8"},"vehicle_type_id":"4","last_reported":1727284071,"current_range_meters":12000,"station_id":"","pricing_plan_id":"cebpf4jnsgd1na2vs0mg"},{"bike_id":"76d831e0-ee01-4a38-bf4d-d11cfb750537","system_id":"levelo_inurba_marseille","lat":43.29274,"lon":5.36842,"is_reserved":false,"is_disabled":false,"rental_uris":{"android":"levelo://app?vid=76d831e0-ee01-4a38-bf4d-d11cfb750537","ios":"levelo://app?vid=76d831e0-ee01-4a38-bf4d-d11cfb750537"},"vehicle_type_id":"4","last_reported":1727284071,"current_range_meters":36800,"station_id":"ce4bhbp2rcd13ifvqesg","pricing_plan_id":"cebpf4jnsgd1na2vs0mg"},{"bike_id":"d2453472-965e-48fe-874c-6735e141f2f9","system_id":"levelo_inurba_marseille","lat":43.27999,"lon":5.40011,"is_reserved":false,"is_disabled":false,"rental_uris":{"android":"levelo://app?vid=d2453472-965e-48fe-874c-6735e141f2f9","ios":"levelo://app?vid=d2453472-965e-48fe-874c-6735e141f2f9"},"vehicle_type_id":"4","last_reported":1727284071,"current_range_meters":30800,"station_id":"ce4bho92rcd13ifvqh4g","pricing_plan_id":"cebpf4jnsgd1na2vs0mg"},{"bike_id":"70386941-54d3-45f7-8216-609631e7be15","system_id":"levelo_inurba_marseille","lat":43.324788,"lon":5.365614,"is_reserved":false,"is_disabled":false,"rental_uris":{"android":"levelo://app?vid=70386941-54d3-45f7-8216-609631e7be15","ios":"levelo://app?vid=70386941-54d3-45f7-8216-609631e7be15"},"vehicle_type_id":"4","last_reported":1727284071,"current_range_meters":38800,"station_id":"ce4bhs12rcd13ifvqhvg","pricing_plan_id":"cebpf4jnsgd1na2vs0mg"},{"bike_id":"d454e2b8-1678-4884-891c-599157e3a5b6","system_id":"levelo_inurba_marseille","lat":43.28841,"lon":5.3789,"is_reserved":false,"is_disabled":false,"rental_uris":{"android":"levelo://app?vid=d454e2b8-1678-4884-891c-599157e3a5b6","ios":"levelo://app?vid=d454e2b8-1678-4884-891c-599157e3a5b6"},"vehicle_type_id":"4","last_reported":1727284071,"current_range_meters":34800,"station_id":"","pricing_plan_id":"cebpf4jnsgd1na2vs0mg"},{"bike_id":"385af624-efe4-4ff7-86aa-4baf2a21c851","system_id":"levelo_inurba_marseille","lat":43.31721,"lon":5.42395,"is_reserved":false,"is_disabled":false,"rental_uris":{"android":"levelo://app?vid=385af624-efe4-4ff7-86aa-4baf2a21c851","ios":"levelo://app?vid=385af624-efe4-4ff7-86aa-4baf2a21c851"},"vehicle_type_id":"4","last_reported":1727284071,"current_range_meters":28000,"station_id":"ce4bhp92rcd13ifvqhbg","pricing_plan_id":"cebpf4jnsgd1na2vs0mg"},{"bike_id":"30f3eab1-28f7-4069-bb8d-c7792def2245","system_id":"levelo_inurba_marseille","lat":43.27622,"lon":5.360998,"is_reserved":false,"is_disabled":false,"rental_uris":{"android":"levelo://app?vid=30f3eab1-28f7-4069-bb8d-c7792def2245","ios":"levelo://app?vid=30f3eab1-28f7-4069-bb8d-c7792def2245"},"vehicle_type_id":"4","last_reported":1727284071,"current_range_meters":18800,"station_id":"ce4bgj92rcd13ifvqbe0","pricing_plan_id":"cebpf4jnsgd1na2vs0mg"},{"bike_id":"c228aee7-2f83-4854-ad55-f3b4f3727d9a","system_id":"levelo_inurba_marseille","lat":43.33027,"lon":5.39039,"is_reserved":false,"is_disabled":false,"rental_uris":{"android":"levelo://app?vid=c228aee7-2f83-4854-ad55-f3b4f3727d9a","ios":"levelo://app?vid=c228aee7-2f83-4854-ad55-f3b4f3727d9a"},"vehicle_type_id":"4","last_reported":1727284071,"current_range_meters":38800,"station_id":"ce4bhr92rcd13ifvqhrg","pricing_plan_id":"cebpf4jnsgd1na2vs0mg"},{"bike_id":"fdfdef75-5cad-45fb-95eb-e0b0fbcd7130","system_id":"levelo_inurba_marseille","lat":43.32,"lon":5.3817,"is_reserved":false,"is_disabled":false,"rental_uris":{"android":"levelo://app?vid=fdfdef75-5cad-45fb-95eb-e0b0fbcd7130","ios":"levelo://app?vid=fdfdef75-5cad-45fb-95eb-e0b0fbcd7130"},"vehicle_type_id":"4","last_reported":1727284071,"current_range_meters":16000,"station_id":"ce4bhr12rcd13ifvqhpg","pricing_plan_id":"cebpf4jnsgd1na2vs0mg"},{"bike_id":"b0f11c6b-bd1f-478a-899e-22ad00e57f3f","system_id":"levelo_inurba_marseille","lat":43.30143,"lon":5.37421,"is_reserved":false,"is_disabled":false,"rental_uris":{"android":"levelo://app?vid=b0f11c6b-bd1f-478a-899e-22ad00e57f3f","ios":"levelo://app?vid=b0f11c6b-bd1f-478a-899e-22ad00e57f3f"},"vehicle_type_id":"4","last_reported":1727284071,"current_range_meters":16400,"station_id":"ce4bgs92rcd13ifvqcc0","pricing_plan_id":"cebpf4jnsgd1na2vs0mg"},{"bike_id":"dc6e803a-4b62-4d14-85a7-7ef0eaa09d87","system_id":"levelo_inurba_marseille","lat":43.30306,"lon":5.39691,"is_reserved":false,"is_disabled":false,"rental_uris":{"android":"levelo://app?vid=dc6e803a-4b62-4d14-85a7-7ef0eaa09d87","ios":"levelo://app?vid=dc6e803a-4b62-4d14-85a7-7ef0eaa09d87"},"vehicle_type_id":"4","last_reported":1727284071,"current_range_meters":6000,"station_id":"ce4bhq12rcd13ifvqhig","pricing_plan_id":"cebpf4jnsgd1na2vs0mg"},{"bike_id":"18fdd142-a2ed-40e5-8317-d4c25e596f9f","system_id":"levelo_inurba_marseille","lat":43.29534,"lon":5.38538,"is_reserved":false,"is_disabled":false,"rental_uris":{"android":"levelo://app?vid=18fdd142-a2ed-40e5-8317-d4c25e596f9f","ios":"levelo://app?vid=18fdd142-a2ed-40e5-8317-d4c25e596f9f"},"vehicle_type_id":"4","last_reported":1727284071,"current_range_meters":13600,"station_id":"ce4bgih2rcd13ifvqba0","pricing_plan_id":"cebpf4jnsgd1na2vs0mg"},{"bike_id":"51f33ead-e33c-48c4-aaca-c5d9197a7a9a","system_id":"levelo_inurba_marseille","lat":43.33027,"lon":5.39045,"is_reserved":false,"is_disabled":false,"rental_uris":{"android":"levelo://app?vid=51f33ead-e33c-48c4-aaca-c5d9197a7a9a","ios":"levelo://app?vid=51f33ead-e33c-48c4-aaca-c5d9197a7a9a"},"vehicle_type_id":"4","last_reported":1727284071,"current_range_meters":9600,"station_id":"ce4bhr92rcd13ifvqhrg","pricing_plan_id":"cebpf4jnsgd1na2vs0mg"},{"bike_id":"14da07d7-4be9-413b-b525-82ba7c272f7c","system_id":"levelo_inurba_marseille","lat":43.299198,"lon":5.374658,"is_reserved":false,"is_disabled":false,"rental_uris":{"android":"levelo://app?vid=14da07d7-4be9-413b-b525-82ba7c272f7c","ios":"levelo://app?vid=14da07d7-4be9-413b-b525-82ba7c272f7c"},"vehicle_type_id":"4","last_reported":1727284071,"current_range_meters":39200,"station_id":"ce4bgjh2rcd13ifvqbg0","pricing_plan_id":"cebpf4jnsgd1na2vs0mg"},{"bike_id":"31e58236-90a1-4d77-a89f-c830298a4144","system_id":"levelo_inurba_marseille","lat":43.29265,"lon":5.38448,"is_reserved":false,"is_disabled":false,"rental_uris":{"android":"levelo://app?vid=31e58236-90a1-4d77-a89f-c830298a4144","ios":"levelo://app?vid=31e58236-90a1-4d77-a89f-c830298a4144"},"vehicle_type_id":"4","last_reported":1727284071,"current_range_meters":30000,"station_id":"ce4bh692rcd13ifvqea0","pricing_plan_id":"cebpf4jnsgd1na2vs0mg"},{"bike_id":"0a363ada-9610-49dd-ba7b-1db9141b1300","system_id":"levelo_inurba_marseille","lat":43.29531,"lon":5.38538,"is_reserved":false,"is_disabled":false,"rental_uris":{"android":"levelo://app?vid=0a363ada-9610-49dd-ba7b-1db9141b1300","ios":"levelo://app?vid=0a363ada-9610-49dd-ba7b-1db9141b1300"},"vehicle_type_id":"4","last_reported":1727284071,"current_range_meters":19200,"station_id":"ce4bgih2rcd13ifvqba0","pricing_plan_id":"cebpf4jnsgd1na2vs0mg"},{"bike_id":"95dacbeb-92b4-49c1-b647-bbdd5b5f9bb0","system_id":"levelo_inurba_marseille","lat":43.33027,"lon":5.39039,"is_reserved":false,"is_disabled":false,"rental_uris":{"android":"levelo://app?vid=95dacbeb-92b4-49c1-b647-bbdd5b5f9bb0","ios":"levelo://app?vid=95dacbeb-92b4-49c1-b647-bbdd5b5f9bb0"},"vehicle_type_id":"4","last_reported":1727284071,"current_range_meters":22400,"station_id":"ce4bhr92rcd13ifvqhrg","pricing_plan_id":"cebpf4jnsgd1na2vs0mg"},{"bike_id":"81c64b1f-be2a-49a1-a6b8-2b6d13c0d62f","system_id":"levelo_inurba_marseille","lat":43.28671,"lon":5.38669,"is_reserved":false,"is_disabled":false,"rental_uris":{"android":"levelo://app?vid=81c64b1f-be2a-49a1-a6b8-2b6d13c0d62f","ios":"levelo://app?vid=81c64b1f-be2a-49a1-a6b8-2b6d13c0d62f"},"vehicle_type_id":"4","last_reported":1727284071,"current_range_meters":28000,"station_id":"ce4bh492rcd13ifvqdug","pricing_plan_id":"cebpf4jnsgd1na2vs0mg"},{"bike_id":"f3fd188c-6e39-4d01-9302-f4358b34437e","system_id":"levelo_inurba_marseille","lat":43.29601,"lon":5.38099,"is_reserved":false,"is_disabled":false,"rental_uris":{"android":"levelo://app?vid=f3fd188c-6e39-4d01-9302-f4358b34437e","ios":"levelo://app?vid=f3fd188c-6e39-4d01-9302-f4358b34437e"},"vehicle_type_id":"4","last_reported":1727284071,"current_range_meters":8800,"station_id":"ce4bgl12rcd13ifvqbo0","pricing_plan_id":"cebpf4jnsgd1na2vs0mg"},{"bike_id":"81e48cba-ab43-4535-a5b5-36906b66d22f","system_id":"levelo_inurba_marseille","lat":43.31707,"lon":5.37738,"is_reserved":false,"is_disabled":false,"rental_uris":{"android":"levelo://app?vid=81e48cba-ab43-4535-a5b5-36906b66d22f","ios":"levelo://app?vid=81e48cba-ab43-4535-a5b5-36906b66d22f"},"vehicle_type_id":"4","last_reported":1727284071,"current_range_meters":5600,"station_id":"ce4bgth2rcd13ifvqch0","pricing_plan_id":"cebpf4jnsgd1na2vs0mg"},{"bike_id":"10193a0b-f65d-4421-b223-96fbf803d10e","system_id":"levelo_inurba_marseille","lat":43.28002,"lon":5.40009,"is_reserved":false,"is_disabled":false,"rental_uris":{"android":"levelo://app?vid=10193a0b-f65d-4421-b223-96fbf803d10e","ios":"levelo://app?vid=10193a0b-f65d-4421-b223-96fbf803d10e"},"vehicle_type_id":"4","last_reported":1727284071,"current_range_meters":14000,"station_id":"ce4bho92rcd13ifvqh4g","pricing_plan_id":"cebpf4jnsgd1na2vs0mg"},{"bike_id":"aea4597f-3dd7-43b9-870e-c8b136708668","system_id":"levelo_inurba_marseille","lat":43.28463,"lon":5.35893,"is_reserved":false,"is_disabled":false,"rental_uris":{"android":"levelo://app?vid=aea4597f-3dd7-43b9-870e-c8b136708668","ios":"levelo://app?vid=aea4597f-3dd7-43b9-870e-c8b136708668"},"vehicle_type_id":"4","last_reported":1727284071,"current_range_meters":39200,"station_id":"ce4bhah2rcd13ifvqei0","pricing_plan_id":"cebpf4jnsgd1na2vs0mg"},{"bike_id":"f4a6ad44-e29f-425e-8ea9-86acf9299d8c","system_id":"levelo_inurba_marseille","lat":43.29601,"lon":5.38101,"is_reserved":false,"is_disabled":false,"rental_uris":{"android":"levelo://app?vid=f4a6ad44-e29f-425e-8ea9-86acf9299d8c","ios":"levelo://app?vid=f4a6ad44-e29f-425e-8ea9-86acf9299d8c"},"vehicle_type_id":"4","last_reported":1727284071,"current_range_meters":8800,"station_id":"ce4bgl12rcd13ifvqbo0","pricing_plan_id":"cebpf4jnsgd1na2vs0mg"},{"bike_id":"d2b1c6cb-276e-4065-a8b2-7cf0e7d6880e","system_id":"levelo_inurba_marseille","lat":43.28613,"lon":5.351,"is_reserved":false,"is_disabled":false,"rental_uris":{"android":"levelo://app?vid=d2b1c6cb-276e-4065-a8b2-7cf0e7d6880e","ios":"levelo://app?vid=d2b1c6cb-276e-4065-a8b2-7cf0e7d6880e"},"vehicle_type_id":"4","last_reported":1727284071,"current_range_meters":14800,"station_id":"ce4bhch2rcd13ifvqeug","pricing_plan_id":"cebpf4jnsgd1na2vs0mg"},{"bike_id":"a26358d5-f031-462f-a0b2-52ffe1b3b7a5","system_id":"levelo_inurba_marseille","lat":43.32112,"lon":5.36782,"is_reserved":false,"is_disabled":false,"rental_uris":{"android":"levelo://app?vid=a26358d5-f031-462f-a0b2-52ffe1b3b7a5","ios":"levelo://app?vid=a26358d5-f031-462f-a0b2-52ffe1b3b7a5"},"vehicle_type_id":"4","last_reported":1727284071,"current_range_meters":10800,"station_id":"ce4bhrh2rcd13ifvqhug","pricing_plan_id":"cebpf4jnsgd1na2vs0mg"},{"bike_id":"5a63347a-08d8-4b71-98f0-e075e577e1cb","system_id":"levelo_inurba_marseille","lat":43.23186,"lon":5.39998,"is_reserved":false,"is_disabled":false,"rental_uris":{"android":"levelo://app?vid=5a63347a-08d8-4b71-98f0-e075e577e1cb","ios":"levelo://app?vid=5a63347a-08d8-4b71-98f0-e075e577e1cb"},"vehicle_type_id":"4","last_reported":1727284071,"current_range_meters":24000,"station_id":"ce4bhn12rcd13ifvqgqg","pricing_plan_id":"cebpf4jnsgd1na2vs0mg"},{"bike_id":"ff16da21-3377-4760-b0c4-03bb4a2e8759","system_id":"levelo_inurba_marseille","lat":43.23195,"lon":5.35557,"is_reserved":false,"is_disabled":false,"rental_uris":{"android":"levelo://app?vid=ff16da21-3377-4760-b0c4-03bb4a2e8759","ios":"levelo://app?vid=ff16da21-3377-4760-b0c4-03bb4a2e8759"},"vehicle_type_id":"4","last_reported":1727284071,"current_range_meters":38800,"station_id":"ce4bhu92rcd13ifvqi70","pricing_plan_id":"cebpf4jnsgd1na2vs0mg"},{"bike_id":"5722f645-3165-4128-ae03-597e58ca1375","system_id":"levelo_inurba_marseille","lat":43.29204,"lon":5.39332,"is_reserved":false,"is_disabled":false,"rental_uris":{"android":"levelo://app?vid=5722f645-3165-4128-ae03-597e58ca1375","ios":"levelo://app?vid=5722f645-3165-4128-ae03-597e58ca1375"},"vehicle_type_id":"4","last_reported":1727284071,"current_range_meters":36800,"station_id":"ce4bh192rcd13ifvqdd0","pricing_plan_id":"cebpf4jnsgd1na2vs0mg"},{"bike_id":"62168e6c-5259-4737-be70-c5a2c19328ed","system_id":"levelo_inurba_marseille","lat":43.28575,"lon":5.3949,"is_reserved":false,"is_disabled":false,"rental_uris":{"android":"levelo://app?vid=62168e6c-5259-4737-be70-c5a2c19328ed","ios":"levelo://app?vid=62168e6c-5259-4737-be70-c5a2c19328ed"},"vehicle_type_id":"4","last_reported":1727284071,"current_range_meters":29600,"station_id":"ce4bh292rcd13ifvqdg0","pricing_plan_id":"cebpf4jnsgd1na2vs0mg"},{"bike_id":"2d4c181d-6dc0-4472-8540-ba99b00281aa","system_id":"levelo_inurba_marseille","lat":43.30137,"lon":5.38782,"is_reserved":false,"is_disabled":false,"rental_uris":{"android":"levelo://app?vid=2d4c181d-6dc0-4472-8540-ba99b00281aa","ios":"levelo://app?vid=2d4c181d-6dc0-4472-8540-ba99b00281aa"},"vehicle_type_id":"4","last_reported":1727284071,"current_range_meters":29600,"station_id":"ce4bghh2rcd13ifvqb60","pricing_plan_id":"cebpf4jnsgd1na2vs0mg"},{"bike_id":"f01d4af2-dbb9-4081-afac-6d99f38023b9","system_id":"levelo_inurba_marseille","lat":43.23197,"lon":5.35546,"is_reserved":false,"is_disabled":false,"rental_uris":{"android":"levelo://app?vid=f01d4af2-dbb9-4081-afac-6d99f38023b9","ios":"levelo://app?vid=f01d4af2-dbb9-4081-afac-6d99f38023b9"},"vehicle_type_id":"4","last_reported":1727284071,"current_range_meters":17600,"station_id":"ce4bhu92rcd13ifvqi70","pricing_plan_id":"cebpf4jnsgd1na2vs0mg"},{"bike_id":"32f422f0-ee79-4047-bc60-c9026c44155a","system_id":"levelo_inurba_marseille","lat":43.30329,"lon":5.40433,"is_reserved":false,"is_disabled":false,"rental_uris":{"android":"levelo://app?vid=32f422f0-ee79-4047-bc60-c9026c44155a","ios":"levelo://app?vid=32f422f0-ee79-4047-bc60-c9026c44155a"},"vehicle_type_id":"4","last_reported":1727284071,"current_range_meters":2800,"station_id":"ce4bh012rcd13ifvqd10","pricing_plan_id":"cebpf4jnsgd1na2vs0mg"},{"bike_id":"06dd54c7-de3c-49d3-9f30-5d45621d3ea5","system_id":"levelo_inurba_marseille","lat":43.30802,"lon":5.43523,"is_reserved":false,"is_disabled":false,"rental_uris":{"android":"levelo://app?vid=06dd54c7-de3c-49d3-9f30-5d45621d3ea5","ios":"levelo://app?vid=06dd54c7-de3c-49d3-9f30-5d45621d3ea5"},"vehicle_type_id":"4","last_reported":1727284071,"current_range_meters":2800,"station_id":"ce4bhph2rcd13ifvqheg","pricing_plan_id":"cebpf4jnsgd1na2vs0mg"},{"bike_id":"215ed532-6dcd-43ce-8db2-229769581026","system_id":"levelo_inurba_marseille","lat":43.28459,"lon":5.359,"is_reserved":false,"is_disabled":false,"rental_uris":{"android":"levelo://app?vid=215ed532-6dcd-43ce-8db2-229769581026","ios":"levelo://app?vid=215ed532-6dcd-43ce-8db2-229769581026"},"vehicle_type_id":"4","last_reported":1727284071,"current_range_meters":12800,"station_id":"ce4bhah2rcd13ifvqei0","pricing_plan_id":"cebpf4jnsgd1na2vs0mg"},{"bike_id":"e2e364c9-2ecf-40a5-9d81-7df2b1bdbd65","system_id":"levelo_inurba_marseille","lat":43.2406,"lon":5.37757,"is_reserved":false,"is_disabled":false,"rental_uris":{"android":"levelo://app?vid=e2e364c9-2ecf-40a5-9d81-7df2b1bdbd65","ios":"levelo://app?vid=e2e364c9-2ecf-40a5-9d81-7df2b1bdbd65"},"vehicle_type_id":"4","last_reported":1727284071,"current_range_meters":38800,"station_id":"ce4bhnp2rcd13ifvqgvg","pricing_plan_id":"cebpf4jnsgd1na2vs0mg"},{"bike_id":"194a7d08-93a8-4688-bca6-7b415bb5f109","system_id":"levelo_inurba_marseille","lat":43.33026,"lon":5.3904,"is_reserved":false,"is_disabled":false,"rental_uris":{"android":"levelo://app?vid=194a7d08-93a8-4688-bca6-7b415bb5f109","ios":"levelo://app?vid=194a7d08-93a8-4688-bca6-7b415bb5f109"},"vehicle_type_id":"4","last_reported":1727284071,"current_range_meters":38800,"station_id":"ce4bhr92rcd13ifvqhrg","pricing_plan_id":"cebpf4jnsgd1na2vs0mg"},{"bike_id":"3d46f78f-76c1-4620-a264-f82d0a4ec65b","system_id":"levelo_inurba_marseille","lat":43.299,"lon":5.43669,"is_reserved":false,"is_disabled":false,"rental_uris":{"android":"levelo://app?vid=3d46f78f-76c1-4620-a264-f82d0a4ec65b","ios":"levelo://app?vid=3d46f78f-76c1-4620-a264-f82d0a4ec65b"},"vehicle_type_id":"4","last_reported":1727284071,"current_range_meters":19200,"station_id":"ce4bhpp2rcd13ifvqhfg","pricing_plan_id":"cebpf4jnsgd1na2vs0mg"},