{"last_updated":1741795978,"ttl":60,"version":"2.2","data":{"bikes":[{"bike_id":"9028ee65-c38c-4869-907a-bbc5885e9ef4","system_id":"levelo_inurba_marseille","lat":43.26219,"lon":5.40457,"is_reserved":false,"is_disabled":false,"rental_uris":{"android":"levelo://app?vid=9028ee65-c38c-4869-907a-bbc5885e9ef4","ios":"levelo://app?vid=9028ee65-c38c-4869-907a-bbc5885e9ef4"},"vehicle_type_id":"4","last_reported":1741795978,"current_range_meters":2800,"station_id":"ce4bhmh2rcd13ifvqgmg","pricing_plan_id":"cebpf4jnsgd1na2vs0mg"},{"bike_id":"77c5270b-c8c3-4f54-b0f9-5c357974bdfa","system_id":"levelo_inurba_marseille","lat":43.28615,"lon":5.35106,"is_reserved":false,"is_disabled":false,"rental_uris":{"android":"levelo://app?vid=77c5270b-c8c3-4f54-b0f9-5c357974bdfa","ios":"levelo://app?vid=77c5270b-c8c3-4f54-b0f9-5c357974bdfa"},"vehicle_type_id":"4","last_reported":1741795978,"current_range_meters":2800,"station_id":"ce4bhch2rcd13ifvqeug","pricing_plan_id":"cebpf4jnsgd1na2vs0mg"},{"bike_id":"e364e167-83e0-43a0-9977-36037aa02a2b","system_id":"levelo_inurba_marseille","lat":43.27993,"lon":5.40033,"is_reserved":false,"is_disabled":false,"rental_uris":{"android":"levelo://app?vid=e364e167-83e0-43a0-9977-36037aa02a2b","ios":"levelo://app?vid=e364e167-83e0-43a0-9977-36037aa02a2b"},"vehicle_type_id":"4","last_reported":1741795978,"current_range_meters":2800,"station_id":"ce4bho92rcd13ifvqh4g","pricing_plan_id":"cebpf4jnsgd1na2vs0mg"},{"bike_id":"c0a4a39e-62ba-4068-a989-791f6392a505","system_id":"levelo_inurba_marseille","lat":43.246661,"lon":5.381584,"is_reserved":false,"is_disabled":false,"rental_uris":{"android":"levelo://app?vid=c0a4a39e-62ba-4068-a989-791f6392a505","ios":"levelo://app?vid=c0a4a39e-62ba-4068-a989-791f6392a505"},"vehicle_type_id":"4","last_reported":1741795978,"current_range_meters":2800,"station_id":"ce4bhih2rcd13ifvqfr0","pricing_plan_id":"cebpf4jnsgd1na2vs0mg"},{"bike_id":"e44ae402-c3cf-4135-8a67-0ee4c0631bef","system_id":"levelo_inurba_marseille","lat":43.2815,"lon":5.42626,"is_reserved":false,"is_disabled":false,"rental_uris":{"android":"levelo://app?vid=e44ae402-c3cf-4135-8a67-0ee4c0631bef","ios":"levelo://app?vid=e44ae402-c3cf-4135-8a67-0ee4c0631bef"},"vehicle_type_id":"4","last_reported":1741795978,"current_range_meters":3200,"station_id":"ce4bhnh2rcd13ifvqgug","pricing_plan_id":"cebpf4jnsgd1na2vs0mg"},{"bike_id":"4184e111-9c78-4a5b-acf6-e6023a3e17a9","system_id":"levelo_inurba_marseille","lat":43.23058,"lon":5.35488,"is_reserved":false,"is_disabled":false,"rental_uris":{"android":"levelo://app?vid=4184e111-9c78-4a5b-acf6-e6023a3e17a9","ios":"levelo://app?vid=4184e111-9c78-4a5b-acf6-e6023a3e17a9"},"vehicle_type_id":"4","last_reported":1741795978,"current_range_meters":3200,"station_id":"cpo3342slgdg3j2ifvpg","pricing_plan_id":"cebpf4jnsgd1na2vs0mg"},{"bike_id":"4c084d6f-cfb2-47a5-9650-69125ccb442e","system_id":"levelo_inurba_marseille","lat":43.26212,"lon":5.3793,"is_reserved":false,"is_disabled":false,"rental_uris":{"android":"levelo://app?vid=4c084d6f-cfb2-47a5-9650-69125ccb442e","ios":"levelo://app?vid=4c084d6f-cfb2-47a5-9650-69125ccb442e"},"vehicle_type_id":"4","last_reported":1741795978,"current_range_meters":3600,"station_id":"ce4bhjp2rcd13ifvqg90","pricing_plan_id":"cebpf4jnsgd1na2vs0mg"},{"bike_id":"9dab0290-a0ca-44b4-89f7-0052eeb50a34","system_id":"levelo_inurba_marseille","lat":43.24174,"lon":5.39735,"is_reserved":false,"is_disabled":false,"rental_uris":{"android":"levelo://app?vid=9dab0290-a0ca-44b4-89f7-0052eeb50a34","ios":"levelo://app?vid=9dab0290-a0ca-44b4-89f7-0052eeb50a34"},"vehicle_type_id":"4","last_reported":1741795978,"current_range_meters":2800,"station_id":"ce4bhn12rcd13ifvqgpg","pricing_plan_id":"cebpf4jnsgd1na2vs0mg"},{"bike_id":"2714d703-0653-4f83-9f2f-5d24f5ce775b","system_id":"levelo_inurba_marseille","lat":43.297378,"lon":5.393798,"is_reserved":false,"is_disabled":false,"rental_uris":{"android":"levelo://app?vid=2714d703-0653-4f83-9f2f-5d24f5ce775b","ios":"levelo://app?vid=2714d703-0653-4f83-9f2f-5d24f5ce775b"},"vehicle_type_id":"4","last_reported":1741795978,"current_range_meters":3600,"station_id":"","pricing_plan_id":"cebpf4jnsgd1na2vs0mg"},{"bike_id":"764ec212-0585-4ed7-8f4a-0717f8a4324a","system_id":"levelo_inurba_marseille","lat":43.29843,"lon":5.36271,"is_reserved":false,"is_disabled":false,"rental_uris":{"android":"levelo://app?vid=764ec212-0585-4ed7-8f4a-0717f8a4324a","ios":"levelo://app?vid=764ec212-0585-4ed7-8f4a-0717f8a4324a"},"vehicle_type_id":"4","last_reported":1741795978,"current_range_meters":3600,"station_id":"ce4bgpp2rcd13ifvqc3g","pricing_plan_id":"cebpf4jnsgd1na2vs0mg"},{"bike_id":"bf2feb02-4272-4476-92f9-9420844c4078","system_id":"levelo_inurba_marseille","lat":43.31207,"lon":5.37658,"is_reserved":false,"is_disabled":false,"rental_uris":{"android":"levelo://app?vid=bf2feb02-4272-4476-92f9-9420844c4078","ios":"levelo://app?vid=bf2feb02-4272-4476-92f9-9420844c4078"},"vehicle_type_id":"4","last_reported":1741795978,"current_range_meters":4000,"station_id":"","pricing_plan_id":"cebpf4jnsgd1na2vs0mg"},{"bike_id":"8d148f9c-d435-4123-bd0e-8d7ebd73846f","system_id":"levelo_inurba_marseille","lat":43.27053,"lon":5.40261,"is_reserved":false,"is_disabled":true,"rental_uris":{"android":"levelo://app?vid=8d148f9c-d435-4123-bd0e-8d7ebd73846f","ios":"levelo://app?vid=8d148f9c-d435-4123-bd0e-8d7ebd73846f"},"vehicle_type_id":"4","last_reported":1741795978,"current_range_meters":4000,"station_id":"ce4bhk92rcd13ifvqgc0","pricing_plan_id":"cebpf4jnsgd1na2vs0mg"},{"bike_id":"588f5b70-649b-40df-89af-b907b5e080f5","system_id":"levelo_inurba_marseille","lat":43.31079,"lon":5.42442,"is_reserved":false,"is_disabled":false,"rental_uris":{"android":"levelo://app?vid=588f5b70-649b-40df-89af-b907b5e080f5","ios":"levelo://app?vid=588f5b70-649b-40df-89af-b907b5e080f5"},"vehicle_type_id":"4","last_reported":1741795978,"current_range_meters":4400,"station_id":"ce4bhp92rcd13ifvqhag","pricing_plan_id":"cebpf4jnsgd1na2vs0mg"},{"bike_id":"5be62f5c-b4d5-490f-97d7-7d11c616d8af","system_id":"levelo_inurba_marseille","lat":43.23061,"lon":5.3549,"is_reserved":false,"is_disabled":false,"rental_uris":{"android":"levelo://app?vid=5be62f5c-b4d5-490f-97d7-7d11c616d8af","ios":"levelo://app?vid=5be62f5c-b4d5-490f-97d7-7d11c616d8af"},"vehicle_type_id":"4","last_reported":1741795978,"current_range_meters":4400,"station_id":"cpo3342slgdg3j2ifvpg","pricing_plan_id":"cebpf4jnsgd1na2vs0mg"},{"bike_id":"e670bd71-c88f-4ac3-ac0c-d6a26cbcd17b","system_id":"levelo_inurba_marseille","lat":43.28011,"lon":5.41704,"is_reserved":false,"is_disabled":false,"rental_uris":{"android":"levelo://app?vid=e670bd71-c88f-4ac3-ac0c-d6a26cbcd17b","ios":"levelo://app?vid=e670bd71-c88f-4ac3-ac0c-d6a26cbcd17b"},"vehicle_type_id":"4","last_reported":1741795978,"current_range_meters":4800,"station_id":"ce4bho12rcd13ifvqh1g","pricing_plan_id":"cebpf4jnsgd1na2vs0mg"},{"bike_id":"ee03fcf9-0509-462c-b001-3783ad845ca0","system_id":"levelo_inurba_marseille","lat":43.28726,"lon":5.37387,"is_reserved":false,"is_disabled":false,"rental_uris":{"android":"levelo://app?vid=ee03fcf9-0509-462c-b001-3783ad845ca0","ios":"levelo://app?vid=ee03fcf9-0509-462c-b001-3783ad845ca0"},"vehicle_type_id":"4","last_reported":1741795978,"current_range_meters":4800,"station_id":"ce4bh3p2rcd13ifvqdq0","pricing_plan_id":"cebpf4jnsgd1na2vs0mg"},{"bike_id":"45d8d7b0-29eb-4eaf-9ec9-00efd0738f1e","system_id":"levelo_inurba_marseille","lat":43.31239,"lon":5.37465,"is_reserved":false,"is_disabled":false,"rental_uris":{"android":"levelo://app?vid=45d8d7b0-29eb-4eaf-9ec9-00efd0738f1e","ios":"levelo://app?vid=45d8d7b0-29eb-4eaf-9ec9-00efd0738f1e"},"vehicle_type_id":"4","last_reported":1741795978,"current_range_meters":4800,"station_id":"","pricing_plan_id":"cebpf4jnsgd1na2vs0mg"},{"bike_id":"80771939-f406-42f7-81c5-33180fd8a338","system_id":"levelo_inurba_marseille","lat":43.23194,"lon":5.35561,"is_reserved":false,"is_disabled":false,"rental_uris":{"android":"levelo://app?vid=80771939-f406-42f7-81c5-33180fd8a338","ios":"levelo://app?vid=80771939-f406-42f7-81c5-33180fd8a338"},"vehicle_type_id":"4","last_reported":1741795978,"current_range_meters":4800,"station_id":"ce4bhu92rcd13ifvqi70","pricing_plan_id":"cebpf4jnsgd1na2vs0mg"},{"bike_id":"2a39b02c-4f6a-4f35-af2e-e9fb7ada9487","system_id":"levelo_inurba_marseille","lat":43.27945,"lon":5.4104,"is_reserved":false,"is_disabled":false,"rental_uris":{"android":"levelo://app?vid=2a39b02c-4f6a-4f35-af2e-e9fb7ada9487","ios":"levelo://app?vid=2a39b02c-4f6a-4f35-af2e-e9fb7ada9487"},"vehicle_type_id":"4","last_reported":1741795978,"current_range_meters":5600,"station_id":"ce4bhnp2rcd13ifvqh0g","pricing_plan_id":"cebpf4jnsgd1na2vs0mg"},{"bike_id":"7d4aedfe-c4d1-46e1-9530-386849f612f8","system_id":"levelo_inurba_marseille","lat":43.3057,"lon":5.42569,"is_reserved":false,"is_disabled":false,"rental_uris":{"android":"levelo://app?vid=7d4aedfe-c4d1-46e1-9530-386849f612f8","ios":"levelo://app?vid=7d4aedfe-c4d1-46e1-9530-386849f612f8"},"vehicle_type_id":"4","last_reported":1741795978,"current_range_meters":5600,"station_id":"","pricing_plan_id":"cebpf4jnsgd1na2vs0mg"},{"bike_id":"43f3c047-66a9-4c09-8371-6aa4026365c6","system_id":"levelo_inurba_marseille","lat":43.29261,"lon":5.38432,"is_reserved":false,"is_disabled":false,"rental_uris":{"android":"levelo://app?vid=43f3c047-66a9-4c09-8371-6aa4026365c6","ios":"levelo://app?vid=43f3c047-66a9-4c09-8371-6aa4026365c6"},"vehicle_type_id":"4","last_reported":1741795978,"current_range_meters":5600,"station_id":"ce4bh692rcd13ifvqea0","pricing_plan_id":"cebpf4jnsgd1na2vs0mg"},{"bike_id":"23f56e0e-618f-4bb5-9209-e10f0fe585bd","system_id":"levelo_inurba_marseille","lat":43.29159,"lon":5.37151,"is_reserved":false,"is_disabled":false,"rental_uris":{"android":"levelo://app?vid=23f56e0e-618f-4bb5-9209-e10f0fe585bd","ios":"levelo://app?vid=23f56e0e-618f-4bb5-9209-e10f0fe585bd"},"vehicle_type_id":"4","last_reported":1741795978,"current_range_meters":5600,"station_id":"ce4bha92rcd13ifvqeh0","pricing_plan_id":"cebpf4jnsgd1na2vs0mg"},{"bike_id":"32720a95-6d9e-4cb7-b289-80bd3cd93493","system_id":"levelo_inurba_marseille","lat":43.29927,"lon":5.36527,"is_reserved":false,"is_disabled":false,"rental_uris":{"android":"levelo://app?vid=32720a95-6d9e-4cb7-b289-80bd3cd93493","ios":"levelo://app?vid=32720a95-6d9e-4cb7-b289-80bd3cd93493"},"vehicle_type_id":"4","last_reported":1741795978,"current_range_meters":5600,"station_id":"ce4bgm92rcd13ifvqbr0","pricing_plan_id":"cebpf4jnsgd1na2vs0mg"},{"bike_id":"30c56a27-5994-4123-a1e7-dafa488217d4","system_id":"levelo_inurba_marseille","lat":43.32723,"lon":5.39265,"is_reserved":false,"is_disabled":false,"rental_uris":{"android":"levelo://app?vid=30c56a27-5994-4123-a1e7-dafa488217d4","ios":"levelo://app?vid=30c56a27-5994-4123-a1e7-dafa488217d4"},"vehicle_type_id":"4","last_reported":1741795978,"current_range_meters":6400,"station_id":"","pricing_plan_id":"cebpf4jnsgd1na2vs0mg"},{"bike_id":"7c25226e-9ca8-4a5f-af3f-246f6b1df853","system_id":"levelo_inurba_marseille","lat":43.23059,"lon":5.3549,"is_reserved":false,"is_disabled":false,"rental_uris":{"android":"levelo://app?vid=7c25226e-9ca8-4a5f-af3f-246f6b1df853","ios":"levelo://app?vid=7c25226e-9ca8-4a5f-af3f-246f6b1df853"},"vehicle_type_id":"4","last_reported":1741795978,"current_range_meters":6000,"station_id":"cpo3342slgdg3j2ifvpg","pricing_plan_id":"cebpf4jnsgd1na2vs0mg"},{"bike_id":"cec6458d-2bf5-4cc3-b72a-8930c855e1a8","system_id":"levelo_inurba_marseille","lat":43.31084,"lon":5.42437,"is_reserved":false,"is_disabled":false,"rental_uris":{"android":"levelo://app?vid=cec6458d-2bf5-4cc3-b72a-8930c855e1a8","ios":"levelo://app?vid=cec6458d-2bf5-4cc3-b72a-8930c855e1a8"},"vehicle_type_id":"4","last_reported":1741795978,"current_range_meters":6000,"station_id":"ce4bhp92rcd13ifvqhag","pricing_plan_id":"cebpf4jnsgd1na2vs0mg"},{"bike_id":"2df8f8c6-ce1c-4a0e-ba31-b0494999745d","system_id":"levelo_inurba_marseille","lat":43.30427,"lon":5.39747,"is_reserved":false,"is_disabled":false,"rental_uris":{"android":"levelo://app?vid=2df8f8c6-ce1c-4a0e-ba31-b0494999745d","ios":"levelo://app?vid=2df8f8c6-ce1c-4a0e-ba31-b0494999745d"},"vehicle_type_id":"4","last_reported":1741795978,"current_range_meters":6000,"station_id":"ce4bh092rcd13ifvqd20","pricing_plan_id":"cebpf4jnsgd1na2vs0mg"},{"bike_id":"b8bbcb46-f4ca-4327-b70b-0ac12ba7fbf9","system_id":"levelo_inurba_marseille","lat":43.29551,"lon":5.42272,"is_reserved":false,"is_disabled":false,"rental_uris":{"android":"levelo://app?vid=b8bbcb46-f4ca-4327-b70b-0ac12ba7fbf9","ios":"levelo://app?vid=b8bbcb46-f4ca-4327-b70b-0ac12ba7fbf9"},"vehicle_type_id":"4","last_reported":1741795978,"current_range_meters":6000,"station_id":"ce4bhph2rcd13ifvqhdg","pricing_plan_id":"cebpf4jnsgd1na2vs0mg"},{"bike_id":"4db736b9-68d3-4f2a-9431-002ce7a44183","system_id":"levelo_inurba_marseille","lat":43.23155,"lon":5.43706,"is_reserved":false,"is_disabled":false,"rental_uris":{"android":"levelo://app?vid=4db736b9-68d3-4f2a-9431-002ce7a44183","ios":"levelo://app?vid=4db736b9-68d3-4f2a-9431-002ce7a44183"},"vehicle_type_id":"4","last_reported":1741795978,"current_range_meters":6000,"station_id":"ce4bhmp2rcd13ifvqgog","pricing_plan_id":"cebpf4jnsgd1na2vs0mg"},{"bike_id":"b9680ac6-d12e-4a12-9dd8-1396db5e067b","system_id":"levelo_inurba_marseille","lat":43.23156,"lon":5.43706,"is_reserved":false,"is_disabled":false,"rental_uris":{"android":"levelo://app?vid=b9680ac6-d12e-4a12-9dd8-1396db5e067b","ios":"levelo://app?vid=b9680ac6-d12e-4a12-9dd8-1396db5e067b"},"vehicle_type_id":"4","last_reported":1741795978,"current_range_meters":6400,"station_id":"ce4bhmp2rcd13ifvqgog","pricing_plan_id":"cebpf4jnsgd1na2vs0mg"},{"bike_id":"7897ed63-4f21-4db4-b932-6ec1073d9ede","system_id":"levelo_inurba_marseille","lat":43.24997,"lon":5.38939,"is_reserved":false,"is_disabled":false,"rental_uris":{"android":"levelo://app?vid=7897ed63-4f21-4db4-b932-6ec1073d9ede","ios":"levelo://app?vid=7897ed63-4f21-4db4-b932-6ec1073d9ede"},"vehicle_type_id":"4","last_reported":1741795978,"current_range_meters":6400,"station_id":"ce4bhgp2rcd13ifvqfd0","pricing_plan_id":"cebpf4jnsgd1na2vs0mg"},{"bike_id":"42796d3b-a581-4dc5-af4d-92e4a09ea3d8","system_id":"levelo_inurba_marseille","lat":43.22923,"lon":5.35379,"is_reserved":false,"is_disabled":false,"rental_uris":{"android":"levelo://app?vid=42796d3b-a581-4dc5-af4d-92e4a09ea3d8","ios":"levelo://app?vid=42796d3b-a581-4dc5-af4d-92e4a09ea3d8"},"vehicle_type_id":"4","last_reported":1741795978,"current_range_meters":6400,"station_id":"cpo3532slgdg3j2ikp40","pricing_plan_id":"cebpf4jnsgd1na2vs0mg"},{"bike_id":"7089b3d0-9921-483a-b2cc-ac3c0edfa65f","system_id":"levelo_inurba_marseille","lat":43.26788,"lon":5.39408,"is_reserved":false,"is_disabled":false,"rental_uris":{"android":"levelo://app?vid=7089b3d0-9921-483a-b2cc-ac3c0edfa65f","ios":"levelo://app?vid=7089b3d0-9921-483a-b2cc-ac3c0edfa65f"},"vehicle_type_id":"4","last_reported":1741795978,"current_range_meters":6400,"station_id":"ce4bhh12rcd13ifvqfg0","pricing_plan_id":"cebpf4jnsgd1na2vs0mg"},{"bike_id":"6ce1f87a-24a5-42b6-8f87-a78031a19bf8","system_id":"levelo_inurba_marseille","lat":43.28506,"lon":5.38556,"is_reserved":false,"is_disabled":false,"rental_uris":{"android":"levelo://app?vid=6ce1f87a-24a5-42b6-8f87-a78031a19bf8","ios":"levelo://app?vid=6ce1f87a-24a5-42b6-8f87-a78031a19bf8"},"vehicle_type_id":"4","last_reported":1741795978,"current_range_meters":6400,"station_id":"ce4bh8p2rcd13ifvqeb0","pricing_plan_id":"cebpf4jnsgd1na2vs0mg"},{"bike_id":"1cbd732a-3aa8-4461-9365-8f3e90e44cf4","system_id":"levelo_inurba_marseille","lat":43.2707,"lon":5.42284,"is_reserved":false,"is_disabled":false,"rental_uris":{"android":"levelo://app?vid=1cbd732a-3aa8-4461-9365-8f3e90e44cf4","ios":"levelo://app?vid=1cbd732a-3aa8-4461-9365-8f3e90e44cf4"},"vehicle_type_id":"4","last_reported":1741795978,"current_range_meters":6400,"station_id":"ce4bhk92rcd13ifvqgb0","pricing_plan_id":"cebpf4jnsgd1na2vs0mg"},{"bike_id":"fab5d3a8-c10a-4e69-8360-d850cc9f0881","system_id":"levelo_inurba_marseille","lat":43.33169,"lon":5.39456,"is_reserved":false,"is_disabled":false,"rental_uris":{"android":"levelo://app?vid=fab5d3a8-c10a-4e69-8360-d850cc9f0881","ios":"levelo://app?vid=fab5d3a8-c10a-4e69-8360-d850cc9f0881"},"vehicle_type_id":"4","last_reported":1741795978,"current_range_meters":6400,"station_id":"","pricing_plan_id":"cebpf4jnsgd1na2vs0mg"},{"bike_id":"c70132ef-3937-4d43-8d24-d612e7122701","system_id":"levelo_inurba_marseille","lat":43.25871,"lon":5.39899,"is_reserved":false,"is_disabled":false,"rental_uris":{"android":"levelo://app?vid=c70132ef-3937-4d43-8d24-d612e7122701","ios":"levelo://app?vid=c70132ef-3937-4d43-8d24-d612e7122701"},"vehicle_type_id":"4","last_reported":1741795978,"current_range_meters":6400,"station_id":"ce4bhl92rcd13ifvqghg","pricing_plan_id":"cebpf4jnsgd1na2vs0mg"},{"bike_id":"f13cf83d-e6fb-46c0-bfa0-e5045e833efb","system_id":"levelo_inurba_marseille","lat":43.23191,"lon":5.35556,"is_reserved":false,"is_disabled":false,"rental_uris":{"android":"levelo://app?vid=f13cf83d-e6fb-46c0-bfa0-e5045e833efb","ios":"levelo://app?vid=f13cf83d-e6fb-46c0-bfa0-e5045e833efb"},"vehicle_type_id":"4","last_reported":1741795978,"current_range_meters":6400,"station_id":"ce4bhu92rcd13ifvqi70","pricing_plan_id":"cebpf4jnsgd1na2vs0mg"},{"bike_id":"b7ffc7dd-8857-42c4-9c78-f0efda72fa80","system_id":"levelo_inurba_marseille","lat":43.24998,"lon":5.38935,"is_reserved":false,"is_disabled":false,"rental_uris":{"android":"levelo://app?vid=b7ffc7dd-8857-42c4-9c78-f0efda72fa80","ios":"levelo://app?vid=b7ffc7dd-8857-42c4-9c78-f0efda72fa80"},"vehicle_type_id":"4","last_reported":1741795978,"current_range_meters":6400,"station_id":"ce4bhgp2rcd13ifvqfd0","pricing_plan_id":"cebpf4jnsgd1na2vs0mg"},{"bike_id":"58d1b5b3-d322-4418-97d0-3066ec3d9afc","system_id":"levelo_inurba_marseille","lat":43.232,"lon":5.35549,"is_reserved":false,"is_disabled":false,"rental_uris":{"android":"levelo://app?vid=58d1b5b3-d322-4418-97d0-3066ec3d9afc","ios":"levelo://app?vid=58d1b5b3-d322-4418-97d0-3066ec3d9afc"},"vehicle_type_id":"4","last_reported":1741795978,"current_range_meters":6400,"station_id":"ce4bhu92rcd13ifvqi70","pricing_plan_id":"cebpf4jnsgd1na2vs0mg"},{"bike_id":"00559a84-bfdd-4a60-a5de-01556800e8d9","system_id":"levelo_inurba_marseille","lat":43.24181,"lon":5.39737,"is_reserved":false,"is_disabled":false,"rental_uris":{"android":"levelo://app?vid=00559a84-bfdd-4a60-a5de-01556800e8d9","ios":"levelo://app?vid=00559a84-bfdd-4a60-a5de-01556800e8d9"},"vehicle_type_id":"4","last_reported":1741795978,"current_range_meters":6800,"station_id":"ce4bhn12rcd13ifvqgpg","pricing_plan_id":"cebpf4jnsgd1na2vs0mg"},{"bike_id":"9fa4d2f8-4304-4e6a-8973-23af4dec5eb0","system_id":"levelo_inurba_marseille","lat":43.29425,"lon":5.3862,"is_reserved":false,"is_disabled":false,"rental_uris":{"android":"levelo://app?vid=9fa4d2f8-4304-4e6a-8973-23af4dec5eb0","ios":"levelo://app?vid=9fa4d2f8-4304-4e6a-8973-23af4dec5eb0"},"vehicle_type_id":"4","last_reported":1741795978,"current_range_meters":6800,"station_id":"ce4bh2h2rcd13ifvqdh0","pricing_plan_id":"cebpf4jnsgd1na2vs0mg"},{"bike_id":"f640465e-8c9e-425a-8e36-08d8d5201bf6","system_id":"levelo_inurba_marseille","lat":43.23189,"lon":5.35551,"is_reserved":false,"is_disabled":false,"rental_uris":{"android":"levelo://app?vid=f640465e-8c9e-425a-8e36-08d8d5201bf6","ios":"levelo://app?vid=f640465e-8c9e-425a-8e36-08d8d5201bf6"},"vehicle_type_id":"4","last_reported":1741795978,"current_range_meters":6800,"station_id":"ce4bhu92rcd13ifvqi70","pricing_plan_id":"cebpf4jnsgd1na2vs0mg"},{"bike_id":"5eef5338-ff8a-466a-999e-0f162b00ff22","system_id":"levelo_inurba_marseille","lat":43.24546,"lon":5.3953,"is_reserved":false,"is_disabled":false,"rental_uris":{"android":"levelo://app?vid=5eef5338-ff8a-466a-999e-0f162b00ff22","ios":"levelo://app?vid=5eef5338-ff8a-466a-999e-0f162b00ff22"},"vehicle_type_id":"4","last_reported":1741795978,"current_range_meters":6800,"station_id":"ce4bhlp2rcd13ifvqgjg","pricing_plan_id":"cebpf4jnsgd1na2vs0mg"},{"bike_id":"40a3c76c-cab4-4d36-a550-6db81ab2e241","system_id":"levelo_inurba_marseille","lat":43.29218,"lon":5.36053,"is_reserved":false,"is_disabled":false,"rental_uris":{"android":"levelo://app?vid=40a3c76c-cab4-4d36-a550-6db81ab2e241","ios":"levelo://app?vid=40a3c76c-cab4-4d36-a550-6db81ab2e241"},"vehicle_type_id":"4","last_reported":1741795978,"current_range_meters":6800,"station_id":"ce4bhbh2rcd13ifvqeqg","pricing_plan_id":"cebpf4jnsgd1na2vs0mg"},{"bike_id":"76953c23-bb57-4da4-8686-4ad243be5bd7","system_id":"levelo_inurba_marseille","lat":43.29935,"lon":5.3746,"is_reserved":false,"is_disabled":false,"rental_uris":{"android":"levelo://app?vid=76953c23-bb57-4da4-8686-4ad243be5bd7","ios":"levelo://app?vid=76953c23-bb57-4da4-8686-4ad243be5bd7"},"vehicle_type_id":"4","last_reported":1741795978,"current_range_meters":6800,"station_id":"ce4bgjh2rcd13ifvqbg0","pricing_plan_id":"cebpf4jnsgd1na2vs0mg"},{"bike_id":"0926659c-0ab0-4853-bd68-28e5262f8fe0","system_id":"levelo_inurba_marseille","lat":43.2694,"lon":5.40253,"is_reserved":false,"is_disabled":false,"rental_uris":{"android":"levelo://app?vid=0926659c-0ab0-4853-bd68-28e5262f8fe0","ios":"levelo://app?vid=0926659c-0ab0-4853-bd68-28e5262f8fe0"},"vehicle_type_id":"4","last_reported":1741795978,"current_range_meters":7200,"station_id":"","pricing_plan_id":"cebpf4jnsgd1na2vs0mg"},{"bike_id":"0413bf20-894d-4a93-a797-b6134ae0d72f","system_id":"levelo_inurba_marseille","lat":43.32983,"lon":5.39032,"is_reserved":false,"is_disabled":false,"rental_uris":{"android":"levelo://app?vid=0413bf20-894d-4a93-a797-b6134ae0d72f","ios":"levelo://app?vid=0413bf20-894d-4a93-a797-b6134ae0d72f"},"vehicle_type_id":"4","last_reported":1741795978,"current_range_meters":7200,"station_id":"ce4bhr92rcd13ifvqhrg","pricing_plan_id":"cebpf4jnsgd1na2vs0mg"},{"bike_id":"b84584ef-f56c-4f11-85be-74be4f089773","system_id":"levelo_inurba_marseille","lat":43.289287,"lon":5.36391,"is_reserved":false,"is_disabled":false,"rental_uris":{"android":"levelo://app?vid=b84584ef-f56c-4f11-85be-74be4f089773","ios":"levelo://app?vid=b84584ef-f56c-4f11-85be-74be4f089773"},"vehicle_type_id":"4","last_reported":1741795978,"current_range_meters":7200,"station_id":"ce4bhc92rcd13ifvqetg","pricing_plan_id":"cebpf4jnsgd1na2vs0mg"},{"bike_id":"04cb5a92-19cb-4b74-a506-c14136b3d454","system_id":"levelo_inurba_marseille","lat":43.307274,"lon":5.381189,"is_reserved":false,"is_disabled":false,"rental_uris":{"android":"levelo://app?vid=04cb5a92-19cb-4b74-a506-c14136b3d454","ios":"levelo://app?vid=04cb5a92-19cb-4b74-a506-c14136b3d454"},"vehicle_type_id":"4","last_reported":1741795978,"current_range_meters":7200,"station_id":"ce4bgt12rcd13ifvqce0","pricing_plan_id":"cebpf4jnsgd1na2vs0mg"},{"bike_id":"241d79a7-8164-4ee5-8d3f-2565e2e0b3e8","system_id":"levelo_inurba_marseille","lat":43.31372,"lon":5.37974,"is_reserved":false,"is_disabled":false,"rental_uris":{"android":"levelo://app?vid=241d79a7-8164-4ee5-8d3f-2565e2e0b3e8","ios":"levelo://app?vid=241d79a7-8164-4ee5-8d3f-2565e2e0b3e8"},"vehicle_type_id":"4","last_reported":1741795978,"current_range_meters":7200,"station_id":"","pricing_plan_id":"cebpf4jnsgd1na2vs0mg"},{"bike_id":"8dd79aea-40cd-4b14-bd62-24eb98ee883f","system_id":"levelo_inurba_marseille","lat":43.26396,"lon":5.40144,"is_reserved":false,"is_disabled":false,"rental_uris":{"android":"levelo://app?vid=8dd79aea-40cd-4b14-bd62-24eb98ee883f","ios":"levelo://app?vid=8dd79aea-40cd-4b14-bd62-24eb98ee883f"},"vehicle_type_id":"4","last_reported":1741795978,"current_range_meters":7200,"station_id":"","pricing_plan_id":"cebpf4jnsgd1na2vs0mg"},{"bike_id":"1bb5dae5-2cdb-43ae-b04c-dad911982ded","system_id":"levelo_inurba_marseille","lat":43.25112,"lon":5.40321,"is_reserved":false,"is_disabled":false,"rental_uris":{"android":"levelo://app?vid=1bb5dae5-2cdb-43ae-b04c-dad911982ded","ios":"levelo://app?vid=1bb5dae5-2cdb-43ae-b04c-dad911982ded"},"vehicle_type_id":"4","last_reported":1741795978,"current_range_meters":7200,"station_id":"ce4bhlh2rcd13ifvqgig","pricing_plan_id":"cebpf4jnsgd1na2vs0mg"},{"bike_id":"548caab8-1d2c-4b84-963b-f8217af52e80","system_id":"levelo_inurba_marseille","lat":43.29025,"lon":5.37551,"is_reserved":false,"is_disabled":true,"rental_uris":{"android":"levelo://app?vid=548caab8-1d2c-4b84-963b-f8217af52e80","ios":"levelo://app?vid=548caab8-1d2c-4b84-963b-f8217af52e80"},"vehicle_type_id":"4","last_reported":1741795978,"current_range_meters":7200,"station_id":"ce4bh692rcd13ifvqe90","pricing_plan_id":"cebpf4jnsgd1na2vs0mg"},{"bike_id":"95c4f609-4057-4688-9b5c-93c1039e1099","system_id":"levelo_inurba_marseille","lat":43.24546,"lon":5.3952,"is_reserved":false,"is_disabled":false,"rental_uris":{"android":"levelo://app?vid=95c4f609-4057-4688-9b5c-93c1039e1099","ios":"levelo://app?vid=95c4f609-4057-4688-9b5c-93c1039e1099"},"vehicle_type_id":"4","last_reported":1741795978,"current_range_meters":7200,"station_id":"ce4bhlp2rcd13ifvqgjg","pricing_plan_id":"cebpf4jnsgd1na2vs0mg"},{"bike_id":"fb34a484-872c-43ca-87c3-e65731015eb0","system_id":"levelo_inurba_marseille","lat":43.27174,"lon":5.40989,"is_reserved":false,"is_disabled":false,"rental_uris":{"android":"levelo://app?vid=fb34a484-872c-43ca-87c3-e65731015eb0","ios":"levelo://app?vid=fb34a484-872c-43ca-87c3-e65731015eb0"},"vehicle_type_id":"4","last_reported":1741795978,"current_range_meters":8000,"station_id":"ce4bhl12rcd13ifvqgf0","pricing_plan_id":"cebpf4jnsgd1na2vs0mg"},{"bike_id":"415e7a31-245d-4ead-9f33-dad092a04302","system_id":"levelo_inurba_marseille","lat":43.23076,"lon":5.35482,"is_reserved":false,"is_disabled":false,"rental_uris":{"android":"levelo://app?vid=415e7a31-245d-4ead-9f33-dad092a04302","ios":"levelo://app?vid=415e7a31-245d-4ead-9f33-dad092a04302"},"vehicle_type_id":"4","last_reported":1741795978,"current_range_meters":8000,"station_id":"cpo3342slgdg3j2ifvpg","pricing_plan_id":"cebpf4jnsgd1na2vs0mg"},{"bike_id":"342fe152-e107-4685-9291-67e296fd2ea8","system_id":"levelo_inurba_marseille","lat":43.28939,"lon":5.36642,"is_reserved":false,"is_disabled":false,"rental_uris":{"android":"levelo://app?vid=342fe152-e107-4685-9291-67e296fd2ea8","ios":"levelo://app?vid=342fe152-e107-4685-9291-67e296fd2ea8"},"vehicle_type_id":"4","last_reported":1741795978,"current_range_meters":8000,"station_id":"ce4bhap2rcd13ifvqek0","pricing_plan_id":"cebpf4jnsgd1na2vs0mg"},{"bike_id":"3e197442-d3f6-4f97-9213-63358cdb2a0a","system_id":"levelo_inurba_marseille","lat":43.29848,"lon":5.36286,"is_reserved":false,"is_disabled":false,"rental_uris":{"android":"levelo://app?vid=3e197442-d3f6-4f97-9213-63358cdb2a0a","ios":"levelo://app?vid=3e197442-d3f6-4f97-9213-63358cdb2a0a"},"vehicle_type_id":"4","last_reported":1741795978,"current_range_meters":8000,"station_id":"ce4bgpp2rcd13ifvqc3g","pricing_plan_id":"cebpf4jnsgd1na2vs0mg"},{"bike_id":"80160602-9be5-4bff-ab04-8eb5a2c2a942","system_id":"levelo_inurba_marseille","lat":43.25865,"lon":5.39894,"is_reserved":false,"is_disabled":false,"rental_uris":{"android":"levelo://app?vid=80160602-9be5-4bff-ab04-8eb5a2c2a942","ios":"levelo://app?vid=80160602-9be5-4bff-ab04-8eb5a2c2a942"},"vehicle_type_id":"4","last_reported":1741795978,"current_range_meters":8000,"station_id":"ce4bhl92rcd13ifvqghg","pricing_plan_id":"cebpf4jnsgd1na2vs0mg"},{"bike_id":"50273356-a01a-40cd-8285-3b230fac28c3","system_id":"levelo_inurba_marseille","lat":43.26498,"lon":5.39531,"is_reserved":false,"is_disabled":false,"rental_uris":{"android":"levelo://app?vid=50273356-a01a-40cd-8285-3b230fac28c3","ios":"levelo://app?vid=50273356-a01a-40cd-8285-3b230fac28c3"},"vehicle_type_id":"4","last_reported":1741795978,"current_range_meters":8000,"station_id":"ce4bhi12rcd13ifvqfq0","pricing_plan_id":"cebpf4jnsgd1na2vs0mg"},{"bike_id":"05388ace-665a-4114-a828-939b708a2589","system_id":"levelo_inurba_marseille","lat":43.231832,"lon":5.399839,"is_reserved":false,"is_disabled":false,"rental_uris":{"android":"levelo://app?vid=05388ace-665a-4114-a828-939b708a2589","ios":"levelo://app?vid=05388ace-665a-4114-a828-939b708a2589"},"vehicle_type_id":"4","last_reported":1741795978,"current_range_meters":8000,"station_id":"ce4bhn12rcd13ifvqgqg","pricing_plan_id":"cebpf4jnsgd1na2vs0mg"},{"bike_id":"e12be538-6dde-4604-98c7-f66a323a5270","system_id":"levelo_inurba_marseille","lat":43.23063,"lon":5.35488,"is_reserved":false,"is_disabled":false,"rental_uris":{"android":"levelo://app?vid=e12be538-6dde-4604-98c7-f66a323a5270","ios":"levelo://app?vid=e12be538-6dde-4604-98c7-f66a323a5270"},"vehicle_type_id":"4","last_reported":1741795978,"current_range_meters":8000,"station_id":"cpo3342slgdg3j2ifvpg","pricing_plan_id":"cebpf4jnsgd1na2vs0mg"},{"bike_id":"57e37cca-bdc7-4218-826b-7149e78c606a","system_id":"levelo_inurba_marseille","lat":43.231542,"lon":5.436989,"is_reserved":false,"is_disabled":false,"rental_uris":{"android":"levelo://app?vid=57e37cca-bdc7-4218-826b-7149e78c606a","ios":"levelo://app?vid=57e37cca-bdc7-4218-826b-7149e78c606a"},"vehicle_type_id":"4","last_reported":1741795978,"current_range_meters":8000,"station_id":"ce4bhmp2rcd13ifvqgog","pricing_plan_id":"cebpf4jnsgd1na2vs0mg"},{"bike_id":"feb4b9df-ca5a-441d-8892-405597e7da99","system_id":"levelo_inurba_marseille","lat":43.23062,"lon":5.355,"is_reserved":false,"is_disabled":false,"rental_uris":{"android":"levelo://app?vid=feb4b9df-ca5a-441d-8892-405597e7da99","ios":"levelo://app?vid=feb4b9df-ca5a-441d-8892-405597e7da99"},"vehicle_type_id":"4","last_reported":1741795978,"current_range_meters":8000,"station_id":"cpo3342slgdg3j2ifvpg","pricing_plan_id":"cebpf4jnsgd1na2vs0mg"},{"bike_id":"de719615-1669-4913-98a4-33ed7cc256ac","system_id":"levelo_inurba_marseille","lat":43.24993,"lon":5.3894,"is_reserved":false,"is_disabled":false,"rental_uris":{"android":"levelo://app?vid=de719615-1669-4913-98a4-33ed7cc256ac","ios":"levelo://app?vid=de719615-1669-4913-98a4-33ed7cc256ac"},"vehicle_type_id":"4","last_reported":1741795978,"current_range_meters":8400,"station_id":"ce4bhgp2rcd13ifvqfd0","pricing_plan_id":"cebpf4jnsgd1na2vs0mg"},{"bike_id":"a2fb9b1f-2a10-4935-8371-813d12db0d87","system_id":"levelo_inurba_marseille","lat":43.30425,"lon":5.41279,"is_reserved":false,"is_disabled":false,"rental_uris":{"android":"levelo://app?vid=a2fb9b1f-2a10-4935-8371-813d12db0d87","ios":"levelo://app?vid=a2fb9b1f-2a10-4935-8371-813d12db0d87"},"vehicle_type_id":"4","last_reported":1741795978,"current_range_meters":8400,"station_id":"ce4bhop2rcd13ifvqh8g","pricing_plan_id":"cebpf4jnsgd1na2vs0mg"},{"bike_id":"72de4c85-7223-490f-9219-5d9d46436df5","system_id":"levelo_inurba_marseille","lat":43.33176,"lon":5.39454,"is_reserved":false,"is_disabled":false,"rental_uris":{"android":"levelo://app?vid=72de4c85-7223-490f-9219-5d9d46436df5","ios":"levelo://app?vid=72de4c85-7223-490f-9219-5d9d46436df5"},"vehicle_type_id":"4","last_reported":1741795978,"current_range_meters":8400,"station_id":"","pricing_plan_id":"cebpf4jnsgd1na2vs0mg"},{"bike_id":"86f9f19c-681c-4714-b59d-f5798e2ac606","system_id":"levelo_inurba_marseille","lat":43.27175,"lon":5.41,"is_reserved":false,"is_disabled":false,"rental_uris":{"android":"levelo://app?vid=86f9f19c-681c-4714-b59d-f5798e2ac606","ios":"levelo://app?vid=86f9f19c-681c-4714-b59d-f5798e2ac606"},"vehicle_type_id":"4","last_reported":1741795978,"current_range_meters":8400,"station_id":"ce4bhl12rcd13ifvqgf0","pricing_plan_id":"cebpf4jnsgd1na2vs0mg"},{"bike_id":"ee3470b0-a6a9-4f94-b140-463e351648db","system_id":"levelo_inurba_marseille","lat":43.24655,"lon":5.38893,"is_reserved":false,"is_disabled":false,"rental_uris":{"android":"levelo://app?vid=ee3470b0-a6a9-4f94-b140-463e351648db","ios":"levelo://app?vid=ee3470b0-a6a9-4f94-b140-463e351648db"},"vehicle_type_id":"4","last_reported":1741795978,"current_range_meters":8400,"station_id":"ce4bhg12rcd13ifvqf60","pricing_plan_id":"cebpf4jnsgd1na2vs0mg"},{"bike_id":"25cd44d5-e781-4e4c-afa6-8055c91f765b","system_id":"levelo_inurba_marseille","lat":43.267914,"lon":5.394082,"is_reserved":false,"is_disabled":false,"rental_uris":{"android":"levelo://app?vid=25cd44d5-e781-4e4c-afa6-8055c91f765b","ios":"levelo://app?vid=25cd44d5-e781-4e4c-afa6-8055c91f765b"},"vehicle_type_id":"4","last_reported":1741795978,"current_range_meters":8400,"station_id":"cjm6bp8fraef2m0cb0m0","pricing_plan_id":"cebpf4jnsgd1na2vs0mg"},{"bike_id":"c1883f69-20d3-4090-b7ad-cadabe4aa4fd","system_id":"levelo_inurba_marseille","lat":43.25865,"lon":5.39892,"is_reserved":false,"is_disabled":false,"rental_uris":{"android":"levelo://app?vid=c1883f69-20d3-4090-b7ad-cadabe4aa4fd","ios":"levelo://app?vid=c1883f69-20d3-4090-b7ad-cadabe4aa4fd"},"vehicle_type_id":"4","last_reported":1741795978,"current_range_meters":8400,"station_id":"ce4bhl92rcd13ifvqghg","pricing_plan_id":"cebpf4jnsgd1na2vs0mg"},{"bike_id":"d31a9b9e-c671-4c10-bfe3-fe674b86365e","system_id":"levelo_inurba_marseille","lat":43.31491,"lon":5.37297,"is_reserved":false,"is_disabled":false,"rental_uris":{"android":"levelo://app?vid=d31a9b9e-c671-4c10-bfe3-fe674b86365e","ios":"levelo://app?vid=d31a9b9e-c671-4c10-bfe3-fe674b86365e"},"vehicle_type_id":"4","last_reported":1741795978,"current_range_meters":8800,"station_id":"ce4bgt12rcd13ifvqcd0","pricing_plan_id":"cebpf4jnsgd1na2vs0mg"},{"bike_id":"97dedcc4-732f-4f19-8d54-997819cc44eb","system_id":"levelo_inurba_marseille","lat":43.22925,"lon":5.35387,"is_reserved":false,"is_disabled":false,"rental_uris":{"android":"levelo://app?vid=97dedcc4-732f-4f19-8d54-997819cc44eb","ios":"levelo://app?vid=97dedcc4-732f-4f19-8d54-997819cc44eb"},"vehicle_type_id":"4","last_reported":1741795978,"current_range_meters":8800,"station_id":"cpo3532slgdg3j2ikp40","pricing_plan_id":"cebpf4jnsgd1na2vs0mg"},{"bike_id":"ba18639b-98cc-4ab3-ad63-4ac259cc4916","system_id":"levelo_inurba_marseille","lat":43.23964,"lon":5.36629,"is_reserved":false,"is_disabled":false,"rental_uris":{"android":"levelo://app?vid=ba18639b-98cc-4ab3-ad63-4ac259cc4916","ios":"levelo://app?vid=ba18639b-98cc-4ab3-ad63-4ac259cc4916"},"vehicle_type_id":"4","last_reported":1741795978,"current_range_meters":8800,"station_id":"ce4bhi12rcd13ifvqfp0","pricing_plan_id":"cebpf4jnsgd1na2vs0mg"},{"bike_id":"82512acd-d4a4-4e69-ad68-d5bb4078ae7a","system_id":"levelo_inurba_marseille","lat":43.23965,"lon":5.36635,"is_reserved":false,"is_disabled":false,"rental_uris":{"android":"levelo://app?vid=82512acd-d4a4-4e69-ad68-d5bb4078ae7a","ios":"levelo://app?vid=82512acd-d4a4-4e69-ad68-d5bb4078ae7a"},"vehicle_type_id":"4","last_reported":1741795978,"current_range_meters":8800,"station_id":"ce4bhi12rcd13ifvqfp0","pricing_plan_id":"cebpf4jnsgd1na2vs0mg"},{"bike_id":"72ff2415-7ba5-4806-8cc2-d3bdcf8d6623","system_id":"levelo_inurba_marseille","lat":43.30308,"lon":5.36897,"is_reserved":false,"is_disabled":false,"rental_uris":{"android":"levelo://app?vid=72ff2415-7ba5-4806-8cc2-d3bdcf8d6623","ios":"levelo://app?vid=72ff2415-7ba5-4806-8cc2-d3bdcf8d6623"},"vehicle_type_id":"4","last_reported":1741795978,"current_range_meters":8800,"station_id":"ce4bgqh2rcd13ifvqc5g","pricing_plan_id":"cebpf4jnsgd1na2vs0mg"},{"bike_id":"042faffe-66ba-435d-a70d-4b14bb0bdcf0","system_id":"levelo_inurba_marseille","lat":43.29167,"lon":5.3718,"is_reserved":false,"is_disabled":false,"rental_uris":{"android":"levelo://app?vid=042faffe-66ba-435d-a70d-4b14bb0bdcf0","ios":"levelo://app?vid=042faffe-66ba-435d-a70d-4b14bb0bdcf0"},"vehicle_type_id":"4","last_reported":1741795978,"current_range_meters":8800,"station_id":"ce4bha92rcd13ifvqeh0","pricing_plan_id":"cebpf4jnsgd1na2vs0mg"},{"bike_id":"2931d81f-abb3-45b8-9224-dc3fce2fae31","system_id":"levelo_inurba_marseille","lat":43.32363,"lon":5.36753,"is_reserved":false,"is_disabled":false,"rental_uris":{"android":"levelo://app?vid=2931d81f-abb3-45b8-9224-dc3fce2fae31","ios":"levelo://app?vid=2931d81f-abb3-45b8-9224-dc3fce2fae31"},"vehicle_type_id":"4","last_reported":1741795978,"current_range_meters":8800,"station_id":"ce4bhsh2rcd13ifvqi2g","pricing_plan_id":"cebpf4jnsgd1na2vs0mg"},{"bike_id":"bc9903e0-49cc-49f6-ae4e-94f166a0a060","system_id":"levelo_inurba_marseille","lat":43.25937,"lon":5.40891,"is_reserved":false,"is_disabled":false,"rental_uris":{"android":"levelo://app?vid=bc9903e0-49cc-49f6-ae4e-94f166a0a060","ios":"levelo://app?vid=bc9903e0-49cc-49f6-ae4e-94f166a0a060"},"vehicle_type_id":"4","last_reported":1741795978,"current_range_meters":8800,"station_id":"ce4bhm92rcd13ifvqglg","pricing_plan_id":"cebpf4jnsgd1na2vs0mg"},{"bike_id":"ff15c491-400c-44a9-aa58-b428f737c569","system_id":"levelo_inurba_marseille","lat":43.33023,"lon":5.39047,"is_reserved":false,"is_disabled":false,"rental_uris":{"android":"levelo://app?vid=ff15c491-400c-44a9-aa58-b428f737c569","ios":"levelo://app?vid=ff15c491-400c-44a9-aa58-b428f737c569"},"vehicle_type_id":"4","last_reported":1741795978,"current_range_meters":8800,"station_id":"ce4bhr92rcd13ifvqhrg","pricing_plan_id":"cebpf4jnsgd1na2vs0mg"},{"bike_id":"e29b0772-24f4-4607-8008-50f439c231a5","system_id":"levelo_inurba_marseille","lat":43.30417,"lon":5.4128,"is_reserved":false,"is_disabled":false,"rental_uris":{"android":"levelo://app?vid=e29b0772-24f4-4607-8008-50f439c231a5","ios":"levelo://app?vid=e29b0772-24f4-4607-8008-50f439c231a5"},"vehicle_type_id":"4","last_reported":1741795978,"current_range_meters":9200,"station_id":"ce4bhop2rcd13ifvqh8g","pricing_plan_id":"cebpf4jnsgd1na2vs0mg"},{"bike_id":"385dd9cb-1d33-48e9-8250-88818c623a92","system_id":"levelo_inurba_marseille","lat":43.2606,"lon":5.39391,"is_reserved":false,"is_disabled":false,"rental_uris":{"android":"levelo://app?vid=385dd9cb-1d33-48e9-8250-88818c623a92","ios":"levelo://app?vid=385dd9cb-1d33-48e9-8250-88818c623a92"},"vehicle_type_id":"4","last_reported":1741795978,"current_range_meters":9200,"station_id":"ce4bhh92rcd13ifvqfj0","pricing_plan_id":"cebpf4jnsgd1na2vs0mg"},{"bike_id":"8dee66dd-a753-4e90-9df0-a75f60b0d66f","system_id":"levelo_inurba_marseille","lat":43.285742,"lon":5.424834,"is_reserved":false,"is_disabled":false,"rental_uris":{"android":"levelo://app?vid=8dee66dd-a753-4e90-9df0-a75f60b0d66f","ios":"levelo://app?vid=8dee66dd-a753-4e90-9df0-a75f60b0d66f"},"vehicle_type_id":"4","last_reported":1741795978,"current_range_meters":9200,"station_id":"","pricing_plan_id":"cebpf4jnsgd1na2vs0mg"},{"bike_id":"03fcef79-f017-4d15-a10d-891c5cd96db2","system_id":"levelo_inurba_marseille","lat":43.23062,"lon":5.35508,"is_reserved":false,"is_disabled":false,"rental_uris":{"android":"levelo://app?vid=03fcef79-f017-4d15-a10d-891c5cd96db2","ios":"levelo://app?vid=03fcef79-f017-4d15-a10d-891c5cd96db2"},"vehicle_type_id":"4","last_reported":1741795978,"current_range_meters":9200,"station_id":"cpo3342slgdg3j2ifvpg","pricing_plan_id":"cebpf4jnsgd1na2vs0mg"},{"bike_id":"f829a819-671e-4b71-9c22-56c5f8047725","system_id":"levelo_inurba_marseille","lat":43.32356,"lon":5.36776,"is_reserved":false,"is_disabled":false,"rental_uris":{"android":"levelo://app?vid=f829a819-671e-4b71-9c22-56c5f8047725","ios":"levelo://app?vid=f829a819-671e-4b71-9c22-56c5f8047725"},"vehicle_type_id":"4","last_reported":1741795978,"current_range_meters":9200,"station_id":"ce4bhsh2rcd13ifvqi2g","pricing_plan_id":"cebpf4jnsgd1na2vs0mg"},{"bike_id":"7cbb2e87-d8b2-4086-a2f6-9382883aa7e4","system_id":"levelo_inurba_marseille","lat":43.27067,"lon":5.42282,"is_reserved":false,"is_disabled":false,"rental_uris":{"android":"levelo://app?vid=7cbb2e87-d8b2-4086-a2f6-9382883aa7e4","ios":"levelo://app?vid=7cbb2e87-d8b2-4086-a2f6-9382883aa7e4"},"vehicle_type_id":"4","last_reported":1741795978,"current_range_meters":9200,"station_id":"ce4bhk92rcd13ifvqgb0","pricing_plan_id":"cebpf4jnsgd1na2vs0mg"},{"bike_id":"f076f6f7-e4b4-48be-92db-c2ec27c500f6","system_id":"levelo_inurba_marseille","lat":43.23198,"lon":5.39989,"is_reserved":false,"is_disabled":false,"rental_uris":{"android":"levelo://app?vid=f076f6f7-e4b4-48be-92db-c2ec27c500f6","ios":"levelo://app?vid=f076f6f7-e4b4-48be-92db-c2ec27c500f6"},"vehicle_type_id":"4","last_reported":1741795978,"current_range_meters":9600,"station_id":"ce4bhn12rcd13ifvqgqg","pricing_plan_id":"cebpf4jnsgd1na2vs0mg"},{"bike_id":"179f642e-f17c-42b6-8e57-70bb9919f3ff","system_id":"levelo_inurba_marseille","lat":43.30274,"lon":5.39194,"is_reserved":false,"is_disabled":false,"rental_uris":{"android":"levelo://app?vid=179f642e-f17c-42b6-8e57-70bb9919f3ff","ios":"levelo://app?vid=179f642e-f17c-42b6-8e57-70bb9919f3ff"},"vehicle_type_id":"4","last_reported":1741795978,"current_range_meters":9600,"station_id":"ce4bgkh2rcd13ifvqbk0","pricing_plan_id":"cebpf4jnsgd1na2vs0mg"},{"bike_id":"d8fc7225-0157-4f46-bfde-5e8a21a4823b","system_id":"levelo_inurba_marseille","lat":43.25842,"lon":5.39421,"is_reserved":false,"is_disabled":false,"rental_uris":{"android":"levelo://app?vid=d8fc7225-0157-4f46-bfde-5e8a21a4823b","ios":"levelo://app?vid=d8fc7225-0157-4f46-bfde-5e8a21a4823b"},"vehicle_type_id":"4","last_reported":1741795978,"current_range_meters":9600,"station_id":"ce4bhip2rcd13ifvqft0","pricing_plan_id":"cebpf4jnsgd1na2vs0mg"},{"bike_id":"fde8e75a-a47a-4a6d-a024-fa097cbf60ee","system_id":"levelo_inurba_marseille","lat":43.31075,"lon":5.383584,"is_reserved":false,"is_disabled":false,"rental_uris":{"android":"levelo://app?vid=fde8e75a-a47a-4a6d-a024-fa097cbf60ee","ios":"levelo://app?vid=fde8e75a-a47a-4a6d-a024-fa097cbf60ee"},"vehicle_type_id":"4","last_reported":1741795978,"current_range_meters":9600,"station_id":"ce4bgv92rcd13ifvqcr0","pricing_plan_id":"cebpf4jnsgd1na2vs0mg"},{"bike_id":"f4aa298c-1c60-4636-b5b5-ecef8d720220","system_id":"levelo_inurba_marseille","lat":43.29903,"lon":5.38137,"is_reserved":false,"is_disabled":false,"rental_uris":{"android":"levelo://app?vid=f4aa298c-1c60-4636-b5b5-ecef8d720220","ios":"levelo://app?vid=f4aa298c-1c60-4636-b5b5-ecef8d720220"},"vehicle_type_id":"4","last_reported":1741795978,"current_range_meters":9600,"station_id":"ce4bgj12rcd13ifvqbc0","pricing_plan_id":"cebpf4jnsgd1na2vs0mg"},{"bike_id":"832aac20-fbb3-42c6-bc77-7604f8d1ac3b","system_id":"levelo_inurba_marseille","lat":43.29532,"lon":5.39035,"is_reserved":false,"is_disabled":false,"rental_uris":{"android":"levelo://app?vid=832aac20-fbb3-42c6-bc77-7604f8d1ac3b","ios":"levelo://app?vid=832aac20-fbb3-42c6-bc77-7604f8d1ac3b"},"vehicle_type_id":"4","last_reported":1741795978,"current_range_meters":9600,"station_id":"ce4bh3p2rcd13ifvqdp0","pricing_plan_id":"cebpf4jnsgd1na2vs0mg"},{"bike_id":"ebcd70c6-eb93-44d4-90c3-54c9dd3bc4cd","system_id":"levelo_inurba_marseille","lat":43.26558,"lon":5.37282,"is_reserved":false,"is_disabled":false,"rental_uris":{"android":"levelo://app?vid=ebcd70c6-eb93-44d4-90c3-54c9dd3bc4cd","ios":"levelo://app?vid=ebcd70c6-eb93-44d4-90c3-54c9dd3bc4cd"},"vehicle_type_id":"4","last_reported":1741795978,"current_range_meters":9600,"station_id":"ce4bhg12rcd13ifvqf70","pricing_plan_id":"cebpf4jnsgd1na2vs0mg"},{"bike_id":"5b392424-90dc-4064-a3e8-e2da2799acba","system_id":"levelo_inurba_marseille","lat":43.25726,"lon":5.41107,"is_reserved":false,"is_disabled":false,"rental_uris":{"android":"levelo://app?vid=5b392424-90dc-4064-a3e8-e2da2799acba","ios":"levelo://app?vid=5b392424-90dc-4064-a3e8-e2da2799acba"},"vehicle_type_id":"4","last_reported":1741795978,"current_range_meters":9600,"station_id":"ce4bhkp2rcd13ifvqgd0","pricing_plan_id":"cebpf4jnsgd1na2vs0mg"},{"bike_id":"c073e638-662f-468c-9025-ece0e6983273","system_id":"levelo_inurba_marseille","lat":43.30533,"lon":5.36688,"is_reserved":false,"is_disabled":false,"rental_uris":{"android":"levelo://app?vid=c073e638-662f-468c-9025-ece0e6983273","ios":"levelo://app?vid=c073e638-662f-468c-9025-ece0e6983273"},"vehicle_type_id":"4","last_reported":1741795978,"current_range_meters":9600,"station_id":"ce4bgrp2rcd13ifvqc9g","pricing_plan_id":"cebpf4jnsgd1na2vs0mg"},{"bike_id":"abd01563-25ee-495a-a95b-891dbf0a92ef","system_id":"levelo_inurba_marseille","lat":43.25006,"lon":5.38944,"is_reserved":false,"is_disabled":false,"rental_uris":{"android":"levelo://app?vid=abd01563-25ee-495a-a95b-891dbf0a92ef","ios":"levelo://app?vid=abd01563-25ee-495a-a95b-891dbf0a92ef"},"vehicle_type_id":"4","last_reported":1741795978,"current_range_meters":9600,"station_id":"ce4bhgp2rcd13ifvqfd0","pricing_plan_id":"cebpf4jnsgd1na2vs0mg"},{"bike_id":"a4ce6389-69c8-41eb-a2cb-27e113df5153","system_id":"levelo_inurba_marseille","lat":43.28612,"lon":5.35105,"is_reserved":false,"is_disabled":false,"rental_uris":{"android":"levelo://app?vid=a4ce6389-69c8-41eb-a2cb-27e113df5153","ios":"levelo://app?vid=a4ce6389-69c8-41eb-a2cb-27e113df5153"},"vehicle_type_id":"4","last_reported":1741795978,"current_range_meters":10000,"station_id":"ce4bhch2rcd13ifvqeug","pricing_plan_id":"cebpf4jnsgd1na2vs0mg"},{"bike_id":"31e1c3f3-cfa6-4416-8cfa-4f5d65e65fe1","system_id":"levelo_inurba_marseille","lat":43.257244,"lon":5.411201,"is_reserved":false,"is_disabled":false,"rental_uris":{"android":"levelo://app?vid=31e1c3f3-cfa6-4416-8cfa-4f5d65e65fe1","ios":"levelo://app?vid=31e1c3f3-cfa6-4416-8cfa-4f5d65e65fe1"},"vehicle_type_id":"4","last_reported":1741795978,"current_range_meters":10000,"station_id":"ce4bhkp2rcd13ifvqgd0","pricing_plan_id":"cebpf4jnsgd1na2vs0mg"},{"bike_id":"28ddcdf4-024a-4f42-80ff-fb3bac3f5f61","system_id":"levelo_inurba_marseille","lat":43.24163,"lon":5.36399,"is_reserved":false,"is_disabled":false,"rental_uris":{"android":"levelo://app?vid=28ddcdf4-024a-4f42-80ff-fb3bac3f5f61","ios":"levelo://app?vid=28ddcdf4-024a-4f42-80ff-fb3bac3f5f61"},"vehicle_type_id":"4","last_reported":1741795978,"current_range_meters":10000,"station_id":"cpo36qri1sfpv3e86is0","pricing_plan_id":"cebpf4jnsgd1na2vs0mg"},{"bike_id":"5dff7e4b-00a4-4649-9663-d77c949847a1","system_id":"levelo_inurba_marseille","lat":43.24187,"lon":5.36394,"is_reserved":false,"is_disabled":false,"rental_uris":{"android":"levelo://app?vid=5dff7e4b-00a4-4649-9663-d77c949847a1","ios":"levelo://app?vid=5dff7e4b-00a4-4649-9663-d77c949847a1"},"vehicle_type_id":"4","last_reported":1741795978,"current_range_meters":10000,"station_id":"cpo36qri1sfpv3e86is0","pricing_plan_id":"cebpf4jnsgd1na2vs0mg"},{"bike_id":"ec5d08ce-934d-49b5-9a73-c20b44942d11","system_id":"levelo_inurba_marseille","lat":43.31421,"lon":5.37569,"is_reserved":false,"is_disabled":false,"rental_uris":{"android":"levelo://app?vid=ec5d08ce-934d-49b5-9a73-c20b44942d11","ios":"levelo://app?vid=ec5d08ce-934d-49b5-9a73-c20b44942d11"},"vehicle_type_id":"4","last_reported":1741795978,"current_range_meters":10000,"station_id":"","pricing_plan_id":"cebpf4jnsgd1na2vs0mg"},{"bike_id":"cb5cc7e3-4eae-4600-afc3-2232d1569580","system_id":"levelo_inurba_marseille","lat":43.29629,"lon":5.37168,"is_reserved":false,"is_disabled":false,"rental_uris":{"android":"levelo://app?vid=cb5cc7e3-4eae-4600-afc3-2232d1569580","ios":"levelo://app?vid=cb5cc7e3-4eae-4600-afc3-2232d1569580"},"vehicle_type_id":"4","last_reported":1741795978,"current_range_meters":10000,"station_id":"ce4bgnh2rcd13ifvqc0g","pricing_plan_id":"cebpf4jnsgd1na2vs0mg"},{"bike_id":"2d16443d-ed2e-4c48-af94-4deffe2479f1","system_id":"levelo_inurba_marseille","lat":43.24998,"lon":5.38946,"is_reserved":false,"is_disabled":false,"rental_uris":{"android":"levelo://app?vid=2d16443d-ed2e-4c48-af94-4deffe2479f1","ios":"levelo://app?vid=2d16443d-ed2e-4c48-af94-4deffe2479f1"},"vehicle_type_id":"4","last_reported":1741795978,"current_range_meters":10000,"station_id":"ce4bhgp2rcd13ifvqfd0","pricing_plan_id":"cebpf4jnsgd1na2vs0mg"},{"bike_id":"6190eac7-4d69-4aee-8885-569caf678aef","system_id":"levelo_inurba_marseille","lat":43.25712,"lon":5.4114,"is_reserved":false,"is_disabled":false,"rental_uris":{"android":"levelo://app?vid=6190eac7-4d69-4aee-8885-569caf678aef","ios":"levelo://app?vid=6190eac7-4d69-4aee-8885-569caf678aef"},"vehicle_type_id":"4","last_reported":1741795978,"current_range_meters":10000,"station_id":"ce4bhkp2rcd13ifvqgd0","pricing_plan_id":"cebpf4jnsgd1na2vs0mg"},{"bike_id":"ae96c602-d548-4bb1-9ee2-ca7a906de40a","system_id":"levelo_inurba_marseille","lat":43.25503,"lon":5.37647,"is_reserved":false,"is_disabled":false,"rental_uris":{"android":"levelo://app?vid=ae96c602-d548-4bb1-9ee2-ca7a906de40a","ios":"levelo://app?vid=ae96c602-d548-4bb1-9ee2-ca7a906de40a"},"vehicle_type_id":"4","last_reported":1741795978,"current_range_meters":10000,"station_id":"ce4bhh12rcd13ifvqff0","pricing_plan_id":"cebpf4jnsgd1na2vs0mg"},{"bike_id":"12d8c0d4-6abc-4053-9c8c-690abca02735","system_id":"levelo_inurba_marseille","lat":43.31226,"lon":5.37466,"is_reserved":false,"is_disabled":false,"rental_uris":{"android":"levelo://app?vid=12d8c0d4-6abc-4053-9c8c-690abca02735","ios":"levelo://app?vid=12d8c0d4-6abc-4053-9c8c-690abca02735"},"vehicle_type_id":"4","last_reported":1741795978,"current_range_meters":10000,"station_id":"","pricing_plan_id":"cebpf4jnsgd1na2vs0mg"},{"bike_id":"0739cc2e-3e4a-4594-b43a-2555ba6a1ec0","system_id":"levelo_inurba_marseille","lat":43.28415,"lon":5.34994,"is_reserved":false,"is_disabled":false,"rental_uris":{"android":"levelo://app?vid=0739cc2e-3e4a-4594-b43a-2555ba6a1ec0","ios":"levelo://app?vid=0739cc2e-3e4a-4594-b43a-2555ba6a1ec0"},"vehicle_type_id":"4","last_reported":1741795978,"current_range_meters":10000,"station_id":"ce4bhbh2rcd13ifvqepg","pricing_plan_id":"cebpf4jnsgd1na2vs0mg"},{"bike_id":"4e9b9a54-e9c2-436a-a933-fc8f6b426dce","system_id":"levelo_inurba_marseille","lat":43.29617,"lon":5.37728,"is_reserved":false,"is_disabled":false,"rental_uris":{"android":"levelo://app?vid=4e9b9a54-e9c2-436a-a933-fc8f6b426dce","ios":"levelo://app?vid=4e9b9a54-e9c2-436a-a933-fc8f6b426dce"},"vehicle_type_id":"4","last_reported":1741795978,"current_range_meters":10000,"station_id":"ce4bgi92rcd13ifvqb90","pricing_plan_id":"cebpf4jnsgd1na2vs0mg"},{"bike_id":"0a995a9a-6122-4f4b-b298-a8b06cbca7e2","system_id":"levelo_inurba_marseille","lat":43.25007,"lon":5.38922,"is_reserved":false,"is_disabled":false,"rental_uris":{"android":"levelo://app?vid=0a995a9a-6122-4f4b-b298-a8b06cbca7e2","ios":"levelo://app?vid=0a995a9a-6122-4f4b-b298-a8b06cbca7e2"},"vehicle_type_id":"4","last_reported":1741795978,"current_range_meters":10800,"station_id":"ce4bhgp2rcd13ifvqfd0","pricing_plan_id":"cebpf4jnsgd1na2vs0mg"},{"bike_id":"e25fb51a-0fe2-41fc-9d5c-c78fbdc71a0e","system_id":"levelo_inurba_marseille","lat":43.30578,"lon":5.39353,"is_reserved":false,"is_disabled":false,"rental_uris":{"android":"levelo://app?vid=e25fb51a-0fe2-41fc-9d5c-c78fbdc71a0e","ios":"levelo://app?vid=e25fb51a-0fe2-41fc-9d5c-c78fbdc71a0e"},"vehicle_type_id":"4","last_reported":1741795978,"current_range_meters":10800,"station_id":"ce4bh0p2rcd13ifvqd80","pricing_plan_id":"cebpf4jnsgd1na2vs0mg"},{"bike_id":"3e862979-ba8d-4ed4-b151-d4fa6756f20c","system_id":"levelo_inurba_marseille","lat":43.33026,"lon":5.39046,"is_reserved":false,"is_disabled":false,"rental_uris":{"android":"levelo://app?vid=3e862979-ba8d-4ed4-b151-d4fa6756f20c","ios":"levelo://app?vid=3e862979-ba8d-4ed4-b151-d4fa6756f20c"},"vehicle_type_id":"4","last_reported":1741795978,"current_range_meters":10800,"station_id":"ce4bhr92rcd13ifvqhrg","pricing_plan_id":"cebpf4jnsgd1na2vs0mg"},{"bike_id":"fa7cbca1-85b3-4296-b8d7-b151db577a79","system_id":"levelo_inurba_marseille","lat":43.29567,"lon":5.39966,"is_reserved":false,"is_disabled":false,"rental_uris":{"android":"levelo://app?vid=fa7cbca1-85b3-4296-b8d7-b151db577a79","ios":"levelo://app?vid=fa7cbca1-85b3-4296-b8d7-b151db577a79"},"vehicle_type_id":"4","last_reported":1741795978,"current_range_meters":10800,"station_id":"ce4bh312rcd13ifvqdj0","pricing_plan_id":"cebpf4jnsgd1na2vs0mg"},{"bike_id":"cc6ebeed-ae29-4c07-b8bb-3c548dc394c4","system_id":"levelo_inurba_marseille","lat":43.30429,"lon":5.39744,"is_reserved":false,"is_disabled":false,"rental_uris":{"android":"levelo://app?vid=cc6ebeed-ae29-4c07-b8bb-3c548dc394c4","ios":"levelo://app?vid=cc6ebeed-ae29-4c07-b8bb-3c548dc394c4"},"vehicle_type_id":"4","last_reported":1741795978,"current_range_meters":10800,"station_id":"ce4bh092rcd13ifvqd20","pricing_plan_id":"cebpf4jnsgd1na2vs0mg"},{"bike_id":"c7c1ce4e-10c5-4182-880f-870117bc6814","system_id":"levelo_inurba_marseille","lat":43.32537,"lon":5.4143,"is_reserved":false,"is_disabled":false,"rental_uris":{"android":"levelo://app?vid=c7c1ce4e-10c5-4182-880f-870117bc6814","ios":"levelo://app?vid=c7c1ce4e-10c5-4182-880f-870117bc6814"},"vehicle_type_id":"4","last_reported":1741795978,"current_range_meters":10800,"station_id":"ce4bhq12rcd13ifvqhhg","pricing_plan_id":"cebpf4jnsgd1na2vs0mg"},{"bike_id":"e67bbbae-363e-4adc-bbf1-7fdd1fa7c42d","system_id":"levelo_inurba_marseille","lat":43.28422,"lon":5.34989,"is_reserved":false,"is_disabled":false,"rental_uris":{"android":"levelo://app?vid=e67bbbae-363e-4adc-bbf1-7fdd1fa7c42d","ios":"levelo://app?vid=e67bbbae-363e-4adc-bbf1-7fdd1fa7c42d"},"vehicle_type_id":"4","last_reported":1741795978,"current_range_meters":10800,"station_id":"ce4bhbh2rcd13ifvqepg","pricing_plan_id":"cebpf4jnsgd1na2vs0mg"},{"bike_id":"52b371ae-be21-4386-980c-2c67e6647e65","system_id":"levelo_inurba_marseille","lat":43.31052,"lon":5.38342,"is_reserved":false,"is_disabled":false,"rental_uris":{"android":"levelo://app?vid=52b371ae-be21-4386-980c-2c67e6647e65","ios":"levelo://app?vid=52b371ae-be21-4386-980c-2c67e6647e65"},"vehicle_type_id":"4","last_reported":1741795978,"current_range_meters":10800,"station_id":"ce4bgv92rcd13ifvqcr0","pricing_plan_id":"cebpf4jnsgd1na2vs0mg"},{"bike_id":"9d12a25d-8a2c-4449-87ad-e17d1c6f58d4","system_id":"levelo_inurba_marseille","lat":43.28283,"lon":5.35063,"is_reserved":false,"is_disabled":false,"rental_uris":{"android":"levelo://app?vid=9d12a25d-8a2c-4449-87ad-e17d1c6f58d4","ios":"levelo://app?vid=9d12a25d-8a2c-4449-87ad-e17d1c6f58d4"},"vehicle_type_id":"4","last_reported":1741795978,"current_range_meters":10800,"station_id":"ce4bhbp2rcd13ifvqerg","pricing_plan_id":"cebpf4jnsgd1na2vs0mg"},{"bike_id":"67305aaf-5ce6-4353-b485-5778878ab348","system_id":"levelo_inurba_marseille","lat":43.29417,"lon":5.38622,"is_reserved":false,"is_disabled":false,"rental_uris":{"android":"levelo://app?vid=67305aaf-5ce6-4353-b485-5778878ab348","ios":"levelo://app?vid=67305aaf-5ce6-4353-b485-5778878ab348"},"vehicle_type_id":"4","last_reported":1741795978,"current_range_meters":10800,"station_id":"ce4bh2h2rcd13ifvqdh0","pricing_plan_id":"cebpf4jnsgd1na2vs0mg"},{"bike_id":"f82b5a4a-3803-4ccc-a27e-93c32c4ac78b","system_id":"levelo_inurba_marseille","lat":43.30421,"lon":5.41288,"is_reserved":false,"is_disabled":false,"rental_uris":{"android":"levelo://app?vid=f82b5a4a-3803-4ccc-a27e-93c32c4ac78b","ios":"levelo://app?vid=f82b5a4a-3803-4ccc-a27e-93c32c4ac78b"},"vehicle_type_id":"4","last_reported":1741795978,"current_range_meters":10800,"station_id":"ce4bhop2rcd13ifvqh8g","pricing_plan_id":"cebpf4jnsgd1na2vs0mg"},{"bike_id":"8c25ebae-476e-46e9-b505-692058b7ab14","system_id":"levelo_inurba_marseille","lat":43.29566,"lon":5.42271,"is_reserved":false,"is_disabled":false,"rental_uris":{"android":"levelo://app?vid=8c25ebae-476e-46e9-b505-692058b7ab14","ios":"levelo://app?vid=8c25ebae-476e-46e9-b505-692058b7ab14"},"vehicle_type_id":"4","last_reported":1741795978,"current_range_meters":11200,"station_id":"ce4bhph2rcd13ifvqhdg","pricing_plan_id":"cebpf4jnsgd1na2vs0mg"},{"bike_id":"9f25a6ad-433a-45b0-a0d0-4a619d769e26","system_id":"levelo_inurba_marseille","lat":43.23186,"lon":5.35562,"is_reserved":false,"is_disabled":false,"rental_uris":{"android":"levelo://app?vid=9f25a6ad-433a-45b0-a0d0-4a619d769e26","ios":"levelo://app?vid=9f25a6ad-433a-45b0-a0d0-4a619d769e26"},"vehicle_type_id":"4","last_reported":1741795978,"current_range_meters":11200,"station_id":"ce4bhu92rcd13ifvqi70","pricing_plan_id":"cebpf4jnsgd1na2vs0mg"},{"bike_id":"507e3463-dd06-42e0-a398-b90d09c5b213","system_id":"levelo_inurba_marseille","lat":43.29552,"lon":5.38537,"is_reserved":false,"is_disabled":false,"rental_uris":{"android":"levelo://app?vid=507e3463-dd06-42e0-a398-b90d09c5b213","ios":"levelo://app?vid=507e3463-dd06-42e0-a398-b90d09c5b213"},"vehicle_type_id":"4","last_reported":1741795978,"current_range_meters":11200,"station_id":"ce4bgih2rcd13ifvqba0","pricing_plan_id":"cebpf4jnsgd1na2vs0mg"},{"bike_id":"6dbc9b4a-c5a1-4dbf-a00f-5bb7462d2694","system_id":"levelo_inurba_marseille","lat":43.2819,"lon":5.39857,"is_reserved":false,"is_disabled":false,"rental_uris":{"android":"levelo://app?vid=6dbc9b4a-c5a1-4dbf-a00f-5bb7462d2694","ios":"levelo://app?vid=6dbc9b4a-c5a1-4dbf-a00f-5bb7462d2694"},"vehicle_type_id":"4","last_reported":1741795978,"current_range_meters":11200,"station_id":"","pricing_plan_id":"cebpf4jnsgd1na2vs0mg"},{"bike_id":"6c83aba9-eb1e-4e35-add9-1ed6c49a74fd","system_id":"levelo_inurba_marseille","lat":43.27993,"lon":5.4166,"is_reserved":false,"is_disabled":false,"rental_uris":{"android":"levelo://app?vid=6c83aba9-eb1e-4e35-add9-1ed6c49a74fd","ios":"levelo://app?vid=6c83aba9-eb1e-4e35-add9-1ed6c49a74fd"},"vehicle_type_id":"4","last_reported":1741795978,"current_range_meters":11200,"station_id":"ce4bho12rcd13ifvqh1g","pricing_plan_id":"cebpf4jnsgd1na2vs0mg"},{"bike_id":"3baf227d-0be9-4b96-8721-684a3fb14c35","system_id":"levelo_inurba_marseille","lat":43.31826,"lon":5.37342,"is_reserved":false,"is_disabled":false,"rental_uris":{"android":"levelo://app?vid=3baf227d-0be9-4b96-8721-684a3fb14c35","ios":"levelo://app?vid=3baf227d-0be9-4b96-8721-684a3fb14c35"},"vehicle_type_id":"4","last_reported":1741795978,"current_range_meters":11600,"station_id":"","pricing_plan_id":"cebpf4jnsgd1na2vs0mg"},{"bike_id":"5532e8ad-52fb-40d1-ab6d-81989a08e5cb","system_id":"levelo_inurba_marseille","lat":43.29844,"lon":5.36271,"is_reserved":false,"is_disabled":false,"rental_uris":{"android":"levelo://app?vid=5532e8ad-52fb-40d1-ab6d-81989a08e5cb","ios":"levelo://app?vid=5532e8ad-52fb-40d1-ab6d-81989a08e5cb"},"vehicle_type_id":"4","last_reported":1741795978,"current_range_meters":11600,"station_id":"ce4bgpp2rcd13ifvqc3g","pricing_plan_id":"cebpf4jnsgd1na2vs0mg"},{"bike_id":"aeef0a0c-781e-49f9-bacf-1e0e2d31d8bf","system_id":"levelo_inurba_marseille","lat":43.30433,"lon":5.38877,"is_reserved":false,"is_disabled":false,"rental_uris":{"android":"levelo://app?vid=aeef0a0c-781e-49f9-bacf-1e0e2d31d8bf","ios":"levelo://app?vid=aeef0a0c-781e-49f9-bacf-1e0e2d31d8bf"},"vehicle_type_id":"4","last_reported":1741795978,"current_range_meters":12000,"station_id":"ce4bgk12rcd13ifvqbi0","pricing_plan_id":"cebpf4jnsgd1na2vs0mg"},{"bike_id":"c2fdc035-3896-46f1-aee2-5294a5907071","system_id":"levelo_inurba_marseille","lat":43.25001,"lon":5.38935,"is_reserved":false,"is_disabled":false,"rental_uris":{"android":"levelo://app?vid=c2fdc035-3896-46f1-aee2-5294a5907071","ios":"levelo://app?vid=c2fdc035-3896-46f1-aee2-5294a5907071"},"vehicle_type_id":"4","last_reported":1741795978,"current_range_meters":12000,"station_id":"ce4bhgp2rcd13ifvqfd0","pricing_plan_id":"cebpf4jnsgd1na2vs0mg"},{"bike_id":"aa55bc76-7e20-47bd-9f08-5d2c5c2b9b4e","system_id":"levelo_inurba_marseille","lat":43.254618,"lon":5.375686,"is_reserved":false,"is_disabled":false,"rental_uris":{"android":"levelo://app?vid=aa55bc76-7e20-47bd-9f08-5d2c5c2b9b4e","ios":"levelo://app?vid=aa55bc76-7e20-47bd-9f08-5d2c5c2b9b4e"},"vehicle_type_id":"4","last_reported":1741795978,"current_range_meters":12400,"station_id":"ce4bhh12rcd13ifvqff0","pricing_plan_id":"cebpf4jnsgd1na2vs0mg"},{"bike_id":"9c9b4fe2-0c24-4e47-8858-2d4973e49f79","system_id":"levelo_inurba_marseille","lat":43.27562,"lon":5.38423,"is_reserved":false,"is_disabled":false,"rental_uris":{"android":"levelo://app?vid=9c9b4fe2-0c24-4e47-8858-2d4973e49f79","ios":"levelo://app?vid=9c9b4fe2-0c24-4e47-8858-2d4973e49f79"},"vehicle_type_id":"4","last_reported":1741795978,"current_range_meters":12400,"station_id":"ce4bhh92rcd13ifvqfi0","pricing_plan_id":"cebpf4jnsgd1na2vs0mg"},{"bike_id":"32df9b81-f861-4cf0-9a99-521f2caf084a","system_id":"levelo_inurba_marseille","lat":43.27361,"lon":5.36238,"is_reserved":false,"is_disabled":false,"rental_uris":{"android":"levelo://app?vid=32df9b81-f861-4cf0-9a99-521f2caf084a","ios":"levelo://app?vid=32df9b81-f861-4cf0-9a99-521f2caf084a"},"vehicle_type_id":"4","last_reported":1741795978,"current_range_meters":12400,"station_id":"ce4bhbh2rcd13ifvqeo0","pricing_plan_id":"cebpf4jnsgd1na2vs0mg"},{"bike_id":"793e2b8f-8e5f-491c-8083-9326cf25553e","system_id":"levelo_inurba_marseille","lat":43.28608,"lon":5.37061,"is_reserved":false,"is_disabled":false,"rental_uris":{"android":"levelo://app?vid=793e2b8f-8e5f-491c-8083-9326cf25553e","ios":"levelo://app?vid=793e2b8f-8e5f-491c-8083-9326cf25553e"},"vehicle_type_id":"4","last_reported":1741795978,"current_range_meters":12400,"station_id":"ce4bht12rcd13ifvqi60","pricing_plan_id":"cebpf4jnsgd1na2vs0mg"},{"bike_id":"25ec04d1-4319-400e-9b95-b0666d8c6edd","system_id":"levelo_inurba_marseille","lat":43.29426,"lon":5.38638,"is_reserved":false,"is_disabled":false,"rental_uris":{"android":"levelo://app?vid=25ec04d1-4319-400e-9b95-b0666d8c6edd","ios":"levelo://app?vid=25ec04d1-4319-400e-9b95-b0666d8c6edd"},"vehicle_type_id":"4","last_reported":1741795978,"current_range_meters":12800,"station_id":"ce4bh2h2rcd13ifvqdh0","pricing_plan_id":"cebpf4jnsgd1na2vs0mg"},{"bike_id":"4ad9c640-704f-4648-a12d-b5105947d193","system_id":"levelo_inurba_marseille","lat":43.278133,"lon":5.40709,"is_reserved":false,"is_disabled":false,"rental_uris":{"android":"levelo://app?vid=4ad9c640-704f-4648-a12d-b5105947d193","ios":"levelo://app?vid=4ad9c640-704f-4648-a12d-b5105947d193"},"vehicle_type_id":"4","last_reported":1741795978,"current_range_meters":12800,"station_id":"ce4bhnh2rcd13ifvqgtg","pricing_plan_id":"cebpf4jnsgd1na2vs0mg"},{"bike_id":"8378e8fd-bddb-446a-9926-41c0f87aaafe","system_id":"levelo_inurba_marseille","lat":43.3021,"lon":5.39468,"is_reserved":false,"is_disabled":false,"rental_uris":{"android":"levelo://app?vid=8378e8fd-bddb-446a-9926-41c0f87aaafe","ios":"levelo://app?vid=8378e8fd-bddb-446a-9926-41c0f87aaafe"},"vehicle_type_id":"4","last_reported":1741795978,"current_range_meters":12400,"station_id":"ce4bh0p2rcd13ifvqd70","pricing_plan_id":"cebpf4jnsgd1na2vs0mg"},{"bike_id":"a5fd1343-7a4c-4d99-aee0-1d3588f4552f","system_id":"levelo_inurba_marseille","lat":43.30299,"lon":5.39206,"is_reserved":false,"is_disabled":false,"rental_uris":{"android":"levelo://app?vid=a5fd1343-7a4c-4d99-aee0-1d3588f4552f","ios":"levelo://app?vid=a5fd1343-7a4c-4d99-aee0-1d3588f4552f"},"vehicle_type_id":"4","last_reported":1741795978,"current_range_meters":12800,"station_id":"ce4bgkh2rcd13ifvqbk0","pricing_plan_id":"cebpf4jnsgd1na2vs0mg"},{"bike_id":"4c607265-c996-4d9b-81fd-daa80dd99e32","system_id":"levelo_inurba_marseille","lat":43.287603,"lon":5.38426,"is_reserved":false,"is_disabled":false,"rental_uris":{"android":"levelo://app?vid=4c607265-c996-4d9b-81fd-daa80dd99e32","ios":"levelo://app?vid=4c607265-c996-4d9b-81fd-daa80dd99e32"},"vehicle_type_id":"4","last_reported":1741795978,"current_range_meters":12800,"station_id":"","pricing_plan_id":"cebpf4jnsgd1na2vs0mg"},{"bike_id":"79397302-4916-493d-9bc0-e5035ae3c476","system_id":"levelo_inurba_marseille","lat":43.22934,"lon":5.3537,"is_reserved":false,"is_disabled":false,"rental_uris":{"android":"levelo://app?vid=79397302-4916-493d-9bc0-e5035ae3c476","ios":"levelo://app?vid=79397302-4916-493d-9bc0-e5035ae3c476"},"vehicle_type_id":"4","last_reported":1741795978,"current_range_meters":12800,"station_id":"cpo3532slgdg3j2ikp40","pricing_plan_id":"cebpf4jnsgd1na2vs0mg"},{"bike_id":"c8f5a7aa-328f-49c1-a785-9624fa888d07","system_id":"levelo_inurba_marseille","lat":43.25002,"lon":5.38922,"is_reserved":false,"is_disabled":false,"rental_uris":{"android":"levelo://app?vid=c8f5a7aa-328f-49c1-a785-9624fa888d07","ios":"levelo://app?vid=c8f5a7aa-328f-49c1-a785-9624fa888d07"},"vehicle_type_id":"4","last_reported":1741795978,"current_range_meters":12800,"station_id":"ce4bhgp2rcd13ifvqfd0","pricing_plan_id":"cebpf4jnsgd1na2vs0mg"},{"bike_id":"97b0a471-c4a1-4ab2-be82-f61eb79d5a01","system_id":"levelo_inurba_marseille","lat":43.30484,"lon":5.39882,"is_reserved":false,"is_disabled":false,"rental_uris":{"android":"levelo://app?vid=97b0a471-c4a1-4ab2-be82-f61eb79d5a01","ios":"levelo://app?vid=97b0a471-c4a1-4ab2-be82-f61eb79d5a01"},"vehicle_type_id":"4","last_reported":1741795978,"current_range_meters":12800,"station_id":"ce4bh112rcd13ifvqda0","pricing_plan_id":"cebpf4jnsgd1na2vs0mg"},{"bike_id":"a3d9d04c-bd6c-4a45-a72a-3a94bf640b19","system_id":"levelo_inurba_marseille","lat":43.27941,"lon":5.41043,"is_reserved":false,"is_disabled":false,"rental_uris":{"android":"levelo://app?vid=a3d9d04c-bd6c-4a45-a72a-3a94bf640b19","ios":"levelo://app?vid=a3d9d04c-bd6c-4a45-a72a-3a94bf640b19"},"vehicle_type_id":"4","last_reported":1741795978,"current_range_meters":13600,"station_id":"ce4bhnp2rcd13ifvqh0g","pricing_plan_id":"cebpf4jnsgd1na2vs0mg"},{"bike_id":"3f828aee-4de0-4a25-a4e4-6457fb81e40e","system_id":"levelo_inurba_marseille","lat":43.31056,"lon":5.38346,"is_reserved":false,"is_disabled":false,"rental_uris":{"android":"levelo://app?vid=3f828aee-4de0-4a25-a4e4-6457fb81e40e","ios":"levelo://app?vid=3f828aee-4de0-4a25-a4e4-6457fb81e40e"},"vehicle_type_id":"4","last_reported":1741795978,"current_range_meters":13600,"station_id":"ce4bgv92rcd13ifvqcr0","pricing_plan_id":"cebpf4jnsgd1na2vs0mg"},{"bike_id":"0669f55e-e6b3-4d3e-ad5c-e2cc8b3e1c66","system_id":"levelo_inurba_marseille","lat":43.30258,"lon":5.4008,"is_reserved":false,"is_disabled":false,"rental_uris":{"android":"levelo://app?vid=0669f55e-e6b3-4d3e-ad5c-e2cc8b3e1c66","ios":"levelo://app?vid=0669f55e-e6b3-4d3e-ad5c-e2cc8b3e1c66"},"vehicle_type_id":"4","last_reported":1741795978,"current_range_meters":12800,"station_id":"ce4bgvh2rcd13ifvqcs0","pricing_plan_id":"cebpf4jnsgd1na2vs0mg"},{"bike_id":"04b6b0f6-d318-40e6-a023-347d481d621c","system_id":"levelo_inurba_marseille","lat":43.29193,"lon":5.37558,"is_reserved":false,"is_disabled":false,"rental_uris":{"android":"levelo://app?vid=04b6b0f6-d318-40e6-a023-347d481d621c","ios":"levelo://app?vid=04b6b0f6-d318-40e6-a023-347d481d621c"},"vehicle_type_id":"4","last_reported":1741795978,"current_range_meters":14000,"station_id":"","pricing_plan_id":"cebpf4jnsgd1na2vs0mg"},{"bike_id":"2c2da8a9-e5a7-4468-beac-1effb750afa3","system_id":"levelo_inurba_marseille","lat":43.30094,"lon":5.39101,"is_reserved":false,"is_disabled":false,"rental_uris":{"android":"levelo://app?vid=2c2da8a9-e5a7-4468-beac-1effb750afa3","ios":"levelo://app?vid=2c2da8a9-e5a7-4468-beac-1effb750afa3"},"vehicle_type_id":"4","last_reported":1741795978,"current_range_meters":13600,"station_id":"ce4bh192rcd13ifvqdb0","pricing_plan_id":"cebpf4jnsgd1na2vs0mg"},{"bike_id":"559d880c-413b-4bec-b478-ce00f72287ce","system_id":"levelo_inurba_marseille","lat":43.31709,"lon":5.37755,"is_reserved":false,"is_disabled":false,"rental_uris":{"android":"levelo://app?vid=559d880c-413b-4bec-b478-ce00f72287ce","ios":"levelo://app?vid=559d880c-413b-4bec-b478-ce00f72287ce"},"vehicle_type_id":"4","last_reported":1741795978,"current_range_meters":14000,"station_id":"ce4bgth2rcd13ifvqch0","pricing_plan_id":"cebpf4jnsgd1na2vs0mg"},{"bike_id":"86fc146c-4af9-49a2-9b65-b6b8fa03c722","system_id":"levelo_inurba_marseille","lat":43.29201,"lon":5.39321,"is_reserved":false,"is_disabled":false,"rental_uris":{"android":"levelo://app?vid=86fc146c-4af9-49a2-9b65-b6b8fa03c722","ios":"levelo://app?vid=86fc146c-4af9-49a2-9b65-b6b8fa03c722"},"vehicle_type_id":"4","last_reported":1741795978,"current_range_meters":14000,"station_id":"ce4bh192rcd13ifvqdd0","pricing_plan_id":"cebpf4jnsgd1na2vs0mg"},{"bike_id":"b46d745f-7cb5-476f-84e7-faf3abccb54e","system_id":"levelo_inurba_marseille","lat":43.31535,"lon":5.38036,"is_reserved":false,"is_disabled":false,"rental_uris":{"android":"levelo://app?vid=b46d745f-7cb5-476f-84e7-faf3abccb54e","ios":"levelo://app?vid=b46d745f-7cb5-476f-84e7-faf3abccb54e"},"vehicle_type_id":"4","last_reported":1741795978,"current_range_meters":14000,"station_id":"ce4bhsp2rcd13ifvqi50","pricing_plan_id":"cebpf4jnsgd1na2vs0mg"},{"bike_id":"f396b878-13c5-4ad3-87aa-e14b45ee2bac","system_id":"levelo_inurba_marseille","lat":43.30857,"lon":5.36668,"is_reserved":false,"is_disabled":false,"rental_uris":{"android":"levelo://app?vid=f396b878-13c5-4ad3-87aa-e14b45ee2bac","ios":"levelo://app?vid=f396b878-13c5-4ad3-87aa-e14b45ee2bac"},"vehicle_type_id":"4","last_reported":1741795978,"current_range_meters":14400,"station_id":"","pricing_plan_id":"cebpf4jnsgd1na2vs0mg"},{"bike_id":"c32eb91c-0d61-4af3-8b86-ea1d03823ab1","system_id":"levelo_inurba_marseille","lat":43.28451,"lon":5.35896,"is_reserved":false,"is_disabled":false,"rental_uris":{"android":"levelo://app?vid=c32eb91c-0d61-4af3-8b86-ea1d03823ab1","ios":"levelo://app?vid=c32eb91c-0d61-4af3-8b86-ea1d03823ab1"},"vehicle_type_id":"4","last_reported":1741795978,"current_range_meters":14000,"station_id":"ce4bhah2rcd13ifvqei0","pricing_plan_id":"cebpf4jnsgd1na2vs0mg"},{"bike_id":"d6ae45cc-0604-4c3a-a3f5-e416fc598532","system_id":"levelo_inurba_marseille","lat":43.29927,"lon":5.37469,"is_reserved":false,"is_disabled":false,"rental_uris":{"android":"levelo://app?vid=d6ae45cc-0604-4c3a-a3f5-e416fc598532","ios":"levelo://app?vid=d6ae45cc-0604-4c3a-a3f5-e416fc598532"},"vehicle_type_id":"4","last_reported":1741795978,"current_range_meters":14400,"station_id":"ce4bgjh2rcd13ifvqbg0","pricing_plan_id":"cebpf4jnsgd1na2vs0mg"},{"bike_id":"2738320e-a422-47df-9c51-1588d0339812","system_id":"levelo_inurba_marseille","lat":43.31093,"lon":5.38352,"is_reserved":false,"is_disabled":false,"rental_uris":{"android":"levelo://app?vid=2738320e-a422-47df-9c51-1588d0339812","ios":"levelo://app?vid=2738320e-a422-47df-9c51-1588d0339812"},"vehicle_type_id":"4","last_reported":1741795978,"current_range_meters":14400,"station_id":"ce4bgv92rcd13ifvqcr0","pricing_plan_id":"cebpf4jnsgd1na2vs0mg"},{"bike_id":"6df1e7f3-12c0-481c-9941-2246e17807ca","system_id":"levelo_inurba_marseille","lat":43.28499,"lon":5.36808,"is_reserved":false,"is_disabled":true,"rental_uris":{"android":"levelo://app?vid=6df1e7f3-12c0-481c-9941-2246e17807ca","ios":"levelo://app?vid=6df1e7f3-12c0-481c-9941-2246e17807ca"},"vehicle_type_id":"4","last_reported":1741795978,"current_range_meters":14400,"station_id":"","pricing_plan_id":"cebpf4jnsgd1na2vs0mg"},{"bike_id":"a2c5104b-ec86-4074-b199-137a7da1cfa9","system_id":"levelo_inurba_marseille","lat":43.29978,"lon":5.38492,"is_reserved":false,"is_disabled":false,"rental_uris":{"android":"levelo://app?vid=a2c5104b-ec86-4074-b199-137a7da1cfa9","ios":"levelo://app?vid=a2c5104b-ec86-4074-b199-137a7da1cfa9"},"vehicle_type_id":"4","last_reported":1741795978,"current_range_meters":14400,"station_id":"ce4bgj92rcd13ifvqbd0","pricing_plan_id":"cebpf4jnsgd1na2vs0mg"},{"bike_id":"b35e8ebf-0276-4902-8c82-a4434233f31a","system_id":"levelo_inurba_marseille","lat":43.29563,"lon":5.37513,"is_reserved":false,"is_disabled":false,"rental_uris":{"android":"levelo://app?vid=b35e8ebf-0276-4902-8c82-a4434233f31a","ios":"levelo://app?vid=b35e8ebf-0276-4902-8c82-a4434233f31a"},"vehicle_type_id":"4","last_reported":1741795978,"current_range_meters":14400,"station_id":"ce4bgh92rcd13ifvqb50","pricing_plan_id":"cebpf4jnsgd1na2vs0mg"},{"bike_id":"4430b22d-e45d-4ca1-8172-7e875c88266a","system_id":"levelo_inurba_marseille","lat":43.30415,"lon":5.41286,"is_reserved":false,"is_disabled":false,"rental_uris":{"android":"levelo://app?vid=4430b22d-e45d-4ca1-8172-7e875c88266a","ios":"levelo://app?vid=4430b22d-e45d-4ca1-8172-7e875c88266a"},"vehicle_type_id":"4","last_reported":1741795978,"current_range_meters":14400,"station_id":"ce4bhop2rcd13ifvqh8g","pricing_plan_id":"cebpf4jnsgd1na2vs0mg"},{"bike_id":"cc721c7a-2c5d-4356-a2b6-591ee2c610c1","system_id":"levelo_inurba_marseille","lat":43.29735,"lon":5.37678,"is_reserved":false,"is_disabled":false,"rental_uris":{"android":"levelo://app?vid=cc721c7a-2c5d-4356-a2b6-591ee2c610c1","ios":"levelo://app?vid=cc721c7a-2c5d-4356-a2b6-591ee2c610c1"},"vehicle_type_id":"4","last_reported":1741795978,"current_range_meters":14400,"station_id":"ce4bgkh2rcd13ifvqbl0","pricing_plan_id":"cebpf4jnsgd1na2vs0mg"},{"bike_id":"b9f2746a-1245-4037-ba4a-6fbae172c232","system_id":"levelo_inurba_marseille","lat":43.29638,"lon":5.3717,"is_reserved":false,"is_disabled":false,"rental_uris":{"android":"levelo://app?vid=b9f2746a-1245-4037-ba4a-6fbae172c232","ios":"levelo://app?vid=b9f2746a-1245-4037-ba4a-6fbae172c232"},"vehicle_type_id":"4","last_reported":1741795978,"current_range_meters":14000,"station_id":"ce4bgnh2rcd13ifvqc0g","pricing_plan_id":"cebpf4jnsgd1na2vs0mg"},{"bike_id":"99a3f406-b0b8-4066-adb6-b7e55216ac38","system_id":"levelo_inurba_marseille","lat":43.30269,"lon":5.37704,"is_reserved":false,"is_disabled":false,"rental_uris":{"android":"levelo://app?vid=99a3f406-b0b8-4066-adb6-b7e55216ac38","ios":"levelo://app?vid=99a3f406-b0b8-4066-adb6-b7e55216ac38"},"vehicle_type_id":"4","last_reported":1741795978,"current_range_meters":14400,"station_id":"ce4bguh2rcd13ifvqcj0","pricing_plan_id":"cebpf4jnsgd1na2vs0mg"},{"bike_id":"7382db7c-ea28-4d6b-a6ac-0a5dc179880b","system_id":"levelo_inurba_marseille","lat":43.33169,"lon":5.38149,"is_reserved":false,"is_disabled":false,"rental_uris":{"android":"levelo://app?vid=7382db7c-ea28-4d6b-a6ac-0a5dc179880b","ios":"levelo://app?vid=7382db7c-ea28-4d6b-a6ac-0a5dc179880b"},"vehicle_type_id":"4","last_reported":1741795978,"current_range_meters":14800,"station_id":"","pricing_plan_id":"cebpf4jnsgd1na2vs0mg"},{"bike_id":"477af7ea-1faf-4582-a5af-9ae465ff10c5","system_id":"levelo_inurba_marseille","lat":43.32948,"lon":5.39368,"is_reserved":false,"is_disabled":false,"rental_uris":{"android":"levelo://app?vid=477af7ea-1faf-4582-a5af-9ae465ff10c5","ios":"levelo://app?vid=477af7ea-1faf-4582-a5af-9ae465ff10c5"},"vehicle_type_id":"4","last_reported":1741795978,"current_range_meters":14800,"station_id":"","pricing_plan_id":"cebpf4jnsgd1na2vs0mg"},{"bike_id":"79254f59-2454-4e9c-bedb-c394aa26f393","system_id":"levelo_inurba_marseille","lat":43.30134,"lon":5.38781,"is_reserved":false,"is_disabled":false,"rental_uris":{"android":"levelo://app?vid=79254f59-2454-4e9c-bedb-c394aa26f393","ios":"levelo://app?vid=79254f59-2454-4e9c-bedb-c394aa26f393"},"vehicle_type_id":"4","last_reported":1741795978,"current_range_meters":14800,"station_id":"ce4bghh2rcd13ifvqb60","pricing_plan_id":"cebpf4jnsgd1na2vs0mg"},{"bike_id":"d4cd9aa9-80b0-4b52-ae13-17ca8fcd65cc","system_id":"levelo_inurba_marseille","lat":43.29983,"lon":5.38493,"is_reserved":false,"is_disabled":false,"rental_uris":{"android":"levelo://app?vid=d4cd9aa9-80b0-4b52-ae13-17ca8fcd65cc","ios":"levelo://app?vid=d4cd9aa9-80b0-4b52-ae13-17ca8fcd65cc"},"vehicle_type_id":"4","last_reported":1741795978,"current_range_meters":15200,"station_id":"ce4bgj92rcd13ifvqbd0","pricing_plan_id":"cebpf4jnsgd1na2vs0mg"},{"bike_id":"b632b774-d662-47a5-a519-013324bc946a","system_id":"levelo_inurba_marseille","lat":43.29281,"lon":5.36843,"is_reserved":false,"is_disabled":false,"rental_uris":{"android":"levelo://app?vid=b632b774-d662-47a5-a519-013324bc946a","ios":"levelo://app?vid=b632b774-d662-47a5-a519-013324bc946a"},"vehicle_type_id":"4","last_reported":1741795978,"current_range_meters":15200,"station_id":"ce4bhbp2rcd13ifvqesg","pricing_plan_id":"cebpf4jnsgd1na2vs0mg"},{"bike_id":"fd3ecd3c-9139-495e-8869-9a00fe6bccfe","system_id":"levelo_inurba_marseille","lat":43.29203,"lon":5.35825,"is_reserved":false,"is_disabled":false,"rental_uris":{"android":"levelo://app?vid=fd3ecd3c-9139-495e-8869-9a00fe6bccfe","ios":"levelo://app?vid=fd3ecd3c-9139-495e-8869-9a00fe6bccfe"},"vehicle_type_id":"4","last_reported":1741795978,"current_range_meters":15200,"station_id":"ce4bhb12rcd13ifvqel0","pricing_plan_id":"cebpf4jnsgd1na2vs0mg"},{"bike_id":"d1235ce3-1007-4d2d-9e28-ea39398a63a8","system_id":"levelo_inurba_marseille","lat":43.23212,"lon":5.35556,"is_reserved":false,"is_disabled":false,"rental_uris":{"android":"levelo://app?vid=d1235ce3-1007-4d2d-9e28-ea39398a63a8","ios":"levelo://app?vid=d1235ce3-1007-4d2d-9e28-ea39398a63a8"},"vehicle_type_id":"4","last_reported":1741795978,"current_range_meters":15200,"station_id":"ce4bhu92rcd13ifvqi70","pricing_plan_id":"cebpf4jnsgd1na2vs0mg"},{"bike_id":"7d50db42-c722-48a1-b518-62821e95d7d2","system_id":"levelo_inurba_marseille","lat":43.28987,"lon":5.37835,"is_reserved":false,"is_disabled":false,"rental_uris":{"android":"levelo://app?vid=7d50db42-c722-48a1-b518-62821e95d7d2","ios":"levelo://app?vid=7d50db42-c722-48a1-b518-62821e95d7d2"},"vehicle_type_id":"4","last_reported":1741795978,"current_range_meters":14800,"station_id":"ce4bh9p2rcd13ifvqed0","pricing_plan_id":"cebpf4jnsgd1na2vs0mg"},{"bike_id":"ecd3cda8-5880-475e-80c5-e0fafd53ee03","system_id":"levelo_inurba_marseille","lat":43.27811,"lon":5.40718,"is_reserved":false,"is_disabled":false,"rental_uris":{"android":"levelo://app?vid=ecd3cda8-5880-475e-80c5-e0fafd53ee03","ios":"levelo://app?vid=ecd3cda8-5880-475e-80c5-e0fafd53ee03"},"vehicle_type_id":"4","last_reported":1741795978,"current_range_meters":15200,"station_id":"ce4bhnh2rcd13ifvqgtg","pricing_plan_id":"cebpf4jnsgd1na2vs0mg"},{"bike_id":"7b8b288a-1263-4bb7-b082-b8cec0e2c2c0","system_id":"levelo_inurba_marseille","lat":43.32684,"lon":5.39164,"is_reserved":false,"is_disabled":false,"rental_uris":{"android":"levelo://app?vid=7b8b288a-1263-4bb7-b082-b8cec0e2c2c0","ios":"levelo://app?vid=7b8b288a-1263-4bb7-b082-b8cec0e2c2c0"},"vehicle_type_id":"4","last_reported":1741795978,"current_range_meters":15200,"station_id":"","pricing_plan_id":"cebpf4jnsgd1na2vs0mg"},{"bike_id":"ca762409-3e9b-49eb-b311-18b138aaa95f","system_id":"levelo_inurba_marseille","lat":43.33729,"lon":5.39198,"is_reserved":false,"is_disabled":false,"rental_uris":{"android":"levelo://app?vid=ca762409-3e9b-49eb-b311-18b138aaa95f","ios":"levelo://app?vid=ca762409-3e9b-49eb-b311-18b138aaa95f"},"vehicle_type_id":"4","last_reported":1741795978,"current_range_meters":15200,"station_id":"ce4bhr92rcd13ifvqhsg","pricing_plan_id":"cebpf4jnsgd1na2vs0mg"},{"bike_id":"21db77dc-1d8e-415e-a985-0222e92fb7a9","system_id":"levelo_inurba_marseille","lat":43.28075,"lon":5.39658,"is_reserved":false,"is_disabled":false,"rental_uris":{"android":"levelo://app?vid=21db77dc-1d8e-415e-a985-0222e92fb7a9","ios":"levelo://app?vid=21db77dc-1d8e-415e-a985-0222e92fb7a9"},"vehicle_type_id":"4","last_reported":1741795978,"current_range_meters":16000,"station_id":"ce4bho12rcd13ifvqh2g","pricing_plan_id":"cebpf4jnsgd1na2vs0mg"},{"bike_id":"acf1e0bc-0878-49e3-96e5-463d835579d5","system_id":"levelo_inurba_marseille","lat":43.279892,"lon":5.400454,"is_reserved":false,"is_disabled":false,"rental_uris":{"android":"levelo://app?vid=acf1e0bc-0878-49e3-96e5-463d835579d5","ios":"levelo://app?vid=acf1e0bc-0878-49e3-96e5-463d835579d5"},"vehicle_type_id":"4","last_reported":1741795978,"current_range_meters":16000,"station_id":"ce4bhkp2rcd13ifvqgd0","pricing_plan_id":"cebpf4jnsgd1na2vs0mg"},{"bike_id":"0420ab90-0203-49bc-a76d-8a5003ef7a7e","system_id":"levelo_inurba_marseille","lat":43.29976,"lon":5.38476,"is_reserved":false,"is_disabled":false,"rental_uris":{"android":"levelo://app?vid=0420ab90-0203-49bc-a76d-8a5003ef7a7e","ios":"levelo://app?vid=0420ab90-0203-49bc-a76d-8a5003ef7a7e"},"vehicle_type_id":"4","last_reported":1741795978,"current_range_meters":16000,"station_id":"ce4bgj92rcd13ifvqbd0","pricing_plan_id":"cebpf4jnsgd1na2vs0mg"},{"bike_id":"ce3ec704-3e8c-4719-8868-b0540b7fb767","system_id":"levelo_inurba_marseille","lat":43.302704,"lon":5.377114,"is_reserved":false,"is_disabled":false,"rental_uris":{"android":"levelo://app?vid=ce3ec704-3e8c-4719-8868-b0540b7fb767","ios":"levelo://app?vid=ce3ec704-3e8c-4719-8868-b0540b7fb767"},"vehicle_type_id":"4","last_reported":1741795978,"current_range_meters":16000,"station_id":"ce4bho12rcd13ifvqh2g","pricing_plan_id":"cebpf4jnsgd1na2vs0mg"},{"bike_id":"60ddecc3-b199-4c1c-bdf9-dccc49378603","system_id":"levelo_inurba_marseille","lat":43.29704,"lon":5.36258,"is_reserved":false,"is_disabled":false,"rental_uris":{"android":"levelo://app?vid=60ddecc3-b199-4c1c-bdf9-dccc49378603","ios":"levelo://app?vid=60ddecc3-b199-4c1c-bdf9-dccc49378603"},"vehicle_type_id":"4","last_reported":1741795978,"current_range_meters":16000,"station_id":"","pricing_plan_id":"cebpf4jnsgd1na2vs0mg"},{"bike_id":"e85e7281-8ded-4f9f-9074-cd43c73f5f32","system_id":"levelo_inurba_marseille","lat":43.31315,"lon":5.37339,"is_reserved":false,"is_disabled":false,"rental_uris":{"android":"levelo://app?vid=e85e7281-8ded-4f9f-9074-cd43c73f5f32","ios":"levelo://app?vid=e85e7281-8ded-4f9f-9074-cd43c73f5f32"},"vehicle_type_id":"4","last_reported":1741795978,"current_range_meters":16000,"station_id":"","pricing_plan_id":"cebpf4jnsgd1na2vs0mg"},{"bike_id":"894adb72-eba3-4c31-be33-a34cdb918fbd","system_id":"levelo_inurba_marseille","lat":43.25725,"lon":5.41115,"is_reserved":false,"is_disabled":false,"rental_uris":{"android":"levelo://app?vid=894adb72-eba3-4c31-be33-a34cdb918fbd","ios":"levelo://app?vid=894adb72-eba3-4c31-be33-a34cdb918fbd"},"vehicle_type_id":"4","last_reported":1741795978,"current_range_meters":16000,"station_id":"ce4bhkp2rcd13ifvqgd0","pricing_plan_id":"cebpf4jnsgd1na2vs0mg"},{"bike_id":"a44739fe-6c4a-4d10-b7d6-ed0ad39ea565","system_id":"levelo_inurba_marseille","lat":43.284606,"lon":5.358872,"is_reserved":false,"is_disabled":false,"rental_uris":{"android":"levelo://app?vid=a44739fe-6c4a-4d10-b7d6-ed0ad39ea565","ios":"levelo://app?vid=a44739fe-6c4a-4d10-b7d6-ed0ad39ea565"},"vehicle_type_id":"4","last_reported":1741795978,"current_range_meters":16000,"station_id":"ce4bhah2rcd13ifvqei0","pricing_plan_id":"cebpf4jnsgd1na2vs0mg"},{"bike_id":"0118782e-a9be-4c57-a3c6-f989e8d3b9bf","system_id":"levelo_inurba_marseille","lat":43.24182,"lon":5.39704,"is_reserved":false,"is_disabled":false,"rental_uris":{"android":"levelo://app?vid=0118782e-a9be-4c57-a3c6-f989e8d3b9bf","ios":"levelo://app?vid=0118782e-a9be-4c57-a3c6-f989e8d3b9bf"},"vehicle_type_id":"4","last_reported":1741795978,"current_range_meters":16000,"station_id":"ce4bhn12rcd13ifvqgpg","pricing_plan_id":"cebpf4jnsgd1na2vs0mg"},{"bike_id":"de832d39-3d23-4bf0-b66d-5b3ec4fbac26","system_id":"levelo_inurba_marseille","lat":43.30181,"lon":5.36609,"is_reserved":false,"is_disabled":false,"rental_uris":{"android":"levelo://app?vid=de832d39-3d23-4bf0-b66d-5b3ec4fbac26","ios":"levelo://app?vid=de832d39-3d23-4bf0-b66d-5b3ec4fbac26"},"vehicle_type_id":"4","last_reported":1741795978,"current_range_meters":16000,"station_id":"ce4bgrh2rcd13ifvqc8g","pricing_plan_id":"cebpf4jnsgd1na2vs0mg"},{"bike_id":"c2fc0f9a-56ca-4509-8e2d-54b6b468cd50","system_id":"levelo_inurba_marseille","lat":43.23152,"lon":5.43706,"is_reserved":false,"is_disabled":false,"rental_uris":{"android":"levelo://app?vid=c2fc0f9a-56ca-4509-8e2d-54b6b468cd50","ios":"levelo://app?vid=c2fc0f9a-56ca-4509-8e2d-54b6b468cd50"},"vehicle_type_id":"4","last_reported":1741795978,"current_range_meters":16400,"station_id":"ce4bhmp2rcd13ifvqgog","pricing_plan_id":"cebpf4jnsgd1na2vs0mg"},{"bike_id":"dca912bc-4b3a-4cc7-949d-68617a03cff5","system_id":"levelo_inurba_marseille","lat":43.29281,"lon":5.38453,"is_reserved":false,"is_disabled":false,"rental_uris":{"android":"levelo://app?vid=dca912bc-4b3a-4cc7-949d-68617a03cff5","ios":"levelo://app?vid=dca912bc-4b3a-4cc7-949d-68617a03cff5"},"vehicle_type_id":"4","last_reported":1741795978,"current_range_meters":16400,"station_id":"ce4bh692rcd13ifvqea0","pricing_plan_id":"cebpf4jnsgd1na2vs0mg"},{"bike_id":"94b30f95-19e8-4b24-809a-d279976d82ea","system_id":"levelo_inurba_marseille","lat":43.31378,"lon":5.39639,"is_reserved":false,"is_disabled":false,"rental_uris":{"android":"levelo://app?vid=94b30f95-19e8-4b24-809a-d279976d82ea","ios":"levelo://app?vid=94b30f95-19e8-4b24-809a-d279976d82ea"},"vehicle_type_id":"4","last_reported":1741795978,"current_range_meters":16400,"station_id":"","pricing_plan_id":"cebpf4jnsgd1na2vs0mg"},{"bike_id":"c70dbcc1-670c-42e5-8a56-d3a0842d3211","system_id":"levelo_inurba_marseille","lat":43.29275,"lon":5.37627,"is_reserved":false,"is_disabled":false,"rental_uris":{"android":"levelo://app?vid=c70dbcc1-670c-42e5-8a56-d3a0842d3211","ios":"levelo://app?vid=c70dbcc1-670c-42e5-8a56-d3a0842d3211"},"vehicle_type_id":"4","last_reported":1741795978,"current_range_meters":16400,"station_id":"ce4bgi12rcd13ifvqb80","pricing_plan_id":"cebpf4jnsgd1na2vs0mg"},{"bike_id":"f5cfce90-1b54-4c7b-b1ea-ada7336dc897","system_id":"levelo_inurba_marseille","lat":43.29984,"lon":5.38478,"is_reserved":false,"is_disabled":false,"rental_uris":{"android":"levelo://app?vid=f5cfce90-1b54-4c7b-b1ea-ada7336dc897","ios":"levelo://app?vid=f5cfce90-1b54-4c7b-b1ea-ada7336dc897"},"vehicle_type_id":"4","last_reported":1741795978,"current_range_meters":16400,"station_id":"ce4bgj92rcd13ifvqbd0","pricing_plan_id":"cebpf4jnsgd1na2vs0mg"},{"bike_id":"39f94017-39d5-4238-af21-49b9bf55aee4","system_id":"levelo_inurba_marseille","lat":43.28849,"lon":5.35843,"is_reserved":false,"is_disabled":false,"rental_uris":{"android":"levelo://app?vid=39f94017-39d5-4238-af21-49b9bf55aee4","ios":"levelo://app?vid=39f94017-39d5-4238-af21-49b9bf55aee4"},"vehicle_type_id":"4","last_reported":1741795978,"current_range_meters":16400,"station_id":"ce4bhb12rcd13ifvqem0","pricing_plan_id":"cebpf4jnsgd1na2vs0mg"},{"bike_id":"f550acae-a478-493d-8418-eb4ab17dc323","system_id":"levelo_inurba_marseille","lat":43.25016,"lon":5.38913,"is_reserved":false,"is_disabled":false,"rental_uris":{"android":"levelo://app?vid=f550acae-a478-493d-8418-eb4ab17dc323","ios":"levelo://app?vid=f550acae-a478-493d-8418-eb4ab17dc323"},"vehicle_type_id":"4","last_reported":1741795978,"current_range_meters":16400,"station_id":"ce4bhgp2rcd13ifvqfd0","pricing_plan_id":"cebpf4jnsgd1na2vs0mg"},{"bike_id":"4fa52bc0-7c03-4fb6-a05e-8ea59815461e","system_id":"levelo_inurba_marseille","lat":43.30297,"lon":5.39212,"is_reserved":false,"is_disabled":false,"rental_uris":{"android":"levelo://app?vid=4fa52bc0-7c03-4fb6-a05e-8ea59815461e","ios":"levelo://app?vid=4fa52bc0-7c03-4fb6-a05e-8ea59815461e"},"vehicle_type_id":"4","last_reported":1741795978,"current_range_meters":16400,"station_id":"ce4bgkh2rcd13ifvqbk0","pricing_plan_id":"cebpf4jnsgd1na2vs0mg"},{"bike_id":"1078c331-69ed-4852-ad54-2ff1e206e5a4","system_id":"levelo_inurba_marseille","lat":43.29729,"lon":5.37706,"is_reserved":false,"is_disabled":false,"rental_uris":{"android":"levelo://app?vid=1078c331-69ed-4852-ad54-2ff1e206e5a4","ios":"levelo://app?vid=1078c331-69ed-4852-ad54-2ff1e206e5a4"},"vehicle_type_id":"4","last_reported":1741795978,"current_range_meters":16400,"station_id":"ce4bgkh2rcd13ifvqbl0","pricing_plan_id":"cebpf4jnsgd1na2vs0mg"},{"bike_id":"21b8708e-4b91-4220-87a7-7111acba01b4","system_id":"levelo_inurba_marseille","lat":43.28451,"lon":5.35875,"is_reserved":false,"is_disabled":false,"rental_uris":{"android":"levelo://app?vid=21b8708e-4b91-4220-87a7-7111acba01b4","ios":"levelo://app?vid=21b8708e-4b91-4220-87a7-7111acba01b4"},"vehicle_type_id":"4","last_reported":1741795978,"current_range_meters":16800,"station_id":"ce4bhah2rcd13ifvqei0","pricing_plan_id":"cebpf4jnsgd1na2vs0mg"},{"bike_id":"a823fe98-0845-44f0-af70-a3e75e70ed04","system_id":"levelo_inurba_marseille","lat":43.24999,"lon":5.38931,"is_reserved":false,"is_disabled":false,"rental_uris":{"android":"levelo://app?vid=a823fe98-0845-44f0-af70-a3e75e70ed04","ios":"levelo://app?vid=a823fe98-0845-44f0-af70-a3e75e70ed04"},"vehicle_type_id":"4","last_reported":1741795978,"current_range_meters":16800,"station_id":"ce4bhgp2rcd13ifvqfd0","pricing_plan_id":"cebpf4jnsgd1na2vs0mg"},{"bike_id":"2eccdd03-1eb9-4681-b1a1-4b0df9f4ca75","system_id":"levelo_inurba_marseille","lat":43.298676,"lon":5.397324,"is_reserved":false,"is_disabled":false,"rental_uris":{"android":"levelo://app?vid=2eccdd03-1eb9-4681-b1a1-4b0df9f4ca75","ios":"levelo://app?vid=2eccdd03-1eb9-4681-b1a1-4b0df9f4ca75"},"vehicle_type_id":"4","last_reported":1741795978,"current_range_meters":16800,"station_id":"ce4bh0h2rcd13ifvqd50","pricing_plan_id":"cebpf4jnsgd1na2vs0mg"},{"bike_id":"55908f54-7c6e-4b58-b7aa-a8b04172c302","system_id":"levelo_inurba_marseille","lat":43.31535,"lon":5.38027,"is_reserved":false,"is_disabled":false,"rental_uris":{"android":"levelo://app?vid=55908f54-7c6e-4b58-b7aa-a8b04172c302","ios":"levelo://app?vid=55908f54-7c6e-4b58-b7aa-a8b04172c302"},"vehicle_type_id":"4","last_reported":1741795978,"current_range_meters":16800,"station_id":"ce4bhsp2rcd13ifvqi50","pricing_plan_id":"cebpf4jnsgd1na2vs0mg"},{"bike_id":"e215f50d-edda-44ce-bf9c-14ab9e49ca11","system_id":"levelo_inurba_marseille","lat":43.25709,"lon":5.411,"is_reserved":false,"is_disabled":false,"rental_uris":{"android":"levelo://app?vid=e215f50d-edda-44ce-bf9c-14ab9e49ca11","ios":"levelo://app?vid=e215f50d-edda-44ce-bf9c-14ab9e49ca11"},"vehicle_type_id":"4","last_reported":1741795978,"current_range_meters":16800,"station_id":"ce4bhkp2rcd13ifvqgd0","pricing_plan_id":"cebpf4jnsgd1na2vs0mg"},{"bike_id":"9d73f259-75f5-4c0a-a6ca-c88642cda7df","system_id":"levelo_inurba_marseille","lat":43.27957,"lon":5.38744,"is_reserved":false,"is_disabled":false,"rental_uris":{"android":"levelo://app?vid=9d73f259-75f5-4c0a-a6ca-c88642cda7df","ios":"levelo://app?vid=9d73f259-75f5-4c0a-a6ca-c88642cda7df"},"vehicle_type_id":"4","last_reported":1741795978,"current_range_meters":16800,"station_id":"ce4bhg12rcd13ifvqf80","pricing_plan_id":"cebpf4jnsgd1na2vs0mg"},{"bike_id":"00eff691-dd97-40d1-80bd-c86526564a48","system_id":"levelo_inurba_marseille","lat":43.23155,"lon":5.43719,"is_reserved":false,"is_disabled":false,"rental_uris":{"android":"levelo://app?vid=00eff691-dd97-40d1-80bd-c86526564a48","ios":"levelo://app?vid=00eff691-dd97-40d1-80bd-c86526564a48"},"vehicle_type_id":"4","last_reported":1741795978,"current_range_meters":16800,"station_id":"ce4bhmp2rcd13ifvqgog","pricing_plan_id":"cebpf4jnsgd1na2vs0mg"},{"bike_id":"499a491a-770b-47e1-9931-99b73485a520","system_id":"levelo_inurba_marseille","lat":43.29248,"lon":5.36862,"is_reserved":false,"is_disabled":false,"rental_uris":{"android":"levelo://app?vid=499a491a-770b-47e1-9931-99b73485a520","ios":"levelo://app?vid=499a491a-770b-47e1-9931-99b73485a520"},"vehicle_type_id":"4","last_reported":1741795978,"current_range_meters":16800,"station_id":"ce4bhbp2rcd13ifvqesg","pricing_plan_id":"cebpf4jnsgd1na2vs0mg"},{"bike_id":"1626f320-021a-4045-b311-2991571be066","system_id":"levelo_inurba_marseille","lat":43.29416,"lon":5.38625,"is_reserved":false,"is_disabled":false,"rental_uris":{"android":"levelo://app?vid=1626f320-021a-4045-b311-2991571be066","ios":"levelo://app?vid=1626f320-021a-4045-b311-2991571be066"},"vehicle_type_id":"4","last_reported":1741795978,"current_range_meters":16800,"station_id":"ce4bh2h2rcd13ifvqdh0","pricing_plan_id":"cebpf4jnsgd1na2vs0mg"},{"bike_id":"d71c3fdc-389f-4ee7-b67b-e2bbea50b847","system_id":"levelo_inurba_marseille","lat":43.30601,"lon":5.37222,"is_reserved":false,"is_disabled":false,"rental_uris":{"android":"levelo://app?vid=d71c3fdc-389f-4ee7-b67b-e2bbea50b847","ios":"levelo://app?vid=d71c3fdc-389f-4ee7-b67b-e2bbea50b847"},"vehicle_type_id":"4","last_reported":1741795978,"current_range_meters":17200,"station_id":"ce4bgqh2rcd13ifvqc4g","pricing_plan_id":"cebpf4jnsgd1na2vs0mg"},{"bike_id":"5e6ee500-ff5e-488c-af63-16bcdccb4e23","system_id":"levelo_inurba_marseille","lat":43.33341,"lon":5.3967,"is_reserved":false,"is_disabled":false,"rental_uris":{"android":"levelo://app?vid=5e6ee500-ff5e-488c-af63-16bcdccb4e23","ios":"levelo://app?vid=5e6ee500-ff5e-488c-af63-16bcdccb4e23"},"vehicle_type_id":"4","last_reported":1741795978,"current_range_meters":17200,"station_id":"","pricing_plan_id":"cebpf4jnsgd1na2vs0mg"},{"bike_id":"03d86cf5-22a1-44db-b2ad-b2beff6203bd","system_id":"levelo_inurba_marseille","lat":43.30305,"lon":5.369,"is_reserved":false,"is_disabled":false,"rental_uris":{"android":"levelo://app?vid=03d86cf5-22a1-44db-b2ad-b2beff6203bd","ios":"levelo://app?vid=03d86cf5-22a1-44db-b2ad-b2beff6203bd"},"vehicle_type_id":"4","last_reported":1741795978,"current_range_meters":17200,"station_id":"ce4bgqh2rcd13ifvqc5g","pricing_plan_id":"cebpf4jnsgd1na2vs0mg"},{"bike_id":"ff997b8a-e3f5-487f-b58b-bf0579afe768","system_id":"levelo_inurba_marseille","lat":43.28924,"lon":5.38398,"is_reserved":false,"is_disabled":false,"rental_uris":{"android":"levelo://app?vid=ff997b8a-e3f5-487f-b58b-bf0579afe768","ios":"levelo://app?vid=ff997b8a-e3f5-487f-b58b-bf0579afe768"},"vehicle_type_id":"4","last_reported":1741795978,"current_range_meters":17200,"station_id":"ce4bh612rcd13ifvqe6g","pricing_plan_id":"cebpf4jnsgd1na2vs0mg"},{"bike_id":"f7fbff35-f801-4c50-8874-a9426df94635","system_id":"levelo_inurba_marseille","lat":43.29169,"lon":5.3715,"is_reserved":false,"is_disabled":false,"rental_uris":{"android":"levelo://app?vid=f7fbff35-f801-4c50-8874-a9426df94635","ios":"levelo://app?vid=f7fbff35-f801-4c50-8874-a9426df94635"},"vehicle_type_id":"4","last_reported":1741795978,"current_range_meters":17200,"station_id":"ce4bha92rcd13ifvqeh0","pricing_plan_id":"cebpf4jnsgd1na2vs0mg"},{"bike_id":"86f8bdea-b40d-4d56-a56f-a8e9a5d7b8b7","system_id":"levelo_inurba_marseille","lat":43.255,"lon":5.37653,"is_reserved":false,"is_disabled":false,"rental_uris":{"android":"levelo://app?vid=86f8bdea-b40d-4d56-a56f-a8e9a5d7b8b7","ios":"levelo://app?vid=86f8bdea-b40d-4d56-a56f-a8e9a5d7b8b7"},"vehicle_type_id":"4","last_reported":1741795978,"current_range_meters":17200,"station_id":"ce4bhh12rcd13ifvqff0","pricing_plan_id":"cebpf4jnsgd1na2vs0mg"},{"bike_id":"cae1a1ac-f174-4e64-87d8-9f9488ed34e9","system_id":"levelo_inurba_marseille","lat":43.29415,"lon":5.38638,"is_reserved":false,"is_disabled":false,"rental_uris":{"android":"levelo://app?vid=cae1a1ac-f174-4e64-87d8-9f9488ed34e9","ios":"levelo://app?vid=cae1a1ac-f174-4e64-87d8-9f9488ed34e9"},"vehicle_type_id":"4","last_reported":1741795978,"current_range_meters":17200,"station_id":"ce4bh2h2rcd13ifvqdh0","pricing_plan_id":"cebpf4jnsgd1na2vs0mg"},{"bike_id":"f3291a48-4171-4dd1-b341-037b6e6f6b32","system_id":"levelo_inurba_marseille","lat":43.28336,"lon":5.38118,"is_reserved":false,"is_disabled":true,"rental_uris":{"android":"levelo://app?vid=f3291a48-4171-4dd1-b341-037b6e6f6b32","ios":"levelo://app?vid=f3291a48-4171-4dd1-b341-037b6e6f6b32"},"vehicle_type_id":"4","last_reported":1741795978,"current_range_meters":17200,"station_id":"ce4bh412rcd13ifvqdr0","pricing_plan_id":"cebpf4jnsgd1na2vs0mg"},{"bike_id":"2c542a09-e66b-400a-a635-ed3442b0a9f5","system_id":"levelo_inurba_marseille","lat":43.2397,"lon":5.36636,"is_reserved":false,"is_disabled":false,"rental_uris":{"android":"levelo://app?vid=2c542a09-e66b-400a-a635-ed3442b0a9f5","ios":"levelo://app?vid=2c542a09-e66b-400a-a635-ed3442b0a9f5"},"vehicle_type_id":"4","last_reported":1741795978,"current_range_meters":17200,"station_id":"ce4bhi12rcd13ifvqfp0","pricing_plan_id":"cebpf4jnsgd1na2vs0mg"},{"bike_id":"e403288d-b468-4ea8-b33d-644efb4c82c2","system_id":"levelo_inurba_marseille","lat":43.27807,"lon":5.4073,"is_reserved":false,"is_disabled":false,"rental_uris":{"android":"levelo://app?vid=e403288d-b468-4ea8-b33d-644efb4c82c2","ios":"levelo://app?vid=e403288d-b468-4ea8-b33d-644efb4c82c2"},"vehicle_type_id":"4","last_reported":1741795978,"current_range_meters":17200,"station_id":"ce4bhnh2rcd13ifvqgtg","pricing_plan_id":"cebpf4jnsgd1na2vs0mg"},{"bike_id":"0f37f84b-b53e-4762-b47d-952065b135fd","system_id":"levelo_inurba_marseille","lat":43.27953,"lon":5.41047,"is_reserved":false,"is_disabled":false,"rental_uris":{"android":"levelo://app?vid=0f37f84b-b53e-4762-b47d-952065b135fd","ios":"levelo://app?vid=0f37f84b-b53e-4762-b47d-952065b135fd"},"vehicle_type_id":"4","last_reported":1741795978,"current_range_meters":17200,"station_id":"ce4bhnp2rcd13ifvqh0g","pricing_plan_id":"cebpf4jnsgd1na2vs0mg"},{"bike_id":"3f5fb6ab-70c9-4053-9048-00f87210aeb7","system_id":"levelo_inurba_marseille","lat":43.24546,"lon":5.39526,"is_reserved":false,"is_disabled":false,"rental_uris":{"android":"levelo://app?vid=3f5fb6ab-70c9-4053-9048-00f87210aeb7","ios":"levelo://app?vid=3f5fb6ab-70c9-4053-9048-00f87210aeb7"},"vehicle_type_id":"4","last_reported":1741795978,"current_range_meters":17200,"station_id":"ce4bhlp2rcd13ifvqgjg","pricing_plan_id":"cebpf4jnsgd1na2vs0mg"},{"bike_id":"be49a2e4-6e30-45c9-a5b7-0405fb09affa","system_id":"levelo_inurba_marseille","lat":43.28941,"lon":5.3963,"is_reserved":false,"is_disabled":false,"rental_uris":{"android":"levelo://app?vid=be49a2e4-6e30-45c9-a5b7-0405fb09affa","ios":"levelo://app?vid=be49a2e4-6e30-45c9-a5b7-0405fb09affa"},"vehicle_type_id":"4","last_reported":1741795978,"current_range_meters":17200,"station_id":"ce4bh3h2rcd13ifvqdn0","pricing_plan_id":"cebpf4jnsgd1na2vs0mg"},{"bike_id":"d499aa7d-37fe-4efe-8d86-7fc011ad17ad","system_id":"levelo_inurba_marseille","lat":43.23061,"lon":5.35499,"is_reserved":false,"is_disabled":false,"rental_uris":{"android":"levelo://app?vid=d499aa7d-37fe-4efe-8d86-7fc011ad17ad","ios":"levelo://app?vid=d499aa7d-37fe-4efe-8d86-7fc011ad17ad"},"vehicle_type_id":"4","last_reported":1741795978,"current_range_meters":17200,"station_id":"cpo3342slgdg3j2ifvpg","pricing_plan_id":"cebpf4jnsgd1na2vs0mg"},{"bike_id":"e3565dcf-4d34-49d7-919b-1234920ea466","system_id":"levelo_inurba_marseille","lat":43.33746,"lon":5.3745,"is_reserved":false,"is_disabled":false,"rental_uris":{"android":"levelo://app?vid=e3565dcf-4d34-49d7-919b-1234920ea466","ios":"levelo://app?vid=e3565dcf-4d34-49d7-919b-1234920ea466"},"vehicle_type_id":"4","last_reported":1741795978,"current_range_meters":17200,"station_id":"","pricing_plan_id":"cebpf4jnsgd1na2vs0mg"},{"bike_id":"a66124cb-566a-4d33-93d8-1c0403fb5851","system_id":"levelo_inurba_marseille","lat":43.32729,"lon":5.39262,"is_reserved":false,"is_disabled":false,"rental_uris":{"android":"levelo://app?vid=a66124cb-566a-4d33-93d8-1c0403fb5851","ios":"levelo://app?vid=a66124cb-566a-4d33-93d8-1c0403fb5851"},"vehicle_type_id":"4","last_reported":1741795978,"current_range_meters":17600,"station_id":"","pricing_plan_id":"cebpf4jnsgd1na2vs0mg"},{"bike_id":"2df7e823-380d-4753-9e5b-a935945de51c","system_id":"levelo_inurba_marseille","lat":43.29975,"lon":5.3718,"is_reserved":false,"is_disabled":false,"rental_uris":{"android":"levelo://app?vid=2df7e823-380d-4753-9e5b-a935945de51c","ios":"levelo://app?vid=2df7e823-380d-4753-9e5b-a935945de51c"},"vehicle_type_id":"4","last_reported":1741795978,"current_range_meters":17200,"station_id":"ce4bgr92rcd13ifvqc7g","pricing_plan_id":"cebpf4jnsgd1na2vs0mg"},{"bike_id":"7c141405-8901-4fb3-ba87-679d48fe3c51","system_id":"levelo_inurba_marseille","lat":43.28427,"lon":5.34994,"is_reserved":false,"is_disabled":false,"rental_uris":{"android":"levelo://app?vid=7c141405-8901-4fb3-ba87-679d48fe3c51","ios":"levelo://app?vid=7c141405-8901-4fb3-ba87-679d48fe3c51"},"vehicle_type_id":"4","last_reported":1741795978,"current_range_meters":17600,"station_id":"ce4bhbh2rcd13ifvqepg","pricing_plan_id":"cebpf4jnsgd1na2vs0mg"},{"bike_id":"24db4b38-68e9-49f7-a7aa-dd6f9ef56f11","system_id":"levelo_inurba_marseille","lat":43.27912,"lon":5.39582,"is_reserved":false,"is_disabled":false,"rental_uris":{"android":"levelo://app?vid=24db4b38-68e9-49f7-a7aa-dd6f9ef56f11","ios":"levelo://app?vid=24db4b38-68e9-49f7-a7aa-dd6f9ef56f11"},"vehicle_type_id":"4","last_reported":1741795978,"current_range_meters":17600,"station_id":"ce4bhf92rcd13ifvqf40","pricing_plan_id":"cebpf4jnsgd1na2vs0mg"},{"bike_id":"e17fdaa0-5c3e-4a96-8743-379bf9fc815d","system_id":"levelo_inurba_marseille","lat":43.29862,"lon":5.36287,"is_reserved":false,"is_disabled":false,"rental_uris":{"android":"levelo://app?vid=e17fdaa0-5c3e-4a96-8743-379bf9fc815d","ios":"levelo://app?vid=e17fdaa0-5c3e-4a96-8743-379bf9fc815d"},"vehicle_type_id":"4","last_reported":1741795978,"current_range_meters":17600,"station_id":"ce4bgpp2rcd13ifvqc3g","pricing_plan_id":"cebpf4jnsgd1na2vs0mg"},{"bike_id":"fa59939e-e557-4110-9551-df35b8f1ec54","system_id":"levelo_inurba_marseille","lat":43.24654,"lon":5.38896,"is_reserved":false,"is_disabled":false,"rental_uris":{"android":"levelo://app?vid=fa59939e-e557-4110-9551-df35b8f1ec54","ios":"levelo://app?vid=fa59939e-e557-4110-9551-df35b8f1ec54"},"vehicle_type_id":"4","last_reported":1741795978,"current_range_meters":17600,"station_id":"ce4bhg12rcd13ifvqf60","pricing_plan_id":"cebpf4jnsgd1na2vs0mg"},