{"last_updated":1758449345,"ttl":60,"version":"2.2","data":{"bikes":[{"bike_id":"c9f4b21b-ec2b-4175-aa80-1c0e52fd7e28","system_id":"levelo_inurba_marseille","lat":43.28437,"lon":5.4904,"is_reserved":false,"is_disabled":false,"rental_uris":{"android":"levelo://app?vid=c9f4b21b-ec2b-4175-aa80-1c0e52fd7e28","ios":"levelo://app?vid=c9f4b21b-ec2b-4175-aa80-1c0e52fd7e28"},"vehicle_type_id":"4","last_reported":1758449345,"current_range_meters":2800,"station_id":"","pricing_plan_id":"cebpf4jnsgd1na2vs0mg"},{"bike_id":"c66d1080-8743-46a3-8661-94cfd5d48622","system_id":"levelo_inurba_marseille","lat":43.28354,"lon":5.381,"is_reserved":false,"is_disabled":false,"rental_uris":{"android":"levelo://app?vid=c66d1080-8743-46a3-8661-94cfd5d48622","ios":"levelo://app?vid=c66d1080-8743-46a3-8661-94cfd5d48622"},"vehicle_type_id":"4","last_reported":1758449345,"current_range_meters":2800,"station_id":"ce4bh412rcd13ifvqdr0","pricing_plan_id":"cebpf4jnsgd1na2vs0mg"},{"bike_id":"78a18b56-84dc-49f2-a9b1-5bbfde6eda3e","system_id":"levelo_inurba_marseille","lat":43.29964,"lon":5.38491,"is_reserved":false,"is_disabled":true,"rental_uris":{"android":"levelo://app?vid=78a18b56-84dc-49f2-a9b1-5bbfde6eda3e","ios":"levelo://app?vid=78a18b56-84dc-49f2-a9b1-5bbfde6eda3e"},"vehicle_type_id":"4","last_reported":1758449345,"current_range_meters":3200,"station_id":"ce4bgj92rcd13ifvqbd0","pricing_plan_id":"cebpf4jnsgd1na2vs0mg"},{"bike_id":"88df9b2f-7c95-45bf-b798-6ba10bd60a37","system_id":"levelo_inurba_marseille","lat":43.25113,"lon":5.40319,"is_reserved":false,"is_disabled":false,"rental_uris":{"android":"levelo://app?vid=88df9b2f-7c95-45bf-b798-6ba10bd60a37","ios":"levelo://app?vid=88df9b2f-7c95-45bf-b798-6ba10bd60a37"},"vehicle_type_id":"4","last_reported":1758449345,"current_range_meters":7200,"station_id":"ce4bhlh2rcd13ifvqgig","pricing_plan_id":"cebpf4jnsgd1na2vs0mg"},{"bike_id":"c8a6a0d7-42f4-4e6d-8526-992ec3a657c6","system_id":"levelo_inurba_marseille","lat":43.30602,"lon":5.39344,"is_reserved":false,"is_disabled":false,"rental_uris":{"android":"levelo://app?vid=c8a6a0d7-42f4-4e6d-8526-992ec3a657c6","ios":"levelo://app?vid=c8a6a0d7-42f4-4e6d-8526-992ec3a657c6"},"vehicle_type_id":"4","last_reported":1758449345,"current_range_meters":3200,"station_id":"ce4bh0p2rcd13ifvqd80","pricing_plan_id":"cebpf4jnsgd1na2vs0mg"},{"bike_id":"adbbec83-b051-4e7f-a394-5fdc9b2b0234","system_id":"levelo_inurba_marseille","lat":43.3215,"lon":5.3846,"is_reserved":false,"is_disabled":false,"rental_uris":{"android":"levelo://app?vid=adbbec83-b051-4e7f-a394-5fdc9b2b0234","ios":"levelo://app?vid=adbbec83-b051-4e7f-a394-5fdc9b2b0234"},"vehicle_type_id":"4","last_reported":1758449345,"current_range_meters":3600,"station_id":"","pricing_plan_id":"cebpf4jnsgd1na2vs0mg"},{"bike_id":"7e39f761-0fe4-4eb9-8592-5744db05ea96","system_id":"levelo_inurba_marseille","lat":43.30891,"lon":5.37175,"is_reserved":false,"is_disabled":false,"rental_uris":{"android":"levelo://app?vid=7e39f761-0fe4-4eb9-8592-5744db05ea96","ios":"levelo://app?vid=7e39f761-0fe4-4eb9-8592-5744db05ea96"},"vehicle_type_id":"4","last_reported":1758449345,"current_range_meters":3200,"station_id":"ce4bguh2rcd13ifvqckg","pricing_plan_id":"cebpf4jnsgd1na2vs0mg"},{"bike_id":"3c9735e9-fd7e-4079-8199-725760347837","system_id":"levelo_inurba_marseille","lat":43.21174,"lon":5.35038,"is_reserved":false,"is_disabled":false,"rental_uris":{"android":"levelo://app?vid=3c9735e9-fd7e-4079-8199-725760347837","ios":"levelo://app?vid=3c9735e9-fd7e-4079-8199-725760347837"},"vehicle_type_id":"4","last_reported":1758449345,"current_range_meters":4000,"station_id":"st_cvj6sg6p6f1abm77japg","pricing_plan_id":"cebpf4jnsgd1na2vs0mg"},{"bike_id":"e1065c32-ac19-477b-812a-39f964d50769","system_id":"levelo_inurba_marseille","lat":43.23215,"lon":5.35536,"is_reserved":false,"is_disabled":true,"rental_uris":{"android":"levelo://app?vid=e1065c32-ac19-477b-812a-39f964d50769","ios":"levelo://app?vid=e1065c32-ac19-477b-812a-39f964d50769"},"vehicle_type_id":"4","last_reported":1758449345,"current_range_meters":4000,"station_id":"ce4bhu92rcd13ifvqi70","pricing_plan_id":"cebpf4jnsgd1na2vs0mg"},{"bike_id":"90e8324f-ab5a-4b51-81a5-e116e7955ae7","system_id":"levelo_inurba_marseille","lat":43.26563,"lon":5.3727,"is_reserved":false,"is_disabled":true,"rental_uris":{"android":"levelo://app?vid=90e8324f-ab5a-4b51-81a5-e116e7955ae7","ios":"levelo://app?vid=90e8324f-ab5a-4b51-81a5-e116e7955ae7"},"vehicle_type_id":"4","last_reported":1758449345,"current_range_meters":4000,"station_id":"ce4bhg12rcd13ifvqf70","pricing_plan_id":"cebpf4jnsgd1na2vs0mg"},{"bike_id":"c8122ea3-0d03-42af-b11e-0e91dd58d4bf","system_id":"levelo_inurba_marseille","lat":43.2953,"lon":5.37516,"is_reserved":false,"is_disabled":false,"rental_uris":{"android":"levelo://app?vid=c8122ea3-0d03-42af-b11e-0e91dd58d4bf","ios":"levelo://app?vid=c8122ea3-0d03-42af-b11e-0e91dd58d4bf"},"vehicle_type_id":"4","last_reported":1758449345,"current_range_meters":4000,"station_id":"ce4bgkp2rcd13ifvqbmg","pricing_plan_id":"cebpf4jnsgd1na2vs0mg"},{"bike_id":"6519c718-4bb2-4eec-82bb-714d48f2e26a","system_id":"levelo_inurba_marseille","lat":43.29006,"lon":5.35607,"is_reserved":false,"is_disabled":false,"rental_uris":{"android":"levelo://app?vid=6519c718-4bb2-4eec-82bb-714d48f2e26a","ios":"levelo://app?vid=6519c718-4bb2-4eec-82bb-714d48f2e26a"},"vehicle_type_id":"4","last_reported":1758449345,"current_range_meters":4400,"station_id":"ce4bhb92rcd13ifvqen0","pricing_plan_id":"cebpf4jnsgd1na2vs0mg"},{"bike_id":"6dc49f8f-31b8-485c-b489-e3fd253e6676","system_id":"levelo_inurba_marseille","lat":43.32668,"lon":5.40994,"is_reserved":false,"is_disabled":true,"rental_uris":{"android":"levelo://app?vid=6dc49f8f-31b8-485c-b489-e3fd253e6676","ios":"levelo://app?vid=6dc49f8f-31b8-485c-b489-e3fd253e6676"},"vehicle_type_id":"4","last_reported":1758449345,"current_range_meters":4400,"station_id":"ce4bhpp2rcd13ifvqhgg","pricing_plan_id":"cebpf4jnsgd1na2vs0mg"},{"bike_id":"576587a2-3de3-4e92-b8c0-0e66bc1a9dab","system_id":"levelo_inurba_marseille","lat":43.29309,"lon":5.37168,"is_reserved":false,"is_disabled":false,"rental_uris":{"android":"levelo://app?vid=576587a2-3de3-4e92-b8c0-0e66bc1a9dab","ios":"levelo://app?vid=576587a2-3de3-4e92-b8c0-0e66bc1a9dab"},"vehicle_type_id":"4","last_reported":1758449345,"current_range_meters":2000,"station_id":"ce4bgh92rcd13ifvqb40","pricing_plan_id":"cebpf4jnsgd1na2vs0mg"},{"bike_id":"de9c7f72-7cee-4d71-a25d-cc4c3553f542","system_id":"levelo_inurba_marseille","lat":43.28409,"lon":5.37514,"is_reserved":false,"is_disabled":false,"rental_uris":{"android":"levelo://app?vid=de9c7f72-7cee-4d71-a25d-cc4c3553f542","ios":"levelo://app?vid=de9c7f72-7cee-4d71-a25d-cc4c3553f542"},"vehicle_type_id":"4","last_reported":1758449345,"current_range_meters":4400,"station_id":"ce4bh412rcd13ifvqds0","pricing_plan_id":"cebpf4jnsgd1na2vs0mg"},{"bike_id":"66fcf85f-9681-4511-90e3-ea50d28c47ab","system_id":"levelo_inurba_marseille","lat":43.27365,"lon":5.36262,"is_reserved":false,"is_disabled":false,"rental_uris":{"android":"levelo://app?vid=66fcf85f-9681-4511-90e3-ea50d28c47ab","ios":"levelo://app?vid=66fcf85f-9681-4511-90e3-ea50d28c47ab"},"vehicle_type_id":"4","last_reported":1758449345,"current_range_meters":4400,"station_id":"ce4bhbh2rcd13ifvqeo0","pricing_plan_id":"cebpf4jnsgd1na2vs0mg"},{"bike_id":"0960e3dd-c358-4474-bd10-8223758e1f6b","system_id":"levelo_inurba_marseille","lat":43.296996,"lon":5.376855,"is_reserved":false,"is_disabled":false,"rental_uris":{"android":"levelo://app?vid=0960e3dd-c358-4474-bd10-8223758e1f6b","ios":"levelo://app?vid=0960e3dd-c358-4474-bd10-8223758e1f6b"},"vehicle_type_id":"4","last_reported":1758449345,"current_range_meters":4400,"station_id":"","pricing_plan_id":"cebpf4jnsgd1na2vs0mg"},{"bike_id":"6ee0c93d-a636-47a2-b306-796979825eb9","system_id":"levelo_inurba_marseille","lat":43.28075,"lon":5.3966,"is_reserved":false,"is_disabled":false,"rental_uris":{"android":"levelo://app?vid=6ee0c93d-a636-47a2-b306-796979825eb9","ios":"levelo://app?vid=6ee0c93d-a636-47a2-b306-796979825eb9"},"vehicle_type_id":"4","last_reported":1758449345,"current_range_meters":4400,"station_id":"ce4bho12rcd13ifvqh2g","pricing_plan_id":"cebpf4jnsgd1na2vs0mg"},{"bike_id":"ab5b9659-77bc-417b-8f8b-7002662fbf28","system_id":"levelo_inurba_marseille","lat":43.29324,"lon":5.41152,"is_reserved":false,"is_disabled":false,"rental_uris":{"android":"levelo://app?vid=ab5b9659-77bc-417b-8f8b-7002662fbf28","ios":"levelo://app?vid=ab5b9659-77bc-417b-8f8b-7002662fbf28"},"vehicle_type_id":"4","last_reported":1758449345,"current_range_meters":4800,"station_id":"","pricing_plan_id":"cebpf4jnsgd1na2vs0mg"},{"bike_id":"1dbc6ff6-de1e-44f5-9332-c8820f81075d","system_id":"levelo_inurba_marseille","lat":43.21203,"lon":5.35063,"is_reserved":false,"is_disabled":true,"rental_uris":{"android":"levelo://app?vid=1dbc6ff6-de1e-44f5-9332-c8820f81075d","ios":"levelo://app?vid=1dbc6ff6-de1e-44f5-9332-c8820f81075d"},"vehicle_type_id":"4","last_reported":1758449345,"current_range_meters":5600,"station_id":"st_cvj6sg6p6f1abm77japg","pricing_plan_id":"cebpf4jnsgd1na2vs0mg"},{"bike_id":"8d4f2265-d2f7-44b9-8035-c9ed27b0900d","system_id":"levelo_inurba_marseille","lat":43.21738,"lon":5.34609,"is_reserved":false,"is_disabled":false,"rental_uris":{"android":"levelo://app?vid=8d4f2265-d2f7-44b9-8035-c9ed27b0900d","ios":"levelo://app?vid=8d4f2265-d2f7-44b9-8035-c9ed27b0900d"},"vehicle_type_id":"4","last_reported":1758449345,"current_range_meters":5600,"station_id":"st_cvj6r9ubvosntc0bgbag","pricing_plan_id":"cebpf4jnsgd1na2vs0mg"},{"bike_id":"04ac4072-76af-404d-8a72-a8ffe8ae8fcc","system_id":"levelo_inurba_marseille","lat":43.31861,"lon":5.39051,"is_reserved":false,"is_disabled":true,"rental_uris":{"android":"levelo://app?vid=04ac4072-76af-404d-8a72-a8ffe8ae8fcc","ios":"levelo://app?vid=04ac4072-76af-404d-8a72-a8ffe8ae8fcc"},"vehicle_type_id":"4","last_reported":1758449345,"current_range_meters":5600,"station_id":"","pricing_plan_id":"cebpf4jnsgd1na2vs0mg"},{"bike_id":"c627b34a-8e81-4438-af3b-4fd0aab1c160","system_id":"levelo_inurba_marseille","lat":43.29661,"lon":5.36018,"is_reserved":false,"is_disabled":false,"rental_uris":{"android":"levelo://app?vid=c627b34a-8e81-4438-af3b-4fd0aab1c160","ios":"levelo://app?vid=c627b34a-8e81-4438-af3b-4fd0aab1c160"},"vehicle_type_id":"4","last_reported":1758449345,"current_range_meters":5600,"station_id":"","pricing_plan_id":"cebpf4jnsgd1na2vs0mg"},{"bike_id":"cb733ef9-6b0c-41ea-8e73-019490cba6df","system_id":"levelo_inurba_marseille","lat":43.2781,"lon":5.42683,"is_reserved":false,"is_disabled":false,"rental_uris":{"android":"levelo://app?vid=cb733ef9-6b0c-41ea-8e73-019490cba6df","ios":"levelo://app?vid=cb733ef9-6b0c-41ea-8e73-019490cba6df"},"vehicle_type_id":"4","last_reported":1758449345,"current_range_meters":5600,"station_id":"","pricing_plan_id":"cebpf4jnsgd1na2vs0mg"},{"bike_id":"ab7a8fdd-ad48-4fd5-abfd-ecb2615d4d39","system_id":"levelo_inurba_marseille","lat":43.32343,"lon":5.406232,"is_reserved":false,"is_disabled":false,"rental_uris":{"android":"levelo://app?vid=ab7a8fdd-ad48-4fd5-abfd-ecb2615d4d39","ios":"levelo://app?vid=ab7a8fdd-ad48-4fd5-abfd-ecb2615d4d39"},"vehicle_type_id":"4","last_reported":1758449345,"current_range_meters":6000,"station_id":"ce4bhq92rcd13ifvqhjg","pricing_plan_id":"cebpf4jnsgd1na2vs0mg"},{"bike_id":"3082f593-a5a6-48f9-afa8-383813f7af0b","system_id":"levelo_inurba_marseille","lat":43.21726,"lon":5.34611,"is_reserved":false,"is_disabled":true,"rental_uris":{"android":"levelo://app?vid=3082f593-a5a6-48f9-afa8-383813f7af0b","ios":"levelo://app?vid=3082f593-a5a6-48f9-afa8-383813f7af0b"},"vehicle_type_id":"4","last_reported":1758449345,"current_range_meters":6000,"station_id":"st_cvj6r9ubvosntc0bgbag","pricing_plan_id":"cebpf4jnsgd1na2vs0mg"},{"bike_id":"7bb892d0-62c9-41c9-b700-b88106760a0c","system_id":"levelo_inurba_marseille","lat":43.314844,"lon":5.373106,"is_reserved":false,"is_disabled":false,"rental_uris":{"android":"levelo://app?vid=7bb892d0-62c9-41c9-b700-b88106760a0c","ios":"levelo://app?vid=7bb892d0-62c9-41c9-b700-b88106760a0c"},"vehicle_type_id":"4","last_reported":1758449345,"current_range_meters":6000,"station_id":"ce4bgt12rcd13ifvqcd0","pricing_plan_id":"cebpf4jnsgd1na2vs0mg"},{"bike_id":"53264fdb-d3ce-412c-9b54-11908fde133c","system_id":"levelo_inurba_marseille","lat":43.25862,"lon":5.3992,"is_reserved":false,"is_disabled":true,"rental_uris":{"android":"levelo://app?vid=53264fdb-d3ce-412c-9b54-11908fde133c","ios":"levelo://app?vid=53264fdb-d3ce-412c-9b54-11908fde133c"},"vehicle_type_id":"4","last_reported":1758449345,"current_range_meters":6000,"station_id":"ce4bhl92rcd13ifvqghg","pricing_plan_id":"cebpf4jnsgd1na2vs0mg"},{"bike_id":"37e1f6b1-cf86-4107-9a0b-9e12910128e5","system_id":"levelo_inurba_marseille","lat":43.30191,"lon":5.36633,"is_reserved":false,"is_disabled":true,"rental_uris":{"android":"levelo://app?vid=37e1f6b1-cf86-4107-9a0b-9e12910128e5","ios":"levelo://app?vid=37e1f6b1-cf86-4107-9a0b-9e12910128e5"},"vehicle_type_id":"4","last_reported":1758449345,"current_range_meters":6000,"station_id":"ce4bgrh2rcd13ifvqc8g","pricing_plan_id":"cebpf4jnsgd1na2vs0mg"},{"bike_id":"de837928-bb1f-41a1-962e-3e89effce715","system_id":"levelo_inurba_marseille","lat":43.25004,"lon":5.38925,"is_reserved":false,"is_disabled":false,"rental_uris":{"android":"levelo://app?vid=de837928-bb1f-41a1-962e-3e89effce715","ios":"levelo://app?vid=de837928-bb1f-41a1-962e-3e89effce715"},"vehicle_type_id":"4","last_reported":1758449345,"current_range_meters":6000,"station_id":"ce4bhgp2rcd13ifvqfd0","pricing_plan_id":"cebpf4jnsgd1na2vs0mg"},{"bike_id":"2489bf08-9772-458c-b074-6f5d50469398","system_id":"levelo_inurba_marseille","lat":43.27976,"lon":5.38744,"is_reserved":false,"is_disabled":false,"rental_uris":{"android":"levelo://app?vid=2489bf08-9772-458c-b074-6f5d50469398","ios":"levelo://app?vid=2489bf08-9772-458c-b074-6f5d50469398"},"vehicle_type_id":"4","last_reported":1758449345,"current_range_meters":6000,"station_id":"ce4bhg12rcd13ifvqf80","pricing_plan_id":"cebpf4jnsgd1na2vs0mg"},{"bike_id":"b661aefa-95f2-4fb6-99d8-cf8e181b4be6","system_id":"levelo_inurba_marseille","lat":43.28621,"lon":5.35104,"is_reserved":false,"is_disabled":false,"rental_uris":{"android":"levelo://app?vid=b661aefa-95f2-4fb6-99d8-cf8e181b4be6","ios":"levelo://app?vid=b661aefa-95f2-4fb6-99d8-cf8e181b4be6"},"vehicle_type_id":"4","last_reported":1758449345,"current_range_meters":6000,"station_id":"ce4bhch2rcd13ifvqeug","pricing_plan_id":"cebpf4jnsgd1na2vs0mg"},{"bike_id":"c51ad096-4aa3-4897-8a22-0348b7c08dfc","system_id":"levelo_inurba_marseille","lat":43.28088,"lon":5.39652,"is_reserved":false,"is_disabled":true,"rental_uris":{"android":"levelo://app?vid=c51ad096-4aa3-4897-8a22-0348b7c08dfc","ios":"levelo://app?vid=c51ad096-4aa3-4897-8a22-0348b7c08dfc"},"vehicle_type_id":"4","last_reported":1758449345,"current_range_meters":6400,"station_id":"ce4bho12rcd13ifvqh2g","pricing_plan_id":"cebpf4jnsgd1na2vs0mg"},{"bike_id":"7dd65b1b-fb7b-4087-9803-34d477de11ae","system_id":"levelo_inurba_marseille","lat":43.21182,"lon":5.35068,"is_reserved":false,"is_disabled":false,"rental_uris":{"android":"levelo://app?vid=7dd65b1b-fb7b-4087-9803-34d477de11ae","ios":"levelo://app?vid=7dd65b1b-fb7b-4087-9803-34d477de11ae"},"vehicle_type_id":"4","last_reported":1758449345,"current_range_meters":6400,"station_id":"st_cvj6sg6p6f1abm77japg","pricing_plan_id":"cebpf4jnsgd1na2vs0mg"},{"bike_id":"12ed6c49-784d-4e90-9587-47eae4f126ab","system_id":"levelo_inurba_marseille","lat":43.21758,"lon":5.34604,"is_reserved":false,"is_disabled":true,"rental_uris":{"android":"levelo://app?vid=12ed6c49-784d-4e90-9587-47eae4f126ab","ios":"levelo://app?vid=12ed6c49-784d-4e90-9587-47eae4f126ab"},"vehicle_type_id":"4","last_reported":1758449345,"current_range_meters":6400,"station_id":"st_cvj6r9ubvosntc0bgbag","pricing_plan_id":"cebpf4jnsgd1na2vs0mg"},{"bike_id":"9d4637f7-7575-493e-90c5-75ce259007e7","system_id":"levelo_inurba_marseille","lat":43.29228,"lon":5.36064,"is_reserved":false,"is_disabled":false,"rental_uris":{"android":"levelo://app?vid=9d4637f7-7575-493e-90c5-75ce259007e7","ios":"levelo://app?vid=9d4637f7-7575-493e-90c5-75ce259007e7"},"vehicle_type_id":"4","last_reported":1758449345,"current_range_meters":6800,"station_id":"ce4bhbh2rcd13ifvqeqg","pricing_plan_id":"cebpf4jnsgd1na2vs0mg"},{"bike_id":"575f379b-682e-45a6-a90b-e2da032a9ae0","system_id":"levelo_inurba_marseille","lat":43.2119,"lon":5.3506,"is_reserved":false,"is_disabled":false,"rental_uris":{"android":"levelo://app?vid=575f379b-682e-45a6-a90b-e2da032a9ae0","ios":"levelo://app?vid=575f379b-682e-45a6-a90b-e2da032a9ae0"},"vehicle_type_id":"4","last_reported":1758449345,"current_range_meters":6800,"station_id":"st_cvj6sg6p6f1abm77japg","pricing_plan_id":"cebpf4jnsgd1na2vs0mg"},{"bike_id":"fcb3f6af-c7d4-4ccc-be82-7f951e8865a2","system_id":"levelo_inurba_marseille","lat":43.211955,"lon":5.35077,"is_reserved":false,"is_disabled":false,"rental_uris":{"android":"levelo://app?vid=fcb3f6af-c7d4-4ccc-be82-7f951e8865a2","ios":"levelo://app?vid=fcb3f6af-c7d4-4ccc-be82-7f951e8865a2"},"vehicle_type_id":"4","last_reported":1758449345,"current_range_meters":7200,"station_id":"st_cvj6sg6p6f1abm77japg","pricing_plan_id":"cebpf4jnsgd1na2vs0mg"},{"bike_id":"c129f003-ae23-4809-a8ef-7609a70d8ece","system_id":"levelo_inurba_marseille","lat":43.29221,"lon":5.36075,"is_reserved":false,"is_disabled":false,"rental_uris":{"android":"levelo://app?vid=c129f003-ae23-4809-a8ef-7609a70d8ece","ios":"levelo://app?vid=c129f003-ae23-4809-a8ef-7609a70d8ece"},"vehicle_type_id":"4","last_reported":1758449345,"current_range_meters":7200,"station_id":"ce4bhbh2rcd13ifvqeqg","pricing_plan_id":"cebpf4jnsgd1na2vs0mg"},{"bike_id":"abf01dd6-da07-4361-9ff9-4569876e1b11","system_id":"levelo_inurba_marseille","lat":43.299625,"lon":5.413272,"is_reserved":false,"is_disabled":false,"rental_uris":{"android":"levelo://app?vid=abf01dd6-da07-4361-9ff9-4569876e1b11","ios":"levelo://app?vid=abf01dd6-da07-4361-9ff9-4569876e1b11"},"vehicle_type_id":"4","last_reported":1758449345,"current_range_meters":6800,"station_id":"ce4bhp12rcd13ifvqh9g","pricing_plan_id":"cebpf4jnsgd1na2vs0mg"},{"bike_id":"082e134a-0735-42ba-a6e7-2fa32f029959","system_id":"levelo_inurba_marseille","lat":43.292281,"lon":5.360513,"is_reserved":false,"is_disabled":false,"rental_uris":{"android":"levelo://app?vid=082e134a-0735-42ba-a6e7-2fa32f029959","ios":"levelo://app?vid=082e134a-0735-42ba-a6e7-2fa32f029959"},"vehicle_type_id":"4","last_reported":1758449345,"current_range_meters":7200,"station_id":"ce4bhbh2rcd13ifvqeqg","pricing_plan_id":"cebpf4jnsgd1na2vs0mg"},{"bike_id":"301d078e-4349-493d-b73c-8f97693d9121","system_id":"levelo_inurba_marseille","lat":43.23966,"lon":5.3663,"is_reserved":false,"is_disabled":false,"rental_uris":{"android":"levelo://app?vid=301d078e-4349-493d-b73c-8f97693d9121","ios":"levelo://app?vid=301d078e-4349-493d-b73c-8f97693d9121"},"vehicle_type_id":"4","last_reported":1758449345,"current_range_meters":6800,"station_id":"ce4bhi12rcd13ifvqfp0","pricing_plan_id":"cebpf4jnsgd1na2vs0mg"},{"bike_id":"e6f59a7f-e88f-4d65-bed3-135ed8be6983","system_id":"levelo_inurba_marseille","lat":43.32551,"lon":5.39103,"is_reserved":false,"is_disabled":true,"rental_uris":{"android":"levelo://app?vid=e6f59a7f-e88f-4d65-bed3-135ed8be6983","ios":"levelo://app?vid=e6f59a7f-e88f-4d65-bed3-135ed8be6983"},"vehicle_type_id":"4","last_reported":1758449345,"current_range_meters":7200,"station_id":"","pricing_plan_id":"cebpf4jnsgd1na2vs0mg"},{"bike_id":"06bbb256-58bd-4efe-9862-3bad26d1e975","system_id":"levelo_inurba_marseille","lat":43.265692,"lon":5.372804,"is_reserved":false,"is_disabled":false,"rental_uris":{"android":"levelo://app?vid=06bbb256-58bd-4efe-9862-3bad26d1e975","ios":"levelo://app?vid=06bbb256-58bd-4efe-9862-3bad26d1e975"},"vehicle_type_id":"4","last_reported":1758449345,"current_range_meters":7200,"station_id":"ce4bhg12rcd13ifvqf70","pricing_plan_id":"cebpf4jnsgd1na2vs0mg"},{"bike_id":"a7c9b968-6ca5-44d5-aae2-cd975b453f8f","system_id":"levelo_inurba_marseille","lat":43.28271,"lon":5.35079,"is_reserved":false,"is_disabled":false,"rental_uris":{"android":"levelo://app?vid=a7c9b968-6ca5-44d5-aae2-cd975b453f8f","ios":"levelo://app?vid=a7c9b968-6ca5-44d5-aae2-cd975b453f8f"},"vehicle_type_id":"4","last_reported":1758449345,"current_range_meters":7200,"station_id":"ce4bhbp2rcd13ifvqerg","pricing_plan_id":"cebpf4jnsgd1na2vs0mg"},{"bike_id":"897c4e80-6680-4e9a-8f03-da389a60d6fa","system_id":"levelo_inurba_marseille","lat":43.28216,"lon":5.3507,"is_reserved":false,"is_disabled":false,"rental_uris":{"android":"levelo://app?vid=897c4e80-6680-4e9a-8f03-da389a60d6fa","ios":"levelo://app?vid=897c4e80-6680-4e9a-8f03-da389a60d6fa"},"vehicle_type_id":"4","last_reported":1758449345,"current_range_meters":7200,"station_id":"ce4bhbp2rcd13ifvqerg","pricing_plan_id":"cebpf4jnsgd1na2vs0mg"},{"bike_id":"fb995bc5-3894-4487-abcd-e5b9a8d3d3a0","system_id":"levelo_inurba_marseille","lat":43.24279,"lon":5.40279,"is_reserved":false,"is_disabled":false,"rental_uris":{"android":"levelo://app?vid=fb995bc5-3894-4487-abcd-e5b9a8d3d3a0","ios":"levelo://app?vid=fb995bc5-3894-4487-abcd-e5b9a8d3d3a0"},"vehicle_type_id":"4","last_reported":1758449345,"current_range_meters":8000,"station_id":"","pricing_plan_id":"cebpf4jnsgd1na2vs0mg"},{"bike_id":"5b84af94-a4d6-4b46-a63f-085ff5681f73","system_id":"levelo_inurba_marseille","lat":43.211891,"lon":5.350818,"is_reserved":false,"is_disabled":false,"rental_uris":{"android":"levelo://app?vid=5b84af94-a4d6-4b46-a63f-085ff5681f73","ios":"levelo://app?vid=5b84af94-a4d6-4b46-a63f-085ff5681f73"},"vehicle_type_id":"4","last_reported":1758449345,"current_range_meters":8000,"station_id":"st_cvj6sg6p6f1abm77japg","pricing_plan_id":"cebpf4jnsgd1na2vs0mg"},{"bike_id":"617dca4b-4508-4d52-9e62-d583d919ac44","system_id":"levelo_inurba_marseille","lat":43.29731,"lon":5.37133,"is_reserved":false,"is_disabled":false,"rental_uris":{"android":"levelo://app?vid=617dca4b-4508-4d52-9e62-d583d919ac44","ios":"levelo://app?vid=617dca4b-4508-4d52-9e62-d583d919ac44"},"vehicle_type_id":"4","last_reported":1758449345,"current_range_meters":8000,"station_id":"","pricing_plan_id":"cebpf4jnsgd1na2vs0mg"},{"bike_id":"293cc341-3ff9-40e6-8a5f-29bbe0762bc7","system_id":"levelo_inurba_marseille","lat":43.28273,"lon":5.35069,"is_reserved":false,"is_disabled":false,"rental_uris":{"android":"levelo://app?vid=293cc341-3ff9-40e6-8a5f-29bbe0762bc7","ios":"levelo://app?vid=293cc341-3ff9-40e6-8a5f-29bbe0762bc7"},"vehicle_type_id":"4","last_reported":1758449345,"current_range_meters":8000,"station_id":"ce4bhbp2rcd13ifvqerg","pricing_plan_id":"cebpf4jnsgd1na2vs0mg"},{"bike_id":"0fa5cf15-d864-4cb8-8817-3d9b034461ef","system_id":"levelo_inurba_marseille","lat":43.29882,"lon":5.39751,"is_reserved":false,"is_disabled":false,"rental_uris":{"android":"levelo://app?vid=0fa5cf15-d864-4cb8-8817-3d9b034461ef","ios":"levelo://app?vid=0fa5cf15-d864-4cb8-8817-3d9b034461ef"},"vehicle_type_id":"4","last_reported":1758449345,"current_range_meters":8400,"station_id":"ce4bh0h2rcd13ifvqd50","pricing_plan_id":"cebpf4jnsgd1na2vs0mg"},{"bike_id":"c4706891-6ce1-4440-91ff-a3ecf2ff007e","system_id":"levelo_inurba_marseille","lat":43.26374,"lon":5.40075,"is_reserved":false,"is_disabled":false,"rental_uris":{"android":"levelo://app?vid=c4706891-6ce1-4440-91ff-a3ecf2ff007e","ios":"levelo://app?vid=c4706891-6ce1-4440-91ff-a3ecf2ff007e"},"vehicle_type_id":"4","last_reported":1758449345,"current_range_meters":8400,"station_id":"","pricing_plan_id":"cebpf4jnsgd1na2vs0mg"},{"bike_id":"98e8af00-4b83-49fb-a286-0d2396c92bd0","system_id":"levelo_inurba_marseille","lat":43.30901,"lon":5.3686,"is_reserved":false,"is_disabled":true,"rental_uris":{"android":"levelo://app?vid=98e8af00-4b83-49fb-a286-0d2396c92bd0","ios":"levelo://app?vid=98e8af00-4b83-49fb-a286-0d2396c92bd0"},"vehicle_type_id":"4","last_reported":1758449345,"current_range_meters":8400,"station_id":"ce4bgn92rcd13ifvqbvg","pricing_plan_id":"cebpf4jnsgd1na2vs0mg"},{"bike_id":"ae5ccd80-2896-4733-9148-6522e9bbfe0c","system_id":"levelo_inurba_marseille","lat":43.22559,"lon":5.41609,"is_reserved":false,"is_disabled":true,"rental_uris":{"android":"levelo://app?vid=ae5ccd80-2896-4733-9148-6522e9bbfe0c","ios":"levelo://app?vid=ae5ccd80-2896-4733-9148-6522e9bbfe0c"},"vehicle_type_id":"4","last_reported":1758449345,"current_range_meters":8400,"station_id":"st_d2o4gvlbi1j2169b742g","pricing_plan_id":"cebpf4jnsgd1na2vs0mg"},{"bike_id":"6b2e6efa-2927-48f9-9c69-469dd5685dc6","system_id":"levelo_inurba_marseille","lat":43.29871,"lon":5.38907,"is_reserved":false,"is_disabled":false,"rental_uris":{"android":"levelo://app?vid=6b2e6efa-2927-48f9-9c69-469dd5685dc6","ios":"levelo://app?vid=6b2e6efa-2927-48f9-9c69-469dd5685dc6"},"vehicle_type_id":"4","last_reported":1758449345,"current_range_meters":8400,"station_id":"ce4bh392rcd13ifvqdl0","pricing_plan_id":"cebpf4jnsgd1na2vs0mg"},{"bike_id":"83774ab6-916a-4512-bbb6-fffff61e684e","system_id":"levelo_inurba_marseille","lat":43.290399,"lon":5.399699,"is_reserved":false,"is_disabled":false,"rental_uris":{"android":"levelo://app?vid=83774ab6-916a-4512-bbb6-fffff61e684e","ios":"levelo://app?vid=83774ab6-916a-4512-bbb6-fffff61e684e"},"vehicle_type_id":"4","last_reported":1758449345,"current_range_meters":8400,"station_id":"ce4bh392rcd13ifvqdm0","pricing_plan_id":"cebpf4jnsgd1na2vs0mg"},{"bike_id":"41d41162-c451-4e5f-8bcf-1c9a70c5510c","system_id":"levelo_inurba_marseille","lat":43.296173,"lon":5.377064,"is_reserved":false,"is_disabled":true,"rental_uris":{"android":"levelo://app?vid=41d41162-c451-4e5f-8bcf-1c9a70c5510c","ios":"levelo://app?vid=41d41162-c451-4e5f-8bcf-1c9a70c5510c"},"vehicle_type_id":"4","last_reported":1758449345,"current_range_meters":8400,"station_id":"ce4bgi92rcd13ifvqb90","pricing_plan_id":"cebpf4jnsgd1na2vs0mg"},{"bike_id":"6d0ef348-fd86-4c26-9096-d229d04ea986","system_id":"levelo_inurba_marseille","lat":43.278853,"lon":5.405568,"is_reserved":false,"is_disabled":true,"rental_uris":{"android":"levelo://app?vid=6d0ef348-fd86-4c26-9096-d229d04ea986","ios":"levelo://app?vid=6d0ef348-fd86-4c26-9096-d229d04ea986"},"vehicle_type_id":"4","last_reported":1758449345,"current_range_meters":8400,"station_id":"","pricing_plan_id":"cebpf4jnsgd1na2vs0mg"},{"bike_id":"67115f0a-62b4-490a-bc57-71f8584aaebf","system_id":"levelo_inurba_marseille","lat":43.249668,"lon":5.424522,"is_reserved":false,"is_disabled":true,"rental_uris":{"android":"levelo://app?vid=67115f0a-62b4-490a-bc57-71f8584aaebf","ios":"levelo://app?vid=67115f0a-62b4-490a-bc57-71f8584aaebf"},"vehicle_type_id":"4","last_reported":1758449345,"current_range_meters":8400,"station_id":"","pricing_plan_id":"cebpf4jnsgd1na2vs0mg"},{"bike_id":"284e5dc7-9aa4-4996-a049-3639bfbc7f92","system_id":"levelo_inurba_marseille","lat":43.308148,"lon":5.376823,"is_reserved":false,"is_disabled":false,"rental_uris":{"android":"levelo://app?vid=284e5dc7-9aa4-4996-a049-3639bfbc7f92","ios":"levelo://app?vid=284e5dc7-9aa4-4996-a049-3639bfbc7f92"},"vehicle_type_id":"4","last_reported":1758449345,"current_range_meters":8400,"station_id":"ce4bgv92rcd13ifvqcq0","pricing_plan_id":"cebpf4jnsgd1na2vs0mg"},{"bike_id":"5c84a0b8-31fd-4619-921d-8e6c1f0a93fe","system_id":"levelo_inurba_marseille","lat":43.29064,"lon":5.37158,"is_reserved":false,"is_disabled":false,"rental_uris":{"android":"levelo://app?vid=5c84a0b8-31fd-4619-921d-8e6c1f0a93fe","ios":"levelo://app?vid=5c84a0b8-31fd-4619-921d-8e6c1f0a93fe"},"vehicle_type_id":"4","last_reported":1758449345,"current_range_meters":8400,"station_id":"ce4bh5p2rcd13ifvqe4g","pricing_plan_id":"cebpf4jnsgd1na2vs0mg"},{"bike_id":"3116075e-fa9b-423b-beef-aeee538d6e30","system_id":"levelo_inurba_marseille","lat":43.21738,"lon":5.34607,"is_reserved":false,"is_disabled":true,"rental_uris":{"android":"levelo://app?vid=3116075e-fa9b-423b-beef-aeee538d6e30","ios":"levelo://app?vid=3116075e-fa9b-423b-beef-aeee538d6e30"},"vehicle_type_id":"4","last_reported":1758449345,"current_range_meters":8800,"station_id":"st_cvj6r9ubvosntc0bgbag","pricing_plan_id":"cebpf4jnsgd1na2vs0mg"},{"bike_id":"9637c146-59d7-436a-a4f3-e8022fe36949","system_id":"levelo_inurba_marseille","lat":43.21166,"lon":5.35076,"is_reserved":false,"is_disabled":false,"rental_uris":{"android":"levelo://app?vid=9637c146-59d7-436a-a4f3-e8022fe36949","ios":"levelo://app?vid=9637c146-59d7-436a-a4f3-e8022fe36949"},"vehicle_type_id":"4","last_reported":1758449345,"current_range_meters":8800,"station_id":"st_cvj6sg6p6f1abm77japg","pricing_plan_id":"cebpf4jnsgd1na2vs0mg"},{"bike_id":"0319c100-5c9c-49b7-9f2a-421506d58186","system_id":"levelo_inurba_marseille","lat":43.31774,"lon":5.38983,"is_reserved":false,"is_disabled":true,"rental_uris":{"android":"levelo://app?vid=0319c100-5c9c-49b7-9f2a-421506d58186","ios":"levelo://app?vid=0319c100-5c9c-49b7-9f2a-421506d58186"},"vehicle_type_id":"4","last_reported":1758449345,"current_range_meters":8800,"station_id":"ce4bhqp2rcd13ifvqhng","pricing_plan_id":"cebpf4jnsgd1na2vs0mg"},{"bike_id":"a5949679-2496-4863-bc98-dd5b513e9c82","system_id":"levelo_inurba_marseille","lat":43.251038,"lon":5.403248,"is_reserved":false,"is_disabled":false,"rental_uris":{"android":"levelo://app?vid=a5949679-2496-4863-bc98-dd5b513e9c82","ios":"levelo://app?vid=a5949679-2496-4863-bc98-dd5b513e9c82"},"vehicle_type_id":"4","last_reported":1758449345,"current_range_meters":9200,"station_id":"ce4bhlh2rcd13ifvqgig","pricing_plan_id":"cebpf4jnsgd1na2vs0mg"},{"bike_id":"9129132d-3fea-42ae-9b5d-8675beea18c6","system_id":"levelo_inurba_marseille","lat":43.29792,"lon":5.37107,"is_reserved":false,"is_disabled":false,"rental_uris":{"android":"levelo://app?vid=9129132d-3fea-42ae-9b5d-8675beea18c6","ios":"levelo://app?vid=9129132d-3fea-42ae-9b5d-8675beea18c6"},"vehicle_type_id":"4","last_reported":1758449345,"current_range_meters":9200,"station_id":"ce4bgop2rcd13ifvqc1g","pricing_plan_id":"cebpf4jnsgd1na2vs0mg"},{"bike_id":"0f7caa9f-1d1a-40d7-9b4a-2f8720e63681","system_id":"levelo_inurba_marseille","lat":43.30864,"lon":5.37623,"is_reserved":false,"is_disabled":false,"rental_uris":{"android":"levelo://app?vid=0f7caa9f-1d1a-40d7-9b4a-2f8720e63681","ios":"levelo://app?vid=0f7caa9f-1d1a-40d7-9b4a-2f8720e63681"},"vehicle_type_id":"4","last_reported":1758449345,"current_range_meters":9600,"station_id":"","pricing_plan_id":"cebpf4jnsgd1na2vs0mg"},{"bike_id":"a33a7d2b-3a19-4e17-8886-71256af367d3","system_id":"levelo_inurba_marseille","lat":43.28169,"lon":5.42665,"is_reserved":false,"is_disabled":true,"rental_uris":{"android":"levelo://app?vid=a33a7d2b-3a19-4e17-8886-71256af367d3","ios":"levelo://app?vid=a33a7d2b-3a19-4e17-8886-71256af367d3"},"vehicle_type_id":"4","last_reported":1758449345,"current_range_meters":9600,"station_id":"ce4bhnh2rcd13ifvqgug","pricing_plan_id":"cebpf4jnsgd1na2vs0mg"},{"bike_id":"c1843d42-9f15-4235-8c7f-0c60147cb155","system_id":"levelo_inurba_marseille","lat":43.21194,"lon":5.35064,"is_reserved":false,"is_disabled":false,"rental_uris":{"android":"levelo://app?vid=c1843d42-9f15-4235-8c7f-0c60147cb155","ios":"levelo://app?vid=c1843d42-9f15-4235-8c7f-0c60147cb155"},"vehicle_type_id":"4","last_reported":1758449345,"current_range_meters":9600,"station_id":"st_cvj6sg6p6f1abm77japg","pricing_plan_id":"cebpf4jnsgd1na2vs0mg"},{"bike_id":"facab4cd-9207-4e9f-ab62-f64f567a1437","system_id":"levelo_inurba_marseille","lat":43.301355,"lon":5.388041,"is_reserved":false,"is_disabled":true,"rental_uris":{"android":"levelo://app?vid=facab4cd-9207-4e9f-ab62-f64f567a1437","ios":"levelo://app?vid=facab4cd-9207-4e9f-ab62-f64f567a1437"},"vehicle_type_id":"4","last_reported":1758449345,"current_range_meters":9600,"station_id":"ce4bghh2rcd13ifvqb60","pricing_plan_id":"cebpf4jnsgd1na2vs0mg"},{"bike_id":"27c0c058-0b73-410e-b675-424a541acc3a","system_id":"levelo_inurba_marseille","lat":43.30541,"lon":5.36573,"is_reserved":false,"is_disabled":false,"rental_uris":{"android":"levelo://app?vid=27c0c058-0b73-410e-b675-424a541acc3a","ios":"levelo://app?vid=27c0c058-0b73-410e-b675-424a541acc3a"},"vehicle_type_id":"4","last_reported":1758449345,"current_range_meters":9600,"station_id":"ce4bgs12rcd13ifvqcag","pricing_plan_id":"cebpf4jnsgd1na2vs0mg"},{"bike_id":"213f818a-2fc2-423a-8734-2921a1895f7c","system_id":"levelo_inurba_marseille","lat":43.21207,"lon":5.35063,"is_reserved":false,"is_disabled":false,"rental_uris":{"android":"levelo://app?vid=213f818a-2fc2-423a-8734-2921a1895f7c","ios":"levelo://app?vid=213f818a-2fc2-423a-8734-2921a1895f7c"},"vehicle_type_id":"4","last_reported":1758449345,"current_range_meters":10000,"station_id":"st_cvj6sg6p6f1abm77japg","pricing_plan_id":"cebpf4jnsgd1na2vs0mg"},{"bike_id":"55d4a14e-5e45-43a9-81b2-d81695389277","system_id":"levelo_inurba_marseille","lat":43.29945,"lon":5.36549,"is_reserved":false,"is_disabled":false,"rental_uris":{"android":"levelo://app?vid=55d4a14e-5e45-43a9-81b2-d81695389277","ios":"levelo://app?vid=55d4a14e-5e45-43a9-81b2-d81695389277"},"vehicle_type_id":"4","last_reported":1758449345,"current_range_meters":10000,"station_id":"ce4bgm92rcd13ifvqbr0","pricing_plan_id":"cebpf4jnsgd1na2vs0mg"},{"bike_id":"2f4ba3c4-d560-4d54-af01-9eafbd4f5950","system_id":"levelo_inurba_marseille","lat":43.24394,"lon":5.37061,"is_reserved":false,"is_disabled":true,"rental_uris":{"android":"levelo://app?vid=2f4ba3c4-d560-4d54-af01-9eafbd4f5950","ios":"levelo://app?vid=2f4ba3c4-d560-4d54-af01-9eafbd4f5950"},"vehicle_type_id":"4","last_reported":1758449345,"current_range_meters":10000,"station_id":"ce4bhhh2rcd13ifvqfk0","pricing_plan_id":"cebpf4jnsgd1na2vs0mg"},{"bike_id":"b766d582-d4f0-4f9a-9867-0ae0b8177870","system_id":"levelo_inurba_marseille","lat":43.2119,"lon":5.3507,"is_reserved":false,"is_disabled":false,"rental_uris":{"android":"levelo://app?vid=b766d582-d4f0-4f9a-9867-0ae0b8177870","ios":"levelo://app?vid=b766d582-d4f0-4f9a-9867-0ae0b8177870"},"vehicle_type_id":"4","last_reported":1758449345,"current_range_meters":10000,"station_id":"st_cvj6sg6p6f1abm77japg","pricing_plan_id":"cebpf4jnsgd1na2vs0mg"},{"bike_id":"07301796-3988-43c2-b3f6-668ef1167afb","system_id":"levelo_inurba_marseille","lat":43.30135,"lon":5.39866,"is_reserved":false,"is_disabled":false,"rental_uris":{"android":"levelo://app?vid=07301796-3988-43c2-b3f6-668ef1167afb","ios":"levelo://app?vid=07301796-3988-43c2-b3f6-668ef1167afb"},"vehicle_type_id":"4","last_reported":1758449345,"current_range_meters":9600,"station_id":"ce4bh0h2rcd13ifvqd40","pricing_plan_id":"cebpf4jnsgd1na2vs0mg"},{"bike_id":"97893650-9a0c-47e4-baee-ec60bbc1b06d","system_id":"levelo_inurba_marseille","lat":43.25737,"lon":5.410912,"is_reserved":false,"is_disabled":true,"rental_uris":{"android":"levelo://app?vid=97893650-9a0c-47e4-baee-ec60bbc1b06d","ios":"levelo://app?vid=97893650-9a0c-47e4-baee-ec60bbc1b06d"},"vehicle_type_id":"4","last_reported":1758449345,"current_range_meters":10000,"station_id":"ce4bhkp2rcd13ifvqgd0","pricing_plan_id":"cebpf4jnsgd1na2vs0mg"},{"bike_id":"55d1bc08-fd54-4a82-afc7-2adcaa7b1c4e","system_id":"levelo_inurba_marseille","lat":43.30021,"lon":5.3771,"is_reserved":false,"is_disabled":false,"rental_uris":{"android":"levelo://app?vid=55d1bc08-fd54-4a82-afc7-2adcaa7b1c4e","ios":"levelo://app?vid=55d1bc08-fd54-4a82-afc7-2adcaa7b1c4e"},"vehicle_type_id":"4","last_reported":1758449345,"current_range_meters":10000,"station_id":"","pricing_plan_id":"cebpf4jnsgd1na2vs0mg"},{"bike_id":"b99d1c4e-677c-452b-b107-ce40a86ca83e","system_id":"levelo_inurba_marseille","lat":43.28462,"lon":5.3589,"is_reserved":false,"is_disabled":false,"rental_uris":{"android":"levelo://app?vid=b99d1c4e-677c-452b-b107-ce40a86ca83e","ios":"levelo://app?vid=b99d1c4e-677c-452b-b107-ce40a86ca83e"},"vehicle_type_id":"4","last_reported":1758449345,"current_range_meters":10000,"station_id":"ce4bhah2rcd13ifvqei0","pricing_plan_id":"cebpf4jnsgd1na2vs0mg"},{"bike_id":"70589723-c695-466f-b9b6-01fc3c0c0dac","system_id":"levelo_inurba_marseille","lat":43.29024,"lon":5.40009,"is_reserved":false,"is_disabled":false,"rental_uris":{"android":"levelo://app?vid=70589723-c695-466f-b9b6-01fc3c0c0dac","ios":"levelo://app?vid=70589723-c695-466f-b9b6-01fc3c0c0dac"},"vehicle_type_id":"4","last_reported":1758449345,"current_range_meters":10000,"station_id":"ce4bh392rcd13ifvqdm0","pricing_plan_id":"cebpf4jnsgd1na2vs0mg"},{"bike_id":"a98be2b1-783e-4e43-b258-ab8b7cc484bf","system_id":"levelo_inurba_marseille","lat":43.26939,"lon":5.40251,"is_reserved":false,"is_disabled":false,"rental_uris":{"android":"levelo://app?vid=a98be2b1-783e-4e43-b258-ab8b7cc484bf","ios":"levelo://app?vid=a98be2b1-783e-4e43-b258-ab8b7cc484bf"},"vehicle_type_id":"4","last_reported":1758449345,"current_range_meters":9600,"station_id":"cjm6bp8fraef2m0cb0m0","pricing_plan_id":"cebpf4jnsgd1na2vs0mg"},{"bike_id":"2d82061a-a240-43d1-93a6-ab71cf777b3c","system_id":"levelo_inurba_marseille","lat":43.21185,"lon":5.35072,"is_reserved":false,"is_disabled":false,"rental_uris":{"android":"levelo://app?vid=2d82061a-a240-43d1-93a6-ab71cf777b3c","ios":"levelo://app?vid=2d82061a-a240-43d1-93a6-ab71cf777b3c"},"vehicle_type_id":"4","last_reported":1758449345,"current_range_meters":10000,"station_id":"st_cvj6sg6p6f1abm77japg","pricing_plan_id":"cebpf4jnsgd1na2vs0mg"},{"bike_id":"534ff5b4-9e83-493b-9063-104ef0af4212","system_id":"levelo_inurba_marseille","lat":43.27981,"lon":5.41665,"is_reserved":false,"is_disabled":true,"rental_uris":{"android":"levelo://app?vid=534ff5b4-9e83-493b-9063-104ef0af4212","ios":"levelo://app?vid=534ff5b4-9e83-493b-9063-104ef0af4212"},"vehicle_type_id":"4","last_reported":1758449345,"current_range_meters":10000,"station_id":"ce4bho12rcd13ifvqh1g","pricing_plan_id":"cebpf4jnsgd1na2vs0mg"},{"bike_id":"77414249-1f78-4b2e-aa29-789893ea1742","system_id":"levelo_inurba_marseille","lat":43.28147,"lon":5.42643,"is_reserved":false,"is_disabled":true,"rental_uris":{"android":"levelo://app?vid=77414249-1f78-4b2e-aa29-789893ea1742","ios":"levelo://app?vid=77414249-1f78-4b2e-aa29-789893ea1742"},"vehicle_type_id":"4","last_reported":1758449345,"current_range_meters":10800,"station_id":"ce4bhnh2rcd13ifvqgug","pricing_plan_id":"cebpf4jnsgd1na2vs0mg"},{"bike_id":"b28536fb-1a1f-4c02-92d1-a68528fce61d","system_id":"levelo_inurba_marseille","lat":43.29298,"lon":5.37174,"is_reserved":false,"is_disabled":true,"rental_uris":{"android":"levelo://app?vid=b28536fb-1a1f-4c02-92d1-a68528fce61d","ios":"levelo://app?vid=b28536fb-1a1f-4c02-92d1-a68528fce61d"},"vehicle_type_id":"4","last_reported":1758449345,"current_range_meters":10800,"station_id":"ce4bgh92rcd13ifvqb40","pricing_plan_id":"cebpf4jnsgd1na2vs0mg"},{"bike_id":"8f90c6e9-c2a0-414b-a280-ed01b517d1e8","system_id":"levelo_inurba_marseille","lat":43.21187,"lon":5.3507,"is_reserved":false,"is_disabled":false,"rental_uris":{"android":"levelo://app?vid=8f90c6e9-c2a0-414b-a280-ed01b517d1e8","ios":"levelo://app?vid=8f90c6e9-c2a0-414b-a280-ed01b517d1e8"},"vehicle_type_id":"4","last_reported":1758449345,"current_range_meters":10800,"station_id":"st_cvj6sg6p6f1abm77japg","pricing_plan_id":"cebpf4jnsgd1na2vs0mg"},{"bike_id":"e15cea68-523d-4989-9063-c31348b0302c","system_id":"levelo_inurba_marseille","lat":43.28289,"lon":5.35073,"is_reserved":false,"is_disabled":false,"rental_uris":{"android":"levelo://app?vid=e15cea68-523d-4989-9063-c31348b0302c","ios":"levelo://app?vid=e15cea68-523d-4989-9063-c31348b0302c"},"vehicle_type_id":"4","last_reported":1758449345,"current_range_meters":10800,"station_id":"ce4bhbp2rcd13ifvqerg","pricing_plan_id":"cebpf4jnsgd1na2vs0mg"},{"bike_id":"8e6747cf-b8c6-4cd7-bba9-81728939e96e","system_id":"levelo_inurba_marseille","lat":43.278103,"lon":5.407123,"is_reserved":false,"is_disabled":true,"rental_uris":{"android":"levelo://app?vid=8e6747cf-b8c6-4cd7-bba9-81728939e96e","ios":"levelo://app?vid=8e6747cf-b8c6-4cd7-bba9-81728939e96e"},"vehicle_type_id":"4","last_reported":1758449345,"current_range_meters":10800,"station_id":"ce4bhnh2rcd13ifvqgtg","pricing_plan_id":"cebpf4jnsgd1na2vs0mg"},{"bike_id":"129b0b96-07fe-4269-9141-6430756f1775","system_id":"levelo_inurba_marseille","lat":43.29975,"lon":5.37187,"is_reserved":false,"is_disabled":false,"rental_uris":{"android":"levelo://app?vid=129b0b96-07fe-4269-9141-6430756f1775","ios":"levelo://app?vid=129b0b96-07fe-4269-9141-6430756f1775"},"vehicle_type_id":"4","last_reported":1758449345,"current_range_meters":10800,"station_id":"ce4bgr92rcd13ifvqc7g","pricing_plan_id":"cebpf4jnsgd1na2vs0mg"},{"bike_id":"58986365-ed1f-42b3-b6fa-c019245e03e9","system_id":"levelo_inurba_marseille","lat":43.31724,"lon":5.42395,"is_reserved":false,"is_disabled":false,"rental_uris":{"android":"levelo://app?vid=58986365-ed1f-42b3-b6fa-c019245e03e9","ios":"levelo://app?vid=58986365-ed1f-42b3-b6fa-c019245e03e9"},"vehicle_type_id":"4","last_reported":1758449345,"current_range_meters":10800,"station_id":"ce4bhp92rcd13ifvqhbg","pricing_plan_id":"cebpf4jnsgd1na2vs0mg"},{"bike_id":"2015c1f2-c286-408a-b930-50d865ce0bb9","system_id":"levelo_inurba_marseille","lat":43.21179,"lon":5.35083,"is_reserved":false,"is_disabled":false,"rental_uris":{"android":"levelo://app?vid=2015c1f2-c286-408a-b930-50d865ce0bb9","ios":"levelo://app?vid=2015c1f2-c286-408a-b930-50d865ce0bb9"},"vehicle_type_id":"4","last_reported":1758449345,"current_range_meters":10800,"station_id":"st_cvj6sg6p6f1abm77japg","pricing_plan_id":"cebpf4jnsgd1na2vs0mg"},{"bike_id":"be00d3fc-c0cf-4858-bbc4-2fc30bb27a64","system_id":"levelo_inurba_marseille","lat":43.25104,"lon":5.40334,"is_reserved":false,"is_disabled":false,"rental_uris":{"android":"levelo://app?vid=be00d3fc-c0cf-4858-bbc4-2fc30bb27a64","ios":"levelo://app?vid=be00d3fc-c0cf-4858-bbc4-2fc30bb27a64"},"vehicle_type_id":"4","last_reported":1758449345,"current_range_meters":10800,"station_id":"ce4bhlh2rcd13ifvqgig","pricing_plan_id":"cebpf4jnsgd1na2vs0mg"},{"bike_id":"a07a513e-e5a9-4481-8592-d991379bc662","system_id":"levelo_inurba_marseille","lat":43.337536,"lon":5.374536,"is_reserved":false,"is_disabled":false,"rental_uris":{"android":"levelo://app?vid=a07a513e-e5a9-4481-8592-d991379bc662","ios":"levelo://app?vid=a07a513e-e5a9-4481-8592-d991379bc662"},"vehicle_type_id":"4","last_reported":1758449345,"current_range_meters":10800,"station_id":"","pricing_plan_id":"cebpf4jnsgd1na2vs0mg"},{"bike_id":"1a927479-ebe5-426f-9dd0-feae8ab1b54d","system_id":"levelo_inurba_marseille","lat":43.25338,"lon":5.4217,"is_reserved":false,"is_disabled":false,"rental_uris":{"android":"levelo://app?vid=1a927479-ebe5-426f-9dd0-feae8ab1b54d","ios":"levelo://app?vid=1a927479-ebe5-426f-9dd0-feae8ab1b54d"},"vehicle_type_id":"4","last_reported":1758449345,"current_range_meters":11200,"station_id":"st_d2m65c5bi1j21697t3ng","pricing_plan_id":"cebpf4jnsgd1na2vs0mg"},{"bike_id":"68adab37-f5ad-4072-b58a-fe6c68285ca6","system_id":"levelo_inurba_marseille","lat":43.30611,"lon":5.37674,"is_reserved":false,"is_disabled":false,"rental_uris":{"android":"levelo://app?vid=68adab37-f5ad-4072-b58a-fe6c68285ca6","ios":"levelo://app?vid=68adab37-f5ad-4072-b58a-fe6c68285ca6"},"vehicle_type_id":"4","last_reported":1758449345,"current_range_meters":11200,"station_id":"","pricing_plan_id":"cebpf4jnsgd1na2vs0mg"},{"bike_id":"5319fae8-be79-4d87-b5d0-b333eba32d6a","system_id":"levelo_inurba_marseille","lat":43.211839,"lon":5.350843,"is_reserved":false,"is_disabled":false,"rental_uris":{"android":"levelo://app?vid=5319fae8-be79-4d87-b5d0-b333eba32d6a","ios":"levelo://app?vid=5319fae8-be79-4d87-b5d0-b333eba32d6a"},"vehicle_type_id":"4","last_reported":1758449345,"current_range_meters":11200,"station_id":"st_cvj6sg6p6f1abm77japg","pricing_plan_id":"cebpf4jnsgd1na2vs0mg"},{"bike_id":"a2102b8c-b983-4410-9ad4-d6231edcc8e2","system_id":"levelo_inurba_marseille","lat":43.29637,"lon":5.40603,"is_reserved":false,"is_disabled":false,"rental_uris":{"android":"levelo://app?vid=a2102b8c-b983-4410-9ad4-d6231edcc8e2","ios":"levelo://app?vid=a2102b8c-b983-4410-9ad4-d6231edcc8e2"},"vehicle_type_id":"4","last_reported":1758449345,"current_range_meters":11200,"station_id":"ce4bh0h2rcd13ifvqd60","pricing_plan_id":"cebpf4jnsgd1na2vs0mg"},{"bike_id":"4631c8e2-68d2-42fe-a2d0-10c346d9658a","system_id":"levelo_inurba_marseille","lat":43.2849,"lon":5.38527,"is_reserved":false,"is_disabled":false,"rental_uris":{"android":"levelo://app?vid=4631c8e2-68d2-42fe-a2d0-10c346d9658a","ios":"levelo://app?vid=4631c8e2-68d2-42fe-a2d0-10c346d9658a"},"vehicle_type_id":"4","last_reported":1758449345,"current_range_meters":10800,"station_id":"ce4bh8p2rcd13ifvqeb0","pricing_plan_id":"cebpf4jnsgd1na2vs0mg"},{"bike_id":"e86cce24-0f21-4e0d-a094-2ca607577906","system_id":"levelo_inurba_marseille","lat":43.30149,"lon":5.38781,"is_reserved":false,"is_disabled":true,"rental_uris":{"android":"levelo://app?vid=e86cce24-0f21-4e0d-a094-2ca607577906","ios":"levelo://app?vid=e86cce24-0f21-4e0d-a094-2ca607577906"},"vehicle_type_id":"4","last_reported":1758449345,"current_range_meters":11200,"station_id":"ce4bghh2rcd13ifvqb60","pricing_plan_id":"cebpf4jnsgd1na2vs0mg"},{"bike_id":"1ff39d7b-2539-46bc-b9f5-8104a0a2c0aa","system_id":"levelo_inurba_marseille","lat":43.30589,"lon":5.37212,"is_reserved":false,"is_disabled":false,"rental_uris":{"android":"levelo://app?vid=1ff39d7b-2539-46bc-b9f5-8104a0a2c0aa","ios":"levelo://app?vid=1ff39d7b-2539-46bc-b9f5-8104a0a2c0aa"},"vehicle_type_id":"4","last_reported":1758449345,"current_range_meters":11200,"station_id":"ce4bgqh2rcd13ifvqc4g","pricing_plan_id":"cebpf4jnsgd1na2vs0mg"},{"bike_id":"ea9c3128-c564-4f4c-8f5d-5027bd504982","system_id":"levelo_inurba_marseille","lat":43.27941,"lon":5.39575,"is_reserved":false,"is_disabled":true,"rental_uris":{"android":"levelo://app?vid=ea9c3128-c564-4f4c-8f5d-5027bd504982","ios":"levelo://app?vid=ea9c3128-c564-4f4c-8f5d-5027bd504982"},"vehicle_type_id":"4","last_reported":1758449345,"current_range_meters":11200,"station_id":"ce4bhf92rcd13ifvqf40","pricing_plan_id":"cebpf4jnsgd1na2vs0mg"},{"bike_id":"9b470796-c41e-49a1-ac18-9b8e5946e2cf","system_id":"levelo_inurba_marseille","lat":43.274922,"lon":5.424478,"is_reserved":false,"is_disabled":false,"rental_uris":{"android":"levelo://app?vid=9b470796-c41e-49a1-ac18-9b8e5946e2cf","ios":"levelo://app?vid=9b470796-c41e-49a1-ac18-9b8e5946e2cf"},"vehicle_type_id":"4","last_reported":1758449345,"current_range_meters":11200,"station_id":"ce4bhn92rcd13ifvqgrg","pricing_plan_id":"cebpf4jnsgd1na2vs0mg"},{"bike_id":"678deebe-a12d-4a5d-9d3d-0adf726d1b96","system_id":"levelo_inurba_marseille","lat":43.32476,"lon":5.36573,"is_reserved":false,"is_disabled":false,"rental_uris":{"android":"levelo://app?vid=678deebe-a12d-4a5d-9d3d-0adf726d1b96","ios":"levelo://app?vid=678deebe-a12d-4a5d-9d3d-0adf726d1b96"},"vehicle_type_id":"4","last_reported":1758449345,"current_range_meters":11200,"station_id":"ce4bhs12rcd13ifvqhvg","pricing_plan_id":"cebpf4jnsgd1na2vs0mg"},{"bike_id":"5517be86-f4df-473f-9682-b639d98d1dde","system_id":"levelo_inurba_marseille","lat":43.27811,"lon":5.40718,"is_reserved":false,"is_disabled":false,"rental_uris":{"android":"levelo://app?vid=5517be86-f4df-473f-9682-b639d98d1dde","ios":"levelo://app?vid=5517be86-f4df-473f-9682-b639d98d1dde"},"vehicle_type_id":"4","last_reported":1758449345,"current_range_meters":11600,"station_id":"ce4bhnh2rcd13ifvqgtg","pricing_plan_id":"cebpf4jnsgd1na2vs0mg"},{"bike_id":"28e12325-1bac-4433-9100-6c834d569a46","system_id":"levelo_inurba_marseille","lat":43.31487,"lon":5.3729,"is_reserved":false,"is_disabled":false,"rental_uris":{"android":"levelo://app?vid=28e12325-1bac-4433-9100-6c834d569a46","ios":"levelo://app?vid=28e12325-1bac-4433-9100-6c834d569a46"},"vehicle_type_id":"4","last_reported":1758449345,"current_range_meters":11600,"station_id":"ce4bgt12rcd13ifvqcd0","pricing_plan_id":"cebpf4jnsgd1na2vs0mg"},{"bike_id":"8ac9ac16-2eb8-49da-b57f-d5f5bb661120","system_id":"levelo_inurba_marseille","lat":43.25498,"lon":5.37648,"is_reserved":false,"is_disabled":false,"rental_uris":{"android":"levelo://app?vid=8ac9ac16-2eb8-49da-b57f-d5f5bb661120","ios":"levelo://app?vid=8ac9ac16-2eb8-49da-b57f-d5f5bb661120"},"vehicle_type_id":"4","last_reported":1758449345,"current_range_meters":12000,"station_id":"ce4bhh12rcd13ifvqff0","pricing_plan_id":"cebpf4jnsgd1na2vs0mg"},{"bike_id":"0fafa5e5-3efb-4424-a554-7a6180c4d4de","system_id":"levelo_inurba_marseille","lat":43.28101,"lon":5.37836,"is_reserved":false,"is_disabled":false,"rental_uris":{"android":"levelo://app?vid=0fafa5e5-3efb-4424-a554-7a6180c4d4de","ios":"levelo://app?vid=0fafa5e5-3efb-4424-a554-7a6180c4d4de"},"vehicle_type_id":"4","last_reported":1758449345,"current_range_meters":12400,"station_id":"ce4bha12rcd13ifvqee0","pricing_plan_id":"cebpf4jnsgd1na2vs0mg"},{"bike_id":"5d633773-c86d-4663-ae55-dfb6f9eda023","system_id":"levelo_inurba_marseille","lat":43.2593,"lon":5.40879,"is_reserved":false,"is_disabled":false,"rental_uris":{"android":"levelo://app?vid=5d633773-c86d-4663-ae55-dfb6f9eda023","ios":"levelo://app?vid=5d633773-c86d-4663-ae55-dfb6f9eda023"},"vehicle_type_id":"4","last_reported":1758449345,"current_range_meters":12400,"station_id":"","pricing_plan_id":"cebpf4jnsgd1na2vs0mg"},{"bike_id":"3800873d-aaf4-4981-af96-230d5b1698e6","system_id":"levelo_inurba_marseille","lat":43.28485,"lon":5.38557,"is_reserved":false,"is_disabled":false,"rental_uris":{"android":"levelo://app?vid=3800873d-aaf4-4981-af96-230d5b1698e6","ios":"levelo://app?vid=3800873d-aaf4-4981-af96-230d5b1698e6"},"vehicle_type_id":"4","last_reported":1758449345,"current_range_meters":12000,"station_id":"ce4bh8p2rcd13ifvqeb0","pricing_plan_id":"cebpf4jnsgd1na2vs0mg"},{"bike_id":"ad3b9a79-2fea-4743-a6da-194a3004707a","system_id":"levelo_inurba_marseille","lat":43.29374,"lon":5.37877,"is_reserved":false,"is_disabled":true,"rental_uris":{"android":"levelo://app?vid=ad3b9a79-2fea-4743-a6da-194a3004707a","ios":"levelo://app?vid=ad3b9a79-2fea-4743-a6da-194a3004707a"},"vehicle_type_id":"4","last_reported":1758449345,"current_range_meters":12400,"station_id":"ce4bgjh2rcd13ifvqbf0","pricing_plan_id":"cebpf4jnsgd1na2vs0mg"},{"bike_id":"e8f216a7-1c00-461b-ad37-324b987e8ba1","system_id":"levelo_inurba_marseille","lat":43.28271,"lon":5.35054,"is_reserved":false,"is_disabled":false,"rental_uris":{"android":"levelo://app?vid=e8f216a7-1c00-461b-ad37-324b987e8ba1","ios":"levelo://app?vid=e8f216a7-1c00-461b-ad37-324b987e8ba1"},"vehicle_type_id":"4","last_reported":1758449345,"current_range_meters":12400,"station_id":"ce4bhbp2rcd13ifvqerg","pricing_plan_id":"cebpf4jnsgd1na2vs0mg"},{"bike_id":"158236de-064b-4448-aa12-7a3a145c873e","system_id":"levelo_inurba_marseille","lat":43.29213,"lon":5.36045,"is_reserved":false,"is_disabled":false,"rental_uris":{"android":"levelo://app?vid=158236de-064b-4448-aa12-7a3a145c873e","ios":"levelo://app?vid=158236de-064b-4448-aa12-7a3a145c873e"},"vehicle_type_id":"4","last_reported":1758449345,"current_range_meters":12400,"station_id":"ce4bhbh2rcd13ifvqeqg","pricing_plan_id":"cebpf4jnsgd1na2vs0mg"},{"bike_id":"a2cb9d12-1bc1-402c-a582-c559c163f0a9","system_id":"levelo_inurba_marseille","lat":43.2925,"lon":5.40925,"is_reserved":false,"is_disabled":false,"rental_uris":{"android":"levelo://app?vid=a2cb9d12-1bc1-402c-a582-c559c163f0a9","ios":"levelo://app?vid=a2cb9d12-1bc1-402c-a582-c559c163f0a9"},"vehicle_type_id":"4","last_reported":1758449345,"current_range_meters":12400,"station_id":"ce4bh192rcd13ifvqdc0","pricing_plan_id":"cebpf4jnsgd1na2vs0mg"},{"bike_id":"d801b961-8b0f-429d-9d3e-817010448aec","system_id":"levelo_inurba_marseille","lat":43.337632,"lon":5.374376,"is_reserved":false,"is_disabled":false,"rental_uris":{"android":"levelo://app?vid=d801b961-8b0f-429d-9d3e-817010448aec","ios":"levelo://app?vid=d801b961-8b0f-429d-9d3e-817010448aec"},"vehicle_type_id":"4","last_reported":1758449345,"current_range_meters":12800,"station_id":"","pricing_plan_id":"cebpf4jnsgd1na2vs0mg"},{"bike_id":"118b6d7e-3328-44e2-ae13-d04071b8c00f","system_id":"levelo_inurba_marseille","lat":43.21191,"lon":5.35068,"is_reserved":false,"is_disabled":false,"rental_uris":{"android":"levelo://app?vid=118b6d7e-3328-44e2-ae13-d04071b8c00f","ios":"levelo://app?vid=118b6d7e-3328-44e2-ae13-d04071b8c00f"},"vehicle_type_id":"4","last_reported":1758449345,"current_range_meters":12800,"station_id":"st_cvj6sg6p6f1abm77japg","pricing_plan_id":"cebpf4jnsgd1na2vs0mg"},{"bike_id":"f6b15eae-fc8c-4bff-bc6d-caf5fd879604","system_id":"levelo_inurba_marseille","lat":43.22931,"lon":5.35388,"is_reserved":false,"is_disabled":false,"rental_uris":{"android":"levelo://app?vid=f6b15eae-fc8c-4bff-bc6d-caf5fd879604","ios":"levelo://app?vid=f6b15eae-fc8c-4bff-bc6d-caf5fd879604"},"vehicle_type_id":"4","last_reported":1758449345,"current_range_meters":12800,"station_id":"cpo3532slgdg3j2ikp40","pricing_plan_id":"cebpf4jnsgd1na2vs0mg"},{"bike_id":"1dd5f0f8-24cb-43d9-8fc5-acce248e2f28","system_id":"levelo_inurba_marseille","lat":43.25867,"lon":5.39897,"is_reserved":false,"is_disabled":false,"rental_uris":{"android":"levelo://app?vid=1dd5f0f8-24cb-43d9-8fc5-acce248e2f28","ios":"levelo://app?vid=1dd5f0f8-24cb-43d9-8fc5-acce248e2f28"},"vehicle_type_id":"4","last_reported":1758449345,"current_range_meters":12800,"station_id":"ce4bhl92rcd13ifvqghg","pricing_plan_id":"cebpf4jnsgd1na2vs0mg"},{"bike_id":"394bbc81-dc66-4519-a76d-fc81a65cacf7","system_id":"levelo_inurba_marseille","lat":43.21188,"lon":5.35075,"is_reserved":false,"is_disabled":false,"rental_uris":{"android":"levelo://app?vid=394bbc81-dc66-4519-a76d-fc81a65cacf7","ios":"levelo://app?vid=394bbc81-dc66-4519-a76d-fc81a65cacf7"},"vehicle_type_id":"4","last_reported":1758449345,"current_range_meters":12800,"station_id":"st_cvj6sg6p6f1abm77japg","pricing_plan_id":"cebpf4jnsgd1na2vs0mg"},{"bike_id":"fd4cf910-15eb-41c1-aa59-f96fcd54c98c","system_id":"levelo_inurba_marseille","lat":43.29821,"lon":5.36217,"is_reserved":false,"is_disabled":false,"rental_uris":{"android":"levelo://app?vid=fd4cf910-15eb-41c1-aa59-f96fcd54c98c","ios":"levelo://app?vid=fd4cf910-15eb-41c1-aa59-f96fcd54c98c"},"vehicle_type_id":"4","last_reported":1758449345,"current_range_meters":13600,"station_id":"","pricing_plan_id":"cebpf4jnsgd1na2vs0mg"},{"bike_id":"d2667e4e-8f97-413d-81b1-13a394c6285f","system_id":"levelo_inurba_marseille","lat":43.21745,"lon":5.34618,"is_reserved":false,"is_disabled":true,"rental_uris":{"android":"levelo://app?vid=d2667e4e-8f97-413d-81b1-13a394c6285f","ios":"levelo://app?vid=d2667e4e-8f97-413d-81b1-13a394c6285f"},"vehicle_type_id":"4","last_reported":1758449345,"current_range_meters":13600,"station_id":"st_cvj6r9ubvosntc0bgbag","pricing_plan_id":"cebpf4jnsgd1na2vs0mg"},{"bike_id":"c6aeaaa7-7069-4c22-94e3-e4a18f253226","system_id":"levelo_inurba_marseille","lat":43.21742,"lon":5.34605,"is_reserved":false,"is_disabled":false,"rental_uris":{"android":"levelo://app?vid=c6aeaaa7-7069-4c22-94e3-e4a18f253226","ios":"levelo://app?vid=c6aeaaa7-7069-4c22-94e3-e4a18f253226"},"vehicle_type_id":"4","last_reported":1758449345,"current_range_meters":14000,"station_id":"st_cvj6r9ubvosntc0bgbag","pricing_plan_id":"cebpf4jnsgd1na2vs0mg"},{"bike_id":"f72fef72-e06f-4cfd-b894-f206b9250b59","system_id":"levelo_inurba_marseille","lat":43.27811,"lon":5.40715,"is_reserved":false,"is_disabled":false,"rental_uris":{"android":"levelo://app?vid=f72fef72-e06f-4cfd-b894-f206b9250b59","ios":"levelo://app?vid=f72fef72-e06f-4cfd-b894-f206b9250b59"},"vehicle_type_id":"4","last_reported":1758449345,"current_range_meters":14000,"station_id":"ce4bhnh2rcd13ifvqgtg","pricing_plan_id":"cebpf4jnsgd1na2vs0mg"},{"bike_id":"e86857f8-f405-4657-b145-ec58ed187087","system_id":"levelo_inurba_marseille","lat":43.31484,"lon":5.3881,"is_reserved":false,"is_disabled":false,"rental_uris":{"android":"levelo://app?vid=e86857f8-f405-4657-b145-ec58ed187087","ios":"levelo://app?vid=e86857f8-f405-4657-b145-ec58ed187087"},"vehicle_type_id":"4","last_reported":1758449345,"current_range_meters":14000,"station_id":"ce4bgt92rcd13ifvqcf0","pricing_plan_id":"cebpf4jnsgd1na2vs0mg"},{"bike_id":"0c380ec5-fd52-45a8-9c3b-549d458f8bfd","system_id":"levelo_inurba_marseille","lat":43.231938,"lon":5.355505,"is_reserved":false,"is_disabled":false,"rental_uris":{"android":"levelo://app?vid=0c380ec5-fd52-45a8-9c3b-549d458f8bfd","ios":"levelo://app?vid=0c380ec5-fd52-45a8-9c3b-549d458f8bfd"},"vehicle_type_id":"4","last_reported":1758449345,"current_range_meters":14000,"station_id":"ce4bhu92rcd13ifvqi70","pricing_plan_id":"cebpf4jnsgd1na2vs0mg"},{"bike_id":"363d99e5-837c-43c8-abcc-c80ef2e2786a","system_id":"levelo_inurba_marseille","lat":43.21198,"lon":5.350793,"is_reserved":false,"is_disabled":false,"rental_uris":{"android":"levelo://app?vid=363d99e5-837c-43c8-abcc-c80ef2e2786a","ios":"levelo://app?vid=363d99e5-837c-43c8-abcc-c80ef2e2786a"},"vehicle_type_id":"4","last_reported":1758449345,"current_range_meters":14000,"station_id":"st_cvj6sg6p6f1abm77japg","pricing_plan_id":"cebpf4jnsgd1na2vs0mg"},{"bike_id":"a5364c4b-9fbc-4200-9686-1db420406c33","system_id":"levelo_inurba_marseille","lat":43.304114,"lon":5.39747,"is_reserved":false,"is_disabled":true,"rental_uris":{"android":"levelo://app?vid=a5364c4b-9fbc-4200-9686-1db420406c33","ios":"levelo://app?vid=a5364c4b-9fbc-4200-9686-1db420406c33"},"vehicle_type_id":"4","last_reported":1758449345,"current_range_meters":14000,"station_id":"ce4bh092rcd13ifvqd20","pricing_plan_id":"cebpf4jnsgd1na2vs0mg"},{"bike_id":"76bbf107-7ec5-4826-b296-ab629ecd14ab","system_id":"levelo_inurba_marseille","lat":43.29819,"lon":5.42133,"is_reserved":false,"is_disabled":false,"rental_uris":{"android":"levelo://app?vid=76bbf107-7ec5-4826-b296-ab629ecd14ab","ios":"levelo://app?vid=76bbf107-7ec5-4826-b296-ab629ecd14ab"},"vehicle_type_id":"4","last_reported":1758449345,"current_range_meters":14000,"station_id":"","pricing_plan_id":"cebpf4jnsgd1na2vs0mg"},{"bike_id":"eb014f62-fa16-4f90-b70f-a29cd885c00e","system_id":"levelo_inurba_marseille","lat":43.29312,"lon":5.37182,"is_reserved":false,"is_disabled":false,"rental_uris":{"android":"levelo://app?vid=eb014f62-fa16-4f90-b70f-a29cd885c00e","ios":"levelo://app?vid=eb014f62-fa16-4f90-b70f-a29cd885c00e"},"vehicle_type_id":"4","last_reported":1758449345,"current_range_meters":14400,"station_id":"ce4bgh92rcd13ifvqb40","pricing_plan_id":"cebpf4jnsgd1na2vs0mg"},{"bike_id":"aae10c1e-74ab-4cbf-9edd-2e13a8e15744","system_id":"levelo_inurba_marseille","lat":43.26517,"lon":5.39589,"is_reserved":false,"is_disabled":false,"rental_uris":{"android":"levelo://app?vid=aae10c1e-74ab-4cbf-9edd-2e13a8e15744","ios":"levelo://app?vid=aae10c1e-74ab-4cbf-9edd-2e13a8e15744"},"vehicle_type_id":"4","last_reported":1758449345,"current_range_meters":14400,"station_id":"ce4bhi12rcd13ifvqfq0","pricing_plan_id":"cebpf4jnsgd1na2vs0mg"},{"bike_id":"75cdae86-aa3c-46f9-92bf-f3662c1063cf","system_id":"levelo_inurba_marseille","lat":43.337152,"lon":5.39189,"is_reserved":false,"is_disabled":false,"rental_uris":{"android":"levelo://app?vid=75cdae86-aa3c-46f9-92bf-f3662c1063cf","ios":"levelo://app?vid=75cdae86-aa3c-46f9-92bf-f3662c1063cf"},"vehicle_type_id":"4","last_reported":1758449345,"current_range_meters":14400,"station_id":"ce4bhr92rcd13ifvqhsg","pricing_plan_id":"cebpf4jnsgd1na2vs0mg"},{"bike_id":"a329363e-972b-428b-836e-51e3b2893c70","system_id":"levelo_inurba_marseille","lat":43.21191,"lon":5.35081,"is_reserved":false,"is_disabled":false,"rental_uris":{"android":"levelo://app?vid=a329363e-972b-428b-836e-51e3b2893c70","ios":"levelo://app?vid=a329363e-972b-428b-836e-51e3b2893c70"},"vehicle_type_id":"4","last_reported":1758449345,"current_range_meters":14400,"station_id":"st_cvj6sg6p6f1abm77japg","pricing_plan_id":"cebpf4jnsgd1na2vs0mg"},{"bike_id":"102fd1cf-57b4-4e3b-9ddd-fc7580d4faf3","system_id":"levelo_inurba_marseille","lat":43.28458,"lon":5.35888,"is_reserved":false,"is_disabled":false,"rental_uris":{"android":"levelo://app?vid=102fd1cf-57b4-4e3b-9ddd-fc7580d4faf3","ios":"levelo://app?vid=102fd1cf-57b4-4e3b-9ddd-fc7580d4faf3"},"vehicle_type_id":"4","last_reported":1758449345,"current_range_meters":14000,"station_id":"ce4bhah2rcd13ifvqei0","pricing_plan_id":"cebpf4jnsgd1na2vs0mg"},{"bike_id":"a47ae0ce-6d07-452e-83c0-71b51a047783","system_id":"levelo_inurba_marseille","lat":43.29036,"lon":5.3997,"is_reserved":false,"is_disabled":false,"rental_uris":{"android":"levelo://app?vid=a47ae0ce-6d07-452e-83c0-71b51a047783","ios":"levelo://app?vid=a47ae0ce-6d07-452e-83c0-71b51a047783"},"vehicle_type_id":"4","last_reported":1758449345,"current_range_meters":14000,"station_id":"ce4bh392rcd13ifvqdm0","pricing_plan_id":"cebpf4jnsgd1na2vs0mg"},{"bike_id":"74bbd6d0-8750-49ed-b4da-9cd8bf052d6a","system_id":"levelo_inurba_marseille","lat":43.313,"lon":5.39689,"is_reserved":false,"is_disabled":true,"rental_uris":{"android":"levelo://app?vid=74bbd6d0-8750-49ed-b4da-9cd8bf052d6a","ios":"levelo://app?vid=74bbd6d0-8750-49ed-b4da-9cd8bf052d6a"},"vehicle_type_id":"4","last_reported":1758449345,"current_range_meters":14800,"station_id":"ce4bgvp2rcd13ifvqcu0","pricing_plan_id":"cebpf4jnsgd1na2vs0mg"},{"bike_id":"0f02bc56-8394-4c12-bde4-4aa2a5f855dc","system_id":"levelo_inurba_marseille","lat":43.29018,"lon":5.38141,"is_reserved":false,"is_disabled":false,"rental_uris":{"android":"levelo://app?vid=0f02bc56-8394-4c12-bde4-4aa2a5f855dc","ios":"levelo://app?vid=0f02bc56-8394-4c12-bde4-4aa2a5f855dc"},"vehicle_type_id":"4","last_reported":1758449345,"current_range_meters":14800,"station_id":"ce4bh4p2rcd13ifvqe1g","pricing_plan_id":"cebpf4jnsgd1na2vs0mg"},{"bike_id":"9176512c-2cc1-4df2-a8e0-6be514fbcdbf","system_id":"levelo_inurba_marseille","lat":43.33748,"lon":5.37465,"is_reserved":false,"is_disabled":false,"rental_uris":{"android":"levelo://app?vid=9176512c-2cc1-4df2-a8e0-6be514fbcdbf","ios":"levelo://app?vid=9176512c-2cc1-4df2-a8e0-6be514fbcdbf"},"vehicle_type_id":"4","last_reported":1758449345,"current_range_meters":14800,"station_id":"","pricing_plan_id":"cebpf4jnsgd1na2vs0mg"},{"bike_id":"8256c3c5-29e1-4d6d-816d-98492f1b2555","system_id":"levelo_inurba_marseille","lat":43.27493,"lon":5.424532,"is_reserved":false,"is_disabled":false,"rental_uris":{"android":"levelo://app?vid=8256c3c5-29e1-4d6d-816d-98492f1b2555","ios":"levelo://app?vid=8256c3c5-29e1-4d6d-816d-98492f1b2555"},"vehicle_type_id":"4","last_reported":1758449345,"current_range_meters":14800,"station_id":"ce4bhn92rcd13ifvqgrg","pricing_plan_id":"cebpf4jnsgd1na2vs0mg"},{"bike_id":"d158c34c-ce51-43ba-9697-624f9e4e9d38","system_id":"levelo_inurba_marseille","lat":43.292586,"lon":5.408981,"is_reserved":false,"is_disabled":false,"rental_uris":{"android":"levelo://app?vid=d158c34c-ce51-43ba-9697-624f9e4e9d38","ios":"levelo://app?vid=d158c34c-ce51-43ba-9697-624f9e4e9d38"},"vehicle_type_id":"4","last_reported":1758449345,"current_range_meters":15200,"station_id":"ce4bh192rcd13ifvqdc0","pricing_plan_id":"cebpf4jnsgd1na2vs0mg"},{"bike_id":"f581ccb4-ae4a-44ef-9aee-8da2f62ff531","system_id":"levelo_inurba_marseille","lat":43.31244,"lon":5.36824,"is_reserved":false,"is_disabled":false,"rental_uris":{"android":"levelo://app?vid=f581ccb4-ae4a-44ef-9aee-8da2f62ff531","ios":"levelo://app?vid=f581ccb4-ae4a-44ef-9aee-8da2f62ff531"},"vehicle_type_id":"4","last_reported":1758449345,"current_range_meters":15200,"station_id":"ce4bgl92rcd13ifvqbq0","pricing_plan_id":"cebpf4jnsgd1na2vs0mg"},{"bike_id":"1ba5a618-e5a7-494a-b48e-fd9af6c6fd25","system_id":"levelo_inurba_marseille","lat":43.27375,"lon":5.36255,"is_reserved":false,"is_disabled":false,"rental_uris":{"android":"levelo://app?vid=1ba5a618-e5a7-494a-b48e-fd9af6c6fd25","ios":"levelo://app?vid=1ba5a618-e5a7-494a-b48e-fd9af6c6fd25"},"vehicle_type_id":"4","last_reported":1758449345,"current_range_meters":14800,"station_id":"ce4bhbh2rcd13ifvqeo0","pricing_plan_id":"cebpf4jnsgd1na2vs0mg"},{"bike_id":"d8a0e579-a0cf-4f62-a8a9-801fae6c6940","system_id":"levelo_inurba_marseille","lat":43.28857,"lon":5.39314,"is_reserved":false,"is_disabled":false,"rental_uris":{"android":"levelo://app?vid=d8a0e579-a0cf-4f62-a8a9-801fae6c6940","ios":"levelo://app?vid=d8a0e579-a0cf-4f62-a8a9-801fae6c6940"},"vehicle_type_id":"4","last_reported":1758449345,"current_range_meters":15200,"station_id":"ce4bh2p2rcd13ifvqdi0","pricing_plan_id":"cebpf4jnsgd1na2vs0mg"},{"bike_id":"c4c46887-158f-4e7a-bbf5-038161bedb04","system_id":"levelo_inurba_marseille","lat":43.3053,"lon":5.36529,"is_reserved":false,"is_disabled":false,"rental_uris":{"android":"levelo://app?vid=c4c46887-158f-4e7a-bbf5-038161bedb04","ios":"levelo://app?vid=c4c46887-158f-4e7a-bbf5-038161bedb04"},"vehicle_type_id":"4","last_reported":1758449345,"current_range_meters":15200,"station_id":"ce4bgs12rcd13ifvqcag","pricing_plan_id":"cebpf4jnsgd1na2vs0mg"},{"bike_id":"4946d62c-134f-4862-b240-776675daeb58","system_id":"levelo_inurba_marseille","lat":43.30466,"lon":5.37902,"is_reserved":false,"is_disabled":false,"rental_uris":{"android":"levelo://app?vid=4946d62c-134f-4862-b240-776675daeb58","ios":"levelo://app?vid=4946d62c-134f-4862-b240-776675daeb58"},"vehicle_type_id":"4","last_reported":1758449345,"current_range_meters":15200,"station_id":"ce4bgup2rcd13ifvqcn0","pricing_plan_id":"cebpf4jnsgd1na2vs0mg"},{"bike_id":"438ead59-de14-4fa0-a61d-03a70a4122ae","system_id":"levelo_inurba_marseille","lat":43.97285,"lon":4.89134,"is_reserved":false,"is_disabled":true,"rental_uris":{"android":"levelo://app?vid=438ead59-de14-4fa0-a61d-03a70a4122ae","ios":"levelo://app?vid=438ead59-de14-4fa0-a61d-03a70a4122ae"},"vehicle_type_id":"4","last_reported":1758449345,"current_range_meters":15200,"station_id":"","pricing_plan_id":"cebpf4jnsgd1na2vs0mg"},{"bike_id":"e7f6ec9d-0d28-4bd8-a3da-83f0cd142dce","system_id":"levelo_inurba_marseille","lat":43.290291,"lon":5.386496,"is_reserved":false,"is_disabled":false,"rental_uris":{"android":"levelo://app?vid=e7f6ec9d-0d28-4bd8-a3da-83f0cd142dce","ios":"levelo://app?vid=e7f6ec9d-0d28-4bd8-a3da-83f0cd142dce"},"vehicle_type_id":"4","last_reported":1758449345,"current_range_meters":16000,"station_id":"","pricing_plan_id":"cebpf4jnsgd1na2vs0mg"},{"bike_id":"5012c91b-a53c-4c5f-901c-26f9fc9d8566","system_id":"levelo_inurba_marseille","lat":43.3109,"lon":5.37794,"is_reserved":false,"is_disabled":false,"rental_uris":{"android":"levelo://app?vid=5012c91b-a53c-4c5f-901c-26f9fc9d8566","ios":"levelo://app?vid=5012c91b-a53c-4c5f-901c-26f9fc9d8566"},"vehicle_type_id":"4","last_reported":1758449345,"current_range_meters":16000,"station_id":"ce4bgt92rcd13ifvqcg0","pricing_plan_id":"cebpf4jnsgd1na2vs0mg"},{"bike_id":"176a31c4-a17c-44ec-bbf6-50f8985ee1fc","system_id":"levelo_inurba_marseille","lat":43.2534,"lon":5.42152,"is_reserved":false,"is_disabled":false,"rental_uris":{"android":"levelo://app?vid=176a31c4-a17c-44ec-bbf6-50f8985ee1fc","ios":"levelo://app?vid=176a31c4-a17c-44ec-bbf6-50f8985ee1fc"},"vehicle_type_id":"4","last_reported":1758449345,"current_range_meters":16000,"station_id":"st_d2m65c5bi1j21697t3ng","pricing_plan_id":"cebpf4jnsgd1na2vs0mg"},{"bike_id":"a4473019-692e-4bd9-9b08-db083daad564","system_id":"levelo_inurba_marseille","lat":43.32007,"lon":5.38112,"is_reserved":false,"is_disabled":false,"rental_uris":{"android":"levelo://app?vid=a4473019-692e-4bd9-9b08-db083daad564","ios":"levelo://app?vid=a4473019-692e-4bd9-9b08-db083daad564"},"vehicle_type_id":"4","last_reported":1758449345,"current_range_meters":16000,"station_id":"ce4bhr12rcd13ifvqhpg","pricing_plan_id":"cebpf4jnsgd1na2vs0mg"},{"bike_id":"b22bfa05-faa9-4074-a1be-f504ad012798","system_id":"levelo_inurba_marseille","lat":43.3173,"lon":5.39007,"is_reserved":false,"is_disabled":false,"rental_uris":{"android":"levelo://app?vid=b22bfa05-faa9-4074-a1be-f504ad012798","ios":"levelo://app?vid=b22bfa05-faa9-4074-a1be-f504ad012798"},"vehicle_type_id":"4","last_reported":1758449345,"current_range_meters":16000,"station_id":"ce4bhqp2rcd13ifvqhng","pricing_plan_id":"cebpf4jnsgd1na2vs0mg"},{"bike_id":"3fb9283c-9e32-419d-ac73-fd1372458f6c","system_id":"levelo_inurba_marseille","lat":43.26218,"lon":5.37456,"is_reserved":false,"is_disabled":false,"rental_uris":{"android":"levelo://app?vid=3fb9283c-9e32-419d-ac73-fd1372458f6c","ios":"levelo://app?vid=3fb9283c-9e32-419d-ac73-fd1372458f6c"},"vehicle_type_id":"4","last_reported":1758449345,"current_range_meters":16000,"station_id":"ce4bhgp2rcd13ifvqfc0","pricing_plan_id":"cebpf4jnsgd1na2vs0mg"},{"bike_id":"a3078389-a816-4b74-9381-7af089c383c0","system_id":"levelo_inurba_marseille","lat":43.28486,"lon":5.38413,"is_reserved":false,"is_disabled":false,"rental_uris":{"android":"levelo://app?vid=a3078389-a816-4b74-9381-7af089c383c0","ios":"levelo://app?vid=a3078389-a816-4b74-9381-7af089c383c0"},"vehicle_type_id":"4","last_reported":1758449345,"current_range_meters":16000,"station_id":"ce4bh512rcd13ifvqe3g","pricing_plan_id":"cebpf4jnsgd1na2vs0mg"},{"bike_id":"d639fc5d-edb5-4e2c-8ef6-ca308fb6a725","system_id":"levelo_inurba_marseille","lat":43.23187,"lon":5.39978,"is_reserved":false,"is_disabled":false,"rental_uris":{"android":"levelo://app?vid=d639fc5d-edb5-4e2c-8ef6-ca308fb6a725","ios":"levelo://app?vid=d639fc5d-edb5-4e2c-8ef6-ca308fb6a725"},"vehicle_type_id":"4","last_reported":1758449345,"current_range_meters":16000,"station_id":"ce4bhn12rcd13ifvqgqg","pricing_plan_id":"cebpf4jnsgd1na2vs0mg"},{"bike_id":"6be3bd8b-eada-4f83-bfbf-82d34cec3c94","system_id":"levelo_inurba_marseille","lat":43.337724,"lon":5.374496,"is_reserved":false,"is_disabled":false,"rental_uris":{"android":"levelo://app?vid=6be3bd8b-eada-4f83-bfbf-82d34cec3c94","ios":"levelo://app?vid=6be3bd8b-eada-4f83-bfbf-82d34cec3c94"},"vehicle_type_id":"4","last_reported":1758449345,"current_range_meters":16000,"station_id":"","pricing_plan_id":"cebpf4jnsgd1na2vs0mg"},{"bike_id":"162483fb-058a-43f7-a272-15e63e78b5bc","system_id":"levelo_inurba_marseille","lat":43.21745,"lon":5.3459,"is_reserved":false,"is_disabled":true,"rental_uris":{"android":"levelo://app?vid=162483fb-058a-43f7-a272-15e63e78b5bc","ios":"levelo://app?vid=162483fb-058a-43f7-a272-15e63e78b5bc"},"vehicle_type_id":"4","last_reported":1758449345,"current_range_meters":16000,"station_id":"st_cvj6r9ubvosntc0bgbag","pricing_plan_id":"cebpf4jnsgd1na2vs0mg"},{"bike_id":"ee714a1c-9701-4b43-9485-3ea54969b52b","system_id":"levelo_inurba_marseille","lat":43.26232,"lon":5.40455,"is_reserved":false,"is_disabled":false,"rental_uris":{"android":"levelo://app?vid=ee714a1c-9701-4b43-9485-3ea54969b52b","ios":"levelo://app?vid=ee714a1c-9701-4b43-9485-3ea54969b52b"},"vehicle_type_id":"4","last_reported":1758449345,"current_range_meters":17200,"station_id":"ce4bhmh2rcd13ifvqgmg","pricing_plan_id":"cebpf4jnsgd1na2vs0mg"},{"bike_id":"7dfa5743-3739-4ea1-809b-4b7ff3c51c53","system_id":"levelo_inurba_marseille","lat":43.27621,"lon":5.36108,"is_reserved":false,"is_disabled":false,"rental_uris":{"android":"levelo://app?vid=7dfa5743-3739-4ea1-809b-4b7ff3c51c53","ios":"levelo://app?vid=7dfa5743-3739-4ea1-809b-4b7ff3c51c53"},"vehicle_type_id":"4","last_reported":1758449345,"current_range_meters":16000,"station_id":"ce4bgj92rcd13ifvqbe0","pricing_plan_id":"cebpf4jnsgd1na2vs0mg"},{"bike_id":"3590453f-7b15-41e5-b942-865f4707a4ed","system_id":"levelo_inurba_marseille","lat":43.29259,"lon":5.40898,"is_reserved":false,"is_disabled":false,"rental_uris":{"android":"levelo://app?vid=3590453f-7b15-41e5-b942-865f4707a4ed","ios":"levelo://app?vid=3590453f-7b15-41e5-b942-865f4707a4ed"},"vehicle_type_id":"4","last_reported":1758449345,"current_range_meters":16400,"station_id":"ce4bh192rcd13ifvqdc0","pricing_plan_id":"cebpf4jnsgd1na2vs0mg"},{"bike_id":"f6d3db65-6e51-4ae2-b08b-28b25101c71d","system_id":"levelo_inurba_marseille","lat":43.27371,"lon":5.3626,"is_reserved":false,"is_disabled":false,"rental_uris":{"android":"levelo://app?vid=f6d3db65-6e51-4ae2-b08b-28b25101c71d","ios":"levelo://app?vid=f6d3db65-6e51-4ae2-b08b-28b25101c71d"},"vehicle_type_id":"4","last_reported":1758449345,"current_range_meters":16400,"station_id":"ce4bhbh2rcd13ifvqeo0","pricing_plan_id":"cebpf4jnsgd1na2vs0mg"},{"bike_id":"0c8a92f3-f5d4-48dc-bbf5-8177c0a48b95","system_id":"levelo_inurba_marseille","lat":43.296231,"lon":5.381605,"is_reserved":false,"is_disabled":false,"rental_uris":{"android":"levelo://app?vid=0c8a92f3-f5d4-48dc-bbf5-8177c0a48b95","ios":"levelo://app?vid=0c8a92f3-f5d4-48dc-bbf5-8177c0a48b95"},"vehicle_type_id":"4","last_reported":1758449345,"current_range_meters":16400,"station_id":"ce4bgl12rcd13ifvqbo0","pricing_plan_id":"cebpf4jnsgd1na2vs0mg"},{"bike_id":"14e0ecfc-848e-4179-ac98-8bf6c41189b5","system_id":"levelo_inurba_marseille","lat":43.30284,"lon":5.396613,"is_reserved":false,"is_disabled":false,"rental_uris":{"android":"levelo://app?vid=14e0ecfc-848e-4179-ac98-8bf6c41189b5","ios":"levelo://app?vid=14e0ecfc-848e-4179-ac98-8bf6c41189b5"},"vehicle_type_id":"4","last_reported":1758449345,"current_range_meters":16400,"station_id":"","pricing_plan_id":"cebpf4jnsgd1na2vs0mg"},{"bike_id":"15609c4e-f589-422c-9a62-c8d2d4eb92fd","system_id":"levelo_inurba_marseille","lat":43.31759,"lon":5.39012,"is_reserved":false,"is_disabled":false,"rental_uris":{"android":"levelo://app?vid=15609c4e-f589-422c-9a62-c8d2d4eb92fd","ios":"levelo://app?vid=15609c4e-f589-422c-9a62-c8d2d4eb92fd"},"vehicle_type_id":"4","last_reported":1758449345,"current_range_meters":16400,"station_id":"ce4bhqp2rcd13ifvqhng","pricing_plan_id":"cebpf4jnsgd1na2vs0mg"},{"bike_id":"f3805ac9-2ab6-41f8-b374-0887d951860e","system_id":"levelo_inurba_marseille","lat":43.21758,"lon":5.34593,"is_reserved":false,"is_disabled":true,"rental_uris":{"android":"levelo://app?vid=f3805ac9-2ab6-41f8-b374-0887d951860e","ios":"levelo://app?vid=f3805ac9-2ab6-41f8-b374-0887d951860e"},"vehicle_type_id":"4","last_reported":1758449345,"current_range_meters":16400,"station_id":"st_cvj6r9ubvosntc0bgbag","pricing_plan_id":"cebpf4jnsgd1na2vs0mg"},{"bike_id":"d112a482-2a92-4b40-a5ca-a1152605e1eb","system_id":"levelo_inurba_marseille","lat":43.24682,"lon":5.3814,"is_reserved":false,"is_disabled":false,"rental_uris":{"android":"levelo://app?vid=d112a482-2a92-4b40-a5ca-a1152605e1eb","ios":"levelo://app?vid=d112a482-2a92-4b40-a5ca-a1152605e1eb"},"vehicle_type_id":"4","last_reported":1758449345,"current_range_meters":16400,"station_id":"ce4bhih2rcd13ifvqfr0","pricing_plan_id":"cebpf4jnsgd1na2vs0mg"},{"bike_id":"02edd8c1-3b1a-4071-ab74-ee6600fc2f95","system_id":"levelo_inurba_marseille","lat":43.286041,"lon":5.360233,"is_reserved":false,"is_disabled":false,"rental_uris":{"android":"levelo://app?vid=02edd8c1-3b1a-4071-ab74-ee6600fc2f95","ios":"levelo://app?vid=02edd8c1-3b1a-4071-ab74-ee6600fc2f95"},"vehicle_type_id":"4","last_reported":1758449345,"current_range_meters":16400,"station_id":"ce4bhb92rcd13ifvqen0","pricing_plan_id":"cebpf4jnsgd1na2vs0mg"},{"bike_id":"a3a4206e-9698-40c4-99a7-c2a694b15382","system_id":"levelo_inurba_marseille","lat":43.25877,"lon":5.40906,"is_reserved":false,"is_disabled":false,"rental_uris":{"android":"levelo://app?vid=a3a4206e-9698-40c4-99a7-c2a694b15382","ios":"levelo://app?vid=a3a4206e-9698-40c4-99a7-c2a694b15382"},"vehicle_type_id":"4","last_reported":1758449345,"current_range_meters":16400,"station_id":"","pricing_plan_id":"cebpf4jnsgd1na2vs0mg"},{"bike_id":"07bf7daf-7f0f-4cf7-90db-b9f0e0dfa16a","system_id":"levelo_inurba_marseille","lat":43.21186,"lon":5.35069,"is_reserved":false,"is_disabled":false,"rental_uris":{"android":"levelo://app?vid=07bf7daf-7f0f-4cf7-90db-b9f0e0dfa16a","ios":"levelo://app?vid=07bf7daf-7f0f-4cf7-90db-b9f0e0dfa16a"},"vehicle_type_id":"4","last_reported":1758449345,"current_range_meters":16400,"station_id":"st_cvj6sg6p6f1abm77japg","pricing_plan_id":"cebpf4jnsgd1na2vs0mg"},{"bike_id":"1f5f1aea-0efa-4310-b0af-b5d79f6200fa","system_id":"levelo_inurba_marseille","lat":43.295558,"lon":5.422851,"is_reserved":false,"is_disabled":false,"rental_uris":{"android":"levelo://app?vid=1f5f1aea-0efa-4310-b0af-b5d79f6200fa","ios":"levelo://app?vid=1f5f1aea-0efa-4310-b0af-b5d79f6200fa"},"vehicle_type_id":"4","last_reported":1758449345,"current_range_meters":16400,"station_id":"ce4bhph2rcd13ifvqhdg","pricing_plan_id":"cebpf4jnsgd1na2vs0mg"},{"bike_id":"f68ef2ec-86ee-455b-a503-a1766a7ff2c8","system_id":"levelo_inurba_marseille","lat":43.29935,"lon":5.36549,"is_reserved":false,"is_disabled":false,"rental_uris":{"android":"levelo://app?vid=f68ef2ec-86ee-455b-a503-a1766a7ff2c8","ios":"levelo://app?vid=f68ef2ec-86ee-455b-a503-a1766a7ff2c8"},"vehicle_type_id":"4","last_reported":1758449345,"current_range_meters":16800,"station_id":"ce4bgm92rcd13ifvqbr0","pricing_plan_id":"cebpf4jnsgd1na2vs0mg"},{"bike_id":"6fe025d9-a6f5-413f-a2cb-db271fd37025","system_id":"levelo_inurba_marseille","lat":43.30141,"lon":5.38089,"is_reserved":false,"is_disabled":false,"rental_uris":{"android":"levelo://app?vid=6fe025d9-a6f5-413f-a2cb-db271fd37025","ios":"levelo://app?vid=6fe025d9-a6f5-413f-a2cb-db271fd37025"},"vehicle_type_id":"4","last_reported":1758449345,"current_range_meters":16800,"station_id":"ce4bgjp2rcd13ifvqbh0","pricing_plan_id":"cebpf4jnsgd1na2vs0mg"},{"bike_id":"ab3ffc48-3b72-4766-9326-6b75f94718d3","system_id":"levelo_inurba_marseille","lat":43.28928,"lon":5.38405,"is_reserved":false,"is_disabled":true,"rental_uris":{"android":"levelo://app?vid=ab3ffc48-3b72-4766-9326-6b75f94718d3","ios":"levelo://app?vid=ab3ffc48-3b72-4766-9326-6b75f94718d3"},"vehicle_type_id":"4","last_reported":1758449345,"current_range_meters":16800,"station_id":"ce4bh612rcd13ifvqe6g","pricing_plan_id":"cebpf4jnsgd1na2vs0mg"},{"bike_id":"c3c3c30e-1b71-4cfb-84b2-e1a212f55104","system_id":"levelo_inurba_marseille","lat":43.30134,"lon":5.38087,"is_reserved":false,"is_disabled":false,"rental_uris":{"android":"levelo://app?vid=c3c3c30e-1b71-4cfb-84b2-e1a212f55104","ios":"levelo://app?vid=c3c3c30e-1b71-4cfb-84b2-e1a212f55104"},"vehicle_type_id":"4","last_reported":1758449345,"current_range_meters":16800,"station_id":"ce4bgjp2rcd13ifvqbh0","pricing_plan_id":"cebpf4jnsgd1na2vs0mg"},{"bike_id":"00cfd4e0-c74d-4fd1-9130-e45639e81dda","system_id":"levelo_inurba_marseille","lat":43.24071,"lon":5.37765,"is_reserved":false,"is_disabled":false,"rental_uris":{"android":"levelo://app?vid=00cfd4e0-c74d-4fd1-9130-e45639e81dda","ios":"levelo://app?vid=00cfd4e0-c74d-4fd1-9130-e45639e81dda"},"vehicle_type_id":"4","last_reported":1758449345,"current_range_meters":16800,"station_id":"ce4bhnp2rcd13ifvqgvg","pricing_plan_id":"cebpf4jnsgd1na2vs0mg"},{"bike_id":"b8ef90bb-057a-402b-9655-3a68d78bcddb","system_id":"levelo_inurba_marseille","lat":43.26231,"lon":5.40437,"is_reserved":false,"is_disabled":false,"rental_uris":{"android":"levelo://app?vid=b8ef90bb-057a-402b-9655-3a68d78bcddb","ios":"levelo://app?vid=b8ef90bb-057a-402b-9655-3a68d78bcddb"},"vehicle_type_id":"4","last_reported":1758449345,"current_range_meters":16800,"station_id":"ce4bhmh2rcd13ifvqgmg","pricing_plan_id":"cebpf4jnsgd1na2vs0mg"},{"bike_id":"d84b87d3-029e-4e1c-b049-a74d8178f62a","system_id":"levelo_inurba_marseille","lat":43.30228,"lon":5.389961,"is_reserved":false,"is_disabled":false,"rental_uris":{"android":"levelo://app?vid=d84b87d3-029e-4e1c-b049-a74d8178f62a","ios":"levelo://app?vid=d84b87d3-029e-4e1c-b049-a74d8178f62a"},"vehicle_type_id":"4","last_reported":1758449345,"current_range_meters":16800,"station_id":"ce4bgkh2rcd13ifvqbk0","pricing_plan_id":"cebpf4jnsgd1na2vs0mg"},{"bike_id":"56cc7381-4bca-4ae8-bf5f-6773b2a803d5","system_id":"levelo_inurba_marseille","lat":43.3122,"lon":5.36853,"is_reserved":false,"is_disabled":false,"rental_uris":{"android":"levelo://app?vid=56cc7381-4bca-4ae8-bf5f-6773b2a803d5","ios":"levelo://app?vid=56cc7381-4bca-4ae8-bf5f-6773b2a803d5"},"vehicle_type_id":"4","last_reported":1758449345,"current_range_meters":17200,"station_id":"ce4bgl92rcd13ifvqbq0","pricing_plan_id":"cebpf4jnsgd1na2vs0mg"},{"bike_id":"1ba66e19-2041-49b9-94fa-94716b424719","system_id":"levelo_inurba_marseille","lat":43.31065,"lon":5.38363,"is_reserved":false,"is_disabled":false,"rental_uris":{"android":"levelo://app?vid=1ba66e19-2041-49b9-94fa-94716b424719","ios":"levelo://app?vid=1ba66e19-2041-49b9-94fa-94716b424719"},"vehicle_type_id":"4","last_reported":1758449345,"current_range_meters":17200,"station_id":"ce4bgv92rcd13ifvqcr0","pricing_plan_id":"cebpf4jnsgd1na2vs0mg"},{"bike_id":"1e0fd49c-ac4b-47b7-af02-10561a312938","system_id":"levelo_inurba_marseille","lat":43.21744,"lon":5.34601,"is_reserved":false,"is_disabled":true,"rental_uris":{"android":"levelo://app?vid=1e0fd49c-ac4b-47b7-af02-10561a312938","ios":"levelo://app?vid=1e0fd49c-ac4b-47b7-af02-10561a312938"},"vehicle_type_id":"4","last_reported":1758449345,"current_range_meters":17200,"station_id":"st_cvj6r9ubvosntc0bgbag","pricing_plan_id":"cebpf4jnsgd1na2vs0mg"},{"bike_id":"4806da5a-67b2-4245-853a-7c8de74bc531","system_id":"levelo_inurba_marseille","lat":43.27083,"lon":5.42266,"is_reserved":false,"is_disabled":false,"rental_uris":{"android":"levelo://app?vid=4806da5a-67b2-4245-853a-7c8de74bc531","ios":"levelo://app?vid=4806da5a-67b2-4245-853a-7c8de74bc531"},"vehicle_type_id":"4","last_reported":1758449345,"current_range_meters":17200,"station_id":"ce4bhk92rcd13ifvqgb0","pricing_plan_id":"cebpf4jnsgd1na2vs0mg"},{"bike_id":"43d57fd4-047e-4ac8-97e5-ec9b96239472","system_id":"levelo_inurba_marseille","lat":43.33123,"lon":5.39726,"is_reserved":false,"is_disabled":false,"rental_uris":{"android":"levelo://app?vid=43d57fd4-047e-4ac8-97e5-ec9b96239472","ios":"levelo://app?vid=43d57fd4-047e-4ac8-97e5-ec9b96239472"},"vehicle_type_id":"4","last_reported":1758449345,"current_range_meters":17200,"station_id":"","pricing_plan_id":"cebpf4jnsgd1na2vs0mg"},{"bike_id":"2dc27fe0-70dc-4e43-a360-dc50d96153fe","system_id":"levelo_inurba_marseille","lat":43.254939,"lon":5.376486,"is_reserved":false,"is_disabled":false,"rental_uris":{"android":"levelo://app?vid=2dc27fe0-70dc-4e43-a360-dc50d96153fe","ios":"levelo://app?vid=2dc27fe0-70dc-4e43-a360-dc50d96153fe"},"vehicle_type_id":"4","last_reported":1758449345,"current_range_meters":16800,"station_id":"ce4bhh12rcd13ifvqff0","pricing_plan_id":"cebpf4jnsgd1na2vs0mg"},{"bike_id":"99f2a0d1-a9bb-4a75-ad28-578d9b01c1fc","system_id":"levelo_inurba_marseille","lat":43.30125,"lon":5.38769,"is_reserved":false,"is_disabled":true,"rental_uris":{"android":"levelo://app?vid=99f2a0d1-a9bb-4a75-ad28-578d9b01c1fc","ios":"levelo://app?vid=99f2a0d1-a9bb-4a75-ad28-578d9b01c1fc"},"vehicle_type_id":"4","last_reported":1758449345,"current_range_meters":17600,"station_id":"ce4bghh2rcd13ifvqb60","pricing_plan_id":"cebpf4jnsgd1na2vs0mg"},{"bike_id":"5505145f-3f3d-43db-9530-b99e6c12af33","system_id":"levelo_inurba_marseille","lat":43.284617,"lon":5.358831,"is_reserved":false,"is_disabled":false,"rental_uris":{"android":"levelo://app?vid=5505145f-3f3d-43db-9530-b99e6c12af33","ios":"levelo://app?vid=5505145f-3f3d-43db-9530-b99e6c12af33"},"vehicle_type_id":"4","last_reported":1758449345,"current_range_meters":17600,"station_id":"ce4bhah2rcd13ifvqei0","pricing_plan_id":"cebpf4jnsgd1na2vs0mg"},{"bike_id":"da05eb96-257a-419d-b8c1-0ef92d280a60","system_id":"levelo_inurba_marseille","lat":43.290372,"lon":5.399827,"is_reserved":false,"is_disabled":false,"rental_uris":{"android":"levelo://app?vid=da05eb96-257a-419d-b8c1-0ef92d280a60","ios":"levelo://app?vid=da05eb96-257a-419d-b8c1-0ef92d280a60"},"vehicle_type_id":"4","last_reported":1758449345,"current_range_meters":17600,"station_id":"ce4bh392rcd13ifvqdm0","pricing_plan_id":"cebpf4jnsgd1na2vs0mg"},{"bike_id":"df8300c6-253b-4635-a84e-310187fb290a","system_id":"levelo_inurba_marseille","lat":43.29449,"lon":5.3975,"is_reserved":false,"is_disabled":false,"rental_uris":{"android":"levelo://app?vid=df8300c6-253b-4635-a84e-310187fb290a","ios":"levelo://app?vid=df8300c6-253b-4635-a84e-310187fb290a"},"vehicle_type_id":"4","last_reported":1758449345,"current_range_meters":17600,"station_id":"ce4bh3h2rcd13ifvqdo0","pricing_plan_id":"cebpf4jnsgd1na2vs0mg"},{"bike_id":"3a0d1294-9ecb-41d2-8961-4424f9b11752","system_id":"levelo_inurba_marseille","lat":43.30588,"lon":5.39357,"is_reserved":false,"is_disabled":false,"rental_uris":{"android":"levelo://app?vid=3a0d1294-9ecb-41d2-8961-4424f9b11752","ios":"levelo://app?vid=3a0d1294-9ecb-41d2-8961-4424f9b11752"},"vehicle_type_id":"4","last_reported":1758449345,"current_range_meters":17600,"station_id":"ce4bh0p2rcd13ifvqd80","pricing_plan_id":"cebpf4jnsgd1na2vs0mg"},{"bike_id":"fc97ac94-60e0-49dd-80a1-e5b1b5ea5085","system_id":"levelo_inurba_marseille","lat":43.24181,"lon":5.39732,"is_reserved":false,"is_disabled":false,"rental_uris":{"android":"levelo://app?vid=fc97ac94-60e0-49dd-80a1-e5b1b5ea5085","ios":"levelo://app?vid=fc97ac94-60e0-49dd-80a1-e5b1b5ea5085"},"vehicle_type_id":"4","last_reported":1758449345,"current_range_meters":17200,"station_id":"ce4bhn12rcd13ifvqgpg","pricing_plan_id":"cebpf4jnsgd1na2vs0mg"},{"bike_id":"76aabfa6-feff-4f9e-98e3-80f3ed3d34bb","system_id":"levelo_inurba_marseille","lat":43.30251,"lon":5.40078,"is_reserved":false,"is_disabled":true,"rental_uris":{"android":"levelo://app?vid=76aabfa6-feff-4f9e-98e3-80f3ed3d34bb","ios":"levelo://app?vid=76aabfa6-feff-4f9e-98e3-80f3ed3d34bb"},"vehicle_type_id":"4","last_reported":1758449345,"current_range_meters":17600,"station_id":"ce4bgvh2rcd13ifvqcs0","pricing_plan_id":"cebpf4jnsgd1na2vs0mg"},{"bike_id":"6e462536-3a01-4092-9490-0b0d7831c7b9","system_id":"levelo_inurba_marseille","lat":43.29508,"lon":5.39066,"is_reserved":false,"is_disabled":true,"rental_uris":{"android":"levelo://app?vid=6e462536-3a01-4092-9490-0b0d7831c7b9","ios":"levelo://app?vid=6e462536-3a01-4092-9490-0b0d7831c7b9"},"vehicle_type_id":"4","last_reported":1758449345,"current_range_meters":17600,"station_id":"ce4bh3p2rcd13ifvqdp0","pricing_plan_id":"cebpf4jnsgd1na2vs0mg"},{"bike_id":"581d348a-d39f-4f1a-8f37-d81b578e997d","system_id":"levelo_inurba_marseille","lat":43.24159,"lon":5.363935,"is_reserved":false,"is_disabled":false,"rental_uris":{"android":"levelo://app?vid=581d348a-d39f-4f1a-8f37-d81b578e997d","ios":"levelo://app?vid=581d348a-d39f-4f1a-8f37-d81b578e997d"},"vehicle_type_id":"4","last_reported":1758449345,"current_range_meters":17600,"station_id":"cpo36qri1sfpv3e86is0","pricing_plan_id":"cebpf4jnsgd1na2vs0mg"},{"bike_id":"c46575d3-d222-4081-9970-3a38bb708282","system_id":"levelo_inurba_marseille","lat":43.21741,"lon":5.34603,"is_reserved":false,"is_disabled":false,"rental_uris":{"android":"levelo://app?vid=c46575d3-d222-4081-9970-3a38bb708282","ios":"levelo://app?vid=c46575d3-d222-4081-9970-3a38bb708282"},"vehicle_type_id":"4","last_reported":1758449345,"current_range_meters":17600,"station_id":"st_cvj6r9ubvosntc0bgbag","pricing_plan_id":"cebpf4jnsgd1na2vs0mg"},{"bike_id":"7199841c-1218-4f20-8a43-486af24ec43f","system_id":"levelo_inurba_marseille","lat":43.26953,"lon":5.40281,"is_reserved":false,"is_disabled":false,"rental_uris":{"android":"levelo://app?vid=7199841c-1218-4f20-8a43-486af24ec43f","ios":"levelo://app?vid=7199841c-1218-4f20-8a43-486af24ec43f"},"vehicle_type_id":"4","last_reported":1758449345,"current_range_meters":17600,"station_id":"cjm6bp8fraef2m0cb0m0","pricing_plan_id":"cebpf4jnsgd1na2vs0mg"},{"bike_id":"d1114a25-396a-458c-bb3a-06443865c163","system_id":"levelo_inurba_marseille","lat":43.29782,"lon":5.38101,"is_reserved":false,"is_disabled":true,"rental_uris":{"android":"levelo://app?vid=d1114a25-396a-458c-bb3a-06443865c163","ios":"levelo://app?vid=d1114a25-396a-458c-bb3a-06443865c163"},"vehicle_type_id":"4","last_reported":1758449345,"current_range_meters":18000,"station_id":"ce4bgip2rcd13ifvqbb0","pricing_plan_id":"cebpf4jnsgd1na2vs0mg"},{"bike_id":"6c265c4b-8bd7-4585-9a94-48f4b85ecf1e","system_id":"levelo_inurba_marseille","lat":43.25738,"lon":5.4111,"is_reserved":false,"is_disabled":false,"rental_uris":{"android":"levelo://app?vid=6c265c4b-8bd7-4585-9a94-48f4b85ecf1e","ios":"levelo://app?vid=6c265c4b-8bd7-4585-9a94-48f4b85ecf1e"},"vehicle_type_id":"4","last_reported":1758449345,"current_range_meters":18000,"station_id":"ce4bhkp2rcd13ifvqgd0","pricing_plan_id":"cebpf4jnsgd1na2vs0mg"},{"bike_id":"f044e48b-3090-46da-b164-a55b18633715","system_id":"levelo_inurba_marseille","lat":43.29846,"lon":5.36279,"is_reserved":false,"is_disabled":false,"rental_uris":{"android":"levelo://app?vid=f044e48b-3090-46da-b164-a55b18633715","ios":"levelo://app?vid=f044e48b-3090-46da-b164-a55b18633715"},"vehicle_type_id":"4","last_reported":1758449345,"current_range_meters":18000,"station_id":"ce4bgpp2rcd13ifvqc3g","pricing_plan_id":"cebpf4jnsgd1na2vs0mg"},{"bike_id":"b9e6e074-a56d-49da-9bdb-b2f9d067d50b","system_id":"levelo_inurba_marseille","lat":43.32282,"lon":5.38296,"is_reserved":false,"is_disabled":false,"rental_uris":{"android":"levelo://app?vid=b9e6e074-a56d-49da-9bdb-b2f9d067d50b","ios":"levelo://app?vid=b9e6e074-a56d-49da-9bdb-b2f9d067d50b"},"vehicle_type_id":"4","last_reported":1758449345,"current_range_meters":18000,"station_id":"ce4bhr12rcd13ifvqhqg","pricing_plan_id":"cebpf4jnsgd1na2vs0mg"},{"bike_id":"fa839e28-d27f-4027-ad4a-81ae2d9cc991","system_id":"levelo_inurba_marseille","lat":43.31361,"lon":5.38497,"is_reserved":false,"is_disabled":false,"rental_uris":{"android":"levelo://app?vid=fa839e28-d27f-4027-ad4a-81ae2d9cc991","ios":"levelo://app?vid=fa839e28-d27f-4027-ad4a-81ae2d9cc991"},"vehicle_type_id":"4","last_reported":1758449345,"current_range_meters":18800,"station_id":"ce4bgt92rcd13ifvqcf0","pricing_plan_id":"cebpf4jnsgd1na2vs0mg"},{"bike_id":"423aeb91-69f4-4522-916b-76a472005736","system_id":"levelo_inurba_marseille","lat":43.31475,"lon":5.38036,"is_reserved":false,"is_disabled":false,"rental_uris":{"android":"levelo://app?vid=423aeb91-69f4-4522-916b-76a472005736","ios":"levelo://app?vid=423aeb91-69f4-4522-916b-76a472005736"},"vehicle_type_id":"4","last_reported":1758449345,"current_range_meters":18000,"station_id":"","pricing_plan_id":"cebpf4jnsgd1na2vs0mg"},{"bike_id":"34f32fc0-aa07-4a77-a798-5dff527258f0","system_id":"levelo_inurba_marseille","lat":43.28643,"lon":5.38671,"is_reserved":false,"is_disabled":true,"rental_uris":{"android":"levelo://app?vid=34f32fc0-aa07-4a77-a798-5dff527258f0","ios":"levelo://app?vid=34f32fc0-aa07-4a77-a798-5dff527258f0"},"vehicle_type_id":"4","last_reported":1758449345,"current_range_meters":18000,"station_id":"ce4bh492rcd13ifvqdug","pricing_plan_id":"cebpf4jnsgd1na2vs0mg"},{"bike_id":"4d03cc56-4dd1-497c-939f-31be6050482c","system_id":"levelo_inurba_marseille","lat":43.24547,"lon":5.39516,"is_reserved":false,"is_disabled":false,"rental_uris":{"android":"levelo://app?vid=4d03cc56-4dd1-497c-939f-31be6050482c","ios":"levelo://app?vid=4d03cc56-4dd1-497c-939f-31be6050482c"},"vehicle_type_id":"4","last_reported":1758449345,"current_range_meters":18000,"station_id":"ce4bhlp2rcd13ifvqgjg","pricing_plan_id":"cebpf4jnsgd1na2vs0mg"},{"bike_id":"89c97d80-3c90-4805-ac80-a0755a9d3112","system_id":"levelo_inurba_marseille","lat":43.29898,"lon":5.436729,"is_reserved":false,"is_disabled":false,"rental_uris":{"android":"levelo://app?vid=89c97d80-3c90-4805-ac80-a0755a9d3112","ios":"levelo://app?vid=89c97d80-3c90-4805-ac80-a0755a9d3112"},"vehicle_type_id":"4","last_reported":1758449345,"current_range_meters":18000,"station_id":"ce4bhpp2rcd13ifvqhfg","pricing_plan_id":"cebpf4jnsgd1na2vs0mg"},{"bike_id":"aa615de6-88cf-4553-9e37-2b398204d202","system_id":"levelo_inurba_marseille","lat":43.21194,"lon":5.35064,"is_reserved":false,"is_disabled":false,"rental_uris":{"android":"levelo://app?vid=aa615de6-88cf-4553-9e37-2b398204d202","ios":"levelo://app?vid=aa615de6-88cf-4553-9e37-2b398204d202"},"vehicle_type_id":"4","last_reported":1758449345,"current_range_meters":18800,"station_id":"st_cvj6sg6p6f1abm77japg","pricing_plan_id":"cebpf4jnsgd1na2vs0mg"},{"bike_id":"456415ac-599a-40a5-8b75-36eee91b0e94","system_id":"levelo_inurba_marseille","lat":43.27368,"lon":5.36252,"is_reserved":false,"is_disabled":false,"rental_uris":{"android":"levelo://app?vid=456415ac-599a-40a5-8b75-36eee91b0e94","ios":"levelo://app?vid=456415ac-599a-40a5-8b75-36eee91b0e94"},"vehicle_type_id":"4","last_reported":1758449345,"current_range_meters":18800,"station_id":"ce4bhbh2rcd13ifvqeo0","pricing_plan_id":"cebpf4jnsgd1na2vs0mg"},{"bike_id":"b7f4f1b2-9ea6-4bf0-9b12-478ca571e1f4","system_id":"levelo_inurba_marseille","lat":43.295319,"lon":5.375022,"is_reserved":false,"is_disabled":false,"rental_uris":{"android":"levelo://app?vid=b7f4f1b2-9ea6-4bf0-9b12-478ca571e1f4","ios":"levelo://app?vid=b7f4f1b2-9ea6-4bf0-9b12-478ca571e1f4"},"vehicle_type_id":"4","last_reported":1758449345,"current_range_meters":18800,"station_id":"","pricing_plan_id":"cebpf4jnsgd1na2vs0mg"},{"bike_id":"6b063940-c9c2-4ed4-8502-d9c86fb6d03c","system_id":"levelo_inurba_marseille","lat":43.21739,"lon":5.34604,"is_reserved":false,"is_disabled":false,"rental_uris":{"android":"levelo://app?vid=6b063940-c9c2-4ed4-8502-d9c86fb6d03c","ios":"levelo://app?vid=6b063940-c9c2-4ed4-8502-d9c86fb6d03c"},"vehicle_type_id":"4","last_reported":1758449345,"current_range_meters":18800,"station_id":"st_cvj6r9ubvosntc0bgbag","pricing_plan_id":"cebpf4jnsgd1na2vs0mg"},{"bike_id":"d64a3c34-4f58-4a33-9858-96d7eeac0575","system_id":"levelo_inurba_marseille","lat":43.21752,"lon":5.34639,"is_reserved":false,"is_disabled":true,"rental_uris":{"android":"levelo://app?vid=d64a3c34-4f58-4a33-9858-96d7eeac0575","ios":"levelo://app?vid=d64a3c34-4f58-4a33-9858-96d7eeac0575"},"vehicle_type_id":"4","last_reported":1758449345,"current_range_meters":18800,"station_id":"st_cvj6r9ubvosntc0bgbag","pricing_plan_id":"cebpf4jnsgd1na2vs0mg"},{"bike_id":"2c747f96-89cd-4fda-a853-ba4dc1d64b7c","system_id":"levelo_inurba_marseille","lat":43.30303,"lon":5.39211,"is_reserved":false,"is_disabled":false,"rental_uris":{"android":"levelo://app?vid=2c747f96-89cd-4fda-a853-ba4dc1d64b7c","ios":"levelo://app?vid=2c747f96-89cd-4fda-a853-ba4dc1d64b7c"},"vehicle_type_id":"4","last_reported":1758449345,"current_range_meters":18800,"station_id":"ce4bgkh2rcd13ifvqbk0","pricing_plan_id":"cebpf4jnsgd1na2vs0mg"},{"bike_id":"94d430e6-52b3-4d21-80c9-c6dd4519a8fb","system_id":"levelo_inurba_marseille","lat":43.31779,"lon":5.38294,"is_reserved":false,"is_disabled":false,"rental_uris":{"android":"levelo://app?vid=94d430e6-52b3-4d21-80c9-c6dd4519a8fb","ios":"levelo://app?vid=94d430e6-52b3-4d21-80c9-c6dd4519a8fb"},"vehicle_type_id":"4","last_reported":1758449345,"current_range_meters":18800,"station_id":"","pricing_plan_id":"cebpf4jnsgd1na2vs0mg"},{"bike_id":"734142ff-e3bd-43c7-961c-8fbbe3229571","system_id":"levelo_inurba_marseille","lat":43.23966,"lon":5.3663,"is_reserved":false,"is_disabled":false,"rental_uris":{"android":"levelo://app?vid=734142ff-e3bd-43c7-961c-8fbbe3229571","ios":"levelo://app?vid=734142ff-e3bd-43c7-961c-8fbbe3229571"},"vehicle_type_id":"4","last_reported":1758449345,"current_range_meters":18000,"station_id":"ce4bhi12rcd13ifvqfp0","pricing_plan_id":"cebpf4jnsgd1na2vs0mg"},{"bike_id":"22f33299-3c5b-4d3e-897d-29df03a0dc64","system_id":"levelo_inurba_marseille","lat":43.24618,"lon":5.43144,"is_reserved":false,"is_disabled":false,"rental_uris":{"android":"levelo://app?vid=22f33299-3c5b-4d3e-897d-29df03a0dc64","ios":"levelo://app?vid=22f33299-3c5b-4d3e-897d-29df03a0dc64"},"vehicle_type_id":"4","last_reported":1758449345,"current_range_meters":18800,"station_id":"st_d2m6c4gdas8pm72e190g","pricing_plan_id":"cebpf4jnsgd1na2vs0mg"},{"bike_id":"b8b086fa-144f-4e7c-a845-e879caf46260","system_id":"levelo_inurba_marseille","lat":43.28873,"lon":5.42518,"is_reserved":false,"is_disabled":false,"rental_uris":{"android":"levelo://app?vid=b8b086fa-144f-4e7c-a845-e879caf46260","ios":"levelo://app?vid=b8b086fa-144f-4e7c-a845-e879caf46260"},"vehicle_type_id":"4","last_reported":1758449345,"current_range_meters":18800,"station_id":"","pricing_plan_id":"cebpf4jnsgd1na2vs0mg"},{"bike_id":"4ffff748-d86e-448c-b56c-98423ce5e657","system_id":"levelo_inurba_marseille","lat":43.30856,"lon":5.39692,"is_reserved":false,"is_disabled":false,"rental_uris":{"android":"levelo://app?vid=4ffff748-d86e-448c-b56c-98423ce5e657","ios":"levelo://app?vid=4ffff748-d86e-448c-b56c-98423ce5e657"},"vehicle_type_id":"4","last_reported":1758449345,"current_range_meters":19200,"station_id":"","pricing_plan_id":"cebpf4jnsgd1na2vs0mg"},{"bike_id":"aed3df65-d250-4c16-b5c9-75570046bda1","system_id":"levelo_inurba_marseille","lat":43.23154,"lon":5.43703,"is_reserved":false,"is_disabled":false,"rental_uris":{"android":"levelo://app?vid=aed3df65-d250-4c16-b5c9-75570046bda1","ios":"levelo://app?vid=aed3df65-d250-4c16-b5c9-75570046bda1"},"vehicle_type_id":"4","last_reported":1758449345,"current_range_meters":19200,"station_id":"ce4bhmp2rcd13ifvqgog","pricing_plan_id":"cebpf4jnsgd1na2vs0mg"},{"bike_id":"3da189ae-7281-4163-b7ab-db75f5183be8","system_id":"levelo_inurba_marseille","lat":43.33022,"lon":5.39049,"is_reserved":false,"is_disabled":false,"rental_uris":{"android":"levelo://app?vid=3da189ae-7281-4163-b7ab-db75f5183be8","ios":"levelo://app?vid=3da189ae-7281-4163-b7ab-db75f5183be8"},"vehicle_type_id":"4","last_reported":1758449345,"current_range_meters":18800,"station_id":"ce4bhr92rcd13ifvqhrg","pricing_plan_id":"cebpf4jnsgd1na2vs0mg"},{"bike_id":"40af9c97-e433-4d5f-aa67-78d647ee5b4c","system_id":"levelo_inurba_marseille","lat":43.2749,"lon":5.42445,"is_reserved":false,"is_disabled":true,"rental_uris":{"android":"levelo://app?vid=40af9c97-e433-4d5f-aa67-78d647ee5b4c","ios":"levelo://app?vid=40af9c97-e433-4d5f-aa67-78d647ee5b4c"},"vehicle_type_id":"4","last_reported":1758449345,"current_range_meters":19200,"station_id":"ce4bhn92rcd13ifvqgrg","pricing_plan_id":"cebpf4jnsgd1na2vs0mg"},{"bike_id":"0534f69e-a806-4292-aad2-c255a86b7af0","system_id":"levelo_inurba_marseille","lat":43.30147,"lon":5.3809,"is_reserved":false,"is_disabled":false,"rental_uris":{"android":"levelo://app?vid=0534f69e-a806-4292-aad2-c255a86b7af0","ios":"levelo://app?vid=0534f69e-a806-4292-aad2-c255a86b7af0"},"vehicle_type_id":"4","last_reported":1758449345,"current_range_meters":19200,"station_id":"ce4bgjp2rcd13ifvqbh0","pricing_plan_id":"cebpf4jnsgd1na2vs0mg"},{"bike_id":"b2be2404-53eb-4f74-9829-8104df3de106","system_id":"levelo_inurba_marseille","lat":43.336129,"lon":5.354436,"is_reserved":false,"is_disabled":false,"rental_uris":{"android":"levelo://app?vid=b2be2404-53eb-4f74-9829-8104df3de106","ios":"levelo://app?vid=b2be2404-53eb-4f74-9829-8104df3de106"},"vehicle_type_id":"4","last_reported":1758449345,"current_range_meters":19200,"station_id":"","pricing_plan_id":"cebpf4jnsgd1na2vs0mg"},{"bike_id":"b0ddb8ee-82d8-4db8-8d83-8d04cee4a200","system_id":"levelo_inurba_marseille","lat":43.28859,"lon":5.35853,"is_reserved":false,"is_disabled":false,"rental_uris":{"android":"levelo://app?vid=b0ddb8ee-82d8-4db8-8d83-8d04cee4a200","ios":"levelo://app?vid=b0ddb8ee-82d8-4db8-8d83-8d04cee4a200"},"vehicle_type_id":"4","last_reported":1758449345,"current_range_meters":19200,"station_id":"ce4bhb12rcd13ifvqem0","pricing_plan_id":"cebpf4jnsgd1na2vs0mg"},{"bike_id":"11962d0e-1371-4298-af5d-9065d29fcea9","system_id":"levelo_inurba_marseille","lat":43.26189,"lon":5.37928,"is_reserved":false,"is_disabled":false,"rental_uris":{"android":"levelo://app?vid=11962d0e-1371-4298-af5d-9065d29fcea9","ios":"levelo://app?vid=11962d0e-1371-4298-af5d-9065d29fcea9"},"vehicle_type_id":"4","last_reported":1758449345,"current_range_meters":19600,"station_id":"ce4bhjp2rcd13ifvqg90","pricing_plan_id":"cebpf4jnsgd1na2vs0mg"},{"bike_id":"b339ab2c-7f4e-4f78-b77b-6800a39b2b65","system_id":"levelo_inurba_marseille","lat":43.29045,"lon":5.37554,"is_reserved":false,"is_disabled":true,"rental_uris":{"android":"levelo://app?vid=b339ab2c-7f4e-4f78-b77b-6800a39b2b65","ios":"levelo://app?vid=b339ab2c-7f4e-4f78-b77b-6800a39b2b65"},"vehicle_type_id":"4","last_reported":1758449345,"current_range_meters":19600,"station_id":"ce4bh692rcd13ifvqe90","pricing_plan_id":"cebpf4jnsgd1na2vs0mg"},{"bike_id":"049b0910-7772-47de-92f7-3f95d2c2c77f","system_id":"levelo_inurba_marseille","lat":43.291208,"lon":5.440285,"is_reserved":false,"is_disabled":false,"rental_uris":{"android":"levelo://app?vid=049b0910-7772-47de-92f7-3f95d2c2c77f","ios":"levelo://app?vid=049b0910-7772-47de-92f7-3f95d2c2c77f"},"vehicle_type_id":"4","last_reported":1758449345,"current_range_meters":19600,"station_id":"","pricing_plan_id":"cebpf4jnsgd1na2vs0mg"},