{"last_updated":1734520063,"ttl":60,"version":"2.2","data":{"bikes":[{"bike_id":"e6104320-5417-49d8-9b38-1c75866a7d01","system_id":"levelo_inurba_marseille","lat":43.29851,"lon":5.36281,"is_reserved":false,"is_disabled":false,"rental_uris":{"android":"levelo://app?vid=e6104320-5417-49d8-9b38-1c75866a7d01","ios":"levelo://app?vid=e6104320-5417-49d8-9b38-1c75866a7d01"},"vehicle_type_id":"4","last_reported":1734520063,"current_range_meters":37600,"station_id":"ce4bgpp2rcd13ifvqc3g","pricing_plan_id":"cebpf4jnsgd1na2vs0mg"},{"bike_id":"ca9f7c7e-8767-4033-89b4-3355a51d50cc","system_id":"levelo_inurba_marseille","lat":43.2694,"lon":5.38632,"is_reserved":false,"is_disabled":true,"rental_uris":{"android":"levelo://app?vid=ca9f7c7e-8767-4033-89b4-3355a51d50cc","ios":"levelo://app?vid=ca9f7c7e-8767-4033-89b4-3355a51d50cc"},"vehicle_type_id":"4","last_reported":1734520063,"current_range_meters":5600,"station_id":"ce4bhh92rcd13ifvqfh0","pricing_plan_id":"cebpf4jnsgd1na2vs0mg"},{"bike_id":"c691a868-9faf-4a6e-b174-52b8f08a124c","system_id":"levelo_inurba_marseille","lat":43.30559,"lon":5.36532,"is_reserved":false,"is_disabled":false,"rental_uris":{"android":"levelo://app?vid=c691a868-9faf-4a6e-b174-52b8f08a124c","ios":"levelo://app?vid=c691a868-9faf-4a6e-b174-52b8f08a124c"},"vehicle_type_id":"4","last_reported":1734520063,"current_range_meters":24400,"station_id":"ce4bgs12rcd13ifvqcag","pricing_plan_id":"cebpf4jnsgd1na2vs0mg"},{"bike_id":"855da9a6-8ded-42ad-a51c-1944d34be1b3","system_id":"levelo_inurba_marseille","lat":43.24549,"lon":5.39538,"is_reserved":false,"is_disabled":false,"rental_uris":{"android":"levelo://app?vid=855da9a6-8ded-42ad-a51c-1944d34be1b3","ios":"levelo://app?vid=855da9a6-8ded-42ad-a51c-1944d34be1b3"},"vehicle_type_id":"4","last_reported":1734520063,"current_range_meters":34800,"station_id":"ce4bhlp2rcd13ifvqgjg","pricing_plan_id":"cebpf4jnsgd1na2vs0mg"},{"bike_id":"ac7100a7-8c57-488c-ae1d-34335b0df3af","system_id":"levelo_inurba_marseille","lat":43.29446,"lon":5.39759,"is_reserved":false,"is_disabled":false,"rental_uris":{"android":"levelo://app?vid=ac7100a7-8c57-488c-ae1d-34335b0df3af","ios":"levelo://app?vid=ac7100a7-8c57-488c-ae1d-34335b0df3af"},"vehicle_type_id":"4","last_reported":1734520063,"current_range_meters":38800,"station_id":"ce4bh3h2rcd13ifvqdo0","pricing_plan_id":"cebpf4jnsgd1na2vs0mg"},{"bike_id":"53db7375-2f06-44e6-bbb5-0a1994401fec","system_id":"levelo_inurba_marseille","lat":43.2938,"lon":5.37859,"is_reserved":false,"is_disabled":false,"rental_uris":{"android":"levelo://app?vid=53db7375-2f06-44e6-bbb5-0a1994401fec","ios":"levelo://app?vid=53db7375-2f06-44e6-bbb5-0a1994401fec"},"vehicle_type_id":"4","last_reported":1734520063,"current_range_meters":38400,"station_id":"ce4bgjh2rcd13ifvqbf0","pricing_plan_id":"cebpf4jnsgd1na2vs0mg"},{"bike_id":"32e22305-47e8-4ac5-910b-5c232a4effa8","system_id":"levelo_inurba_marseille","lat":43.29261,"lon":5.38445,"is_reserved":false,"is_disabled":false,"rental_uris":{"android":"levelo://app?vid=32e22305-47e8-4ac5-910b-5c232a4effa8","ios":"levelo://app?vid=32e22305-47e8-4ac5-910b-5c232a4effa8"},"vehicle_type_id":"4","last_reported":1734520063,"current_range_meters":20800,"station_id":"ce4bh692rcd13ifvqea0","pricing_plan_id":"cebpf4jnsgd1na2vs0mg"},{"bike_id":"b1b1f756-c1a0-4e66-8530-9c85602c1813","system_id":"levelo_inurba_marseille","lat":43.3237,"lon":5.36777,"is_reserved":false,"is_disabled":false,"rental_uris":{"android":"levelo://app?vid=b1b1f756-c1a0-4e66-8530-9c85602c1813","ios":"levelo://app?vid=b1b1f756-c1a0-4e66-8530-9c85602c1813"},"vehicle_type_id":"4","last_reported":1734520063,"current_range_meters":18800,"station_id":"ce4bhsh2rcd13ifvqi2g","pricing_plan_id":"cebpf4jnsgd1na2vs0mg"},{"bike_id":"64ff5b0b-103b-402e-8007-73ab97fd567c","system_id":"levelo_inurba_marseille","lat":43.28426,"lon":5.34988,"is_reserved":false,"is_disabled":false,"rental_uris":{"android":"levelo://app?vid=64ff5b0b-103b-402e-8007-73ab97fd567c","ios":"levelo://app?vid=64ff5b0b-103b-402e-8007-73ab97fd567c"},"vehicle_type_id":"4","last_reported":1734520063,"current_range_meters":28000,"station_id":"ce4bhbh2rcd13ifvqepg","pricing_plan_id":"cebpf4jnsgd1na2vs0mg"},{"bike_id":"5c9d787a-ed08-4f6d-aae6-50e448cf550d","system_id":"levelo_inurba_marseille","lat":43.26022,"lon":5.37552,"is_reserved":false,"is_disabled":false,"rental_uris":{"android":"levelo://app?vid=5c9d787a-ed08-4f6d-aae6-50e448cf550d","ios":"levelo://app?vid=5c9d787a-ed08-4f6d-aae6-50e448cf550d"},"vehicle_type_id":"4","last_reported":1734520063,"current_range_meters":31200,"station_id":"ce4bhgh2rcd13ifvqfa0","pricing_plan_id":"cebpf4jnsgd1na2vs0mg"},{"bike_id":"2cbfaab5-9f4a-4072-b700-a09d5c3af5e0","system_id":"levelo_inurba_marseille","lat":43.29525,"lon":5.37507,"is_reserved":false,"is_disabled":false,"rental_uris":{"android":"levelo://app?vid=2cbfaab5-9f4a-4072-b700-a09d5c3af5e0","ios":"levelo://app?vid=2cbfaab5-9f4a-4072-b700-a09d5c3af5e0"},"vehicle_type_id":"4","last_reported":1734520063,"current_range_meters":18800,"station_id":"ce4bgkp2rcd13ifvqbmg","pricing_plan_id":"cebpf4jnsgd1na2vs0mg"},{"bike_id":"139fd58a-8939-4981-993f-b4c13ab8cd1b","system_id":"levelo_inurba_marseille","lat":43.27989,"lon":5.41661,"is_reserved":false,"is_disabled":false,"rental_uris":{"android":"levelo://app?vid=139fd58a-8939-4981-993f-b4c13ab8cd1b","ios":"levelo://app?vid=139fd58a-8939-4981-993f-b4c13ab8cd1b"},"vehicle_type_id":"4","last_reported":1734520063,"current_range_meters":26800,"station_id":"ce4bho12rcd13ifvqh1g","pricing_plan_id":"cebpf4jnsgd1na2vs0mg"},{"bike_id":"79af211e-890e-4abf-b6cb-1043ab515a8c","system_id":"levelo_inurba_marseille","lat":43.28492,"lon":5.38556,"is_reserved":false,"is_disabled":false,"rental_uris":{"android":"levelo://app?vid=79af211e-890e-4abf-b6cb-1043ab515a8c","ios":"levelo://app?vid=79af211e-890e-4abf-b6cb-1043ab515a8c"},"vehicle_type_id":"4","last_reported":1734520063,"current_range_meters":20800,"station_id":"ce4bh8p2rcd13ifvqeb0","pricing_plan_id":"cebpf4jnsgd1na2vs0mg"},{"bike_id":"58be73d0-d5d6-49d5-a5d7-8c143188158e","system_id":"levelo_inurba_marseille","lat":43.29859,"lon":5.36284,"is_reserved":false,"is_disabled":false,"rental_uris":{"android":"levelo://app?vid=58be73d0-d5d6-49d5-a5d7-8c143188158e","ios":"levelo://app?vid=58be73d0-d5d6-49d5-a5d7-8c143188158e"},"vehicle_type_id":"4","last_reported":1734520063,"current_range_meters":33600,"station_id":"ce4bgpp2rcd13ifvqc3g","pricing_plan_id":"cebpf4jnsgd1na2vs0mg"},{"bike_id":"9c4670ff-16f8-431b-a765-a851341fad40","system_id":"levelo_inurba_marseille","lat":43.27324,"lon":5.39123,"is_reserved":false,"is_disabled":false,"rental_uris":{"android":"levelo://app?vid=9c4670ff-16f8-431b-a765-a851341fad40","ios":"levelo://app?vid=9c4670ff-16f8-431b-a765-a851341fad40"},"vehicle_type_id":"4","last_reported":1734520063,"current_range_meters":14400,"station_id":"ce4bhgp2rcd13ifvqfe0","pricing_plan_id":"cebpf4jnsgd1na2vs0mg"},{"bike_id":"a2104b26-4a01-4dc6-b355-fbab2d119e02","system_id":"levelo_inurba_marseille","lat":43.32479,"lon":5.3657,"is_reserved":false,"is_disabled":false,"rental_uris":{"android":"levelo://app?vid=a2104b26-4a01-4dc6-b355-fbab2d119e02","ios":"levelo://app?vid=a2104b26-4a01-4dc6-b355-fbab2d119e02"},"vehicle_type_id":"4","last_reported":1734520063,"current_range_meters":36000,"station_id":"ce4bhs12rcd13ifvqhvg","pricing_plan_id":"cebpf4jnsgd1na2vs0mg"},{"bike_id":"bc3432f2-77a4-4d0c-9d48-af95742f3e61","system_id":"levelo_inurba_marseille","lat":43.25939,"lon":5.40896,"is_reserved":false,"is_disabled":true,"rental_uris":{"android":"levelo://app?vid=bc3432f2-77a4-4d0c-9d48-af95742f3e61","ios":"levelo://app?vid=bc3432f2-77a4-4d0c-9d48-af95742f3e61"},"vehicle_type_id":"4","last_reported":1734520063,"current_range_meters":10800,"station_id":"ce4bhm92rcd13ifvqglg","pricing_plan_id":"cebpf4jnsgd1na2vs0mg"},{"bike_id":"6f34c84a-5b9b-4b15-a658-a97da4b06271","system_id":"levelo_inurba_marseille","lat":43.33037,"lon":5.39002,"is_reserved":false,"is_disabled":false,"rental_uris":{"android":"levelo://app?vid=6f34c84a-5b9b-4b15-a658-a97da4b06271","ios":"levelo://app?vid=6f34c84a-5b9b-4b15-a658-a97da4b06271"},"vehicle_type_id":"4","last_reported":1734520063,"current_range_meters":37600,"station_id":"ce4bhr92rcd13ifvqhrg","pricing_plan_id":"cebpf4jnsgd1na2vs0mg"},{"bike_id":"cd217c80-e1ff-4fc6-9357-e2a21594ddc8","system_id":"levelo_inurba_marseille","lat":43.26187,"lon":5.37453,"is_reserved":false,"is_disabled":false,"rental_uris":{"android":"levelo://app?vid=cd217c80-e1ff-4fc6-9357-e2a21594ddc8","ios":"levelo://app?vid=cd217c80-e1ff-4fc6-9357-e2a21594ddc8"},"vehicle_type_id":"4","last_reported":1734520063,"current_range_meters":34800,"station_id":"ce4bhgp2rcd13ifvqfc0","pricing_plan_id":"cebpf4jnsgd1na2vs0mg"},{"bike_id":"124e6c05-4926-4207-84f5-da69a7334d60","system_id":"levelo_inurba_marseille","lat":43.29043,"lon":5.3814,"is_reserved":false,"is_disabled":true,"rental_uris":{"android":"levelo://app?vid=124e6c05-4926-4207-84f5-da69a7334d60","ios":"levelo://app?vid=124e6c05-4926-4207-84f5-da69a7334d60"},"vehicle_type_id":"4","last_reported":1734520063,"current_range_meters":34800,"station_id":"ce4bh4p2rcd13ifvqe1g","pricing_plan_id":"cebpf4jnsgd1na2vs0mg"},{"bike_id":"74127fbc-0180-496e-8345-c5359e5271d4","system_id":"levelo_inurba_marseille","lat":43.29525,"lon":5.39025,"is_reserved":false,"is_disabled":false,"rental_uris":{"android":"levelo://app?vid=74127fbc-0180-496e-8345-c5359e5271d4","ios":"levelo://app?vid=74127fbc-0180-496e-8345-c5359e5271d4"},"vehicle_type_id":"4","last_reported":1734520063,"current_range_meters":16800,"station_id":"ce4bh3p2rcd13ifvqdp0","pricing_plan_id":"cebpf4jnsgd1na2vs0mg"},{"bike_id":"579f985a-387d-4ca6-bff3-e05ed8391716","system_id":"levelo_inurba_marseille","lat":43.29419,"lon":5.3862,"is_reserved":false,"is_disabled":false,"rental_uris":{"android":"levelo://app?vid=579f985a-387d-4ca6-bff3-e05ed8391716","ios":"levelo://app?vid=579f985a-387d-4ca6-bff3-e05ed8391716"},"vehicle_type_id":"4","last_reported":1734520063,"current_range_meters":25200,"station_id":"ce4bh2h2rcd13ifvqdh0","pricing_plan_id":"cebpf4jnsgd1na2vs0mg"},{"bike_id":"aa268aa8-d8b4-4a53-aaab-942bc50b4944","system_id":"levelo_inurba_marseille","lat":43.25829,"lon":5.39437,"is_reserved":false,"is_disabled":false,"rental_uris":{"android":"levelo://app?vid=aa268aa8-d8b4-4a53-aaab-942bc50b4944","ios":"levelo://app?vid=aa268aa8-d8b4-4a53-aaab-942bc50b4944"},"vehicle_type_id":"4","last_reported":1734520063,"current_range_meters":27200,"station_id":"ce4bhip2rcd13ifvqft0","pricing_plan_id":"cebpf4jnsgd1na2vs0mg"},{"bike_id":"12825fc7-c4d4-4652-92c7-b1bbcf86503b","system_id":"levelo_inurba_marseille","lat":43.30536,"lon":5.36544,"is_reserved":false,"is_disabled":false,"rental_uris":{"android":"levelo://app?vid=12825fc7-c4d4-4652-92c7-b1bbcf86503b","ios":"levelo://app?vid=12825fc7-c4d4-4652-92c7-b1bbcf86503b"},"vehicle_type_id":"4","last_reported":1734520063,"current_range_meters":38800,"station_id":"ce4bgs12rcd13ifvqcag","pricing_plan_id":"cebpf4jnsgd1na2vs0mg"},{"bike_id":"30a33bbe-73ac-42f6-974e-9be769a5fac6","system_id":"levelo_inurba_marseille","lat":43.24411,"lon":5.3701,"is_reserved":false,"is_disabled":false,"rental_uris":{"android":"levelo://app?vid=30a33bbe-73ac-42f6-974e-9be769a5fac6","ios":"levelo://app?vid=30a33bbe-73ac-42f6-974e-9be769a5fac6"},"vehicle_type_id":"4","last_reported":1734520063,"current_range_meters":38800,"station_id":"ce4bhhh2rcd13ifvqfk0","pricing_plan_id":"cebpf4jnsgd1na2vs0mg"},{"bike_id":"2491c714-f3f7-493b-9790-9992e16c8fb6","system_id":"levelo_inurba_marseille","lat":43.34142,"lon":5.40932,"is_reserved":false,"is_disabled":true,"rental_uris":{"android":"levelo://app?vid=2491c714-f3f7-493b-9790-9992e16c8fb6","ios":"levelo://app?vid=2491c714-f3f7-493b-9790-9992e16c8fb6"},"vehicle_type_id":"4","last_reported":1734520063,"current_range_meters":38800,"station_id":"ce4bhqh2rcd13ifvqhlg","pricing_plan_id":"cebpf4jnsgd1na2vs0mg"},{"bike_id":"03dcc4cf-7478-40f3-9bc7-5aceae97b56a","system_id":"levelo_inurba_marseille","lat":43.30139,"lon":5.37413,"is_reserved":false,"is_disabled":false,"rental_uris":{"android":"levelo://app?vid=03dcc4cf-7478-40f3-9bc7-5aceae97b56a","ios":"levelo://app?vid=03dcc4cf-7478-40f3-9bc7-5aceae97b56a"},"vehicle_type_id":"4","last_reported":1734520063,"current_range_meters":26800,"station_id":"ce4bgs92rcd13ifvqcc0","pricing_plan_id":"cebpf4jnsgd1na2vs0mg"},{"bike_id":"ea1ee0a0-f240-4d25-84d9-e6fb6fc7a18c","system_id":"levelo_inurba_marseille","lat":43.33768,"lon":5.42095,"is_reserved":false,"is_disabled":true,"rental_uris":{"android":"levelo://app?vid=ea1ee0a0-f240-4d25-84d9-e6fb6fc7a18c","ios":"levelo://app?vid=ea1ee0a0-f240-4d25-84d9-e6fb6fc7a18c"},"vehicle_type_id":"4","last_reported":1734520063,"current_range_meters":0,"station_id":"","pricing_plan_id":"cebpf4jnsgd1na2vs0mg"},{"bike_id":"7cd8c4d3-a5a2-4c73-9280-69c69f0e25cb","system_id":"levelo_inurba_marseille","lat":43.31112,"lon":5.37768,"is_reserved":false,"is_disabled":false,"rental_uris":{"android":"levelo://app?vid=7cd8c4d3-a5a2-4c73-9280-69c69f0e25cb","ios":"levelo://app?vid=7cd8c4d3-a5a2-4c73-9280-69c69f0e25cb"},"vehicle_type_id":"4","last_reported":1734520063,"current_range_meters":14000,"station_id":"ce4bgt92rcd13ifvqcg0","pricing_plan_id":"cebpf4jnsgd1na2vs0mg"},{"bike_id":"8347cb1c-b511-4e70-9d82-fb1d9eb6e0c0","system_id":"levelo_inurba_marseille","lat":43.29743,"lon":5.377,"is_reserved":false,"is_disabled":false,"rental_uris":{"android":"levelo://app?vid=8347cb1c-b511-4e70-9d82-fb1d9eb6e0c0","ios":"levelo://app?vid=8347cb1c-b511-4e70-9d82-fb1d9eb6e0c0"},"vehicle_type_id":"4","last_reported":1734520063,"current_range_meters":38800,"station_id":"ce4bgkh2rcd13ifvqbl0","pricing_plan_id":"cebpf4jnsgd1na2vs0mg"},{"bike_id":"c8f79b9f-b6a3-42c1-83aa-cf20faccc3b4","system_id":"levelo_inurba_marseille","lat":43.2668,"lon":5.38278,"is_reserved":false,"is_disabled":false,"rental_uris":{"android":"levelo://app?vid=c8f79b9f-b6a3-42c1-83aa-cf20faccc3b4","ios":"levelo://app?vid=c8f79b9f-b6a3-42c1-83aa-cf20faccc3b4"},"vehicle_type_id":"4","last_reported":1734520063,"current_range_meters":38800,"station_id":"ce4bhg92rcd13ifvqf90","pricing_plan_id":"cebpf4jnsgd1na2vs0mg"},{"bike_id":"f500c588-6feb-4b09-aaa0-56bd71506c9c","system_id":"levelo_inurba_marseille","lat":43.30131,"lon":5.37436,"is_reserved":false,"is_disabled":false,"rental_uris":{"android":"levelo://app?vid=f500c588-6feb-4b09-aaa0-56bd71506c9c","ios":"levelo://app?vid=f500c588-6feb-4b09-aaa0-56bd71506c9c"},"vehicle_type_id":"4","last_reported":1734520063,"current_range_meters":39200,"station_id":"ce4bgs92rcd13ifvqcc0","pricing_plan_id":"cebpf4jnsgd1na2vs0mg"},{"bike_id":"0067aac2-4c89-4490-b77e-229d1f2a3b3c","system_id":"levelo_inurba_marseille","lat":43.29301,"lon":5.37451,"is_reserved":false,"is_disabled":false,"rental_uris":{"android":"levelo://app?vid=0067aac2-4c89-4490-b77e-229d1f2a3b3c","ios":"levelo://app?vid=0067aac2-4c89-4490-b77e-229d1f2a3b3c"},"vehicle_type_id":"4","last_reported":1734520063,"current_range_meters":38800,"station_id":"ce4bgi12rcd13ifvqb70","pricing_plan_id":"cebpf4jnsgd1na2vs0mg"},{"bike_id":"9b03d121-6878-410d-a3bd-553e876211da","system_id":"levelo_inurba_marseille","lat":43.2707,"lon":5.42282,"is_reserved":false,"is_disabled":false,"rental_uris":{"android":"levelo://app?vid=9b03d121-6878-410d-a3bd-553e876211da","ios":"levelo://app?vid=9b03d121-6878-410d-a3bd-553e876211da"},"vehicle_type_id":"4","last_reported":1734520063,"current_range_meters":12800,"station_id":"ce4bhk92rcd13ifvqgb0","pricing_plan_id":"cebpf4jnsgd1na2vs0mg"},{"bike_id":"5bbc1930-6923-47e0-b51b-53523cf5f85b","system_id":"levelo_inurba_marseille","lat":43.28475,"lon":5.38419,"is_reserved":false,"is_disabled":false,"rental_uris":{"android":"levelo://app?vid=5bbc1930-6923-47e0-b51b-53523cf5f85b","ios":"levelo://app?vid=5bbc1930-6923-47e0-b51b-53523cf5f85b"},"vehicle_type_id":"4","last_reported":1734520063,"current_range_meters":16800,"station_id":"ce4bh512rcd13ifvqe3g","pricing_plan_id":"cebpf4jnsgd1na2vs0mg"},{"bike_id":"d5bb5233-5c13-4106-a5af-af43f6e0c448","system_id":"levelo_inurba_marseille","lat":43.31407,"lon":5.38529,"is_reserved":false,"is_disabled":false,"rental_uris":{"android":"levelo://app?vid=d5bb5233-5c13-4106-a5af-af43f6e0c448","ios":"levelo://app?vid=d5bb5233-5c13-4106-a5af-af43f6e0c448"},"vehicle_type_id":"4","last_reported":1734520063,"current_range_meters":36800,"station_id":"","pricing_plan_id":"cebpf4jnsgd1na2vs0mg"},{"bike_id":"a61c6a87-3134-4e22-a427-915b18aa9b8f","system_id":"levelo_inurba_marseille","lat":43.30549,"lon":5.36538,"is_reserved":false,"is_disabled":false,"rental_uris":{"android":"levelo://app?vid=a61c6a87-3134-4e22-a427-915b18aa9b8f","ios":"levelo://app?vid=a61c6a87-3134-4e22-a427-915b18aa9b8f"},"vehicle_type_id":"4","last_reported":1734520063,"current_range_meters":2800,"station_id":"ce4bgs12rcd13ifvqcag","pricing_plan_id":"cebpf4jnsgd1na2vs0mg"},{"bike_id":"f94894c9-3a78-4e1e-b53a-0072f5a611b2","system_id":"levelo_inurba_marseille","lat":43.27841,"lon":5.39204,"is_reserved":false,"is_disabled":false,"rental_uris":{"android":"levelo://app?vid=f94894c9-3a78-4e1e-b53a-0072f5a611b2","ios":"levelo://app?vid=f94894c9-3a78-4e1e-b53a-0072f5a611b2"},"vehicle_type_id":"4","last_reported":1734520063,"current_range_meters":28000,"station_id":"ce4bhjp2rcd13ifvqga0","pricing_plan_id":"cebpf4jnsgd1na2vs0mg"},{"bike_id":"18948cc8-8067-40b5-adeb-758aaf260f06","system_id":"levelo_inurba_marseille","lat":43.30189,"lon":5.36625,"is_reserved":false,"is_disabled":false,"rental_uris":{"android":"levelo://app?vid=18948cc8-8067-40b5-adeb-758aaf260f06","ios":"levelo://app?vid=18948cc8-8067-40b5-adeb-758aaf260f06"},"vehicle_type_id":"4","last_reported":1734520063,"current_range_meters":39200,"station_id":"ce4bgrh2rcd13ifvqc8g","pricing_plan_id":"cebpf4jnsgd1na2vs0mg"},{"bike_id":"9978dc2e-7edf-4343-bb15-68ff59221b15","system_id":"levelo_inurba_marseille","lat":43.24181,"lon":5.39731,"is_reserved":false,"is_disabled":false,"rental_uris":{"android":"levelo://app?vid=9978dc2e-7edf-4343-bb15-68ff59221b15","ios":"levelo://app?vid=9978dc2e-7edf-4343-bb15-68ff59221b15"},"vehicle_type_id":"4","last_reported":1734520063,"current_range_meters":12400,"station_id":"ce4bhn12rcd13ifvqgpg","pricing_plan_id":"cebpf4jnsgd1na2vs0mg"},{"bike_id":"4cd8f22a-82ae-4985-b778-378a4fb404d0","system_id":"levelo_inurba_marseille","lat":43.29851,"lon":5.36284,"is_reserved":false,"is_disabled":false,"rental_uris":{"android":"levelo://app?vid=4cd8f22a-82ae-4985-b778-378a4fb404d0","ios":"levelo://app?vid=4cd8f22a-82ae-4985-b778-378a4fb404d0"},"vehicle_type_id":"4","last_reported":1734520063,"current_range_meters":10000,"station_id":"ce4bgpp2rcd13ifvqc3g","pricing_plan_id":"cebpf4jnsgd1na2vs0mg"},{"bike_id":"d846a8ff-464c-4527-a01b-eb29ca444cba","system_id":"levelo_inurba_marseille","lat":43.2974,"lon":5.37729,"is_reserved":false,"is_disabled":false,"rental_uris":{"android":"levelo://app?vid=d846a8ff-464c-4527-a01b-eb29ca444cba","ios":"levelo://app?vid=d846a8ff-464c-4527-a01b-eb29ca444cba"},"vehicle_type_id":"4","last_reported":1734520063,"current_range_meters":38000,"station_id":"","pricing_plan_id":"cebpf4jnsgd1na2vs0mg"},{"bike_id":"0fd81fbc-0a51-4473-a5be-6e7863a5f8be","system_id":"levelo_inurba_marseille","lat":43.325397,"lon":5.414393,"is_reserved":false,"is_disabled":false,"rental_uris":{"android":"levelo://app?vid=0fd81fbc-0a51-4473-a5be-6e7863a5f8be","ios":"levelo://app?vid=0fd81fbc-0a51-4473-a5be-6e7863a5f8be"},"vehicle_type_id":"4","last_reported":1734520063,"current_range_meters":15200,"station_id":"ce4bhq12rcd13ifvqhhg","pricing_plan_id":"cebpf4jnsgd1na2vs0mg"},{"bike_id":"86c83bcb-399d-43cb-a4b5-54e53dfd94eb","system_id":"levelo_inurba_marseille","lat":43.30527,"lon":5.36692,"is_reserved":false,"is_disabled":false,"rental_uris":{"android":"levelo://app?vid=86c83bcb-399d-43cb-a4b5-54e53dfd94eb","ios":"levelo://app?vid=86c83bcb-399d-43cb-a4b5-54e53dfd94eb"},"vehicle_type_id":"4","last_reported":1734520063,"current_range_meters":38800,"station_id":"ce4bgrp2rcd13ifvqc9g","pricing_plan_id":"cebpf4jnsgd1na2vs0mg"},{"bike_id":"88951085-31ef-4c56-8915-fb1111927bb8","system_id":"levelo_inurba_marseille","lat":43.29613,"lon":5.37712,"is_reserved":false,"is_disabled":false,"rental_uris":{"android":"levelo://app?vid=88951085-31ef-4c56-8915-fb1111927bb8","ios":"levelo://app?vid=88951085-31ef-4c56-8915-fb1111927bb8"},"vehicle_type_id":"4","last_reported":1734520063,"current_range_meters":20400,"station_id":"ce4bgi92rcd13ifvqb90","pricing_plan_id":"cebpf4jnsgd1na2vs0mg"},{"bike_id":"ca51f900-76dc-4b0c-8bf1-47e691f349b0","system_id":"levelo_inurba_marseille","lat":43.29523,"lon":5.37507,"is_reserved":false,"is_disabled":false,"rental_uris":{"android":"levelo://app?vid=ca51f900-76dc-4b0c-8bf1-47e691f349b0","ios":"levelo://app?vid=ca51f900-76dc-4b0c-8bf1-47e691f349b0"},"vehicle_type_id":"4","last_reported":1734520063,"current_range_meters":36800,"station_id":"ce4bgkp2rcd13ifvqbmg","pricing_plan_id":"cebpf4jnsgd1na2vs0mg"},{"bike_id":"77b045ec-31af-4db4-b5a1-524f94c3c261","system_id":"levelo_inurba_marseille","lat":43.293,"lon":5.37437,"is_reserved":false,"is_disabled":false,"rental_uris":{"android":"levelo://app?vid=77b045ec-31af-4db4-b5a1-524f94c3c261","ios":"levelo://app?vid=77b045ec-31af-4db4-b5a1-524f94c3c261"},"vehicle_type_id":"4","last_reported":1734520063,"current_range_meters":34800,"station_id":"ce4bgi12rcd13ifvqb70","pricing_plan_id":"cebpf4jnsgd1na2vs0mg"},{"bike_id":"a8fb2785-0e31-4a48-9080-5c2edd059a08","system_id":"levelo_inurba_marseille","lat":43.29567,"lon":5.37548,"is_reserved":false,"is_disabled":false,"rental_uris":{"android":"levelo://app?vid=a8fb2785-0e31-4a48-9080-5c2edd059a08","ios":"levelo://app?vid=a8fb2785-0e31-4a48-9080-5c2edd059a08"},"vehicle_type_id":"4","last_reported":1734520063,"current_range_meters":28400,"station_id":"ce4bgh92rcd13ifvqb50","pricing_plan_id":"cebpf4jnsgd1na2vs0mg"},{"bike_id":"17ac6964-4458-4245-838c-f8ac185a5ca7","system_id":"levelo_inurba_marseille","lat":43.27479,"lon":5.4248,"is_reserved":false,"is_disabled":false,"rental_uris":{"android":"levelo://app?vid=17ac6964-4458-4245-838c-f8ac185a5ca7","ios":"levelo://app?vid=17ac6964-4458-4245-838c-f8ac185a5ca7"},"vehicle_type_id":"4","last_reported":1734520063,"current_range_meters":30400,"station_id":"ce4bhn92rcd13ifvqgrg","pricing_plan_id":"cebpf4jnsgd1na2vs0mg"},{"bike_id":"13b89d28-be59-4841-b3b3-1a97c3f8e494","system_id":"levelo_inurba_marseille","lat":43.23147,"lon":5.43725,"is_reserved":false,"is_disabled":false,"rental_uris":{"android":"levelo://app?vid=13b89d28-be59-4841-b3b3-1a97c3f8e494","ios":"levelo://app?vid=13b89d28-be59-4841-b3b3-1a97c3f8e494"},"vehicle_type_id":"4","last_reported":1734520063,"current_range_meters":38000,"station_id":"ce4bhmp2rcd13ifvqgog","pricing_plan_id":"cebpf4jnsgd1na2vs0mg"},{"bike_id":"72492ff3-d3e5-4b81-822b-1d3357339451","system_id":"levelo_inurba_marseille","lat":43.29277,"lon":5.40128,"is_reserved":false,"is_disabled":true,"rental_uris":{"android":"levelo://app?vid=72492ff3-d3e5-4b81-822b-1d3357339451","ios":"levelo://app?vid=72492ff3-d3e5-4b81-822b-1d3357339451"},"vehicle_type_id":"4","last_reported":1734520063,"current_range_meters":38800,"station_id":"ce4bh312rcd13ifvqdk0","pricing_plan_id":"cebpf4jnsgd1na2vs0mg"},{"bike_id":"8799fefd-5a38-4a10-ae77-5a5729e60f4a","system_id":"levelo_inurba_marseille","lat":43.24408,"lon":5.37036,"is_reserved":false,"is_disabled":false,"rental_uris":{"android":"levelo://app?vid=8799fefd-5a38-4a10-ae77-5a5729e60f4a","ios":"levelo://app?vid=8799fefd-5a38-4a10-ae77-5a5729e60f4a"},"vehicle_type_id":"4","last_reported":1734520063,"current_range_meters":5600,"station_id":"ce4bhhh2rcd13ifvqfk0","pricing_plan_id":"cebpf4jnsgd1na2vs0mg"},{"bike_id":"4e903476-26ee-4c32-806f-26a87ba3a549","system_id":"levelo_inurba_marseille","lat":43.29415,"lon":5.38631,"is_reserved":false,"is_disabled":true,"rental_uris":{"android":"levelo://app?vid=4e903476-26ee-4c32-806f-26a87ba3a549","ios":"levelo://app?vid=4e903476-26ee-4c32-806f-26a87ba3a549"},"vehicle_type_id":"4","last_reported":1734520063,"current_range_meters":0,"station_id":"ce4bh2h2rcd13ifvqdh0","pricing_plan_id":"cebpf4jnsgd1na2vs0mg"},{"bike_id":"c8eea4da-6b42-4c43-bb00-f8d343883838","system_id":"levelo_inurba_marseille","lat":43.28345,"lon":5.381045,"is_reserved":false,"is_disabled":false,"rental_uris":{"android":"levelo://app?vid=c8eea4da-6b42-4c43-bb00-f8d343883838","ios":"levelo://app?vid=c8eea4da-6b42-4c43-bb00-f8d343883838"},"vehicle_type_id":"4","last_reported":1734520063,"current_range_meters":35200,"station_id":"ce4bh412rcd13ifvqdr0","pricing_plan_id":"cebpf4jnsgd1na2vs0mg"},{"bike_id":"4fa83ad6-6c50-4331-a083-3ef5342b8b89","system_id":"levelo_inurba_marseille","lat":43.24804,"lon":5.37457,"is_reserved":false,"is_disabled":false,"rental_uris":{"android":"levelo://app?vid=4fa83ad6-6c50-4331-a083-3ef5342b8b89","ios":"levelo://app?vid=4fa83ad6-6c50-4331-a083-3ef5342b8b89"},"vehicle_type_id":"4","last_reported":1734520063,"current_range_meters":16000,"station_id":"ce4bhgh2rcd13ifvqfb0","pricing_plan_id":"cebpf4jnsgd1na2vs0mg"},{"bike_id":"fbe18849-3e54-4f6f-8e9d-991d33e72a0f","system_id":"levelo_inurba_marseille","lat":43.29618,"lon":5.37727,"is_reserved":false,"is_disabled":false,"rental_uris":{"android":"levelo://app?vid=fbe18849-3e54-4f6f-8e9d-991d33e72a0f","ios":"levelo://app?vid=fbe18849-3e54-4f6f-8e9d-991d33e72a0f"},"vehicle_type_id":"4","last_reported":1734520063,"current_range_meters":39200,"station_id":"ce4bgi92rcd13ifvqb90","pricing_plan_id":"cebpf4jnsgd1na2vs0mg"},{"bike_id":"a47a812b-8479-4dbf-a984-c261870d3f1a","system_id":"levelo_inurba_marseille","lat":43.32451,"lon":5.36634,"is_reserved":false,"is_disabled":false,"rental_uris":{"android":"levelo://app?vid=a47a812b-8479-4dbf-a984-c261870d3f1a","ios":"levelo://app?vid=a47a812b-8479-4dbf-a984-c261870d3f1a"},"vehicle_type_id":"4","last_reported":1734520063,"current_range_meters":39200,"station_id":"ce4bhs12rcd13ifvqhvg","pricing_plan_id":"cebpf4jnsgd1na2vs0mg"},{"bike_id":"189ada6b-87c7-48dc-bc40-634cf6321beb","system_id":"levelo_inurba_marseille","lat":43.30604,"lon":5.37227,"is_reserved":false,"is_disabled":false,"rental_uris":{"android":"levelo://app?vid=189ada6b-87c7-48dc-bc40-634cf6321beb","ios":"levelo://app?vid=189ada6b-87c7-48dc-bc40-634cf6321beb"},"vehicle_type_id":"4","last_reported":1734520063,"current_range_meters":37600,"station_id":"ce4bgqh2rcd13ifvqc4g","pricing_plan_id":"cebpf4jnsgd1na2vs0mg"},{"bike_id":"62e92d56-3f38-4e06-a970-c856d53d12e5","system_id":"levelo_inurba_marseille","lat":43.3204,"lon":5.41566,"is_reserved":false,"is_disabled":false,"rental_uris":{"android":"levelo://app?vid=62e92d56-3f38-4e06-a970-c856d53d12e5","ios":"levelo://app?vid=62e92d56-3f38-4e06-a970-c856d53d12e5"},"vehicle_type_id":"4","last_reported":1734520063,"current_range_meters":37600,"station_id":"ce4bhq92rcd13ifvqhkg","pricing_plan_id":"cebpf4jnsgd1na2vs0mg"},{"bike_id":"6a353b15-de45-410c-912c-5f70003d6e30","system_id":"levelo_inurba_marseille","lat":43.26937,"lon":5.38915,"is_reserved":false,"is_disabled":false,"rental_uris":{"android":"levelo://app?vid=6a353b15-de45-410c-912c-5f70003d6e30","ios":"levelo://app?vid=6a353b15-de45-410c-912c-5f70003d6e30"},"vehicle_type_id":"4","last_reported":1734520063,"current_range_meters":35600,"station_id":"ce4bhhh2rcd13ifvqfl0","pricing_plan_id":"cebpf4jnsgd1na2vs0mg"},{"bike_id":"782bcbf2-b7de-4b04-bebc-aaa0329dd90c","system_id":"levelo_inurba_marseille","lat":43.23196,"lon":5.35549,"is_reserved":false,"is_disabled":false,"rental_uris":{"android":"levelo://app?vid=782bcbf2-b7de-4b04-bebc-aaa0329dd90c","ios":"levelo://app?vid=782bcbf2-b7de-4b04-bebc-aaa0329dd90c"},"vehicle_type_id":"4","last_reported":1734520063,"current_range_meters":38800,"station_id":"ce4bhu92rcd13ifvqi70","pricing_plan_id":"cebpf4jnsgd1na2vs0mg"},{"bike_id":"6ea63923-76d0-4fd0-916d-0bbba13915a0","system_id":"levelo_inurba_marseille","lat":43.27175,"lon":5.40998,"is_reserved":false,"is_disabled":false,"rental_uris":{"android":"levelo://app?vid=6ea63923-76d0-4fd0-916d-0bbba13915a0","ios":"levelo://app?vid=6ea63923-76d0-4fd0-916d-0bbba13915a0"},"vehicle_type_id":"4","last_reported":1734520063,"current_range_meters":19200,"station_id":"ce4bhl12rcd13ifvqgf0","pricing_plan_id":"cebpf4jnsgd1na2vs0mg"},{"bike_id":"289faeb9-a11a-47c1-978b-f5d918e76896","system_id":"levelo_inurba_marseille","lat":43.3374,"lon":5.37471,"is_reserved":false,"is_disabled":false,"rental_uris":{"android":"levelo://app?vid=289faeb9-a11a-47c1-978b-f5d918e76896","ios":"levelo://app?vid=289faeb9-a11a-47c1-978b-f5d918e76896"},"vehicle_type_id":"4","last_reported":1734520063,"current_range_meters":28400,"station_id":"","pricing_plan_id":"cebpf4jnsgd1na2vs0mg"},{"bike_id":"2d96766a-3106-48a8-a3ef-d83b799effad","system_id":"levelo_inurba_marseille","lat":43.29303,"lon":5.37446,"is_reserved":false,"is_disabled":false,"rental_uris":{"android":"levelo://app?vid=2d96766a-3106-48a8-a3ef-d83b799effad","ios":"levelo://app?vid=2d96766a-3106-48a8-a3ef-d83b799effad"},"vehicle_type_id":"4","last_reported":1734520063,"current_range_meters":10000,"station_id":"ce4bgi12rcd13ifvqb70","pricing_plan_id":"cebpf4jnsgd1na2vs0mg"},{"bike_id":"4590026f-4d8e-4294-8f2a-8d70931cbcb5","system_id":"levelo_inurba_marseille","lat":43.28482,"lon":5.38429,"is_reserved":false,"is_disabled":true,"rental_uris":{"android":"levelo://app?vid=4590026f-4d8e-4294-8f2a-8d70931cbcb5","ios":"levelo://app?vid=4590026f-4d8e-4294-8f2a-8d70931cbcb5"},"vehicle_type_id":"4","last_reported":1734520063,"current_range_meters":32400,"station_id":"ce4bh512rcd13ifvqe3g","pricing_plan_id":"cebpf4jnsgd1na2vs0mg"},{"bike_id":"96ff88dc-8cf7-4b0f-a345-fa00220da932","system_id":"levelo_inurba_marseille","lat":43.27402,"lon":5.42381,"is_reserved":false,"is_disabled":true,"rental_uris":{"android":"levelo://app?vid=96ff88dc-8cf7-4b0f-a345-fa00220da932","ios":"levelo://app?vid=96ff88dc-8cf7-4b0f-a345-fa00220da932"},"vehicle_type_id":"4","last_reported":1734520063,"current_range_meters":0,"station_id":"","pricing_plan_id":"cebpf4jnsgd1na2vs0mg"},{"bike_id":"218576bb-3957-48c4-a450-8d10902cba3f","system_id":"levelo_inurba_marseille","lat":43.26193,"lon":5.37469,"is_reserved":false,"is_disabled":false,"rental_uris":{"android":"levelo://app?vid=218576bb-3957-48c4-a450-8d10902cba3f","ios":"levelo://app?vid=218576bb-3957-48c4-a450-8d10902cba3f"},"vehicle_type_id":"4","last_reported":1734520063,"current_range_meters":37600,"station_id":"ce4bhgp2rcd13ifvqfc0","pricing_plan_id":"cebpf4jnsgd1na2vs0mg"},{"bike_id":"822408b5-93b6-4b7e-a2e4-a91cfb6d79ad","system_id":"levelo_inurba_marseille","lat":43.24185,"lon":5.39714,"is_reserved":false,"is_disabled":false,"rental_uris":{"android":"levelo://app?vid=822408b5-93b6-4b7e-a2e4-a91cfb6d79ad","ios":"levelo://app?vid=822408b5-93b6-4b7e-a2e4-a91cfb6d79ad"},"vehicle_type_id":"4","last_reported":1734520063,"current_range_meters":38800,"station_id":"ce4bhn12rcd13ifvqgpg","pricing_plan_id":"cebpf4jnsgd1na2vs0mg"},{"bike_id":"cd496150-2c56-4ff6-9436-d2e34f29e3b6","system_id":"levelo_inurba_marseille","lat":43.24801,"lon":5.37454,"is_reserved":false,"is_disabled":false,"rental_uris":{"android":"levelo://app?vid=cd496150-2c56-4ff6-9436-d2e34f29e3b6","ios":"levelo://app?vid=cd496150-2c56-4ff6-9436-d2e34f29e3b6"},"vehicle_type_id":"4","last_reported":1734520063,"current_range_meters":37600,"station_id":"ce4bhgh2rcd13ifvqfb0","pricing_plan_id":"cebpf4jnsgd1na2vs0mg"},{"bike_id":"35d9085c-0b78-4f08-baff-4620b4fa72cd","system_id":"levelo_inurba_marseille","lat":43.30546,"lon":5.36541,"is_reserved":false,"is_disabled":false,"rental_uris":{"android":"levelo://app?vid=35d9085c-0b78-4f08-baff-4620b4fa72cd","ios":"levelo://app?vid=35d9085c-0b78-4f08-baff-4620b4fa72cd"},"vehicle_type_id":"4","last_reported":1734520063,"current_range_meters":7200,"station_id":"ce4bgs12rcd13ifvqcag","pricing_plan_id":"cebpf4jnsgd1na2vs0mg"},{"bike_id":"47f7db02-ff86-46bf-b8dc-c30068ec1d78","system_id":"levelo_inurba_marseille","lat":43.30455,"lon":5.37907,"is_reserved":false,"is_disabled":false,"rental_uris":{"android":"levelo://app?vid=47f7db02-ff86-46bf-b8dc-c30068ec1d78","ios":"levelo://app?vid=47f7db02-ff86-46bf-b8dc-c30068ec1d78"},"vehicle_type_id":"4","last_reported":1734520063,"current_range_meters":27600,"station_id":"ce4bgup2rcd13ifvqcn0","pricing_plan_id":"cebpf4jnsgd1na2vs0mg"},{"bike_id":"ca9ceabb-4da9-4ab2-8aa8-751038806a66","system_id":"levelo_inurba_marseille","lat":43.29621,"lon":5.37725,"is_reserved":false,"is_disabled":false,"rental_uris":{"android":"levelo://app?vid=ca9ceabb-4da9-4ab2-8aa8-751038806a66","ios":"levelo://app?vid=ca9ceabb-4da9-4ab2-8aa8-751038806a66"},"vehicle_type_id":"4","last_reported":1734520063,"current_range_meters":32000,"station_id":"ce4bgi92rcd13ifvqb90","pricing_plan_id":"cebpf4jnsgd1na2vs0mg"},{"bike_id":"69e54944-8319-4b21-b65a-2776ebe008c8","system_id":"levelo_inurba_marseille","lat":43.24547,"lon":5.39526,"is_reserved":false,"is_disabled":false,"rental_uris":{"android":"levelo://app?vid=69e54944-8319-4b21-b65a-2776ebe008c8","ios":"levelo://app?vid=69e54944-8319-4b21-b65a-2776ebe008c8"},"vehicle_type_id":"4","last_reported":1734520063,"current_range_meters":16800,"station_id":"ce4bhlp2rcd13ifvqgjg","pricing_plan_id":"cebpf4jnsgd1na2vs0mg"},{"bike_id":"af03c98a-4381-4ea0-9194-33887b4bfa34","system_id":"levelo_inurba_marseille","lat":43.30149,"lon":5.38776,"is_reserved":false,"is_disabled":false,"rental_uris":{"android":"levelo://app?vid=af03c98a-4381-4ea0-9194-33887b4bfa34","ios":"levelo://app?vid=af03c98a-4381-4ea0-9194-33887b4bfa34"},"vehicle_type_id":"4","last_reported":1734520063,"current_range_meters":8800,"station_id":"ce4bhoh2rcd13ifvqh6g","pricing_plan_id":"cebpf4jnsgd1na2vs0mg"},{"bike_id":"1f088edd-e254-4389-aab0-8bb3edc2dc9e","system_id":"levelo_inurba_marseille","lat":43.324639,"lon":5.365641,"is_reserved":false,"is_disabled":false,"rental_uris":{"android":"levelo://app?vid=1f088edd-e254-4389-aab0-8bb3edc2dc9e","ios":"levelo://app?vid=1f088edd-e254-4389-aab0-8bb3edc2dc9e"},"vehicle_type_id":"4","last_reported":1734520063,"current_range_meters":39200,"station_id":"ce4bhs12rcd13ifvqhvg","pricing_plan_id":"cebpf4jnsgd1na2vs0mg"},{"bike_id":"7eba5650-919d-4742-a1ec-5a9b429580ae","system_id":"levelo_inurba_marseille","lat":43.28421,"lon":5.34982,"is_reserved":false,"is_disabled":false,"rental_uris":{"android":"levelo://app?vid=7eba5650-919d-4742-a1ec-5a9b429580ae","ios":"levelo://app?vid=7eba5650-919d-4742-a1ec-5a9b429580ae"},"vehicle_type_id":"4","last_reported":1734520063,"current_range_meters":28000,"station_id":"ce4bhbh2rcd13ifvqepg","pricing_plan_id":"cebpf4jnsgd1na2vs0mg"},{"bike_id":"333aa382-91bd-401e-8a2d-c42eb56f0e06","system_id":"levelo_inurba_marseille","lat":43.27812,"lon":5.40713,"is_reserved":false,"is_disabled":false,"rental_uris":{"android":"levelo://app?vid=333aa382-91bd-401e-8a2d-c42eb56f0e06","ios":"levelo://app?vid=333aa382-91bd-401e-8a2d-c42eb56f0e06"},"vehicle_type_id":"4","last_reported":1734520063,"current_range_meters":33600,"station_id":"ce4bhnh2rcd13ifvqgtg","pricing_plan_id":"cebpf4jnsgd1na2vs0mg"},{"bike_id":"2243b907-1461-45a7-a2e2-bc79dd8a7a24","system_id":"levelo_inurba_marseille","lat":43.29618,"lon":5.37733,"is_reserved":false,"is_disabled":false,"rental_uris":{"android":"levelo://app?vid=2243b907-1461-45a7-a2e2-bc79dd8a7a24","ios":"levelo://app?vid=2243b907-1461-45a7-a2e2-bc79dd8a7a24"},"vehicle_type_id":"4","last_reported":1734520063,"current_range_meters":38800,"station_id":"ce4bgi92rcd13ifvqb90","pricing_plan_id":"cebpf4jnsgd1na2vs0mg"},{"bike_id":"d2ec1fb1-a560-4602-8be8-e5ae46e28ef2","system_id":"levelo_inurba_marseille","lat":43.26682,"lon":5.38271,"is_reserved":false,"is_disabled":false,"rental_uris":{"android":"levelo://app?vid=d2ec1fb1-a560-4602-8be8-e5ae46e28ef2","ios":"levelo://app?vid=d2ec1fb1-a560-4602-8be8-e5ae46e28ef2"},"vehicle_type_id":"4","last_reported":1734520063,"current_range_meters":9600,"station_id":"ce4bhg92rcd13ifvqf90","pricing_plan_id":"cebpf4jnsgd1na2vs0mg"},{"bike_id":"c7b69568-7a78-440f-b70f-d8bf1dc5a75e","system_id":"levelo_inurba_marseille","lat":43.29832,"lon":5.36253,"is_reserved":false,"is_disabled":false,"rental_uris":{"android":"levelo://app?vid=c7b69568-7a78-440f-b70f-d8bf1dc5a75e","ios":"levelo://app?vid=c7b69568-7a78-440f-b70f-d8bf1dc5a75e"},"vehicle_type_id":"4","last_reported":1734520063,"current_range_meters":39200,"station_id":"ce4bgpp2rcd13ifvqc3g","pricing_plan_id":"cebpf4jnsgd1na2vs0mg"},{"bike_id":"e63ec124-f160-46c4-aad4-b0f59e1a5cf9","system_id":"levelo_inurba_marseille","lat":43.27992,"lon":5.41662,"is_reserved":false,"is_disabled":true,"rental_uris":{"android":"levelo://app?vid=e63ec124-f160-46c4-aad4-b0f59e1a5cf9","ios":"levelo://app?vid=e63ec124-f160-46c4-aad4-b0f59e1a5cf9"},"vehicle_type_id":"4","last_reported":1734520063,"current_range_meters":21600,"station_id":"","pricing_plan_id":"cebpf4jnsgd1na2vs0mg"},{"bike_id":"01d6cc81-e0d8-404c-992c-e94703ed98a7","system_id":"levelo_inurba_marseille","lat":43.2668,"lon":5.38259,"is_reserved":false,"is_disabled":false,"rental_uris":{"android":"levelo://app?vid=01d6cc81-e0d8-404c-992c-e94703ed98a7","ios":"levelo://app?vid=01d6cc81-e0d8-404c-992c-e94703ed98a7"},"vehicle_type_id":"4","last_reported":1734520063,"current_range_meters":24800,"station_id":"ce4bhg92rcd13ifvqf90","pricing_plan_id":"cebpf4jnsgd1na2vs0mg"},{"bike_id":"b4d03eea-40f8-4e77-b91a-87d4a3289859","system_id":"levelo_inurba_marseille","lat":43.27072,"lon":5.42275,"is_reserved":false,"is_disabled":false,"rental_uris":{"android":"levelo://app?vid=b4d03eea-40f8-4e77-b91a-87d4a3289859","ios":"levelo://app?vid=b4d03eea-40f8-4e77-b91a-87d4a3289859"},"vehicle_type_id":"4","last_reported":1734520063,"current_range_meters":3600,"station_id":"ce4bhk92rcd13ifvqgb0","pricing_plan_id":"cebpf4jnsgd1na2vs0mg"},{"bike_id":"2c35d799-8445-41f0-9531-f1ab81d4f0aa","system_id":"levelo_inurba_marseille","lat":43.28409,"lon":5.37506,"is_reserved":false,"is_disabled":true,"rental_uris":{"android":"levelo://app?vid=2c35d799-8445-41f0-9531-f1ab81d4f0aa","ios":"levelo://app?vid=2c35d799-8445-41f0-9531-f1ab81d4f0aa"},"vehicle_type_id":"4","last_reported":1734520063,"current_range_meters":28000,"station_id":"ce4bh412rcd13ifvqds0","pricing_plan_id":"cebpf4jnsgd1na2vs0mg"},{"bike_id":"21a908a9-f3bc-4dd2-b6d9-61c6041d205e","system_id":"levelo_inurba_marseille","lat":43.26064,"lon":5.39397,"is_reserved":false,"is_disabled":false,"rental_uris":{"android":"levelo://app?vid=21a908a9-f3bc-4dd2-b6d9-61c6041d205e","ios":"levelo://app?vid=21a908a9-f3bc-4dd2-b6d9-61c6041d205e"},"vehicle_type_id":"4","last_reported":1734520063,"current_range_meters":8400,"station_id":"ce4bhh92rcd13ifvqfj0","pricing_plan_id":"cebpf4jnsgd1na2vs0mg"},{"bike_id":"fc2c3daa-143d-41d7-8998-f7412d24e8e3","system_id":"levelo_inurba_marseille","lat":43.27988,"lon":5.41662,"is_reserved":false,"is_disabled":false,"rental_uris":{"android":"levelo://app?vid=fc2c3daa-143d-41d7-8998-f7412d24e8e3","ios":"levelo://app?vid=fc2c3daa-143d-41d7-8998-f7412d24e8e3"},"vehicle_type_id":"4","last_reported":1734520063,"current_range_meters":38800,"station_id":"ce4bho12rcd13ifvqh1g","pricing_plan_id":"cebpf4jnsgd1na2vs0mg"},{"bike_id":"7b377d1f-9911-40eb-a4aa-03ed7c53d23e","system_id":"levelo_inurba_marseille","lat":43.27941,"lon":5.41043,"is_reserved":false,"is_disabled":false,"rental_uris":{"android":"levelo://app?vid=7b377d1f-9911-40eb-a4aa-03ed7c53d23e","ios":"levelo://app?vid=7b377d1f-9911-40eb-a4aa-03ed7c53d23e"},"vehicle_type_id":"4","last_reported":1734520063,"current_range_meters":28400,"station_id":"ce4bhnp2rcd13ifvqh0g","pricing_plan_id":"cebpf4jnsgd1na2vs0mg"},{"bike_id":"68907ca0-038a-4705-886b-af6c122ac485","system_id":"levelo_inurba_marseille","lat":43.23189,"lon":5.39984,"is_reserved":false,"is_disabled":false,"rental_uris":{"android":"levelo://app?vid=68907ca0-038a-4705-886b-af6c122ac485","ios":"levelo://app?vid=68907ca0-038a-4705-886b-af6c122ac485"},"vehicle_type_id":"4","last_reported":1734520063,"current_range_meters":39200,"station_id":"ce4bhn12rcd13ifvqgqg","pricing_plan_id":"cebpf4jnsgd1na2vs0mg"},{"bike_id":"1511eed4-ac45-42ea-8966-c48976b647fd","system_id":"levelo_inurba_marseille","lat":43.29981,"lon":5.3718,"is_reserved":false,"is_disabled":true,"rental_uris":{"android":"levelo://app?vid=1511eed4-ac45-42ea-8966-c48976b647fd","ios":"levelo://app?vid=1511eed4-ac45-42ea-8966-c48976b647fd"},"vehicle_type_id":"4","last_reported":1734520063,"current_range_meters":31200,"station_id":"ce4bgr92rcd13ifvqc7g","pricing_plan_id":"cebpf4jnsgd1na2vs0mg"},{"bike_id":"5be8cabd-d236-4566-a1ee-f54a70bf770a","system_id":"levelo_inurba_marseille","lat":43.23958,"lon":5.36635,"is_reserved":false,"is_disabled":false,"rental_uris":{"android":"levelo://app?vid=5be8cabd-d236-4566-a1ee-f54a70bf770a","ios":"levelo://app?vid=5be8cabd-d236-4566-a1ee-f54a70bf770a"},"vehicle_type_id":"4","last_reported":1734520063,"current_range_meters":34800,"station_id":"ce4bhi12rcd13ifvqfp0","pricing_plan_id":"cebpf4jnsgd1na2vs0mg"},{"bike_id":"f95a0b85-1edc-42ee-ba74-ac15513e6ff6","system_id":"levelo_inurba_marseille","lat":43.29709,"lon":5.36616,"is_reserved":false,"is_disabled":false,"rental_uris":{"android":"levelo://app?vid=f95a0b85-1edc-42ee-ba74-ac15513e6ff6","ios":"levelo://app?vid=f95a0b85-1edc-42ee-ba74-ac15513e6ff6"},"vehicle_type_id":"4","last_reported":1734520063,"current_range_meters":17600,"station_id":"ce4bgn12rcd13ifvqbt0","pricing_plan_id":"cebpf4jnsgd1na2vs0mg"},{"bike_id":"f3b2ef88-781e-4e8a-b4e5-436df408c9cf","system_id":"levelo_inurba_marseille","lat":43.29304,"lon":5.3745,"is_reserved":false,"is_disabled":false,"rental_uris":{"android":"levelo://app?vid=f3b2ef88-781e-4e8a-b4e5-436df408c9cf","ios":"levelo://app?vid=f3b2ef88-781e-4e8a-b4e5-436df408c9cf"},"vehicle_type_id":"4","last_reported":1734520063,"current_range_meters":38800,"station_id":"ce4bgi12rcd13ifvqb70","pricing_plan_id":"cebpf4jnsgd1na2vs0mg"},{"bike_id":"bb337245-7c41-4671-900b-a4d92ae562c6","system_id":"levelo_inurba_marseille","lat":43.29492,"lon":5.39019,"is_reserved":false,"is_disabled":true,"rental_uris":{"android":"levelo://app?vid=bb337245-7c41-4671-900b-a4d92ae562c6","ios":"levelo://app?vid=bb337245-7c41-4671-900b-a4d92ae562c6"},"vehicle_type_id":"4","last_reported":1734520063,"current_range_meters":800,"station_id":"ce4bh3p2rcd13ifvqdp0","pricing_plan_id":"cebpf4jnsgd1na2vs0mg"},{"bike_id":"6f7acd99-77cb-462a-9f2d-c4e504bcc16a","system_id":"levelo_inurba_marseille","lat":43.23199,"lon":5.39992,"is_reserved":false,"is_disabled":false,"rental_uris":{"android":"levelo://app?vid=6f7acd99-77cb-462a-9f2d-c4e504bcc16a","ios":"levelo://app?vid=6f7acd99-77cb-462a-9f2d-c4e504bcc16a"},"vehicle_type_id":"4","last_reported":1734520063,"current_range_meters":27200,"station_id":"ce4bhn12rcd13ifvqgqg","pricing_plan_id":"cebpf4jnsgd1na2vs0mg"},{"bike_id":"9e0c413f-f740-4c2a-b957-e50a2db3e8ac","system_id":"levelo_inurba_marseille","lat":43.29849,"lon":5.36285,"is_reserved":false,"is_disabled":false,"rental_uris":{"android":"levelo://app?vid=9e0c413f-f740-4c2a-b957-e50a2db3e8ac","ios":"levelo://app?vid=9e0c413f-f740-4c2a-b957-e50a2db3e8ac"},"vehicle_type_id":"4","last_reported":1734520063,"current_range_meters":20000,"station_id":"ce4bgpp2rcd13ifvqc3g","pricing_plan_id":"cebpf4jnsgd1na2vs0mg"},{"bike_id":"859e7849-50b6-4290-a99c-71e1ce0df12c","system_id":"levelo_inurba_marseille","lat":43.30532,"lon":5.36537,"is_reserved":false,"is_disabled":false,"rental_uris":{"android":"levelo://app?vid=859e7849-50b6-4290-a99c-71e1ce0df12c","ios":"levelo://app?vid=859e7849-50b6-4290-a99c-71e1ce0df12c"},"vehicle_type_id":"4","last_reported":1734520063,"current_range_meters":26000,"station_id":"ce4bgs12rcd13ifvqcag","pricing_plan_id":"cebpf4jnsgd1na2vs0mg"},{"bike_id":"718c9f14-9215-4ed1-9c03-b172b6d8ceb4","system_id":"levelo_inurba_marseille","lat":43.30894,"lon":5.37196,"is_reserved":false,"is_disabled":false,"rental_uris":{"android":"levelo://app?vid=718c9f14-9215-4ed1-9c03-b172b6d8ceb4","ios":"levelo://app?vid=718c9f14-9215-4ed1-9c03-b172b6d8ceb4"},"vehicle_type_id":"4","last_reported":1734520063,"current_range_meters":17200,"station_id":"ce4bguh2rcd13ifvqckg","pricing_plan_id":"cebpf4jnsgd1na2vs0mg"},{"bike_id":"33c354b3-5ff8-44a2-9bca-4db9e857fb9d","system_id":"levelo_inurba_marseille","lat":43.23121,"lon":5.43781,"is_reserved":false,"is_disabled":false,"rental_uris":{"android":"levelo://app?vid=33c354b3-5ff8-44a2-9bca-4db9e857fb9d","ios":"levelo://app?vid=33c354b3-5ff8-44a2-9bca-4db9e857fb9d"},"vehicle_type_id":"4","last_reported":1734520063,"current_range_meters":28000,"station_id":"ce4bhmp2rcd13ifvqgog","pricing_plan_id":"cebpf4jnsgd1na2vs0mg"},{"bike_id":"553432ca-dd58-4491-a575-3ed500fe52e7","system_id":"levelo_inurba_marseille","lat":43.31366,"lon":5.38487,"is_reserved":false,"is_disabled":false,"rental_uris":{"android":"levelo://app?vid=553432ca-dd58-4491-a575-3ed500fe52e7","ios":"levelo://app?vid=553432ca-dd58-4491-a575-3ed500fe52e7"},"vehicle_type_id":"4","last_reported":1734520063,"current_range_meters":38400,"station_id":"ce4bgt92rcd13ifvqcf0","pricing_plan_id":"cebpf4jnsgd1na2vs0mg"},{"bike_id":"2c5e2bdd-bb97-4868-8b21-cd7283e46d49","system_id":"levelo_inurba_marseille","lat":43.27315,"lon":5.39096,"is_reserved":false,"is_disabled":false,"rental_uris":{"android":"levelo://app?vid=2c5e2bdd-bb97-4868-8b21-cd7283e46d49","ios":"levelo://app?vid=2c5e2bdd-bb97-4868-8b21-cd7283e46d49"},"vehicle_type_id":"4","last_reported":1734520063,"current_range_meters":30000,"station_id":"ce4bhgp2rcd13ifvqfe0","pricing_plan_id":"cebpf4jnsgd1na2vs0mg"},{"bike_id":"d704f9f8-9eaa-459d-b8f2-d8ff5a5aeca1","system_id":"levelo_inurba_marseille","lat":43.28462,"lon":5.35884,"is_reserved":false,"is_disabled":false,"rental_uris":{"android":"levelo://app?vid=d704f9f8-9eaa-459d-b8f2-d8ff5a5aeca1","ios":"levelo://app?vid=d704f9f8-9eaa-459d-b8f2-d8ff5a5aeca1"},"vehicle_type_id":"4","last_reported":1734520063,"current_range_meters":13600,"station_id":"ce4bhah2rcd13ifvqei0","pricing_plan_id":"cebpf4jnsgd1na2vs0mg"},{"bike_id":"3adf4377-ebd6-4934-90c6-cbbabf9a6e47","system_id":"levelo_inurba_marseille","lat":43.30142,"lon":5.37414,"is_reserved":false,"is_disabled":false,"rental_uris":{"android":"levelo://app?vid=3adf4377-ebd6-4934-90c6-cbbabf9a6e47","ios":"levelo://app?vid=3adf4377-ebd6-4934-90c6-cbbabf9a6e47"},"vehicle_type_id":"4","last_reported":1734520063,"current_range_meters":26800,"station_id":"ce4bgs92rcd13ifvqcc0","pricing_plan_id":"cebpf4jnsgd1na2vs0mg"},{"bike_id":"eba901e5-0847-4fc0-b2b6-9eb1834c3e7a","system_id":"levelo_inurba_marseille","lat":43.29539,"lon":5.42249,"is_reserved":false,"is_disabled":true,"rental_uris":{"android":"levelo://app?vid=eba901e5-0847-4fc0-b2b6-9eb1834c3e7a","ios":"levelo://app?vid=eba901e5-0847-4fc0-b2b6-9eb1834c3e7a"},"vehicle_type_id":"4","last_reported":1734520063,"current_range_meters":0,"station_id":"ce4bhph2rcd13ifvqhdg","pricing_plan_id":"cebpf4jnsgd1na2vs0mg"},{"bike_id":"345d80f6-1525-4241-80c9-c6920b13eab2","system_id":"levelo_inurba_marseille","lat":43.29539,"lon":5.38548,"is_reserved":false,"is_disabled":true,"rental_uris":{"android":"levelo://app?vid=345d80f6-1525-4241-80c9-c6920b13eab2","ios":"levelo://app?vid=345d80f6-1525-4241-80c9-c6920b13eab2"},"vehicle_type_id":"4","last_reported":1734520063,"current_range_meters":14400,"station_id":"ce4bgih2rcd13ifvqba0","pricing_plan_id":"cebpf4jnsgd1na2vs0mg"},{"bike_id":"a3679842-4ecc-42a3-92b3-fcde04fd7769","system_id":"levelo_inurba_marseille","lat":43.30544,"lon":5.367,"is_reserved":false,"is_disabled":false,"rental_uris":{"android":"levelo://app?vid=a3679842-4ecc-42a3-92b3-fcde04fd7769","ios":"levelo://app?vid=a3679842-4ecc-42a3-92b3-fcde04fd7769"},"vehicle_type_id":"4","last_reported":1734520063,"current_range_meters":20800,"station_id":"ce4bgrp2rcd13ifvqc9g","pricing_plan_id":"cebpf4jnsgd1na2vs0mg"},{"bike_id":"07cbdb6f-6b5a-42a8-8834-7a4a5909ca3f","system_id":"levelo_inurba_marseille","lat":43.31691,"lon":5.40465,"is_reserved":false,"is_disabled":false,"rental_uris":{"android":"levelo://app?vid=07cbdb6f-6b5a-42a8-8834-7a4a5909ca3f","ios":"levelo://app?vid=07cbdb6f-6b5a-42a8-8834-7a4a5909ca3f"},"vehicle_type_id":"4","last_reported":1734520063,"current_range_meters":37600,"station_id":"ce4bh012rcd13ifvqd00","pricing_plan_id":"cebpf4jnsgd1na2vs0mg"},{"bike_id":"cc131050-550f-416c-acf8-1a5597489c27","system_id":"levelo_inurba_marseille","lat":43.29003,"lon":5.35623,"is_reserved":false,"is_disabled":false,"rental_uris":{"android":"levelo://app?vid=cc131050-550f-416c-acf8-1a5597489c27","ios":"levelo://app?vid=cc131050-550f-416c-acf8-1a5597489c27"},"vehicle_type_id":"4","last_reported":1734520063,"current_range_meters":35200,"station_id":"ce4bhb92rcd13ifvqen0","pricing_plan_id":"cebpf4jnsgd1na2vs0mg"},{"bike_id":"cc0766b9-8327-43e1-8021-c265ef294b12","system_id":"levelo_inurba_marseille","lat":43.28355,"lon":5.3865,"is_reserved":false,"is_disabled":false,"rental_uris":{"android":"levelo://app?vid=cc0766b9-8327-43e1-8021-c265ef294b12","ios":"levelo://app?vid=cc0766b9-8327-43e1-8021-c265ef294b12"},"vehicle_type_id":"4","last_reported":1734520063,"current_range_meters":38800,"station_id":"ce4bh492rcd13ifvqdvg","pricing_plan_id":"cebpf4jnsgd1na2vs0mg"},{"bike_id":"ed3a8591-316e-49ab-a80e-c8c5d9c39c56","system_id":"levelo_inurba_marseille","lat":43.30096,"lon":5.39091,"is_reserved":false,"is_disabled":true,"rental_uris":{"android":"levelo://app?vid=ed3a8591-316e-49ab-a80e-c8c5d9c39c56","ios":"levelo://app?vid=ed3a8591-316e-49ab-a80e-c8c5d9c39c56"},"vehicle_type_id":"4","last_reported":1734520063,"current_range_meters":32400,"station_id":"ce4bh192rcd13ifvqdb0","pricing_plan_id":"cebpf4jnsgd1na2vs0mg"},{"bike_id":"434c6ce2-5a13-446d-a0bf-530f5e6d70e3","system_id":"levelo_inurba_marseille","lat":43.30777,"lon":5.37655,"is_reserved":false,"is_disabled":false,"rental_uris":{"android":"levelo://app?vid=434c6ce2-5a13-446d-a0bf-530f5e6d70e3","ios":"levelo://app?vid=434c6ce2-5a13-446d-a0bf-530f5e6d70e3"},"vehicle_type_id":"4","last_reported":1734520063,"current_range_meters":28800,"station_id":"ce4bgv92rcd13ifvqcq0","pricing_plan_id":"cebpf4jnsgd1na2vs0mg"},{"bike_id":"3f684ade-8ff8-412b-8c78-ba957e925730","system_id":"levelo_inurba_marseille","lat":43.305413,"lon":5.367016,"is_reserved":false,"is_disabled":false,"rental_uris":{"android":"levelo://app?vid=3f684ade-8ff8-412b-8c78-ba957e925730","ios":"levelo://app?vid=3f684ade-8ff8-412b-8c78-ba957e925730"},"vehicle_type_id":"4","last_reported":1734520063,"current_range_meters":28400,"station_id":"ce4bgrp2rcd13ifvqc9g","pricing_plan_id":"cebpf4jnsgd1na2vs0mg"},{"bike_id":"7f1fdc7d-fd5a-41f5-95df-d4b73f14110f","system_id":"levelo_inurba_marseille","lat":43.31891,"lon":5.4074,"is_reserved":false,"is_disabled":false,"rental_uris":{"android":"levelo://app?vid=7f1fdc7d-fd5a-41f5-95df-d4b73f14110f","ios":"levelo://app?vid=7f1fdc7d-fd5a-41f5-95df-d4b73f14110f"},"vehicle_type_id":"4","last_reported":1734520063,"current_range_meters":38800,"station_id":"ce4bhq12rcd13ifvqhig","pricing_plan_id":"cebpf4jnsgd1na2vs0mg"},{"bike_id":"7ac5cff9-067b-4c8a-9f0d-66a889b429f2","system_id":"levelo_inurba_marseille","lat":43.29041,"lon":5.37576,"is_reserved":false,"is_disabled":false,"rental_uris":{"android":"levelo://app?vid=7ac5cff9-067b-4c8a-9f0d-66a889b429f2","ios":"levelo://app?vid=7ac5cff9-067b-4c8a-9f0d-66a889b429f2"},"vehicle_type_id":"4","last_reported":1734520063,"current_range_meters":6800,"station_id":"ce4bh692rcd13ifvqe90","pricing_plan_id":"cebpf4jnsgd1na2vs0mg"},{"bike_id":"844613e5-26e9-4a4a-a51a-6e40a06ee128","system_id":"levelo_inurba_marseille","lat":43.27831,"lon":5.39209,"is_reserved":false,"is_disabled":false,"rental_uris":{"android":"levelo://app?vid=844613e5-26e9-4a4a-a51a-6e40a06ee128","ios":"levelo://app?vid=844613e5-26e9-4a4a-a51a-6e40a06ee128"},"vehicle_type_id":"4","last_reported":1734520063,"current_range_meters":39200,"station_id":"ce4bhjp2rcd13ifvqga0","pricing_plan_id":"cebpf4jnsgd1na2vs0mg"},{"bike_id":"d396f5d2-70d3-4b17-9cb9-b64bad9f67b0","system_id":"levelo_inurba_marseille","lat":43.29609,"lon":5.38081,"is_reserved":false,"is_disabled":false,"rental_uris":{"android":"levelo://app?vid=d396f5d2-70d3-4b17-9cb9-b64bad9f67b0","ios":"levelo://app?vid=d396f5d2-70d3-4b17-9cb9-b64bad9f67b0"},"vehicle_type_id":"4","last_reported":1734520063,"current_range_meters":11600,"station_id":"ce4bgl12rcd13ifvqbo0","pricing_plan_id":"cebpf4jnsgd1na2vs0mg"},{"bike_id":"1de05ea6-7ffc-4755-9d5c-2404e5a173c7","system_id":"levelo_inurba_marseille","lat":43.23066,"lon":5.35493,"is_reserved":false,"is_disabled":false,"rental_uris":{"android":"levelo://app?vid=1de05ea6-7ffc-4755-9d5c-2404e5a173c7","ios":"levelo://app?vid=1de05ea6-7ffc-4755-9d5c-2404e5a173c7"},"vehicle_type_id":"4","last_reported":1734520063,"current_range_meters":38000,"station_id":"cpo3342slgdg3j2ifvpg","pricing_plan_id":"cebpf4jnsgd1na2vs0mg"},{"bike_id":"70a23328-6629-4f07-b203-ef843751eafc","system_id":"levelo_inurba_marseille","lat":43.27193,"lon":5.41002,"is_reserved":false,"is_disabled":true,"rental_uris":{"android":"levelo://app?vid=70a23328-6629-4f07-b203-ef843751eafc","ios":"levelo://app?vid=70a23328-6629-4f07-b203-ef843751eafc"},"vehicle_type_id":"4","last_reported":1734520063,"current_range_meters":25200,"station_id":"ce4bhl12rcd13ifvqgf0","pricing_plan_id":"cebpf4jnsgd1na2vs0mg"},{"bike_id":"ac6023de-2fdd-43c1-9fd3-181adcf15bb2","system_id":"levelo_inurba_marseille","lat":43.30317,"lon":5.36905,"is_reserved":false,"is_disabled":false,"rental_uris":{"android":"levelo://app?vid=ac6023de-2fdd-43c1-9fd3-181adcf15bb2","ios":"levelo://app?vid=ac6023de-2fdd-43c1-9fd3-181adcf15bb2"},"vehicle_type_id":"4","last_reported":1734520063,"current_range_meters":16800,"station_id":"ce4bgqh2rcd13ifvqc5g","pricing_plan_id":"cebpf4jnsgd1na2vs0mg"},{"bike_id":"e16cd59a-d7f2-451d-99b5-d92d6b398a30","system_id":"levelo_inurba_marseille","lat":43.2992,"lon":5.36516,"is_reserved":false,"is_disabled":false,"rental_uris":{"android":"levelo://app?vid=e16cd59a-d7f2-451d-99b5-d92d6b398a30","ios":"levelo://app?vid=e16cd59a-d7f2-451d-99b5-d92d6b398a30"},"vehicle_type_id":"4","last_reported":1734520063,"current_range_meters":24800,"station_id":"ce4bgm92rcd13ifvqbr0","pricing_plan_id":"cebpf4jnsgd1na2vs0mg"},{"bike_id":"2d9f4e58-aed4-42e5-b03f-7c067dbd464d","system_id":"levelo_inurba_marseille","lat":43.27081,"lon":5.42288,"is_reserved":false,"is_disabled":false,"rental_uris":{"android":"levelo://app?vid=2d9f4e58-aed4-42e5-b03f-7c067dbd464d","ios":"levelo://app?vid=2d9f4e58-aed4-42e5-b03f-7c067dbd464d"},"vehicle_type_id":"4","last_reported":1734520063,"current_range_meters":38800,"station_id":"ce4bhk92rcd13ifvqgb0","pricing_plan_id":"cebpf4jnsgd1na2vs0mg"},{"bike_id":"d6533370-f608-4b25-b78b-1fe107cb5547","system_id":"levelo_inurba_marseille","lat":43.2985,"lon":5.36279,"is_reserved":false,"is_disabled":false,"rental_uris":{"android":"levelo://app?vid=d6533370-f608-4b25-b78b-1fe107cb5547","ios":"levelo://app?vid=d6533370-f608-4b25-b78b-1fe107cb5547"},"vehicle_type_id":"4","last_reported":1734520063,"current_range_meters":38000,"station_id":"ce4bgpp2rcd13ifvqc3g","pricing_plan_id":"cebpf4jnsgd1na2vs0mg"},{"bike_id":"4e24cd74-c1ed-48e3-ae04-94fae1db75bb","system_id":"levelo_inurba_marseille","lat":43.27069,"lon":5.42279,"is_reserved":false,"is_disabled":false,"rental_uris":{"android":"levelo://app?vid=4e24cd74-c1ed-48e3-ae04-94fae1db75bb","ios":"levelo://app?vid=4e24cd74-c1ed-48e3-ae04-94fae1db75bb"},"vehicle_type_id":"4","last_reported":1734520063,"current_range_meters":29600,"station_id":"ce4bhk92rcd13ifvqgb0","pricing_plan_id":"cebpf4jnsgd1na2vs0mg"},{"bike_id":"7e876e85-730f-4bb1-8e78-bc65c4d6fe75","system_id":"levelo_inurba_marseille","lat":43.2905,"lon":5.35915,"is_reserved":false,"is_disabled":false,"rental_uris":{"android":"levelo://app?vid=7e876e85-730f-4bb1-8e78-bc65c4d6fe75","ios":"levelo://app?vid=7e876e85-730f-4bb1-8e78-bc65c4d6fe75"},"vehicle_type_id":"4","last_reported":1734520063,"current_range_meters":27200,"station_id":"ce4bha92rcd13ifvqeg0","pricing_plan_id":"cebpf4jnsgd1na2vs0mg"},{"bike_id":"8ad349ad-6628-4514-ac49-e50f6e2a0d03","system_id":"levelo_inurba_marseille","lat":43.27054,"lon":5.42297,"is_reserved":false,"is_disabled":false,"rental_uris":{"android":"levelo://app?vid=8ad349ad-6628-4514-ac49-e50f6e2a0d03","ios":"levelo://app?vid=8ad349ad-6628-4514-ac49-e50f6e2a0d03"},"vehicle_type_id":"4","last_reported":1734520063,"current_range_meters":26000,"station_id":"ce4bhk92rcd13ifvqgb0","pricing_plan_id":"cebpf4jnsgd1na2vs0mg"},{"bike_id":"b744a336-71fe-46db-98f0-4cef72f7ccdd","system_id":"levelo_inurba_marseille","lat":43.32365,"lon":5.38884,"is_reserved":false,"is_disabled":false,"rental_uris":{"android":"levelo://app?vid=b744a336-71fe-46db-98f0-4cef72f7ccdd","ios":"levelo://app?vid=b744a336-71fe-46db-98f0-4cef72f7ccdd"},"vehicle_type_id":"4","last_reported":1734520063,"current_range_meters":10000,"station_id":"ce4bhqp2rcd13ifvqhog","pricing_plan_id":"cebpf4jnsgd1na2vs0mg"},{"bike_id":"a11b3153-f4b4-4488-a35f-90de3a05f937","system_id":"levelo_inurba_marseille","lat":43.2791,"lon":5.39584,"is_reserved":false,"is_disabled":false,"rental_uris":{"android":"levelo://app?vid=a11b3153-f4b4-4488-a35f-90de3a05f937","ios":"levelo://app?vid=a11b3153-f4b4-4488-a35f-90de3a05f937"},"vehicle_type_id":"4","last_reported":1734520063,"current_range_meters":33600,"station_id":"ce4bhf92rcd13ifvqf40","pricing_plan_id":"cebpf4jnsgd1na2vs0mg"},{"bike_id":"93947a7d-9d89-48c3-a58d-8ab9388086e5","system_id":"levelo_inurba_marseille","lat":43.28472,"lon":5.38419,"is_reserved":false,"is_disabled":false,"rental_uris":{"android":"levelo://app?vid=93947a7d-9d89-48c3-a58d-8ab9388086e5","ios":"levelo://app?vid=93947a7d-9d89-48c3-a58d-8ab9388086e5"},"vehicle_type_id":"4","last_reported":1734520063,"current_range_meters":39200,"station_id":"ce4bh512rcd13ifvqe3g","pricing_plan_id":"cebpf4jnsgd1na2vs0mg"},{"bike_id":"6fdc6c93-3888-475f-aca7-5a17243ac6bb","system_id":"levelo_inurba_marseille","lat":43.29747,"lon":5.37698,"is_reserved":false,"is_disabled":false,"rental_uris":{"android":"levelo://app?vid=6fdc6c93-3888-475f-aca7-5a17243ac6bb","ios":"levelo://app?vid=6fdc6c93-3888-475f-aca7-5a17243ac6bb"},"vehicle_type_id":"4","last_reported":1734520063,"current_range_meters":25600,"station_id":"ce4bgkh2rcd13ifvqbl0","pricing_plan_id":"cebpf4jnsgd1na2vs0mg"},{"bike_id":"81d70e8e-c493-4256-a425-cc54df646975","system_id":"levelo_inurba_marseille","lat":43.29922,"lon":5.37482,"is_reserved":false,"is_disabled":false,"rental_uris":{"android":"levelo://app?vid=81d70e8e-c493-4256-a425-cc54df646975","ios":"levelo://app?vid=81d70e8e-c493-4256-a425-cc54df646975"},"vehicle_type_id":"4","last_reported":1734520063,"current_range_meters":30000,"station_id":"ce4bgjh2rcd13ifvqbg0","pricing_plan_id":"cebpf4jnsgd1na2vs0mg"},{"bike_id":"e33668a1-75f2-460e-a289-0c0254315b42","system_id":"levelo_inurba_marseille","lat":43.29028,"lon":5.38644,"is_reserved":false,"is_disabled":false,"rental_uris":{"android":"levelo://app?vid=e33668a1-75f2-460e-a289-0c0254315b42","ios":"levelo://app?vid=e33668a1-75f2-460e-a289-0c0254315b42"},"vehicle_type_id":"4","last_reported":1734520063,"current_range_meters":8000,"station_id":"ce4bh4p2rcd13ifvqe0g","pricing_plan_id":"cebpf4jnsgd1na2vs0mg"},{"bike_id":"d69ebe23-77f0-492c-b236-a063ebca627f","system_id":"levelo_inurba_marseille","lat":43.31348,"lon":5.36739,"is_reserved":false,"is_disabled":true,"rental_uris":{"android":"levelo://app?vid=d69ebe23-77f0-492c-b236-a063ebca627f","ios":"levelo://app?vid=d69ebe23-77f0-492c-b236-a063ebca627f"},"vehicle_type_id":"4","last_reported":1734520063,"current_range_meters":38800,"station_id":"ce4bgr92rcd13ifvqc6g","pricing_plan_id":"cebpf4jnsgd1na2vs0mg"},{"bike_id":"46a7923b-e9d4-445a-a7d5-7bf1298bd7c8","system_id":"levelo_inurba_marseille","lat":43.29266,"lon":5.40912,"is_reserved":false,"is_disabled":false,"rental_uris":{"android":"levelo://app?vid=46a7923b-e9d4-445a-a7d5-7bf1298bd7c8","ios":"levelo://app?vid=46a7923b-e9d4-445a-a7d5-7bf1298bd7c8"},"vehicle_type_id":"4","last_reported":1734520063,"current_range_meters":22000,"station_id":"ce4bh192rcd13ifvqdc0","pricing_plan_id":"cebpf4jnsgd1na2vs0mg"},{"bike_id":"dcbe18de-de6c-4396-9759-e721190ad565","system_id":"levelo_inurba_marseille","lat":43.31248,"lon":5.36883,"is_reserved":false,"is_disabled":false,"rental_uris":{"android":"levelo://app?vid=dcbe18de-de6c-4396-9759-e721190ad565","ios":"levelo://app?vid=dcbe18de-de6c-4396-9759-e721190ad565"},"vehicle_type_id":"4","last_reported":1734520063,"current_range_meters":28000,"station_id":"ce4bgl92rcd13ifvqbq0","pricing_plan_id":"cebpf4jnsgd1na2vs0mg"},{"bike_id":"bba85a74-2c52-4269-a2b5-9bc2de67d67d","system_id":"levelo_inurba_marseille","lat":43.30551,"lon":5.36533,"is_reserved":false,"is_disabled":false,"rental_uris":{"android":"levelo://app?vid=bba85a74-2c52-4269-a2b5-9bc2de67d67d","ios":"levelo://app?vid=bba85a74-2c52-4269-a2b5-9bc2de67d67d"},"vehicle_type_id":"4","last_reported":1734520063,"current_range_meters":30000,"station_id":"ce4bgs12rcd13ifvqcag","pricing_plan_id":"cebpf4jnsgd1na2vs0mg"},{"bike_id":"e933c2cb-4356-4f96-927d-49b4565a6c15","system_id":"levelo_inurba_marseille","lat":43.29003,"lon":5.3562,"is_reserved":false,"is_disabled":false,"rental_uris":{"android":"levelo://app?vid=e933c2cb-4356-4f96-927d-49b4565a6c15","ios":"levelo://app?vid=e933c2cb-4356-4f96-927d-49b4565a6c15"},"vehicle_type_id":"4","last_reported":1734520063,"current_range_meters":38000,"station_id":"ce4bhb92rcd13ifvqen0","pricing_plan_id":"cebpf4jnsgd1na2vs0mg"},{"bike_id":"cab5cb01-b33a-421c-bfaf-c7630f90de8b","system_id":"levelo_inurba_marseille","lat":43.29044,"lon":5.39959,"is_reserved":false,"is_disabled":true,"rental_uris":{"android":"levelo://app?vid=cab5cb01-b33a-421c-bfaf-c7630f90de8b","ios":"levelo://app?vid=cab5cb01-b33a-421c-bfaf-c7630f90de8b"},"vehicle_type_id":"4","last_reported":1734520063,"current_range_meters":0,"station_id":"ce4bh392rcd13ifvqdm0","pricing_plan_id":"cebpf4jnsgd1na2vs0mg"},{"bike_id":"78f5dcee-b6ca-4cfa-ae6f-ebcf64be1236","system_id":"levelo_inurba_marseille","lat":43.3235,"lon":5.40622,"is_reserved":false,"is_disabled":true,"rental_uris":{"android":"levelo://app?vid=78f5dcee-b6ca-4cfa-ae6f-ebcf64be1236","ios":"levelo://app?vid=78f5dcee-b6ca-4cfa-ae6f-ebcf64be1236"},"vehicle_type_id":"4","last_reported":1734520063,"current_range_meters":0,"station_id":"ce4bhq92rcd13ifvqhjg","pricing_plan_id":"cebpf4jnsgd1na2vs0mg"},{"bike_id":"d1adb045-11f4-4330-9d2b-f77d89c262d4","system_id":"levelo_inurba_marseille","lat":43.29307,"lon":5.3717,"is_reserved":false,"is_disabled":true,"rental_uris":{"android":"levelo://app?vid=d1adb045-11f4-4330-9d2b-f77d89c262d4","ios":"levelo://app?vid=d1adb045-11f4-4330-9d2b-f77d89c262d4"},"vehicle_type_id":"4","last_reported":1734520063,"current_range_meters":31200,"station_id":"ce4bgh92rcd13ifvqb40","pricing_plan_id":"cebpf4jnsgd1na2vs0mg"},{"bike_id":"90a98cf0-a7f6-462c-806d-d1075980e8e3","system_id":"levelo_inurba_marseille","lat":43.30142,"lon":5.37402,"is_reserved":false,"is_disabled":false,"rental_uris":{"android":"levelo://app?vid=90a98cf0-a7f6-462c-806d-d1075980e8e3","ios":"levelo://app?vid=90a98cf0-a7f6-462c-806d-d1075980e8e3"},"vehicle_type_id":"4","last_reported":1734520063,"current_range_meters":27600,"station_id":"ce4bgs92rcd13ifvqcc0","pricing_plan_id":"cebpf4jnsgd1na2vs0mg"},{"bike_id":"c000e995-4758-4652-ae25-dd1f2f74c47e","system_id":"levelo_inurba_marseille","lat":43.29729,"lon":5.37728,"is_reserved":false,"is_disabled":false,"rental_uris":{"android":"levelo://app?vid=c000e995-4758-4652-ae25-dd1f2f74c47e","ios":"levelo://app?vid=c000e995-4758-4652-ae25-dd1f2f74c47e"},"vehicle_type_id":"4","last_reported":1734520063,"current_range_meters":38800,"station_id":"ce4bgkh2rcd13ifvqbl0","pricing_plan_id":"cebpf4jnsgd1na2vs0mg"},{"bike_id":"a33b825e-c779-4129-842f-aeba22c7390a","system_id":"levelo_inurba_marseille","lat":43.31685,"lon":5.40462,"is_reserved":false,"is_disabled":false,"rental_uris":{"android":"levelo://app?vid=a33b825e-c779-4129-842f-aeba22c7390a","ios":"levelo://app?vid=a33b825e-c779-4129-842f-aeba22c7390a"},"vehicle_type_id":"4","last_reported":1734520063,"current_range_meters":37600,"station_id":"ce4bh012rcd13ifvqd00","pricing_plan_id":"cebpf4jnsgd1na2vs0mg"},{"bike_id":"680358db-eb64-4f35-bba9-4d9ebd5f23e1","system_id":"levelo_inurba_marseille","lat":43.28425,"lon":5.34977,"is_reserved":false,"is_disabled":false,"rental_uris":{"android":"levelo://app?vid=680358db-eb64-4f35-bba9-4d9ebd5f23e1","ios":"levelo://app?vid=680358db-eb64-4f35-bba9-4d9ebd5f23e1"},"vehicle_type_id":"4","last_reported":1734520063,"current_range_meters":11200,"station_id":"ce4bhbh2rcd13ifvqepg","pricing_plan_id":"cebpf4jnsgd1na2vs0mg"},{"bike_id":"b13b811d-e88d-46d2-8d0c-84e3cfc06dd9","system_id":"levelo_inurba_marseille","lat":43.2962,"lon":5.37729,"is_reserved":false,"is_disabled":false,"rental_uris":{"android":"levelo://app?vid=b13b811d-e88d-46d2-8d0c-84e3cfc06dd9","ios":"levelo://app?vid=b13b811d-e88d-46d2-8d0c-84e3cfc06dd9"},"vehicle_type_id":"4","last_reported":1734520063,"current_range_meters":38800,"station_id":"ce4bgi92rcd13ifvqb90","pricing_plan_id":"cebpf4jnsgd1na2vs0mg"},{"bike_id":"0bd5d813-d89e-42f3-8ce9-c06fb9ffedaa","system_id":"levelo_inurba_marseille","lat":43.28951,"lon":5.39656,"is_reserved":false,"is_disabled":true,"rental_uris":{"android":"levelo://app?vid=0bd5d813-d89e-42f3-8ce9-c06fb9ffedaa","ios":"levelo://app?vid=0bd5d813-d89e-42f3-8ce9-c06fb9ffedaa"},"vehicle_type_id":"4","last_reported":1734520063,"current_range_meters":34800,"station_id":"ce4bh3h2rcd13ifvqdn0","pricing_plan_id":"cebpf4jnsgd1na2vs0mg"},{"bike_id":"3736a2ec-3fec-4569-b975-7fc2f6b8f57d","system_id":"levelo_inurba_marseille","lat":43.31081,"lon":5.42427,"is_reserved":false,"is_disabled":true,"rental_uris":{"android":"levelo://app?vid=3736a2ec-3fec-4569-b975-7fc2f6b8f57d","ios":"levelo://app?vid=3736a2ec-3fec-4569-b975-7fc2f6b8f57d"},"vehicle_type_id":"4","last_reported":1734520063,"current_range_meters":38800,"station_id":"ce4bhp92rcd13ifvqhag","pricing_plan_id":"cebpf4jnsgd1na2vs0mg"},{"bike_id":"3f37807f-d28e-422d-981f-3b66e1fb21df","system_id":"levelo_inurba_marseille","lat":43.29851,"lon":5.36274,"is_reserved":false,"is_disabled":false,"rental_uris":{"android":"levelo://app?vid=3f37807f-d28e-422d-981f-3b66e1fb21df","ios":"levelo://app?vid=3f37807f-d28e-422d-981f-3b66e1fb21df"},"vehicle_type_id":"4","last_reported":1734520063,"current_range_meters":38000,"station_id":"ce4bgpp2rcd13ifvqc3g","pricing_plan_id":"cebpf4jnsgd1na2vs0mg"},{"bike_id":"3bd84091-83a4-4d43-864c-19b7610c7dc5","system_id":"levelo_inurba_marseille","lat":43.2694,"lon":5.38938,"is_reserved":false,"is_disabled":false,"rental_uris":{"android":"levelo://app?vid=3bd84091-83a4-4d43-864c-19b7610c7dc5","ios":"levelo://app?vid=3bd84091-83a4-4d43-864c-19b7610c7dc5"},"vehicle_type_id":"4","last_reported":1734520063,"current_range_meters":38000,"station_id":"ce4bhhh2rcd13ifvqfl0","pricing_plan_id":"cebpf4jnsgd1na2vs0mg"},{"bike_id":"e06e5437-0ec2-4fc8-8eea-3b1bd1eae0c0","system_id":"levelo_inurba_marseille","lat":43.28283,"lon":5.35084,"is_reserved":false,"is_disabled":false,"rental_uris":{"android":"levelo://app?vid=e06e5437-0ec2-4fc8-8eea-3b1bd1eae0c0","ios":"levelo://app?vid=e06e5437-0ec2-4fc8-8eea-3b1bd1eae0c0"},"vehicle_type_id":"4","last_reported":1734520063,"current_range_meters":35200,"station_id":"ce4bhbp2rcd13ifvqerg","pricing_plan_id":"cebpf4jnsgd1na2vs0mg"},{"bike_id":"9a9ca54f-8f83-4db0-b780-a7eb0fa7f88d","system_id":"levelo_inurba_marseille","lat":43.260279,"lon":5.3754,"is_reserved":false,"is_disabled":false,"rental_uris":{"android":"levelo://app?vid=9a9ca54f-8f83-4db0-b780-a7eb0fa7f88d","ios":"levelo://app?vid=9a9ca54f-8f83-4db0-b780-a7eb0fa7f88d"},"vehicle_type_id":"4","last_reported":1734520063,"current_range_meters":34000,"station_id":"ce4bhgh2rcd13ifvqfa0","pricing_plan_id":"cebpf4jnsgd1na2vs0mg"},{"bike_id":"e72fa642-30df-464a-831c-61ff9cf06808","system_id":"levelo_inurba_marseille","lat":43.23058,"lon":5.355,"is_reserved":false,"is_disabled":false,"rental_uris":{"android":"levelo://app?vid=e72fa642-30df-464a-831c-61ff9cf06808","ios":"levelo://app?vid=e72fa642-30df-464a-831c-61ff9cf06808"},"vehicle_type_id":"4","last_reported":1734520063,"current_range_meters":38000,"station_id":"cpo3342slgdg3j2ifvpg","pricing_plan_id":"cebpf4jnsgd1na2vs0mg"},{"bike_id":"a36fe92a-8d90-473f-afd6-26b06b2ef99f","system_id":"levelo_inurba_marseille","lat":43.28933,"lon":5.38399,"is_reserved":false,"is_disabled":false,"rental_uris":{"android":"levelo://app?vid=a36fe92a-8d90-473f-afd6-26b06b2ef99f","ios":"levelo://app?vid=a36fe92a-8d90-473f-afd6-26b06b2ef99f"},"vehicle_type_id":"4","last_reported":1734520063,"current_range_meters":30000,"station_id":"ce4bh612rcd13ifvqe6g","pricing_plan_id":"cebpf4jnsgd1na2vs0mg"},{"bike_id":"ac98de65-d4c5-469b-985e-c9686c0ed7e6","system_id":"levelo_inurba_marseille","lat":43.25118,"lon":5.4032,"is_reserved":false,"is_disabled":false,"rental_uris":{"android":"levelo://app?vid=ac98de65-d4c5-469b-985e-c9686c0ed7e6","ios":"levelo://app?vid=ac98de65-d4c5-469b-985e-c9686c0ed7e6"},"vehicle_type_id":"4","last_reported":1734520063,"current_range_meters":24800,"station_id":"ce4bhlh2rcd13ifvqgig","pricing_plan_id":"cebpf4jnsgd1na2vs0mg"},{"bike_id":"e0987806-6b0e-4c90-bcfc-bfe5e503f4aa","system_id":"levelo_inurba_marseille","lat":43.28108,"lon":5.3784,"is_reserved":false,"is_disabled":false,"rental_uris":{"android":"levelo://app?vid=e0987806-6b0e-4c90-bcfc-bfe5e503f4aa","ios":"levelo://app?vid=e0987806-6b0e-4c90-bcfc-bfe5e503f4aa"},"vehicle_type_id":"4","last_reported":1734520063,"current_range_meters":32800,"station_id":"ce4bha12rcd13ifvqee0","pricing_plan_id":"cebpf4jnsgd1na2vs0mg"},{"bike_id":"8e8942c3-1840-4fe0-bcc4-5a804bd7b904","system_id":"levelo_inurba_marseille","lat":43.29008,"lon":5.3562,"is_reserved":false,"is_disabled":false,"rental_uris":{"android":"levelo://app?vid=8e8942c3-1840-4fe0-bcc4-5a804bd7b904","ios":"levelo://app?vid=8e8942c3-1840-4fe0-bcc4-5a804bd7b904"},"vehicle_type_id":"4","last_reported":1734520063,"current_range_meters":36800,"station_id":"ce4bhb92rcd13ifvqen0","pricing_plan_id":"cebpf4jnsgd1na2vs0mg"},{"bike_id":"0b3ea185-8789-491e-a061-12a4cccfb0d0","system_id":"levelo_inurba_marseille","lat":43.26777,"lon":5.39418,"is_reserved":false,"is_disabled":false,"rental_uris":{"android":"levelo://app?vid=0b3ea185-8789-491e-a061-12a4cccfb0d0","ios":"levelo://app?vid=0b3ea185-8789-491e-a061-12a4cccfb0d0"},"vehicle_type_id":"4","last_reported":1734520063,"current_range_meters":33600,"station_id":"ce4bhh12rcd13ifvqfg0","pricing_plan_id":"cebpf4jnsgd1na2vs0mg"},{"bike_id":"18d7700f-daa6-438c-bbde-ed6e209cf4d7","system_id":"levelo_inurba_marseille","lat":43.31681,"lon":5.40504,"is_reserved":false,"is_disabled":false,"rental_uris":{"android":"levelo://app?vid=18d7700f-daa6-438c-bbde-ed6e209cf4d7","ios":"levelo://app?vid=18d7700f-daa6-438c-bbde-ed6e209cf4d7"},"vehicle_type_id":"4","last_reported":1734520063,"current_range_meters":26800,"station_id":"ce4bh012rcd13ifvqd00","pricing_plan_id":"cebpf4jnsgd1na2vs0mg"},{"bike_id":"5ef91489-38ea-4716-93cc-078e024ffd57","system_id":"levelo_inurba_marseille","lat":43.24997,"lon":5.38931,"is_reserved":false,"is_disabled":false,"rental_uris":{"android":"levelo://app?vid=5ef91489-38ea-4716-93cc-078e024ffd57","ios":"levelo://app?vid=5ef91489-38ea-4716-93cc-078e024ffd57"},"vehicle_type_id":"4","last_reported":1734520063,"current_range_meters":27600,"station_id":"ce4bhgp2rcd13ifvqfd0","pricing_plan_id":"cebpf4jnsgd1na2vs0mg"},{"bike_id":"eccf6a01-fa5f-4b92-a98b-65044bfc1501","system_id":"levelo_inurba_marseille","lat":43.29195,"lon":5.35806,"is_reserved":false,"is_disabled":false,"rental_uris":{"android":"levelo://app?vid=eccf6a01-fa5f-4b92-a98b-65044bfc1501","ios":"levelo://app?vid=eccf6a01-fa5f-4b92-a98b-65044bfc1501"},"vehicle_type_id":"4","last_reported":1734520063,"current_range_meters":38000,"station_id":"ce4bhb12rcd13ifvqel0","pricing_plan_id":"cebpf4jnsgd1na2vs0mg"},{"bike_id":"f65fc50c-1ed9-4e6e-9871-4862e95ec14b","system_id":"levelo_inurba_marseille","lat":43.25098,"lon":5.39502,"is_reserved":false,"is_disabled":false,"rental_uris":{"android":"levelo://app?vid=f65fc50c-1ed9-4e6e-9871-4862e95ec14b","ios":"levelo://app?vid=f65fc50c-1ed9-4e6e-9871-4862e95ec14b"},"vehicle_type_id":"4","last_reported":1734520063,"current_range_meters":38400,"station_id":"ce4bhm12rcd13ifvqgkg","pricing_plan_id":"cebpf4jnsgd1na2vs0mg"},{"bike_id":"ed7851d5-61d7-4d7c-b519-70ebeba913c4","system_id":"levelo_inurba_marseille","lat":43.2707,"lon":5.42283,"is_reserved":false,"is_disabled":false,"rental_uris":{"android":"levelo://app?vid=ed7851d5-61d7-4d7c-b519-70ebeba913c4","ios":"levelo://app?vid=ed7851d5-61d7-4d7c-b519-70ebeba913c4"},"vehicle_type_id":"4","last_reported":1734520063,"current_range_meters":36400,"station_id":"ce4bhk92rcd13ifvqgb0","pricing_plan_id":"cebpf4jnsgd1na2vs0mg"},{"bike_id":"447b8406-1400-4218-b612-e639f0b11bbf","system_id":"levelo_inurba_marseille","lat":43.2731,"lon":5.39087,"is_reserved":false,"is_disabled":true,"rental_uris":{"android":"levelo://app?vid=447b8406-1400-4218-b612-e639f0b11bbf","ios":"levelo://app?vid=447b8406-1400-4218-b612-e639f0b11bbf"},"vehicle_type_id":"4","last_reported":1734520063,"current_range_meters":0,"station_id":"ce4bhgp2rcd13ifvqfe0","pricing_plan_id":"cebpf4jnsgd1na2vs0mg"},{"bike_id":"c8399855-72d4-4f25-aa5a-52a18924a7b8","system_id":"levelo_inurba_marseille","lat":43.24167,"lon":5.3639,"is_reserved":false,"is_disabled":false,"rental_uris":{"android":"levelo://app?vid=c8399855-72d4-4f25-aa5a-52a18924a7b8","ios":"levelo://app?vid=c8399855-72d4-4f25-aa5a-52a18924a7b8"},"vehicle_type_id":"4","last_reported":1734520063,"current_range_meters":7200,"station_id":"cpo36qri1sfpv3e86is0","pricing_plan_id":"cebpf4jnsgd1na2vs0mg"},{"bike_id":"f8b9f595-57de-4f40-884a-1ccbe4ed31e9","system_id":"levelo_inurba_marseille","lat":43.31703,"lon":5.40464,"is_reserved":false,"is_disabled":true,"rental_uris":{"android":"levelo://app?vid=f8b9f595-57de-4f40-884a-1ccbe4ed31e9","ios":"levelo://app?vid=f8b9f595-57de-4f40-884a-1ccbe4ed31e9"},"vehicle_type_id":"4","last_reported":1734520063,"current_range_meters":0,"station_id":"ce4bh012rcd13ifvqd00","pricing_plan_id":"cebpf4jnsgd1na2vs0mg"},{"bike_id":"b4ed7494-2f65-4afe-b33e-9db350da2ad6","system_id":"levelo_inurba_marseille","lat":43.27049,"lon":5.40265,"is_reserved":false,"is_disabled":false,"rental_uris":{"android":"levelo://app?vid=b4ed7494-2f65-4afe-b33e-9db350da2ad6","ios":"levelo://app?vid=b4ed7494-2f65-4afe-b33e-9db350da2ad6"},"vehicle_type_id":"4","last_reported":1734520063,"current_range_meters":31200,"station_id":"ce4bhk92rcd13ifvqgc0","pricing_plan_id":"cebpf4jnsgd1na2vs0mg"},{"bike_id":"4d980bec-aa56-4689-90a0-183e838a0cf9","system_id":"levelo_inurba_marseille","lat":43.27317,"lon":5.39112,"is_reserved":false,"is_disabled":false,"rental_uris":{"android":"levelo://app?vid=4d980bec-aa56-4689-90a0-183e838a0cf9","ios":"levelo://app?vid=4d980bec-aa56-4689-90a0-183e838a0cf9"},"vehicle_type_id":"4","last_reported":1734520063,"current_range_meters":18000,"station_id":"ce4bhgp2rcd13ifvqfe0","pricing_plan_id":"cebpf4jnsgd1na2vs0mg"},{"bike_id":"e65e8a25-6a8f-46c0-9517-f0d4c7df7481","system_id":"levelo_inurba_marseille","lat":43.29073,"lon":5.37181,"is_reserved":false,"is_disabled":true,"rental_uris":{"android":"levelo://app?vid=e65e8a25-6a8f-46c0-9517-f0d4c7df7481","ios":"levelo://app?vid=e65e8a25-6a8f-46c0-9517-f0d4c7df7481"},"vehicle_type_id":"4","last_reported":1734520063,"current_range_meters":28800,"station_id":"","pricing_plan_id":"cebpf4jnsgd1na2vs0mg"},{"bike_id":"6a8c0392-5811-45c9-8265-4b3d3e79a7b1","system_id":"levelo_inurba_marseille","lat":43.29308,"lon":5.37459,"is_reserved":false,"is_disabled":false,"rental_uris":{"android":"levelo://app?vid=6a8c0392-5811-45c9-8265-4b3d3e79a7b1","ios":"levelo://app?vid=6a8c0392-5811-45c9-8265-4b3d3e79a7b1"},"vehicle_type_id":"4","last_reported":1734520063,"current_range_meters":38800,"station_id":"ce4bgi12rcd13ifvqb70","pricing_plan_id":"cebpf4jnsgd1na2vs0mg"},{"bike_id":"a8bdc8af-22ae-44e8-95f9-b4acc5a33e90","system_id":"levelo_inurba_marseille","lat":43.27066,"lon":5.42288,"is_reserved":false,"is_disabled":false,"rental_uris":{"android":"levelo://app?vid=a8bdc8af-22ae-44e8-95f9-b4acc5a33e90","ios":"levelo://app?vid=a8bdc8af-22ae-44e8-95f9-b4acc5a33e90"},"vehicle_type_id":"4","last_reported":1734520063,"current_range_meters":34800,"station_id":"ce4bhk92rcd13ifvqgb0","pricing_plan_id":"cebpf4jnsgd1na2vs0mg"},{"bike_id":"c09638b7-3192-49b1-a7f3-9c0b3cb98f80","system_id":"levelo_inurba_marseille","lat":43.28001,"lon":5.4166,"is_reserved":false,"is_disabled":false,"rental_uris":{"android":"levelo://app?vid=c09638b7-3192-49b1-a7f3-9c0b3cb98f80","ios":"levelo://app?vid=c09638b7-3192-49b1-a7f3-9c0b3cb98f80"},"vehicle_type_id":"4","last_reported":1734520063,"current_range_meters":38000,"station_id":"ce4bho12rcd13ifvqh1g","pricing_plan_id":"cebpf4jnsgd1na2vs0mg"},{"bike_id":"a9ff468f-b9b6-4d38-9a88-552517d5e739","system_id":"levelo_inurba_marseille","lat":43.27054,"lon":5.40268,"is_reserved":false,"is_disabled":false,"rental_uris":{"android":"levelo://app?vid=a9ff468f-b9b6-4d38-9a88-552517d5e739","ios":"levelo://app?vid=a9ff468f-b9b6-4d38-9a88-552517d5e739"},"vehicle_type_id":"4","last_reported":1734520063,"current_range_meters":35600,"station_id":"ce4bhk92rcd13ifvqgc0","pricing_plan_id":"cebpf4jnsgd1na2vs0mg"},{"bike_id":"0964a333-009c-43df-a369-e7b7f1f82c22","system_id":"levelo_inurba_marseille","lat":43.30544,"lon":5.367,"is_reserved":false,"is_disabled":true,"rental_uris":{"android":"levelo://app?vid=0964a333-009c-43df-a369-e7b7f1f82c22","ios":"levelo://app?vid=0964a333-009c-43df-a369-e7b7f1f82c22"},"vehicle_type_id":"4","last_reported":1734520063,"current_range_meters":28000,"station_id":"","pricing_plan_id":"cebpf4jnsgd1na2vs0mg"},{"bike_id":"45c57373-e320-42d1-a25e-adffca0c3f8e","system_id":"levelo_inurba_marseille","lat":43.30141,"lon":5.37424,"is_reserved":false,"is_disabled":false,"rental_uris":{"android":"levelo://app?vid=45c57373-e320-42d1-a25e-adffca0c3f8e","ios":"levelo://app?vid=45c57373-e320-42d1-a25e-adffca0c3f8e"},"vehicle_type_id":"4","last_reported":1734520063,"current_range_meters":36000,"station_id":"ce4bgs92rcd13ifvqcc0","pricing_plan_id":"cebpf4jnsgd1na2vs0mg"},{"bike_id":"9d2aefec-f4a3-4a23-a13a-c09b46ffe2e4","system_id":"levelo_inurba_marseille","lat":43.32481,"lon":5.3658,"is_reserved":false,"is_disabled":false,"rental_uris":{"android":"levelo://app?vid=9d2aefec-f4a3-4a23-a13a-c09b46ffe2e4","ios":"levelo://app?vid=9d2aefec-f4a3-4a23-a13a-c09b46ffe2e4"},"vehicle_type_id":"4","last_reported":1734520063,"current_range_meters":39200,"station_id":"ce4bhs12rcd13ifvqhvg","pricing_plan_id":"cebpf4jnsgd1na2vs0mg"},{"bike_id":"91ee1933-7065-49af-8683-d92c503f6ac5","system_id":"levelo_inurba_marseille","lat":43.26684,"lon":5.38272,"is_reserved":false,"is_disabled":false,"rental_uris":{"android":"levelo://app?vid=91ee1933-7065-49af-8683-d92c503f6ac5","ios":"levelo://app?vid=91ee1933-7065-49af-8683-d92c503f6ac5"},"vehicle_type_id":"4","last_reported":1734520063,"current_range_meters":17600,"station_id":"ce4bhg92rcd13ifvqf90","pricing_plan_id":"cebpf4jnsgd1na2vs0mg"},{"bike_id":"6aac38b0-f22b-4019-a93a-e1f18a3c12f4","system_id":"levelo_inurba_marseille","lat":43.27379,"lon":5.36245,"is_reserved":false,"is_disabled":false,"rental_uris":{"android":"levelo://app?vid=6aac38b0-f22b-4019-a93a-e1f18a3c12f4","ios":"levelo://app?vid=6aac38b0-f22b-4019-a93a-e1f18a3c12f4"},"vehicle_type_id":"4","last_reported":1734520063,"current_range_meters":30800,"station_id":"ce4bhbh2rcd13ifvqeo0","pricing_plan_id":"cebpf4jnsgd1na2vs0mg"},{"bike_id":"bad8f74f-3cb3-4d9a-8174-a1b6b60e1361","system_id":"levelo_inurba_marseille","lat":43.3054,"lon":5.36536,"is_reserved":false,"is_disabled":false,"rental_uris":{"android":"levelo://app?vid=bad8f74f-3cb3-4d9a-8174-a1b6b60e1361","ios":"levelo://app?vid=bad8f74f-3cb3-4d9a-8174-a1b6b60e1361"},"vehicle_type_id":"4","last_reported":1734520063,"current_range_meters":32400,"station_id":"ce4bgs12rcd13ifvqcag","pricing_plan_id":"cebpf4jnsgd1na2vs0mg"},{"bike_id":"32f226fb-f4e2-4d81-a201-914e1005fad4","system_id":"levelo_inurba_marseille","lat":43.31694,"lon":5.40414,"is_reserved":false,"is_disabled":false,"rental_uris":{"android":"levelo://app?vid=32f226fb-f4e2-4d81-a201-914e1005fad4","ios":"levelo://app?vid=32f226fb-f4e2-4d81-a201-914e1005fad4"},"vehicle_type_id":"4","last_reported":1734520063,"current_range_meters":31200,"station_id":"ce4bh012rcd13ifvqd00","pricing_plan_id":"cebpf4jnsgd1na2vs0mg"},{"bike_id":"584c6656-dd2c-4304-a2fe-88364b51a5a2","system_id":"levelo_inurba_marseille","lat":43.25713,"lon":5.4112,"is_reserved":false,"is_disabled":false,"rental_uris":{"android":"levelo://app?vid=584c6656-dd2c-4304-a2fe-88364b51a5a2","ios":"levelo://app?vid=584c6656-dd2c-4304-a2fe-88364b51a5a2"},"vehicle_type_id":"4","last_reported":1734520063,"current_range_meters":38800,"station_id":"ce4bhkp2rcd13ifvqgd0","pricing_plan_id":"cebpf4jnsgd1na2vs0mg"},{"bike_id":"b2d380e8-08ed-495f-a052-5d7dfa068f5b","system_id":"levelo_inurba_marseille","lat":43.26949,"lon":5.3863,"is_reserved":false,"is_disabled":true,"rental_uris":{"android":"levelo://app?vid=b2d380e8-08ed-495f-a052-5d7dfa068f5b","ios":"levelo://app?vid=b2d380e8-08ed-495f-a052-5d7dfa068f5b"},"vehicle_type_id":"4","last_reported":1734520063,"current_range_meters":0,"station_id":"ce4bhh92rcd13ifvqfh0","pricing_plan_id":"cebpf4jnsgd1na2vs0mg"},{"bike_id":"0207f8a4-516c-46ff-9895-b226d519d4c1","system_id":"levelo_inurba_marseille","lat":43.232,"lon":5.35538,"is_reserved":false,"is_disabled":false,"rental_uris":{"android":"levelo://app?vid=0207f8a4-516c-46ff-9895-b226d519d4c1","ios":"levelo://app?vid=0207f8a4-516c-46ff-9895-b226d519d4c1"},"vehicle_type_id":"4","last_reported":1734520063,"current_range_meters":36800,"station_id":"ce4bhu92rcd13ifvqi70","pricing_plan_id":"cebpf4jnsgd1na2vs0mg"},{"bike_id":"f2f07f68-d217-4b41-90fe-09e08be3fa63","system_id":"levelo_inurba_marseille","lat":43.2657,"lon":5.39015,"is_reserved":false,"is_disabled":false,"rental_uris":{"android":"levelo://app?vid=f2f07f68-d217-4b41-90fe-09e08be3fa63","ios":"levelo://app?vid=f2f07f68-d217-4b41-90fe-09e08be3fa63"},"vehicle_type_id":"4","last_reported":1734520063,"current_range_meters":22000,"station_id":"ce4bhe12rcd13ifvqf30","pricing_plan_id":"cebpf4jnsgd1na2vs0mg"},{"bike_id":"9f7f35b2-2717-456b-b06e-1e6871e482f3","system_id":"levelo_inurba_marseille","lat":43.28424,"lon":5.34985,"is_reserved":false,"is_disabled":false,"rental_uris":{"android":"levelo://app?vid=9f7f35b2-2717-456b-b06e-1e6871e482f3","ios":"levelo://app?vid=9f7f35b2-2717-456b-b06e-1e6871e482f3"},"vehicle_type_id":"4","last_reported":1734520063,"current_range_meters":27600,"station_id":"ce4bhbh2rcd13ifvqepg","pricing_plan_id":"cebpf4jnsgd1na2vs0mg"},{"bike_id":"82f7f145-591c-4ce0-8f76-660882a2845e","system_id":"levelo_inurba_marseille","lat":43.33607,"lon":5.41009,"is_reserved":false,"is_disabled":true,"rental_uris":{"android":"levelo://app?vid=82f7f145-591c-4ce0-8f76-660882a2845e","ios":"levelo://app?vid=82f7f145-591c-4ce0-8f76-660882a2845e"},"vehicle_type_id":"4","last_reported":1734520063,"current_range_meters":30000,"station_id":"ce4bhqh2rcd13ifvqhmg","pricing_plan_id":"cebpf4jnsgd1na2vs0mg"},{"bike_id":"fd44f607-a684-4165-afa8-704f90884ce5","system_id":"levelo_inurba_marseille","lat":43.30148,"lon":5.3741,"is_reserved":false,"is_disabled":false,"rental_uris":{"android":"levelo://app?vid=fd44f607-a684-4165-afa8-704f90884ce5","ios":"levelo://app?vid=fd44f607-a684-4165-afa8-704f90884ce5"},"vehicle_type_id":"4","last_reported":1734520063,"current_range_meters":13600,"station_id":"ce4bgs92rcd13ifvqcc0","pricing_plan_id":"cebpf4jnsgd1na2vs0mg"},{"bike_id":"9a232500-b51a-4eec-bb1f-1de3cd6824f5","system_id":"levelo_inurba_marseille","lat":43.3044,"lon":5.38896,"is_reserved":false,"is_disabled":true,"rental_uris":{"android":"levelo://app?vid=9a232500-b51a-4eec-bb1f-1de3cd6824f5","ios":"levelo://app?vid=9a232500-b51a-4eec-bb1f-1de3cd6824f5"},"vehicle_type_id":"4","last_reported":1734520063,"current_range_meters":34000,"station_id":"ce4bgk12rcd13ifvqbi0","pricing_plan_id":"cebpf4jnsgd1na2vs0mg"},{"bike_id":"ac7c5f56-daad-496c-965f-9103737000e8","system_id":"levelo_inurba_marseille","lat":43.23962,"lon":5.36634,"is_reserved":false,"is_disabled":false,"rental_uris":{"android":"levelo://app?vid=ac7c5f56-daad-496c-965f-9103737000e8","ios":"levelo://app?vid=ac7c5f56-daad-496c-965f-9103737000e8"},"vehicle_type_id":"4","last_reported":1734520063,"current_range_meters":38800,"station_id":"ce4bhi12rcd13ifvqfp0","pricing_plan_id":"cebpf4jnsgd1na2vs0mg"},{"bike_id":"2cfd643a-c674-46a9-9d29-5f3a8b06261a","system_id":"levelo_inurba_marseille","lat":43.3248,"lon":5.36576,"is_reserved":false,"is_disabled":false,"rental_uris":{"android":"levelo://app?vid=2cfd643a-c674-46a9-9d29-5f3a8b06261a","ios":"levelo://app?vid=2cfd643a-c674-46a9-9d29-5f3a8b06261a"},"vehicle_type_id":"4","last_reported":1734520063,"current_range_meters":24400,"station_id":"ce4bhs12rcd13ifvqhvg","pricing_plan_id":"cebpf4jnsgd1na2vs0mg"},{"bike_id":"18f33ab4-c322-4783-b86f-05bae90255ff","system_id":"levelo_inurba_marseille","lat":43.29035,"lon":5.37578,"is_reserved":false,"is_disabled":false,"rental_uris":{"android":"levelo://app?vid=18f33ab4-c322-4783-b86f-05bae90255ff","ios":"levelo://app?vid=18f33ab4-c322-4783-b86f-05bae90255ff"},"vehicle_type_id":"4","last_reported":1734520063,"current_range_meters":23200,"station_id":"ce4bh692rcd13ifvqe90","pricing_plan_id":"cebpf4jnsgd1na2vs0mg"},{"bike_id":"f5d6a80f-4cdc-43d9-a251-ed5436737e28","system_id":"levelo_inurba_marseille","lat":43.31529,"lon":5.38026,"is_reserved":false,"is_disabled":false,"rental_uris":{"android":"levelo://app?vid=f5d6a80f-4cdc-43d9-a251-ed5436737e28","ios":"levelo://app?vid=f5d6a80f-4cdc-43d9-a251-ed5436737e28"},"vehicle_type_id":"4","last_reported":1734520063,"current_range_meters":38800,"station_id":"ce4bhsp2rcd13ifvqi50","pricing_plan_id":"cebpf4jnsgd1na2vs0mg"},{"bike_id":"69766096-860d-4950-9887-91a2f9e6ab30","system_id":"levelo_inurba_marseille","lat":43.24674,"lon":5.38169,"is_reserved":false,"is_disabled":true,"rental_uris":{"android":"levelo://app?vid=69766096-860d-4950-9887-91a2f9e6ab30","ios":"levelo://app?vid=69766096-860d-4950-9887-91a2f9e6ab30"},"vehicle_type_id":"4","last_reported":1734520063,"current_range_meters":18000,"station_id":"ce4bhih2rcd13ifvqfr0","pricing_plan_id":"cebpf4jnsgd1na2vs0mg"},{"bike_id":"33b96d03-4467-4205-8b29-161b060ab57f","system_id":"levelo_inurba_marseille","lat":43.28471,"lon":5.38419,"is_reserved":false,"is_disabled":true,"rental_uris":{"android":"levelo://app?vid=33b96d03-4467-4205-8b29-161b060ab57f","ios":"levelo://app?vid=33b96d03-4467-4205-8b29-161b060ab57f"},"vehicle_type_id":"4","last_reported":1734520063,"current_range_meters":1600,"station_id":"ce4bh512rcd13ifvqe3g","pricing_plan_id":"cebpf4jnsgd1na2vs0mg"},{"bike_id":"ccbd5d7c-b799-4e13-8dc0-00f4e98d5a5a","system_id":"levelo_inurba_marseille","lat":43.30531,"lon":5.3654,"is_reserved":false,"is_disabled":false,"rental_uris":{"android":"levelo://app?vid=ccbd5d7c-b799-4e13-8dc0-00f4e98d5a5a","ios":"levelo://app?vid=ccbd5d7c-b799-4e13-8dc0-00f4e98d5a5a"},"vehicle_type_id":"4","last_reported":1734520063,"current_range_meters":28800,"station_id":"ce4bgs12rcd13ifvqcag","pricing_plan_id":"cebpf4jnsgd1na2vs0mg"},{"bike_id":"37e45a22-d82a-415b-9998-e8ce179e529a","system_id":"levelo_inurba_marseille","lat":43.27211,"lon":5.39185,"is_reserved":false,"is_disabled":false,"rental_uris":{"android":"levelo://app?vid=37e45a22-d82a-415b-9998-e8ce179e529a","ios":"levelo://app?vid=37e45a22-d82a-415b-9998-e8ce179e529a"},"vehicle_type_id":"4","last_reported":1734520063,"current_range_meters":26000,"station_id":"ce4bhhp2rcd13ifvqfm0","pricing_plan_id":"cebpf4jnsgd1na2vs0mg"},{"bike_id":"ce0c54c2-8af8-4550-bc39-3fc8ad33035d","system_id":"levelo_inurba_marseille","lat":43.29047,"lon":5.39964,"is_reserved":false,"is_disabled":true,"rental_uris":{"android":"levelo://app?vid=ce0c54c2-8af8-4550-bc39-3fc8ad33035d","ios":"levelo://app?vid=ce0c54c2-8af8-4550-bc39-3fc8ad33035d"},"vehicle_type_id":"4","last_reported":1734520063,"current_range_meters":16000,"station_id":"ce4bh392rcd13ifvqdm0","pricing_plan_id":"cebpf4jnsgd1na2vs0mg"},{"bike_id":"94dbe6ce-ba1d-41dd-b0cf-1f05a50be5b3","system_id":"levelo_inurba_marseille","lat":43.23193,"lon":5.35556,"is_reserved":false,"is_disabled":false,"rental_uris":{"android":"levelo://app?vid=94dbe6ce-ba1d-41dd-b0cf-1f05a50be5b3","ios":"levelo://app?vid=94dbe6ce-ba1d-41dd-b0cf-1f05a50be5b3"},"vehicle_type_id":"4","last_reported":1734520063,"current_range_meters":30400,"station_id":"ce4bhu92rcd13ifvqi70","pricing_plan_id":"cebpf4jnsgd1na2vs0mg"},{"bike_id":"d0593f90-4e1d-4b16-8cc8-b45632b4702f","system_id":"levelo_inurba_marseille","lat":43.2834,"lon":5.38109,"is_reserved":false,"is_disabled":true,"rental_uris":{"android":"levelo://app?vid=d0593f90-4e1d-4b16-8cc8-b45632b4702f","ios":"levelo://app?vid=d0593f90-4e1d-4b16-8cc8-b45632b4702f"},"vehicle_type_id":"4","last_reported":1734520063,"current_range_meters":28400,"station_id":"ce4bh412rcd13ifvqdr0","pricing_plan_id":"cebpf4jnsgd1na2vs0mg"},{"bike_id":"7b305c6f-361b-46c6-bcc8-6b2d9fd084fa","system_id":"levelo_inurba_marseille","lat":43.28122,"lon":5.44228,"is_reserved":false,"is_disabled":true,"rental_uris":{"android":"levelo://app?vid=7b305c6f-361b-46c6-bcc8-6b2d9fd084fa","ios":"levelo://app?vid=7b305c6f-361b-46c6-bcc8-6b2d9fd084fa"},"vehicle_type_id":"4","last_reported":1734520063,"current_range_meters":0,"station_id":"","pricing_plan_id":"cebpf4jnsgd1na2vs0mg"},{"bike_id":"096a7850-aaf4-4da2-8608-845011c432b5","system_id":"levelo_inurba_marseille","lat":43.33718,"lon":5.39244,"is_reserved":false,"is_disabled":false,"rental_uris":{"android":"levelo://app?vid=096a7850-aaf4-4da2-8608-845011c432b5","ios":"levelo://app?vid=096a7850-aaf4-4da2-8608-845011c432b5"},"vehicle_type_id":"4","last_reported":1734520063,"current_range_meters":38000,"station_id":"ce4bhr92rcd13ifvqhsg","pricing_plan_id":"cebpf4jnsgd1na2vs0mg"},{"bike_id":"e193505e-10a8-4b4b-8af5-b42f326d9e04","system_id":"levelo_inurba_marseille","lat":43.27061,"lon":5.40255,"is_reserved":false,"is_disabled":false,"rental_uris":{"android":"levelo://app?vid=e193505e-10a8-4b4b-8af5-b42f326d9e04","ios":"levelo://app?vid=e193505e-10a8-4b4b-8af5-b42f326d9e04"},"vehicle_type_id":"4","last_reported":1734520063,"current_range_meters":24800,"station_id":"ce4bhk92rcd13ifvqgc0","pricing_plan_id":"cebpf4jnsgd1na2vs0mg"},{"bike_id":"3edc45b8-586e-4ff3-98ae-bc0e92dab254","system_id":"levelo_inurba_marseille","lat":43.23183,"lon":5.39981,"is_reserved":false,"is_disabled":false,"rental_uris":{"android":"levelo://app?vid=3edc45b8-586e-4ff3-98ae-bc0e92dab254","ios":"levelo://app?vid=3edc45b8-586e-4ff3-98ae-bc0e92dab254"},"vehicle_type_id":"4","last_reported":1734520063,"current_range_meters":20400,"station_id":"ce4bhn12rcd13ifvqgqg","pricing_plan_id":"cebpf4jnsgd1na2vs0mg"},{"bike_id":"8d1c4201-2a72-4c4e-a53e-78bc816e5adf","system_id":"levelo_inurba_marseille","lat":43.26681,"lon":5.38272,"is_reserved":false,"is_disabled":false,"rental_uris":{"android":"levelo://app?vid=8d1c4201-2a72-4c4e-a53e-78bc816e5adf","ios":"levelo://app?vid=8d1c4201-2a72-4c4e-a53e-78bc816e5adf"},"vehicle_type_id":"4","last_reported":1734520063,"current_range_meters":36400,"station_id":"ce4bhg92rcd13ifvqf90","pricing_plan_id":"cebpf4jnsgd1na2vs0mg"},{"bike_id":"ae0e7118-6f59-4232-bfe0-1e559ebff2c0","system_id":"levelo_inurba_marseille","lat":43.3028,"lon":5.37707,"is_reserved":false,"is_disabled":false,"rental_uris":{"android":"levelo://app?vid=ae0e7118-6f59-4232-bfe0-1e559ebff2c0","ios":"levelo://app?vid=ae0e7118-6f59-4232-bfe0-1e559ebff2c0"},"vehicle_type_id":"4","last_reported":1734520063,"current_range_meters":37600,"station_id":"ce4bguh2rcd13ifvqcj0","pricing_plan_id":"cebpf4jnsgd1na2vs0mg"},{"bike_id":"8be087d3-9d6f-4250-a998-20bf5d178678","system_id":"levelo_inurba_marseille","lat":43.29305,"lon":5.37449,"is_reserved":false,"is_disabled":true,"rental_uris":{"android":"levelo://app?vid=8be087d3-9d6f-4250-a998-20bf5d178678","ios":"levelo://app?vid=8be087d3-9d6f-4250-a998-20bf5d178678"},"vehicle_type_id":"4","last_reported":1734520063,"current_range_meters":0,"station_id":"ce4bgi12rcd13ifvqb70","pricing_plan_id":"cebpf4jnsgd1na2vs0mg"},{"bike_id":"14e3ef8f-f8d3-42a0-a10d-8e40e0604c52","system_id":"levelo_inurba_marseille","lat":43.30213,"lon":5.39467,"is_reserved":false,"is_disabled":false,"rental_uris":{"android":"levelo://app?vid=14e3ef8f-f8d3-42a0-a10d-8e40e0604c52","ios":"levelo://app?vid=14e3ef8f-f8d3-42a0-a10d-8e40e0604c52"},"vehicle_type_id":"4","last_reported":1734520063,"current_range_meters":38800,"station_id":"ce4bh0p2rcd13ifvqd70","pricing_plan_id":"cebpf4jnsgd1na2vs0mg"},{"bike_id":"b94807de-62f6-476f-b075-78c3ad1001f2","system_id":"levelo_inurba_marseille","lat":43.29614,"lon":5.37746,"is_reserved":false,"is_disabled":false,"rental_uris":{"android":"levelo://app?vid=b94807de-62f6-476f-b075-78c3ad1001f2","ios":"levelo://app?vid=b94807de-62f6-476f-b075-78c3ad1001f2"},"vehicle_type_id":"4","last_reported":1734520063,"current_range_meters":13600,"station_id":"ce4bgi92rcd13ifvqb90","pricing_plan_id":"cebpf4jnsgd1na2vs0mg"},{"bike_id":"c6c53dc5-aa8a-42a5-877f-711cb7eecb5e","system_id":"levelo_inurba_marseille","lat":43.31715,"lon":5.3777,"is_reserved":false,"is_disabled":false,"rental_uris":{"android":"levelo://app?vid=c6c53dc5-aa8a-42a5-877f-711cb7eecb5e","ios":"levelo://app?vid=c6c53dc5-aa8a-42a5-877f-711cb7eecb5e"},"vehicle_type_id":"4","last_reported":1734520063,"current_range_meters":34800,"station_id":"ce4bgth2rcd13ifvqch0","pricing_plan_id":"cebpf4jnsgd1na2vs0mg"},{"bike_id":"4ba3c271-8664-4d2d-bc52-e9bc05d98e16","system_id":"levelo_inurba_marseille","lat":43.34135,"lon":5.40909,"is_reserved":false,"is_disabled":false,"rental_uris":{"android":"levelo://app?vid=4ba3c271-8664-4d2d-bc52-e9bc05d98e16","ios":"levelo://app?vid=4ba3c271-8664-4d2d-bc52-e9bc05d98e16"},"vehicle_type_id":"4","last_reported":1734520063,"current_range_meters":8800,"station_id":"ce4bhqh2rcd13ifvqhlg","pricing_plan_id":"cebpf4jnsgd1na2vs0mg"},{"bike_id":"d51b49fa-b8ee-45fb-ae69-b5c3f9283df6","system_id":"levelo_inurba_marseille","lat":43.30293,"lon":5.37702,"is_reserved":false,"is_disabled":false,"rental_uris":{"android":"levelo://app?vid=d51b49fa-b8ee-45fb-ae69-b5c3f9283df6","ios":"levelo://app?vid=d51b49fa-b8ee-45fb-ae69-b5c3f9283df6"},"vehicle_type_id":"4","last_reported":1734520063,"current_range_meters":36800,"station_id":"ce4bguh2rcd13ifvqcj0","pricing_plan_id":"cebpf4jnsgd1na2vs0mg"},{"bike_id":"30491678-004f-485c-80a6-7f4159bddc2b","system_id":"levelo_inurba_marseille","lat":43.27307,"lon":5.39148,"is_reserved":false,"is_disabled":false,"rental_uris":{"android":"levelo://app?vid=30491678-004f-485c-80a6-7f4159bddc2b","ios":"levelo://app?vid=30491678-004f-485c-80a6-7f4159bddc2b"},"vehicle_type_id":"4","last_reported":1734520063,"current_range_meters":12800,"station_id":"","pricing_plan_id":"cebpf4jnsgd1na2vs0mg"},{"bike_id":"15b06ab3-5941-43b5-a9a5-ceb90aabbb54","system_id":"levelo_inurba_marseille","lat":43.22933,"lon":5.35386,"is_reserved":false,"is_disabled":false,"rental_uris":{"android":"levelo://app?vid=15b06ab3-5941-43b5-a9a5-ceb90aabbb54","ios":"levelo://app?vid=15b06ab3-5941-43b5-a9a5-ceb90aabbb54"},"vehicle_type_id":"4","last_reported":1734520063,"current_range_meters":38800,"station_id":"cpo3532slgdg3j2ikp40","pricing_plan_id":"cebpf4jnsgd1na2vs0mg"},{"bike_id":"0e77c141-800c-416c-b581-ace10c0088d9","system_id":"levelo_inurba_marseille","lat":43.31241,"lon":5.36884,"is_reserved":false,"is_disabled":false,"rental_uris":{"android":"levelo://app?vid=0e77c141-800c-416c-b581-ace10c0088d9","ios":"levelo://app?vid=0e77c141-800c-416c-b581-ace10c0088d9"},"vehicle_type_id":"4","last_reported":1734520063,"current_range_meters":38800,"station_id":"ce4bgl92rcd13ifvqbq0","pricing_plan_id":"cebpf4jnsgd1na2vs0mg"},{"bike_id":"10e41bb7-9a61-4753-bcbd-6280b08c0d4a","system_id":"levelo_inurba_marseille","lat":43.24401,"lon":5.37073,"is_reserved":false,"is_disabled":false,"rental_uris":{"android":"levelo://app?vid=10e41bb7-9a61-4753-bcbd-6280b08c0d4a","ios":"levelo://app?vid=10e41bb7-9a61-4753-bcbd-6280b08c0d4a"},"vehicle_type_id":"4","last_reported":1734520063,"current_range_meters":32800,"station_id":"ce4bhhh2rcd13ifvqfk0","pricing_plan_id":"cebpf4jnsgd1na2vs0mg"},{"bike_id":"6a0ae4c9-6ed4-4a44-b5f0-9a425887e29c","system_id":"levelo_inurba_marseille","lat":43.30361,"lon":5.4188,"is_reserved":false,"is_disabled":true,"rental_uris":{"android":"levelo://app?vid=6a0ae4c9-6ed4-4a44-b5f0-9a425887e29c","ios":"levelo://app?vid=6a0ae4c9-6ed4-4a44-b5f0-9a425887e29c"},"vehicle_type_id":"4","last_reported":1734520063,"current_range_meters":0,"station_id":"ce4bhop2rcd13ifvqh7g","pricing_plan_id":"cebpf4jnsgd1na2vs0mg"},{"bike_id":"72fea482-008f-4ef7-932a-3d224668388b","system_id":"levelo_inurba_marseille","lat":43.25003,"lon":5.38939,"is_reserved":false,"is_disabled":false,"rental_uris":{"android":"levelo://app?vid=72fea482-008f-4ef7-932a-3d224668388b","ios":"levelo://app?vid=72fea482-008f-4ef7-932a-3d224668388b"},"vehicle_type_id":"4","last_reported":1734520063,"current_range_meters":34800,"station_id":"ce4bhgp2rcd13ifvqfd0","pricing_plan_id":"cebpf4jnsgd1na2vs0mg"},{"bike_id":"e3423766-ff70-4b7b-a941-b3f451968318","system_id":"levelo_inurba_marseille","lat":43.29551,"lon":5.42284,"is_reserved":false,"is_disabled":true,"rental_uris":{"android":"levelo://app?vid=e3423766-ff70-4b7b-a941-b3f451968318","ios":"levelo://app?vid=e3423766-ff70-4b7b-a941-b3f451968318"},"vehicle_type_id":"4","last_reported":1734520063,"current_range_meters":39200,"station_id":"ce4bhph2rcd13ifvqhdg","pricing_plan_id":"cebpf4jnsgd1na2vs0mg"},{"bike_id":"7761074d-0bde-4e63-828e-f822e106ba8a","system_id":"levelo_inurba_marseille","lat":43.23193,"lon":5.39983,"is_reserved":false,"is_disabled":false,"rental_uris":{"android":"levelo://app?vid=7761074d-0bde-4e63-828e-f822e106ba8a","ios":"levelo://app?vid=7761074d-0bde-4e63-828e-f822e106ba8a"},"vehicle_type_id":"4","last_reported":1734520063,"current_range_meters":30000,"station_id":"ce4bhn12rcd13ifvqgqg","pricing_plan_id":"cebpf4jnsgd1na2vs0mg"},{"bike_id":"a121132b-e035-4b44-8ab3-ac4ffb0ba365","system_id":"levelo_inurba_marseille","lat":43.29528,"lon":5.39052,"is_reserved":false,"is_disabled":false,"rental_uris":{"android":"levelo://app?vid=a121132b-e035-4b44-8ab3-ac4ffb0ba365","ios":"levelo://app?vid=a121132b-e035-4b44-8ab3-ac4ffb0ba365"},"vehicle_type_id":"4","last_reported":1734520063,"current_range_meters":17200,"station_id":"ce4bh3p2rcd13ifvqdp0","pricing_plan_id":"cebpf4jnsgd1na2vs0mg"},{"bike_id":"6ce9968a-b11d-4e40-8ad3-d7416c7c405b","system_id":"levelo_inurba_marseille","lat":43.31088,"lon":5.42432,"is_reserved":false,"is_disabled":false,"rental_uris":{"android":"levelo://app?vid=6ce9968a-b11d-4e40-8ad3-d7416c7c405b","ios":"levelo://app?vid=6ce9968a-b11d-4e40-8ad3-d7416c7c405b"},"vehicle_type_id":"4","last_reported":1734520063,"current_range_meters":38800,"station_id":"ce4bhp92rcd13ifvqhag","pricing_plan_id":"cebpf4jnsgd1na2vs0mg"},{"bike_id":"a03324ca-6877-45ce-9ed5-a69489b4fb3c","system_id":"levelo_inurba_marseille","lat":43.26213,"lon":5.37444,"is_reserved":false,"is_disabled":false,"rental_uris":{"android":"levelo://app?vid=a03324ca-6877-45ce-9ed5-a69489b4fb3c","ios":"levelo://app?vid=a03324ca-6877-45ce-9ed5-a69489b4fb3c"},"vehicle_type_id":"4","last_reported":1734520063,"current_range_meters":38800,"station_id":"ce4bhgp2rcd13ifvqfc0","pricing_plan_id":"cebpf4jnsgd1na2vs0mg"},