{"last_updated":1685905461,"ttl":30,"version":"2.2","data":{"bikes":[{"bike_id":"bcd96609-76ec-4fd5-9f76-2f5ebb1e87c6","system_id":"levelo_inurba_marseille","lat":43.312239,"lon":5.368562,"is_reserved":false,"is_disabled":false,"rental_uris":{"android":"levelo://app?vid=bcd96609-76ec-4fd5-9f76-2f5ebb1e87c6","ios":"levelo://app?vid=bcd96609-76ec-4fd5-9f76-2f5ebb1e87c6"},"vehicle_type_id":"4","last_reported":1685905461,"current_range_meters":17200,"station_id":"ce4bgl92rcd13ifvqbq0","pricing_plan_id":"free"},{"bike_id":"40638abb-1f51-4ae6-ada0-e2dac9f496c8","system_id":"levelo_inurba_marseille","lat":43.314811,"lon":5.373103,"is_reserved":false,"is_disabled":false,"rental_uris":{"android":"levelo://app?vid=40638abb-1f51-4ae6-ada0-e2dac9f496c8","ios":"levelo://app?vid=40638abb-1f51-4ae6-ada0-e2dac9f496c8"},"vehicle_type_id":"4","last_reported":1685905461,"current_range_meters":400,"station_id":"ce4bgt12rcd13ifvqcd0","pricing_plan_id":"free"},{"bike_id":"1ebd0928-1fba-4e6c-b794-31a38f27c067","system_id":"levelo_inurba_marseille","lat":43.30805,"lon":5.36995,"is_reserved":false,"is_disabled":false,"rental_uris":{"android":"levelo://app?vid=1ebd0928-1fba-4e6c-b794-31a38f27c067","ios":"levelo://app?vid=1ebd0928-1fba-4e6c-b794-31a38f27c067"},"vehicle_type_id":"4","last_reported":1685905461,"current_range_meters":23200,"station_id":"","pricing_plan_id":"free"},{"bike_id":"f96f6a07-7d5c-412f-8e44-167ea946485b","system_id":"levelo_inurba_marseille","lat":43.30891,"lon":5.37182,"is_reserved":false,"is_disabled":false,"rental_uris":{"android":"levelo://app?vid=f96f6a07-7d5c-412f-8e44-167ea946485b","ios":"levelo://app?vid=f96f6a07-7d5c-412f-8e44-167ea946485b"},"vehicle_type_id":"4","last_reported":1685905461,"current_range_meters":0,"station_id":"","pricing_plan_id":"free"},{"bike_id":"4d43e892-ec90-4fce-8475-f727fed3851f","system_id":"levelo_inurba_marseille","lat":43.31797,"lon":5.36821,"is_reserved":false,"is_disabled":false,"rental_uris":{"android":"levelo://app?vid=4d43e892-ec90-4fce-8475-f727fed3851f","ios":"levelo://app?vid=4d43e892-ec90-4fce-8475-f727fed3851f"},"vehicle_type_id":"4","last_reported":1685905461,"current_range_meters":0,"station_id":"","pricing_plan_id":"free"},{"bike_id":"f51b3cb8-f96d-4658-a3b4-0d41559754f9","system_id":"levelo_inurba_marseille","lat":43.30925,"lon":5.3729,"is_reserved":false,"is_disabled":false,"rental_uris":{"android":"levelo://app?vid=f51b3cb8-f96d-4658-a3b4-0d41559754f9","ios":"levelo://app?vid=f51b3cb8-f96d-4658-a3b4-0d41559754f9"},"vehicle_type_id":"4","last_reported":1685905461,"current_range_meters":27600,"station_id":"","pricing_plan_id":"free"},{"bike_id":"a2bcefb7-d80b-474e-a9b3-abecb50796eb","system_id":"levelo_inurba_marseille","lat":43.30839,"lon":5.37181,"is_reserved":false,"is_disabled":false,"rental_uris":{"android":"levelo://app?vid=a2bcefb7-d80b-474e-a9b3-abecb50796eb","ios":"levelo://app?vid=a2bcefb7-d80b-474e-a9b3-abecb50796eb"},"vehicle_type_id":"4","last_reported":1685905461,"current_range_meters":29200,"station_id":"","pricing_plan_id":"free"},{"bike_id":"048be98a-d3e1-4397-bf58-9e37d125046f","system_id":"levelo_inurba_marseille","lat":43.3182,"lon":5.36923,"is_reserved":false,"is_disabled":false,"rental_uris":{"android":"levelo://app?vid=048be98a-d3e1-4397-bf58-9e37d125046f","ios":"levelo://app?vid=048be98a-d3e1-4397-bf58-9e37d125046f"},"vehicle_type_id":"4","last_reported":1685905461,"current_range_meters":9600,"station_id":"","pricing_plan_id":"free"},{"bike_id":"3c27a7eb-ece5-4790-837a-fa06622995d2","system_id":"levelo_inurba_marseille","lat":43.305989,"lon":5.37225,"is_reserved":false,"is_disabled":false,"rental_uris":{"android":"levelo://app?vid=3c27a7eb-ece5-4790-837a-fa06622995d2","ios":"levelo://app?vid=3c27a7eb-ece5-4790-837a-fa06622995d2"},"vehicle_type_id":"4","last_reported":1685905461,"current_range_meters":23200,"station_id":"ce4bgqh2rcd13ifvqc4g","pricing_plan_id":"free"},{"bike_id":"e91e9d3d-4be1-4088-9b07-7d3f10b598d6","system_id":"levelo_inurba_marseille","lat":43.31152,"lon":5.37776,"is_reserved":false,"is_disabled":false,"rental_uris":{"android":"levelo://app?vid=e91e9d3d-4be1-4088-9b07-7d3f10b598d6","ios":"levelo://app?vid=e91e9d3d-4be1-4088-9b07-7d3f10b598d6"},"vehicle_type_id":"4","last_reported":1685905461,"current_range_meters":6800,"station_id":"","pricing_plan_id":"free"},{"bike_id":"9b5d6a66-f06b-4c93-befb-1a2161dfb7a6","system_id":"levelo_inurba_marseille","lat":43.311175,"lon":5.377713,"is_reserved":false,"is_disabled":false,"rental_uris":{"android":"levelo://app?vid=9b5d6a66-f06b-4c93-befb-1a2161dfb7a6","ios":"levelo://app?vid=9b5d6a66-f06b-4c93-befb-1a2161dfb7a6"},"vehicle_type_id":"4","last_reported":1685905461,"current_range_meters":16400,"station_id":"","pricing_plan_id":"free"},{"bike_id":"37d24745-bdea-449d-a32b-0cb5fbd20563","system_id":"levelo_inurba_marseille","lat":43.303046,"lon":5.368981,"is_reserved":false,"is_disabled":false,"rental_uris":{"android":"levelo://app?vid=37d24745-bdea-449d-a32b-0cb5fbd20563","ios":"levelo://app?vid=37d24745-bdea-449d-a32b-0cb5fbd20563"},"vehicle_type_id":"4","last_reported":1685905461,"current_range_meters":8800,"station_id":"ce4bgqh2rcd13ifvqc5g","pricing_plan_id":"free"},{"bike_id":"732f00a7-92a2-43d5-ac7a-78b0dea6415c","system_id":"levelo_inurba_marseille","lat":43.31538,"lon":5.38025,"is_reserved":false,"is_disabled":false,"rental_uris":{"android":"levelo://app?vid=732f00a7-92a2-43d5-ac7a-78b0dea6415c","ios":"levelo://app?vid=732f00a7-92a2-43d5-ac7a-78b0dea6415c"},"vehicle_type_id":"4","last_reported":1685905461,"current_range_meters":9200,"station_id":"ce4bhsp2rcd13ifvqi50","pricing_plan_id":"free"},{"bike_id":"ee89d981-1e31-4afa-b807-5b227902ae45","system_id":"levelo_inurba_marseille","lat":43.315289,"lon":5.380349,"is_reserved":false,"is_disabled":false,"rental_uris":{"android":"levelo://app?vid=ee89d981-1e31-4afa-b807-5b227902ae45","ios":"levelo://app?vid=ee89d981-1e31-4afa-b807-5b227902ae45"},"vehicle_type_id":"4","last_reported":1685905461,"current_range_meters":4400,"station_id":"ce4bhsp2rcd13ifvqi50","pricing_plan_id":"free"},{"bike_id":"87f83aa8-51f7-4130-88bc-4e7d521dcc10","system_id":"levelo_inurba_marseille","lat":43.31531,"lon":5.38029,"is_reserved":false,"is_disabled":false,"rental_uris":{"android":"levelo://app?vid=87f83aa8-51f7-4130-88bc-4e7d521dcc10","ios":"levelo://app?vid=87f83aa8-51f7-4130-88bc-4e7d521dcc10"},"vehicle_type_id":"4","last_reported":1685905461,"current_range_meters":8000,"station_id":"ce4bhsp2rcd13ifvqi50","pricing_plan_id":"free"},{"bike_id":"ed285243-cf16-482b-bbf1-88e476e330ab","system_id":"levelo_inurba_marseille","lat":43.315289,"lon":5.380349,"is_reserved":false,"is_disabled":false,"rental_uris":{"android":"levelo://app?vid=ed285243-cf16-482b-bbf1-88e476e330ab","ios":"levelo://app?vid=ed285243-cf16-482b-bbf1-88e476e330ab"},"vehicle_type_id":"4","last_reported":1685905461,"current_range_meters":14000,"station_id":"ce4bhsp2rcd13ifvqi50","pricing_plan_id":"free"},{"bike_id":"4455b440-4c16-4419-a615-385d635d76e2","system_id":"levelo_inurba_marseille","lat":43.319935,"lon":5.381699,"is_reserved":false,"is_disabled":false,"rental_uris":{"android":"levelo://app?vid=4455b440-4c16-4419-a615-385d635d76e2","ios":"levelo://app?vid=4455b440-4c16-4419-a615-385d635d76e2"},"vehicle_type_id":"4","last_reported":1685905461,"current_range_meters":10800,"station_id":"ce4bhr12rcd13ifvqhpg","pricing_plan_id":"free"},{"bike_id":"222097d8-5fea-40e4-888f-25f9e6ce2577","system_id":"levelo_inurba_marseille","lat":43.31535,"lon":5.38035,"is_reserved":false,"is_disabled":false,"rental_uris":{"android":"levelo://app?vid=222097d8-5fea-40e4-888f-25f9e6ce2577","ios":"levelo://app?vid=222097d8-5fea-40e4-888f-25f9e6ce2577"},"vehicle_type_id":"4","last_reported":1685905461,"current_range_meters":26800,"station_id":"ce4bhsp2rcd13ifvqi50","pricing_plan_id":"free"},{"bike_id":"65e71f90-37c9-40f5-950e-3aa3a1e3f815","system_id":"levelo_inurba_marseille","lat":43.304606,"lon":5.379026,"is_reserved":false,"is_disabled":false,"rental_uris":{"android":"levelo://app?vid=65e71f90-37c9-40f5-950e-3aa3a1e3f815","ios":"levelo://app?vid=65e71f90-37c9-40f5-950e-3aa3a1e3f815"},"vehicle_type_id":"4","last_reported":1685905461,"current_range_meters":10800,"station_id":"ce4bgup2rcd13ifvqcn0","pricing_plan_id":"free"},{"bike_id":"cc998055-5de5-443f-962d-56b614a7f54b","system_id":"levelo_inurba_marseille","lat":43.304606,"lon":5.379026,"is_reserved":false,"is_disabled":false,"rental_uris":{"android":"levelo://app?vid=cc998055-5de5-443f-962d-56b614a7f54b","ios":"levelo://app?vid=cc998055-5de5-443f-962d-56b614a7f54b"},"vehicle_type_id":"4","last_reported":1685905461,"current_range_meters":20000,"station_id":"ce4bgup2rcd13ifvqcn0","pricing_plan_id":"free"},{"bike_id":"1f1dc83b-8ccb-4689-a2db-9ce7e1fda49c","system_id":"levelo_inurba_marseille","lat":43.319935,"lon":5.381699,"is_reserved":false,"is_disabled":false,"rental_uris":{"android":"levelo://app?vid=1f1dc83b-8ccb-4689-a2db-9ce7e1fda49c","ios":"levelo://app?vid=1f1dc83b-8ccb-4689-a2db-9ce7e1fda49c"},"vehicle_type_id":"4","last_reported":1685905461,"current_range_meters":2800,"station_id":"ce4bhr12rcd13ifvqhpg","pricing_plan_id":"free"},{"bike_id":"35369de5-2325-46f5-91e2-654f2d5c1102","system_id":"levelo_inurba_marseille","lat":43.319935,"lon":5.381699,"is_reserved":false,"is_disabled":false,"rental_uris":{"android":"levelo://app?vid=35369de5-2325-46f5-91e2-654f2d5c1102","ios":"levelo://app?vid=35369de5-2325-46f5-91e2-654f2d5c1102"},"vehicle_type_id":"4","last_reported":1685905461,"current_range_meters":16000,"station_id":"ce4bhr12rcd13ifvqhpg","pricing_plan_id":"free"},{"bike_id":"994fd81e-6db6-4408-acc8-bec511d624f9","system_id":"levelo_inurba_marseille","lat":43.319935,"lon":5.381699,"is_reserved":false,"is_disabled":false,"rental_uris":{"android":"levelo://app?vid=994fd81e-6db6-4408-acc8-bec511d624f9","ios":"levelo://app?vid=994fd81e-6db6-4408-acc8-bec511d624f9"},"vehicle_type_id":"4","last_reported":1685905461,"current_range_meters":15600,"station_id":"ce4bhr12rcd13ifvqhpg","pricing_plan_id":"free"},{"bike_id":"7f296a06-238a-4357-bec7-1e7451d8c132","system_id":"levelo_inurba_marseille","lat":43.319935,"lon":5.381699,"is_reserved":false,"is_disabled":false,"rental_uris":{"android":"levelo://app?vid=7f296a06-238a-4357-bec7-1e7451d8c132","ios":"levelo://app?vid=7f296a06-238a-4357-bec7-1e7451d8c132"},"vehicle_type_id":"4","last_reported":1685905461,"current_range_meters":27200,"station_id":"ce4bhr12rcd13ifvqhpg","pricing_plan_id":"free"},{"bike_id":"551645a8-cb8f-4080-9786-5664c0090b20","system_id":"levelo_inurba_marseille","lat":43.31358,"lon":5.38502,"is_reserved":false,"is_disabled":false,"rental_uris":{"android":"levelo://app?vid=551645a8-cb8f-4080-9786-5664c0090b20","ios":"levelo://app?vid=551645a8-cb8f-4080-9786-5664c0090b20"},"vehicle_type_id":"4","last_reported":1685905461,"current_range_meters":0,"station_id":"ce4bgt92rcd13ifvqcf0","pricing_plan_id":"free"},{"bike_id":"36136d78-2be3-4b19-a90a-7711a04c3c3a","system_id":"levelo_inurba_marseille","lat":43.3136,"lon":5.38519,"is_reserved":false,"is_disabled":false,"rental_uris":{"android":"levelo://app?vid=36136d78-2be3-4b19-a90a-7711a04c3c3a","ios":"levelo://app?vid=36136d78-2be3-4b19-a90a-7711a04c3c3a"},"vehicle_type_id":"4","last_reported":1685905461,"current_range_meters":14800,"station_id":"","pricing_plan_id":"free"},{"bike_id":"5a9236f9-31d7-43d0-bc37-881d94aeaffd","system_id":"levelo_inurba_marseille","lat":43.305364,"lon":5.384119,"is_reserved":false,"is_disabled":false,"rental_uris":{"android":"levelo://app?vid=5a9236f9-31d7-43d0-bc37-881d94aeaffd","ios":"levelo://app?vid=5a9236f9-31d7-43d0-bc37-881d94aeaffd"},"vehicle_type_id":"4","last_reported":1685905461,"current_range_meters":13600,"station_id":"ce4bgg92rcd13ifvqb30","pricing_plan_id":"free"},{"bike_id":"9a3b4cb2-76d9-46d1-8444-f23ecbcd2f3a","system_id":"levelo_inurba_marseille","lat":43.305364,"lon":5.384119,"is_reserved":false,"is_disabled":false,"rental_uris":{"android":"levelo://app?vid=9a3b4cb2-76d9-46d1-8444-f23ecbcd2f3a","ios":"levelo://app?vid=9a3b4cb2-76d9-46d1-8444-f23ecbcd2f3a"},"vehicle_type_id":"4","last_reported":1685905461,"current_range_meters":18800,"station_id":"ce4bgg92rcd13ifvqb30","pricing_plan_id":"free"},{"bike_id":"dbb83ea0-35a9-4fb5-af25-969123b9250d","system_id":"levelo_inurba_marseille","lat":43.29839,"lon":5.3628,"is_reserved":false,"is_disabled":false,"rental_uris":{"android":"levelo://app?vid=dbb83ea0-35a9-4fb5-af25-969123b9250d","ios":"levelo://app?vid=dbb83ea0-35a9-4fb5-af25-969123b9250d"},"vehicle_type_id":"4","last_reported":1685905461,"current_range_meters":800,"station_id":"ce4bgpp2rcd13ifvqc3g","pricing_plan_id":"free"},{"bike_id":"15f8b337-72e3-47fb-ba5f-dd291a0fd9bd","system_id":"levelo_inurba_marseille","lat":43.299243,"lon":5.374807,"is_reserved":false,"is_disabled":false,"rental_uris":{"android":"levelo://app?vid=15f8b337-72e3-47fb-ba5f-dd291a0fd9bd","ios":"levelo://app?vid=15f8b337-72e3-47fb-ba5f-dd291a0fd9bd"},"vehicle_type_id":"4","last_reported":1685905461,"current_range_meters":17600,"station_id":"ce4bgjh2rcd13ifvqbg0","pricing_plan_id":"free"},{"bike_id":"9089e0b8-46be-4db6-80f4-7c11463a4fda","system_id":"levelo_inurba_marseille","lat":43.311722,"lon":5.387247,"is_reserved":false,"is_disabled":false,"rental_uris":{"android":"levelo://app?vid=9089e0b8-46be-4db6-80f4-7c11463a4fda","ios":"levelo://app?vid=9089e0b8-46be-4db6-80f4-7c11463a4fda"},"vehicle_type_id":"4","last_reported":1685905461,"current_range_meters":28800,"station_id":"ce4bgv12rcd13ifvqcp0","pricing_plan_id":"free"},{"bike_id":"531d6e55-508f-411c-91b2-5fe710d32b13","system_id":"levelo_inurba_marseille","lat":43.311722,"lon":5.387247,"is_reserved":false,"is_disabled":false,"rental_uris":{"android":"levelo://app?vid=531d6e55-508f-411c-91b2-5fe710d32b13","ios":"levelo://app?vid=531d6e55-508f-411c-91b2-5fe710d32b13"},"vehicle_type_id":"4","last_reported":1685905461,"current_range_meters":23200,"station_id":"ce4bgv12rcd13ifvqcp0","pricing_plan_id":"free"},{"bike_id":"0d7a3e3e-fbd3-488b-a8ff-4e04679f05b4","system_id":"levelo_inurba_marseille","lat":43.31169,"lon":5.38715,"is_reserved":false,"is_disabled":false,"rental_uris":{"android":"levelo://app?vid=0d7a3e3e-fbd3-488b-a8ff-4e04679f05b4","ios":"levelo://app?vid=0d7a3e3e-fbd3-488b-a8ff-4e04679f05b4"},"vehicle_type_id":"4","last_reported":1685905461,"current_range_meters":20400,"station_id":"ce4bgv12rcd13ifvqcp0","pricing_plan_id":"free"},{"bike_id":"7aaf6b2c-c83b-4314-986c-170197d2cdb0","system_id":"levelo_inurba_marseille","lat":43.311722,"lon":5.387247,"is_reserved":false,"is_disabled":false,"rental_uris":{"android":"levelo://app?vid=7aaf6b2c-c83b-4314-986c-170197d2cdb0","ios":"levelo://app?vid=7aaf6b2c-c83b-4314-986c-170197d2cdb0"},"vehicle_type_id":"4","last_reported":1685905461,"current_range_meters":22800,"station_id":"ce4bgv12rcd13ifvqcp0","pricing_plan_id":"free"},{"bike_id":"ae764e25-6fcd-4044-96e4-d2f3bc65b627","system_id":"levelo_inurba_marseille","lat":43.299243,"lon":5.37481,"is_reserved":false,"is_disabled":false,"rental_uris":{"android":"levelo://app?vid=ae764e25-6fcd-4044-96e4-d2f3bc65b627","ios":"levelo://app?vid=ae764e25-6fcd-4044-96e4-d2f3bc65b627"},"vehicle_type_id":"4","last_reported":1685905461,"current_range_meters":12000,"station_id":"ce4bgjh2rcd13ifvqbg0","pricing_plan_id":"free"},{"bike_id":"2ed8494d-763d-43d5-9f79-f3271c790bec","system_id":"levelo_inurba_marseille","lat":43.297774,"lon":5.370875,"is_reserved":false,"is_disabled":false,"rental_uris":{"android":"levelo://app?vid=2ed8494d-763d-43d5-9f79-f3271c790bec","ios":"levelo://app?vid=2ed8494d-763d-43d5-9f79-f3271c790bec"},"vehicle_type_id":"4","last_reported":1685905461,"current_range_meters":28400,"station_id":"ce4bgop2rcd13ifvqc1g","pricing_plan_id":"free"},{"bike_id":"978e70a6-05e3-4195-a7d5-d87e96e9c7d5","system_id":"levelo_inurba_marseille","lat":43.297794,"lon":5.370888,"is_reserved":false,"is_disabled":false,"rental_uris":{"android":"levelo://app?vid=978e70a6-05e3-4195-a7d5-d87e96e9c7d5","ios":"levelo://app?vid=978e70a6-05e3-4195-a7d5-d87e96e9c7d5"},"vehicle_type_id":"4","last_reported":1685905461,"current_range_meters":18000,"station_id":"ce4bgop2rcd13ifvqc1g","pricing_plan_id":"free"},{"bike_id":"9cdfc76d-fefe-4e3f-886b-5d7fa5465a0e","system_id":"levelo_inurba_marseille","lat":43.32813,"lon":5.36692,"is_reserved":false,"is_disabled":false,"rental_uris":{"android":"levelo://app?vid=9cdfc76d-fefe-4e3f-886b-5d7fa5465a0e","ios":"levelo://app?vid=9cdfc76d-fefe-4e3f-886b-5d7fa5465a0e"},"vehicle_type_id":"4","last_reported":1685905461,"current_range_meters":1600,"station_id":"","pricing_plan_id":"free"},{"bike_id":"a9f06d18-dafd-47fb-81c1-49c3c84a4e47","system_id":"levelo_inurba_marseille","lat":43.328371,"lon":5.366909,"is_reserved":false,"is_disabled":false,"rental_uris":{"android":"levelo://app?vid=a9f06d18-dafd-47fb-81c1-49c3c84a4e47","ios":"levelo://app?vid=a9f06d18-dafd-47fb-81c1-49c3c84a4e47"},"vehicle_type_id":"4","last_reported":1685905461,"current_range_meters":0,"station_id":"ce4bhs92rcd13ifvqi0g","pricing_plan_id":"free"},{"bike_id":"5a3f0615-0d94-4a62-9eb9-c286b2b38d0f","system_id":"levelo_inurba_marseille","lat":43.328371,"lon":5.366909,"is_reserved":false,"is_disabled":false,"rental_uris":{"android":"levelo://app?vid=5a3f0615-0d94-4a62-9eb9-c286b2b38d0f","ios":"levelo://app?vid=5a3f0615-0d94-4a62-9eb9-c286b2b38d0f"},"vehicle_type_id":"4","last_reported":1685905461,"current_range_meters":25200,"station_id":"ce4bhs92rcd13ifvqi0g","pricing_plan_id":"free"},{"bike_id":"93fe580d-71c0-4856-a27e-71bfe60b8232","system_id":"levelo_inurba_marseille","lat":43.3283,"lon":5.36691,"is_reserved":false,"is_disabled":false,"rental_uris":{"android":"levelo://app?vid=93fe580d-71c0-4856-a27e-71bfe60b8232","ios":"levelo://app?vid=93fe580d-71c0-4856-a27e-71bfe60b8232"},"vehicle_type_id":"4","last_reported":1685905461,"current_range_meters":20000,"station_id":"ce4bhs92rcd13ifvqi0g","pricing_plan_id":"free"},{"bike_id":"c957c23a-5f71-48b3-920d-3eb9d16491cd","system_id":"levelo_inurba_marseille","lat":43.32831,"lon":5.36682,"is_reserved":false,"is_disabled":false,"rental_uris":{"android":"levelo://app?vid=c957c23a-5f71-48b3-920d-3eb9d16491cd","ios":"levelo://app?vid=c957c23a-5f71-48b3-920d-3eb9d16491cd"},"vehicle_type_id":"4","last_reported":1685905461,"current_range_meters":25200,"station_id":"ce4bhs92rcd13ifvqi0g","pricing_plan_id":"free"},{"bike_id":"0a2644ee-3284-46a4-b383-c1008b4493c6","system_id":"levelo_inurba_marseille","lat":43.32831,"lon":5.36679,"is_reserved":false,"is_disabled":false,"rental_uris":{"android":"levelo://app?vid=0a2644ee-3284-46a4-b383-c1008b4493c6","ios":"levelo://app?vid=0a2644ee-3284-46a4-b383-c1008b4493c6"},"vehicle_type_id":"4","last_reported":1685905461,"current_range_meters":24800,"station_id":"ce4bhs92rcd13ifvqi0g","pricing_plan_id":"free"},{"bike_id":"0a8d8c78-668e-4bfd-b627-75e7821f9637","system_id":"levelo_inurba_marseille","lat":43.328371,"lon":5.366909,"is_reserved":false,"is_disabled":false,"rental_uris":{"android":"levelo://app?vid=0a8d8c78-668e-4bfd-b627-75e7821f9637","ios":"levelo://app?vid=0a8d8c78-668e-4bfd-b627-75e7821f9637"},"vehicle_type_id":"4","last_reported":1685905461,"current_range_meters":14400,"station_id":"ce4bhs92rcd13ifvqi0g","pricing_plan_id":"free"},{"bike_id":"fcfa8df2-9e76-4249-b61d-9fc48b640c7e","system_id":"levelo_inurba_marseille","lat":43.328371,"lon":5.366909,"is_reserved":false,"is_disabled":false,"rental_uris":{"android":"levelo://app?vid=fcfa8df2-9e76-4249-b61d-9fc48b640c7e","ios":"levelo://app?vid=fcfa8df2-9e76-4249-b61d-9fc48b640c7e"},"vehicle_type_id":"4","last_reported":1685905461,"current_range_meters":16000,"station_id":"ce4bhs92rcd13ifvqi0g","pricing_plan_id":"free"},{"bike_id":"b9cf6557-2db2-4828-97f1-13a369745ef6","system_id":"levelo_inurba_marseille","lat":43.32758,"lon":5.37481,"is_reserved":false,"is_disabled":false,"rental_uris":{"android":"levelo://app?vid=b9cf6557-2db2-4828-97f1-13a369745ef6","ios":"levelo://app?vid=b9cf6557-2db2-4828-97f1-13a369745ef6"},"vehicle_type_id":"4","last_reported":1685905461,"current_range_meters":4000,"station_id":"","pricing_plan_id":"free"},{"bike_id":"40c6b45f-08a4-4789-9896-47d41a537e0d","system_id":"levelo_inurba_marseille","lat":43.296129,"lon":5.370777,"is_reserved":false,"is_disabled":false,"rental_uris":{"android":"levelo://app?vid=40c6b45f-08a4-4789-9896-47d41a537e0d","ios":"levelo://app?vid=40c6b45f-08a4-4789-9896-47d41a537e0d"},"vehicle_type_id":"4","last_reported":1685905461,"current_range_meters":0,"station_id":"ce4bgnh2rcd13ifvqc0g","pricing_plan_id":"free"},{"bike_id":"ce346513-5599-4599-acbd-1bea4cfc28ad","system_id":"levelo_inurba_marseille","lat":43.296935,"lon":5.376544,"is_reserved":false,"is_disabled":false,"rental_uris":{"android":"levelo://app?vid=ce346513-5599-4599-acbd-1bea4cfc28ad","ios":"levelo://app?vid=ce346513-5599-4599-acbd-1bea4cfc28ad"},"vehicle_type_id":"4","last_reported":1685905461,"current_range_meters":13600,"station_id":"ce4bgkh2rcd13ifvqbl0","pricing_plan_id":"free"},{"bike_id":"e1574408-e00f-42bc-9a6e-6f9f1bf147a6","system_id":"levelo_inurba_marseille","lat":43.299028,"lon":5.381509,"is_reserved":false,"is_disabled":false,"rental_uris":{"android":"levelo://app?vid=e1574408-e00f-42bc-9a6e-6f9f1bf147a6","ios":"levelo://app?vid=e1574408-e00f-42bc-9a6e-6f9f1bf147a6"},"vehicle_type_id":"4","last_reported":1685905461,"current_range_meters":27200,"station_id":"ce4bgj12rcd13ifvqbc0","pricing_plan_id":"free"},{"bike_id":"394419fe-787b-4a9d-bc29-b3f04efabff1","system_id":"levelo_inurba_marseille","lat":43.296935,"lon":5.376544,"is_reserved":false,"is_disabled":false,"rental_uris":{"android":"levelo://app?vid=394419fe-787b-4a9d-bc29-b3f04efabff1","ios":"levelo://app?vid=394419fe-787b-4a9d-bc29-b3f04efabff1"},"vehicle_type_id":"4","last_reported":1685905461,"current_range_meters":7200,"station_id":"ce4bgkh2rcd13ifvqbl0","pricing_plan_id":"free"},{"bike_id":"8ade07da-1e9a-4ab6-8c45-005a8ccb3e36","system_id":"levelo_inurba_marseille","lat":43.309589,"lon":5.390258,"is_reserved":false,"is_disabled":false,"rental_uris":{"android":"levelo://app?vid=8ade07da-1e9a-4ab6-8c45-005a8ccb3e36","ios":"levelo://app?vid=8ade07da-1e9a-4ab6-8c45-005a8ccb3e36"},"vehicle_type_id":"4","last_reported":1685905461,"current_range_meters":11200,"station_id":"ce4bgup2rcd13ifvqco0","pricing_plan_id":"free"},{"bike_id":"ee331462-9f8a-4ff4-975f-640e5831c4d6","system_id":"levelo_inurba_marseille","lat":43.317557,"lon":5.390173,"is_reserved":false,"is_disabled":false,"rental_uris":{"android":"levelo://app?vid=ee331462-9f8a-4ff4-975f-640e5831c4d6","ios":"levelo://app?vid=ee331462-9f8a-4ff4-975f-640e5831c4d6"},"vehicle_type_id":"4","last_reported":1685905461,"current_range_meters":10800,"station_id":"ce4bhqp2rcd13ifvqhng","pricing_plan_id":"free"},{"bike_id":"07f62f98-919e-4b71-a429-5882e11679b6","system_id":"levelo_inurba_marseille","lat":43.317557,"lon":5.390173,"is_reserved":false,"is_disabled":false,"rental_uris":{"android":"levelo://app?vid=07f62f98-919e-4b71-a429-5882e11679b6","ios":"levelo://app?vid=07f62f98-919e-4b71-a429-5882e11679b6"},"vehicle_type_id":"4","last_reported":1685905461,"current_range_meters":25600,"station_id":"ce4bhqp2rcd13ifvqhng","pricing_plan_id":"free"},{"bike_id":"74cf7b89-a6ca-4824-b990-f4eac5143de3","system_id":"levelo_inurba_marseille","lat":43.29789,"lon":5.38078,"is_reserved":false,"is_disabled":false,"rental_uris":{"android":"levelo://app?vid=74cf7b89-a6ca-4824-b990-f4eac5143de3","ios":"levelo://app?vid=74cf7b89-a6ca-4824-b990-f4eac5143de3"},"vehicle_type_id":"4","last_reported":1685905461,"current_range_meters":20400,"station_id":"","pricing_plan_id":"free"},{"bike_id":"7b78b289-17fd-41e5-88d8-d7eff38fd9ab","system_id":"levelo_inurba_marseille","lat":43.295748,"lon":5.37522,"is_reserved":false,"is_disabled":false,"rental_uris":{"android":"levelo://app?vid=7b78b289-17fd-41e5-88d8-d7eff38fd9ab","ios":"levelo://app?vid=7b78b289-17fd-41e5-88d8-d7eff38fd9ab"},"vehicle_type_id":"4","last_reported":1685905461,"current_range_meters":3600,"station_id":"ce4bgh92rcd13ifvqb50","pricing_plan_id":"free"},{"bike_id":"ef6f96ea-39bf-417a-ab47-4f1d445a5866","system_id":"levelo_inurba_marseille","lat":43.304274,"lon":5.388873,"is_reserved":false,"is_disabled":false,"rental_uris":{"android":"levelo://app?vid=ef6f96ea-39bf-417a-ab47-4f1d445a5866","ios":"levelo://app?vid=ef6f96ea-39bf-417a-ab47-4f1d445a5866"},"vehicle_type_id":"4","last_reported":1685905461,"current_range_meters":400,"station_id":"ce4bgk12rcd13ifvqbi0","pricing_plan_id":"free"},{"bike_id":"d42a1f02-1a0e-4a6e-9bd2-f0a0dfc98cf4","system_id":"levelo_inurba_marseille","lat":43.295295,"lon":5.375031,"is_reserved":false,"is_disabled":false,"rental_uris":{"android":"levelo://app?vid=d42a1f02-1a0e-4a6e-9bd2-f0a0dfc98cf4","ios":"levelo://app?vid=d42a1f02-1a0e-4a6e-9bd2-f0a0dfc98cf4"},"vehicle_type_id":"4","last_reported":1685905461,"current_range_meters":5200,"station_id":"ce4bgh92rcd13ifvqb50","pricing_plan_id":"free"},{"bike_id":"12e08450-8681-407b-9ab5-4fcb4f4c5990","system_id":"levelo_inurba_marseille","lat":43.299707,"lon":5.384859,"is_reserved":false,"is_disabled":false,"rental_uris":{"android":"levelo://app?vid=12e08450-8681-407b-9ab5-4fcb4f4c5990","ios":"levelo://app?vid=12e08450-8681-407b-9ab5-4fcb4f4c5990"},"vehicle_type_id":"4","last_reported":1685905461,"current_range_meters":13600,"station_id":"ce4bgj92rcd13ifvqbd0","pricing_plan_id":"free"},{"bike_id":"eb8e4412-a3fa-4a69-9d75-1a8b980ed125","system_id":"levelo_inurba_marseille","lat":43.29597,"lon":5.37805,"is_reserved":false,"is_disabled":false,"rental_uris":{"android":"levelo://app?vid=eb8e4412-a3fa-4a69-9d75-1a8b980ed125","ios":"levelo://app?vid=eb8e4412-a3fa-4a69-9d75-1a8b980ed125"},"vehicle_type_id":"4","last_reported":1685905461,"current_range_meters":25600,"station_id":"","pricing_plan_id":"free"},{"bike_id":"7fe7d289-ac92-4ba9-be7d-6c298b53fba3","system_id":"levelo_inurba_marseille","lat":43.32367,"lon":5.388836,"is_reserved":false,"is_disabled":false,"rental_uris":{"android":"levelo://app?vid=7fe7d289-ac92-4ba9-be7d-6c298b53fba3","ios":"levelo://app?vid=7fe7d289-ac92-4ba9-be7d-6c298b53fba3"},"vehicle_type_id":"4","last_reported":1685905461,"current_range_meters":0,"station_id":"ce4bhqp2rcd13ifvqhog","pricing_plan_id":"free"},{"bike_id":"aeb5ead0-c09c-49ca-84ce-d23b7cb0491f","system_id":"levelo_inurba_marseille","lat":43.32367,"lon":5.388836,"is_reserved":false,"is_disabled":false,"rental_uris":{"android":"levelo://app?vid=aeb5ead0-c09c-49ca-84ce-d23b7cb0491f","ios":"levelo://app?vid=aeb5ead0-c09c-49ca-84ce-d23b7cb0491f"},"vehicle_type_id":"4","last_reported":1685905461,"current_range_meters":10400,"station_id":"ce4bhqp2rcd13ifvqhog","pricing_plan_id":"free"},{"bike_id":"66f8c606-ccf7-4b48-a7cf-8cb90cfbfb49","system_id":"levelo_inurba_marseille","lat":43.32367,"lon":5.388836,"is_reserved":false,"is_disabled":false,"rental_uris":{"android":"levelo://app?vid=66f8c606-ccf7-4b48-a7cf-8cb90cfbfb49","ios":"levelo://app?vid=66f8c606-ccf7-4b48-a7cf-8cb90cfbfb49"},"vehicle_type_id":"4","last_reported":1685905461,"current_range_meters":4000,"station_id":"ce4bhqp2rcd13ifvqhog","pricing_plan_id":"free"},{"bike_id":"0c8ee082-b1d8-491c-8484-cd2c8fa6c95d","system_id":"levelo_inurba_marseille","lat":43.29601,"lon":5.381084,"is_reserved":false,"is_disabled":false,"rental_uris":{"android":"levelo://app?vid=0c8ee082-b1d8-491c-8484-cd2c8fa6c95d","ios":"levelo://app?vid=0c8ee082-b1d8-491c-8484-cd2c8fa6c95d"},"vehicle_type_id":"4","last_reported":1685905461,"current_range_meters":0,"station_id":"ce4bgl12rcd13ifvqbo0","pricing_plan_id":"free"},{"bike_id":"9f8bc3a4-18ca-46a0-beaf-750f9f330af7","system_id":"levelo_inurba_marseille","lat":43.293249,"lon":5.371578,"is_reserved":false,"is_disabled":false,"rental_uris":{"android":"levelo://app?vid=9f8bc3a4-18ca-46a0-beaf-750f9f330af7","ios":"levelo://app?vid=9f8bc3a4-18ca-46a0-beaf-750f9f330af7"},"vehicle_type_id":"4","last_reported":1685905461,"current_range_meters":28400,"station_id":"ce4bgh92rcd13ifvqb40","pricing_plan_id":"free"},{"bike_id":"91f2800a-fc2c-40dd-ad96-7daadeb0bd56","system_id":"levelo_inurba_marseille","lat":43.30307,"lon":5.39213,"is_reserved":false,"is_disabled":false,"rental_uris":{"android":"levelo://app?vid=91f2800a-fc2c-40dd-ad96-7daadeb0bd56","ios":"levelo://app?vid=91f2800a-fc2c-40dd-ad96-7daadeb0bd56"},"vehicle_type_id":"4","last_reported":1685905461,"current_range_meters":3600,"station_id":"ce4bgkh2rcd13ifvqbk0","pricing_plan_id":"free"},{"bike_id":"254d727d-b97b-4da6-8ec6-9fc5e40315db","system_id":"levelo_inurba_marseille","lat":43.29375,"lon":5.37856,"is_reserved":false,"is_disabled":false,"rental_uris":{"android":"levelo://app?vid=254d727d-b97b-4da6-8ec6-9fc5e40315db","ios":"levelo://app?vid=254d727d-b97b-4da6-8ec6-9fc5e40315db"},"vehicle_type_id":"4","last_reported":1685905461,"current_range_meters":16800,"station_id":"ce4bgjh2rcd13ifvqbf0","pricing_plan_id":"free"},{"bike_id":"91ae9323-cbe0-4412-868c-9ede803521dc","system_id":"levelo_inurba_marseille","lat":43.292311,"lon":5.360731,"is_reserved":false,"is_disabled":false,"rental_uris":{"android":"levelo://app?vid=91ae9323-cbe0-4412-868c-9ede803521dc","ios":"levelo://app?vid=91ae9323-cbe0-4412-868c-9ede803521dc"},"vehicle_type_id":"4","last_reported":1685905461,"current_range_meters":4800,"station_id":"ce4bhbh2rcd13ifvqeqg","pricing_plan_id":"free"},{"bike_id":"38161fc5-04f1-45c7-aa4c-a6cdd22b7f85","system_id":"levelo_inurba_marseille","lat":43.2921,"lon":5.37406,"is_reserved":false,"is_disabled":false,"rental_uris":{"android":"levelo://app?vid=38161fc5-04f1-45c7-aa4c-a6cdd22b7f85","ios":"levelo://app?vid=38161fc5-04f1-45c7-aa4c-a6cdd22b7f85"},"vehicle_type_id":"4","last_reported":1685905461,"current_range_meters":15200,"station_id":"","pricing_plan_id":"free"},{"bike_id":"15a2a19e-3ba3-41fa-ac68-a8720c90767f","system_id":"levelo_inurba_marseille","lat":43.29201,"lon":5.37412,"is_reserved":false,"is_disabled":false,"rental_uris":{"android":"levelo://app?vid=15a2a19e-3ba3-41fa-ac68-a8720c90767f","ios":"levelo://app?vid=15a2a19e-3ba3-41fa-ac68-a8720c90767f"},"vehicle_type_id":"4","last_reported":1685905461,"current_range_meters":10800,"station_id":"","pricing_plan_id":"free"},{"bike_id":"a5f22737-0c10-4b69-860b-4a51055a35fa","system_id":"levelo_inurba_marseille","lat":43.298764,"lon":5.388973,"is_reserved":false,"is_disabled":false,"rental_uris":{"android":"levelo://app?vid=a5f22737-0c10-4b69-860b-4a51055a35fa","ios":"levelo://app?vid=a5f22737-0c10-4b69-860b-4a51055a35fa"},"vehicle_type_id":"4","last_reported":1685905461,"current_range_meters":1600,"station_id":"ce4bh392rcd13ifvqdl0","pricing_plan_id":"free"},{"bike_id":"fdbc5e23-ba41-4ce6-a6f4-bf5844aef6e4","system_id":"levelo_inurba_marseille","lat":43.313291,"lon":5.396838,"is_reserved":false,"is_disabled":false,"rental_uris":{"android":"levelo://app?vid=fdbc5e23-ba41-4ce6-a6f4-bf5844aef6e4","ios":"levelo://app?vid=fdbc5e23-ba41-4ce6-a6f4-bf5844aef6e4"},"vehicle_type_id":"4","last_reported":1685905461,"current_range_meters":28000,"station_id":"ce4bgvp2rcd13ifvqcu0","pricing_plan_id":"free"},{"bike_id":"ad5c8421-479c-4225-82bc-8230892560db","system_id":"levelo_inurba_marseille","lat":43.309038,"lon":5.396546,"is_reserved":false,"is_disabled":false,"rental_uris":{"android":"levelo://app?vid=ad5c8421-479c-4225-82bc-8230892560db","ios":"levelo://app?vid=ad5c8421-479c-4225-82bc-8230892560db"},"vehicle_type_id":"4","last_reported":1685905461,"current_range_meters":10400,"station_id":"ce4bh012rcd13ifvqcv0","pricing_plan_id":"free"},{"bike_id":"e590b2fb-237f-4659-9ceb-a32ea7e48e92","system_id":"levelo_inurba_marseille","lat":43.29186,"lon":5.35801,"is_reserved":false,"is_disabled":false,"rental_uris":{"android":"levelo://app?vid=e590b2fb-237f-4659-9ceb-a32ea7e48e92","ios":"levelo://app?vid=e590b2fb-237f-4659-9ceb-a32ea7e48e92"},"vehicle_type_id":"4","last_reported":1685905461,"current_range_meters":0,"station_id":"","pricing_plan_id":"free"},{"bike_id":"523fbdcf-03d6-4d40-9a24-cd73db1c77b0","system_id":"levelo_inurba_marseille","lat":43.309038,"lon":5.396546,"is_reserved":false,"is_disabled":false,"rental_uris":{"android":"levelo://app?vid=523fbdcf-03d6-4d40-9a24-cd73db1c77b0","ios":"levelo://app?vid=523fbdcf-03d6-4d40-9a24-cd73db1c77b0"},"vehicle_type_id":"4","last_reported":1685905461,"current_range_meters":28800,"station_id":"ce4bh012rcd13ifvqcv0","pricing_plan_id":"free"},{"bike_id":"65b07f62-8bc2-42ab-adbb-b99338c90d23","system_id":"levelo_inurba_marseille","lat":43.313291,"lon":5.396838,"is_reserved":false,"is_disabled":false,"rental_uris":{"android":"levelo://app?vid=65b07f62-8bc2-42ab-adbb-b99338c90d23","ios":"levelo://app?vid=65b07f62-8bc2-42ab-adbb-b99338c90d23"},"vehicle_type_id":"4","last_reported":1685905461,"current_range_meters":0,"station_id":"ce4bgvp2rcd13ifvqcu0","pricing_plan_id":"free"},{"bike_id":"100d750c-fdc2-44ee-a29e-7ee417505009","system_id":"levelo_inurba_marseille","lat":43.309038,"lon":5.396546,"is_reserved":false,"is_disabled":false,"rental_uris":{"android":"levelo://app?vid=100d750c-fdc2-44ee-a29e-7ee417505009","ios":"levelo://app?vid=100d750c-fdc2-44ee-a29e-7ee417505009"},"vehicle_type_id":"4","last_reported":1685905461,"current_range_meters":8800,"station_id":"ce4bh012rcd13ifvqcv0","pricing_plan_id":"free"},{"bike_id":"1f4117e4-cad3-4776-8083-2f7adabc0464","system_id":"levelo_inurba_marseille","lat":43.309038,"lon":5.396546,"is_reserved":false,"is_disabled":false,"rental_uris":{"android":"levelo://app?vid=1f4117e4-cad3-4776-8083-2f7adabc0464","ios":"levelo://app?vid=1f4117e4-cad3-4776-8083-2f7adabc0464"},"vehicle_type_id":"4","last_reported":1685905461,"current_range_meters":2800,"station_id":"ce4bh012rcd13ifvqcv0","pricing_plan_id":"free"},{"bike_id":"b21b6343-c063-48b2-a144-9a057a64dce8","system_id":"levelo_inurba_marseille","lat":43.29529,"lon":5.385581,"is_reserved":false,"is_disabled":false,"rental_uris":{"android":"levelo://app?vid=b21b6343-c063-48b2-a144-9a057a64dce8","ios":"levelo://app?vid=b21b6343-c063-48b2-a144-9a057a64dce8"},"vehicle_type_id":"4","last_reported":1685905461,"current_range_meters":2400,"station_id":"ce4bgih2rcd13ifvqba0","pricing_plan_id":"free"},{"bike_id":"a6fa3092-b14e-42a8-a4fe-7a7329a94d21","system_id":"levelo_inurba_marseille","lat":43.29529,"lon":5.385581,"is_reserved":false,"is_disabled":false,"rental_uris":{"android":"levelo://app?vid=a6fa3092-b14e-42a8-a4fe-7a7329a94d21","ios":"levelo://app?vid=a6fa3092-b14e-42a8-a4fe-7a7329a94d21"},"vehicle_type_id":"4","last_reported":1685905461,"current_range_meters":16400,"station_id":"ce4bgih2rcd13ifvqba0","pricing_plan_id":"free"},{"bike_id":"5f4121d3-873a-4dd2-a302-53aec628d6ca","system_id":"levelo_inurba_marseille","lat":43.29529,"lon":5.385581,"is_reserved":false,"is_disabled":false,"rental_uris":{"android":"levelo://app?vid=5f4121d3-873a-4dd2-a302-53aec628d6ca","ios":"levelo://app?vid=5f4121d3-873a-4dd2-a302-53aec628d6ca"},"vehicle_type_id":"4","last_reported":1685905461,"current_range_meters":25600,"station_id":"ce4bgih2rcd13ifvqba0","pricing_plan_id":"free"},{"bike_id":"2b9feef5-4e4d-4bd1-955d-df711544f7b1","system_id":"levelo_inurba_marseille","lat":43.29529,"lon":5.385581,"is_reserved":false,"is_disabled":false,"rental_uris":{"android":"levelo://app?vid=2b9feef5-4e4d-4bd1-955d-df711544f7b1","ios":"levelo://app?vid=2b9feef5-4e4d-4bd1-955d-df711544f7b1"},"vehicle_type_id":"4","last_reported":1685905461,"current_range_meters":6400,"station_id":"ce4bgih2rcd13ifvqba0","pricing_plan_id":"free"},{"bike_id":"255c4b8e-8351-4250-a652-5004d8490d8a","system_id":"levelo_inurba_marseille","lat":43.29529,"lon":5.385581,"is_reserved":false,"is_disabled":false,"rental_uris":{"android":"levelo://app?vid=255c4b8e-8351-4250-a652-5004d8490d8a","ios":"levelo://app?vid=255c4b8e-8351-4250-a652-5004d8490d8a"},"vehicle_type_id":"4","last_reported":1685905461,"current_range_meters":31600,"station_id":"ce4bgih2rcd13ifvqba0","pricing_plan_id":"free"},{"bike_id":"eba5b6fe-af9f-4929-859b-3c7212b1937c","system_id":"levelo_inurba_marseille","lat":43.29529,"lon":5.385581,"is_reserved":false,"is_disabled":false,"rental_uris":{"android":"levelo://app?vid=eba5b6fe-af9f-4929-859b-3c7212b1937c","ios":"levelo://app?vid=eba5b6fe-af9f-4929-859b-3c7212b1937c"},"vehicle_type_id":"4","last_reported":1685905461,"current_range_meters":27200,"station_id":"ce4bgih2rcd13ifvqba0","pricing_plan_id":"free"},{"bike_id":"e4184a70-9445-4d40-95c1-127331865131","system_id":"levelo_inurba_marseille","lat":43.302008,"lon":5.394694,"is_reserved":false,"is_disabled":false,"rental_uris":{"android":"levelo://app?vid=e4184a70-9445-4d40-95c1-127331865131","ios":"levelo://app?vid=e4184a70-9445-4d40-95c1-127331865131"},"vehicle_type_id":"4","last_reported":1685905461,"current_range_meters":31600,"station_id":"ce4bh0p2rcd13ifvqd70","pricing_plan_id":"free"},{"bike_id":"cf08eb50-1ecf-4d3c-b6a8-b69ec5fc9c74","system_id":"levelo_inurba_marseille","lat":43.290624,"lon":5.359245,"is_reserved":false,"is_disabled":false,"rental_uris":{"android":"levelo://app?vid=cf08eb50-1ecf-4d3c-b6a8-b69ec5fc9c74","ios":"levelo://app?vid=cf08eb50-1ecf-4d3c-b6a8-b69ec5fc9c74"},"vehicle_type_id":"4","last_reported":1685905461,"current_range_meters":10000,"station_id":"ce4bha92rcd13ifvqeg0","pricing_plan_id":"free"},{"bike_id":"e7dab359-5c31-4ab5-b656-9a5181a9783a","system_id":"levelo_inurba_marseille","lat":43.294153,"lon":5.386305,"is_reserved":false,"is_disabled":false,"rental_uris":{"android":"levelo://app?vid=e7dab359-5c31-4ab5-b656-9a5181a9783a","ios":"levelo://app?vid=e7dab359-5c31-4ab5-b656-9a5181a9783a"},"vehicle_type_id":"4","last_reported":1685905461,"current_range_meters":9200,"station_id":"ce4bh2h2rcd13ifvqdh0","pricing_plan_id":"free"},{"bike_id":"0b65c520-4a6c-455f-ab0e-164787f13a57","system_id":"levelo_inurba_marseille","lat":43.294162,"lon":5.386292,"is_reserved":false,"is_disabled":false,"rental_uris":{"android":"levelo://app?vid=0b65c520-4a6c-455f-ab0e-164787f13a57","ios":"levelo://app?vid=0b65c520-4a6c-455f-ab0e-164787f13a57"},"vehicle_type_id":"4","last_reported":1685905461,"current_range_meters":27600,"station_id":"ce4bh2h2rcd13ifvqdh0","pricing_plan_id":"free"},{"bike_id":"2bbadc8e-7606-44fa-8c07-34143026c74c","system_id":"levelo_inurba_marseille","lat":43.294162,"lon":5.386292,"is_reserved":false,"is_disabled":false,"rental_uris":{"android":"levelo://app?vid=2bbadc8e-7606-44fa-8c07-34143026c74c","ios":"levelo://app?vid=2bbadc8e-7606-44fa-8c07-34143026c74c"},"vehicle_type_id":"4","last_reported":1685905461,"current_range_meters":31600,"station_id":"ce4bh2h2rcd13ifvqdh0","pricing_plan_id":"free"},{"bike_id":"c9d67961-d00a-40a3-9d7a-41c527bf9da5","system_id":"levelo_inurba_marseille","lat":43.294162,"lon":5.386292,"is_reserved":false,"is_disabled":false,"rental_uris":{"android":"levelo://app?vid=c9d67961-d00a-40a3-9d7a-41c527bf9da5","ios":"levelo://app?vid=c9d67961-d00a-40a3-9d7a-41c527bf9da5"},"vehicle_type_id":"4","last_reported":1685905461,"current_range_meters":11600,"station_id":"ce4bh2h2rcd13ifvqdh0","pricing_plan_id":"free"},{"bike_id":"e84c3c15-9311-4e3f-872c-2a19a5169246","system_id":"levelo_inurba_marseille","lat":43.294162,"lon":5.386292,"is_reserved":false,"is_disabled":false,"rental_uris":{"android":"levelo://app?vid=e84c3c15-9311-4e3f-872c-2a19a5169246","ios":"levelo://app?vid=e84c3c15-9311-4e3f-872c-2a19a5169246"},"vehicle_type_id":"4","last_reported":1685905461,"current_range_meters":16800,"station_id":"ce4bh2h2rcd13ifvqdh0","pricing_plan_id":"free"},{"bike_id":"f2a028fc-c14d-425b-9e99-df9530deedfa","system_id":"levelo_inurba_marseille","lat":43.294162,"lon":5.386292,"is_reserved":false,"is_disabled":false,"rental_uris":{"android":"levelo://app?vid=f2a028fc-c14d-425b-9e99-df9530deedfa","ios":"levelo://app?vid=f2a028fc-c14d-425b-9e99-df9530deedfa"},"vehicle_type_id":"4","last_reported":1685905461,"current_range_meters":17600,"station_id":"ce4bh2h2rcd13ifvqdh0","pricing_plan_id":"free"},{"bike_id":"dd657dd0-1bfa-465a-b870-6bc8f97e859c","system_id":"levelo_inurba_marseille","lat":43.28935,"lon":5.36629,"is_reserved":false,"is_disabled":false,"rental_uris":{"android":"levelo://app?vid=dd657dd0-1bfa-465a-b870-6bc8f97e859c","ios":"levelo://app?vid=dd657dd0-1bfa-465a-b870-6bc8f97e859c"},"vehicle_type_id":"4","last_reported":1685905461,"current_range_meters":0,"station_id":"ce4bhap2rcd13ifvqek0","pricing_plan_id":"free"},{"bike_id":"9cabf8b0-cc43-452b-baee-3b50d49cc0d6","system_id":"levelo_inurba_marseille","lat":43.28935,"lon":5.36624,"is_reserved":false,"is_disabled":false,"rental_uris":{"android":"levelo://app?vid=9cabf8b0-cc43-452b-baee-3b50d49cc0d6","ios":"levelo://app?vid=9cabf8b0-cc43-452b-baee-3b50d49cc0d6"},"vehicle_type_id":"4","last_reported":1685905461,"current_range_meters":0,"station_id":"ce4bhap2rcd13ifvqek0","pricing_plan_id":"free"},{"bike_id":"0a8aba60-b51b-427d-be66-8709066b23d1","system_id":"levelo_inurba_marseille","lat":43.33277,"lon":5.38447,"is_reserved":false,"is_disabled":false,"rental_uris":{"android":"levelo://app?vid=0a8aba60-b51b-427d-be66-8709066b23d1","ios":"levelo://app?vid=0a8aba60-b51b-427d-be66-8709066b23d1"},"vehicle_type_id":"4","last_reported":1685905461,"current_range_meters":24800,"station_id":"","pricing_plan_id":"free"},{"bike_id":"35dd443c-cd89-46cf-ab4e-172887add0a0","system_id":"levelo_inurba_marseille","lat":43.3043,"lon":5.39747,"is_reserved":false,"is_disabled":false,"rental_uris":{"android":"levelo://app?vid=35dd443c-cd89-46cf-ab4e-172887add0a0","ios":"levelo://app?vid=35dd443c-cd89-46cf-ab4e-172887add0a0"},"vehicle_type_id":"4","last_reported":1685905461,"current_range_meters":29600,"station_id":"ce4bh092rcd13ifvqd20","pricing_plan_id":"free"},{"bike_id":"13fdadd1-1fdd-4c93-a157-b819803a3a1e","system_id":"levelo_inurba_marseille","lat":43.2926,"lon":5.38446,"is_reserved":false,"is_disabled":false,"rental_uris":{"android":"levelo://app?vid=13fdadd1-1fdd-4c93-a157-b819803a3a1e","ios":"levelo://app?vid=13fdadd1-1fdd-4c93-a157-b819803a3a1e"},"vehicle_type_id":"4","last_reported":1685905461,"current_range_meters":10400,"station_id":"ce4bh692rcd13ifvqea0","pricing_plan_id":"free"},{"bike_id":"ecf65e32-5de7-41b6-a7a6-0913a939e231","system_id":"levelo_inurba_marseille","lat":43.29242,"lon":5.38438,"is_reserved":false,"is_disabled":false,"rental_uris":{"android":"levelo://app?vid=ecf65e32-5de7-41b6-a7a6-0913a939e231","ios":"levelo://app?vid=ecf65e32-5de7-41b6-a7a6-0913a939e231"},"vehicle_type_id":"4","last_reported":1685905461,"current_range_meters":0,"station_id":"ce4bh692rcd13ifvqea0","pricing_plan_id":"free"},{"bike_id":"62610a6f-3596-4fba-82d1-5dda12396c96","system_id":"levelo_inurba_marseille","lat":43.292644,"lon":5.384257,"is_reserved":false,"is_disabled":false,"rental_uris":{"android":"levelo://app?vid=62610a6f-3596-4fba-82d1-5dda12396c96","ios":"levelo://app?vid=62610a6f-3596-4fba-82d1-5dda12396c96"},"vehicle_type_id":"4","last_reported":1685905461,"current_range_meters":28800,"station_id":"ce4bh692rcd13ifvqea0","pricing_plan_id":"free"},{"bike_id":"e2b942e0-3901-4124-a71d-a8535684af38","system_id":"levelo_inurba_marseille","lat":43.33044,"lon":5.38916,"is_reserved":false,"is_disabled":false,"rental_uris":{"android":"levelo://app?vid=e2b942e0-3901-4124-a71d-a8535684af38","ios":"levelo://app?vid=e2b942e0-3901-4124-a71d-a8535684af38"},"vehicle_type_id":"4","last_reported":1685905461,"current_range_meters":25600,"station_id":"ce4bhr92rcd13ifvqhrg","pricing_plan_id":"free"},{"bike_id":"dcb00244-aef9-4eec-91cd-42ea75ebd82c","system_id":"levelo_inurba_marseille","lat":43.33056,"lon":5.3891,"is_reserved":false,"is_disabled":false,"rental_uris":{"android":"levelo://app?vid=dcb00244-aef9-4eec-91cd-42ea75ebd82c","ios":"levelo://app?vid=dcb00244-aef9-4eec-91cd-42ea75ebd82c"},"vehicle_type_id":"4","last_reported":1685905461,"current_range_meters":2800,"station_id":"ce4bhr92rcd13ifvqhrg","pricing_plan_id":"free"},{"bike_id":"cea029a3-a2ac-422a-8c91-67503ec6867c","system_id":"levelo_inurba_marseille","lat":43.290995,"lon":5.381361,"is_reserved":false,"is_disabled":false,"rental_uris":{"android":"levelo://app?vid=cea029a3-a2ac-422a-8c91-67503ec6867c","ios":"levelo://app?vid=cea029a3-a2ac-422a-8c91-67503ec6867c"},"vehicle_type_id":"4","last_reported":1685905461,"current_range_meters":28800,"station_id":"ce4bh512rcd13ifvqe2g","pricing_plan_id":"free"},{"bike_id":"cc0515e2-e002-49c5-96af-7bbd00775039","system_id":"levelo_inurba_marseille","lat":43.295169,"lon":5.390426,"is_reserved":false,"is_disabled":false,"rental_uris":{"android":"levelo://app?vid=cc0515e2-e002-49c5-96af-7bbd00775039","ios":"levelo://app?vid=cc0515e2-e002-49c5-96af-7bbd00775039"},"vehicle_type_id":"4","last_reported":1685905461,"current_range_meters":7200,"station_id":"ce4bh3p2rcd13ifvqdp0","pricing_plan_id":"free"},{"bike_id":"906c92d3-e27e-493a-a6d4-6f465d8a62b6","system_id":"levelo_inurba_marseille","lat":43.2901,"lon":5.3814,"is_reserved":false,"is_disabled":false,"rental_uris":{"android":"levelo://app?vid=906c92d3-e27e-493a-a6d4-6f465d8a62b6","ios":"levelo://app?vid=906c92d3-e27e-493a-a6d4-6f465d8a62b6"},"vehicle_type_id":"4","last_reported":1685905461,"current_range_meters":0,"station_id":"ce4bh4p2rcd13ifvqe1g","pricing_plan_id":"free"},{"bike_id":"445a4161-4713-46a3-af6d-ac4b658d5fb8","system_id":"levelo_inurba_marseille","lat":43.28856,"lon":5.358371,"is_reserved":false,"is_disabled":false,"rental_uris":{"android":"levelo://app?vid=445a4161-4713-46a3-af6d-ac4b658d5fb8","ios":"levelo://app?vid=445a4161-4713-46a3-af6d-ac4b658d5fb8"},"vehicle_type_id":"4","last_reported":1685905461,"current_range_meters":16800,"station_id":"ce4bhb12rcd13ifvqem0","pricing_plan_id":"free"},{"bike_id":"cf0caa37-cec8-408b-98f7-37211a80813c","system_id":"levelo_inurba_marseille","lat":43.33748,"lon":5.37434,"is_reserved":false,"is_disabled":false,"rental_uris":{"android":"levelo://app?vid=cf0caa37-cec8-408b-98f7-37211a80813c","ios":"levelo://app?vid=cf0caa37-cec8-408b-98f7-37211a80813c"},"vehicle_type_id":"4","last_reported":1685905461,"current_range_meters":30000,"station_id":"","pricing_plan_id":"free"},{"bike_id":"57da526b-0952-4249-a379-e6f5262607a7","system_id":"levelo_inurba_marseille","lat":43.33751,"lon":5.37459,"is_reserved":false,"is_disabled":false,"rental_uris":{"android":"levelo://app?vid=57da526b-0952-4249-a379-e6f5262607a7","ios":"levelo://app?vid=57da526b-0952-4249-a379-e6f5262607a7"},"vehicle_type_id":"4","last_reported":1685905461,"current_range_meters":30800,"station_id":"","pricing_plan_id":"free"},{"bike_id":"675927e0-ab95-41a0-80be-7ee111a218f5","system_id":"levelo_inurba_marseille","lat":43.3375,"lon":5.37472,"is_reserved":false,"is_disabled":false,"rental_uris":{"android":"levelo://app?vid=675927e0-ab95-41a0-80be-7ee111a218f5","ios":"levelo://app?vid=675927e0-ab95-41a0-80be-7ee111a218f5"},"vehicle_type_id":"4","last_reported":1685905461,"current_range_meters":26800,"station_id":"","pricing_plan_id":"free"},{"bike_id":"fbb041b0-2cb2-4463-95a3-2e261d455f20","system_id":"levelo_inurba_marseille","lat":43.286695,"lon":5.363704,"is_reserved":false,"is_disabled":false,"rental_uris":{"android":"levelo://app?vid=fbb041b0-2cb2-4463-95a3-2e261d455f20","ios":"levelo://app?vid=fbb041b0-2cb2-4463-95a3-2e261d455f20"},"vehicle_type_id":"4","last_reported":1685905461,"current_range_meters":12400,"station_id":"","pricing_plan_id":"free"},{"bike_id":"91940b19-9cb8-476e-ab2f-057002efa683","system_id":"levelo_inurba_marseille","lat":43.286591,"lon":5.363346,"is_reserved":false,"is_disabled":false,"rental_uris":{"android":"levelo://app?vid=91940b19-9cb8-476e-ab2f-057002efa683","ios":"levelo://app?vid=91940b19-9cb8-476e-ab2f-057002efa683"},"vehicle_type_id":"4","last_reported":1685905461,"current_range_meters":5600,"station_id":"ce4bhah2rcd13ifvqej0","pricing_plan_id":"free"},{"bike_id":"3f034842-de26-45f2-8daf-1f9e67468c5a","system_id":"levelo_inurba_marseille","lat":43.298681,"lon":5.397225,"is_reserved":false,"is_disabled":false,"rental_uris":{"android":"levelo://app?vid=3f034842-de26-45f2-8daf-1f9e67468c5a","ios":"levelo://app?vid=3f034842-de26-45f2-8daf-1f9e67468c5a"},"vehicle_type_id":"4","last_reported":1685905461,"current_range_meters":22000,"station_id":"ce4bh0h2rcd13ifvqd50","pricing_plan_id":"free"},{"bike_id":"25088032-83ce-4bc7-af7e-f682ead6132f","system_id":"levelo_inurba_marseille","lat":43.286591,"lon":5.363346,"is_reserved":false,"is_disabled":false,"rental_uris":{"android":"levelo://app?vid=25088032-83ce-4bc7-af7e-f682ead6132f","ios":"levelo://app?vid=25088032-83ce-4bc7-af7e-f682ead6132f"},"vehicle_type_id":"4","last_reported":1685905461,"current_range_meters":14400,"station_id":"ce4bhah2rcd13ifvqej0","pricing_plan_id":"free"},{"bike_id":"07ed0adc-8a80-4a63-b606-08d0ed8655ca","system_id":"levelo_inurba_marseille","lat":43.286593,"lon":5.363346,"is_reserved":false,"is_disabled":false,"rental_uris":{"android":"levelo://app?vid=07ed0adc-8a80-4a63-b606-08d0ed8655ca","ios":"levelo://app?vid=07ed0adc-8a80-4a63-b606-08d0ed8655ca"},"vehicle_type_id":"4","last_reported":1685905461,"current_range_meters":15600,"station_id":"ce4bhah2rcd13ifvqej0","pricing_plan_id":"free"},{"bike_id":"62ed84c2-cb8b-4acf-8c00-7076fc44bf83","system_id":"levelo_inurba_marseille","lat":43.30426,"lon":5.40118,"is_reserved":false,"is_disabled":false,"rental_uris":{"android":"levelo://app?vid=62ed84c2-cb8b-4acf-8c00-7076fc44bf83","ios":"levelo://app?vid=62ed84c2-cb8b-4acf-8c00-7076fc44bf83"},"vehicle_type_id":"4","last_reported":1685905461,"current_range_meters":10800,"station_id":"","pricing_plan_id":"free"},{"bike_id":"82f16b46-46b5-439a-845c-b3c2454677f6","system_id":"levelo_inurba_marseille","lat":43.290345,"lon":5.38646,"is_reserved":false,"is_disabled":false,"rental_uris":{"android":"levelo://app?vid=82f16b46-46b5-439a-845c-b3c2454677f6","ios":"levelo://app?vid=82f16b46-46b5-439a-845c-b3c2454677f6"},"vehicle_type_id":"4","last_reported":1685905461,"current_range_meters":13600,"station_id":"ce4bh4p2rcd13ifvqe0g","pricing_plan_id":"free"},{"bike_id":"1d28b0a0-6fcc-4f8a-a103-f178676d3d71","system_id":"levelo_inurba_marseille","lat":43.295194,"lon":5.39397,"is_reserved":false,"is_disabled":false,"rental_uris":{"android":"levelo://app?vid=1d28b0a0-6fcc-4f8a-a103-f178676d3d71","ios":"levelo://app?vid=1d28b0a0-6fcc-4f8a-a103-f178676d3d71"},"vehicle_type_id":"4","last_reported":1685905461,"current_range_meters":12800,"station_id":"ce4bh292rcd13ifvqdf0","pricing_plan_id":"free"},{"bike_id":"c4f4c550-39d1-4851-9f37-ceef0c5779cf","system_id":"levelo_inurba_marseille","lat":43.290336,"lon":5.386425,"is_reserved":false,"is_disabled":false,"rental_uris":{"android":"levelo://app?vid=c4f4c550-39d1-4851-9f37-ceef0c5779cf","ios":"levelo://app?vid=c4f4c550-39d1-4851-9f37-ceef0c5779cf"},"vehicle_type_id":"4","last_reported":1685905461,"current_range_meters":4400,"station_id":"ce4bh4p2rcd13ifvqe0g","pricing_plan_id":"free"},{"bike_id":"7ad072f6-d7da-458b-b43d-406616bb4ebd","system_id":"levelo_inurba_marseille","lat":43.286039,"lon":5.370679,"is_reserved":false,"is_disabled":false,"rental_uris":{"android":"levelo://app?vid=7ad072f6-d7da-458b-b43d-406616bb4ebd","ios":"levelo://app?vid=7ad072f6-d7da-458b-b43d-406616bb4ebd"},"vehicle_type_id":"4","last_reported":1685905461,"current_range_meters":30000,"station_id":"ce4bht12rcd13ifvqi60","pricing_plan_id":"free"},{"bike_id":"c16c3e2d-258d-44fb-9594-35b9b1f1917d","system_id":"levelo_inurba_marseille","lat":43.286039,"lon":5.370681,"is_reserved":false,"is_disabled":false,"rental_uris":{"android":"levelo://app?vid=c16c3e2d-258d-44fb-9594-35b9b1f1917d","ios":"levelo://app?vid=c16c3e2d-258d-44fb-9594-35b9b1f1917d"},"vehicle_type_id":"4","last_reported":1685905461,"current_range_meters":3600,"station_id":"ce4bht12rcd13ifvqi60","pricing_plan_id":"free"},{"bike_id":"6ebdbf5f-dad0-4a4c-9ac5-6af7ed0fd1b8","system_id":"levelo_inurba_marseille","lat":43.291994,"lon":5.392907,"is_reserved":false,"is_disabled":false,"rental_uris":{"android":"levelo://app?vid=6ebdbf5f-dad0-4a4c-9ac5-6af7ed0fd1b8","ios":"levelo://app?vid=6ebdbf5f-dad0-4a4c-9ac5-6af7ed0fd1b8"},"vehicle_type_id":"4","last_reported":1685905461,"current_range_meters":23600,"station_id":"ce4bh192rcd13ifvqdd0","pricing_plan_id":"free"},{"bike_id":"d3837176-d3c5-4293-9c1c-a4917459f093","system_id":"levelo_inurba_marseille","lat":43.284534,"lon":5.358662,"is_reserved":false,"is_disabled":false,"rental_uris":{"android":"levelo://app?vid=d3837176-d3c5-4293-9c1c-a4917459f093","ios":"levelo://app?vid=d3837176-d3c5-4293-9c1c-a4917459f093"},"vehicle_type_id":"4","last_reported":1685905461,"current_range_meters":22800,"station_id":"ce4bhah2rcd13ifvqei0","pricing_plan_id":"free"},{"bike_id":"5ed828d1-6d0e-40ba-b9be-d15a7ac2035e","system_id":"levelo_inurba_marseille","lat":43.284534,"lon":5.358662,"is_reserved":false,"is_disabled":false,"rental_uris":{"android":"levelo://app?vid=5ed828d1-6d0e-40ba-b9be-d15a7ac2035e","ios":"levelo://app?vid=5ed828d1-6d0e-40ba-b9be-d15a7ac2035e"},"vehicle_type_id":"4","last_reported":1685905461,"current_range_meters":12000,"station_id":"ce4bhah2rcd13ifvqei0","pricing_plan_id":"free"},{"bike_id":"6be19690-cf5c-4119-820e-cf31ce24d5cf","system_id":"levelo_inurba_marseille","lat":43.284534,"lon":5.358662,"is_reserved":false,"is_disabled":false,"rental_uris":{"android":"levelo://app?vid=6be19690-cf5c-4119-820e-cf31ce24d5cf","ios":"levelo://app?vid=6be19690-cf5c-4119-820e-cf31ce24d5cf"},"vehicle_type_id":"4","last_reported":1685905461,"current_range_meters":21200,"station_id":"ce4bhah2rcd13ifvqei0","pricing_plan_id":"free"},{"bike_id":"e902d45f-54ae-49e8-8236-9ff418cfeb39","system_id":"levelo_inurba_marseille","lat":43.28977,"lon":5.39069,"is_reserved":false,"is_disabled":false,"rental_uris":{"android":"levelo://app?vid=e902d45f-54ae-49e8-8236-9ff418cfeb39","ios":"levelo://app?vid=e902d45f-54ae-49e8-8236-9ff418cfeb39"},"vehicle_type_id":"4","last_reported":1685905461,"current_range_meters":24800,"station_id":"","pricing_plan_id":"free"},{"bike_id":"a0b9f175-7edd-4367-bb9a-2cbb1d9d664d","system_id":"levelo_inurba_marseille","lat":43.295713,"lon":5.399639,"is_reserved":false,"is_disabled":false,"rental_uris":{"android":"levelo://app?vid=a0b9f175-7edd-4367-bb9a-2cbb1d9d664d","ios":"levelo://app?vid=a0b9f175-7edd-4367-bb9a-2cbb1d9d664d"},"vehicle_type_id":"4","last_reported":1685905461,"current_range_meters":4800,"station_id":"ce4bh312rcd13ifvqdj0","pricing_plan_id":"free"},{"bike_id":"6a9826a0-2832-4722-9ef8-05316a12d3da","system_id":"levelo_inurba_marseille","lat":43.295713,"lon":5.399639,"is_reserved":false,"is_disabled":false,"rental_uris":{"android":"levelo://app?vid=6a9826a0-2832-4722-9ef8-05316a12d3da","ios":"levelo://app?vid=6a9826a0-2832-4722-9ef8-05316a12d3da"},"vehicle_type_id":"4","last_reported":1685905461,"current_range_meters":20000,"station_id":"ce4bh312rcd13ifvqdj0","pricing_plan_id":"free"},{"bike_id":"76b5c105-bcea-4af9-bf17-feae20610674","system_id":"levelo_inurba_marseille","lat":43.295713,"lon":5.399639,"is_reserved":false,"is_disabled":false,"rental_uris":{"android":"levelo://app?vid=76b5c105-bcea-4af9-bf17-feae20610674","ios":"levelo://app?vid=76b5c105-bcea-4af9-bf17-feae20610674"},"vehicle_type_id":"4","last_reported":1685905461,"current_range_meters":2000,"station_id":"ce4bh312rcd13ifvqdj0","pricing_plan_id":"free"},{"bike_id":"92a07740-6b91-43ae-9621-6bcbd8a51c87","system_id":"levelo_inurba_marseille","lat":43.295713,"lon":5.399639,"is_reserved":false,"is_disabled":false,"rental_uris":{"android":"levelo://app?vid=92a07740-6b91-43ae-9621-6bcbd8a51c87","ios":"levelo://app?vid=92a07740-6b91-43ae-9621-6bcbd8a51c87"},"vehicle_type_id":"4","last_reported":1685905461,"current_range_meters":16400,"station_id":"ce4bh312rcd13ifvqdj0","pricing_plan_id":"free"},{"bike_id":"94d1ef0c-4daa-4cbf-99c7-7078cdba186c","system_id":"levelo_inurba_marseille","lat":43.295713,"lon":5.399639,"is_reserved":false,"is_disabled":false,"rental_uris":{"android":"levelo://app?vid=94d1ef0c-4daa-4cbf-99c7-7078cdba186c","ios":"levelo://app?vid=94d1ef0c-4daa-4cbf-99c7-7078cdba186c"},"vehicle_type_id":"4","last_reported":1685905461,"current_range_meters":28800,"station_id":"ce4bh312rcd13ifvqdj0","pricing_plan_id":"free"},{"bike_id":"b2d7fa99-0c25-4311-89c7-2429ec931f0a","system_id":"levelo_inurba_marseille","lat":43.286595,"lon":5.386795,"is_reserved":false,"is_disabled":false,"rental_uris":{"android":"levelo://app?vid=b2d7fa99-0c25-4311-89c7-2429ec931f0a","ios":"levelo://app?vid=b2d7fa99-0c25-4311-89c7-2429ec931f0a"},"vehicle_type_id":"4","last_reported":1685905461,"current_range_meters":0,"station_id":"ce4bh492rcd13ifvqdug","pricing_plan_id":"free"},{"bike_id":"d3fcddc3-da99-4749-babe-9c44e0da430f","system_id":"levelo_inurba_marseille","lat":43.29054,"lon":5.39448,"is_reserved":false,"is_disabled":false,"rental_uris":{"android":"levelo://app?vid=d3fcddc3-da99-4749-babe-9c44e0da430f","ios":"levelo://app?vid=d3fcddc3-da99-4749-babe-9c44e0da430f"},"vehicle_type_id":"4","last_reported":1685905461,"current_range_meters":20800,"station_id":"","pricing_plan_id":"free"},{"bike_id":"ca308f8d-733f-499e-85e9-b84978d8a7ba","system_id":"levelo_inurba_marseille","lat":43.323464,"lon":5.406297,"is_reserved":false,"is_disabled":false,"rental_uris":{"android":"levelo://app?vid=ca308f8d-733f-499e-85e9-b84978d8a7ba","ios":"levelo://app?vid=ca308f8d-733f-499e-85e9-b84978d8a7ba"},"vehicle_type_id":"4","last_reported":1685905461,"current_range_meters":9600,"station_id":"ce4bhq92rcd13ifvqhjg","pricing_plan_id":"free"},{"bike_id":"b205e703-9cc6-479d-b47b-dcec15459f4d","system_id":"levelo_inurba_marseille","lat":43.32659,"lon":5.4042,"is_reserved":false,"is_disabled":false,"rental_uris":{"android":"levelo://app?vid=b205e703-9cc6-479d-b47b-dcec15459f4d","ios":"levelo://app?vid=b205e703-9cc6-479d-b47b-dcec15459f4d"},"vehicle_type_id":"4","last_reported":1685905461,"current_range_meters":12400,"station_id":"","pricing_plan_id":"free"},{"bike_id":"bb330107-55f8-4854-817a-4f7a89810033","system_id":"levelo_inurba_marseille","lat":43.323464,"lon":5.406297,"is_reserved":false,"is_disabled":false,"rental_uris":{"android":"levelo://app?vid=bb330107-55f8-4854-817a-4f7a89810033","ios":"levelo://app?vid=bb330107-55f8-4854-817a-4f7a89810033"},"vehicle_type_id":"4","last_reported":1685905461,"current_range_meters":24800,"station_id":"ce4bhq92rcd13ifvqhjg","pricing_plan_id":"free"},{"bike_id":"da364d8d-66e5-47f6-b5da-bf7387ae911a","system_id":"levelo_inurba_marseille","lat":43.32338,"lon":5.4062,"is_reserved":false,"is_disabled":false,"rental_uris":{"android":"levelo://app?vid=da364d8d-66e5-47f6-b5da-bf7387ae911a","ios":"levelo://app?vid=da364d8d-66e5-47f6-b5da-bf7387ae911a"},"vehicle_type_id":"4","last_reported":1685905461,"current_range_meters":22000,"station_id":"ce4bhq92rcd13ifvqhjg","pricing_plan_id":"free"},{"bike_id":"40a85854-0be0-455f-b55c-1d3aff9a0476","system_id":"levelo_inurba_marseille","lat":43.28382,"lon":5.3809,"is_reserved":false,"is_disabled":false,"rental_uris":{"android":"levelo://app?vid=40a85854-0be0-455f-b55c-1d3aff9a0476","ios":"levelo://app?vid=40a85854-0be0-455f-b55c-1d3aff9a0476"},"vehicle_type_id":"4","last_reported":1685905461,"current_range_meters":8400,"station_id":"","pricing_plan_id":"free"},{"bike_id":"1167c382-abdb-47e7-91f5-c84a5c6490c2","system_id":"levelo_inurba_marseille","lat":43.284787,"lon":5.384116,"is_reserved":false,"is_disabled":false,"rental_uris":{"android":"levelo://app?vid=1167c382-abdb-47e7-91f5-c84a5c6490c2","ios":"levelo://app?vid=1167c382-abdb-47e7-91f5-c84a5c6490c2"},"vehicle_type_id":"4","last_reported":1685905461,"current_range_meters":24400,"station_id":"ce4bh512rcd13ifvqe3g","pricing_plan_id":"free"},{"bike_id":"8439e558-f9c6-4e5b-a93d-7b06590cd09f","system_id":"levelo_inurba_marseille","lat":43.284787,"lon":5.384116,"is_reserved":false,"is_disabled":false,"rental_uris":{"android":"levelo://app?vid=8439e558-f9c6-4e5b-a93d-7b06590cd09f","ios":"levelo://app?vid=8439e558-f9c6-4e5b-a93d-7b06590cd09f"},"vehicle_type_id":"4","last_reported":1685905461,"current_range_meters":5200,"station_id":"ce4bh512rcd13ifvqe3g","pricing_plan_id":"free"},{"bike_id":"26693c7e-7032-453d-9a7e-e1759bc618cd","system_id":"levelo_inurba_marseille","lat":43.283498,"lon":5.380948,"is_reserved":false,"is_disabled":false,"rental_uris":{"android":"levelo://app?vid=26693c7e-7032-453d-9a7e-e1759bc618cd","ios":"levelo://app?vid=26693c7e-7032-453d-9a7e-e1759bc618cd"},"vehicle_type_id":"4","last_reported":1685905461,"current_range_meters":26400,"station_id":"ce4bh412rcd13ifvqdr0","pricing_plan_id":"free"},{"bike_id":"dde2c88f-e9ea-471b-ba0c-2d1fb7eae334","system_id":"levelo_inurba_marseille","lat":43.283498,"lon":5.380948,"is_reserved":false,"is_disabled":false,"rental_uris":{"android":"levelo://app?vid=dde2c88f-e9ea-471b-ba0c-2d1fb7eae334","ios":"levelo://app?vid=dde2c88f-e9ea-471b-ba0c-2d1fb7eae334"},"vehicle_type_id":"4","last_reported":1685905461,"current_range_meters":29600,"station_id":"ce4bh412rcd13ifvqdr0","pricing_plan_id":"free"},{"bike_id":"8171c6c1-be1e-421a-aaec-cf03a0fdba91","system_id":"levelo_inurba_marseille","lat":43.283498,"lon":5.380948,"is_reserved":false,"is_disabled":false,"rental_uris":{"android":"levelo://app?vid=8171c6c1-be1e-421a-aaec-cf03a0fdba91","ios":"levelo://app?vid=8171c6c1-be1e-421a-aaec-cf03a0fdba91"},"vehicle_type_id":"4","last_reported":1685905461,"current_range_meters":18800,"station_id":"ce4bh412rcd13ifvqdr0","pricing_plan_id":"free"},{"bike_id":"66e8a480-c39e-4a92-bb8e-b0a62198509d","system_id":"levelo_inurba_marseille","lat":43.29041,"lon":5.399634,"is_reserved":false,"is_disabled":false,"rental_uris":{"android":"levelo://app?vid=66e8a480-c39e-4a92-bb8e-b0a62198509d","ios":"levelo://app?vid=66e8a480-c39e-4a92-bb8e-b0a62198509d"},"vehicle_type_id":"4","last_reported":1685905461,"current_range_meters":25200,"station_id":"ce4bh392rcd13ifvqdm0","pricing_plan_id":"free"},{"bike_id":"12534ff0-901f-4ad5-ae27-56b51d745162","system_id":"levelo_inurba_marseille","lat":43.284219,"lon":5.3497,"is_reserved":false,"is_disabled":false,"rental_uris":{"android":"levelo://app?vid=12534ff0-901f-4ad5-ae27-56b51d745162","ios":"levelo://app?vid=12534ff0-901f-4ad5-ae27-56b51d745162"},"vehicle_type_id":"4","last_reported":1685905461,"current_range_meters":23200,"station_id":"ce4bhbh2rcd13ifvqepg","pricing_plan_id":"free"},{"bike_id":"f22b645e-9664-4751-b4aa-a7986d323397","system_id":"levelo_inurba_marseille","lat":43.29285,"lon":5.4011,"is_reserved":false,"is_disabled":false,"rental_uris":{"android":"levelo://app?vid=f22b645e-9664-4751-b4aa-a7986d323397","ios":"levelo://app?vid=f22b645e-9664-4751-b4aa-a7986d323397"},"vehicle_type_id":"4","last_reported":1685905461,"current_range_meters":18000,"station_id":"ce4bh312rcd13ifvqdk0","pricing_plan_id":"free"},{"bike_id":"4e7ad619-c3a8-4128-97c5-6ecdac30dff9","system_id":"levelo_inurba_marseille","lat":43.292724,"lon":5.401131,"is_reserved":false,"is_disabled":false,"rental_uris":{"android":"levelo://app?vid=4e7ad619-c3a8-4128-97c5-6ecdac30dff9","ios":"levelo://app?vid=4e7ad619-c3a8-4128-97c5-6ecdac30dff9"},"vehicle_type_id":"4","last_reported":1685905461,"current_range_meters":26800,"station_id":"ce4bh312rcd13ifvqdk0","pricing_plan_id":"free"},{"bike_id":"bd5b74f0-aefd-4778-badd-601ef5a321cd","system_id":"levelo_inurba_marseille","lat":43.29284,"lon":5.40118,"is_reserved":false,"is_disabled":false,"rental_uris":{"android":"levelo://app?vid=bd5b74f0-aefd-4778-badd-601ef5a321cd","ios":"levelo://app?vid=bd5b74f0-aefd-4778-badd-601ef5a321cd"},"vehicle_type_id":"4","last_reported":1685905461,"current_range_meters":4400,"station_id":"ce4bh312rcd13ifvqdk0","pricing_plan_id":"free"},{"bike_id":"8ec633f5-b48c-4ad4-8234-b6a9e33abd44","system_id":"levelo_inurba_marseille","lat":43.2804,"lon":5.36943,"is_reserved":false,"is_disabled":false,"rental_uris":{"android":"levelo://app?vid=8ec633f5-b48c-4ad4-8234-b6a9e33abd44","ios":"levelo://app?vid=8ec633f5-b48c-4ad4-8234-b6a9e33abd44"},"vehicle_type_id":"4","last_reported":1685905461,"current_range_meters":12800,"station_id":"ce4bha12rcd13ifvqef0","pricing_plan_id":"free"},{"bike_id":"79a0f57b-eb40-42e3-8d4f-98c5c0c93839","system_id":"levelo_inurba_marseille","lat":43.290412,"lon":5.399633,"is_reserved":false,"is_disabled":false,"rental_uris":{"android":"levelo://app?vid=79a0f57b-eb40-42e3-8d4f-98c5c0c93839","ios":"levelo://app?vid=79a0f57b-eb40-42e3-8d4f-98c5c0c93839"},"vehicle_type_id":"4","last_reported":1685905461,"current_range_meters":21200,"station_id":"ce4bh392rcd13ifvqdm0","pricing_plan_id":"free"},{"bike_id":"ccae4552-7fd2-4cc5-b1fb-e50cfed3f259","system_id":"levelo_inurba_marseille","lat":43.29041,"lon":5.399634,"is_reserved":false,"is_disabled":false,"rental_uris":{"android":"levelo://app?vid=ccae4552-7fd2-4cc5-b1fb-e50cfed3f259","ios":"levelo://app?vid=ccae4552-7fd2-4cc5-b1fb-e50cfed3f259"},"vehicle_type_id":"4","last_reported":1685905461,"current_range_meters":17600,"station_id":"ce4bh392rcd13ifvqdm0","pricing_plan_id":"free"},{"bike_id":"7003f1f1-7e7d-4c88-bbde-bd54a2779e7c","system_id":"levelo_inurba_marseille","lat":43.290412,"lon":5.399633,"is_reserved":false,"is_disabled":false,"rental_uris":{"android":"levelo://app?vid=7003f1f1-7e7d-4c88-bbde-bd54a2779e7c","ios":"levelo://app?vid=7003f1f1-7e7d-4c88-bbde-bd54a2779e7c"},"vehicle_type_id":"4","last_reported":1685905461,"current_range_meters":16000,"station_id":"ce4bh392rcd13ifvqdm0","pricing_plan_id":"free"},{"bike_id":"aac237f6-39da-4ee5-944a-fdd18691f12c","system_id":"levelo_inurba_marseille","lat":43.284462,"lon":5.392121,"is_reserved":false,"is_disabled":false,"rental_uris":{"android":"levelo://app?vid=aac237f6-39da-4ee5-944a-fdd18691f12c","ios":"levelo://app?vid=aac237f6-39da-4ee5-944a-fdd18691f12c"},"vehicle_type_id":"4","last_reported":1685905461,"current_range_meters":28400,"station_id":"ce4bhoh2rcd13ifvqh5g","pricing_plan_id":"free"},{"bike_id":"db770889-841e-4da3-a06a-b49d371e26e1","system_id":"levelo_inurba_marseille","lat":43.284462,"lon":5.392121,"is_reserved":false,"is_disabled":false,"rental_uris":{"android":"levelo://app?vid=db770889-841e-4da3-a06a-b49d371e26e1","ios":"levelo://app?vid=db770889-841e-4da3-a06a-b49d371e26e1"},"vehicle_type_id":"4","last_reported":1685905461,"current_range_meters":28800,"station_id":"ce4bhoh2rcd13ifvqh5g","pricing_plan_id":"free"},{"bike_id":"659a5b53-1945-4fa2-bdaf-bf20093a6fae","system_id":"levelo_inurba_marseille","lat":43.284462,"lon":5.392121,"is_reserved":false,"is_disabled":false,"rental_uris":{"android":"levelo://app?vid=659a5b53-1945-4fa2-bdaf-bf20093a6fae","ios":"levelo://app?vid=659a5b53-1945-4fa2-bdaf-bf20093a6fae"},"vehicle_type_id":"4","last_reported":1685905461,"current_range_meters":13200,"station_id":"ce4bhoh2rcd13ifvqh5g","pricing_plan_id":"free"},{"bike_id":"cd64c398-67c1-49b7-a2fe-5e7627b2a379","system_id":"levelo_inurba_marseille","lat":43.27905,"lon":5.3801,"is_reserved":false,"is_disabled":false,"rental_uris":{"android":"levelo://app?vid=cd64c398-67c1-49b7-a2fe-5e7627b2a379","ios":"levelo://app?vid=cd64c398-67c1-49b7-a2fe-5e7627b2a379"},"vehicle_type_id":"4","last_reported":1685905461,"current_range_meters":4000,"station_id":"","pricing_plan_id":"free"},{"bike_id":"7809c0d1-7e43-4c23-a6f7-9693e8e2dffd","system_id":"levelo_inurba_marseille","lat":43.287154,"lon":5.399979,"is_reserved":false,"is_disabled":false,"rental_uris":{"android":"levelo://app?vid=7809c0d1-7e43-4c23-a6f7-9693e8e2dffd","ios":"levelo://app?vid=7809c0d1-7e43-4c23-a6f7-9693e8e2dffd"},"vehicle_type_id":"4","last_reported":1685905461,"current_range_meters":3200,"station_id":"ce4bho92rcd13ifvqh3g","pricing_plan_id":"free"},{"bike_id":"a1087086-74df-49f8-ba06-0ad48a59311c","system_id":"levelo_inurba_marseille","lat":43.287154,"lon":5.399979,"is_reserved":false,"is_disabled":false,"rental_uris":{"android":"levelo://app?vid=a1087086-74df-49f8-ba06-0ad48a59311c","ios":"levelo://app?vid=a1087086-74df-49f8-ba06-0ad48a59311c"},"vehicle_type_id":"4","last_reported":1685905461,"current_range_meters":26400,"station_id":"ce4bho92rcd13ifvqh3g","pricing_plan_id":"free"},{"bike_id":"bba574e1-60e6-44d5-b01d-483a9ce659a6","system_id":"levelo_inurba_marseille","lat":43.287154,"lon":5.399979,"is_reserved":false,"is_disabled":false,"rental_uris":{"android":"levelo://app?vid=bba574e1-60e6-44d5-b01d-483a9ce659a6","ios":"levelo://app?vid=bba574e1-60e6-44d5-b01d-483a9ce659a6"},"vehicle_type_id":"4","last_reported":1685905461,"current_range_meters":20000,"station_id":"ce4bho92rcd13ifvqh3g","pricing_plan_id":"free"},{"bike_id":"6802c24e-90cb-46e6-a2fe-8a6fc78c6a6a","system_id":"levelo_inurba_marseille","lat":43.287154,"lon":5.399979,"is_reserved":false,"is_disabled":false,"rental_uris":{"android":"levelo://app?vid=6802c24e-90cb-46e6-a2fe-8a6fc78c6a6a","ios":"levelo://app?vid=6802c24e-90cb-46e6-a2fe-8a6fc78c6a6a"},"vehicle_type_id":"4","last_reported":1685905461,"current_range_meters":10400,"station_id":"ce4bho92rcd13ifvqh3g","pricing_plan_id":"free"},{"bike_id":"971ee7f6-1d5e-4823-924a-25760e7681f0","system_id":"levelo_inurba_marseille","lat":43.287154,"lon":5.399979,"is_reserved":false,"is_disabled":false,"rental_uris":{"android":"levelo://app?vid=971ee7f6-1d5e-4823-924a-25760e7681f0","ios":"levelo://app?vid=971ee7f6-1d5e-4823-924a-25760e7681f0"},"vehicle_type_id":"4","last_reported":1685905461,"current_range_meters":17600,"station_id":"ce4bho92rcd13ifvqh3g","pricing_plan_id":"free"},{"bike_id":"0c739346-4d08-4d79-a607-c879a11b59ec","system_id":"levelo_inurba_marseille","lat":43.32048,"lon":5.41551,"is_reserved":false,"is_disabled":false,"rental_uris":{"android":"levelo://app?vid=0c739346-4d08-4d79-a607-c879a11b59ec","ios":"levelo://app?vid=0c739346-4d08-4d79-a607-c879a11b59ec"},"vehicle_type_id":"4","last_reported":1685905461,"current_range_meters":29200,"station_id":"","pricing_plan_id":"free"},{"bike_id":"bc4dc0e7-b26e-44c4-b47d-2893123703b2","system_id":"levelo_inurba_marseille","lat":43.32037,"lon":5.41556,"is_reserved":false,"is_disabled":false,"rental_uris":{"android":"levelo://app?vid=bc4dc0e7-b26e-44c4-b47d-2893123703b2","ios":"levelo://app?vid=bc4dc0e7-b26e-44c4-b47d-2893123703b2"},"vehicle_type_id":"4","last_reported":1685905461,"current_range_meters":31200,"station_id":"","pricing_plan_id":"free"},{"bike_id":"15292a35-debd-4d55-ab66-e14fe147b2b9","system_id":"levelo_inurba_marseille","lat":43.32027,"lon":5.41562,"is_reserved":false,"is_disabled":false,"rental_uris":{"android":"levelo://app?vid=15292a35-debd-4d55-ab66-e14fe147b2b9","ios":"levelo://app?vid=15292a35-debd-4d55-ab66-e14fe147b2b9"},"vehicle_type_id":"4","last_reported":1685905461,"current_range_meters":31200,"station_id":"","pricing_plan_id":"free"},{"bike_id":"ae6cf5cf-9fd5-42c0-8466-eb012fc96d25","system_id":"levelo_inurba_marseille","lat":43.32032,"lon":5.41561,"is_reserved":false,"is_disabled":false,"rental_uris":{"android":"levelo://app?vid=ae6cf5cf-9fd5-42c0-8466-eb012fc96d25","ios":"levelo://app?vid=ae6cf5cf-9fd5-42c0-8466-eb012fc96d25"},"vehicle_type_id":"4","last_reported":1685905461,"current_range_meters":31200,"station_id":"","pricing_plan_id":"free"},{"bike_id":"781b2f7b-81ba-4c34-9163-b045dafe359c","system_id":"levelo_inurba_marseille","lat":43.32038,"lon":5.41563,"is_reserved":false,"is_disabled":false,"rental_uris":{"android":"levelo://app?vid=781b2f7b-81ba-4c34-9163-b045dafe359c","ios":"levelo://app?vid=781b2f7b-81ba-4c34-9163-b045dafe359c"},"vehicle_type_id":"4","last_reported":1685905461,"current_range_meters":30800,"station_id":"","pricing_plan_id":"free"},{"bike_id":"85080033-a16e-4ce2-a186-35d0563746cb","system_id":"levelo_inurba_marseille","lat":43.32059,"lon":5.41566,"is_reserved":false,"is_disabled":false,"rental_uris":{"android":"levelo://app?vid=85080033-a16e-4ce2-a186-35d0563746cb","ios":"levelo://app?vid=85080033-a16e-4ce2-a186-35d0563746cb"},"vehicle_type_id":"4","last_reported":1685905461,"current_range_meters":29600,"station_id":"","pricing_plan_id":"free"},{"bike_id":"a6712b89-d487-4a8e-8db7-a8c40dcbf8b0","system_id":"levelo_inurba_marseille","lat":43.276179,"lon":5.361009,"is_reserved":false,"is_disabled":false,"rental_uris":{"android":"levelo://app?vid=a6712b89-d487-4a8e-8db7-a8c40dcbf8b0","ios":"levelo://app?vid=a6712b89-d487-4a8e-8db7-a8c40dcbf8b0"},"vehicle_type_id":"4","last_reported":1685905461,"current_range_meters":6800,"station_id":"ce4bgj92rcd13ifvqbe0","pricing_plan_id":"free"},{"bike_id":"b81bb189-f832-4d89-b6fc-c090d5608f89","system_id":"levelo_inurba_marseille","lat":43.27618,"lon":5.361009,"is_reserved":false,"is_disabled":false,"rental_uris":{"android":"levelo://app?vid=b81bb189-f832-4d89-b6fc-c090d5608f89","ios":"levelo://app?vid=b81bb189-f832-4d89-b6fc-c090d5608f89"},"vehicle_type_id":"4","last_reported":1685905461,"current_range_meters":8400,"station_id":"ce4bgj92rcd13ifvqbe0","pricing_plan_id":"free"},{"bike_id":"3d50f876-29dc-4806-a2a3-f9022c193e37","system_id":"levelo_inurba_marseille","lat":43.280784,"lon":5.396622,"is_reserved":false,"is_disabled":false,"rental_uris":{"android":"levelo://app?vid=3d50f876-29dc-4806-a2a3-f9022c193e37","ios":"levelo://app?vid=3d50f876-29dc-4806-a2a3-f9022c193e37"},"vehicle_type_id":"4","last_reported":1685905461,"current_range_meters":26000,"station_id":"ce4bho12rcd13ifvqh2g","pricing_plan_id":"free"},{"bike_id":"4530ed75-080f-4210-a66b-f3cba387678d","system_id":"levelo_inurba_marseille","lat":43.280784,"lon":5.396622,"is_reserved":false,"is_disabled":false,"rental_uris":{"android":"levelo://app?vid=4530ed75-080f-4210-a66b-f3cba387678d","ios":"levelo://app?vid=4530ed75-080f-4210-a66b-f3cba387678d"},"vehicle_type_id":"4","last_reported":1685905461,"current_range_meters":400,"station_id":"ce4bho12rcd13ifvqh2g","pricing_plan_id":"free"},{"bike_id":"487f7800-7051-4a56-89c8-e5e16e3785a7","system_id":"levelo_inurba_marseille","lat":43.30355,"lon":5.41882,"is_reserved":false,"is_disabled":false,"rental_uris":{"android":"levelo://app?vid=487f7800-7051-4a56-89c8-e5e16e3785a7","ios":"levelo://app?vid=487f7800-7051-4a56-89c8-e5e16e3785a7"},"vehicle_type_id":"4","last_reported":1685905461,"current_range_meters":24000,"station_id":"","pricing_plan_id":"free"},{"bike_id":"ac5c4eb6-4a88-41a2-8d7e-c5704e7b7d38","system_id":"levelo_inurba_marseille","lat":43.273613,"lon":5.362705,"is_reserved":false,"is_disabled":false,"rental_uris":{"android":"levelo://app?vid=ac5c4eb6-4a88-41a2-8d7e-c5704e7b7d38","ios":"levelo://app?vid=ac5c4eb6-4a88-41a2-8d7e-c5704e7b7d38"},"vehicle_type_id":"4","last_reported":1685905461,"current_range_meters":18000,"station_id":"ce4bhbh2rcd13ifvqeo0","pricing_plan_id":"free"},{"bike_id":"1e31b915-8e8a-4e54-b8ca-ebb05e21c605","system_id":"levelo_inurba_marseille","lat":43.33612,"lon":5.410321,"is_reserved":false,"is_disabled":false,"rental_uris":{"android":"levelo://app?vid=1e31b915-8e8a-4e54-b8ca-ebb05e21c605","ios":"levelo://app?vid=1e31b915-8e8a-4e54-b8ca-ebb05e21c605"},"vehicle_type_id":"4","last_reported":1685905461,"current_range_meters":31600,"station_id":"ce4bhqh2rcd13ifvqhmg","pricing_plan_id":"free"},{"bike_id":"a0ce69b6-2a99-41d3-9b06-0c60601ba64d","system_id":"levelo_inurba_marseille","lat":43.33612,"lon":5.410321,"is_reserved":false,"is_disabled":false,"rental_uris":{"android":"levelo://app?vid=a0ce69b6-2a99-41d3-9b06-0c60601ba64d","ios":"levelo://app?vid=a0ce69b6-2a99-41d3-9b06-0c60601ba64d"},"vehicle_type_id":"4","last_reported":1685905461,"current_range_meters":26400,"station_id":"ce4bhqh2rcd13ifvqhmg","pricing_plan_id":"free"},{"bike_id":"ca37dd23-a978-484d-906d-31db028c6619","system_id":"levelo_inurba_marseille","lat":43.33612,"lon":5.410321,"is_reserved":false,"is_disabled":false,"rental_uris":{"android":"levelo://app?vid=ca37dd23-a978-484d-906d-31db028c6619","ios":"levelo://app?vid=ca37dd23-a978-484d-906d-31db028c6619"},"vehicle_type_id":"4","last_reported":1685905461,"current_range_meters":27600,"station_id":"ce4bhqh2rcd13ifvqhmg","pricing_plan_id":"free"},{"bike_id":"093e169f-be2b-4cfd-b5aa-3bd3b613db04","system_id":"levelo_inurba_marseille","lat":43.336134,"lon":5.410341,"is_reserved":false,"is_disabled":false,"rental_uris":{"android":"levelo://app?vid=093e169f-be2b-4cfd-b5aa-3bd3b613db04","ios":"levelo://app?vid=093e169f-be2b-4cfd-b5aa-3bd3b613db04"},"vehicle_type_id":"4","last_reported":1685905461,"current_range_meters":17200,"station_id":"ce4bhqh2rcd13ifvqhmg","pricing_plan_id":"free"},{"bike_id":"4c1181ed-ab27-4a52-bc6a-0abba062fb72","system_id":"levelo_inurba_marseille","lat":43.336134,"lon":5.410341,"is_reserved":false,"is_disabled":false,"rental_uris":{"android":"levelo://app?vid=4c1181ed-ab27-4a52-bc6a-0abba062fb72","ios":"levelo://app?vid=4c1181ed-ab27-4a52-bc6a-0abba062fb72"},"vehicle_type_id":"4","last_reported":1685905461,"current_range_meters":29600,"station_id":"ce4bhqh2rcd13ifvqhmg","pricing_plan_id":"free"},{"bike_id":"40cf1e56-6019-4564-96eb-6e9ed445ba7c","system_id":"levelo_inurba_marseille","lat":43.336134,"lon":5.410341,"is_reserved":false,"is_disabled":false,"rental_uris":{"android":"levelo://app?vid=40cf1e56-6019-4564-96eb-6e9ed445ba7c","ios":"levelo://app?vid=40cf1e56-6019-4564-96eb-6e9ed445ba7c"},"vehicle_type_id":"4","last_reported":1685905461,"current_range_meters":24800,"station_id":"ce4bhqh2rcd13ifvqhmg","pricing_plan_id":"free"},{"bike_id":"a247455c-0c98-49b1-ac71-b4521489bdba","system_id":"levelo_inurba_marseille","lat":43.336134,"lon":5.410341,"is_reserved":false,"is_disabled":false,"rental_uris":{"android":"levelo://app?vid=a247455c-0c98-49b1-ac71-b4521489bdba","ios":"levelo://app?vid=a247455c-0c98-49b1-ac71-b4521489bdba"},"vehicle_type_id":"4","last_reported":1685905461,"current_range_meters":20000,"station_id":"ce4bhqh2rcd13ifvqhmg","pricing_plan_id":"free"},{"bike_id":"66cde21f-b1a9-41b6-ae12-289dface2a23","system_id":"levelo_inurba_marseille","lat":43.276771,"lon":5.388799,"is_reserved":false,"is_disabled":false,"rental_uris":{"android":"levelo://app?vid=66cde21f-b1a9-41b6-ae12-289dface2a23","ios":"levelo://app?vid=66cde21f-b1a9-41b6-ae12-289dface2a23"},"vehicle_type_id":"4","last_reported":1685905461,"current_range_meters":9200,"station_id":"ce4bhi12rcd13ifvqfo0","pricing_plan_id":"free"},{"bike_id":"d468aecf-0ebc-4bca-857e-c7c7eac1f876","system_id":"levelo_inurba_marseille","lat":43.275243,"lon":5.384237,"is_reserved":false,"is_disabled":false,"rental_uris":{"android":"levelo://app?vid=d468aecf-0ebc-4bca-857e-c7c7eac1f876","ios":"levelo://app?vid=d468aecf-0ebc-4bca-857e-c7c7eac1f876"},"vehicle_type_id":"4","last_reported":1685905461,"current_range_meters":0,"station_id":"","pricing_plan_id":"free"},{"bike_id":"ca64bed7-0455-4a75-9384-6f4bb75fe4ac","system_id":"levelo_inurba_marseille","lat":43.31083,"lon":5.42421,"is_reserved":false,"is_disabled":false,"rental_uris":{"android":"levelo://app?vid=ca64bed7-0455-4a75-9384-6f4bb75fe4ac","ios":"levelo://app?vid=ca64bed7-0455-4a75-9384-6f4bb75fe4ac"},"vehicle_type_id":"4","last_reported":1685905461,"current_range_meters":19200,"station_id":"ce4bhp92rcd13ifvqhag","pricing_plan_id":"free"},{"bike_id":"ab6d6429-fa78-47e2-adf7-46b46f942428","system_id":"levelo_inurba_marseille","lat":43.317121,"lon":5.423936,"is_reserved":false,"is_disabled":false,"rental_uris":{"android":"levelo://app?vid=ab6d6429-fa78-47e2-adf7-46b46f942428","ios":"levelo://app?vid=ab6d6429-fa78-47e2-adf7-46b46f942428"},"vehicle_type_id":"4","last_reported":1685905461,"current_range_meters":30000,"station_id":"ce4bhp92rcd13ifvqhbg","pricing_plan_id":"free"},{"bike_id":"9db9545d-f63d-42be-a674-9c25625f916b","system_id":"levelo_inurba_marseille","lat":43.29402,"lon":5.41919,"is_reserved":false,"is_disabled":false,"rental_uris":{"android":"levelo://app?vid=9db9545d-f63d-42be-a674-9c25625f916b","ios":"levelo://app?vid=9db9545d-f63d-42be-a674-9c25625f916b"},"vehicle_type_id":"4","last_reported":1685905461,"current_range_meters":6800,"station_id":"","pricing_plan_id":"free"},{"bike_id":"91eae25d-e648-46e8-b7e9-cedfd0bab9be","system_id":"levelo_inurba_marseille","lat":43.27424,"lon":5.39401,"is_reserved":false,"is_disabled":false,"rental_uris":{"android":"levelo://app?vid=91eae25d-e648-46e8-b7e9-cedfd0bab9be","ios":"levelo://app?vid=91eae25d-e648-46e8-b7e9-cedfd0bab9be"},"vehicle_type_id":"4","last_reported":1685905461,"current_range_meters":8000,"station_id":"","pricing_plan_id":"free"},{"bike_id":"e5a2e4eb-2037-48bf-a497-bb45ae596a04","system_id":"levelo_inurba_marseille","lat":43.304096,"lon":5.425385,"is_reserved":false,"is_disabled":false,"rental_uris":{"android":"levelo://app?vid=e5a2e4eb-2037-48bf-a497-bb45ae596a04","ios":"levelo://app?vid=e5a2e4eb-2037-48bf-a497-bb45ae596a04"},"vehicle_type_id":"4","last_reported":1685905461,"current_range_meters":22800,"station_id":"ce4bhoh2rcd13ifvqh6g","pricing_plan_id":"free"},{"bike_id":"4d80717c-1ab1-4ff1-8e16-4b8981f90281","system_id":"levelo_inurba_marseille","lat":43.32714,"lon":5.42336,"is_reserved":false,"is_disabled":false,"rental_uris":{"android":"levelo://app?vid=4d80717c-1ab1-4ff1-8e16-4b8981f90281","ios":"levelo://app?vid=4d80717c-1ab1-4ff1-8e16-4b8981f90281"},"vehicle_type_id":"4","last_reported":1685905461,"current_range_meters":25200,"station_id":"","pricing_plan_id":"free"},{"bike_id":"2eafccb8-077c-497e-a302-a75a1d03ef07","system_id":"levelo_inurba_marseille","lat":43.295523,"lon":5.422926,"is_reserved":false,"is_disabled":false,"rental_uris":{"android":"levelo://app?vid=2eafccb8-077c-497e-a302-a75a1d03ef07","ios":"levelo://app?vid=2eafccb8-077c-497e-a302-a75a1d03ef07"},"vehicle_type_id":"4","last_reported":1685905461,"current_range_meters":14400,"station_id":"ce4bhph2rcd13ifvqhdg","pricing_plan_id":"free"},{"bike_id":"629ddbd0-7d9b-4dc0-a7eb-09e1d9540a47","system_id":"levelo_inurba_marseille","lat":43.27111,"lon":5.38719,"is_reserved":false,"is_disabled":false,"rental_uris":{"android":"levelo://app?vid=629ddbd0-7d9b-4dc0-a7eb-09e1d9540a47","ios":"levelo://app?vid=629ddbd0-7d9b-4dc0-a7eb-09e1d9540a47"},"vehicle_type_id":"4","last_reported":1685905461,"current_range_meters":19600,"station_id":"","pricing_plan_id":"free"},{"bike_id":"12e32508-d087-4fb5-b483-3b2a5b65861e","system_id":"levelo_inurba_marseille","lat":43.27109,"lon":5.38727,"is_reserved":false,"is_disabled":false,"rental_uris":{"android":"levelo://app?vid=12e32508-d087-4fb5-b483-3b2a5b65861e","ios":"levelo://app?vid=12e32508-d087-4fb5-b483-3b2a5b65861e"},"vehicle_type_id":"4","last_reported":1685905461,"current_range_meters":28400,"station_id":"","pricing_plan_id":"free"},{"bike_id":"b5fe8365-c9f1-4b1e-b5b8-112fd2d5f111","system_id":"levelo_inurba_marseille","lat":43.272116,"lon":5.391763,"is_reserved":false,"is_disabled":false,"rental_uris":{"android":"levelo://app?vid=b5fe8365-c9f1-4b1e-b5b8-112fd2d5f111","ios":"levelo://app?vid=b5fe8365-c9f1-4b1e-b5b8-112fd2d5f111"},"vehicle_type_id":"4","last_reported":1685905461,"current_range_meters":13200,"station_id":"ce4bhhp2rcd13ifvqfm0","pricing_plan_id":"free"},{"bike_id":"2748427f-3487-4ba6-88ab-456bc43e8c77","system_id":"levelo_inurba_marseille","lat":43.27199,"lon":5.3919,"is_reserved":false,"is_disabled":false,"rental_uris":{"android":"levelo://app?vid=2748427f-3487-4ba6-88ab-456bc43e8c77","ios":"levelo://app?vid=2748427f-3487-4ba6-88ab-456bc43e8c77"},"vehicle_type_id":"4","last_reported":1685905461,"current_range_meters":19200,"station_id":"ce4bhhp2rcd13ifvqfm0","pricing_plan_id":"free"},{"bike_id":"1bd39fb6-eb4c-4ccd-a0d9-2986ef2b4bde","system_id":"levelo_inurba_marseille","lat":43.278128,"lon":5.407195,"is_reserved":false,"is_disabled":false,"rental_uris":{"android":"levelo://app?vid=1bd39fb6-eb4c-4ccd-a0d9-2986ef2b4bde","ios":"levelo://app?vid=1bd39fb6-eb4c-4ccd-a0d9-2986ef2b4bde"},"vehicle_type_id":"4","last_reported":1685905461,"current_range_meters":2000,"station_id":"ce4bhnh2rcd13ifvqgtg","pricing_plan_id":"free"},{"bike_id":"fae2e08b-a8f8-44b6-b4a5-00c0b7dd4166","system_id":"levelo_inurba_marseille","lat":43.278128,"lon":5.407195,"is_reserved":false,"is_disabled":false,"rental_uris":{"android":"levelo://app?vid=fae2e08b-a8f8-44b6-b4a5-00c0b7dd4166","ios":"levelo://app?vid=fae2e08b-a8f8-44b6-b4a5-00c0b7dd4166"},"vehicle_type_id":"4","last_reported":1685905461,"current_range_meters":6800,"station_id":"ce4bhnh2rcd13ifvqgtg","pricing_plan_id":"free"},{"bike_id":"d575bf42-fc5d-4033-8521-8521072afc91","system_id":"levelo_inurba_marseille","lat":43.269467,"lon":5.386439,"is_reserved":false,"is_disabled":false,"rental_uris":{"android":"levelo://app?vid=d575bf42-fc5d-4033-8521-8521072afc91","ios":"levelo://app?vid=d575bf42-fc5d-4033-8521-8521072afc91"},"vehicle_type_id":"4","last_reported":1685905461,"current_range_meters":13600,"station_id":"ce4bhh92rcd13ifvqfh0","pricing_plan_id":"free"},{"bike_id":"236ecc8f-313c-47df-a503-2aecdae1f0b7","system_id":"levelo_inurba_marseille","lat":43.269467,"lon":5.386439,"is_reserved":false,"is_disabled":false,"rental_uris":{"android":"levelo://app?vid=236ecc8f-313c-47df-a503-2aecdae1f0b7","ios":"levelo://app?vid=236ecc8f-313c-47df-a503-2aecdae1f0b7"},"vehicle_type_id":"4","last_reported":1685905461,"current_range_meters":11600,"station_id":"ce4bhh92rcd13ifvqfh0","pricing_plan_id":"free"},{"bike_id":"f1da93e0-03d2-48e7-88ab-529255bfc5e1","system_id":"levelo_inurba_marseille","lat":43.269319,"lon":5.389397,"is_reserved":false,"is_disabled":false,"rental_uris":{"android":"levelo://app?vid=f1da93e0-03d2-48e7-88ab-529255bfc5e1","ios":"levelo://app?vid=f1da93e0-03d2-48e7-88ab-529255bfc5e1"},"vehicle_type_id":"4","last_reported":1685905461,"current_range_meters":30400,"station_id":"ce4bhhh2rcd13ifvqfl0","pricing_plan_id":"free"},{"bike_id":"aef134ce-2d17-45e0-a859-c3414435b01c","system_id":"levelo_inurba_marseille","lat":43.269319,"lon":5.389397,"is_reserved":false,"is_disabled":false,"rental_uris":{"android":"levelo://app?vid=aef134ce-2d17-45e0-a859-c3414435b01c","ios":"levelo://app?vid=aef134ce-2d17-45e0-a859-c3414435b01c"},"vehicle_type_id":"4","last_reported":1685905461,"current_range_meters":8800,"station_id":"ce4bhhh2rcd13ifvqfl0","pricing_plan_id":"free"},{"bike_id":"6297b0f7-b1e2-40ad-811b-3367ac7c6794","system_id":"levelo_inurba_marseille","lat":43.26681,"lon":5.382694,"is_reserved":false,"is_disabled":false,"rental_uris":{"android":"levelo://app?vid=6297b0f7-b1e2-40ad-811b-3367ac7c6794","ios":"levelo://app?vid=6297b0f7-b1e2-40ad-811b-3367ac7c6794"},"vehicle_type_id":"4","last_reported":1685905461,"current_range_meters":15600,"station_id":"ce4bhg92rcd13ifvqf90","pricing_plan_id":"free"},{"bike_id":"539b6c49-e8d5-4bd4-a92b-4935127bd849","system_id":"levelo_inurba_marseille","lat":43.26681,"lon":5.382694,"is_reserved":false,"is_disabled":false,"rental_uris":{"android":"levelo://app?vid=539b6c49-e8d5-4bd4-a92b-4935127bd849","ios":"levelo://app?vid=539b6c49-e8d5-4bd4-a92b-4935127bd849"},"vehicle_type_id":"4","last_reported":1685905461,"current_range_meters":13600,"station_id":"ce4bhg92rcd13ifvqf90","pricing_plan_id":"free"},{"bike_id":"477c9b24-a1bd-4af2-9e3a-7a10b9af13d1","system_id":"levelo_inurba_marseille","lat":43.31705,"lon":5.43325,"is_reserved":false,"is_disabled":false,"rental_uris":{"android":"levelo://app?vid=477c9b24-a1bd-4af2-9e3a-7a10b9af13d1","ios":"levelo://app?vid=477c9b24-a1bd-4af2-9e3a-7a10b9af13d1"},"vehicle_type_id":"4","last_reported":1685905461,"current_range_meters":0,"station_id":"","pricing_plan_id":"free"},{"bike_id":"57143554-6bd2-4ac3-a9a3-581bc0ed1a91","system_id":"levelo_inurba_marseille","lat":43.27996,"lon":5.416624,"is_reserved":false,"is_disabled":false,"rental_uris":{"android":"levelo://app?vid=57143554-6bd2-4ac3-a9a3-581bc0ed1a91","ios":"levelo://app?vid=57143554-6bd2-4ac3-a9a3-581bc0ed1a91"},"vehicle_type_id":"4","last_reported":1685905461,"current_range_meters":25200,"station_id":"ce4bho12rcd13ifvqh1g","pricing_plan_id":"free"},{"bike_id":"49b21e3a-5ba5-44b4-a97e-addecb9cc27b","system_id":"levelo_inurba_marseille","lat":43.27983,"lon":5.41661,"is_reserved":false,"is_disabled":false,"rental_uris":{"android":"levelo://app?vid=49b21e3a-5ba5-44b4-a97e-addecb9cc27b","ios":"levelo://app?vid=49b21e3a-5ba5-44b4-a97e-addecb9cc27b"},"vehicle_type_id":"4","last_reported":1685905461,"current_range_meters":29600,"station_id":"ce4bho12rcd13ifvqh1g","pricing_plan_id":"free"},{"bike_id":"40e05c92-1e4d-4252-816e-fff9d0094978","system_id":"levelo_inurba_marseille","lat":43.265789,"lon":5.389963,"is_reserved":false,"is_disabled":false,"rental_uris":{"android":"levelo://app?vid=40e05c92-1e4d-4252-816e-fff9d0094978","ios":"levelo://app?vid=40e05c92-1e4d-4252-816e-fff9d0094978"},"vehicle_type_id":"4","last_reported":1685905461,"current_range_meters":28000,"station_id":"","pricing_plan_id":"free"},{"bike_id":"f5236276-e859-4218-87e7-aabdce2e73d3","system_id":"levelo_inurba_marseille","lat":43.26209,"lon":5.37046,"is_reserved":false,"is_disabled":false,"rental_uris":{"android":"levelo://app?vid=f5236276-e859-4218-87e7-aabdce2e73d3","ios":"levelo://app?vid=f5236276-e859-4218-87e7-aabdce2e73d3"},"vehicle_type_id":"4","last_reported":1685905461,"current_range_meters":8800,"station_id":"","pricing_plan_id":"free"},{"bike_id":"2a48043e-0223-418b-bf9b-d91374083f1f","system_id":"levelo_inurba_marseille","lat":43.317104,"lon":5.436818,"is_reserved":false,"is_disabled":false,"rental_uris":{"android":"levelo://app?vid=2a48043e-0223-418b-bf9b-d91374083f1f","ios":"levelo://app?vid=2a48043e-0223-418b-bf9b-d91374083f1f"},"vehicle_type_id":"4","last_reported":1685905461,"current_range_meters":24400,"station_id":"ce4bhp92rcd13ifvqhcg","pricing_plan_id":"free"},{"bike_id":"c2b397fb-dd16-4a5f-9688-8c8813307451","system_id":"levelo_inurba_marseille","lat":43.317104,"lon":5.436818,"is_reserved":false,"is_disabled":false,"rental_uris":{"android":"levelo://app?vid=c2b397fb-dd16-4a5f-9688-8c8813307451","ios":"levelo://app?vid=c2b397fb-dd16-4a5f-9688-8c8813307451"},"vehicle_type_id":"4","last_reported":1685905461,"current_range_meters":31600,"station_id":"ce4bhp92rcd13ifvqhcg","pricing_plan_id":"free"},{"bike_id":"7b47e6b4-c757-410c-8536-45f3854a9c52","system_id":"levelo_inurba_marseille","lat":43.317104,"lon":5.436818,"is_reserved":false,"is_disabled":false,"rental_uris":{"android":"levelo://app?vid=7b47e6b4-c757-410c-8536-45f3854a9c52","ios":"levelo://app?vid=7b47e6b4-c757-410c-8536-45f3854a9c52"},"vehicle_type_id":"4","last_reported":1685905461,"current_range_meters":17600,"station_id":"ce4bhp92rcd13ifvqhcg","pricing_plan_id":"free"},{"bike_id":"4a0360a4-aea3-4627-8ba5-026f41514ca5","system_id":"levelo_inurba_marseille","lat":43.267959,"lon":5.402685,"is_reserved":false,"is_disabled":false,"rental_uris":{"android":"levelo://app?vid=4a0360a4-aea3-4627-8ba5-026f41514ca5","ios":"levelo://app?vid=4a0360a4-aea3-4627-8ba5-026f41514ca5"},"vehicle_type_id":"4","last_reported":1685905461,"current_range_meters":12800,"station_id":"ce501612rcd8frsf0b60","pricing_plan_id":"free"},{"bike_id":"6c3aba5a-9bd9-4645-8fde-1b923c089b7d","system_id":"levelo_inurba_marseille","lat":43.267959,"lon":5.402685,"is_reserved":false,"is_disabled":false,"rental_uris":{"android":"levelo://app?vid=6c3aba5a-9bd9-4645-8fde-1b923c089b7d","ios":"levelo://app?vid=6c3aba5a-9bd9-4645-8fde-1b923c089b7d"},"vehicle_type_id":"4","last_reported":1685905461,"current_range_meters":4000,"station_id":"ce501612rcd8frsf0b60","pricing_plan_id":"free"},{"bike_id":"d8c37772-ff72-438b-bc5b-9dc4f9de9647","system_id":"levelo_inurba_marseille","lat":43.267959,"lon":5.402685,"is_reserved":false,"is_disabled":false,"rental_uris":{"android":"levelo://app?vid=d8c37772-ff72-438b-bc5b-9dc4f9de9647","ios":"levelo://app?vid=d8c37772-ff72-438b-bc5b-9dc4f9de9647"},"vehicle_type_id":"4","last_reported":1685905461,"current_range_meters":18400,"station_id":"ce501612rcd8frsf0b60","pricing_plan_id":"free"},{"bike_id":"285b7d8c-aa2a-41e2-b83f-c6fc642ee70c","system_id":"levelo_inurba_marseille","lat":43.267959,"lon":5.402685,"is_reserved":false,"is_disabled":false,"rental_uris":{"android":"levelo://app?vid=285b7d8c-aa2a-41e2-b83f-c6fc642ee70c","ios":"levelo://app?vid=285b7d8c-aa2a-41e2-b83f-c6fc642ee70c"},"vehicle_type_id":"4","last_reported":1685905461,"current_range_meters":30800,"station_id":"ce501612rcd8frsf0b60","pricing_plan_id":"free"},{"bike_id":"9a260f6b-6a8c-46e6-8f18-8f5948ada270","system_id":"levelo_inurba_marseille","lat":43.267959,"lon":5.402685,"is_reserved":false,"is_disabled":false,"rental_uris":{"android":"levelo://app?vid=9a260f6b-6a8c-46e6-8f18-8f5948ada270","ios":"levelo://app?vid=9a260f6b-6a8c-46e6-8f18-8f5948ada270"},"vehicle_type_id":"4","last_reported":1685905461,"current_range_meters":16400,"station_id":"ce501612rcd8frsf0b60","pricing_plan_id":"free"},{"bike_id":"688aaa8b-2d8a-48a1-883d-7c5b4f6c2b72","system_id":"levelo_inurba_marseille","lat":43.298768,"lon":5.43643,"is_reserved":false,"is_disabled":false,"rental_uris":{"android":"levelo://app?vid=688aaa8b-2d8a-48a1-883d-7c5b4f6c2b72","ios":"levelo://app?vid=688aaa8b-2d8a-48a1-883d-7c5b4f6c2b72"},"vehicle_type_id":"4","last_reported":1685905461,"current_range_meters":8000,"station_id":"ce4bhpp2rcd13ifvqhfg","pricing_plan_id":"free"},{"bike_id":"6f4c1925-aeb4-4e28-bb77-e626fa8a1c4c","system_id":"levelo_inurba_marseille","lat":43.298768,"lon":5.43643,"is_reserved":false,"is_disabled":false,"rental_uris":{"android":"levelo://app?vid=6f4c1925-aeb4-4e28-bb77-e626fa8a1c4c","ios":"levelo://app?vid=6f4c1925-aeb4-4e28-bb77-e626fa8a1c4c"},"vehicle_type_id":"4","last_reported":1685905461,"current_range_meters":18400,"station_id":"ce4bhpp2rcd13ifvqhfg","pricing_plan_id":"free"},{"bike_id":"ae6a119d-3fa5-4fbd-b2b5-a3d02386a2b8","system_id":"levelo_inurba_marseille","lat":43.26059,"lon":5.39386,"is_reserved":false,"is_disabled":false,"rental_uris":{"android":"levelo://app?vid=ae6a119d-3fa5-4fbd-b2b5-a3d02386a2b8","ios":"levelo://app?vid=ae6a119d-3fa5-4fbd-b2b5-a3d02386a2b8"},"vehicle_type_id":"4","last_reported":1685905461,"current_range_meters":0,"station_id":"ce4bhh92rcd13ifvqfj0","pricing_plan_id":"free"},{"bike_id":"4856bc1f-3f57-4f2c-864d-936564af673b","system_id":"levelo_inurba_marseille","lat":43.2607,"lon":5.393983,"is_reserved":false,"is_disabled":false,"rental_uris":{"android":"levelo://app?vid=4856bc1f-3f57-4f2c-864d-936564af673b","ios":"levelo://app?vid=4856bc1f-3f57-4f2c-864d-936564af673b"},"vehicle_type_id":"4","last_reported":1685905461,"current_range_meters":6800,"station_id":"ce4bhh92rcd13ifvqfj0","pricing_plan_id":"free"},{"bike_id":"aeee3528-6c91-4919-aa9d-d496751b62e0","system_id":"levelo_inurba_marseille","lat":43.317104,"lon":5.436818,"is_reserved":false,"is_disabled":false,"rental_uris":{"android":"levelo://app?vid=aeee3528-6c91-4919-aa9d-d496751b62e0","ios":"levelo://app?vid=aeee3528-6c91-4919-aa9d-d496751b62e0"},"vehicle_type_id":"4","last_reported":1685905461,"current_range_meters":20800,"station_id":"ce4bhp92rcd13ifvqhcg","pricing_plan_id":"free"},{"bike_id":"9fa4bea2-c552-4074-bef0-ba0ca07cd80c","system_id":"levelo_inurba_marseille","lat":43.260912,"lon":5.397584,"is_reserved":false,"is_disabled":false,"rental_uris":{"android":"levelo://app?vid=9fa4bea2-c552-4074-bef0-ba0ca07cd80c","ios":"levelo://app?vid=9fa4bea2-c552-4074-bef0-ba0ca07cd80c"},"vehicle_type_id":"4","last_reported":1685905461,"current_range_meters":7200,"station_id":"ce4bhi12rcd13ifvqfq0","pricing_plan_id":"free"},{"bike_id":"beb5787f-4c42-4f62-b791-74eede05bb42","system_id":"levelo_inurba_marseille","lat":43.260912,"lon":5.397584,"is_reserved":false,"is_disabled":false,"rental_uris":{"android":"levelo://app?vid=beb5787f-4c42-4f62-b791-74eede05bb42","ios":"levelo://app?vid=beb5787f-4c42-4f62-b791-74eede05bb42"},"vehicle_type_id":"4","last_reported":1685905461,"current_range_meters":18800,"station_id":"ce4bhi12rcd13ifvqfq0","pricing_plan_id":"free"},{"bike_id":"7bb60854-bcd1-4e99-852f-4355e8a784e4","system_id":"levelo_inurba_marseille","lat":43.260912,"lon":5.397584,"is_reserved":false,"is_disabled":false,"rental_uris":{"android":"levelo://app?vid=7bb60854-bcd1-4e99-852f-4355e8a784e4","ios":"levelo://app?vid=7bb60854-bcd1-4e99-852f-4355e8a784e4"},"vehicle_type_id":"4","last_reported":1685905461,"current_range_meters":5200,"station_id":"ce4bhi12rcd13ifvqfq0","pricing_plan_id":"free"},{"bike_id":"5ec881df-8b58-4747-a2e0-60c57b27ed83","system_id":"levelo_inurba_marseille","lat":43.255756,"lon":5.382303,"is_reserved":false,"is_disabled":false,"rental_uris":{"android":"levelo://app?vid=5ec881df-8b58-4747-a2e0-60c57b27ed83","ios":"levelo://app?vid=5ec881df-8b58-4747-a2e0-60c57b27ed83"},"vehicle_type_id":"4","last_reported":1685905461,"current_range_meters":5600,"station_id":"ce4bhih2rcd13ifvqfs0","pricing_plan_id":"free"},{"bike_id":"1eb6ef94-77c4-4fe0-a660-40fa9218ae24","system_id":"levelo_inurba_marseille","lat":43.255756,"lon":5.382303,"is_reserved":false,"is_disabled":false,"rental_uris":{"android":"levelo://app?vid=1eb6ef94-77c4-4fe0-a660-40fa9218ae24","ios":"levelo://app?vid=1eb6ef94-77c4-4fe0-a660-40fa9218ae24"},"vehicle_type_id":"4","last_reported":1685905461,"current_range_meters":27600,"station_id":"ce4bhih2rcd13ifvqfs0","pricing_plan_id":"free"},{"bike_id":"8f87b84b-9bce-42d0-b2f6-5811a0549e80","system_id":"levelo_inurba_marseille","lat":43.27072,"lon":5.42274,"is_reserved":false,"is_disabled":false,"rental_uris":{"android":"levelo://app?vid=8f87b84b-9bce-42d0-b2f6-5811a0549e80","ios":"levelo://app?vid=8f87b84b-9bce-42d0-b2f6-5811a0549e80"},"vehicle_type_id":"4","last_reported":1685905461,"current_range_meters":29200,"station_id":"ce4bhk92rcd13ifvqgb0","pricing_plan_id":"free"},{"bike_id":"aaab906e-9935-40a6-b90b-1415de55e044","system_id":"levelo_inurba_marseille","lat":43.27072,"lon":5.42277,"is_reserved":false,"is_disabled":false,"rental_uris":{"android":"levelo://app?vid=aaab906e-9935-40a6-b90b-1415de55e044","ios":"levelo://app?vid=aaab906e-9935-40a6-b90b-1415de55e044"},"vehicle_type_id":"4","last_reported":1685905461,"current_range_meters":29200,"station_id":"ce4bhk92rcd13ifvqgb0","pricing_plan_id":"free"},{"bike_id":"77d0cbfe-6d79-44d3-a6cb-6a7978c04ef5","system_id":"levelo_inurba_marseille","lat":43.270721,"lon":5.422764,"is_reserved":false,"is_disabled":false,"rental_uris":{"android":"levelo://app?vid=77d0cbfe-6d79-44d3-a6cb-6a7978c04ef5","ios":"levelo://app?vid=77d0cbfe-6d79-44d3-a6cb-6a7978c04ef5"},"vehicle_type_id":"4","last_reported":1685905461,"current_range_meters":3600,"station_id":"ce4bhk92rcd13ifvqgb0","pricing_plan_id":"free"},{"bike_id":"3a29b695-70e3-46dc-9a8f-e3fd7a75d65b","system_id":"levelo_inurba_marseille","lat":43.258658,"lon":5.398935,"is_reserved":false,"is_disabled":false,"rental_uris":{"android":"levelo://app?vid=3a29b695-70e3-46dc-9a8f-e3fd7a75d65b","ios":"levelo://app?vid=3a29b695-70e3-46dc-9a8f-e3fd7a75d65b"},"vehicle_type_id":"4","last_reported":1685905461,"current_range_meters":6800,"station_id":"ce4bhl92rcd13ifvqghg","pricing_plan_id":"free"},{"bike_id":"06210bb0-1c2f-44c9-a2f5-d6b247a20695","system_id":"levelo_inurba_marseille","lat":43.33318,"lon":5.44288,"is_reserved":false,"is_disabled":false,"rental_uris":{"android":"levelo://app?vid=06210bb0-1c2f-44c9-a2f5-d6b247a20695","ios":"levelo://app?vid=06210bb0-1c2f-44c9-a2f5-d6b247a20695"},"vehicle_type_id":"4","last_reported":1685905461,"current_range_meters":28800,"station_id":"","pricing_plan_id":"free"},{"bike_id":"8a065f1c-914c-4e39-9a27-b733ec5a900d","system_id":"levelo_inurba_marseille","lat":43.25293,"lon":5.37872,"is_reserved":false,"is_disabled":false,"rental_uris":{"android":"levelo://app?vid=8a065f1c-914c-4e39-9a27-b733ec5a900d","ios":"levelo://app?vid=8a065f1c-914c-4e39-9a27-b733ec5a900d"},"vehicle_type_id":"4","last_reported":1685905461,"current_range_meters":22000,"station_id":"","pricing_plan_id":"free"},{"bike_id":"1f83756e-58a3-4c8a-8892-56b251548a96","system_id":"levelo_inurba_marseille","lat":43.259013,"lon":5.409301,"is_reserved":false,"is_disabled":false,"rental_uris":{"android":"levelo://app?vid=1f83756e-58a3-4c8a-8892-56b251548a96","ios":"levelo://app?vid=1f83756e-58a3-4c8a-8892-56b251548a96"},"vehicle_type_id":"4","last_reported":1685905461,"current_range_meters":8000,"station_id":"ce4bhm92rcd13ifvqglg","pricing_plan_id":"free"},