{"last_updated":1729239120,"ttl":60,"version":"2.2","data":{"bikes":[{"bike_id":"ca5b18bb-27c6-42b2-bdd7-c1e3c8f00e3b","system_id":"levelo_inurba_marseille","lat":43.28028,"lon":5.36949,"is_reserved":false,"is_disabled":false,"rental_uris":{"android":"levelo://app?vid=ca5b18bb-27c6-42b2-bdd7-c1e3c8f00e3b","ios":"levelo://app?vid=ca5b18bb-27c6-42b2-bdd7-c1e3c8f00e3b"},"vehicle_type_id":"4","last_reported":1729239120,"current_range_meters":12800,"station_id":"ce4bha12rcd13ifvqef0","pricing_plan_id":"cebpf4jnsgd1na2vs0mg"},{"bike_id":"43a46bec-534c-4aee-ab85-1f89ba2be1cb","system_id":"levelo_inurba_marseille","lat":43.30348,"lon":5.41883,"is_reserved":false,"is_disabled":false,"rental_uris":{"android":"levelo://app?vid=43a46bec-534c-4aee-ab85-1f89ba2be1cb","ios":"levelo://app?vid=43a46bec-534c-4aee-ab85-1f89ba2be1cb"},"vehicle_type_id":"4","last_reported":1729239120,"current_range_meters":36000,"station_id":"ce4bhop2rcd13ifvqh7g","pricing_plan_id":"cebpf4jnsgd1na2vs0mg"},{"bike_id":"676ec6c4-6b42-43e0-81fe-327782965da5","system_id":"levelo_inurba_marseille","lat":43.33765,"lon":5.37484,"is_reserved":false,"is_disabled":false,"rental_uris":{"android":"levelo://app?vid=676ec6c4-6b42-43e0-81fe-327782965da5","ios":"levelo://app?vid=676ec6c4-6b42-43e0-81fe-327782965da5"},"vehicle_type_id":"4","last_reported":1729239120,"current_range_meters":19200,"station_id":"","pricing_plan_id":"cebpf4jnsgd1na2vs0mg"},{"bike_id":"c3bc217e-6b59-4db1-a7e9-dc7cde300865","system_id":"levelo_inurba_marseille","lat":43.29974,"lon":5.38482,"is_reserved":false,"is_disabled":false,"rental_uris":{"android":"levelo://app?vid=c3bc217e-6b59-4db1-a7e9-dc7cde300865","ios":"levelo://app?vid=c3bc217e-6b59-4db1-a7e9-dc7cde300865"},"vehicle_type_id":"4","last_reported":1729239120,"current_range_meters":38800,"station_id":"ce4bgj92rcd13ifvqbd0","pricing_plan_id":"cebpf4jnsgd1na2vs0mg"},{"bike_id":"175e3e38-b41b-436a-a28c-18f144cf1797","system_id":"levelo_inurba_marseille","lat":43.28348,"lon":5.38104,"is_reserved":false,"is_disabled":false,"rental_uris":{"android":"levelo://app?vid=175e3e38-b41b-436a-a28c-18f144cf1797","ios":"levelo://app?vid=175e3e38-b41b-436a-a28c-18f144cf1797"},"vehicle_type_id":"4","last_reported":1729239120,"current_range_meters":38000,"station_id":"ce4bh412rcd13ifvqdr0","pricing_plan_id":"cebpf4jnsgd1na2vs0mg"},{"bike_id":"a763a547-a6c4-4b30-a2c8-3c79edc4371a","system_id":"levelo_inurba_marseille","lat":43.31366,"lon":5.36706,"is_reserved":false,"is_disabled":false,"rental_uris":{"android":"levelo://app?vid=a763a547-a6c4-4b30-a2c8-3c79edc4371a","ios":"levelo://app?vid=a763a547-a6c4-4b30-a2c8-3c79edc4371a"},"vehicle_type_id":"4","last_reported":1729239120,"current_range_meters":22800,"station_id":"ce4bgr92rcd13ifvqc6g","pricing_plan_id":"cebpf4jnsgd1na2vs0mg"},{"bike_id":"e52a4ccd-6055-4b27-a3f6-84dbc34b1101","system_id":"levelo_inurba_marseille","lat":43.32486,"lon":5.36562,"is_reserved":false,"is_disabled":false,"rental_uris":{"android":"levelo://app?vid=e52a4ccd-6055-4b27-a3f6-84dbc34b1101","ios":"levelo://app?vid=e52a4ccd-6055-4b27-a3f6-84dbc34b1101"},"vehicle_type_id":"4","last_reported":1729239120,"current_range_meters":31200,"station_id":"ce4bhs12rcd13ifvqhvg","pricing_plan_id":"cebpf4jnsgd1na2vs0mg"},{"bike_id":"6a9ed101-6552-4f4b-8234-8907a8f23173","system_id":"levelo_inurba_marseille","lat":43.25932,"lon":5.40912,"is_reserved":false,"is_disabled":false,"rental_uris":{"android":"levelo://app?vid=6a9ed101-6552-4f4b-8234-8907a8f23173","ios":"levelo://app?vid=6a9ed101-6552-4f4b-8234-8907a8f23173"},"vehicle_type_id":"4","last_reported":1729239120,"current_range_meters":18800,"station_id":"ce4bhm92rcd13ifvqglg","pricing_plan_id":"cebpf4jnsgd1na2vs0mg"},{"bike_id":"cf30a138-86f7-4159-8eea-132a3e8b34e9","system_id":"levelo_inurba_marseille","lat":43.25939,"lon":5.40897,"is_reserved":false,"is_disabled":false,"rental_uris":{"android":"levelo://app?vid=cf30a138-86f7-4159-8eea-132a3e8b34e9","ios":"levelo://app?vid=cf30a138-86f7-4159-8eea-132a3e8b34e9"},"vehicle_type_id":"4","last_reported":1729239120,"current_range_meters":17600,"station_id":"ce4bhm92rcd13ifvqglg","pricing_plan_id":"cebpf4jnsgd1na2vs0mg"},{"bike_id":"25668d1a-6b94-4045-a721-d94eb38e1ae7","system_id":"levelo_inurba_marseille","lat":43.24081,"lon":5.3775,"is_reserved":false,"is_disabled":false,"rental_uris":{"android":"levelo://app?vid=25668d1a-6b94-4045-a721-d94eb38e1ae7","ios":"levelo://app?vid=25668d1a-6b94-4045-a721-d94eb38e1ae7"},"vehicle_type_id":"4","last_reported":1729239120,"current_range_meters":29600,"station_id":"ce4bhnp2rcd13ifvqgvg","pricing_plan_id":"cebpf4jnsgd1na2vs0mg"},{"bike_id":"9e59a3fb-7ab2-4027-b776-69fc259c524a","system_id":"levelo_inurba_marseille","lat":43.3091,"lon":5.36852,"is_reserved":false,"is_disabled":false,"rental_uris":{"android":"levelo://app?vid=9e59a3fb-7ab2-4027-b776-69fc259c524a","ios":"levelo://app?vid=9e59a3fb-7ab2-4027-b776-69fc259c524a"},"vehicle_type_id":"4","last_reported":1729239120,"current_range_meters":37600,"station_id":"ce4bgn92rcd13ifvqbvg","pricing_plan_id":"cebpf4jnsgd1na2vs0mg"},{"bike_id":"0e9ad9af-e89b-412e-a7df-344fe8f113f7","system_id":"levelo_inurba_marseille","lat":43.25,"lon":5.38918,"is_reserved":false,"is_disabled":false,"rental_uris":{"android":"levelo://app?vid=0e9ad9af-e89b-412e-a7df-344fe8f113f7","ios":"levelo://app?vid=0e9ad9af-e89b-412e-a7df-344fe8f113f7"},"vehicle_type_id":"4","last_reported":1729239120,"current_range_meters":39200,"station_id":"ce4bhgp2rcd13ifvqfd0","pricing_plan_id":"cebpf4jnsgd1na2vs0mg"},{"bike_id":"91ac8fa7-b7c8-4143-be6d-e2ffbaedc096","system_id":"levelo_inurba_marseille","lat":43.270664,"lon":5.422728,"is_reserved":false,"is_disabled":false,"rental_uris":{"android":"levelo://app?vid=91ac8fa7-b7c8-4143-be6d-e2ffbaedc096","ios":"levelo://app?vid=91ac8fa7-b7c8-4143-be6d-e2ffbaedc096"},"vehicle_type_id":"4","last_reported":1729239120,"current_range_meters":35200,"station_id":"ce4bhk92rcd13ifvqgb0","pricing_plan_id":"cebpf4jnsgd1na2vs0mg"},{"bike_id":"2b7cb46a-3d27-42ed-802a-a54106334bcb","system_id":"levelo_inurba_marseille","lat":43.28253,"lon":5.35072,"is_reserved":false,"is_disabled":false,"rental_uris":{"android":"levelo://app?vid=2b7cb46a-3d27-42ed-802a-a54106334bcb","ios":"levelo://app?vid=2b7cb46a-3d27-42ed-802a-a54106334bcb"},"vehicle_type_id":"4","last_reported":1729239120,"current_range_meters":27200,"station_id":"ce4bhbp2rcd13ifvqerg","pricing_plan_id":"cebpf4jnsgd1na2vs0mg"},{"bike_id":"191b113b-be16-492e-a876-32c12d6b048b","system_id":"levelo_inurba_marseille","lat":43.24085,"lon":5.37752,"is_reserved":false,"is_disabled":false,"rental_uris":{"android":"levelo://app?vid=191b113b-be16-492e-a876-32c12d6b048b","ios":"levelo://app?vid=191b113b-be16-492e-a876-32c12d6b048b"},"vehicle_type_id":"4","last_reported":1729239120,"current_range_meters":19200,"station_id":"ce4bhnp2rcd13ifvqgvg","pricing_plan_id":"cebpf4jnsgd1na2vs0mg"},{"bike_id":"665d2749-95f7-4b26-b26f-a382574abac4","system_id":"levelo_inurba_marseille","lat":43.29041,"lon":5.37559,"is_reserved":false,"is_disabled":false,"rental_uris":{"android":"levelo://app?vid=665d2749-95f7-4b26-b26f-a382574abac4","ios":"levelo://app?vid=665d2749-95f7-4b26-b26f-a382574abac4"},"vehicle_type_id":"4","last_reported":1729239120,"current_range_meters":19200,"station_id":"ce4bh692rcd13ifvqe90","pricing_plan_id":"cebpf4jnsgd1na2vs0mg"},{"bike_id":"ef00c94a-e76e-4e00-bfec-e40b8a260288","system_id":"levelo_inurba_marseille","lat":43.25498,"lon":5.37644,"is_reserved":false,"is_disabled":false,"rental_uris":{"android":"levelo://app?vid=ef00c94a-e76e-4e00-bfec-e40b8a260288","ios":"levelo://app?vid=ef00c94a-e76e-4e00-bfec-e40b8a260288"},"vehicle_type_id":"4","last_reported":1729239120,"current_range_meters":32800,"station_id":"ce4bhh12rcd13ifvqff0","pricing_plan_id":"cebpf4jnsgd1na2vs0mg"},{"bike_id":"a71414de-d2ee-4a17-94ea-50f620ba8558","system_id":"levelo_inurba_marseille","lat":43.28421,"lon":5.349884,"is_reserved":false,"is_disabled":false,"rental_uris":{"android":"levelo://app?vid=a71414de-d2ee-4a17-94ea-50f620ba8558","ios":"levelo://app?vid=a71414de-d2ee-4a17-94ea-50f620ba8558"},"vehicle_type_id":"4","last_reported":1729239120,"current_range_meters":38800,"station_id":"ce4bhbh2rcd13ifvqepg","pricing_plan_id":"cebpf4jnsgd1na2vs0mg"},{"bike_id":"249c9fba-7f5b-41ce-a8d4-d781d31adaed","system_id":"levelo_inurba_marseille","lat":43.24657,"lon":5.38161,"is_reserved":false,"is_disabled":false,"rental_uris":{"android":"levelo://app?vid=249c9fba-7f5b-41ce-a8d4-d781d31adaed","ios":"levelo://app?vid=249c9fba-7f5b-41ce-a8d4-d781d31adaed"},"vehicle_type_id":"4","last_reported":1729239120,"current_range_meters":26800,"station_id":"ce4bhih2rcd13ifvqfr0","pricing_plan_id":"cebpf4jnsgd1na2vs0mg"},{"bike_id":"29d12a33-823d-4548-bba6-ab22c89ac591","system_id":"levelo_inurba_marseille","lat":43.26688,"lon":5.38275,"is_reserved":false,"is_disabled":false,"rental_uris":{"android":"levelo://app?vid=29d12a33-823d-4548-bba6-ab22c89ac591","ios":"levelo://app?vid=29d12a33-823d-4548-bba6-ab22c89ac591"},"vehicle_type_id":"4","last_reported":1729239120,"current_range_meters":35200,"station_id":"ce4bhg92rcd13ifvqf90","pricing_plan_id":"cebpf4jnsgd1na2vs0mg"},{"bike_id":"88ed0f9f-e90c-4cb7-aed8-4122cf81bf11","system_id":"levelo_inurba_marseille","lat":43.26033,"lon":5.37553,"is_reserved":false,"is_disabled":false,"rental_uris":{"android":"levelo://app?vid=88ed0f9f-e90c-4cb7-aed8-4122cf81bf11","ios":"levelo://app?vid=88ed0f9f-e90c-4cb7-aed8-4122cf81bf11"},"vehicle_type_id":"4","last_reported":1729239120,"current_range_meters":37600,"station_id":"ce4bhgh2rcd13ifvqfa0","pricing_plan_id":"cebpf4jnsgd1na2vs0mg"},{"bike_id":"4ae2c184-8c50-452d-87fb-8f7bf4f540f3","system_id":"levelo_inurba_marseille","lat":43.2465,"lon":5.38895,"is_reserved":false,"is_disabled":false,"rental_uris":{"android":"levelo://app?vid=4ae2c184-8c50-452d-87fb-8f7bf4f540f3","ios":"levelo://app?vid=4ae2c184-8c50-452d-87fb-8f7bf4f540f3"},"vehicle_type_id":"4","last_reported":1729239120,"current_range_meters":38800,"station_id":"ce4bhg12rcd13ifvqf60","pricing_plan_id":"cebpf4jnsgd1na2vs0mg"},{"bike_id":"6e6ee871-e458-44f7-9ef6-5e5a7a38b8fd","system_id":"levelo_inurba_marseille","lat":43.30144,"lon":5.38085,"is_reserved":false,"is_disabled":false,"rental_uris":{"android":"levelo://app?vid=6e6ee871-e458-44f7-9ef6-5e5a7a38b8fd","ios":"levelo://app?vid=6e6ee871-e458-44f7-9ef6-5e5a7a38b8fd"},"vehicle_type_id":"4","last_reported":1729239120,"current_range_meters":7200,"station_id":"ce4bgjp2rcd13ifvqbh0","pricing_plan_id":"cebpf4jnsgd1na2vs0mg"},{"bike_id":"7599a32a-7ee5-4e62-94ba-7a46049e6f09","system_id":"levelo_inurba_marseille","lat":43.31222,"lon":5.36863,"is_reserved":false,"is_disabled":false,"rental_uris":{"android":"levelo://app?vid=7599a32a-7ee5-4e62-94ba-7a46049e6f09","ios":"levelo://app?vid=7599a32a-7ee5-4e62-94ba-7a46049e6f09"},"vehicle_type_id":"4","last_reported":1729239120,"current_range_meters":24000,"station_id":"ce4bgl92rcd13ifvqbq0","pricing_plan_id":"cebpf4jnsgd1na2vs0mg"},{"bike_id":"de91a8c2-95e6-4d33-981f-0fa48e1f37fe","system_id":"levelo_inurba_marseille","lat":43.27298,"lon":5.39103,"is_reserved":false,"is_disabled":false,"rental_uris":{"android":"levelo://app?vid=de91a8c2-95e6-4d33-981f-0fa48e1f37fe","ios":"levelo://app?vid=de91a8c2-95e6-4d33-981f-0fa48e1f37fe"},"vehicle_type_id":"4","last_reported":1729239120,"current_range_meters":30400,"station_id":"ce4bhgp2rcd13ifvqfe0","pricing_plan_id":"cebpf4jnsgd1na2vs0mg"},{"bike_id":"9afb263a-558b-421d-9627-4f58cdff2889","system_id":"levelo_inurba_marseille","lat":43.2621,"lon":5.37439,"is_reserved":false,"is_disabled":false,"rental_uris":{"android":"levelo://app?vid=9afb263a-558b-421d-9627-4f58cdff2889","ios":"levelo://app?vid=9afb263a-558b-421d-9627-4f58cdff2889"},"vehicle_type_id":"4","last_reported":1729239120,"current_range_meters":6800,"station_id":"ce4bhgp2rcd13ifvqfc0","pricing_plan_id":"cebpf4jnsgd1na2vs0mg"},{"bike_id":"839aa7e4-61b1-4436-8b4d-894a908f3072","system_id":"levelo_inurba_marseille","lat":43.23585,"lon":5.43602,"is_reserved":false,"is_disabled":false,"rental_uris":{"android":"levelo://app?vid=839aa7e4-61b1-4436-8b4d-894a908f3072","ios":"levelo://app?vid=839aa7e4-61b1-4436-8b4d-894a908f3072"},"vehicle_type_id":"4","last_reported":1729239120,"current_range_meters":25600,"station_id":"","pricing_plan_id":"cebpf4jnsgd1na2vs0mg"},{"bike_id":"d5d87b96-496a-454b-9e81-b0e5a09c72cf","system_id":"levelo_inurba_marseille","lat":43.28607,"lon":5.37071,"is_reserved":false,"is_disabled":false,"rental_uris":{"android":"levelo://app?vid=d5d87b96-496a-454b-9e81-b0e5a09c72cf","ios":"levelo://app?vid=d5d87b96-496a-454b-9e81-b0e5a09c72cf"},"vehicle_type_id":"4","last_reported":1729239120,"current_range_meters":38000,"station_id":"ce4bht12rcd13ifvqi60","pricing_plan_id":"cebpf4jnsgd1na2vs0mg"},{"bike_id":"052b3563-392a-4857-8174-027696f961ab","system_id":"levelo_inurba_marseille","lat":43.24647,"lon":5.38902,"is_reserved":false,"is_disabled":false,"rental_uris":{"android":"levelo://app?vid=052b3563-392a-4857-8174-027696f961ab","ios":"levelo://app?vid=052b3563-392a-4857-8174-027696f961ab"},"vehicle_type_id":"4","last_reported":1729239120,"current_range_meters":19200,"station_id":"ce4bhg12rcd13ifvqf60","pricing_plan_id":"cebpf4jnsgd1na2vs0mg"},{"bike_id":"91658713-b638-44b4-822a-3c2395501421","system_id":"levelo_inurba_marseille","lat":43.299438,"lon":5.389143,"is_reserved":false,"is_disabled":false,"rental_uris":{"android":"levelo://app?vid=91658713-b638-44b4-822a-3c2395501421","ios":"levelo://app?vid=91658713-b638-44b4-822a-3c2395501421"},"vehicle_type_id":"4","last_reported":1729239120,"current_range_meters":30000,"station_id":"ce4bh192rcd13ifvqdd0","pricing_plan_id":"cebpf4jnsgd1na2vs0mg"},{"bike_id":"c664c061-e4f3-4e88-a3b3-53b8afa76dc4","system_id":"levelo_inurba_marseille","lat":43.3248,"lon":5.36558,"is_reserved":false,"is_disabled":false,"rental_uris":{"android":"levelo://app?vid=c664c061-e4f3-4e88-a3b3-53b8afa76dc4","ios":"levelo://app?vid=c664c061-e4f3-4e88-a3b3-53b8afa76dc4"},"vehicle_type_id":"4","last_reported":1729239120,"current_range_meters":11600,"station_id":"ce4bhs12rcd13ifvqhvg","pricing_plan_id":"cebpf4jnsgd1na2vs0mg"},{"bike_id":"fab51718-1e50-43f2-bc78-cc5a955e6f32","system_id":"levelo_inurba_marseille","lat":43.33608,"lon":5.41027,"is_reserved":false,"is_disabled":false,"rental_uris":{"android":"levelo://app?vid=fab51718-1e50-43f2-bc78-cc5a955e6f32","ios":"levelo://app?vid=fab51718-1e50-43f2-bc78-cc5a955e6f32"},"vehicle_type_id":"4","last_reported":1729239120,"current_range_meters":15200,"station_id":"ce4bhqh2rcd13ifvqhmg","pricing_plan_id":"cebpf4jnsgd1na2vs0mg"},{"bike_id":"7d36d83b-7a79-4a90-8df5-e4148c62cab3","system_id":"levelo_inurba_marseille","lat":43.31222,"lon":5.36855,"is_reserved":false,"is_disabled":false,"rental_uris":{"android":"levelo://app?vid=7d36d83b-7a79-4a90-8df5-e4148c62cab3","ios":"levelo://app?vid=7d36d83b-7a79-4a90-8df5-e4148c62cab3"},"vehicle_type_id":"4","last_reported":1729239120,"current_range_meters":22800,"station_id":"ce4bgl92rcd13ifvqbq0","pricing_plan_id":"cebpf4jnsgd1na2vs0mg"},{"bike_id":"14bc89c2-4375-4488-91e8-1027b3555b6b","system_id":"levelo_inurba_marseille","lat":43.2455,"lon":5.39525,"is_reserved":false,"is_disabled":false,"rental_uris":{"android":"levelo://app?vid=14bc89c2-4375-4488-91e8-1027b3555b6b","ios":"levelo://app?vid=14bc89c2-4375-4488-91e8-1027b3555b6b"},"vehicle_type_id":"4","last_reported":1729239120,"current_range_meters":38800,"station_id":"ce4bhlp2rcd13ifvqgjg","pricing_plan_id":"cebpf4jnsgd1na2vs0mg"},{"bike_id":"aa33b057-b1ff-43d6-8cc9-985994c510e4","system_id":"levelo_inurba_marseille","lat":43.240781,"lon":5.377554,"is_reserved":false,"is_disabled":false,"rental_uris":{"android":"levelo://app?vid=aa33b057-b1ff-43d6-8cc9-985994c510e4","ios":"levelo://app?vid=aa33b057-b1ff-43d6-8cc9-985994c510e4"},"vehicle_type_id":"4","last_reported":1729239120,"current_range_meters":24400,"station_id":"ce4bhnp2rcd13ifvqgvg","pricing_plan_id":"cebpf4jnsgd1na2vs0mg"},{"bike_id":"f07684b1-6069-4a5c-9ce5-0c950567924c","system_id":"levelo_inurba_marseille","lat":43.27902,"lon":5.3802,"is_reserved":false,"is_disabled":false,"rental_uris":{"android":"levelo://app?vid=f07684b1-6069-4a5c-9ce5-0c950567924c","ios":"levelo://app?vid=f07684b1-6069-4a5c-9ce5-0c950567924c"},"vehicle_type_id":"4","last_reported":1729239120,"current_range_meters":22400,"station_id":"ce4bhf92rcd13ifvqf50","pricing_plan_id":"cebpf4jnsgd1na2vs0mg"},{"bike_id":"5727e0d9-9784-47a4-9c3a-7dc60be51496","system_id":"levelo_inurba_marseille","lat":43.29298,"lon":5.37453,"is_reserved":false,"is_disabled":false,"rental_uris":{"android":"levelo://app?vid=5727e0d9-9784-47a4-9c3a-7dc60be51496","ios":"levelo://app?vid=5727e0d9-9784-47a4-9c3a-7dc60be51496"},"vehicle_type_id":"4","last_reported":1729239120,"current_range_meters":38400,"station_id":"ce4bgi12rcd13ifvqb70","pricing_plan_id":"cebpf4jnsgd1na2vs0mg"},{"bike_id":"e7d75125-58b0-446b-b44e-62ba00bfa2e5","system_id":"levelo_inurba_marseille","lat":43.28157,"lon":5.42647,"is_reserved":false,"is_disabled":false,"rental_uris":{"android":"levelo://app?vid=e7d75125-58b0-446b-b44e-62ba00bfa2e5","ios":"levelo://app?vid=e7d75125-58b0-446b-b44e-62ba00bfa2e5"},"vehicle_type_id":"4","last_reported":1729239120,"current_range_meters":37600,"station_id":"ce4bhnh2rcd13ifvqgug","pricing_plan_id":"cebpf4jnsgd1na2vs0mg"},{"bike_id":"278c2e6f-55c5-418e-802c-4af4cd9f1665","system_id":"levelo_inurba_marseille","lat":43.3248,"lon":5.36563,"is_reserved":false,"is_disabled":false,"rental_uris":{"android":"levelo://app?vid=278c2e6f-55c5-418e-802c-4af4cd9f1665","ios":"levelo://app?vid=278c2e6f-55c5-418e-802c-4af4cd9f1665"},"vehicle_type_id":"4","last_reported":1729239120,"current_range_meters":9600,"station_id":"ce4bhs12rcd13ifvqhvg","pricing_plan_id":"cebpf4jnsgd1na2vs0mg"},{"bike_id":"01674856-3d83-4a8e-b735-4c38ec423468","system_id":"levelo_inurba_marseille","lat":43.3254,"lon":5.4146,"is_reserved":false,"is_disabled":false,"rental_uris":{"android":"levelo://app?vid=01674856-3d83-4a8e-b735-4c38ec423468","ios":"levelo://app?vid=01674856-3d83-4a8e-b735-4c38ec423468"},"vehicle_type_id":"4","last_reported":1729239120,"current_range_meters":12000,"station_id":"ce4bhq12rcd13ifvqhhg","pricing_plan_id":"cebpf4jnsgd1na2vs0mg"},{"bike_id":"59bc1457-0ef3-44e7-a698-412f27f0e90c","system_id":"levelo_inurba_marseille","lat":43.30187,"lon":5.36613,"is_reserved":false,"is_disabled":false,"rental_uris":{"android":"levelo://app?vid=59bc1457-0ef3-44e7-a698-412f27f0e90c","ios":"levelo://app?vid=59bc1457-0ef3-44e7-a698-412f27f0e90c"},"vehicle_type_id":"4","last_reported":1729239120,"current_range_meters":37600,"station_id":"ce4bgrh2rcd13ifvqc8g","pricing_plan_id":"cebpf4jnsgd1na2vs0mg"},{"bike_id":"9bc751c2-897b-42a3-8a10-36f8a493bb07","system_id":"levelo_inurba_marseille","lat":43.274994,"lon":5.424574,"is_reserved":false,"is_disabled":false,"rental_uris":{"android":"levelo://app?vid=9bc751c2-897b-42a3-8a10-36f8a493bb07","ios":"levelo://app?vid=9bc751c2-897b-42a3-8a10-36f8a493bb07"},"vehicle_type_id":"4","last_reported":1729239120,"current_range_meters":20400,"station_id":"ce4bhn92rcd13ifvqgrg","pricing_plan_id":"cebpf4jnsgd1na2vs0mg"},{"bike_id":"4361f052-08fb-4f1b-8a0a-4061ece8354c","system_id":"levelo_inurba_marseille","lat":43.32483,"lon":5.36566,"is_reserved":false,"is_disabled":false,"rental_uris":{"android":"levelo://app?vid=4361f052-08fb-4f1b-8a0a-4061ece8354c","ios":"levelo://app?vid=4361f052-08fb-4f1b-8a0a-4061ece8354c"},"vehicle_type_id":"4","last_reported":1729239120,"current_range_meters":3200,"station_id":"ce4bhs12rcd13ifvqhvg","pricing_plan_id":"cebpf4jnsgd1na2vs0mg"},{"bike_id":"ed078362-42fc-4c79-9dd9-752630de6df4","system_id":"levelo_inurba_marseille","lat":43.2827,"lon":5.35069,"is_reserved":false,"is_disabled":false,"rental_uris":{"android":"levelo://app?vid=ed078362-42fc-4c79-9dd9-752630de6df4","ios":"levelo://app?vid=ed078362-42fc-4c79-9dd9-752630de6df4"},"vehicle_type_id":"4","last_reported":1729239120,"current_range_meters":38000,"station_id":"ce4bhbp2rcd13ifvqerg","pricing_plan_id":"cebpf4jnsgd1na2vs0mg"},{"bike_id":"9b35a191-4e77-4685-9e4a-94a1f02b6f28","system_id":"levelo_inurba_marseille","lat":43.27805,"lon":5.39206,"is_reserved":false,"is_disabled":false,"rental_uris":{"android":"levelo://app?vid=9b35a191-4e77-4685-9e4a-94a1f02b6f28","ios":"levelo://app?vid=9b35a191-4e77-4685-9e4a-94a1f02b6f28"},"vehicle_type_id":"4","last_reported":1729239120,"current_range_meters":30000,"station_id":"ce4bhjp2rcd13ifvqga0","pricing_plan_id":"cebpf4jnsgd1na2vs0mg"},{"bike_id":"6263be57-0fc0-4c12-a63b-da5f6339bbe3","system_id":"levelo_inurba_marseille","lat":43.25933,"lon":5.40916,"is_reserved":false,"is_disabled":false,"rental_uris":{"android":"levelo://app?vid=6263be57-0fc0-4c12-a63b-da5f6339bbe3","ios":"levelo://app?vid=6263be57-0fc0-4c12-a63b-da5f6339bbe3"},"vehicle_type_id":"4","last_reported":1729239120,"current_range_meters":28000,"station_id":"ce4bhm92rcd13ifvqglg","pricing_plan_id":"cebpf4jnsgd1na2vs0mg"},{"bike_id":"2706e4ee-f010-4993-b419-5ed4bc4ce716","system_id":"levelo_inurba_marseille","lat":43.30138,"lon":5.374,"is_reserved":false,"is_disabled":false,"rental_uris":{"android":"levelo://app?vid=2706e4ee-f010-4993-b419-5ed4bc4ce716","ios":"levelo://app?vid=2706e4ee-f010-4993-b419-5ed4bc4ce716"},"vehicle_type_id":"4","last_reported":1729239120,"current_range_meters":28000,"station_id":"ce4bgs92rcd13ifvqcc0","pricing_plan_id":"cebpf4jnsgd1na2vs0mg"},{"bike_id":"3cc9ca15-d23c-4891-9216-c134fa816eb8","system_id":"levelo_inurba_marseille","lat":43.24181,"lon":5.39724,"is_reserved":false,"is_disabled":false,"rental_uris":{"android":"levelo://app?vid=3cc9ca15-d23c-4891-9216-c134fa816eb8","ios":"levelo://app?vid=3cc9ca15-d23c-4891-9216-c134fa816eb8"},"vehicle_type_id":"4","last_reported":1729239120,"current_range_meters":28400,"station_id":"ce4bhn12rcd13ifvqgpg","pricing_plan_id":"cebpf4jnsgd1na2vs0mg"},{"bike_id":"2cdc1722-bbbd-4809-b0f9-3f52e41762bc","system_id":"levelo_inurba_marseille","lat":43.2749,"lon":5.42456,"is_reserved":false,"is_disabled":false,"rental_uris":{"android":"levelo://app?vid=2cdc1722-bbbd-4809-b0f9-3f52e41762bc","ios":"levelo://app?vid=2cdc1722-bbbd-4809-b0f9-3f52e41762bc"},"vehicle_type_id":"4","last_reported":1729239120,"current_range_meters":38800,"station_id":"ce4bhn92rcd13ifvqgrg","pricing_plan_id":"cebpf4jnsgd1na2vs0mg"},{"bike_id":"57b1dc49-6a81-434f-8366-5acf1ca9eff1","system_id":"levelo_inurba_marseille","lat":43.27481,"lon":5.42468,"is_reserved":false,"is_disabled":false,"rental_uris":{"android":"levelo://app?vid=57b1dc49-6a81-434f-8366-5acf1ca9eff1","ios":"levelo://app?vid=57b1dc49-6a81-434f-8366-5acf1ca9eff1"},"vehicle_type_id":"4","last_reported":1729239120,"current_range_meters":26800,"station_id":"ce4bhn92rcd13ifvqgrg","pricing_plan_id":"cebpf4jnsgd1na2vs0mg"},{"bike_id":"a6de2d8f-4ce9-4376-b614-a9136f70032c","system_id":"levelo_inurba_marseille","lat":43.32532,"lon":5.414337,"is_reserved":false,"is_disabled":false,"rental_uris":{"android":"levelo://app?vid=a6de2d8f-4ce9-4376-b614-a9136f70032c","ios":"levelo://app?vid=a6de2d8f-4ce9-4376-b614-a9136f70032c"},"vehicle_type_id":"4","last_reported":1729239120,"current_range_meters":4400,"station_id":"ce4bhq12rcd13ifvqhhg","pricing_plan_id":"cebpf4jnsgd1na2vs0mg"},{"bike_id":"a21a4076-2382-4a76-a725-5253e8a6c4fc","system_id":"levelo_inurba_marseille","lat":43.28967,"lon":5.37847,"is_reserved":false,"is_disabled":false,"rental_uris":{"android":"levelo://app?vid=a21a4076-2382-4a76-a725-5253e8a6c4fc","ios":"levelo://app?vid=a21a4076-2382-4a76-a725-5253e8a6c4fc"},"vehicle_type_id":"4","last_reported":1729239120,"current_range_meters":38800,"station_id":"ce4bh9p2rcd13ifvqed0","pricing_plan_id":"cebpf4jnsgd1na2vs0mg"},{"bike_id":"b8951c7b-a93b-4535-9474-84658cb54f8b","system_id":"levelo_inurba_marseille","lat":43.29924,"lon":5.37466,"is_reserved":false,"is_disabled":false,"rental_uris":{"android":"levelo://app?vid=b8951c7b-a93b-4535-9474-84658cb54f8b","ios":"levelo://app?vid=b8951c7b-a93b-4535-9474-84658cb54f8b"},"vehicle_type_id":"4","last_reported":1729239120,"current_range_meters":38800,"station_id":"ce4bgjh2rcd13ifvqbg0","pricing_plan_id":"cebpf4jnsgd1na2vs0mg"},{"bike_id":"3d7546d0-4dba-4212-88c9-dfe9a2032237","system_id":"levelo_inurba_marseille","lat":43.24163,"lon":5.36397,"is_reserved":false,"is_disabled":false,"rental_uris":{"android":"levelo://app?vid=3d7546d0-4dba-4212-88c9-dfe9a2032237","ios":"levelo://app?vid=3d7546d0-4dba-4212-88c9-dfe9a2032237"},"vehicle_type_id":"4","last_reported":1729239120,"current_range_meters":38400,"station_id":"cpo36qri1sfpv3e86is0","pricing_plan_id":"cebpf4jnsgd1na2vs0mg"},{"bike_id":"ef6e8747-acef-4d45-b6be-9b0099a6ad71","system_id":"levelo_inurba_marseille","lat":43.32292,"lon":5.38274,"is_reserved":false,"is_disabled":false,"rental_uris":{"android":"levelo://app?vid=ef6e8747-acef-4d45-b6be-9b0099a6ad71","ios":"levelo://app?vid=ef6e8747-acef-4d45-b6be-9b0099a6ad71"},"vehicle_type_id":"4","last_reported":1729239120,"current_range_meters":30400,"station_id":"ce4bhr12rcd13ifvqhqg","pricing_plan_id":"cebpf4jnsgd1na2vs0mg"},{"bike_id":"ff5b7d0a-ad12-45a6-9d4b-ae65b791be64","system_id":"levelo_inurba_marseille","lat":43.29554,"lon":5.42279,"is_reserved":false,"is_disabled":false,"rental_uris":{"android":"levelo://app?vid=ff5b7d0a-ad12-45a6-9d4b-ae65b791be64","ios":"levelo://app?vid=ff5b7d0a-ad12-45a6-9d4b-ae65b791be64"},"vehicle_type_id":"4","last_reported":1729239120,"current_range_meters":38800,"station_id":"ce4bhph2rcd13ifvqhdg","pricing_plan_id":"cebpf4jnsgd1na2vs0mg"},{"bike_id":"ceba77e4-817d-4911-8717-9b4015e9cd05","system_id":"levelo_inurba_marseille","lat":43.23146,"lon":5.43723,"is_reserved":false,"is_disabled":false,"rental_uris":{"android":"levelo://app?vid=ceba77e4-817d-4911-8717-9b4015e9cd05","ios":"levelo://app?vid=ceba77e4-817d-4911-8717-9b4015e9cd05"},"vehicle_type_id":"4","last_reported":1729239120,"current_range_meters":25600,"station_id":"ce4bhmp2rcd13ifvqgog","pricing_plan_id":"cebpf4jnsgd1na2vs0mg"},{"bike_id":"fbe9116f-5c4e-40ee-aa87-c56740e685fb","system_id":"levelo_inurba_marseille","lat":43.26944,"lon":5.38631,"is_reserved":false,"is_disabled":false,"rental_uris":{"android":"levelo://app?vid=fbe9116f-5c4e-40ee-aa87-c56740e685fb","ios":"levelo://app?vid=fbe9116f-5c4e-40ee-aa87-c56740e685fb"},"vehicle_type_id":"4","last_reported":1729239120,"current_range_meters":36800,"station_id":"ce4bhh92rcd13ifvqfh0","pricing_plan_id":"cebpf4jnsgd1na2vs0mg"},{"bike_id":"2a3e6989-f84c-4379-ae87-1b77f03971bf","system_id":"levelo_inurba_marseille","lat":43.28997,"lon":5.38835,"is_reserved":false,"is_disabled":false,"rental_uris":{"android":"levelo://app?vid=2a3e6989-f84c-4379-ae87-1b77f03971bf","ios":"levelo://app?vid=2a3e6989-f84c-4379-ae87-1b77f03971bf"},"vehicle_type_id":"4","last_reported":1729239120,"current_range_meters":19200,"station_id":"","pricing_plan_id":"cebpf4jnsgd1na2vs0mg"},{"bike_id":"90b7df2b-2805-4913-a745-07d80216980c","system_id":"levelo_inurba_marseille","lat":43.30809,"lon":5.43526,"is_reserved":false,"is_disabled":false,"rental_uris":{"android":"levelo://app?vid=90b7df2b-2805-4913-a745-07d80216980c","ios":"levelo://app?vid=90b7df2b-2805-4913-a745-07d80216980c"},"vehicle_type_id":"4","last_reported":1729239120,"current_range_meters":12400,"station_id":"ce4bhph2rcd13ifvqheg","pricing_plan_id":"cebpf4jnsgd1na2vs0mg"},{"bike_id":"32ce68a3-3fc7-4257-974f-ab657619c295","system_id":"levelo_inurba_marseille","lat":43.33732,"lon":5.37455,"is_reserved":false,"is_disabled":false,"rental_uris":{"android":"levelo://app?vid=32ce68a3-3fc7-4257-974f-ab657619c295","ios":"levelo://app?vid=32ce68a3-3fc7-4257-974f-ab657619c295"},"vehicle_type_id":"4","last_reported":1729239120,"current_range_meters":24400,"station_id":"","pricing_plan_id":"cebpf4jnsgd1na2vs0mg"},{"bike_id":"bbf4bc62-2aae-49ae-b779-d4253b940c56","system_id":"levelo_inurba_marseille","lat":43.31364,"lon":5.36694,"is_reserved":false,"is_disabled":false,"rental_uris":{"android":"levelo://app?vid=bbf4bc62-2aae-49ae-b779-d4253b940c56","ios":"levelo://app?vid=bbf4bc62-2aae-49ae-b779-d4253b940c56"},"vehicle_type_id":"4","last_reported":1729239120,"current_range_meters":12800,"station_id":"ce4bgr92rcd13ifvqc6g","pricing_plan_id":"cebpf4jnsgd1na2vs0mg"},{"bike_id":"52c8eb13-7c11-4cd0-a2fd-39c3c51b85d9","system_id":"levelo_inurba_marseille","lat":43.24614,"lon":5.41579,"is_reserved":false,"is_disabled":false,"rental_uris":{"android":"levelo://app?vid=52c8eb13-7c11-4cd0-a2fd-39c3c51b85d9","ios":"levelo://app?vid=52c8eb13-7c11-4cd0-a2fd-39c3c51b85d9"},"vehicle_type_id":"4","last_reported":1729239120,"current_range_meters":16400,"station_id":"","pricing_plan_id":"cebpf4jnsgd1na2vs0mg"},{"bike_id":"555ff3cf-777b-4ff4-b149-9575fc002950","system_id":"levelo_inurba_marseille","lat":43.24179,"lon":5.39733,"is_reserved":false,"is_disabled":false,"rental_uris":{"android":"levelo://app?vid=555ff3cf-777b-4ff4-b149-9575fc002950","ios":"levelo://app?vid=555ff3cf-777b-4ff4-b149-9575fc002950"},"vehicle_type_id":"4","last_reported":1729239120,"current_range_meters":32800,"station_id":"ce4bhn12rcd13ifvqgpg","pricing_plan_id":"cebpf4jnsgd1na2vs0mg"},{"bike_id":"b64362e2-b043-4f67-8e42-f68524e828ed","system_id":"levelo_inurba_marseille","lat":43.24167,"lon":5.39707,"is_reserved":false,"is_disabled":false,"rental_uris":{"android":"levelo://app?vid=b64362e2-b043-4f67-8e42-f68524e828ed","ios":"levelo://app?vid=b64362e2-b043-4f67-8e42-f68524e828ed"},"vehicle_type_id":"4","last_reported":1729239120,"current_range_meters":26000,"station_id":"ce4bhn12rcd13ifvqgpg","pricing_plan_id":"cebpf4jnsgd1na2vs0mg"},{"bike_id":"fa7bbdc9-afbe-404d-8676-647037cc76a9","system_id":"levelo_inurba_marseille","lat":43.231952,"lon":5.355497,"is_reserved":false,"is_disabled":false,"rental_uris":{"android":"levelo://app?vid=fa7bbdc9-afbe-404d-8676-647037cc76a9","ios":"levelo://app?vid=fa7bbdc9-afbe-404d-8676-647037cc76a9"},"vehicle_type_id":"4","last_reported":1729239120,"current_range_meters":30000,"station_id":"ce4bhu92rcd13ifvqi70","pricing_plan_id":"cebpf4jnsgd1na2vs0mg"},{"bike_id":"d4eaa4f8-20ea-4c39-ae6f-ad39461b0345","system_id":"levelo_inurba_marseille","lat":43.32534,"lon":5.41461,"is_reserved":false,"is_disabled":false,"rental_uris":{"android":"levelo://app?vid=d4eaa4f8-20ea-4c39-ae6f-ad39461b0345","ios":"levelo://app?vid=d4eaa4f8-20ea-4c39-ae6f-ad39461b0345"},"vehicle_type_id":"4","last_reported":1729239120,"current_range_meters":23200,"station_id":"ce4bhq12rcd13ifvqhhg","pricing_plan_id":"cebpf4jnsgd1na2vs0mg"},{"bike_id":"5fcbdb80-7d01-49b9-abb2-a7ab6ebc29bb","system_id":"levelo_inurba_marseille","lat":43.26959,"lon":5.38625,"is_reserved":false,"is_disabled":false,"rental_uris":{"android":"levelo://app?vid=5fcbdb80-7d01-49b9-abb2-a7ab6ebc29bb","ios":"levelo://app?vid=5fcbdb80-7d01-49b9-abb2-a7ab6ebc29bb"},"vehicle_type_id":"4","last_reported":1729239120,"current_range_meters":17600,"station_id":"ce4bhh92rcd13ifvqfh0","pricing_plan_id":"cebpf4jnsgd1na2vs0mg"},{"bike_id":"090a631f-25bf-4ca2-b5e4-c2ed8415d21b","system_id":"levelo_inurba_marseille","lat":43.28714,"lon":5.37942,"is_reserved":false,"is_disabled":false,"rental_uris":{"android":"levelo://app?vid=090a631f-25bf-4ca2-b5e4-c2ed8415d21b","ios":"levelo://app?vid=090a631f-25bf-4ca2-b5e4-c2ed8415d21b"},"vehicle_type_id":"4","last_reported":1729239120,"current_range_meters":32000,"station_id":"ce4bh9p2rcd13ifvqec0","pricing_plan_id":"cebpf4jnsgd1na2vs0mg"},{"bike_id":"4d4e269c-fea1-48fa-a7d3-1aa391a4e4ac","system_id":"levelo_inurba_marseille","lat":43.32538,"lon":5.41452,"is_reserved":false,"is_disabled":false,"rental_uris":{"android":"levelo://app?vid=4d4e269c-fea1-48fa-a7d3-1aa391a4e4ac","ios":"levelo://app?vid=4d4e269c-fea1-48fa-a7d3-1aa391a4e4ac"},"vehicle_type_id":"4","last_reported":1729239120,"current_range_meters":38000,"station_id":"ce4bhq12rcd13ifvqhhg","pricing_plan_id":"cebpf4jnsgd1na2vs0mg"},{"bike_id":"f8d2e239-573b-4f9d-8955-e6720aa9663e","system_id":"levelo_inurba_marseille","lat":43.24647,"lon":5.38897,"is_reserved":false,"is_disabled":false,"rental_uris":{"android":"levelo://app?vid=f8d2e239-573b-4f9d-8955-e6720aa9663e","ios":"levelo://app?vid=f8d2e239-573b-4f9d-8955-e6720aa9663e"},"vehicle_type_id":"4","last_reported":1729239120,"current_range_meters":32800,"station_id":"ce4bhg12rcd13ifvqf60","pricing_plan_id":"cebpf4jnsgd1na2vs0mg"},{"bike_id":"1ad8f03c-b2cc-4f9b-91d2-95b376c8c595","system_id":"levelo_inurba_marseille","lat":43.29842,"lon":5.36266,"is_reserved":false,"is_disabled":false,"rental_uris":{"android":"levelo://app?vid=1ad8f03c-b2cc-4f9b-91d2-95b376c8c595","ios":"levelo://app?vid=1ad8f03c-b2cc-4f9b-91d2-95b376c8c595"},"vehicle_type_id":"4","last_reported":1729239120,"current_range_meters":16000,"station_id":"ce4bgpp2rcd13ifvqc3g","pricing_plan_id":"cebpf4jnsgd1na2vs0mg"},{"bike_id":"76247823-f5da-4e69-a748-430804141594","system_id":"levelo_inurba_marseille","lat":43.31357,"lon":5.367185,"is_reserved":false,"is_disabled":false,"rental_uris":{"android":"levelo://app?vid=76247823-f5da-4e69-a748-430804141594","ios":"levelo://app?vid=76247823-f5da-4e69-a748-430804141594"},"vehicle_type_id":"4","last_reported":1729239120,"current_range_meters":38800,"station_id":"ce4bgr92rcd13ifvqc6g","pricing_plan_id":"cebpf4jnsgd1na2vs0mg"},{"bike_id":"10cc3c2e-a539-4e9c-8ef4-916c22c9b75a","system_id":"levelo_inurba_marseille","lat":43.3046,"lon":5.37895,"is_reserved":false,"is_disabled":false,"rental_uris":{"android":"levelo://app?vid=10cc3c2e-a539-4e9c-8ef4-916c22c9b75a","ios":"levelo://app?vid=10cc3c2e-a539-4e9c-8ef4-916c22c9b75a"},"vehicle_type_id":"4","last_reported":1729239120,"current_range_meters":33600,"station_id":"ce4bgup2rcd13ifvqcn0","pricing_plan_id":"cebpf4jnsgd1na2vs0mg"},{"bike_id":"8c1ec6cb-2291-4814-837b-be8625c706f3","system_id":"levelo_inurba_marseille","lat":43.23196,"lon":5.35543,"is_reserved":false,"is_disabled":false,"rental_uris":{"android":"levelo://app?vid=8c1ec6cb-2291-4814-837b-be8625c706f3","ios":"levelo://app?vid=8c1ec6cb-2291-4814-837b-be8625c706f3"},"vehicle_type_id":"4","last_reported":1729239120,"current_range_meters":33600,"station_id":"ce4bhu92rcd13ifvqi70","pricing_plan_id":"cebpf4jnsgd1na2vs0mg"},{"bike_id":"e05a8545-65f7-4cf3-8739-ba534517b4f3","system_id":"levelo_inurba_marseille","lat":43.24079,"lon":5.37745,"is_reserved":false,"is_disabled":false,"rental_uris":{"android":"levelo://app?vid=e05a8545-65f7-4cf3-8739-ba534517b4f3","ios":"levelo://app?vid=e05a8545-65f7-4cf3-8739-ba534517b4f3"},"vehicle_type_id":"4","last_reported":1729239120,"current_range_meters":30000,"station_id":"ce4bhnp2rcd13ifvqgvg","pricing_plan_id":"cebpf4jnsgd1na2vs0mg"},{"bike_id":"109e6c8a-0c97-4977-80dc-2ed128d130e9","system_id":"levelo_inurba_marseille","lat":43.2695,"lon":5.38636,"is_reserved":false,"is_disabled":false,"rental_uris":{"android":"levelo://app?vid=109e6c8a-0c97-4977-80dc-2ed128d130e9","ios":"levelo://app?vid=109e6c8a-0c97-4977-80dc-2ed128d130e9"},"vehicle_type_id":"4","last_reported":1729239120,"current_range_meters":30400,"station_id":"ce4bhh92rcd13ifvqfh0","pricing_plan_id":"cebpf4jnsgd1na2vs0mg"},{"bike_id":"454566af-1f10-4281-8c87-986def628e44","system_id":"levelo_inurba_marseille","lat":43.29173,"lon":5.37155,"is_reserved":false,"is_disabled":false,"rental_uris":{"android":"levelo://app?vid=454566af-1f10-4281-8c87-986def628e44","ios":"levelo://app?vid=454566af-1f10-4281-8c87-986def628e44"},"vehicle_type_id":"4","last_reported":1729239120,"current_range_meters":27600,"station_id":"ce4bha92rcd13ifvqeh0","pricing_plan_id":"cebpf4jnsgd1na2vs0mg"},{"bike_id":"a888429d-808c-4a3c-9631-547beb254692","system_id":"levelo_inurba_marseille","lat":43.33607,"lon":5.41033,"is_reserved":false,"is_disabled":false,"rental_uris":{"android":"levelo://app?vid=a888429d-808c-4a3c-9631-547beb254692","ios":"levelo://app?vid=a888429d-808c-4a3c-9631-547beb254692"},"vehicle_type_id":"4","last_reported":1729239120,"current_range_meters":24000,"station_id":"ce4bhqh2rcd13ifvqhmg","pricing_plan_id":"cebpf4jnsgd1na2vs0mg"},{"bike_id":"22f00d5a-70ee-48ed-a43d-aa5efd39ff8b","system_id":"levelo_inurba_marseille","lat":43.25007,"lon":5.38931,"is_reserved":false,"is_disabled":false,"rental_uris":{"android":"levelo://app?vid=22f00d5a-70ee-48ed-a43d-aa5efd39ff8b","ios":"levelo://app?vid=22f00d5a-70ee-48ed-a43d-aa5efd39ff8b"},"vehicle_type_id":"4","last_reported":1729239120,"current_range_meters":39200,"station_id":"ce4bhgp2rcd13ifvqfd0","pricing_plan_id":"cebpf4jnsgd1na2vs0mg"},{"bike_id":"c89c2319-61a9-47ef-9229-e31c9eaab143","system_id":"levelo_inurba_marseille","lat":43.23192,"lon":5.35544,"is_reserved":false,"is_disabled":false,"rental_uris":{"android":"levelo://app?vid=c89c2319-61a9-47ef-9229-e31c9eaab143","ios":"levelo://app?vid=c89c2319-61a9-47ef-9229-e31c9eaab143"},"vehicle_type_id":"4","last_reported":1729239120,"current_range_meters":36800,"station_id":"ce4bhu92rcd13ifvqi70","pricing_plan_id":"cebpf4jnsgd1na2vs0mg"},{"bike_id":"e74db1ff-e8f4-47c1-8845-ab32ea8d13c6","system_id":"levelo_inurba_marseille","lat":43.28969,"lon":5.37846,"is_reserved":false,"is_disabled":false,"rental_uris":{"android":"levelo://app?vid=e74db1ff-e8f4-47c1-8845-ab32ea8d13c6","ios":"levelo://app?vid=e74db1ff-e8f4-47c1-8845-ab32ea8d13c6"},"vehicle_type_id":"4","last_reported":1729239120,"current_range_meters":38800,"station_id":"ce4bh9p2rcd13ifvqed0","pricing_plan_id":"cebpf4jnsgd1na2vs0mg"},{"bike_id":"eebd2710-b6e0-4f47-8a18-ffd45a96c57a","system_id":"levelo_inurba_marseille","lat":43.24075,"lon":5.37763,"is_reserved":false,"is_disabled":false,"rental_uris":{"android":"levelo://app?vid=eebd2710-b6e0-4f47-8a18-ffd45a96c57a","ios":"levelo://app?vid=eebd2710-b6e0-4f47-8a18-ffd45a96c57a"},"vehicle_type_id":"4","last_reported":1729239120,"current_range_meters":2800,"station_id":"ce4bhnp2rcd13ifvqgvg","pricing_plan_id":"cebpf4jnsgd1na2vs0mg"},{"bike_id":"15a59784-d515-4a97-ab9b-90e02c51b4d1","system_id":"levelo_inurba_marseille","lat":43.24991,"lon":5.38943,"is_reserved":false,"is_disabled":false,"rental_uris":{"android":"levelo://app?vid=15a59784-d515-4a97-ab9b-90e02c51b4d1","ios":"levelo://app?vid=15a59784-d515-4a97-ab9b-90e02c51b4d1"},"vehicle_type_id":"4","last_reported":1729239120,"current_range_meters":8000,"station_id":"ce4bhgp2rcd13ifvqfd0","pricing_plan_id":"cebpf4jnsgd1na2vs0mg"},{"bike_id":"680d5672-1ea4-4084-aba7-e3e9965ce1cb","system_id":"levelo_inurba_marseille","lat":43.25576,"lon":5.38233,"is_reserved":false,"is_disabled":false,"rental_uris":{"android":"levelo://app?vid=680d5672-1ea4-4084-aba7-e3e9965ce1cb","ios":"levelo://app?vid=680d5672-1ea4-4084-aba7-e3e9965ce1cb"},"vehicle_type_id":"4","last_reported":1729239120,"current_range_meters":4800,"station_id":"ce4bhih2rcd13ifvqfs0","pricing_plan_id":"cebpf4jnsgd1na2vs0mg"},{"bike_id":"794acdc8-c17c-4149-b903-ed4baea396b4","system_id":"levelo_inurba_marseille","lat":43.23187,"lon":5.39979,"is_reserved":false,"is_disabled":false,"rental_uris":{"android":"levelo://app?vid=794acdc8-c17c-4149-b903-ed4baea396b4","ios":"levelo://app?vid=794acdc8-c17c-4149-b903-ed4baea396b4"},"vehicle_type_id":"4","last_reported":1729239120,"current_range_meters":11600,"station_id":"ce4bhn12rcd13ifvqgqg","pricing_plan_id":"cebpf4jnsgd1na2vs0mg"},{"bike_id":"a14cfc8d-fbbd-40b0-aa99-e624d97946a6","system_id":"levelo_inurba_marseille","lat":43.30804,"lon":5.43521,"is_reserved":false,"is_disabled":false,"rental_uris":{"android":"levelo://app?vid=a14cfc8d-fbbd-40b0-aa99-e624d97946a6","ios":"levelo://app?vid=a14cfc8d-fbbd-40b0-aa99-e624d97946a6"},"vehicle_type_id":"4","last_reported":1729239120,"current_range_meters":28800,"station_id":"ce4bhph2rcd13ifvqheg","pricing_plan_id":"cebpf4jnsgd1na2vs0mg"},{"bike_id":"829ff204-f1fe-4f37-b928-9d0b522468d2","system_id":"levelo_inurba_marseille","lat":43.29067,"lon":5.37163,"is_reserved":false,"is_disabled":false,"rental_uris":{"android":"levelo://app?vid=829ff204-f1fe-4f37-b928-9d0b522468d2","ios":"levelo://app?vid=829ff204-f1fe-4f37-b928-9d0b522468d2"},"vehicle_type_id":"4","last_reported":1729239120,"current_range_meters":38800,"station_id":"ce4bh5p2rcd13ifvqe4g","pricing_plan_id":"cebpf4jnsgd1na2vs0mg"},{"bike_id":"3f8c670e-b0ea-42a9-aa9e-c54d85a6ac5a","system_id":"levelo_inurba_marseille","lat":43.30138,"lon":5.37421,"is_reserved":false,"is_disabled":false,"rental_uris":{"android":"levelo://app?vid=3f8c670e-b0ea-42a9-aa9e-c54d85a6ac5a","ios":"levelo://app?vid=3f8c670e-b0ea-42a9-aa9e-c54d85a6ac5a"},"vehicle_type_id":"4","last_reported":1729239120,"current_range_meters":6800,"station_id":"ce4bgs92rcd13ifvqcc0","pricing_plan_id":"cebpf4jnsgd1na2vs0mg"},{"bike_id":"5699304f-94c3-4d6b-a05e-4466d67bd7e4","system_id":"levelo_inurba_marseille","lat":43.29076,"lon":5.37158,"is_reserved":false,"is_disabled":false,"rental_uris":{"android":"levelo://app?vid=5699304f-94c3-4d6b-a05e-4466d67bd7e4","ios":"levelo://app?vid=5699304f-94c3-4d6b-a05e-4466d67bd7e4"},"vehicle_type_id":"4","last_reported":1729239120,"current_range_meters":8400,"station_id":"ce4bh5p2rcd13ifvqe4g","pricing_plan_id":"cebpf4jnsgd1na2vs0mg"},{"bike_id":"bc9bc908-6def-484c-b46d-0c91cd1df203","system_id":"levelo_inurba_marseille","lat":43.23183,"lon":5.3999,"is_reserved":false,"is_disabled":false,"rental_uris":{"android":"levelo://app?vid=bc9bc908-6def-484c-b46d-0c91cd1df203","ios":"levelo://app?vid=bc9bc908-6def-484c-b46d-0c91cd1df203"},"vehicle_type_id":"4","last_reported":1729239120,"current_range_meters":27200,"station_id":"ce4bhn12rcd13ifvqgqg","pricing_plan_id":"cebpf4jnsgd1na2vs0mg"},{"bike_id":"874494de-7452-4f47-9fec-c5ec79478035","system_id":"levelo_inurba_marseille","lat":43.23968,"lon":5.36628,"is_reserved":false,"is_disabled":false,"rental_uris":{"android":"levelo://app?vid=874494de-7452-4f47-9fec-c5ec79478035","ios":"levelo://app?vid=874494de-7452-4f47-9fec-c5ec79478035"},"vehicle_type_id":"4","last_reported":1729239120,"current_range_meters":24800,"station_id":"ce4bhi12rcd13ifvqfp0","pricing_plan_id":"cebpf4jnsgd1na2vs0mg"},{"bike_id":"8b33911e-5d42-46bd-b00d-c1d5ce72f577","system_id":"levelo_inurba_marseille","lat":43.23193,"lon":5.39985,"is_reserved":false,"is_disabled":false,"rental_uris":{"android":"levelo://app?vid=8b33911e-5d42-46bd-b00d-c1d5ce72f577","ios":"levelo://app?vid=8b33911e-5d42-46bd-b00d-c1d5ce72f577"},"vehicle_type_id":"4","last_reported":1729239120,"current_range_meters":38800,"station_id":"ce4bhn12rcd13ifvqgqg","pricing_plan_id":"cebpf4jnsgd1na2vs0mg"},{"bike_id":"dc0da2d3-2c1d-4293-a8b2-bd1f0dcaae8e","system_id":"levelo_inurba_marseille","lat":43.24543,"lon":5.39523,"is_reserved":false,"is_disabled":false,"rental_uris":{"android":"levelo://app?vid=dc0da2d3-2c1d-4293-a8b2-bd1f0dcaae8e","ios":"levelo://app?vid=dc0da2d3-2c1d-4293-a8b2-bd1f0dcaae8e"},"vehicle_type_id":"4","last_reported":1729239120,"current_range_meters":18800,"station_id":"ce4bhlp2rcd13ifvqgjg","pricing_plan_id":"cebpf4jnsgd1na2vs0mg"},{"bike_id":"b87f9f5e-58eb-4c9d-a532-529a7f767e15","system_id":"levelo_inurba_marseille","lat":43.31364,"lon":5.36691,"is_reserved":false,"is_disabled":false,"rental_uris":{"android":"levelo://app?vid=b87f9f5e-58eb-4c9d-a532-529a7f767e15","ios":"levelo://app?vid=b87f9f5e-58eb-4c9d-a532-529a7f767e15"},"vehicle_type_id":"4","last_reported":1729239120,"current_range_meters":31200,"station_id":"ce4bgr92rcd13ifvqc6g","pricing_plan_id":"cebpf4jnsgd1na2vs0mg"},{"bike_id":"852e865f-1f2a-406c-8b0a-0c57fbf7153f","system_id":"levelo_inurba_marseille","lat":43.31885,"lon":5.40738,"is_reserved":false,"is_disabled":false,"rental_uris":{"android":"levelo://app?vid=852e865f-1f2a-406c-8b0a-0c57fbf7153f","ios":"levelo://app?vid=852e865f-1f2a-406c-8b0a-0c57fbf7153f"},"vehicle_type_id":"4","last_reported":1729239120,"current_range_meters":36400,"station_id":"ce4bhq12rcd13ifvqhig","pricing_plan_id":"cebpf4jnsgd1na2vs0mg"},{"bike_id":"6dd67ec1-d844-4dbe-831d-85c3fcafe8d6","system_id":"levelo_inurba_marseille","lat":43.26206,"lon":5.37923,"is_reserved":false,"is_disabled":false,"rental_uris":{"android":"levelo://app?vid=6dd67ec1-d844-4dbe-831d-85c3fcafe8d6","ios":"levelo://app?vid=6dd67ec1-d844-4dbe-831d-85c3fcafe8d6"},"vehicle_type_id":"4","last_reported":1729239120,"current_range_meters":24400,"station_id":"ce4bhjp2rcd13ifvqg90","pricing_plan_id":"cebpf4jnsgd1na2vs0mg"},{"bike_id":"0994d7f0-fa2e-480f-b967-2b1e1b476b78","system_id":"levelo_inurba_marseille","lat":43.23184,"lon":5.35556,"is_reserved":false,"is_disabled":false,"rental_uris":{"android":"levelo://app?vid=0994d7f0-fa2e-480f-b967-2b1e1b476b78","ios":"levelo://app?vid=0994d7f0-fa2e-480f-b967-2b1e1b476b78"},"vehicle_type_id":"4","last_reported":1729239120,"current_range_meters":9200,"station_id":"ce4bhu92rcd13ifvqi70","pricing_plan_id":"cebpf4jnsgd1na2vs0mg"},{"bike_id":"cafacf31-3dc4-4662-b543-8a143108fe4d","system_id":"levelo_inurba_marseille","lat":43.23188,"lon":5.39977,"is_reserved":false,"is_disabled":false,"rental_uris":{"android":"levelo://app?vid=cafacf31-3dc4-4662-b543-8a143108fe4d","ios":"levelo://app?vid=cafacf31-3dc4-4662-b543-8a143108fe4d"},"vehicle_type_id":"4","last_reported":1729239120,"current_range_meters":19600,"station_id":"ce4bhn12rcd13ifvqgqg","pricing_plan_id":"cebpf4jnsgd1na2vs0mg"},{"bike_id":"22c39253-4373-4654-b8d6-6dd622f66580","system_id":"levelo_inurba_marseille","lat":43.32529,"lon":5.41462,"is_reserved":false,"is_disabled":false,"rental_uris":{"android":"levelo://app?vid=22c39253-4373-4654-b8d6-6dd622f66580","ios":"levelo://app?vid=22c39253-4373-4654-b8d6-6dd622f66580"},"vehicle_type_id":"4","last_reported":1729239120,"current_range_meters":28800,"station_id":"ce4bhq12rcd13ifvqhhg","pricing_plan_id":"cebpf4jnsgd1na2vs0mg"},{"bike_id":"66ccc46d-618e-4760-b09c-27382152bdab","system_id":"levelo_inurba_marseille","lat":43.23193,"lon":5.3554,"is_reserved":false,"is_disabled":false,"rental_uris":{"android":"levelo://app?vid=66ccc46d-618e-4760-b09c-27382152bdab","ios":"levelo://app?vid=66ccc46d-618e-4760-b09c-27382152bdab"},"vehicle_type_id":"4","last_reported":1729239120,"current_range_meters":28800,"station_id":"ce4bhu92rcd13ifvqi70","pricing_plan_id":"cebpf4jnsgd1na2vs0mg"},{"bike_id":"af5ff28d-5a35-4f8c-9fc0-e6233fbc3f13","system_id":"levelo_inurba_marseille","lat":43.28261,"lon":5.35067,"is_reserved":false,"is_disabled":false,"rental_uris":{"android":"levelo://app?vid=af5ff28d-5a35-4f8c-9fc0-e6233fbc3f13","ios":"levelo://app?vid=af5ff28d-5a35-4f8c-9fc0-e6233fbc3f13"},"vehicle_type_id":"4","last_reported":1729239120,"current_range_meters":36800,"station_id":"ce4bhbp2rcd13ifvqerg","pricing_plan_id":"cebpf4jnsgd1na2vs0mg"},{"bike_id":"f1a94ff4-d0ae-46a5-a0c4-581f5dc342f8","system_id":"levelo_inurba_marseille","lat":43.27301,"lon":5.390733,"is_reserved":false,"is_disabled":false,"rental_uris":{"android":"levelo://app?vid=f1a94ff4-d0ae-46a5-a0c4-581f5dc342f8","ios":"levelo://app?vid=f1a94ff4-d0ae-46a5-a0c4-581f5dc342f8"},"vehicle_type_id":"4","last_reported":1729239120,"current_range_meters":30000,"station_id":"ce4bhgp2rcd13ifvqfe0","pricing_plan_id":"cebpf4jnsgd1na2vs0mg"},{"bike_id":"8d481af8-b62c-4acc-a2e6-1539cd665ab7","system_id":"levelo_inurba_marseille","lat":43.2748,"lon":5.42477,"is_reserved":false,"is_disabled":false,"rental_uris":{"android":"levelo://app?vid=8d481af8-b62c-4acc-a2e6-1539cd665ab7","ios":"levelo://app?vid=8d481af8-b62c-4acc-a2e6-1539cd665ab7"},"vehicle_type_id":"4","last_reported":1729239120,"current_range_meters":24000,"station_id":"ce4bhn92rcd13ifvqgrg","pricing_plan_id":"cebpf4jnsgd1na2vs0mg"},{"bike_id":"09716f8f-d3e0-4d5b-801f-74a192cbe7dc","system_id":"levelo_inurba_marseille","lat":43.29311,"lon":5.37167,"is_reserved":false,"is_disabled":false,"rental_uris":{"android":"levelo://app?vid=09716f8f-d3e0-4d5b-801f-74a192cbe7dc","ios":"levelo://app?vid=09716f8f-d3e0-4d5b-801f-74a192cbe7dc"},"vehicle_type_id":"4","last_reported":1729239120,"current_range_meters":11200,"station_id":"ce4bgh92rcd13ifvqb40","pricing_plan_id":"cebpf4jnsgd1na2vs0mg"},{"bike_id":"72ce77f7-81c8-49a3-8760-dfcdc23fbddb","system_id":"levelo_inurba_marseille","lat":43.27068,"lon":5.4227,"is_reserved":false,"is_disabled":false,"rental_uris":{"android":"levelo://app?vid=72ce77f7-81c8-49a3-8760-dfcdc23fbddb","ios":"levelo://app?vid=72ce77f7-81c8-49a3-8760-dfcdc23fbddb"},"vehicle_type_id":"4","last_reported":1729239120,"current_range_meters":26800,"station_id":"ce4bhk92rcd13ifvqgb0","pricing_plan_id":"cebpf4jnsgd1na2vs0mg"},{"bike_id":"fc262b45-2b88-4d3d-8020-e7c946d1fec3","system_id":"levelo_inurba_marseille","lat":43.32113,"lon":5.36772,"is_reserved":false,"is_disabled":false,"rental_uris":{"android":"levelo://app?vid=fc262b45-2b88-4d3d-8020-e7c946d1fec3","ios":"levelo://app?vid=fc262b45-2b88-4d3d-8020-e7c946d1fec3"},"vehicle_type_id":"4","last_reported":1729239120,"current_range_meters":38400,"station_id":"ce4bhrh2rcd13ifvqhug","pricing_plan_id":"cebpf4jnsgd1na2vs0mg"},{"bike_id":"d7992096-705f-4c05-a4cb-e8657ad3ee19","system_id":"levelo_inurba_marseille","lat":43.31359,"lon":5.36712,"is_reserved":false,"is_disabled":false,"rental_uris":{"android":"levelo://app?vid=d7992096-705f-4c05-a4cb-e8657ad3ee19","ios":"levelo://app?vid=d7992096-705f-4c05-a4cb-e8657ad3ee19"},"vehicle_type_id":"4","last_reported":1729239120,"current_range_meters":32000,"station_id":"ce4bgr92rcd13ifvqc6g","pricing_plan_id":"cebpf4jnsgd1na2vs0mg"},{"bike_id":"2a8d8e0d-09f4-4ada-9e2b-a6718972e982","system_id":"levelo_inurba_marseille","lat":43.23151,"lon":5.43711,"is_reserved":false,"is_disabled":false,"rental_uris":{"android":"levelo://app?vid=2a8d8e0d-09f4-4ada-9e2b-a6718972e982","ios":"levelo://app?vid=2a8d8e0d-09f4-4ada-9e2b-a6718972e982"},"vehicle_type_id":"4","last_reported":1729239120,"current_range_meters":19600,"station_id":"ce4bhmp2rcd13ifvqgog","pricing_plan_id":"cebpf4jnsgd1na2vs0mg"},{"bike_id":"78cc04ea-e2f7-4e2f-93c9-b23043ebd0d1","system_id":"levelo_inurba_marseille","lat":43.26785,"lon":5.39417,"is_reserved":false,"is_disabled":false,"rental_uris":{"android":"levelo://app?vid=78cc04ea-e2f7-4e2f-93c9-b23043ebd0d1","ios":"levelo://app?vid=78cc04ea-e2f7-4e2f-93c9-b23043ebd0d1"},"vehicle_type_id":"4","last_reported":1729239120,"current_range_meters":8000,"station_id":"ce4bhh12rcd13ifvqfg0","pricing_plan_id":"cebpf4jnsgd1na2vs0mg"},{"bike_id":"907d90e2-7e08-4846-bbc2-01977b54a9bd","system_id":"levelo_inurba_marseille","lat":43.24168,"lon":5.36392,"is_reserved":false,"is_disabled":false,"rental_uris":{"android":"levelo://app?vid=907d90e2-7e08-4846-bbc2-01977b54a9bd","ios":"levelo://app?vid=907d90e2-7e08-4846-bbc2-01977b54a9bd"},"vehicle_type_id":"4","last_reported":1729239120,"current_range_meters":18800,"station_id":"cpo36qri1sfpv3e86is0","pricing_plan_id":"cebpf4jnsgd1na2vs0mg"},{"bike_id":"de4c9c8f-6716-454d-ac5c-28217a9a06c6","system_id":"levelo_inurba_marseille","lat":43.31363,"lon":5.36691,"is_reserved":false,"is_disabled":false,"rental_uris":{"android":"levelo://app?vid=de4c9c8f-6716-454d-ac5c-28217a9a06c6","ios":"levelo://app?vid=de4c9c8f-6716-454d-ac5c-28217a9a06c6"},"vehicle_type_id":"4","last_reported":1729239120,"current_range_meters":24800,"station_id":"ce4bgr92rcd13ifvqc6g","pricing_plan_id":"cebpf4jnsgd1na2vs0mg"},{"bike_id":"b3e91c9f-d86a-45b0-844d-6fa223033368","system_id":"levelo_inurba_marseille","lat":43.26203,"lon":5.37925,"is_reserved":false,"is_disabled":false,"rental_uris":{"android":"levelo://app?vid=b3e91c9f-d86a-45b0-844d-6fa223033368","ios":"levelo://app?vid=b3e91c9f-d86a-45b0-844d-6fa223033368"},"vehicle_type_id":"4","last_reported":1729239120,"current_range_meters":25600,"station_id":"ce4bhjp2rcd13ifvqg90","pricing_plan_id":"cebpf4jnsgd1na2vs0mg"},{"bike_id":"1c49b829-c3f7-48d2-85a3-a9a95ca4c10c","system_id":"levelo_inurba_marseille","lat":43.28721,"lon":5.37941,"is_reserved":false,"is_disabled":false,"rental_uris":{"android":"levelo://app?vid=1c49b829-c3f7-48d2-85a3-a9a95ca4c10c","ios":"levelo://app?vid=1c49b829-c3f7-48d2-85a3-a9a95ca4c10c"},"vehicle_type_id":"4","last_reported":1729239120,"current_range_meters":28400,"station_id":"ce4bh9p2rcd13ifvqec0","pricing_plan_id":"cebpf4jnsgd1na2vs0mg"},{"bike_id":"c22871e7-5721-4a9e-9097-0cbe25c29139","system_id":"levelo_inurba_marseille","lat":43.26198,"lon":5.37931,"is_reserved":false,"is_disabled":false,"rental_uris":{"android":"levelo://app?vid=c22871e7-5721-4a9e-9097-0cbe25c29139","ios":"levelo://app?vid=c22871e7-5721-4a9e-9097-0cbe25c29139"},"vehicle_type_id":"4","last_reported":1729239120,"current_range_meters":29600,"station_id":"ce4bhjp2rcd13ifvqg90","pricing_plan_id":"cebpf4jnsgd1na2vs0mg"},{"bike_id":"d5453104-4e26-49cc-8e26-384ccaaff964","system_id":"levelo_inurba_marseille","lat":43.2655,"lon":5.37278,"is_reserved":false,"is_disabled":false,"rental_uris":{"android":"levelo://app?vid=d5453104-4e26-49cc-8e26-384ccaaff964","ios":"levelo://app?vid=d5453104-4e26-49cc-8e26-384ccaaff964"},"vehicle_type_id":"4","last_reported":1729239120,"current_range_meters":31200,"station_id":"ce4bhg12rcd13ifvqf70","pricing_plan_id":"cebpf4jnsgd1na2vs0mg"},{"bike_id":"2db49f82-1252-4071-9057-14d5eafb22c3","system_id":"levelo_inurba_marseille","lat":43.27492,"lon":5.4245,"is_reserved":false,"is_disabled":false,"rental_uris":{"android":"levelo://app?vid=2db49f82-1252-4071-9057-14d5eafb22c3","ios":"levelo://app?vid=2db49f82-1252-4071-9057-14d5eafb22c3"},"vehicle_type_id":"4","last_reported":1729239120,"current_range_meters":30400,"station_id":"ce4bhn92rcd13ifvqgrg","pricing_plan_id":"cebpf4jnsgd1na2vs0mg"},{"bike_id":"831e3046-fa53-4609-bc33-48caa3a9e4d6","system_id":"levelo_inurba_marseille","lat":43.293518,"lon":5.374433,"is_reserved":false,"is_disabled":false,"rental_uris":{"android":"levelo://app?vid=831e3046-fa53-4609-bc33-48caa3a9e4d6","ios":"levelo://app?vid=831e3046-fa53-4609-bc33-48caa3a9e4d6"},"vehicle_type_id":"4","last_reported":1729239120,"current_range_meters":5600,"station_id":"ce4bgqh2rcd13ifvqc5g","pricing_plan_id":"cebpf4jnsgd1na2vs0mg"},{"bike_id":"944e2bb0-4607-411f-9364-8bb6f04a2a7f","system_id":"levelo_inurba_marseille","lat":43.26786,"lon":5.39414,"is_reserved":false,"is_disabled":false,"rental_uris":{"android":"levelo://app?vid=944e2bb0-4607-411f-9364-8bb6f04a2a7f","ios":"levelo://app?vid=944e2bb0-4607-411f-9364-8bb6f04a2a7f"},"vehicle_type_id":"4","last_reported":1729239120,"current_range_meters":24000,"station_id":"ce4bhh12rcd13ifvqfg0","pricing_plan_id":"cebpf4jnsgd1na2vs0mg"},{"bike_id":"95192caf-c2c1-41bb-8a18-4c3356cdee01","system_id":"levelo_inurba_marseille","lat":43.2923,"lon":5.36064,"is_reserved":false,"is_disabled":false,"rental_uris":{"android":"levelo://app?vid=95192caf-c2c1-41bb-8a18-4c3356cdee01","ios":"levelo://app?vid=95192caf-c2c1-41bb-8a18-4c3356cdee01"},"vehicle_type_id":"4","last_reported":1729239120,"current_range_meters":38800,"station_id":"ce4bhbh2rcd13ifvqeqg","pricing_plan_id":"cebpf4jnsgd1na2vs0mg"},{"bike_id":"43fdde0f-33ee-4944-81bd-0a22df7d4f67","system_id":"levelo_inurba_marseille","lat":43.24075,"lon":5.37764,"is_reserved":false,"is_disabled":false,"rental_uris":{"android":"levelo://app?vid=43fdde0f-33ee-4944-81bd-0a22df7d4f67","ios":"levelo://app?vid=43fdde0f-33ee-4944-81bd-0a22df7d4f67"},"vehicle_type_id":"4","last_reported":1729239120,"current_range_meters":36400,"station_id":"ce4bhnp2rcd13ifvqgvg","pricing_plan_id":"cebpf4jnsgd1na2vs0mg"},{"bike_id":"94dad7f8-6585-4b37-b691-74420d23ef13","system_id":"levelo_inurba_marseille","lat":43.30799,"lon":5.43522,"is_reserved":false,"is_disabled":false,"rental_uris":{"android":"levelo://app?vid=94dad7f8-6585-4b37-b691-74420d23ef13","ios":"levelo://app?vid=94dad7f8-6585-4b37-b691-74420d23ef13"},"vehicle_type_id":"4","last_reported":1729239120,"current_range_meters":36800,"station_id":"ce4bhph2rcd13ifvqheg","pricing_plan_id":"cebpf4jnsgd1na2vs0mg"},{"bike_id":"ac711575-16fa-4173-b0a6-0952979f5018","system_id":"levelo_inurba_marseille","lat":43.29687,"lon":5.37283,"is_reserved":false,"is_disabled":false,"rental_uris":{"android":"levelo://app?vid=ac711575-16fa-4173-b0a6-0952979f5018","ios":"levelo://app?vid=ac711575-16fa-4173-b0a6-0952979f5018"},"vehicle_type_id":"4","last_reported":1729239120,"current_range_meters":39200,"station_id":"ce4bgk12rcd13ifvqbj0","pricing_plan_id":"cebpf4jnsgd1na2vs0mg"},{"bike_id":"4562e9bb-7c1e-4e0e-95e1-858d0f8d86d1","system_id":"levelo_inurba_marseille","lat":43.23197,"lon":5.355525,"is_reserved":false,"is_disabled":false,"rental_uris":{"android":"levelo://app?vid=4562e9bb-7c1e-4e0e-95e1-858d0f8d86d1","ios":"levelo://app?vid=4562e9bb-7c1e-4e0e-95e1-858d0f8d86d1"},"vehicle_type_id":"4","last_reported":1729239120,"current_range_meters":36400,"station_id":"ce4bhu92rcd13ifvqi70","pricing_plan_id":"cebpf4jnsgd1na2vs0mg"},{"bike_id":"87952883-0bcf-4e99-b227-c8f0f0ecaad4","system_id":"levelo_inurba_marseille","lat":43.3055,"lon":5.36547,"is_reserved":false,"is_disabled":false,"rental_uris":{"android":"levelo://app?vid=87952883-0bcf-4e99-b227-c8f0f0ecaad4","ios":"levelo://app?vid=87952883-0bcf-4e99-b227-c8f0f0ecaad4"},"vehicle_type_id":"4","last_reported":1729239120,"current_range_meters":29600,"station_id":"ce4bgs12rcd13ifvqcag","pricing_plan_id":"cebpf4jnsgd1na2vs0mg"},{"bike_id":"ecfa67fe-1cff-4b31-bb4d-97907e44a8b7","system_id":"levelo_inurba_marseille","lat":43.30538,"lon":5.36735,"is_reserved":false,"is_disabled":false,"rental_uris":{"android":"levelo://app?vid=ecfa67fe-1cff-4b31-bb4d-97907e44a8b7","ios":"levelo://app?vid=ecfa67fe-1cff-4b31-bb4d-97907e44a8b7"},"vehicle_type_id":"4","last_reported":1729239120,"current_range_meters":25200,"station_id":"ce4bgrp2rcd13ifvqc9g","pricing_plan_id":"cebpf4jnsgd1na2vs0mg"},{"bike_id":"6837ac97-30a8-4145-8047-b6d6df61ac48","system_id":"levelo_inurba_marseille","lat":43.23185,"lon":5.39993,"is_reserved":false,"is_disabled":false,"rental_uris":{"android":"levelo://app?vid=6837ac97-30a8-4145-8047-b6d6df61ac48","ios":"levelo://app?vid=6837ac97-30a8-4145-8047-b6d6df61ac48"},"vehicle_type_id":"4","last_reported":1729239120,"current_range_meters":38800,"station_id":"ce4bhn12rcd13ifvqgqg","pricing_plan_id":"cebpf4jnsgd1na2vs0mg"},{"bike_id":"2140b6a3-5118-4150-823e-9225aeb56201","system_id":"levelo_inurba_marseille","lat":43.23199,"lon":5.35549,"is_reserved":false,"is_disabled":false,"rental_uris":{"android":"levelo://app?vid=2140b6a3-5118-4150-823e-9225aeb56201","ios":"levelo://app?vid=2140b6a3-5118-4150-823e-9225aeb56201"},"vehicle_type_id":"4","last_reported":1729239120,"current_range_meters":32400,"station_id":"ce4bhu92rcd13ifvqi70","pricing_plan_id":"cebpf4jnsgd1na2vs0mg"},{"bike_id":"2d26828d-d90f-4409-8e3f-2bdaa5ca0cb2","system_id":"levelo_inurba_marseille","lat":43.23189,"lon":5.39984,"is_reserved":false,"is_disabled":false,"rental_uris":{"android":"levelo://app?vid=2d26828d-d90f-4409-8e3f-2bdaa5ca0cb2","ios":"levelo://app?vid=2d26828d-d90f-4409-8e3f-2bdaa5ca0cb2"},"vehicle_type_id":"4","last_reported":1729239120,"current_range_meters":33600,"station_id":"ce4bhn12rcd13ifvqgqg","pricing_plan_id":"cebpf4jnsgd1na2vs0mg"},{"bike_id":"bb4dbc70-17da-4eb1-84cd-f50c9380deed","system_id":"levelo_inurba_marseille","lat":43.26784,"lon":5.39406,"is_reserved":false,"is_disabled":false,"rental_uris":{"android":"levelo://app?vid=bb4dbc70-17da-4eb1-84cd-f50c9380deed","ios":"levelo://app?vid=bb4dbc70-17da-4eb1-84cd-f50c9380deed"},"vehicle_type_id":"4","last_reported":1729239120,"current_range_meters":9600,"station_id":"ce4bhh12rcd13ifvqfg0","pricing_plan_id":"cebpf4jnsgd1na2vs0mg"},{"bike_id":"66b00399-45e1-4f0a-af69-00121535fe8c","system_id":"levelo_inurba_marseille","lat":43.30157,"lon":5.38077,"is_reserved":false,"is_disabled":false,"rental_uris":{"android":"levelo://app?vid=66b00399-45e1-4f0a-af69-00121535fe8c","ios":"levelo://app?vid=66b00399-45e1-4f0a-af69-00121535fe8c"},"vehicle_type_id":"4","last_reported":1729239120,"current_range_meters":20400,"station_id":"ce4bgjp2rcd13ifvqbh0","pricing_plan_id":"cebpf4jnsgd1na2vs0mg"},{"bike_id":"73571360-6624-497e-ae84-61a3fbd766b0","system_id":"levelo_inurba_marseille","lat":43.255,"lon":5.37653,"is_reserved":false,"is_disabled":false,"rental_uris":{"android":"levelo://app?vid=73571360-6624-497e-ae84-61a3fbd766b0","ios":"levelo://app?vid=73571360-6624-497e-ae84-61a3fbd766b0"},"vehicle_type_id":"4","last_reported":1729239120,"current_range_meters":38800,"station_id":"ce4bhh12rcd13ifvqff0","pricing_plan_id":"cebpf4jnsgd1na2vs0mg"},{"bike_id":"9a5adff2-e84f-41ae-84d8-ac0a797ab11c","system_id":"levelo_inurba_marseille","lat":43.27494,"lon":5.42453,"is_reserved":false,"is_disabled":false,"rental_uris":{"android":"levelo://app?vid=9a5adff2-e84f-41ae-84d8-ac0a797ab11c","ios":"levelo://app?vid=9a5adff2-e84f-41ae-84d8-ac0a797ab11c"},"vehicle_type_id":"4","last_reported":1729239120,"current_range_meters":32000,"station_id":"ce4bhn92rcd13ifvqgrg","pricing_plan_id":"cebpf4jnsgd1na2vs0mg"},{"bike_id":"fa9433b4-083f-47af-bd7b-c30153b643c4","system_id":"levelo_inurba_marseille","lat":43.2707,"lon":5.42276,"is_reserved":false,"is_disabled":false,"rental_uris":{"android":"levelo://app?vid=fa9433b4-083f-47af-bd7b-c30153b643c4","ios":"levelo://app?vid=fa9433b4-083f-47af-bd7b-c30153b643c4"},"vehicle_type_id":"4","last_reported":1729239120,"current_range_meters":24800,"station_id":"ce4bhk92rcd13ifvqgb0","pricing_plan_id":"cebpf4jnsgd1na2vs0mg"},{"bike_id":"6af19b10-4ecf-44ce-9296-b72cd0fb8dd3","system_id":"levelo_inurba_marseille","lat":43.29557,"lon":5.42288,"is_reserved":false,"is_disabled":false,"rental_uris":{"android":"levelo://app?vid=6af19b10-4ecf-44ce-9296-b72cd0fb8dd3","ios":"levelo://app?vid=6af19b10-4ecf-44ce-9296-b72cd0fb8dd3"},"vehicle_type_id":"4","last_reported":1729239120,"current_range_meters":8400,"station_id":"ce4bhph2rcd13ifvqhdg","pricing_plan_id":"cebpf4jnsgd1na2vs0mg"},{"bike_id":"521c673e-7033-4999-9ba4-100fe2ca5465","system_id":"levelo_inurba_marseille","lat":43.24643,"lon":5.38892,"is_reserved":false,"is_disabled":false,"rental_uris":{"android":"levelo://app?vid=521c673e-7033-4999-9ba4-100fe2ca5465","ios":"levelo://app?vid=521c673e-7033-4999-9ba4-100fe2ca5465"},"vehicle_type_id":"4","last_reported":1729239120,"current_range_meters":32000,"station_id":"ce4bhg12rcd13ifvqf60","pricing_plan_id":"cebpf4jnsgd1na2vs0mg"},{"bike_id":"3e4e242e-8e51-4d53-b6f1-b097266b72b3","system_id":"levelo_inurba_marseille","lat":43.24078,"lon":5.37752,"is_reserved":false,"is_disabled":false,"rental_uris":{"android":"levelo://app?vid=3e4e242e-8e51-4d53-b6f1-b097266b72b3","ios":"levelo://app?vid=3e4e242e-8e51-4d53-b6f1-b097266b72b3"},"vehicle_type_id":"4","last_reported":1729239120,"current_range_meters":36400,"station_id":"ce4bhnp2rcd13ifvqgvg","pricing_plan_id":"cebpf4jnsgd1na2vs0mg"},{"bike_id":"43cd1e38-7127-44db-b64a-c536ff753899","system_id":"levelo_inurba_marseille","lat":43.29558,"lon":5.39948,"is_reserved":false,"is_disabled":false,"rental_uris":{"android":"levelo://app?vid=43cd1e38-7127-44db-b64a-c536ff753899","ios":"levelo://app?vid=43cd1e38-7127-44db-b64a-c536ff753899"},"vehicle_type_id":"4","last_reported":1729239120,"current_range_meters":10000,"station_id":"ce4bh312rcd13ifvqdj0","pricing_plan_id":"cebpf4jnsgd1na2vs0mg"},{"bike_id":"7772d39f-5e28-445c-af91-069b0cf63793","system_id":"levelo_inurba_marseille","lat":43.33765,"lon":5.37438,"is_reserved":false,"is_disabled":false,"rental_uris":{"android":"levelo://app?vid=7772d39f-5e28-445c-af91-069b0cf63793","ios":"levelo://app?vid=7772d39f-5e28-445c-af91-069b0cf63793"},"vehicle_type_id":"4","last_reported":1729239120,"current_range_meters":14400,"station_id":"","pricing_plan_id":"cebpf4jnsgd1na2vs0mg"},{"bike_id":"36f68dd6-3f5f-4769-a925-3cf70124219e","system_id":"levelo_inurba_marseille","lat":43.26202,"lon":5.37924,"is_reserved":false,"is_disabled":false,"rental_uris":{"android":"levelo://app?vid=36f68dd6-3f5f-4769-a925-3cf70124219e","ios":"levelo://app?vid=36f68dd6-3f5f-4769-a925-3cf70124219e"},"vehicle_type_id":"4","last_reported":1729239120,"current_range_meters":12400,"station_id":"ce4bhjp2rcd13ifvqg90","pricing_plan_id":"cebpf4jnsgd1na2vs0mg"},{"bike_id":"509cb4ca-c8a8-49fb-a405-b3dcfaabb7b3","system_id":"levelo_inurba_marseille","lat":43.33021,"lon":5.39038,"is_reserved":false,"is_disabled":false,"rental_uris":{"android":"levelo://app?vid=509cb4ca-c8a8-49fb-a405-b3dcfaabb7b3","ios":"levelo://app?vid=509cb4ca-c8a8-49fb-a405-b3dcfaabb7b3"},"vehicle_type_id":"4","last_reported":1729239120,"current_range_meters":22400,"station_id":"ce4bhr92rcd13ifvqhrg","pricing_plan_id":"cebpf4jnsgd1na2vs0mg"},{"bike_id":"5d9373cb-e293-4e08-908a-5e40ac6e38b7","system_id":"levelo_inurba_marseille","lat":43.32547,"lon":5.41424,"is_reserved":false,"is_disabled":false,"rental_uris":{"android":"levelo://app?vid=5d9373cb-e293-4e08-908a-5e40ac6e38b7","ios":"levelo://app?vid=5d9373cb-e293-4e08-908a-5e40ac6e38b7"},"vehicle_type_id":"4","last_reported":1729239120,"current_range_meters":39200,"station_id":"ce4bhq12rcd13ifvqhhg","pricing_plan_id":"cebpf4jnsgd1na2vs0mg"},{"bike_id":"3213665e-989c-4d22-9f5a-31c8522597dd","system_id":"levelo_inurba_marseille","lat":43.296,"lon":5.36142,"is_reserved":false,"is_disabled":false,"rental_uris":{"android":"levelo://app?vid=3213665e-989c-4d22-9f5a-31c8522597dd","ios":"levelo://app?vid=3213665e-989c-4d22-9f5a-31c8522597dd"},"vehicle_type_id":"4","last_reported":1729239120,"current_range_meters":24800,"station_id":"","pricing_plan_id":"cebpf4jnsgd1na2vs0mg"},{"bike_id":"5f784547-3f23-484a-a9b4-3f287c1bc6f9","system_id":"levelo_inurba_marseille","lat":43.31221,"lon":5.36858,"is_reserved":false,"is_disabled":false,"rental_uris":{"android":"levelo://app?vid=5f784547-3f23-484a-a9b4-3f287c1bc6f9","ios":"levelo://app?vid=5f784547-3f23-484a-a9b4-3f287c1bc6f9"},"vehicle_type_id":"4","last_reported":1729239120,"current_range_meters":38000,"station_id":"ce4bgl92rcd13ifvqbq0","pricing_plan_id":"cebpf4jnsgd1na2vs0mg"},{"bike_id":"cddb2538-acdb-46a5-bc95-6e0a8d74ef0c","system_id":"levelo_inurba_marseille","lat":43.30799,"lon":5.4353,"is_reserved":false,"is_disabled":false,"rental_uris":{"android":"levelo://app?vid=cddb2538-acdb-46a5-bc95-6e0a8d74ef0c","ios":"levelo://app?vid=cddb2538-acdb-46a5-bc95-6e0a8d74ef0c"},"vehicle_type_id":"4","last_reported":1729239120,"current_range_meters":32800,"station_id":"ce4bhph2rcd13ifvqheg","pricing_plan_id":"cebpf4jnsgd1na2vs0mg"},{"bike_id":"8f431045-551e-4ac4-a635-d10b10d8159d","system_id":"levelo_inurba_marseille","lat":43.30534,"lon":5.36551,"is_reserved":false,"is_disabled":false,"rental_uris":{"android":"levelo://app?vid=8f431045-551e-4ac4-a635-d10b10d8159d","ios":"levelo://app?vid=8f431045-551e-4ac4-a635-d10b10d8159d"},"vehicle_type_id":"4","last_reported":1729239120,"current_range_meters":18800,"station_id":"ce4bgs12rcd13ifvqcag","pricing_plan_id":"cebpf4jnsgd1na2vs0mg"},{"bike_id":"5f50933a-822a-4388-8612-62a3f233b7b7","system_id":"levelo_inurba_marseille","lat":43.23155,"lon":5.43718,"is_reserved":false,"is_disabled":false,"rental_uris":{"android":"levelo://app?vid=5f50933a-822a-4388-8612-62a3f233b7b7","ios":"levelo://app?vid=5f50933a-822a-4388-8612-62a3f233b7b7"},"vehicle_type_id":"4","last_reported":1729239120,"current_range_meters":28000,"station_id":"ce4bhmp2rcd13ifvqgog","pricing_plan_id":"cebpf4jnsgd1na2vs0mg"},{"bike_id":"8f95a266-11aa-478e-82a1-83102654e976","system_id":"levelo_inurba_marseille","lat":43.27429,"lon":5.39407,"is_reserved":false,"is_disabled":false,"rental_uris":{"android":"levelo://app?vid=8f95a266-11aa-478e-82a1-83102654e976","ios":"levelo://app?vid=8f95a266-11aa-478e-82a1-83102654e976"},"vehicle_type_id":"4","last_reported":1729239120,"current_range_meters":37600,"station_id":"ce4bhdp2rcd13ifvqf20","pricing_plan_id":"cebpf4jnsgd1na2vs0mg"},{"bike_id":"1641b826-604a-4181-8231-dca386f637a6","system_id":"levelo_inurba_marseille","lat":43.23186,"lon":5.35555,"is_reserved":false,"is_disabled":false,"rental_uris":{"android":"levelo://app?vid=1641b826-604a-4181-8231-dca386f637a6","ios":"levelo://app?vid=1641b826-604a-4181-8231-dca386f637a6"},"vehicle_type_id":"4","last_reported":1729239120,"current_range_meters":30000,"station_id":"ce4bhu92rcd13ifvqi70","pricing_plan_id":"cebpf4jnsgd1na2vs0mg"},{"bike_id":"89211ee2-076f-4df3-92bd-cd8885f2e76d","system_id":"levelo_inurba_marseille","lat":43.23194,"lon":5.355556,"is_reserved":false,"is_disabled":false,"rental_uris":{"android":"levelo://app?vid=89211ee2-076f-4df3-92bd-cd8885f2e76d","ios":"levelo://app?vid=89211ee2-076f-4df3-92bd-cd8885f2e76d"},"vehicle_type_id":"4","last_reported":1729239120,"current_range_meters":28800,"station_id":"ce4bhu92rcd13ifvqi70","pricing_plan_id":"cebpf4jnsgd1na2vs0mg"},{"bike_id":"ad7b4d6b-0664-4d0e-891e-2962f31c57b3","system_id":"levelo_inurba_marseille","lat":43.231508,"lon":5.43712,"is_reserved":false,"is_disabled":false,"rental_uris":{"android":"levelo://app?vid=ad7b4d6b-0664-4d0e-891e-2962f31c57b3","ios":"levelo://app?vid=ad7b4d6b-0664-4d0e-891e-2962f31c57b3"},"vehicle_type_id":"4","last_reported":1729239120,"current_range_meters":19200,"station_id":"ce4bhmp2rcd13ifvqgog","pricing_plan_id":"cebpf4jnsgd1na2vs0mg"},{"bike_id":"332d992e-1f74-4a6e-90af-e412590e26f8","system_id":"levelo_inurba_marseille","lat":43.2407,"lon":5.37756,"is_reserved":false,"is_disabled":false,"rental_uris":{"android":"levelo://app?vid=332d992e-1f74-4a6e-90af-e412590e26f8","ios":"levelo://app?vid=332d992e-1f74-4a6e-90af-e412590e26f8"},"vehicle_type_id":"4","last_reported":1729239120,"current_range_meters":38800,"station_id":"ce4bhnp2rcd13ifvqgvg","pricing_plan_id":"cebpf4jnsgd1na2vs0mg"},{"bike_id":"e81884ec-954d-4cc4-bd0a-e1d1aef4241c","system_id":"levelo_inurba_marseille","lat":43.28939,"lon":5.3663,"is_reserved":false,"is_disabled":false,"rental_uris":{"android":"levelo://app?vid=e81884ec-954d-4cc4-bd0a-e1d1aef4241c","ios":"levelo://app?vid=e81884ec-954d-4cc4-bd0a-e1d1aef4241c"},"vehicle_type_id":"4","last_reported":1729239120,"current_range_meters":8800,"station_id":"ce4bhap2rcd13ifvqek0","pricing_plan_id":"cebpf4jnsgd1na2vs0mg"},{"bike_id":"8e5e6ebb-862e-4922-8371-61f4ff6f112c","system_id":"levelo_inurba_marseille","lat":43.26201,"lon":5.37927,"is_reserved":false,"is_disabled":false,"rental_uris":{"android":"levelo://app?vid=8e5e6ebb-862e-4922-8371-61f4ff6f112c","ios":"levelo://app?vid=8e5e6ebb-862e-4922-8371-61f4ff6f112c"},"vehicle_type_id":"4","last_reported":1729239120,"current_range_meters":20400,"station_id":"ce4bhjp2rcd13ifvqg90","pricing_plan_id":"cebpf4jnsgd1na2vs0mg"},{"bike_id":"e2d96579-ea64-404c-b9fa-501833cdd63e","system_id":"levelo_inurba_marseille","lat":43.33613,"lon":5.41029,"is_reserved":false,"is_disabled":false,"rental_uris":{"android":"levelo://app?vid=e2d96579-ea64-404c-b9fa-501833cdd63e","ios":"levelo://app?vid=e2d96579-ea64-404c-b9fa-501833cdd63e"},"vehicle_type_id":"4","last_reported":1729239120,"current_range_meters":18800,"station_id":"ce4bhqh2rcd13ifvqhmg","pricing_plan_id":"cebpf4jnsgd1na2vs0mg"},{"bike_id":"c64cba4b-b182-401f-aebb-03a0c49ce9bb","system_id":"levelo_inurba_marseille","lat":43.25938,"lon":5.40906,"is_reserved":false,"is_disabled":false,"rental_uris":{"android":"levelo://app?vid=c64cba4b-b182-401f-aebb-03a0c49ce9bb","ios":"levelo://app?vid=c64cba4b-b182-401f-aebb-03a0c49ce9bb"},"vehicle_type_id":"4","last_reported":1729239120,"current_range_meters":8000,"station_id":"ce4bhm92rcd13ifvqglg","pricing_plan_id":"cebpf4jnsgd1na2vs0mg"},{"bike_id":"bad7e294-22f8-4f58-b1a7-e868b264fed3","system_id":"levelo_inurba_marseille","lat":43.27208,"lon":5.39182,"is_reserved":false,"is_disabled":false,"rental_uris":{"android":"levelo://app?vid=bad7e294-22f8-4f58-b1a7-e868b264fed3","ios":"levelo://app?vid=bad7e294-22f8-4f58-b1a7-e868b264fed3"},"vehicle_type_id":"4","last_reported":1729239120,"current_range_meters":32800,"station_id":"ce4bhhp2rcd13ifvqfm0","pricing_plan_id":"cebpf4jnsgd1na2vs0mg"},{"bike_id":"55d9817f-7037-4059-af35-375fcd85568c","system_id":"levelo_inurba_marseille","lat":43.30151,"lon":5.38087,"is_reserved":false,"is_disabled":false,"rental_uris":{"android":"levelo://app?vid=55d9817f-7037-4059-af35-375fcd85568c","ios":"levelo://app?vid=55d9817f-7037-4059-af35-375fcd85568c"},"vehicle_type_id":"4","last_reported":1729239120,"current_range_meters":30400,"station_id":"ce4bgjp2rcd13ifvqbh0","pricing_plan_id":"cebpf4jnsgd1na2vs0mg"},{"bike_id":"e8fa0c67-c553-4a87-9c32-6644007fca22","system_id":"levelo_inurba_marseille","lat":43.28607,"lon":5.35101,"is_reserved":false,"is_disabled":false,"rental_uris":{"android":"levelo://app?vid=e8fa0c67-c553-4a87-9c32-6644007fca22","ios":"levelo://app?vid=e8fa0c67-c553-4a87-9c32-6644007fca22"},"vehicle_type_id":"4","last_reported":1729239120,"current_range_meters":11600,"station_id":"ce4bhch2rcd13ifvqeug","pricing_plan_id":"cebpf4jnsgd1na2vs0mg"},{"bike_id":"422d485a-ee3c-4fc3-b2c4-fc8dab31d119","system_id":"levelo_inurba_marseille","lat":43.23964,"lon":5.36625,"is_reserved":false,"is_disabled":false,"rental_uris":{"android":"levelo://app?vid=422d485a-ee3c-4fc3-b2c4-fc8dab31d119","ios":"levelo://app?vid=422d485a-ee3c-4fc3-b2c4-fc8dab31d119"},"vehicle_type_id":"4","last_reported":1729239120,"current_range_meters":16400,"station_id":"ce4bhi12rcd13ifvqfp0","pricing_plan_id":"cebpf4jnsgd1na2vs0mg"},{"bike_id":"89115e60-63a6-4127-bcf0-d12cc3ab801c","system_id":"levelo_inurba_marseille","lat":43.30539,"lon":5.36708,"is_reserved":false,"is_disabled":false,"rental_uris":{"android":"levelo://app?vid=89115e60-63a6-4127-bcf0-d12cc3ab801c","ios":"levelo://app?vid=89115e60-63a6-4127-bcf0-d12cc3ab801c"},"vehicle_type_id":"4","last_reported":1729239120,"current_range_meters":32800,"station_id":"ce4bgrp2rcd13ifvqc9g","pricing_plan_id":"cebpf4jnsgd1na2vs0mg"},{"bike_id":"680d2091-a0e9-40eb-948b-cbc37751ff53","system_id":"levelo_inurba_marseille","lat":43.30537,"lon":5.38422,"is_reserved":false,"is_disabled":false,"rental_uris":{"android":"levelo://app?vid=680d2091-a0e9-40eb-948b-cbc37751ff53","ios":"levelo://app?vid=680d2091-a0e9-40eb-948b-cbc37751ff53"},"vehicle_type_id":"4","last_reported":1729239120,"current_range_meters":34000,"station_id":"ce4bgg92rcd13ifvqb30","pricing_plan_id":"cebpf4jnsgd1na2vs0mg"},{"bike_id":"87440bd7-4730-412f-b52f-03b263c3d6ba","system_id":"levelo_inurba_marseille","lat":43.23191,"lon":5.35551,"is_reserved":false,"is_disabled":false,"rental_uris":{"android":"levelo://app?vid=87440bd7-4730-412f-b52f-03b263c3d6ba","ios":"levelo://app?vid=87440bd7-4730-412f-b52f-03b263c3d6ba"},"vehicle_type_id":"4","last_reported":1729239120,"current_range_meters":14400,"station_id":"ce4bhu92rcd13ifvqi70","pricing_plan_id":"cebpf4jnsgd1na2vs0mg"},{"bike_id":"b48e27f9-9061-42a8-a807-957b75a74ad6","system_id":"levelo_inurba_marseille","lat":43.29933,"lon":5.36555,"is_reserved":false,"is_disabled":false,"rental_uris":{"android":"levelo://app?vid=b48e27f9-9061-42a8-a807-957b75a74ad6","ios":"levelo://app?vid=b48e27f9-9061-42a8-a807-957b75a74ad6"},"vehicle_type_id":"4","last_reported":1729239120,"current_range_meters":24800,"station_id":"ce4bgm92rcd13ifvqbr0","pricing_plan_id":"cebpf4jnsgd1na2vs0mg"},{"bike_id":"23b7da1f-f615-4b99-bfbe-68f6357138c5","system_id":"levelo_inurba_marseille","lat":43.29009,"lon":5.38142,"is_reserved":false,"is_disabled":false,"rental_uris":{"android":"levelo://app?vid=23b7da1f-f615-4b99-bfbe-68f6357138c5","ios":"levelo://app?vid=23b7da1f-f615-4b99-bfbe-68f6357138c5"},"vehicle_type_id":"4","last_reported":1729239120,"current_range_meters":6400,"station_id":"ce4bh4p2rcd13ifvqe1g","pricing_plan_id":"cebpf4jnsgd1na2vs0mg"},{"bike_id":"ef4dd203-fcc5-4759-ae60-6c03f2e0543e","system_id":"levelo_inurba_marseille","lat":43.30907,"lon":5.36852,"is_reserved":false,"is_disabled":false,"rental_uris":{"android":"levelo://app?vid=ef4dd203-fcc5-4759-ae60-6c03f2e0543e","ios":"levelo://app?vid=ef4dd203-fcc5-4759-ae60-6c03f2e0543e"},"vehicle_type_id":"4","last_reported":1729239120,"current_range_meters":38800,"station_id":"ce4bgn92rcd13ifvqbvg","pricing_plan_id":"cebpf4jnsgd1na2vs0mg"},{"bike_id":"0949f6e6-cd5b-4612-99fc-39267320417f","system_id":"levelo_inurba_marseille","lat":43.243869,"lon":5.370599,"is_reserved":false,"is_disabled":false,"rental_uris":{"android":"levelo://app?vid=0949f6e6-cd5b-4612-99fc-39267320417f","ios":"levelo://app?vid=0949f6e6-cd5b-4612-99fc-39267320417f"},"vehicle_type_id":"4","last_reported":1729239120,"current_range_meters":24400,"station_id":"ce4bhhh2rcd13ifvqfk0","pricing_plan_id":"cebpf4jnsgd1na2vs0mg"},{"bike_id":"d4999d5e-6147-4891-a483-935ec145d5bd","system_id":"levelo_inurba_marseille","lat":43.24072,"lon":5.37768,"is_reserved":false,"is_disabled":false,"rental_uris":{"android":"levelo://app?vid=d4999d5e-6147-4891-a483-935ec145d5bd","ios":"levelo://app?vid=d4999d5e-6147-4891-a483-935ec145d5bd"},"vehicle_type_id":"4","last_reported":1729239120,"current_range_meters":34800,"station_id":"ce4bhnp2rcd13ifvqgvg","pricing_plan_id":"cebpf4jnsgd1na2vs0mg"},{"bike_id":"aca7886c-312e-4e20-85fd-b9012410bad6","system_id":"levelo_inurba_marseille","lat":43.30276,"lon":5.37716,"is_reserved":false,"is_disabled":false,"rental_uris":{"android":"levelo://app?vid=aca7886c-312e-4e20-85fd-b9012410bad6","ios":"levelo://app?vid=aca7886c-312e-4e20-85fd-b9012410bad6"},"vehicle_type_id":"4","last_reported":1729239120,"current_range_meters":37600,"station_id":"ce4bguh2rcd13ifvqcj0","pricing_plan_id":"cebpf4jnsgd1na2vs0mg"},{"bike_id":"f2e0eb79-06d2-4284-9540-1e16fe68288c","system_id":"levelo_inurba_marseille","lat":43.27491,"lon":5.42464,"is_reserved":false,"is_disabled":false,"rental_uris":{"android":"levelo://app?vid=f2e0eb79-06d2-4284-9540-1e16fe68288c","ios":"levelo://app?vid=f2e0eb79-06d2-4284-9540-1e16fe68288c"},"vehicle_type_id":"4","last_reported":1729239120,"current_range_meters":33600,"station_id":"ce4bhn92rcd13ifvqgrg","pricing_plan_id":"cebpf4jnsgd1na2vs0mg"},{"bike_id":"cb443c4a-3cc3-4c6a-a2f4-6f386431b5bc","system_id":"levelo_inurba_marseille","lat":43.27491,"lon":5.4246,"is_reserved":false,"is_disabled":false,"rental_uris":{"android":"levelo://app?vid=cb443c4a-3cc3-4c6a-a2f4-6f386431b5bc","ios":"levelo://app?vid=cb443c4a-3cc3-4c6a-a2f4-6f386431b5bc"},"vehicle_type_id":"4","last_reported":1729239120,"current_range_meters":36800,"station_id":"ce4bhn92rcd13ifvqgrg","pricing_plan_id":"cebpf4jnsgd1na2vs0mg"},{"bike_id":"7576d3b4-07d2-4a55-920d-3e058cf1e6b9","system_id":"levelo_inurba_marseille","lat":43.24069,"lon":5.37766,"is_reserved":false,"is_disabled":false,"rental_uris":{"android":"levelo://app?vid=7576d3b4-07d2-4a55-920d-3e058cf1e6b9","ios":"levelo://app?vid=7576d3b4-07d2-4a55-920d-3e058cf1e6b9"},"vehicle_type_id":"4","last_reported":1729239120,"current_range_meters":25600,"station_id":"ce4bhnp2rcd13ifvqgvg","pricing_plan_id":"cebpf4jnsgd1na2vs0mg"},{"bike_id":"374962a9-b4e0-418c-a889-31764ebe9868","system_id":"levelo_inurba_marseille","lat":43.2902,"lon":5.38125,"is_reserved":false,"is_disabled":false,"rental_uris":{"android":"levelo://app?vid=374962a9-b4e0-418c-a889-31764ebe9868","ios":"levelo://app?vid=374962a9-b4e0-418c-a889-31764ebe9868"},"vehicle_type_id":"4","last_reported":1729239120,"current_range_meters":38800,"station_id":"ce4bh4p2rcd13ifvqe1g","pricing_plan_id":"cebpf4jnsgd1na2vs0mg"},{"bike_id":"8f0830cf-ccce-4224-9504-a69e2a910516","system_id":"levelo_inurba_marseille","lat":43.28942,"lon":5.36637,"is_reserved":false,"is_disabled":false,"rental_uris":{"android":"levelo://app?vid=8f0830cf-ccce-4224-9504-a69e2a910516","ios":"levelo://app?vid=8f0830cf-ccce-4224-9504-a69e2a910516"},"vehicle_type_id":"4","last_reported":1729239120,"current_range_meters":23200,"station_id":"ce4bhap2rcd13ifvqek0","pricing_plan_id":"cebpf4jnsgd1na2vs0mg"},{"bike_id":"1be302f9-f11f-474a-bf33-e1b016bb397d","system_id":"levelo_inurba_marseille","lat":43.27487,"lon":5.42461,"is_reserved":false,"is_disabled":false,"rental_uris":{"android":"levelo://app?vid=1be302f9-f11f-474a-bf33-e1b016bb397d","ios":"levelo://app?vid=1be302f9-f11f-474a-bf33-e1b016bb397d"},"vehicle_type_id":"4","last_reported":1729239120,"current_range_meters":9200,"station_id":"ce4bhn92rcd13ifvqgrg","pricing_plan_id":"cebpf4jnsgd1na2vs0mg"},{"bike_id":"ccf1882b-8a69-4226-abf4-dc0b498a470a","system_id":"levelo_inurba_marseille","lat":43.30278,"lon":5.37697,"is_reserved":false,"is_disabled":false,"rental_uris":{"android":"levelo://app?vid=ccf1882b-8a69-4226-abf4-dc0b498a470a","ios":"levelo://app?vid=ccf1882b-8a69-4226-abf4-dc0b498a470a"},"vehicle_type_id":"4","last_reported":1729239120,"current_range_meters":38800,"station_id":"ce4bguh2rcd13ifvqcj0","pricing_plan_id":"cebpf4jnsgd1na2vs0mg"},{"bike_id":"b2a5087f-ee0d-4b32-8a93-92715cb5d8a5","system_id":"levelo_inurba_marseille","lat":43.28611,"lon":5.35099,"is_reserved":false,"is_disabled":false,"rental_uris":{"android":"levelo://app?vid=b2a5087f-ee0d-4b32-8a93-92715cb5d8a5","ios":"levelo://app?vid=b2a5087f-ee0d-4b32-8a93-92715cb5d8a5"},"vehicle_type_id":"4","last_reported":1729239120,"current_range_meters":38000,"station_id":"ce4bhch2rcd13ifvqeug","pricing_plan_id":"cebpf4jnsgd1na2vs0mg"},{"bike_id":"b8d0654d-64b6-449f-b607-a39045e006fd","system_id":"levelo_inurba_marseille","lat":43.2744,"lon":5.39404,"is_reserved":false,"is_disabled":false,"rental_uris":{"android":"levelo://app?vid=b8d0654d-64b6-449f-b607-a39045e006fd","ios":"levelo://app?vid=b8d0654d-64b6-449f-b607-a39045e006fd"},"vehicle_type_id":"4","last_reported":1729239120,"current_range_meters":36800,"station_id":"ce4bhdp2rcd13ifvqf20","pricing_plan_id":"cebpf4jnsgd1na2vs0mg"},{"bike_id":"46d26bce-e297-4b74-a57f-24017e3801de","system_id":"levelo_inurba_marseille","lat":43.2721,"lon":5.39178,"is_reserved":false,"is_disabled":false,"rental_uris":{"android":"levelo://app?vid=46d26bce-e297-4b74-a57f-24017e3801de","ios":"levelo://app?vid=46d26bce-e297-4b74-a57f-24017e3801de"},"vehicle_type_id":"4","last_reported":1729239120,"current_range_meters":25600,"station_id":"ce4bhhp2rcd13ifvqfm0","pricing_plan_id":"cebpf4jnsgd1na2vs0mg"},{"bike_id":"4894e6ed-29b3-4382-b507-576941d29e8b","system_id":"levelo_inurba_marseille","lat":43.30152,"lon":5.38086,"is_reserved":false,"is_disabled":false,"rental_uris":{"android":"levelo://app?vid=4894e6ed-29b3-4382-b507-576941d29e8b","ios":"levelo://app?vid=4894e6ed-29b3-4382-b507-576941d29e8b"},"vehicle_type_id":"4","last_reported":1729239120,"current_range_meters":38800,"station_id":"ce4bgjp2rcd13ifvqbh0","pricing_plan_id":"cebpf4jnsgd1na2vs0mg"},{"bike_id":"d98d0247-2955-49db-a184-b845710cd02a","system_id":"levelo_inurba_marseille","lat":43.25573,"lon":5.38225,"is_reserved":false,"is_disabled":false,"rental_uris":{"android":"levelo://app?vid=d98d0247-2955-49db-a184-b845710cd02a","ios":"levelo://app?vid=d98d0247-2955-49db-a184-b845710cd02a"},"vehicle_type_id":"4","last_reported":1729239120,"current_range_meters":28800,"station_id":"ce4bhih2rcd13ifvqfs0","pricing_plan_id":"cebpf4jnsgd1na2vs0mg"},{"bike_id":"7e46f657-bee2-4c00-9e15-f80849f58d0f","system_id":"levelo_inurba_marseille","lat":43.30081,"lon":5.39062,"is_reserved":false,"is_disabled":false,"rental_uris":{"android":"levelo://app?vid=7e46f657-bee2-4c00-9e15-f80849f58d0f","ios":"levelo://app?vid=7e46f657-bee2-4c00-9e15-f80849f58d0f"},"vehicle_type_id":"4","last_reported":1729239120,"current_range_meters":16000,"station_id":"ce4bh192rcd13ifvqdb0","pricing_plan_id":"cebpf4jnsgd1na2vs0mg"},{"bike_id":"d5c7e43a-c647-4561-8463-bf44e98b22c0","system_id":"levelo_inurba_marseille","lat":43.28718,"lon":5.37941,"is_reserved":false,"is_disabled":false,"rental_uris":{"android":"levelo://app?vid=d5c7e43a-c647-4561-8463-bf44e98b22c0","ios":"levelo://app?vid=d5c7e43a-c647-4561-8463-bf44e98b22c0"},"vehicle_type_id":"4","last_reported":1729239120,"current_range_meters":37600,"station_id":"ce4bh9p2rcd13ifvqec0","pricing_plan_id":"cebpf4jnsgd1na2vs0mg"},{"bike_id":"a0d1f48f-4d8d-4385-8400-04795ef1f250","system_id":"levelo_inurba_marseille","lat":43.26559,"lon":5.37285,"is_reserved":false,"is_disabled":false,"rental_uris":{"android":"levelo://app?vid=a0d1f48f-4d8d-4385-8400-04795ef1f250","ios":"levelo://app?vid=a0d1f48f-4d8d-4385-8400-04795ef1f250"},"vehicle_type_id":"4","last_reported":1729239120,"current_range_meters":38800,"station_id":"ce4bhg12rcd13ifvqf70","pricing_plan_id":"cebpf4jnsgd1na2vs0mg"},{"bike_id":"09ee574a-9282-47f1-a884-5bb7d48c0840","system_id":"levelo_inurba_marseille","lat":43.25004,"lon":5.38918,"is_reserved":false,"is_disabled":false,"rental_uris":{"android":"levelo://app?vid=09ee574a-9282-47f1-a884-5bb7d48c0840","ios":"levelo://app?vid=09ee574a-9282-47f1-a884-5bb7d48c0840"},"vehicle_type_id":"4","last_reported":1729239120,"current_range_meters":30400,"station_id":"ce4bhgp2rcd13ifvqfd0","pricing_plan_id":"cebpf4jnsgd1na2vs0mg"},{"bike_id":"915d8fda-eaef-4a60-9d36-992c88c1e042","system_id":"levelo_inurba_marseille","lat":43.25004,"lon":5.38926,"is_reserved":false,"is_disabled":false,"rental_uris":{"android":"levelo://app?vid=915d8fda-eaef-4a60-9d36-992c88c1e042","ios":"levelo://app?vid=915d8fda-eaef-4a60-9d36-992c88c1e042"},"vehicle_type_id":"4","last_reported":1729239120,"current_range_meters":39200,"station_id":"ce4bhgp2rcd13ifvqfd0","pricing_plan_id":"cebpf4jnsgd1na2vs0mg"},{"bike_id":"a4b88a8f-d604-4f6f-b1a1-e74abc504ac6","system_id":"levelo_inurba_marseille","lat":43.30561,"lon":5.36532,"is_reserved":false,"is_disabled":false,"rental_uris":{"android":"levelo://app?vid=a4b88a8f-d604-4f6f-b1a1-e74abc504ac6","ios":"levelo://app?vid=a4b88a8f-d604-4f6f-b1a1-e74abc504ac6"},"vehicle_type_id":"4","last_reported":1729239120,"current_range_meters":37600,"station_id":"ce4bgs12rcd13ifvqcag","pricing_plan_id":"cebpf4jnsgd1na2vs0mg"},{"bike_id":"a9295dde-ceb4-4ca6-940b-7dd28fc752be","system_id":"levelo_inurba_marseille","lat":43.32482,"lon":5.36558,"is_reserved":false,"is_disabled":false,"rental_uris":{"android":"levelo://app?vid=a9295dde-ceb4-4ca6-940b-7dd28fc752be","ios":"levelo://app?vid=a9295dde-ceb4-4ca6-940b-7dd28fc752be"},"vehicle_type_id":"4","last_reported":1729239120,"current_range_meters":24000,"station_id":"ce4bhs12rcd13ifvqhvg","pricing_plan_id":"cebpf4jnsgd1na2vs0mg"},{"bike_id":"447b10d0-1459-43ee-a69c-38be8401e8ac","system_id":"levelo_inurba_marseille","lat":43.26932,"lon":5.3892,"is_reserved":false,"is_disabled":false,"rental_uris":{"android":"levelo://app?vid=447b10d0-1459-43ee-a69c-38be8401e8ac","ios":"levelo://app?vid=447b10d0-1459-43ee-a69c-38be8401e8ac"},"vehicle_type_id":"4","last_reported":1729239120,"current_range_meters":17600,"station_id":"ce4bhhh2rcd13ifvqfl0","pricing_plan_id":"cebpf4jnsgd1na2vs0mg"},{"bike_id":"292b9425-1372-40d4-bf0a-fe57aa779a41","system_id":"levelo_inurba_marseille","lat":43.23057,"lon":5.35496,"is_reserved":false,"is_disabled":false,"rental_uris":{"android":"levelo://app?vid=292b9425-1372-40d4-bf0a-fe57aa779a41","ios":"levelo://app?vid=292b9425-1372-40d4-bf0a-fe57aa779a41"},"vehicle_type_id":"4","last_reported":1729239120,"current_range_meters":20800,"station_id":"cpo3342slgdg3j2ifvpg","pricing_plan_id":"cebpf4jnsgd1na2vs0mg"},{"bike_id":"2a5a501f-f647-467b-8667-933bcb0b6e1c","system_id":"levelo_inurba_marseille","lat":43.2594,"lon":5.40903,"is_reserved":false,"is_disabled":false,"rental_uris":{"android":"levelo://app?vid=2a5a501f-f647-467b-8667-933bcb0b6e1c","ios":"levelo://app?vid=2a5a501f-f647-467b-8667-933bcb0b6e1c"},"vehicle_type_id":"4","last_reported":1729239120,"current_range_meters":22000,"station_id":"ce4bhm92rcd13ifvqglg","pricing_plan_id":"cebpf4jnsgd1na2vs0mg"},{"bike_id":"3ed38786-470d-411a-80d4-a7d4d45bb2a0","system_id":"levelo_inurba_marseille","lat":43.26556,"lon":5.3729,"is_reserved":false,"is_disabled":false,"rental_uris":{"android":"levelo://app?vid=3ed38786-470d-411a-80d4-a7d4d45bb2a0","ios":"levelo://app?vid=3ed38786-470d-411a-80d4-a7d4d45bb2a0"},"vehicle_type_id":"4","last_reported":1729239120,"current_range_meters":36400,"station_id":"ce4bhg12rcd13ifvqf70","pricing_plan_id":"cebpf4jnsgd1na2vs0mg"},{"bike_id":"72f71ed1-1bd1-4959-a391-f0b3350c5b34","system_id":"levelo_inurba_marseille","lat":43.30526,"lon":5.3672,"is_reserved":false,"is_disabled":false,"rental_uris":{"android":"levelo://app?vid=72f71ed1-1bd1-4959-a391-f0b3350c5b34","ios":"levelo://app?vid=72f71ed1-1bd1-4959-a391-f0b3350c5b34"},"vehicle_type_id":"4","last_reported":1729239120,"current_range_meters":36000,"station_id":"ce4bgrp2rcd13ifvqc9g","pricing_plan_id":"cebpf4jnsgd1na2vs0mg"},{"bike_id":"e69e3973-21fd-4824-b662-528d9856baa7","system_id":"levelo_inurba_marseille","lat":43.29045,"lon":5.359237,"is_reserved":false,"is_disabled":false,"rental_uris":{"android":"levelo://app?vid=e69e3973-21fd-4824-b662-528d9856baa7","ios":"levelo://app?vid=e69e3973-21fd-4824-b662-528d9856baa7"},"vehicle_type_id":"4","last_reported":1729239120,"current_range_meters":38400,"station_id":"ce4bhb12rcd13ifvqem0","pricing_plan_id":"cebpf4jnsgd1na2vs0mg"},{"bike_id":"6a0c3d48-aa3b-4c9a-b420-ffd4b9f8b717","system_id":"levelo_inurba_marseille","lat":43.27493,"lon":5.42456,"is_reserved":false,"is_disabled":false,"rental_uris":{"android":"levelo://app?vid=6a0c3d48-aa3b-4c9a-b420-ffd4b9f8b717","ios":"levelo://app?vid=6a0c3d48-aa3b-4c9a-b420-ffd4b9f8b717"},"vehicle_type_id":"4","last_reported":1729239120,"current_range_meters":30800,"station_id":"ce4bhn92rcd13ifvqgrg","pricing_plan_id":"cebpf4jnsgd1na2vs0mg"},{"bike_id":"38706bf9-3b79-442f-9546-e032d556aede","system_id":"levelo_inurba_marseille","lat":43.31491,"lon":5.37286,"is_reserved":false,"is_disabled":false,"rental_uris":{"android":"levelo://app?vid=38706bf9-3b79-442f-9546-e032d556aede","ios":"levelo://app?vid=38706bf9-3b79-442f-9546-e032d556aede"},"vehicle_type_id":"4","last_reported":1729239120,"current_range_meters":38800,"station_id":"ce4bgt12rcd13ifvqcd0","pricing_plan_id":"cebpf4jnsgd1na2vs0mg"},{"bike_id":"b930c546-2181-4082-b616-72daa0962436","system_id":"levelo_inurba_marseille","lat":43.23153,"lon":5.43706,"is_reserved":false,"is_disabled":false,"rental_uris":{"android":"levelo://app?vid=b930c546-2181-4082-b616-72daa0962436","ios":"levelo://app?vid=b930c546-2181-4082-b616-72daa0962436"},"vehicle_type_id":"4","last_reported":1729239120,"current_range_meters":6800,"station_id":"ce4bhmp2rcd13ifvqgog","pricing_plan_id":"cebpf4jnsgd1na2vs0mg"},{"bike_id":"c245b7ae-41c8-4093-bb89-0702e6edf091","system_id":"levelo_inurba_marseille","lat":43.24074,"lon":5.37754,"is_reserved":false,"is_disabled":false,"rental_uris":{"android":"levelo://app?vid=c245b7ae-41c8-4093-bb89-0702e6edf091","ios":"levelo://app?vid=c245b7ae-41c8-4093-bb89-0702e6edf091"},"vehicle_type_id":"4","last_reported":1729239120,"current_range_meters":38400,"station_id":"ce4bhnp2rcd13ifvqgvg","pricing_plan_id":"cebpf4jnsgd1na2vs0mg"},{"bike_id":"6a9af080-7528-4731-ab3a-4d7241ad8c66","system_id":"levelo_inurba_marseille","lat":43.29615,"lon":5.37716,"is_reserved":false,"is_disabled":false,"rental_uris":{"android":"levelo://app?vid=6a9af080-7528-4731-ab3a-4d7241ad8c66","ios":"levelo://app?vid=6a9af080-7528-4731-ab3a-4d7241ad8c66"},"vehicle_type_id":"4","last_reported":1729239120,"current_range_meters":9200,"station_id":"ce4bgi92rcd13ifvqb90","pricing_plan_id":"cebpf4jnsgd1na2vs0mg"},{"bike_id":"25fb4af7-3723-43d3-ae45-244f6abd285e","system_id":"levelo_inurba_marseille","lat":43.30153,"lon":5.38079,"is_reserved":false,"is_disabled":false,"rental_uris":{"android":"levelo://app?vid=25fb4af7-3723-43d3-ae45-244f6abd285e","ios":"levelo://app?vid=25fb4af7-3723-43d3-ae45-244f6abd285e"},"vehicle_type_id":"4","last_reported":1729239120,"current_range_meters":34800,"station_id":"ce4bgjp2rcd13ifvqbh0","pricing_plan_id":"cebpf4jnsgd1na2vs0mg"},{"bike_id":"c55708b3-319e-4537-81dd-d1d8798081d6","system_id":"levelo_inurba_marseille","lat":43.27494,"lon":5.42454,"is_reserved":false,"is_disabled":false,"rental_uris":{"android":"levelo://app?vid=c55708b3-319e-4537-81dd-d1d8798081d6","ios":"levelo://app?vid=c55708b3-319e-4537-81dd-d1d8798081d6"},"vehicle_type_id":"4","last_reported":1729239120,"current_range_meters":28000,"station_id":"ce4bhn92rcd13ifvqgrg","pricing_plan_id":"cebpf4jnsgd1na2vs0mg"},{"bike_id":"913ebbab-7fea-43af-a0d1-a41807f6a491","system_id":"levelo_inurba_marseille","lat":43.29912,"lon":5.37478,"is_reserved":false,"is_disabled":false,"rental_uris":{"android":"levelo://app?vid=913ebbab-7fea-43af-a0d1-a41807f6a491","ios":"levelo://app?vid=913ebbab-7fea-43af-a0d1-a41807f6a491"},"vehicle_type_id":"4","last_reported":1729239120,"current_range_meters":26000,"station_id":"ce4bgjh2rcd13ifvqbg0","pricing_plan_id":"cebpf4jnsgd1na2vs0mg"},{"bike_id":"0a3c574b-02a8-435c-ae46-4df1079e2785","system_id":"levelo_inurba_marseille","lat":43.27495,"lon":5.42448,"is_reserved":false,"is_disabled":false,"rental_uris":{"android":"levelo://app?vid=0a3c574b-02a8-435c-ae46-4df1079e2785","ios":"levelo://app?vid=0a3c574b-02a8-435c-ae46-4df1079e2785"},"vehicle_type_id":"4","last_reported":1729239120,"current_range_meters":33200,"station_id":"ce4bhn92rcd13ifvqgrg","pricing_plan_id":"cebpf4jnsgd1na2vs0mg"},{"bike_id":"e3ca7803-aaa7-4ddf-8937-86afb5d1cee8","system_id":"levelo_inurba_marseille","lat":43.31717,"lon":5.43708,"is_reserved":false,"is_disabled":false,"rental_uris":{"android":"levelo://app?vid=e3ca7803-aaa7-4ddf-8937-86afb5d1cee8","ios":"levelo://app?vid=e3ca7803-aaa7-4ddf-8937-86afb5d1cee8"},"vehicle_type_id":"4","last_reported":1729239120,"current_range_meters":27200,"station_id":"ce4bhp92rcd13ifvqhcg","pricing_plan_id":"cebpf4jnsgd1na2vs0mg"},{"bike_id":"c3d341cb-b075-4a76-8ce6-a19c6a141e8c","system_id":"levelo_inurba_marseille","lat":43.23153,"lon":5.4372,"is_reserved":false,"is_disabled":false,"rental_uris":{"android":"levelo://app?vid=c3d341cb-b075-4a76-8ce6-a19c6a141e8c","ios":"levelo://app?vid=c3d341cb-b075-4a76-8ce6-a19c6a141e8c"},"vehicle_type_id":"4","last_reported":1729239120,"current_range_meters":3200,"station_id":"ce4bhmp2rcd13ifvqgog","pricing_plan_id":"cebpf4jnsgd1na2vs0mg"},{"bike_id":"32990499-0c08-4402-91eb-e548501ed33c","system_id":"levelo_inurba_marseille","lat":43.28484,"lon":5.38562,"is_reserved":false,"is_disabled":false,"rental_uris":{"android":"levelo://app?vid=32990499-0c08-4402-91eb-e548501ed33c","ios":"levelo://app?vid=32990499-0c08-4402-91eb-e548501ed33c"},"vehicle_type_id":"4","last_reported":1729239120,"current_range_meters":33600,"station_id":"ce4bh8p2rcd13ifvqeb0","pricing_plan_id":"cebpf4jnsgd1na2vs0mg"},{"bike_id":"080c0694-e4e8-4bf5-ba7b-0db6d92c2b33","system_id":"levelo_inurba_marseille","lat":43.287262,"lon":5.360907,"is_reserved":false,"is_disabled":false,"rental_uris":{"android":"levelo://app?vid=080c0694-e4e8-4bf5-ba7b-0db6d92c2b33","ios":"levelo://app?vid=080c0694-e4e8-4bf5-ba7b-0db6d92c2b33"},"vehicle_type_id":"4","last_reported":1729239120,"current_range_meters":19200,"station_id":"cki0cbj6b192h4jlfktg","pricing_plan_id":"cebpf4jnsgd1na2vs0mg"},{"bike_id":"3664398f-378f-46f2-bd12-30042ad8db9d","system_id":"levelo_inurba_marseille","lat":43.231859,"lon":5.399791,"is_reserved":false,"is_disabled":false,"rental_uris":{"android":"levelo://app?vid=3664398f-378f-46f2-bd12-30042ad8db9d","ios":"levelo://app?vid=3664398f-378f-46f2-bd12-30042ad8db9d"},"vehicle_type_id":"4","last_reported":1729239120,"current_range_meters":30400,"station_id":"ce4bhn12rcd13ifvqgqg","pricing_plan_id":"cebpf4jnsgd1na2vs0mg"},{"bike_id":"b149e82b-afb3-4de8-adff-774d74fb2117","system_id":"levelo_inurba_marseille","lat":43.27069,"lon":5.4227,"is_reserved":false,"is_disabled":false,"rental_uris":{"android":"levelo://app?vid=b149e82b-afb3-4de8-adff-774d74fb2117","ios":"levelo://app?vid=b149e82b-afb3-4de8-adff-774d74fb2117"},"vehicle_type_id":"4","last_reported":1729239120,"current_range_meters":26000,"station_id":"ce4bhk92rcd13ifvqgb0","pricing_plan_id":"cebpf4jnsgd1na2vs0mg"},{"bike_id":"3c0b4095-688f-4a0f-88cc-dfe9db2b3c79","system_id":"levelo_inurba_marseille","lat":43.29848,"lon":5.36276,"is_reserved":false,"is_disabled":false,"rental_uris":{"android":"levelo://app?vid=3c0b4095-688f-4a0f-88cc-dfe9db2b3c79","ios":"levelo://app?vid=3c0b4095-688f-4a0f-88cc-dfe9db2b3c79"},"vehicle_type_id":"4","last_reported":1729239120,"current_range_meters":30000,"station_id":"ce4bgpp2rcd13ifvqc3g","pricing_plan_id":"cebpf4jnsgd1na2vs0mg"},{"bike_id":"a9d80141-cb04-4f88-bcc5-9763572e3517","system_id":"levelo_inurba_marseille","lat":43.23194,"lon":5.35546,"is_reserved":false,"is_disabled":false,"rental_uris":{"android":"levelo://app?vid=a9d80141-cb04-4f88-bcc5-9763572e3517","ios":"levelo://app?vid=a9d80141-cb04-4f88-bcc5-9763572e3517"},"vehicle_type_id":"4","last_reported":1729239120,"current_range_meters":28800,"station_id":"ce4bhu92rcd13ifvqi70","pricing_plan_id":"cebpf4jnsgd1na2vs0mg"},{"bike_id":"ac72b0b4-e4b8-42f9-bd0a-1bf1a2727d12","system_id":"levelo_inurba_marseille","lat":43.30535,"lon":5.36549,"is_reserved":false,"is_disabled":false,"rental_uris":{"android":"levelo://app?vid=ac72b0b4-e4b8-42f9-bd0a-1bf1a2727d12","ios":"levelo://app?vid=ac72b0b4-e4b8-42f9-bd0a-1bf1a2727d12"},"vehicle_type_id":"4","last_reported":1729239120,"current_range_meters":16400,"station_id":"ce4bgs12rcd13ifvqcag","pricing_plan_id":"cebpf4jnsgd1na2vs0mg"},{"bike_id":"cb19c9ef-045c-44f9-a7f7-62972fd1873f","system_id":"levelo_inurba_marseille","lat":43.3056,"lon":5.36547,"is_reserved":false,"is_disabled":false,"rental_uris":{"android":"levelo://app?vid=cb19c9ef-045c-44f9-a7f7-62972fd1873f","ios":"levelo://app?vid=cb19c9ef-045c-44f9-a7f7-62972fd1873f"},"vehicle_type_id":"4","last_reported":1729239120,"current_range_meters":6800,"station_id":"ce4bgs12rcd13ifvqcag","pricing_plan_id":"cebpf4jnsgd1na2vs0mg"},{"bike_id":"3ab31a18-af13-40ac-ae62-308000937349","system_id":"levelo_inurba_marseille","lat":43.25495,"lon":5.37638,"is_reserved":false,"is_disabled":false,"rental_uris":{"android":"levelo://app?vid=3ab31a18-af13-40ac-ae62-308000937349","ios":"levelo://app?vid=3ab31a18-af13-40ac-ae62-308000937349"},"vehicle_type_id":"4","last_reported":1729239120,"current_range_meters":33200,"station_id":"ce4bhh12rcd13ifvqff0","pricing_plan_id":"cebpf4jnsgd1na2vs0mg"},{"bike_id":"af52aa78-d0b5-4bff-b51e-229383967bb3","system_id":"levelo_inurba_marseille","lat":43.23155,"lon":5.43723,"is_reserved":false,"is_disabled":false,"rental_uris":{"android":"levelo://app?vid=af52aa78-d0b5-4bff-b51e-229383967bb3","ios":"levelo://app?vid=af52aa78-d0b5-4bff-b51e-229383967bb3"},"vehicle_type_id":"4","last_reported":1729239120,"current_range_meters":21600,"station_id":"ce4bhmp2rcd13ifvqgog","pricing_plan_id":"cebpf4jnsgd1na2vs0mg"},{"bike_id":"778e7354-c56d-4be0-a8ab-89b969d5863e","system_id":"levelo_inurba_marseille","lat":43.27071,"lon":5.42278,"is_reserved":false,"is_disabled":false,"rental_uris":{"android":"levelo://app?vid=778e7354-c56d-4be0-a8ab-89b969d5863e","ios":"levelo://app?vid=778e7354-c56d-4be0-a8ab-89b969d5863e"},"vehicle_type_id":"4","last_reported":1729239120,"current_range_meters":25200,"station_id":"ce4bhk92rcd13ifvqgb0","pricing_plan_id":"cebpf4jnsgd1na2vs0mg"},{"bike_id":"fd495570-0604-40fb-9f36-3e2dfe8010cf","system_id":"levelo_inurba_marseille","lat":43.24077,"lon":5.37736,"is_reserved":false,"is_disabled":false,"rental_uris":{"android":"levelo://app?vid=fd495570-0604-40fb-9f36-3e2dfe8010cf","ios":"levelo://app?vid=fd495570-0604-40fb-9f36-3e2dfe8010cf"},"vehicle_type_id":"4","last_reported":1729239120,"current_range_meters":29600,"station_id":"ce4bhh12rcd13ifvqff0","pricing_plan_id":"cebpf4jnsgd1na2vs0mg"},{"bike_id":"0776cba6-f971-4a41-bf07-9cbdc519ba6a","system_id":"levelo_inurba_marseille","lat":43.29272,"lon":5.36849,"is_reserved":false,"is_disabled":false,"rental_uris":{"android":"levelo://app?vid=0776cba6-f971-4a41-bf07-9cbdc519ba6a","ios":"levelo://app?vid=0776cba6-f971-4a41-bf07-9cbdc519ba6a"},"vehicle_type_id":"4","last_reported":1729239120,"current_range_meters":28400,"station_id":"ce4bhbp2rcd13ifvqesg","pricing_plan_id":"cebpf4jnsgd1na2vs0mg"},{"bike_id":"c9bf4f2f-c395-4348-a61a-af22ef7e335a","system_id":"levelo_inurba_marseille","lat":43.28617,"lon":5.351,"is_reserved":false,"is_disabled":false,"rental_uris":{"android":"levelo://app?vid=c9bf4f2f-c395-4348-a61a-af22ef7e335a","ios":"levelo://app?vid=c9bf4f2f-c395-4348-a61a-af22ef7e335a"},"vehicle_type_id":"4","last_reported":1729239120,"current_range_meters":20800,"station_id":"ce4bhch2rcd13ifvqeug","pricing_plan_id":"cebpf4jnsgd1na2vs0mg"},