{"last_updated":1743361606,"ttl":60,"version":"2.2","data":{"bikes":[{"bike_id":"cbdaceed-62d0-4c81-b243-75a0c7875df6","system_id":"levelo_inurba_marseille","lat":43.28446,"lon":5.39199,"is_reserved":false,"is_disabled":false,"rental_uris":{"android":"levelo://app?vid=cbdaceed-62d0-4c81-b243-75a0c7875df6","ios":"levelo://app?vid=cbdaceed-62d0-4c81-b243-75a0c7875df6"},"vehicle_type_id":"4","last_reported":1743361606,"current_range_meters":2800,"station_id":"ce4bhoh2rcd13ifvqh5g","pricing_plan_id":"cebpf4jnsgd1na2vs0mg"},{"bike_id":"da67622a-27e1-448c-b953-9ad71ef5c803","system_id":"levelo_inurba_marseille","lat":43.2784,"lon":5.39207,"is_reserved":false,"is_disabled":false,"rental_uris":{"android":"levelo://app?vid=da67622a-27e1-448c-b953-9ad71ef5c803","ios":"levelo://app?vid=da67622a-27e1-448c-b953-9ad71ef5c803"},"vehicle_type_id":"4","last_reported":1743361606,"current_range_meters":2800,"station_id":"ce4bhjp2rcd13ifvqga0","pricing_plan_id":"cebpf4jnsgd1na2vs0mg"},{"bike_id":"b8512288-cc7b-4f9e-8209-80ea3f4b0a8b","system_id":"levelo_inurba_marseille","lat":43.25498,"lon":5.37656,"is_reserved":false,"is_disabled":false,"rental_uris":{"android":"levelo://app?vid=b8512288-cc7b-4f9e-8209-80ea3f4b0a8b","ios":"levelo://app?vid=b8512288-cc7b-4f9e-8209-80ea3f4b0a8b"},"vehicle_type_id":"4","last_reported":1743361606,"current_range_meters":2800,"station_id":"ce4bhh12rcd13ifvqff0","pricing_plan_id":"cebpf4jnsgd1na2vs0mg"},{"bike_id":"05e69a64-42e7-4f91-a842-9172416edeb8","system_id":"levelo_inurba_marseille","lat":43.24381,"lon":5.37091,"is_reserved":false,"is_disabled":false,"rental_uris":{"android":"levelo://app?vid=05e69a64-42e7-4f91-a842-9172416edeb8","ios":"levelo://app?vid=05e69a64-42e7-4f91-a842-9172416edeb8"},"vehicle_type_id":"4","last_reported":1743361606,"current_range_meters":3200,"station_id":"ce4bhhh2rcd13ifvqfk0","pricing_plan_id":"cebpf4jnsgd1na2vs0mg"},{"bike_id":"8d6abdef-27aa-4d1b-9448-656a6296f19d","system_id":"levelo_inurba_marseille","lat":43.24187,"lon":5.39729,"is_reserved":false,"is_disabled":false,"rental_uris":{"android":"levelo://app?vid=8d6abdef-27aa-4d1b-9448-656a6296f19d","ios":"levelo://app?vid=8d6abdef-27aa-4d1b-9448-656a6296f19d"},"vehicle_type_id":"4","last_reported":1743361606,"current_range_meters":3200,"station_id":"ce4bhn12rcd13ifvqgpg","pricing_plan_id":"cebpf4jnsgd1na2vs0mg"},{"bike_id":"5fa76be9-4f44-42b2-9369-ca86f6bbce5c","system_id":"levelo_inurba_marseille","lat":43.26552,"lon":5.37299,"is_reserved":false,"is_disabled":true,"rental_uris":{"android":"levelo://app?vid=5fa76be9-4f44-42b2-9369-ca86f6bbce5c","ios":"levelo://app?vid=5fa76be9-4f44-42b2-9369-ca86f6bbce5c"},"vehicle_type_id":"4","last_reported":1743361606,"current_range_meters":3600,"station_id":"ce4bhg12rcd13ifvqf70","pricing_plan_id":"cebpf4jnsgd1na2vs0mg"},{"bike_id":"3b2bc297-6859-4e93-af5e-f733b43e42b1","system_id":"levelo_inurba_marseille","lat":43.29725,"lon":5.37074,"is_reserved":false,"is_disabled":false,"rental_uris":{"android":"levelo://app?vid=3b2bc297-6859-4e93-af5e-f733b43e42b1","ios":"levelo://app?vid=3b2bc297-6859-4e93-af5e-f733b43e42b1"},"vehicle_type_id":"4","last_reported":1743361606,"current_range_meters":3600,"station_id":"","pricing_plan_id":"cebpf4jnsgd1na2vs0mg"},{"bike_id":"0c19576b-6eb2-4d87-b481-5d76066ef5b2","system_id":"levelo_inurba_marseille","lat":43.31168,"lon":5.38724,"is_reserved":false,"is_disabled":false,"rental_uris":{"android":"levelo://app?vid=0c19576b-6eb2-4d87-b481-5d76066ef5b2","ios":"levelo://app?vid=0c19576b-6eb2-4d87-b481-5d76066ef5b2"},"vehicle_type_id":"4","last_reported":1743361606,"current_range_meters":3600,"station_id":"ce4bgv12rcd13ifvqcp0","pricing_plan_id":"cebpf4jnsgd1na2vs0mg"},{"bike_id":"f9b412d0-7f8f-4e66-9ea9-d30e1e48ec57","system_id":"levelo_inurba_marseille","lat":43.292663,"lon":5.384464,"is_reserved":false,"is_disabled":false,"rental_uris":{"android":"levelo://app?vid=f9b412d0-7f8f-4e66-9ea9-d30e1e48ec57","ios":"levelo://app?vid=f9b412d0-7f8f-4e66-9ea9-d30e1e48ec57"},"vehicle_type_id":"4","last_reported":1743361606,"current_range_meters":3600,"station_id":"ce4bh692rcd13ifvqea0","pricing_plan_id":"cebpf4jnsgd1na2vs0mg"},{"bike_id":"8f50e8aa-3fe1-4c8b-a7f0-a7c2784cef4f","system_id":"levelo_inurba_marseille","lat":43.2731,"lon":5.39119,"is_reserved":false,"is_disabled":true,"rental_uris":{"android":"levelo://app?vid=8f50e8aa-3fe1-4c8b-a7f0-a7c2784cef4f","ios":"levelo://app?vid=8f50e8aa-3fe1-4c8b-a7f0-a7c2784cef4f"},"vehicle_type_id":"4","last_reported":1743361606,"current_range_meters":3600,"station_id":"ce4bhgp2rcd13ifvqfe0","pricing_plan_id":"cebpf4jnsgd1na2vs0mg"},{"bike_id":"990dc6f2-3111-4eef-8d59-7dd5decfb237","system_id":"levelo_inurba_marseille","lat":43.28393,"lon":5.37521,"is_reserved":false,"is_disabled":false,"rental_uris":{"android":"levelo://app?vid=990dc6f2-3111-4eef-8d59-7dd5decfb237","ios":"levelo://app?vid=990dc6f2-3111-4eef-8d59-7dd5decfb237"},"vehicle_type_id":"4","last_reported":1743361606,"current_range_meters":3600,"station_id":"ce4bh412rcd13ifvqds0","pricing_plan_id":"cebpf4jnsgd1na2vs0mg"},{"bike_id":"6de0767c-3a2f-4fe7-90fb-93f6c05972bd","system_id":"levelo_inurba_marseille","lat":43.30881,"lon":5.37194,"is_reserved":false,"is_disabled":false,"rental_uris":{"android":"levelo://app?vid=6de0767c-3a2f-4fe7-90fb-93f6c05972bd","ios":"levelo://app?vid=6de0767c-3a2f-4fe7-90fb-93f6c05972bd"},"vehicle_type_id":"4","last_reported":1743361606,"current_range_meters":3600,"station_id":"ce4bguh2rcd13ifvqckg","pricing_plan_id":"cebpf4jnsgd1na2vs0mg"},{"bike_id":"f52714cd-3e53-422a-b952-08318a96fd53","system_id":"levelo_inurba_marseille","lat":43.29325,"lon":5.40228,"is_reserved":false,"is_disabled":false,"rental_uris":{"android":"levelo://app?vid=f52714cd-3e53-422a-b952-08318a96fd53","ios":"levelo://app?vid=f52714cd-3e53-422a-b952-08318a96fd53"},"vehicle_type_id":"4","last_reported":1743361606,"current_range_meters":4000,"station_id":"ce4bh312rcd13ifvqdk0","pricing_plan_id":"cebpf4jnsgd1na2vs0mg"},{"bike_id":"b8174974-fc69-40f8-a4f6-2ebf728bdc87","system_id":"levelo_inurba_marseille","lat":43.33006,"lon":5.3906,"is_reserved":false,"is_disabled":false,"rental_uris":{"android":"levelo://app?vid=b8174974-fc69-40f8-a4f6-2ebf728bdc87","ios":"levelo://app?vid=b8174974-fc69-40f8-a4f6-2ebf728bdc87"},"vehicle_type_id":"4","last_reported":1743361606,"current_range_meters":4000,"station_id":"ce4bhr92rcd13ifvqhrg","pricing_plan_id":"cebpf4jnsgd1na2vs0mg"},{"bike_id":"844bfd13-1928-4e3d-8bd0-8afb4702b56e","system_id":"levelo_inurba_marseille","lat":43.28448,"lon":5.39202,"is_reserved":false,"is_disabled":false,"rental_uris":{"android":"levelo://app?vid=844bfd13-1928-4e3d-8bd0-8afb4702b56e","ios":"levelo://app?vid=844bfd13-1928-4e3d-8bd0-8afb4702b56e"},"vehicle_type_id":"4","last_reported":1743361606,"current_range_meters":4000,"station_id":"ce4bhoh2rcd13ifvqh5g","pricing_plan_id":"cebpf4jnsgd1na2vs0mg"},{"bike_id":"6e0a2e0e-c26e-414b-8a66-3b4c2276c7bb","system_id":"levelo_inurba_marseille","lat":43.25116,"lon":5.403141,"is_reserved":false,"is_disabled":false,"rental_uris":{"android":"levelo://app?vid=6e0a2e0e-c26e-414b-8a66-3b4c2276c7bb","ios":"levelo://app?vid=6e0a2e0e-c26e-414b-8a66-3b4c2276c7bb"},"vehicle_type_id":"4","last_reported":1743361606,"current_range_meters":4000,"station_id":"ce4bhlh2rcd13ifvqgig","pricing_plan_id":"cebpf4jnsgd1na2vs0mg"},{"bike_id":"b5ace6c6-32e3-486d-9744-efb1ce0dfa9d","system_id":"levelo_inurba_marseille","lat":43.2892,"lon":5.36648,"is_reserved":false,"is_disabled":true,"rental_uris":{"android":"levelo://app?vid=b5ace6c6-32e3-486d-9744-efb1ce0dfa9d","ios":"levelo://app?vid=b5ace6c6-32e3-486d-9744-efb1ce0dfa9d"},"vehicle_type_id":"4","last_reported":1743361606,"current_range_meters":4000,"station_id":"ce4bhap2rcd13ifvqek0","pricing_plan_id":"cebpf4jnsgd1na2vs0mg"},{"bike_id":"a3e54627-ebf1-4f9e-8617-9cfc55600679","system_id":"levelo_inurba_marseille","lat":43.30796,"lon":5.38166,"is_reserved":false,"is_disabled":false,"rental_uris":{"android":"levelo://app?vid=a3e54627-ebf1-4f9e-8617-9cfc55600679","ios":"levelo://app?vid=a3e54627-ebf1-4f9e-8617-9cfc55600679"},"vehicle_type_id":"4","last_reported":1743361606,"current_range_meters":4000,"station_id":"ce4bgt12rcd13ifvqce0","pricing_plan_id":"cebpf4jnsgd1na2vs0mg"},{"bike_id":"36eb1fa1-b5ee-4acc-bb9a-5bef5d64ef31","system_id":"levelo_inurba_marseille","lat":43.28939,"lon":5.39633,"is_reserved":false,"is_disabled":false,"rental_uris":{"android":"levelo://app?vid=36eb1fa1-b5ee-4acc-bb9a-5bef5d64ef31","ios":"levelo://app?vid=36eb1fa1-b5ee-4acc-bb9a-5bef5d64ef31"},"vehicle_type_id":"4","last_reported":1743361606,"current_range_meters":4000,"station_id":"ce4bh3h2rcd13ifvqdn0","pricing_plan_id":"cebpf4jnsgd1na2vs0mg"},{"bike_id":"e0743fb3-3f95-41cc-baee-399e42fa0d56","system_id":"levelo_inurba_marseille","lat":43.25686,"lon":5.411,"is_reserved":false,"is_disabled":false,"rental_uris":{"android":"levelo://app?vid=e0743fb3-3f95-41cc-baee-399e42fa0d56","ios":"levelo://app?vid=e0743fb3-3f95-41cc-baee-399e42fa0d56"},"vehicle_type_id":"4","last_reported":1743361606,"current_range_meters":4400,"station_id":"ce4bhkp2rcd13ifvqgd0","pricing_plan_id":"cebpf4jnsgd1na2vs0mg"},{"bike_id":"e8712ed5-d1f3-4b2e-a215-765c8b4781fc","system_id":"levelo_inurba_marseille","lat":43.24997,"lon":5.3893,"is_reserved":false,"is_disabled":false,"rental_uris":{"android":"levelo://app?vid=e8712ed5-d1f3-4b2e-a215-765c8b4781fc","ios":"levelo://app?vid=e8712ed5-d1f3-4b2e-a215-765c8b4781fc"},"vehicle_type_id":"4","last_reported":1743361606,"current_range_meters":4000,"station_id":"ce4bhgp2rcd13ifvqfd0","pricing_plan_id":"cebpf4jnsgd1na2vs0mg"},{"bike_id":"5fc83974-2ed1-47b1-902a-9ca92a7b1fb1","system_id":"levelo_inurba_marseille","lat":43.26065,"lon":5.39387,"is_reserved":false,"is_disabled":false,"rental_uris":{"android":"levelo://app?vid=5fc83974-2ed1-47b1-902a-9ca92a7b1fb1","ios":"levelo://app?vid=5fc83974-2ed1-47b1-902a-9ca92a7b1fb1"},"vehicle_type_id":"4","last_reported":1743361606,"current_range_meters":4400,"station_id":"ce4bhh92rcd13ifvqfj0","pricing_plan_id":"cebpf4jnsgd1na2vs0mg"},{"bike_id":"3a8ade47-3edd-4eda-8ddf-66bcb0bff51d","system_id":"levelo_inurba_marseille","lat":43.24659,"lon":5.38171,"is_reserved":false,"is_disabled":false,"rental_uris":{"android":"levelo://app?vid=3a8ade47-3edd-4eda-8ddf-66bcb0bff51d","ios":"levelo://app?vid=3a8ade47-3edd-4eda-8ddf-66bcb0bff51d"},"vehicle_type_id":"4","last_reported":1743361606,"current_range_meters":4400,"station_id":"ce4bhih2rcd13ifvqfr0","pricing_plan_id":"cebpf4jnsgd1na2vs0mg"},{"bike_id":"80507833-57fc-4199-a0f8-32eca269665b","system_id":"levelo_inurba_marseille","lat":43.24166,"lon":5.36415,"is_reserved":false,"is_disabled":false,"rental_uris":{"android":"levelo://app?vid=80507833-57fc-4199-a0f8-32eca269665b","ios":"levelo://app?vid=80507833-57fc-4199-a0f8-32eca269665b"},"vehicle_type_id":"4","last_reported":1743361606,"current_range_meters":4400,"station_id":"cpo36qri1sfpv3e86is0","pricing_plan_id":"cebpf4jnsgd1na2vs0mg"},{"bike_id":"f8264607-52b3-48b6-8c3f-b88e2159927a","system_id":"levelo_inurba_marseille","lat":43.31888,"lon":5.40747,"is_reserved":false,"is_disabled":false,"rental_uris":{"android":"levelo://app?vid=f8264607-52b3-48b6-8c3f-b88e2159927a","ios":"levelo://app?vid=f8264607-52b3-48b6-8c3f-b88e2159927a"},"vehicle_type_id":"4","last_reported":1743361606,"current_range_meters":4400,"station_id":"ce4bhq12rcd13ifvqhig","pricing_plan_id":"cebpf4jnsgd1na2vs0mg"},{"bike_id":"03518428-5eaf-4b81-a2c4-f0a49b902b91","system_id":"levelo_inurba_marseille","lat":43.26807,"lon":5.40257,"is_reserved":false,"is_disabled":false,"rental_uris":{"android":"levelo://app?vid=03518428-5eaf-4b81-a2c4-f0a49b902b91","ios":"levelo://app?vid=03518428-5eaf-4b81-a2c4-f0a49b902b91"},"vehicle_type_id":"4","last_reported":1743361606,"current_range_meters":4400,"station_id":"ce501612rcd8frsf0b60","pricing_plan_id":"cebpf4jnsgd1na2vs0mg"},{"bike_id":"5c0a1fd8-e8d8-46b0-b59b-e1254855ec6a","system_id":"levelo_inurba_marseille","lat":43.3031,"lon":5.40406,"is_reserved":false,"is_disabled":false,"rental_uris":{"android":"levelo://app?vid=5c0a1fd8-e8d8-46b0-b59b-e1254855ec6a","ios":"levelo://app?vid=5c0a1fd8-e8d8-46b0-b59b-e1254855ec6a"},"vehicle_type_id":"4","last_reported":1743361606,"current_range_meters":4400,"station_id":"ce4bh012rcd13ifvqd10","pricing_plan_id":"cebpf4jnsgd1na2vs0mg"},{"bike_id":"cf1ae943-4f83-4af8-82dd-db8a61d381a6","system_id":"levelo_inurba_marseille","lat":43.30323,"lon":5.36937,"is_reserved":false,"is_disabled":false,"rental_uris":{"android":"levelo://app?vid=cf1ae943-4f83-4af8-82dd-db8a61d381a6","ios":"levelo://app?vid=cf1ae943-4f83-4af8-82dd-db8a61d381a6"},"vehicle_type_id":"4","last_reported":1743361606,"current_range_meters":4400,"station_id":"ce4bgqh2rcd13ifvqc5g","pricing_plan_id":"cebpf4jnsgd1na2vs0mg"},{"bike_id":"6c1df1ff-7cfb-4b68-a6da-cad94a58cd87","system_id":"levelo_inurba_marseille","lat":43.28338,"lon":5.38111,"is_reserved":false,"is_disabled":false,"rental_uris":{"android":"levelo://app?vid=6c1df1ff-7cfb-4b68-a6da-cad94a58cd87","ios":"levelo://app?vid=6c1df1ff-7cfb-4b68-a6da-cad94a58cd87"},"vehicle_type_id":"4","last_reported":1743361606,"current_range_meters":4400,"station_id":"ce4bh412rcd13ifvqdr0","pricing_plan_id":"cebpf4jnsgd1na2vs0mg"},{"bike_id":"d3186328-b859-4fa4-896b-d49f49d87b1c","system_id":"levelo_inurba_marseille","lat":43.30783,"lon":5.37639,"is_reserved":false,"is_disabled":false,"rental_uris":{"android":"levelo://app?vid=d3186328-b859-4fa4-896b-d49f49d87b1c","ios":"levelo://app?vid=d3186328-b859-4fa4-896b-d49f49d87b1c"},"vehicle_type_id":"4","last_reported":1743361606,"current_range_meters":4400,"station_id":"ce4bgv92rcd13ifvqcq0","pricing_plan_id":"cebpf4jnsgd1na2vs0mg"},{"bike_id":"d0b12979-a027-442f-97b2-e2e696d0b330","system_id":"levelo_inurba_marseille","lat":43.23195,"lon":5.35559,"is_reserved":false,"is_disabled":false,"rental_uris":{"android":"levelo://app?vid=d0b12979-a027-442f-97b2-e2e696d0b330","ios":"levelo://app?vid=d0b12979-a027-442f-97b2-e2e696d0b330"},"vehicle_type_id":"4","last_reported":1743361606,"current_range_meters":4800,"station_id":"ce4bhu92rcd13ifvqi70","pricing_plan_id":"cebpf4jnsgd1na2vs0mg"},{"bike_id":"c6c307e6-fe13-464d-9a3b-38a60eff079a","system_id":"levelo_inurba_marseille","lat":43.27687,"lon":5.38931,"is_reserved":false,"is_disabled":false,"rental_uris":{"android":"levelo://app?vid=c6c307e6-fe13-464d-9a3b-38a60eff079a","ios":"levelo://app?vid=c6c307e6-fe13-464d-9a3b-38a60eff079a"},"vehicle_type_id":"4","last_reported":1743361606,"current_range_meters":4800,"station_id":"ce4bhi12rcd13ifvqfo0","pricing_plan_id":"cebpf4jnsgd1na2vs0mg"},{"bike_id":"712d5ede-33be-42f9-8c96-605bf078fa59","system_id":"levelo_inurba_marseille","lat":43.24173,"lon":5.36398,"is_reserved":false,"is_disabled":false,"rental_uris":{"android":"levelo://app?vid=712d5ede-33be-42f9-8c96-605bf078fa59","ios":"levelo://app?vid=712d5ede-33be-42f9-8c96-605bf078fa59"},"vehicle_type_id":"4","last_reported":1743361606,"current_range_meters":4800,"station_id":"cpo36qri1sfpv3e86is0","pricing_plan_id":"cebpf4jnsgd1na2vs0mg"},{"bike_id":"603d50f9-1fa9-441c-a467-8f0460aecc04","system_id":"levelo_inurba_marseille","lat":43.29042,"lon":5.38619,"is_reserved":false,"is_disabled":false,"rental_uris":{"android":"levelo://app?vid=603d50f9-1fa9-441c-a467-8f0460aecc04","ios":"levelo://app?vid=603d50f9-1fa9-441c-a467-8f0460aecc04"},"vehicle_type_id":"4","last_reported":1743361606,"current_range_meters":4800,"station_id":"ce4bh4p2rcd13ifvqe0g","pricing_plan_id":"cebpf4jnsgd1na2vs0mg"},{"bike_id":"90e43240-5fbb-4984-89b9-4fe361656612","system_id":"levelo_inurba_marseille","lat":43.28697,"lon":5.37399,"is_reserved":false,"is_disabled":false,"rental_uris":{"android":"levelo://app?vid=90e43240-5fbb-4984-89b9-4fe361656612","ios":"levelo://app?vid=90e43240-5fbb-4984-89b9-4fe361656612"},"vehicle_type_id":"4","last_reported":1743361606,"current_range_meters":4800,"station_id":"ce4bh3p2rcd13ifvqdq0","pricing_plan_id":"cebpf4jnsgd1na2vs0mg"},{"bike_id":"576d3503-6d58-4872-8019-482297b6427d","system_id":"levelo_inurba_marseille","lat":43.314944,"lon":5.372845,"is_reserved":false,"is_disabled":false,"rental_uris":{"android":"levelo://app?vid=576d3503-6d58-4872-8019-482297b6427d","ios":"levelo://app?vid=576d3503-6d58-4872-8019-482297b6427d"},"vehicle_type_id":"4","last_reported":1743361606,"current_range_meters":4800,"station_id":"ce4bgt12rcd13ifvqcd0","pricing_plan_id":"cebpf4jnsgd1na2vs0mg"},{"bike_id":"10670463-c085-4966-8cbb-603d9168a650","system_id":"levelo_inurba_marseille","lat":43.292725,"lon":5.3684,"is_reserved":false,"is_disabled":false,"rental_uris":{"android":"levelo://app?vid=10670463-c085-4966-8cbb-603d9168a650","ios":"levelo://app?vid=10670463-c085-4966-8cbb-603d9168a650"},"vehicle_type_id":"4","last_reported":1743361606,"current_range_meters":5600,"station_id":"ce4bhbp2rcd13ifvqesg","pricing_plan_id":"cebpf4jnsgd1na2vs0mg"},{"bike_id":"77f8a8e8-958a-4fa6-82a7-5d8b24b716e8","system_id":"levelo_inurba_marseille","lat":43.25524,"lon":5.37705,"is_reserved":false,"is_disabled":false,"rental_uris":{"android":"levelo://app?vid=77f8a8e8-958a-4fa6-82a7-5d8b24b716e8","ios":"levelo://app?vid=77f8a8e8-958a-4fa6-82a7-5d8b24b716e8"},"vehicle_type_id":"4","last_reported":1743361606,"current_range_meters":5600,"station_id":"ce4bhh12rcd13ifvqff0","pricing_plan_id":"cebpf4jnsgd1na2vs0mg"},{"bike_id":"085a361f-7074-488c-ad0a-3b0a850a01fb","system_id":"levelo_inurba_marseille","lat":43.27385,"lon":5.36254,"is_reserved":false,"is_disabled":true,"rental_uris":{"android":"levelo://app?vid=085a361f-7074-488c-ad0a-3b0a850a01fb","ios":"levelo://app?vid=085a361f-7074-488c-ad0a-3b0a850a01fb"},"vehicle_type_id":"4","last_reported":1743361606,"current_range_meters":5600,"station_id":"ce4bhbh2rcd13ifvqeo0","pricing_plan_id":"cebpf4jnsgd1na2vs0mg"},{"bike_id":"deed0a22-4007-43ca-914b-52aafb76e3d5","system_id":"levelo_inurba_marseille","lat":43.25124,"lon":5.40312,"is_reserved":false,"is_disabled":false,"rental_uris":{"android":"levelo://app?vid=deed0a22-4007-43ca-914b-52aafb76e3d5","ios":"levelo://app?vid=deed0a22-4007-43ca-914b-52aafb76e3d5"},"vehicle_type_id":"4","last_reported":1743361606,"current_range_meters":4800,"station_id":"ce4bhlh2rcd13ifvqgig","pricing_plan_id":"cebpf4jnsgd1na2vs0mg"},{"bike_id":"93f6422a-1f09-4f9f-9167-bc1b0b63c053","system_id":"levelo_inurba_marseille","lat":43.30209,"lon":5.39475,"is_reserved":false,"is_disabled":false,"rental_uris":{"android":"levelo://app?vid=93f6422a-1f09-4f9f-9167-bc1b0b63c053","ios":"levelo://app?vid=93f6422a-1f09-4f9f-9167-bc1b0b63c053"},"vehicle_type_id":"4","last_reported":1743361606,"current_range_meters":6000,"station_id":"ce4bh0p2rcd13ifvqd70","pricing_plan_id":"cebpf4jnsgd1na2vs0mg"},{"bike_id":"360d9955-ff3f-47af-ab0b-5ac80505515c","system_id":"levelo_inurba_marseille","lat":43.24705,"lon":5.38178,"is_reserved":false,"is_disabled":false,"rental_uris":{"android":"levelo://app?vid=360d9955-ff3f-47af-ab0b-5ac80505515c","ios":"levelo://app?vid=360d9955-ff3f-47af-ab0b-5ac80505515c"},"vehicle_type_id":"4","last_reported":1743361606,"current_range_meters":6000,"station_id":"ce4bhih2rcd13ifvqfr0","pricing_plan_id":"cebpf4jnsgd1na2vs0mg"},{"bike_id":"e4023b76-3b3e-4e0a-83d8-f1f2c86a9a1a","system_id":"levelo_inurba_marseille","lat":43.25081,"lon":5.39511,"is_reserved":false,"is_disabled":false,"rental_uris":{"android":"levelo://app?vid=e4023b76-3b3e-4e0a-83d8-f1f2c86a9a1a","ios":"levelo://app?vid=e4023b76-3b3e-4e0a-83d8-f1f2c86a9a1a"},"vehicle_type_id":"4","last_reported":1743361606,"current_range_meters":6000,"station_id":"ce4bhm12rcd13ifvqgkg","pricing_plan_id":"cebpf4jnsgd1na2vs0mg"},{"bike_id":"2bc8dce5-62c1-4694-a3bd-12a7ded64a98","system_id":"levelo_inurba_marseille","lat":43.28449,"lon":5.39214,"is_reserved":false,"is_disabled":false,"rental_uris":{"android":"levelo://app?vid=2bc8dce5-62c1-4694-a3bd-12a7ded64a98","ios":"levelo://app?vid=2bc8dce5-62c1-4694-a3bd-12a7ded64a98"},"vehicle_type_id":"4","last_reported":1743361606,"current_range_meters":5600,"station_id":"ce4bhoh2rcd13ifvqh5g","pricing_plan_id":"cebpf4jnsgd1na2vs0mg"},{"bike_id":"81c1d4dc-3709-4fee-ad55-c378421a54cd","system_id":"levelo_inurba_marseille","lat":43.27953,"lon":5.41062,"is_reserved":false,"is_disabled":false,"rental_uris":{"android":"levelo://app?vid=81c1d4dc-3709-4fee-ad55-c378421a54cd","ios":"levelo://app?vid=81c1d4dc-3709-4fee-ad55-c378421a54cd"},"vehicle_type_id":"4","last_reported":1743361606,"current_range_meters":6000,"station_id":"","pricing_plan_id":"cebpf4jnsgd1na2vs0mg"},{"bike_id":"e0f87887-bbac-4396-92a7-794638fba6b7","system_id":"levelo_inurba_marseille","lat":43.29543,"lon":5.39407,"is_reserved":false,"is_disabled":false,"rental_uris":{"android":"levelo://app?vid=e0f87887-bbac-4396-92a7-794638fba6b7","ios":"levelo://app?vid=e0f87887-bbac-4396-92a7-794638fba6b7"},"vehicle_type_id":"4","last_reported":1743361606,"current_range_meters":6000,"station_id":"ce4bh292rcd13ifvqdf0","pricing_plan_id":"cebpf4jnsgd1na2vs0mg"},{"bike_id":"4409d3ca-723c-4d1d-8240-ab8335fe11d2","system_id":"levelo_inurba_marseille","lat":43.28933,"lon":5.3839,"is_reserved":false,"is_disabled":false,"rental_uris":{"android":"levelo://app?vid=4409d3ca-723c-4d1d-8240-ab8335fe11d2","ios":"levelo://app?vid=4409d3ca-723c-4d1d-8240-ab8335fe11d2"},"vehicle_type_id":"4","last_reported":1743361606,"current_range_meters":5600,"station_id":"ce4bh612rcd13ifvqe6g","pricing_plan_id":"cebpf4jnsgd1na2vs0mg"},{"bike_id":"52bf090c-5f96-4e60-aae0-43c281159446","system_id":"levelo_inurba_marseille","lat":43.2952,"lon":5.39033,"is_reserved":false,"is_disabled":false,"rental_uris":{"android":"levelo://app?vid=52bf090c-5f96-4e60-aae0-43c281159446","ios":"levelo://app?vid=52bf090c-5f96-4e60-aae0-43c281159446"},"vehicle_type_id":"4","last_reported":1743361606,"current_range_meters":6000,"station_id":"ce4bh3p2rcd13ifvqdp0","pricing_plan_id":"cebpf4jnsgd1na2vs0mg"},{"bike_id":"5bd5c189-afd0-44ae-b91a-4b596405f990","system_id":"levelo_inurba_marseille","lat":43.30161,"lon":5.37435,"is_reserved":false,"is_disabled":false,"rental_uris":{"android":"levelo://app?vid=5bd5c189-afd0-44ae-b91a-4b596405f990","ios":"levelo://app?vid=5bd5c189-afd0-44ae-b91a-4b596405f990"},"vehicle_type_id":"4","last_reported":1743361606,"current_range_meters":6000,"station_id":"ce4bgs92rcd13ifvqcc0","pricing_plan_id":"cebpf4jnsgd1na2vs0mg"},{"bike_id":"f4642974-8738-4f81-88fa-96188f606103","system_id":"levelo_inurba_marseille","lat":43.29553,"lon":5.42277,"is_reserved":false,"is_disabled":false,"rental_uris":{"android":"levelo://app?vid=f4642974-8738-4f81-88fa-96188f606103","ios":"levelo://app?vid=f4642974-8738-4f81-88fa-96188f606103"},"vehicle_type_id":"4","last_reported":1743361606,"current_range_meters":6000,"station_id":"ce4bhph2rcd13ifvqhdg","pricing_plan_id":"cebpf4jnsgd1na2vs0mg"},{"bike_id":"bf7fbe64-89fa-4028-9a18-1edcf561fda4","system_id":"levelo_inurba_marseille","lat":43.27681,"lon":5.38912,"is_reserved":false,"is_disabled":false,"rental_uris":{"android":"levelo://app?vid=bf7fbe64-89fa-4028-9a18-1edcf561fda4","ios":"levelo://app?vid=bf7fbe64-89fa-4028-9a18-1edcf561fda4"},"vehicle_type_id":"4","last_reported":1743361606,"current_range_meters":6400,"station_id":"ce4bhi12rcd13ifvqfo0","pricing_plan_id":"cebpf4jnsgd1na2vs0mg"},{"bike_id":"350219bd-8a8a-4a9b-8b41-d8eccbde4dee","system_id":"levelo_inurba_marseille","lat":43.31869,"lon":5.3903,"is_reserved":false,"is_disabled":false,"rental_uris":{"android":"levelo://app?vid=350219bd-8a8a-4a9b-8b41-d8eccbde4dee","ios":"levelo://app?vid=350219bd-8a8a-4a9b-8b41-d8eccbde4dee"},"vehicle_type_id":"4","last_reported":1743361606,"current_range_meters":6400,"station_id":"","pricing_plan_id":"cebpf4jnsgd1na2vs0mg"},{"bike_id":"770137a2-dd25-46a9-b1d8-48e4de059576","system_id":"levelo_inurba_marseille","lat":43.3014,"lon":5.38775,"is_reserved":false,"is_disabled":false,"rental_uris":{"android":"levelo://app?vid=770137a2-dd25-46a9-b1d8-48e4de059576","ios":"levelo://app?vid=770137a2-dd25-46a9-b1d8-48e4de059576"},"vehicle_type_id":"4","last_reported":1743361606,"current_range_meters":6400,"station_id":"ce4bghh2rcd13ifvqb60","pricing_plan_id":"cebpf4jnsgd1na2vs0mg"},{"bike_id":"6e6e08a7-7858-426e-a808-790a84760ceb","system_id":"levelo_inurba_marseille","lat":43.309,"lon":5.37192,"is_reserved":false,"is_disabled":false,"rental_uris":{"android":"levelo://app?vid=6e6e08a7-7858-426e-a808-790a84760ceb","ios":"levelo://app?vid=6e6e08a7-7858-426e-a808-790a84760ceb"},"vehicle_type_id":"4","last_reported":1743361606,"current_range_meters":6400,"station_id":"ce4bguh2rcd13ifvqckg","pricing_plan_id":"cebpf4jnsgd1na2vs0mg"},{"bike_id":"4ac85f9e-5b07-4e93-b0ae-477825bffb27","system_id":"levelo_inurba_marseille","lat":43.232004,"lon":5.355649,"is_reserved":false,"is_disabled":false,"rental_uris":{"android":"levelo://app?vid=4ac85f9e-5b07-4e93-b0ae-477825bffb27","ios":"levelo://app?vid=4ac85f9e-5b07-4e93-b0ae-477825bffb27"},"vehicle_type_id":"4","last_reported":1743361606,"current_range_meters":6400,"station_id":"ce4bhu92rcd13ifvqi70","pricing_plan_id":"cebpf4jnsgd1na2vs0mg"},{"bike_id":"f91fffa8-443b-4c6f-8c84-a08a21bda1ce","system_id":"levelo_inurba_marseille","lat":43.30428,"lon":5.38901,"is_reserved":false,"is_disabled":false,"rental_uris":{"android":"levelo://app?vid=f91fffa8-443b-4c6f-8c84-a08a21bda1ce","ios":"levelo://app?vid=f91fffa8-443b-4c6f-8c84-a08a21bda1ce"},"vehicle_type_id":"4","last_reported":1743361606,"current_range_meters":6400,"station_id":"ce4bgk12rcd13ifvqbi0","pricing_plan_id":"cebpf4jnsgd1na2vs0mg"},{"bike_id":"2c9578af-b0d9-47f5-ad7f-24de6a285c12","system_id":"levelo_inurba_marseille","lat":43.29128,"lon":5.38154,"is_reserved":false,"is_disabled":false,"rental_uris":{"android":"levelo://app?vid=2c9578af-b0d9-47f5-ad7f-24de6a285c12","ios":"levelo://app?vid=2c9578af-b0d9-47f5-ad7f-24de6a285c12"},"vehicle_type_id":"4","last_reported":1743361606,"current_range_meters":6400,"station_id":"ce4bh512rcd13ifvqe2g","pricing_plan_id":"cebpf4jnsgd1na2vs0mg"},{"bike_id":"5a3307a6-54ca-44bc-a5fd-ab80751e6464","system_id":"levelo_inurba_marseille","lat":43.23198,"lon":5.40006,"is_reserved":false,"is_disabled":true,"rental_uris":{"android":"levelo://app?vid=5a3307a6-54ca-44bc-a5fd-ab80751e6464","ios":"levelo://app?vid=5a3307a6-54ca-44bc-a5fd-ab80751e6464"},"vehicle_type_id":"4","last_reported":1743361606,"current_range_meters":6400,"station_id":"ce4bhn12rcd13ifvqgqg","pricing_plan_id":"cebpf4jnsgd1na2vs0mg"},{"bike_id":"f4514236-06e3-48aa-92bb-49d186118376","system_id":"levelo_inurba_marseille","lat":43.24178,"lon":5.36398,"is_reserved":false,"is_disabled":false,"rental_uris":{"android":"levelo://app?vid=f4514236-06e3-48aa-92bb-49d186118376","ios":"levelo://app?vid=f4514236-06e3-48aa-92bb-49d186118376"},"vehicle_type_id":"4","last_reported":1743361606,"current_range_meters":6400,"station_id":"cpo36qri1sfpv3e86is0","pricing_plan_id":"cebpf4jnsgd1na2vs0mg"},{"bike_id":"e4149fc5-95ba-424f-a6b0-c55ca5f5da06","system_id":"levelo_inurba_marseille","lat":43.291953,"lon":5.393274,"is_reserved":false,"is_disabled":false,"rental_uris":{"android":"levelo://app?vid=e4149fc5-95ba-424f-a6b0-c55ca5f5da06","ios":"levelo://app?vid=e4149fc5-95ba-424f-a6b0-c55ca5f5da06"},"vehicle_type_id":"4","last_reported":1743361606,"current_range_meters":6800,"station_id":"ce4bh192rcd13ifvqdd0","pricing_plan_id":"cebpf4jnsgd1na2vs0mg"},{"bike_id":"3e624531-382d-4263-9aa1-fdaba369ce0e","system_id":"levelo_inurba_marseille","lat":43.301653,"lon":5.391034,"is_reserved":false,"is_disabled":false,"rental_uris":{"android":"levelo://app?vid=3e624531-382d-4263-9aa1-fdaba369ce0e","ios":"levelo://app?vid=3e624531-382d-4263-9aa1-fdaba369ce0e"},"vehicle_type_id":"4","last_reported":1743361606,"current_range_meters":6800,"station_id":"","pricing_plan_id":"cebpf4jnsgd1na2vs0mg"},{"bike_id":"3996b016-0995-485e-96ff-9a516beb74ff","system_id":"levelo_inurba_marseille","lat":43.2738,"lon":5.36262,"is_reserved":false,"is_disabled":false,"rental_uris":{"android":"levelo://app?vid=3996b016-0995-485e-96ff-9a516beb74ff","ios":"levelo://app?vid=3996b016-0995-485e-96ff-9a516beb74ff"},"vehicle_type_id":"4","last_reported":1743361606,"current_range_meters":6800,"station_id":"ce4bhbh2rcd13ifvqeo0","pricing_plan_id":"cebpf4jnsgd1na2vs0mg"},{"bike_id":"c983c1cd-4f2c-46da-83ea-488f3c3407f6","system_id":"levelo_inurba_marseille","lat":43.302844,"lon":5.378014,"is_reserved":false,"is_disabled":false,"rental_uris":{"android":"levelo://app?vid=c983c1cd-4f2c-46da-83ea-488f3c3407f6","ios":"levelo://app?vid=c983c1cd-4f2c-46da-83ea-488f3c3407f6"},"vehicle_type_id":"4","last_reported":1743361606,"current_range_meters":6400,"station_id":"ce4bhop2rcd13ifvqh7g","pricing_plan_id":"cebpf4jnsgd1na2vs0mg"},{"bike_id":"5d3ea924-0159-4f24-837a-9778817f9e7a","system_id":"levelo_inurba_marseille","lat":43.308014,"lon":5.381458,"is_reserved":false,"is_disabled":false,"rental_uris":{"android":"levelo://app?vid=5d3ea924-0159-4f24-837a-9778817f9e7a","ios":"levelo://app?vid=5d3ea924-0159-4f24-837a-9778817f9e7a"},"vehicle_type_id":"4","last_reported":1743361606,"current_range_meters":6800,"station_id":"ce4bgv12rcd13ifvqcp0","pricing_plan_id":"cebpf4jnsgd1na2vs0mg"},{"bike_id":"08c63757-71d5-4eb0-878c-08a54d456499","system_id":"levelo_inurba_marseille","lat":43.29531,"lon":5.39404,"is_reserved":false,"is_disabled":false,"rental_uris":{"android":"levelo://app?vid=08c63757-71d5-4eb0-878c-08a54d456499","ios":"levelo://app?vid=08c63757-71d5-4eb0-878c-08a54d456499"},"vehicle_type_id":"4","last_reported":1743361606,"current_range_meters":6800,"station_id":"ce4bh292rcd13ifvqdf0","pricing_plan_id":"cebpf4jnsgd1na2vs0mg"},{"bike_id":"dde6e02b-7a48-4d77-8cc9-4c723a7b66cb","system_id":"levelo_inurba_marseille","lat":43.30656,"lon":5.40105,"is_reserved":false,"is_disabled":false,"rental_uris":{"android":"levelo://app?vid=dde6e02b-7a48-4d77-8cc9-4c723a7b66cb","ios":"levelo://app?vid=dde6e02b-7a48-4d77-8cc9-4c723a7b66cb"},"vehicle_type_id":"4","last_reported":1743361606,"current_range_meters":6800,"station_id":"ce4bh112rcd13ifvqda0","pricing_plan_id":"cebpf4jnsgd1na2vs0mg"},{"bike_id":"1883c27e-144c-41ce-ab4f-aa27cd372bb9","system_id":"levelo_inurba_marseille","lat":43.27983,"lon":5.36905,"is_reserved":false,"is_disabled":false,"rental_uris":{"android":"levelo://app?vid=1883c27e-144c-41ce-ab4f-aa27cd372bb9","ios":"levelo://app?vid=1883c27e-144c-41ce-ab4f-aa27cd372bb9"},"vehicle_type_id":"4","last_reported":1743361606,"current_range_meters":6800,"station_id":"ce4bha12rcd13ifvqef0","pricing_plan_id":"cebpf4jnsgd1na2vs0mg"},{"bike_id":"c9edf588-1954-4638-8041-6305733c6b2e","system_id":"levelo_inurba_marseille","lat":43.29553,"lon":5.38558,"is_reserved":false,"is_disabled":false,"rental_uris":{"android":"levelo://app?vid=c9edf588-1954-4638-8041-6305733c6b2e","ios":"levelo://app?vid=c9edf588-1954-4638-8041-6305733c6b2e"},"vehicle_type_id":"4","last_reported":1743361606,"current_range_meters":6800,"station_id":"ce4bgih2rcd13ifvqba0","pricing_plan_id":"cebpf4jnsgd1na2vs0mg"},{"bike_id":"861fba4a-9c12-463c-8a39-b4a694ea5d40","system_id":"levelo_inurba_marseille","lat":43.23961,"lon":5.36642,"is_reserved":false,"is_disabled":true,"rental_uris":{"android":"levelo://app?vid=861fba4a-9c12-463c-8a39-b4a694ea5d40","ios":"levelo://app?vid=861fba4a-9c12-463c-8a39-b4a694ea5d40"},"vehicle_type_id":"4","last_reported":1743361606,"current_range_meters":6800,"station_id":"ce4bhi12rcd13ifvqfp0","pricing_plan_id":"cebpf4jnsgd1na2vs0mg"},{"bike_id":"4f912059-6bc0-4f2e-b2d1-122727b61b1a","system_id":"levelo_inurba_marseille","lat":43.24552,"lon":5.39528,"is_reserved":false,"is_disabled":false,"rental_uris":{"android":"levelo://app?vid=4f912059-6bc0-4f2e-b2d1-122727b61b1a","ios":"levelo://app?vid=4f912059-6bc0-4f2e-b2d1-122727b61b1a"},"vehicle_type_id":"4","last_reported":1743361606,"current_range_meters":6800,"station_id":"ce4bhlp2rcd13ifvqgjg","pricing_plan_id":"cebpf4jnsgd1na2vs0mg"},{"bike_id":"cc97450a-c9b6-4687-b289-2fd79360e99e","system_id":"levelo_inurba_marseille","lat":43.30459,"lon":5.37901,"is_reserved":false,"is_disabled":false,"rental_uris":{"android":"levelo://app?vid=cc97450a-c9b6-4687-b289-2fd79360e99e","ios":"levelo://app?vid=cc97450a-c9b6-4687-b289-2fd79360e99e"},"vehicle_type_id":"4","last_reported":1743361606,"current_range_meters":6800,"station_id":"ce4bgup2rcd13ifvqcn0","pricing_plan_id":"cebpf4jnsgd1na2vs0mg"},{"bike_id":"ff42e4c0-315a-4bac-a419-7cdb49242ed9","system_id":"levelo_inurba_marseille","lat":43.30278,"lon":5.40069,"is_reserved":false,"is_disabled":false,"rental_uris":{"android":"levelo://app?vid=ff42e4c0-315a-4bac-a419-7cdb49242ed9","ios":"levelo://app?vid=ff42e4c0-315a-4bac-a419-7cdb49242ed9"},"vehicle_type_id":"4","last_reported":1743361606,"current_range_meters":6800,"station_id":"ce4bgvh2rcd13ifvqcs0","pricing_plan_id":"cebpf4jnsgd1na2vs0mg"},{"bike_id":"e6b237ea-6a2c-4ba7-8b42-e284823c64e6","system_id":"levelo_inurba_marseille","lat":43.29857,"lon":5.36282,"is_reserved":false,"is_disabled":true,"rental_uris":{"android":"levelo://app?vid=e6b237ea-6a2c-4ba7-8b42-e284823c64e6","ios":"levelo://app?vid=e6b237ea-6a2c-4ba7-8b42-e284823c64e6"},"vehicle_type_id":"4","last_reported":1743361606,"current_range_meters":6800,"station_id":"ce4bgpp2rcd13ifvqc3g","pricing_plan_id":"cebpf4jnsgd1na2vs0mg"},{"bike_id":"a1b5a514-f0ef-42eb-b1a4-22dd30a86324","system_id":"levelo_inurba_marseille","lat":43.31767,"lon":5.39019,"is_reserved":false,"is_disabled":false,"rental_uris":{"android":"levelo://app?vid=a1b5a514-f0ef-42eb-b1a4-22dd30a86324","ios":"levelo://app?vid=a1b5a514-f0ef-42eb-b1a4-22dd30a86324"},"vehicle_type_id":"4","last_reported":1743361606,"current_range_meters":6800,"station_id":"ce4bhqp2rcd13ifvqhng","pricing_plan_id":"cebpf4jnsgd1na2vs0mg"},{"bike_id":"1ee3ce0e-dd2d-47f9-9e65-0b791d57c83d","system_id":"levelo_inurba_marseille","lat":43.24167,"lon":5.363884,"is_reserved":false,"is_disabled":false,"rental_uris":{"android":"levelo://app?vid=1ee3ce0e-dd2d-47f9-9e65-0b791d57c83d","ios":"levelo://app?vid=1ee3ce0e-dd2d-47f9-9e65-0b791d57c83d"},"vehicle_type_id":"4","last_reported":1743361606,"current_range_meters":7200,"station_id":"cpo36qri1sfpv3e86is0","pricing_plan_id":"cebpf4jnsgd1na2vs0mg"},{"bike_id":"ce58557f-4231-4eaa-9be6-002bfe588f76","system_id":"levelo_inurba_marseille","lat":43.30299,"lon":5.39214,"is_reserved":false,"is_disabled":false,"rental_uris":{"android":"levelo://app?vid=ce58557f-4231-4eaa-9be6-002bfe588f76","ios":"levelo://app?vid=ce58557f-4231-4eaa-9be6-002bfe588f76"},"vehicle_type_id":"4","last_reported":1743361606,"current_range_meters":7200,"station_id":"ce4bgkh2rcd13ifvqbk0","pricing_plan_id":"cebpf4jnsgd1na2vs0mg"},{"bike_id":"42bc7b23-0e2f-4d72-b583-40bcdabb28c7","system_id":"levelo_inurba_marseille","lat":43.29543,"lon":5.3738,"is_reserved":false,"is_disabled":false,"rental_uris":{"android":"levelo://app?vid=42bc7b23-0e2f-4d72-b583-40bcdabb28c7","ios":"levelo://app?vid=42bc7b23-0e2f-4d72-b583-40bcdabb28c7"},"vehicle_type_id":"4","last_reported":1743361606,"current_range_meters":7200,"station_id":"","pricing_plan_id":"cebpf4jnsgd1na2vs0mg"},{"bike_id":"b2e6e5f9-815c-46ac-bebd-de4e22a8e049","system_id":"levelo_inurba_marseille","lat":43.33198,"lon":5.39705,"is_reserved":false,"is_disabled":false,"rental_uris":{"android":"levelo://app?vid=b2e6e5f9-815c-46ac-bebd-de4e22a8e049","ios":"levelo://app?vid=b2e6e5f9-815c-46ac-bebd-de4e22a8e049"},"vehicle_type_id":"4","last_reported":1743361606,"current_range_meters":7200,"station_id":"","pricing_plan_id":"cebpf4jnsgd1na2vs0mg"},{"bike_id":"4243a2b0-ae2b-4413-86a0-dc166b8594bc","system_id":"levelo_inurba_marseille","lat":43.24627,"lon":5.38153,"is_reserved":false,"is_disabled":false,"rental_uris":{"android":"levelo://app?vid=4243a2b0-ae2b-4413-86a0-dc166b8594bc","ios":"levelo://app?vid=4243a2b0-ae2b-4413-86a0-dc166b8594bc"},"vehicle_type_id":"4","last_reported":1743361606,"current_range_meters":7200,"station_id":"ce4bhih2rcd13ifvqfr0","pricing_plan_id":"cebpf4jnsgd1na2vs0mg"},{"bike_id":"96ac20e8-5840-4579-b371-184ec6253952","system_id":"levelo_inurba_marseille","lat":43.27535,"lon":5.41157,"is_reserved":false,"is_disabled":false,"rental_uris":{"android":"levelo://app?vid=96ac20e8-5840-4579-b371-184ec6253952","ios":"levelo://app?vid=96ac20e8-5840-4579-b371-184ec6253952"},"vehicle_type_id":"4","last_reported":1743361606,"current_range_meters":7200,"station_id":"","pricing_plan_id":"cebpf4jnsgd1na2vs0mg"},{"bike_id":"747d2bc2-6706-42d9-8381-8fcc8fac62bd","system_id":"levelo_inurba_marseille","lat":43.29055,"lon":5.37177,"is_reserved":false,"is_disabled":true,"rental_uris":{"android":"levelo://app?vid=747d2bc2-6706-42d9-8381-8fcc8fac62bd","ios":"levelo://app?vid=747d2bc2-6706-42d9-8381-8fcc8fac62bd"},"vehicle_type_id":"4","last_reported":1743361606,"current_range_meters":7200,"station_id":"ce4bh5p2rcd13ifvqe4g","pricing_plan_id":"cebpf4jnsgd1na2vs0mg"},{"bike_id":"99864047-3ac3-45c4-a913-53ee9cea7446","system_id":"levelo_inurba_marseille","lat":43.287,"lon":5.374,"is_reserved":false,"is_disabled":true,"rental_uris":{"android":"levelo://app?vid=99864047-3ac3-45c4-a913-53ee9cea7446","ios":"levelo://app?vid=99864047-3ac3-45c4-a913-53ee9cea7446"},"vehicle_type_id":"4","last_reported":1743361606,"current_range_meters":7200,"station_id":"ce4bh3p2rcd13ifvqdq0","pricing_plan_id":"cebpf4jnsgd1na2vs0mg"},{"bike_id":"37f41d5f-3983-4db2-8781-c345307ed7b9","system_id":"levelo_inurba_marseille","lat":43.27508,"lon":5.42456,"is_reserved":false,"is_disabled":false,"rental_uris":{"android":"levelo://app?vid=37f41d5f-3983-4db2-8781-c345307ed7b9","ios":"levelo://app?vid=37f41d5f-3983-4db2-8781-c345307ed7b9"},"vehicle_type_id":"4","last_reported":1743361606,"current_range_meters":7200,"station_id":"ce4bhn92rcd13ifvqgrg","pricing_plan_id":"cebpf4jnsgd1na2vs0mg"},{"bike_id":"e9015308-624d-43a8-9638-802774fe9b85","system_id":"levelo_inurba_marseille","lat":43.29527,"lon":5.3855,"is_reserved":false,"is_disabled":false,"rental_uris":{"android":"levelo://app?vid=e9015308-624d-43a8-9638-802774fe9b85","ios":"levelo://app?vid=e9015308-624d-43a8-9638-802774fe9b85"},"vehicle_type_id":"4","last_reported":1743361606,"current_range_meters":7200,"station_id":"ce4bgih2rcd13ifvqba0","pricing_plan_id":"cebpf4jnsgd1na2vs0mg"},{"bike_id":"c160f136-9cd7-4eb8-ae97-eb78a2220415","system_id":"levelo_inurba_marseille","lat":43.27672,"lon":5.38942,"is_reserved":false,"is_disabled":false,"rental_uris":{"android":"levelo://app?vid=c160f136-9cd7-4eb8-ae97-eb78a2220415","ios":"levelo://app?vid=c160f136-9cd7-4eb8-ae97-eb78a2220415"},"vehicle_type_id":"4","last_reported":1743361606,"current_range_meters":7200,"station_id":"ce4bhi12rcd13ifvqfo0","pricing_plan_id":"cebpf4jnsgd1na2vs0mg"},{"bike_id":"f247edf8-4742-4130-aaed-c423703f6865","system_id":"levelo_inurba_marseille","lat":43.2894,"lon":5.36641,"is_reserved":false,"is_disabled":false,"rental_uris":{"android":"levelo://app?vid=f247edf8-4742-4130-aaed-c423703f6865","ios":"levelo://app?vid=f247edf8-4742-4130-aaed-c423703f6865"},"vehicle_type_id":"4","last_reported":1743361606,"current_range_meters":7200,"station_id":"ce4bhap2rcd13ifvqek0","pricing_plan_id":"cebpf4jnsgd1na2vs0mg"},{"bike_id":"cb4b32bc-c106-4e09-93ff-937ed6fe8e4b","system_id":"levelo_inurba_marseille","lat":43.29219,"lon":5.39335,"is_reserved":false,"is_disabled":false,"rental_uris":{"android":"levelo://app?vid=cb4b32bc-c106-4e09-93ff-937ed6fe8e4b","ios":"levelo://app?vid=cb4b32bc-c106-4e09-93ff-937ed6fe8e4b"},"vehicle_type_id":"4","last_reported":1743361606,"current_range_meters":7200,"station_id":"ce4bh192rcd13ifvqdd0","pricing_plan_id":"cebpf4jnsgd1na2vs0mg"},{"bike_id":"ea0f0861-9d06-4d26-8986-d926f68481ed","system_id":"levelo_inurba_marseille","lat":43.27924,"lon":5.39584,"is_reserved":false,"is_disabled":false,"rental_uris":{"android":"levelo://app?vid=ea0f0861-9d06-4d26-8986-d926f68481ed","ios":"levelo://app?vid=ea0f0861-9d06-4d26-8986-d926f68481ed"},"vehicle_type_id":"4","last_reported":1743361606,"current_range_meters":8000,"station_id":"ce4bhf92rcd13ifvqf40","pricing_plan_id":"cebpf4jnsgd1na2vs0mg"},{"bike_id":"c0bfecbc-96be-4cde-8bdd-07fcf1658ea7","system_id":"levelo_inurba_marseille","lat":43.24665,"lon":5.38164,"is_reserved":false,"is_disabled":false,"rental_uris":{"android":"levelo://app?vid=c0bfecbc-96be-4cde-8bdd-07fcf1658ea7","ios":"levelo://app?vid=c0bfecbc-96be-4cde-8bdd-07fcf1658ea7"},"vehicle_type_id":"4","last_reported":1743361606,"current_range_meters":8000,"station_id":"ce4bhih2rcd13ifvqfr0","pricing_plan_id":"cebpf4jnsgd1na2vs0mg"},{"bike_id":"25bb5fbc-8229-4010-b703-31f5ee6ac141","system_id":"levelo_inurba_marseille","lat":43.30644,"lon":5.36548,"is_reserved":false,"is_disabled":false,"rental_uris":{"android":"levelo://app?vid=25bb5fbc-8229-4010-b703-31f5ee6ac141","ios":"levelo://app?vid=25bb5fbc-8229-4010-b703-31f5ee6ac141"},"vehicle_type_id":"4","last_reported":1743361606,"current_range_meters":8000,"station_id":"","pricing_plan_id":"cebpf4jnsgd1na2vs0mg"},{"bike_id":"99e7d147-e2b6-4982-8a11-f600737d5497","system_id":"levelo_inurba_marseille","lat":43.290772,"lon":5.355855,"is_reserved":false,"is_disabled":false,"rental_uris":{"android":"levelo://app?vid=99e7d147-e2b6-4982-8a11-f600737d5497","ios":"levelo://app?vid=99e7d147-e2b6-4982-8a11-f600737d5497"},"vehicle_type_id":"4","last_reported":1743361606,"current_range_meters":8000,"station_id":"","pricing_plan_id":"cebpf4jnsgd1na2vs0mg"},{"bike_id":"e735653b-f9da-4338-b9a1-c15c33b43258","system_id":"levelo_inurba_marseille","lat":43.28934,"lon":5.36641,"is_reserved":false,"is_disabled":false,"rental_uris":{"android":"levelo://app?vid=e735653b-f9da-4338-b9a1-c15c33b43258","ios":"levelo://app?vid=e735653b-f9da-4338-b9a1-c15c33b43258"},"vehicle_type_id":"4","last_reported":1743361606,"current_range_meters":8000,"station_id":"ce4bhap2rcd13ifvqek0","pricing_plan_id":"cebpf4jnsgd1na2vs0mg"},{"bike_id":"d0ed36b4-3c5a-4da6-8fb4-955c321dd03a","system_id":"levelo_inurba_marseille","lat":43.27535,"lon":5.41035,"is_reserved":false,"is_disabled":false,"rental_uris":{"android":"levelo://app?vid=d0ed36b4-3c5a-4da6-8fb4-955c321dd03a","ios":"levelo://app?vid=d0ed36b4-3c5a-4da6-8fb4-955c321dd03a"},"vehicle_type_id":"4","last_reported":1743361606,"current_range_meters":8000,"station_id":"","pricing_plan_id":"cebpf4jnsgd1na2vs0mg"},{"bike_id":"44bb9070-7d21-4976-933c-1523f54ba066","system_id":"levelo_inurba_marseille","lat":43.29039,"lon":5.38654,"is_reserved":false,"is_disabled":false,"rental_uris":{"android":"levelo://app?vid=44bb9070-7d21-4976-933c-1523f54ba066","ios":"levelo://app?vid=44bb9070-7d21-4976-933c-1523f54ba066"},"vehicle_type_id":"4","last_reported":1743361606,"current_range_meters":8000,"station_id":"ce4bh4p2rcd13ifvqe0g","pricing_plan_id":"cebpf4jnsgd1na2vs0mg"},{"bike_id":"61cb5ae2-a5d9-44ac-b861-5a18ab9da6fb","system_id":"levelo_inurba_marseille","lat":43.27998,"lon":5.400153,"is_reserved":false,"is_disabled":false,"rental_uris":{"android":"levelo://app?vid=61cb5ae2-a5d9-44ac-b861-5a18ab9da6fb","ios":"levelo://app?vid=61cb5ae2-a5d9-44ac-b861-5a18ab9da6fb"},"vehicle_type_id":"4","last_reported":1743361606,"current_range_meters":8000,"station_id":"ce4bho92rcd13ifvqh4g","pricing_plan_id":"cebpf4jnsgd1na2vs0mg"},{"bike_id":"d30569fb-0935-4b72-9c30-dd645a8607ea","system_id":"levelo_inurba_marseille","lat":43.28438,"lon":5.35001,"is_reserved":false,"is_disabled":true,"rental_uris":{"android":"levelo://app?vid=d30569fb-0935-4b72-9c30-dd645a8607ea","ios":"levelo://app?vid=d30569fb-0935-4b72-9c30-dd645a8607ea"},"vehicle_type_id":"4","last_reported":1743361606,"current_range_meters":8000,"station_id":"ce4bhbh2rcd13ifvqepg","pricing_plan_id":"cebpf4jnsgd1na2vs0mg"},{"bike_id":"a50952e2-9091-49dc-a06e-c918ade3e9f4","system_id":"levelo_inurba_marseille","lat":43.28615,"lon":5.37094,"is_reserved":false,"is_disabled":false,"rental_uris":{"android":"levelo://app?vid=a50952e2-9091-49dc-a06e-c918ade3e9f4","ios":"levelo://app?vid=a50952e2-9091-49dc-a06e-c918ade3e9f4"},"vehicle_type_id":"4","last_reported":1743361606,"current_range_meters":8000,"station_id":"ce4bht12rcd13ifvqi60","pricing_plan_id":"cebpf4jnsgd1na2vs0mg"},{"bike_id":"f1f937ef-3e56-40c0-91fd-d5a532c01480","system_id":"levelo_inurba_marseille","lat":43.246718,"lon":5.381646,"is_reserved":false,"is_disabled":true,"rental_uris":{"android":"levelo://app?vid=f1f937ef-3e56-40c0-91fd-d5a532c01480","ios":"levelo://app?vid=f1f937ef-3e56-40c0-91fd-d5a532c01480"},"vehicle_type_id":"4","last_reported":1743361606,"current_range_meters":8000,"station_id":"ce4bhih2rcd13ifvqfr0","pricing_plan_id":"cebpf4jnsgd1na2vs0mg"},{"bike_id":"488767ae-a52a-41d7-8f9a-e947164469f3","system_id":"levelo_inurba_marseille","lat":43.31624,"lon":5.41652,"is_reserved":false,"is_disabled":true,"rental_uris":{"android":"levelo://app?vid=488767ae-a52a-41d7-8f9a-e947164469f3","ios":"levelo://app?vid=488767ae-a52a-41d7-8f9a-e947164469f3"},"vehicle_type_id":"4","last_reported":1743361606,"current_range_meters":8000,"station_id":"","pricing_plan_id":"cebpf4jnsgd1na2vs0mg"},{"bike_id":"d5be5b9a-7221-4992-83e9-31a6473c19ba","system_id":"levelo_inurba_marseille","lat":43.29427,"lon":5.38629,"is_reserved":false,"is_disabled":false,"rental_uris":{"android":"levelo://app?vid=d5be5b9a-7221-4992-83e9-31a6473c19ba","ios":"levelo://app?vid=d5be5b9a-7221-4992-83e9-31a6473c19ba"},"vehicle_type_id":"4","last_reported":1743361606,"current_range_meters":8000,"station_id":"ce4bh2h2rcd13ifvqdh0","pricing_plan_id":"cebpf4jnsgd1na2vs0mg"},{"bike_id":"68bc8e0e-83d7-4cfb-8d39-c2d54ff4365d","system_id":"levelo_inurba_marseille","lat":43.2997,"lon":5.37157,"is_reserved":false,"is_disabled":false,"rental_uris":{"android":"levelo://app?vid=68bc8e0e-83d7-4cfb-8d39-c2d54ff4365d","ios":"levelo://app?vid=68bc8e0e-83d7-4cfb-8d39-c2d54ff4365d"},"vehicle_type_id":"4","last_reported":1743361606,"current_range_meters":8000,"station_id":"ce4bgr92rcd13ifvqc7g","pricing_plan_id":"cebpf4jnsgd1na2vs0mg"},{"bike_id":"a82b4fd8-258c-4736-8ae1-40934956cbfb","system_id":"levelo_inurba_marseille","lat":43.282317,"lon":5.369728,"is_reserved":false,"is_disabled":false,"rental_uris":{"android":"levelo://app?vid=a82b4fd8-258c-4736-8ae1-40934956cbfb","ios":"levelo://app?vid=a82b4fd8-258c-4736-8ae1-40934956cbfb"},"vehicle_type_id":"4","last_reported":1743361606,"current_range_meters":8000,"station_id":"ce4bh512rcd13ifvqe3g","pricing_plan_id":"cebpf4jnsgd1na2vs0mg"},{"bike_id":"e7fc8401-8721-45fc-9527-db291282fa22","system_id":"levelo_inurba_marseille","lat":43.31215,"lon":5.36852,"is_reserved":false,"is_disabled":false,"rental_uris":{"android":"levelo://app?vid=e7fc8401-8721-45fc-9527-db291282fa22","ios":"levelo://app?vid=e7fc8401-8721-45fc-9527-db291282fa22"},"vehicle_type_id":"4","last_reported":1743361606,"current_range_meters":8000,"station_id":"ce4bgl92rcd13ifvqbq0","pricing_plan_id":"cebpf4jnsgd1na2vs0mg"},{"bike_id":"b6770acb-27ba-41d0-9643-4e75abb58321","system_id":"levelo_inurba_marseille","lat":43.30322,"lon":5.3691,"is_reserved":false,"is_disabled":false,"rental_uris":{"android":"levelo://app?vid=b6770acb-27ba-41d0-9643-4e75abb58321","ios":"levelo://app?vid=b6770acb-27ba-41d0-9643-4e75abb58321"},"vehicle_type_id":"4","last_reported":1743361606,"current_range_meters":8000,"station_id":"ce4bgqh2rcd13ifvqc5g","pricing_plan_id":"cebpf4jnsgd1na2vs0mg"},{"bike_id":"6e9f3af3-7288-4c43-9e66-98300014dee3","system_id":"levelo_inurba_marseille","lat":43.26061,"lon":5.39401,"is_reserved":false,"is_disabled":false,"rental_uris":{"android":"levelo://app?vid=6e9f3af3-7288-4c43-9e66-98300014dee3","ios":"levelo://app?vid=6e9f3af3-7288-4c43-9e66-98300014dee3"},"vehicle_type_id":"4","last_reported":1743361606,"current_range_meters":8000,"station_id":"ce4bhh92rcd13ifvqfj0","pricing_plan_id":"cebpf4jnsgd1na2vs0mg"},{"bike_id":"1b17f50c-9f8e-4b44-a931-69e661a1b05b","system_id":"levelo_inurba_marseille","lat":43.24653,"lon":5.38164,"is_reserved":false,"is_disabled":false,"rental_uris":{"android":"levelo://app?vid=1b17f50c-9f8e-4b44-a931-69e661a1b05b","ios":"levelo://app?vid=1b17f50c-9f8e-4b44-a931-69e661a1b05b"},"vehicle_type_id":"4","last_reported":1743361606,"current_range_meters":8000,"station_id":"ce4bhih2rcd13ifvqfr0","pricing_plan_id":"cebpf4jnsgd1na2vs0mg"},{"bike_id":"76d4ed16-8625-4a14-a5f1-d28ac2574c13","system_id":"levelo_inurba_marseille","lat":43.2454,"lon":5.39532,"is_reserved":false,"is_disabled":false,"rental_uris":{"android":"levelo://app?vid=76d4ed16-8625-4a14-a5f1-d28ac2574c13","ios":"levelo://app?vid=76d4ed16-8625-4a14-a5f1-d28ac2574c13"},"vehicle_type_id":"4","last_reported":1743361606,"current_range_meters":8400,"station_id":"ce4bhlp2rcd13ifvqgjg","pricing_plan_id":"cebpf4jnsgd1na2vs0mg"},{"bike_id":"cf4f32c1-ec69-4064-bf07-85365a02b2cc","system_id":"levelo_inurba_marseille","lat":43.30139,"lon":5.37423,"is_reserved":false,"is_disabled":false,"rental_uris":{"android":"levelo://app?vid=cf4f32c1-ec69-4064-bf07-85365a02b2cc","ios":"levelo://app?vid=cf4f32c1-ec69-4064-bf07-85365a02b2cc"},"vehicle_type_id":"4","last_reported":1743361606,"current_range_meters":8400,"station_id":"ce4bgs92rcd13ifvqcc0","pricing_plan_id":"cebpf4jnsgd1na2vs0mg"},{"bike_id":"0bd05e5a-21c4-4c5d-8e58-f818e6cbd2b3","system_id":"levelo_inurba_marseille","lat":43.30884,"lon":5.39636,"is_reserved":false,"is_disabled":false,"rental_uris":{"android":"levelo://app?vid=0bd05e5a-21c4-4c5d-8e58-f818e6cbd2b3","ios":"levelo://app?vid=0bd05e5a-21c4-4c5d-8e58-f818e6cbd2b3"},"vehicle_type_id":"4","last_reported":1743361606,"current_range_meters":8400,"station_id":"ce4bh012rcd13ifvqcv0","pricing_plan_id":"cebpf4jnsgd1na2vs0mg"},{"bike_id":"b3e25155-a3b0-4164-af09-67e9cc2346af","system_id":"levelo_inurba_marseille","lat":43.30332,"lon":5.40448,"is_reserved":false,"is_disabled":false,"rental_uris":{"android":"levelo://app?vid=b3e25155-a3b0-4164-af09-67e9cc2346af","ios":"levelo://app?vid=b3e25155-a3b0-4164-af09-67e9cc2346af"},"vehicle_type_id":"4","last_reported":1743361606,"current_range_meters":8400,"station_id":"ce4bh012rcd13ifvqd10","pricing_plan_id":"cebpf4jnsgd1na2vs0mg"},{"bike_id":"915f875a-1d86-4319-b636-2c4274059607","system_id":"levelo_inurba_marseille","lat":43.24157,"lon":5.36416,"is_reserved":false,"is_disabled":false,"rental_uris":{"android":"levelo://app?vid=915f875a-1d86-4319-b636-2c4274059607","ios":"levelo://app?vid=915f875a-1d86-4319-b636-2c4274059607"},"vehicle_type_id":"4","last_reported":1743361606,"current_range_meters":8400,"station_id":"cpo36qri1sfpv3e86is0","pricing_plan_id":"cebpf4jnsgd1na2vs0mg"},{"bike_id":"8f5fdcfb-4565-4d08-8d54-d199e32ad589","system_id":"levelo_inurba_marseille","lat":43.31322,"lon":5.397,"is_reserved":false,"is_disabled":false,"rental_uris":{"android":"levelo://app?vid=8f5fdcfb-4565-4d08-8d54-d199e32ad589","ios":"levelo://app?vid=8f5fdcfb-4565-4d08-8d54-d199e32ad589"},"vehicle_type_id":"4","last_reported":1743361606,"current_range_meters":8400,"station_id":"ce4bgvp2rcd13ifvqcu0","pricing_plan_id":"cebpf4jnsgd1na2vs0mg"},{"bike_id":"13d8a1cd-4488-455e-9abe-ae0ef23dd73c","system_id":"levelo_inurba_marseille","lat":43.249505,"lon":5.396746,"is_reserved":false,"is_disabled":false,"rental_uris":{"android":"levelo://app?vid=13d8a1cd-4488-455e-9abe-ae0ef23dd73c","ios":"levelo://app?vid=13d8a1cd-4488-455e-9abe-ae0ef23dd73c"},"vehicle_type_id":"4","last_reported":1743361606,"current_range_meters":8400,"station_id":"ce4bhih2rcd13ifvqfr0","pricing_plan_id":"cebpf4jnsgd1na2vs0mg"},{"bike_id":"73484ef5-38ac-45ee-8637-95752d42965e","system_id":"levelo_inurba_marseille","lat":43.30983,"lon":5.37959,"is_reserved":false,"is_disabled":true,"rental_uris":{"android":"levelo://app?vid=73484ef5-38ac-45ee-8637-95752d42965e","ios":"levelo://app?vid=73484ef5-38ac-45ee-8637-95752d42965e"},"vehicle_type_id":"4","last_reported":1743361606,"current_range_meters":8400,"station_id":"","pricing_plan_id":"cebpf4jnsgd1na2vs0mg"},{"bike_id":"926af724-7a3c-4a38-ace9-fbc09bc2896c","system_id":"levelo_inurba_marseille","lat":43.28938,"lon":5.36636,"is_reserved":false,"is_disabled":false,"rental_uris":{"android":"levelo://app?vid=926af724-7a3c-4a38-ace9-fbc09bc2896c","ios":"levelo://app?vid=926af724-7a3c-4a38-ace9-fbc09bc2896c"},"vehicle_type_id":"4","last_reported":1743361606,"current_range_meters":8400,"station_id":"ce4bhap2rcd13ifvqek0","pricing_plan_id":"cebpf4jnsgd1na2vs0mg"},{"bike_id":"d9099e9a-b19d-4175-a73e-dd7958ed92e0","system_id":"levelo_inurba_marseille","lat":43.23053,"lon":5.3548,"is_reserved":false,"is_disabled":true,"rental_uris":{"android":"levelo://app?vid=d9099e9a-b19d-4175-a73e-dd7958ed92e0","ios":"levelo://app?vid=d9099e9a-b19d-4175-a73e-dd7958ed92e0"},"vehicle_type_id":"4","last_reported":1743361606,"current_range_meters":8400,"station_id":"cpo3342slgdg3j2ifvpg","pricing_plan_id":"cebpf4jnsgd1na2vs0mg"},{"bike_id":"6bdc708a-ce29-4bc1-8444-e66bfb361fc9","system_id":"levelo_inurba_marseille","lat":43.28929,"lon":5.38394,"is_reserved":false,"is_disabled":false,"rental_uris":{"android":"levelo://app?vid=6bdc708a-ce29-4bc1-8444-e66bfb361fc9","ios":"levelo://app?vid=6bdc708a-ce29-4bc1-8444-e66bfb361fc9"},"vehicle_type_id":"4","last_reported":1743361606,"current_range_meters":8400,"station_id":"ce4bh612rcd13ifvqe6g","pricing_plan_id":"cebpf4jnsgd1na2vs0mg"},{"bike_id":"1345504a-7cd0-4c25-bcd4-6a16f7e36b29","system_id":"levelo_inurba_marseille","lat":43.29616,"lon":5.377208,"is_reserved":false,"is_disabled":false,"rental_uris":{"android":"levelo://app?vid=1345504a-7cd0-4c25-bcd4-6a16f7e36b29","ios":"levelo://app?vid=1345504a-7cd0-4c25-bcd4-6a16f7e36b29"},"vehicle_type_id":"4","last_reported":1743361606,"current_range_meters":8400,"station_id":"ce4bgi92rcd13ifvqb90","pricing_plan_id":"cebpf4jnsgd1na2vs0mg"},{"bike_id":"a78ca2e0-7fe1-4928-b0e7-4ab6bd0428a6","system_id":"levelo_inurba_marseille","lat":43.3117,"lon":5.38704,"is_reserved":false,"is_disabled":false,"rental_uris":{"android":"levelo://app?vid=a78ca2e0-7fe1-4928-b0e7-4ab6bd0428a6","ios":"levelo://app?vid=a78ca2e0-7fe1-4928-b0e7-4ab6bd0428a6"},"vehicle_type_id":"4","last_reported":1743361606,"current_range_meters":8400,"station_id":"ce4bgv12rcd13ifvqcp0","pricing_plan_id":"cebpf4jnsgd1na2vs0mg"},{"bike_id":"a2b54cd6-2f63-47c2-ac99-72a3dc05c969","system_id":"levelo_inurba_marseille","lat":43.30788,"lon":5.376434,"is_reserved":false,"is_disabled":false,"rental_uris":{"android":"levelo://app?vid=a2b54cd6-2f63-47c2-ac99-72a3dc05c969","ios":"levelo://app?vid=a2b54cd6-2f63-47c2-ac99-72a3dc05c969"},"vehicle_type_id":"4","last_reported":1743361606,"current_range_meters":8400,"station_id":"ce4bgv92rcd13ifvqcq0","pricing_plan_id":"cebpf4jnsgd1na2vs0mg"},{"bike_id":"7325f9cd-e964-451a-9d25-93e7785861e7","system_id":"levelo_inurba_marseille","lat":43.27556,"lon":5.38418,"is_reserved":false,"is_disabled":false,"rental_uris":{"android":"levelo://app?vid=7325f9cd-e964-451a-9d25-93e7785861e7","ios":"levelo://app?vid=7325f9cd-e964-451a-9d25-93e7785861e7"},"vehicle_type_id":"4","last_reported":1743361606,"current_range_meters":8400,"station_id":"ce4bhh92rcd13ifvqfi0","pricing_plan_id":"cebpf4jnsgd1na2vs0mg"},{"bike_id":"7fe392e9-7e8b-4f65-842c-ef02e8322ece","system_id":"levelo_inurba_marseille","lat":43.27188,"lon":5.40993,"is_reserved":false,"is_disabled":false,"rental_uris":{"android":"levelo://app?vid=7fe392e9-7e8b-4f65-842c-ef02e8322ece","ios":"levelo://app?vid=7fe392e9-7e8b-4f65-842c-ef02e8322ece"},"vehicle_type_id":"4","last_reported":1743361606,"current_range_meters":8400,"station_id":"ce4bhl12rcd13ifvqgf0","pricing_plan_id":"cebpf4jnsgd1na2vs0mg"},{"bike_id":"bc1ef0c2-17d8-427e-a10c-9b9658a85853","system_id":"levelo_inurba_marseille","lat":43.24186,"lon":5.3972,"is_reserved":false,"is_disabled":true,"rental_uris":{"android":"levelo://app?vid=bc1ef0c2-17d8-427e-a10c-9b9658a85853","ios":"levelo://app?vid=bc1ef0c2-17d8-427e-a10c-9b9658a85853"},"vehicle_type_id":"4","last_reported":1743361606,"current_range_meters":8400,"station_id":"ce4bhn12rcd13ifvqgpg","pricing_plan_id":"cebpf4jnsgd1na2vs0mg"},{"bike_id":"f43cccf4-7cd2-4fa6-9fbb-fb74d7164516","system_id":"levelo_inurba_marseille","lat":43.24077,"lon":5.37784,"is_reserved":false,"is_disabled":false,"rental_uris":{"android":"levelo://app?vid=f43cccf4-7cd2-4fa6-9fbb-fb74d7164516","ios":"levelo://app?vid=f43cccf4-7cd2-4fa6-9fbb-fb74d7164516"},"vehicle_type_id":"4","last_reported":1743361606,"current_range_meters":8800,"station_id":"ce4bhnp2rcd13ifvqgvg","pricing_plan_id":"cebpf4jnsgd1na2vs0mg"},{"bike_id":"6eaeb384-00ac-49ef-b304-c7c21e927729","system_id":"levelo_inurba_marseille","lat":43.23968,"lon":5.36643,"is_reserved":false,"is_disabled":false,"rental_uris":{"android":"levelo://app?vid=6eaeb384-00ac-49ef-b304-c7c21e927729","ios":"levelo://app?vid=6eaeb384-00ac-49ef-b304-c7c21e927729"},"vehicle_type_id":"4","last_reported":1743361606,"current_range_meters":8400,"station_id":"ce4bhi12rcd13ifvqfp0","pricing_plan_id":"cebpf4jnsgd1na2vs0mg"},{"bike_id":"3500270f-f51a-4fe9-aebc-1713ad9e4540","system_id":"levelo_inurba_marseille","lat":43.29093,"lon":5.38142,"is_reserved":false,"is_disabled":false,"rental_uris":{"android":"levelo://app?vid=3500270f-f51a-4fe9-aebc-1713ad9e4540","ios":"levelo://app?vid=3500270f-f51a-4fe9-aebc-1713ad9e4540"},"vehicle_type_id":"4","last_reported":1743361606,"current_range_meters":8800,"station_id":"ce4bh512rcd13ifvqe2g","pricing_plan_id":"cebpf4jnsgd1na2vs0mg"},{"bike_id":"9e41fa41-0b95-4c96-8a49-e8b8589958b5","system_id":"levelo_inurba_marseille","lat":43.27498,"lon":5.42453,"is_reserved":false,"is_disabled":false,"rental_uris":{"android":"levelo://app?vid=9e41fa41-0b95-4c96-8a49-e8b8589958b5","ios":"levelo://app?vid=9e41fa41-0b95-4c96-8a49-e8b8589958b5"},"vehicle_type_id":"4","last_reported":1743361606,"current_range_meters":8800,"station_id":"ce4bhn92rcd13ifvqgrg","pricing_plan_id":"cebpf4jnsgd1na2vs0mg"},{"bike_id":"51cdce4b-e7da-459e-8ee4-1f907fb64061","system_id":"levelo_inurba_marseille","lat":43.294151,"lon":5.38628,"is_reserved":false,"is_disabled":false,"rental_uris":{"android":"levelo://app?vid=51cdce4b-e7da-459e-8ee4-1f907fb64061","ios":"levelo://app?vid=51cdce4b-e7da-459e-8ee4-1f907fb64061"},"vehicle_type_id":"4","last_reported":1743361606,"current_range_meters":8800,"station_id":"ce4bh2h2rcd13ifvqdh0","pricing_plan_id":"cebpf4jnsgd1na2vs0mg"},{"bike_id":"fb5a3640-c2bd-4d5a-a532-631ac7449c3d","system_id":"levelo_inurba_marseille","lat":43.27972,"lon":5.4094,"is_reserved":false,"is_disabled":false,"rental_uris":{"android":"levelo://app?vid=fb5a3640-c2bd-4d5a-a532-631ac7449c3d","ios":"levelo://app?vid=fb5a3640-c2bd-4d5a-a532-631ac7449c3d"},"vehicle_type_id":"4","last_reported":1743361606,"current_range_meters":8800,"station_id":"","pricing_plan_id":"cebpf4jnsgd1na2vs0mg"},{"bike_id":"a4c6538b-619e-4d07-a605-a0fcb5383598","system_id":"levelo_inurba_marseille","lat":43.29452,"lon":5.38621,"is_reserved":false,"is_disabled":false,"rental_uris":{"android":"levelo://app?vid=a4c6538b-619e-4d07-a605-a0fcb5383598","ios":"levelo://app?vid=a4c6538b-619e-4d07-a605-a0fcb5383598"},"vehicle_type_id":"4","last_reported":1743361606,"current_range_meters":8800,"station_id":"ce4bh2h2rcd13ifvqdh0","pricing_plan_id":"cebpf4jnsgd1na2vs0mg"},{"bike_id":"99d573ca-d114-4e8b-ae9e-5decb6d296da","system_id":"levelo_inurba_marseille","lat":43.29285,"lon":5.40158,"is_reserved":false,"is_disabled":false,"rental_uris":{"android":"levelo://app?vid=99d573ca-d114-4e8b-ae9e-5decb6d296da","ios":"levelo://app?vid=99d573ca-d114-4e8b-ae9e-5decb6d296da"},"vehicle_type_id":"4","last_reported":1743361606,"current_range_meters":8800,"station_id":"ce4bh312rcd13ifvqdk0","pricing_plan_id":"cebpf4jnsgd1na2vs0mg"},{"bike_id":"9797dcdc-ca0b-4487-8739-71e22851585f","system_id":"levelo_inurba_marseille","lat":43.26228,"lon":5.40452,"is_reserved":false,"is_disabled":false,"rental_uris":{"android":"levelo://app?vid=9797dcdc-ca0b-4487-8739-71e22851585f","ios":"levelo://app?vid=9797dcdc-ca0b-4487-8739-71e22851585f"},"vehicle_type_id":"4","last_reported":1743361606,"current_range_meters":8800,"station_id":"ce4bhmh2rcd13ifvqgmg","pricing_plan_id":"cebpf4jnsgd1na2vs0mg"},{"bike_id":"1d521185-72a0-434d-966c-14202d1200b5","system_id":"levelo_inurba_marseille","lat":43.31176,"lon":5.36829,"is_reserved":false,"is_disabled":false,"rental_uris":{"android":"levelo://app?vid=1d521185-72a0-434d-966c-14202d1200b5","ios":"levelo://app?vid=1d521185-72a0-434d-966c-14202d1200b5"},"vehicle_type_id":"4","last_reported":1743361606,"current_range_meters":8800,"station_id":"","pricing_plan_id":"cebpf4jnsgd1na2vs0mg"},{"bike_id":"82d8e203-da64-466b-9b1d-e9f0a9bfebfe","system_id":"levelo_inurba_marseille","lat":43.32541,"lon":5.41467,"is_reserved":false,"is_disabled":true,"rental_uris":{"android":"levelo://app?vid=82d8e203-da64-466b-9b1d-e9f0a9bfebfe","ios":"levelo://app?vid=82d8e203-da64-466b-9b1d-e9f0a9bfebfe"},"vehicle_type_id":"4","last_reported":1743361606,"current_range_meters":9200,"station_id":"ce4bhq12rcd13ifvqhhg","pricing_plan_id":"cebpf4jnsgd1na2vs0mg"},{"bike_id":"c1a01883-6c1d-4e89-ba9e-0dbae1b4948f","system_id":"levelo_inurba_marseille","lat":43.25001,"lon":5.38927,"is_reserved":false,"is_disabled":false,"rental_uris":{"android":"levelo://app?vid=c1a01883-6c1d-4e89-ba9e-0dbae1b4948f","ios":"levelo://app?vid=c1a01883-6c1d-4e89-ba9e-0dbae1b4948f"},"vehicle_type_id":"4","last_reported":1743361606,"current_range_meters":9200,"station_id":"ce4bhgp2rcd13ifvqfd0","pricing_plan_id":"cebpf4jnsgd1na2vs0mg"},{"bike_id":"ad60912c-6000-4325-92cb-03d07db25537","system_id":"levelo_inurba_marseille","lat":43.28694,"lon":5.4,"is_reserved":false,"is_disabled":false,"rental_uris":{"android":"levelo://app?vid=ad60912c-6000-4325-92cb-03d07db25537","ios":"levelo://app?vid=ad60912c-6000-4325-92cb-03d07db25537"},"vehicle_type_id":"4","last_reported":1743361606,"current_range_meters":9200,"station_id":"ce4bho92rcd13ifvqh3g","pricing_plan_id":"cebpf4jnsgd1na2vs0mg"},{"bike_id":"71e03f58-7786-4ed6-8456-792c5e6c2bbc","system_id":"levelo_inurba_marseille","lat":43.29786,"lon":5.39341,"is_reserved":false,"is_disabled":false,"rental_uris":{"android":"levelo://app?vid=71e03f58-7786-4ed6-8456-792c5e6c2bbc","ios":"levelo://app?vid=71e03f58-7786-4ed6-8456-792c5e6c2bbc"},"vehicle_type_id":"4","last_reported":1743361606,"current_range_meters":9200,"station_id":"chh1huq6cuj3fo74tm60","pricing_plan_id":"cebpf4jnsgd1na2vs0mg"},{"bike_id":"3f7a0957-674f-4dc8-9c1c-d9c9b0c2fdf5","system_id":"levelo_inurba_marseille","lat":43.25826,"lon":5.39429,"is_reserved":false,"is_disabled":false,"rental_uris":{"android":"levelo://app?vid=3f7a0957-674f-4dc8-9c1c-d9c9b0c2fdf5","ios":"levelo://app?vid=3f7a0957-674f-4dc8-9c1c-d9c9b0c2fdf5"},"vehicle_type_id":"4","last_reported":1743361606,"current_range_meters":9200,"station_id":"ce4bhip2rcd13ifvqft0","pricing_plan_id":"cebpf4jnsgd1na2vs0mg"},{"bike_id":"be67c1f1-27e5-4f10-b19e-f1e8728ce4db","system_id":"levelo_inurba_marseille","lat":43.30219,"lon":5.39475,"is_reserved":false,"is_disabled":false,"rental_uris":{"android":"levelo://app?vid=be67c1f1-27e5-4f10-b19e-f1e8728ce4db","ios":"levelo://app?vid=be67c1f1-27e5-4f10-b19e-f1e8728ce4db"},"vehicle_type_id":"4","last_reported":1743361606,"current_range_meters":9200,"station_id":"ce4bh0p2rcd13ifvqd70","pricing_plan_id":"cebpf4jnsgd1na2vs0mg"},{"bike_id":"0d48df8e-25d3-4bea-9b13-4e7c28d30250","system_id":"levelo_inurba_marseille","lat":43.27558,"lon":5.38421,"is_reserved":false,"is_disabled":false,"rental_uris":{"android":"levelo://app?vid=0d48df8e-25d3-4bea-9b13-4e7c28d30250","ios":"levelo://app?vid=0d48df8e-25d3-4bea-9b13-4e7c28d30250"},"vehicle_type_id":"4","last_reported":1743361606,"current_range_meters":9200,"station_id":"ce4bhh92rcd13ifvqfi0","pricing_plan_id":"cebpf4jnsgd1na2vs0mg"},{"bike_id":"bec24054-6ad4-405b-8867-1237a6230216","system_id":"levelo_inurba_marseille","lat":43.29286,"lon":5.38462,"is_reserved":false,"is_disabled":false,"rental_uris":{"android":"levelo://app?vid=bec24054-6ad4-405b-8867-1237a6230216","ios":"levelo://app?vid=bec24054-6ad4-405b-8867-1237a6230216"},"vehicle_type_id":"4","last_reported":1743361606,"current_range_meters":9600,"station_id":"ce4bh692rcd13ifvqea0","pricing_plan_id":"cebpf4jnsgd1na2vs0mg"},{"bike_id":"5c49fc8b-b573-44cd-9da2-767f8f7a765b","system_id":"levelo_inurba_marseille","lat":43.31747,"lon":5.39003,"is_reserved":false,"is_disabled":false,"rental_uris":{"android":"levelo://app?vid=5c49fc8b-b573-44cd-9da2-767f8f7a765b","ios":"levelo://app?vid=5c49fc8b-b573-44cd-9da2-767f8f7a765b"},"vehicle_type_id":"4","last_reported":1743361606,"current_range_meters":9600,"station_id":"ce4bhqp2rcd13ifvqhng","pricing_plan_id":"cebpf4jnsgd1na2vs0mg"},{"bike_id":"047f5ced-0b16-4921-a30a-124c311cd9c1","system_id":"levelo_inurba_marseille","lat":43.23204,"lon":5.35567,"is_reserved":false,"is_disabled":false,"rental_uris":{"android":"levelo://app?vid=047f5ced-0b16-4921-a30a-124c311cd9c1","ios":"levelo://app?vid=047f5ced-0b16-4921-a30a-124c311cd9c1"},"vehicle_type_id":"4","last_reported":1743361606,"current_range_meters":9600,"station_id":"ce4bhu92rcd13ifvqi70","pricing_plan_id":"cebpf4jnsgd1na2vs0mg"},{"bike_id":"bfcad82b-6acc-493c-b418-93ec0bae17e4","system_id":"levelo_inurba_marseille","lat":43.3214,"lon":5.36797,"is_reserved":false,"is_disabled":false,"rental_uris":{"android":"levelo://app?vid=bfcad82b-6acc-493c-b418-93ec0bae17e4","ios":"levelo://app?vid=bfcad82b-6acc-493c-b418-93ec0bae17e4"},"vehicle_type_id":"4","last_reported":1743361606,"current_range_meters":9600,"station_id":"ce4bhrh2rcd13ifvqhug","pricing_plan_id":"cebpf4jnsgd1na2vs0mg"},{"bike_id":"ec214d59-e307-435e-82f5-8a58499dbb5f","system_id":"levelo_inurba_marseille","lat":43.27569,"lon":5.38434,"is_reserved":false,"is_disabled":false,"rental_uris":{"android":"levelo://app?vid=ec214d59-e307-435e-82f5-8a58499dbb5f","ios":"levelo://app?vid=ec214d59-e307-435e-82f5-8a58499dbb5f"},"vehicle_type_id":"4","last_reported":1743361606,"current_range_meters":9600,"station_id":"ce4bgup2rcd13ifvqcn0","pricing_plan_id":"cebpf4jnsgd1na2vs0mg"},{"bike_id":"5fc8b285-2871-4c39-b555-a8b102f78865","system_id":"levelo_inurba_marseille","lat":43.22967,"lon":5.35382,"is_reserved":false,"is_disabled":false,"rental_uris":{"android":"levelo://app?vid=5fc8b285-2871-4c39-b555-a8b102f78865","ios":"levelo://app?vid=5fc8b285-2871-4c39-b555-a8b102f78865"},"vehicle_type_id":"4","last_reported":1743361606,"current_range_meters":9600,"station_id":"cpo3532slgdg3j2ikp40","pricing_plan_id":"cebpf4jnsgd1na2vs0mg"},{"bike_id":"63faa9ee-c67f-457a-b4cf-6fdf7b087d8f","system_id":"levelo_inurba_marseille","lat":43.30894,"lon":5.37186,"is_reserved":false,"is_disabled":false,"rental_uris":{"android":"levelo://app?vid=63faa9ee-c67f-457a-b4cf-6fdf7b087d8f","ios":"levelo://app?vid=63faa9ee-c67f-457a-b4cf-6fdf7b087d8f"},"vehicle_type_id":"4","last_reported":1743361606,"current_range_meters":9200,"station_id":"ce4bguh2rcd13ifvqckg","pricing_plan_id":"cebpf4jnsgd1na2vs0mg"},{"bike_id":"d8cd430a-ec97-45db-a9d1-9d7b9e88dd86","system_id":"levelo_inurba_marseille","lat":43.323717,"lon":5.38875,"is_reserved":false,"is_disabled":false,"rental_uris":{"android":"levelo://app?vid=d8cd430a-ec97-45db-a9d1-9d7b9e88dd86","ios":"levelo://app?vid=d8cd430a-ec97-45db-a9d1-9d7b9e88dd86"},"vehicle_type_id":"4","last_reported":1743361606,"current_range_meters":9600,"station_id":"ce4bhqp2rcd13ifvqhog","pricing_plan_id":"cebpf4jnsgd1na2vs0mg"},{"bike_id":"f150450a-749a-4373-a4fa-76425248e702","system_id":"levelo_inurba_marseille","lat":43.28129,"lon":5.379,"is_reserved":false,"is_disabled":false,"rental_uris":{"android":"levelo://app?vid=f150450a-749a-4373-a4fa-76425248e702","ios":"levelo://app?vid=f150450a-749a-4373-a4fa-76425248e702"},"vehicle_type_id":"4","last_reported":1743361606,"current_range_meters":9600,"station_id":"ce4bha12rcd13ifvqee0","pricing_plan_id":"cebpf4jnsgd1na2vs0mg"},{"bike_id":"cb8c9ca5-9083-4e86-9e9f-2bc245af5095","system_id":"levelo_inurba_marseille","lat":43.2841,"lon":5.37535,"is_reserved":false,"is_disabled":true,"rental_uris":{"android":"levelo://app?vid=cb8c9ca5-9083-4e86-9e9f-2bc245af5095","ios":"levelo://app?vid=cb8c9ca5-9083-4e86-9e9f-2bc245af5095"},"vehicle_type_id":"4","last_reported":1743361606,"current_range_meters":9600,"station_id":"ce4bh412rcd13ifvqds0","pricing_plan_id":"cebpf4jnsgd1na2vs0mg"},{"bike_id":"712adfdb-1e7c-45c7-a1aa-2e751e4598bb","system_id":"levelo_inurba_marseille","lat":43.30145,"lon":5.39884,"is_reserved":false,"is_disabled":false,"rental_uris":{"android":"levelo://app?vid=712adfdb-1e7c-45c7-a1aa-2e751e4598bb","ios":"levelo://app?vid=712adfdb-1e7c-45c7-a1aa-2e751e4598bb"},"vehicle_type_id":"4","last_reported":1743361606,"current_range_meters":9600,"station_id":"ce4bh0h2rcd13ifvqd40","pricing_plan_id":"cebpf4jnsgd1na2vs0mg"},{"bike_id":"86f139b9-ffd3-4a79-86e8-d22d017328ee","system_id":"levelo_inurba_marseille","lat":43.34732,"lon":5.3818,"is_reserved":false,"is_disabled":false,"rental_uris":{"android":"levelo://app?vid=86f139b9-ffd3-4a79-86e8-d22d017328ee","ios":"levelo://app?vid=86f139b9-ffd3-4a79-86e8-d22d017328ee"},"vehicle_type_id":"4","last_reported":1743361606,"current_range_meters":9600,"station_id":"","pricing_plan_id":"cebpf4jnsgd1na2vs0mg"},{"bike_id":"7a038292-0ee0-44fd-91f6-cd16be90d9ad","system_id":"levelo_inurba_marseille","lat":43.2927,"lon":5.38453,"is_reserved":false,"is_disabled":false,"rental_uris":{"android":"levelo://app?vid=7a038292-0ee0-44fd-91f6-cd16be90d9ad","ios":"levelo://app?vid=7a038292-0ee0-44fd-91f6-cd16be90d9ad"},"vehicle_type_id":"4","last_reported":1743361606,"current_range_meters":9600,"station_id":"ce4bh692rcd13ifvqea0","pricing_plan_id":"cebpf4jnsgd1na2vs0mg"},{"bike_id":"0ee51482-ff5a-4d97-a254-3c7b26eb2573","system_id":"levelo_inurba_marseille","lat":43.28932,"lon":5.38381,"is_reserved":false,"is_disabled":false,"rental_uris":{"android":"levelo://app?vid=0ee51482-ff5a-4d97-a254-3c7b26eb2573","ios":"levelo://app?vid=0ee51482-ff5a-4d97-a254-3c7b26eb2573"},"vehicle_type_id":"4","last_reported":1743361606,"current_range_meters":9600,"station_id":"ce4bh612rcd13ifvqe6g","pricing_plan_id":"cebpf4jnsgd1na2vs0mg"},{"bike_id":"d0eb5eab-ee9f-44c6-967d-4c60aa7c46b4","system_id":"levelo_inurba_marseille","lat":43.23182,"lon":5.39981,"is_reserved":false,"is_disabled":false,"rental_uris":{"android":"levelo://app?vid=d0eb5eab-ee9f-44c6-967d-4c60aa7c46b4","ios":"levelo://app?vid=d0eb5eab-ee9f-44c6-967d-4c60aa7c46b4"},"vehicle_type_id":"4","last_reported":1743361606,"current_range_meters":9600,"station_id":"ce4bhn12rcd13ifvqgqg","pricing_plan_id":"cebpf4jnsgd1na2vs0mg"},{"bike_id":"40be5096-9f96-4b90-a4e5-1e6a1ae43486","system_id":"levelo_inurba_marseille","lat":43.30205,"lon":5.39471,"is_reserved":false,"is_disabled":false,"rental_uris":{"android":"levelo://app?vid=40be5096-9f96-4b90-a4e5-1e6a1ae43486","ios":"levelo://app?vid=40be5096-9f96-4b90-a4e5-1e6a1ae43486"},"vehicle_type_id":"4","last_reported":1743361606,"current_range_meters":9600,"station_id":"ce4bh0p2rcd13ifvqd70","pricing_plan_id":"cebpf4jnsgd1na2vs0mg"},{"bike_id":"01668041-f320-481f-8c08-59422aef6737","system_id":"levelo_inurba_marseille","lat":43.2838,"lon":5.38113,"is_reserved":false,"is_disabled":false,"rental_uris":{"android":"levelo://app?vid=01668041-f320-481f-8c08-59422aef6737","ios":"levelo://app?vid=01668041-f320-481f-8c08-59422aef6737"},"vehicle_type_id":"4","last_reported":1743361606,"current_range_meters":9600,"station_id":"ce4bh412rcd13ifvqdr0","pricing_plan_id":"cebpf4jnsgd1na2vs0mg"},{"bike_id":"9f0f898a-b174-43f9-bbe2-6248c347e73d","system_id":"levelo_inurba_marseille","lat":43.2942,"lon":5.38612,"is_reserved":false,"is_disabled":false,"rental_uris":{"android":"levelo://app?vid=9f0f898a-b174-43f9-bbe2-6248c347e73d","ios":"levelo://app?vid=9f0f898a-b174-43f9-bbe2-6248c347e73d"},"vehicle_type_id":"4","last_reported":1743361606,"current_range_meters":9600,"station_id":"ce4bh2h2rcd13ifvqdh0","pricing_plan_id":"cebpf4jnsgd1na2vs0mg"},{"bike_id":"6778e9ac-50ad-49ca-a8e9-a1fb7e9de7bb","system_id":"levelo_inurba_marseille","lat":43.29418,"lon":5.38622,"is_reserved":false,"is_disabled":false,"rental_uris":{"android":"levelo://app?vid=6778e9ac-50ad-49ca-a8e9-a1fb7e9de7bb","ios":"levelo://app?vid=6778e9ac-50ad-49ca-a8e9-a1fb7e9de7bb"},"vehicle_type_id":"4","last_reported":1743361606,"current_range_meters":10000,"station_id":"ce4bh2h2rcd13ifvqdh0","pricing_plan_id":"cebpf4jnsgd1na2vs0mg"},{"bike_id":"7e46e322-27d9-4f9d-b1ce-11741eb7c78f","system_id":"levelo_inurba_marseille","lat":43.3175,"lon":5.39018,"is_reserved":false,"is_disabled":false,"rental_uris":{"android":"levelo://app?vid=7e46e322-27d9-4f9d-b1ce-11741eb7c78f","ios":"levelo://app?vid=7e46e322-27d9-4f9d-b1ce-11741eb7c78f"},"vehicle_type_id":"4","last_reported":1743361606,"current_range_meters":10000,"station_id":"ce4bhqp2rcd13ifvqhng","pricing_plan_id":"cebpf4jnsgd1na2vs0mg"},{"bike_id":"1db49edd-6de7-48f9-b18a-23a07e8ebd2c","system_id":"levelo_inurba_marseille","lat":43.23182,"lon":5.3557,"is_reserved":false,"is_disabled":false,"rental_uris":{"android":"levelo://app?vid=1db49edd-6de7-48f9-b18a-23a07e8ebd2c","ios":"levelo://app?vid=1db49edd-6de7-48f9-b18a-23a07e8ebd2c"},"vehicle_type_id":"4","last_reported":1743361606,"current_range_meters":10000,"station_id":"ce4bhu92rcd13ifvqi70","pricing_plan_id":"cebpf4jnsgd1na2vs0mg"},{"bike_id":"db69208b-18ec-42e7-94f0-635183695004","system_id":"levelo_inurba_marseille","lat":43.3105,"lon":5.38351,"is_reserved":false,"is_disabled":false,"rental_uris":{"android":"levelo://app?vid=db69208b-18ec-42e7-94f0-635183695004","ios":"levelo://app?vid=db69208b-18ec-42e7-94f0-635183695004"},"vehicle_type_id":"4","last_reported":1743361606,"current_range_meters":10000,"station_id":"ce4bgv92rcd13ifvqcr0","pricing_plan_id":"cebpf4jnsgd1na2vs0mg"},{"bike_id":"452ee7ed-aed5-4f3a-80c1-b63ab3953967","system_id":"levelo_inurba_marseille","lat":43.2796,"lon":5.41065,"is_reserved":false,"is_disabled":false,"rental_uris":{"android":"levelo://app?vid=452ee7ed-aed5-4f3a-80c1-b63ab3953967","ios":"levelo://app?vid=452ee7ed-aed5-4f3a-80c1-b63ab3953967"},"vehicle_type_id":"4","last_reported":1743361606,"current_range_meters":10000,"station_id":"ce4bhnp2rcd13ifvqh0g","pricing_plan_id":"cebpf4jnsgd1na2vs0mg"},{"bike_id":"8bc6c30c-cb1f-4101-b8b1-ce571e3dd2f3","system_id":"levelo_inurba_marseille","lat":43.29882,"lon":5.38915,"is_reserved":false,"is_disabled":false,"rental_uris":{"android":"levelo://app?vid=8bc6c30c-cb1f-4101-b8b1-ce571e3dd2f3","ios":"levelo://app?vid=8bc6c30c-cb1f-4101-b8b1-ce571e3dd2f3"},"vehicle_type_id":"4","last_reported":1743361606,"current_range_meters":10000,"station_id":"ce4bh392rcd13ifvqdl0","pricing_plan_id":"cebpf4jnsgd1na2vs0mg"},{"bike_id":"f64d1c4d-59d5-4617-b016-6ef3e2f938db","system_id":"levelo_inurba_marseille","lat":43.28423,"lon":5.37538,"is_reserved":false,"is_disabled":false,"rental_uris":{"android":"levelo://app?vid=f64d1c4d-59d5-4617-b016-6ef3e2f938db","ios":"levelo://app?vid=f64d1c4d-59d5-4617-b016-6ef3e2f938db"},"vehicle_type_id":"4","last_reported":1743361606,"current_range_meters":10000,"station_id":"ce4bh412rcd13ifvqds0","pricing_plan_id":"cebpf4jnsgd1na2vs0mg"},{"bike_id":"0473c2df-6a5c-4f03-8055-0ddeb5fdd9d1","system_id":"levelo_inurba_marseille","lat":43.30576,"lon":5.39349,"is_reserved":false,"is_disabled":false,"rental_uris":{"android":"levelo://app?vid=0473c2df-6a5c-4f03-8055-0ddeb5fdd9d1","ios":"levelo://app?vid=0473c2df-6a5c-4f03-8055-0ddeb5fdd9d1"},"vehicle_type_id":"4","last_reported":1743361606,"current_range_meters":10000,"station_id":"ce4bh0p2rcd13ifvqd80","pricing_plan_id":"cebpf4jnsgd1na2vs0mg"},{"bike_id":"a8042ec9-7299-4841-a895-3b928dfd3b81","system_id":"levelo_inurba_marseille","lat":43.27994,"lon":5.41663,"is_reserved":false,"is_disabled":false,"rental_uris":{"android":"levelo://app?vid=a8042ec9-7299-4841-a895-3b928dfd3b81","ios":"levelo://app?vid=a8042ec9-7299-4841-a895-3b928dfd3b81"},"vehicle_type_id":"4","last_reported":1743361606,"current_range_meters":10000,"station_id":"ce4bho12rcd13ifvqh1g","pricing_plan_id":"cebpf4jnsgd1na2vs0mg"},{"bike_id":"a82f1a84-6421-4152-8204-8934c8757acb","system_id":"levelo_inurba_marseille","lat":43.29462,"lon":5.3862,"is_reserved":false,"is_disabled":false,"rental_uris":{"android":"levelo://app?vid=a82f1a84-6421-4152-8204-8934c8757acb","ios":"levelo://app?vid=a82f1a84-6421-4152-8204-8934c8757acb"},"vehicle_type_id":"4","last_reported":1743361606,"current_range_meters":10000,"station_id":"ce4bh2h2rcd13ifvqdh0","pricing_plan_id":"cebpf4jnsgd1na2vs0mg"},{"bike_id":"f20be197-cc22-4162-900e-9b71bfa5d3f0","system_id":"levelo_inurba_marseille","lat":43.31368,"lon":5.38494,"is_reserved":false,"is_disabled":false,"rental_uris":{"android":"levelo://app?vid=f20be197-cc22-4162-900e-9b71bfa5d3f0","ios":"levelo://app?vid=f20be197-cc22-4162-900e-9b71bfa5d3f0"},"vehicle_type_id":"4","last_reported":1743361606,"current_range_meters":9600,"station_id":"ce4bgt92rcd13ifvqcf0","pricing_plan_id":"cebpf4jnsgd1na2vs0mg"},{"bike_id":"cda4eba6-d1c5-4f94-ba6f-be65d0ac5843","system_id":"levelo_inurba_marseille","lat":43.2903,"lon":5.39971,"is_reserved":false,"is_disabled":false,"rental_uris":{"android":"levelo://app?vid=cda4eba6-d1c5-4f94-ba6f-be65d0ac5843","ios":"levelo://app?vid=cda4eba6-d1c5-4f94-ba6f-be65d0ac5843"},"vehicle_type_id":"4","last_reported":1743361606,"current_range_meters":10000,"station_id":"ce4bh392rcd13ifvqdm0","pricing_plan_id":"cebpf4jnsgd1na2vs0mg"},{"bike_id":"8fbb4551-dd9a-4744-8678-180e1417b764","system_id":"levelo_inurba_marseille","lat":43.29074,"lon":5.37163,"is_reserved":false,"is_disabled":false,"rental_uris":{"android":"levelo://app?vid=8fbb4551-dd9a-4744-8678-180e1417b764","ios":"levelo://app?vid=8fbb4551-dd9a-4744-8678-180e1417b764"},"vehicle_type_id":"4","last_reported":1743361606,"current_range_meters":10000,"station_id":"ce4bh5p2rcd13ifvqe4g","pricing_plan_id":"cebpf4jnsgd1na2vs0mg"},{"bike_id":"67f6ad16-73d8-49e4-8119-f6692e87ac6e","system_id":"levelo_inurba_marseille","lat":43.27073,"lon":5.42277,"is_reserved":false,"is_disabled":false,"rental_uris":{"android":"levelo://app?vid=67f6ad16-73d8-49e4-8119-f6692e87ac6e","ios":"levelo://app?vid=67f6ad16-73d8-49e4-8119-f6692e87ac6e"},"vehicle_type_id":"4","last_reported":1743361606,"current_range_meters":10000,"station_id":"ce4bhk92rcd13ifvqgb0","pricing_plan_id":"cebpf4jnsgd1na2vs0mg"},{"bike_id":"40881d62-3932-4c0e-8726-5642ad02d688","system_id":"levelo_inurba_marseille","lat":43.25114,"lon":5.40322,"is_reserved":false,"is_disabled":false,"rental_uris":{"android":"levelo://app?vid=40881d62-3932-4c0e-8726-5642ad02d688","ios":"levelo://app?vid=40881d62-3932-4c0e-8726-5642ad02d688"},"vehicle_type_id":"4","last_reported":1743361606,"current_range_meters":9600,"station_id":"ce4bhlh2rcd13ifvqgig","pricing_plan_id":"cebpf4jnsgd1na2vs0mg"},{"bike_id":"f6152e8e-cc03-4975-bcce-16b780b18a8c","system_id":"levelo_inurba_marseille","lat":43.29619,"lon":5.37164,"is_reserved":false,"is_disabled":false,"rental_uris":{"android":"levelo://app?vid=f6152e8e-cc03-4975-bcce-16b780b18a8c","ios":"levelo://app?vid=f6152e8e-cc03-4975-bcce-16b780b18a8c"},"vehicle_type_id":"4","last_reported":1743361606,"current_range_meters":10000,"station_id":"ce4bgnh2rcd13ifvqc0g","pricing_plan_id":"cebpf4jnsgd1na2vs0mg"},{"bike_id":"871f3035-10bb-4a28-afa0-18619600e1a6","system_id":"levelo_inurba_marseille","lat":43.29967,"lon":5.36525,"is_reserved":false,"is_disabled":true,"rental_uris":{"android":"levelo://app?vid=871f3035-10bb-4a28-afa0-18619600e1a6","ios":"levelo://app?vid=871f3035-10bb-4a28-afa0-18619600e1a6"},"vehicle_type_id":"4","last_reported":1743361606,"current_range_meters":10800,"station_id":"ce4bgm92rcd13ifvqbr0","pricing_plan_id":"cebpf4jnsgd1na2vs0mg"},{"bike_id":"b72d1ec1-9181-4a92-b5f4-0cf9ff9f577e","system_id":"levelo_inurba_marseille","lat":43.28339,"lon":5.38091,"is_reserved":false,"is_disabled":false,"rental_uris":{"android":"levelo://app?vid=b72d1ec1-9181-4a92-b5f4-0cf9ff9f577e","ios":"levelo://app?vid=b72d1ec1-9181-4a92-b5f4-0cf9ff9f577e"},"vehicle_type_id":"4","last_reported":1743361606,"current_range_meters":10800,"station_id":"ce4bh412rcd13ifvqdr0","pricing_plan_id":"cebpf4jnsgd1na2vs0mg"},{"bike_id":"2403089b-07d2-4817-842f-5393e534470e","system_id":"levelo_inurba_marseille","lat":43.28016,"lon":5.41643,"is_reserved":false,"is_disabled":false,"rental_uris":{"android":"levelo://app?vid=2403089b-07d2-4817-842f-5393e534470e","ios":"levelo://app?vid=2403089b-07d2-4817-842f-5393e534470e"},"vehicle_type_id":"4","last_reported":1743361606,"current_range_meters":10800,"station_id":"ce4bho12rcd13ifvqh1g","pricing_plan_id":"cebpf4jnsgd1na2vs0mg"},{"bike_id":"5a4bd2b9-e138-4602-b86d-0de180b82c69","system_id":"levelo_inurba_marseille","lat":43.27958,"lon":5.41038,"is_reserved":false,"is_disabled":false,"rental_uris":{"android":"levelo://app?vid=5a4bd2b9-e138-4602-b86d-0de180b82c69","ios":"levelo://app?vid=5a4bd2b9-e138-4602-b86d-0de180b82c69"},"vehicle_type_id":"4","last_reported":1743361606,"current_range_meters":10800,"station_id":"ce4bhnp2rcd13ifvqh0g","pricing_plan_id":"cebpf4jnsgd1na2vs0mg"},{"bike_id":"31d1ffda-fc57-425d-8609-a34c58b43efb","system_id":"levelo_inurba_marseille","lat":43.305354,"lon":5.366891,"is_reserved":false,"is_disabled":false,"rental_uris":{"android":"levelo://app?vid=31d1ffda-fc57-425d-8609-a34c58b43efb","ios":"levelo://app?vid=31d1ffda-fc57-425d-8609-a34c58b43efb"},"vehicle_type_id":"4","last_reported":1743361606,"current_range_meters":10800,"station_id":"ce4bgrp2rcd13ifvqc9g","pricing_plan_id":"cebpf4jnsgd1na2vs0mg"},{"bike_id":"d7712657-beaf-4b9d-b29c-94fc788e89a3","system_id":"levelo_inurba_marseille","lat":43.31178,"lon":5.38695,"is_reserved":false,"is_disabled":false,"rental_uris":{"android":"levelo://app?vid=d7712657-beaf-4b9d-b29c-94fc788e89a3","ios":"levelo://app?vid=d7712657-beaf-4b9d-b29c-94fc788e89a3"},"vehicle_type_id":"4","last_reported":1743361606,"current_range_meters":10800,"station_id":"ce4bgv12rcd13ifvqcp0","pricing_plan_id":"cebpf4jnsgd1na2vs0mg"},{"bike_id":"a0eb0cb7-cfd0-4c44-a801-cca8496833e5","system_id":"levelo_inurba_marseille","lat":43.23185,"lon":5.39979,"is_reserved":false,"is_disabled":false,"rental_uris":{"android":"levelo://app?vid=a0eb0cb7-cfd0-4c44-a801-cca8496833e5","ios":"levelo://app?vid=a0eb0cb7-cfd0-4c44-a801-cca8496833e5"},"vehicle_type_id":"4","last_reported":1743361606,"current_range_meters":10800,"station_id":"ce4bhn12rcd13ifvqgqg","pricing_plan_id":"cebpf4jnsgd1na2vs0mg"},{"bike_id":"932393ae-81a4-4a79-9813-f1f0a4c478f4","system_id":"levelo_inurba_marseille","lat":43.30787,"lon":5.37656,"is_reserved":false,"is_disabled":false,"rental_uris":{"android":"levelo://app?vid=932393ae-81a4-4a79-9813-f1f0a4c478f4","ios":"levelo://app?vid=932393ae-81a4-4a79-9813-f1f0a4c478f4"},"vehicle_type_id":"4","last_reported":1743361606,"current_range_meters":10800,"station_id":"ce4bgv92rcd13ifvqcq0","pricing_plan_id":"cebpf4jnsgd1na2vs0mg"},{"bike_id":"47fb1c0d-8a99-421b-935f-181e77033f38","system_id":"levelo_inurba_marseille","lat":43.25861,"lon":5.39902,"is_reserved":false,"is_disabled":false,"rental_uris":{"android":"levelo://app?vid=47fb1c0d-8a99-421b-935f-181e77033f38","ios":"levelo://app?vid=47fb1c0d-8a99-421b-935f-181e77033f38"},"vehicle_type_id":"4","last_reported":1743361606,"current_range_meters":10800,"station_id":"ce4bhl92rcd13ifvqghg","pricing_plan_id":"cebpf4jnsgd1na2vs0mg"},{"bike_id":"04b7bfbb-b6b7-434a-927a-c928814975bb","system_id":"levelo_inurba_marseille","lat":43.2455,"lon":5.39536,"is_reserved":false,"is_disabled":false,"rental_uris":{"android":"levelo://app?vid=04b7bfbb-b6b7-434a-927a-c928814975bb","ios":"levelo://app?vid=04b7bfbb-b6b7-434a-927a-c928814975bb"},"vehicle_type_id":"4","last_reported":1743361606,"current_range_meters":10800,"station_id":"ce4bhlp2rcd13ifvqgjg","pricing_plan_id":"cebpf4jnsgd1na2vs0mg"},{"bike_id":"ad432b4f-0efb-41ff-8628-c6cfaf2fe745","system_id":"levelo_inurba_marseille","lat":43.30896,"lon":5.37217,"is_reserved":false,"is_disabled":false,"rental_uris":{"android":"levelo://app?vid=ad432b4f-0efb-41ff-8628-c6cfaf2fe745","ios":"levelo://app?vid=ad432b4f-0efb-41ff-8628-c6cfaf2fe745"},"vehicle_type_id":"4","last_reported":1743361606,"current_range_meters":10800,"station_id":"ce4bguh2rcd13ifvqckg","pricing_plan_id":"cebpf4jnsgd1na2vs0mg"},{"bike_id":"07742a93-8c33-4b3f-91a0-8165edbd7762","system_id":"levelo_inurba_marseille","lat":43.2905,"lon":5.39972,"is_reserved":false,"is_disabled":false,"rental_uris":{"android":"levelo://app?vid=07742a93-8c33-4b3f-91a0-8165edbd7762","ios":"levelo://app?vid=07742a93-8c33-4b3f-91a0-8165edbd7762"},"vehicle_type_id":"4","last_reported":1743361606,"current_range_meters":11200,"station_id":"ce4bh392rcd13ifvqdm0","pricing_plan_id":"cebpf4jnsgd1na2vs0mg"},{"bike_id":"a6c1a1e6-a80b-40bf-a4c6-f001e7ae32ed","system_id":"levelo_inurba_marseille","lat":43.29265,"lon":5.37617,"is_reserved":false,"is_disabled":false,"rental_uris":{"android":"levelo://app?vid=a6c1a1e6-a80b-40bf-a4c6-f001e7ae32ed","ios":"levelo://app?vid=a6c1a1e6-a80b-40bf-a4c6-f001e7ae32ed"},"vehicle_type_id":"4","last_reported":1743361606,"current_range_meters":11200,"station_id":"ce4bgi12rcd13ifvqb80","pricing_plan_id":"cebpf4jnsgd1na2vs0mg"},{"bike_id":"bef5fed9-fcd2-40e4-89d8-30fe95ac5e83","system_id":"levelo_inurba_marseille","lat":43.29439,"lon":5.38644,"is_reserved":false,"is_disabled":false,"rental_uris":{"android":"levelo://app?vid=bef5fed9-fcd2-40e4-89d8-30fe95ac5e83","ios":"levelo://app?vid=bef5fed9-fcd2-40e4-89d8-30fe95ac5e83"},"vehicle_type_id":"4","last_reported":1743361606,"current_range_meters":11200,"station_id":"ce4bh2h2rcd13ifvqdh0","pricing_plan_id":"cebpf4jnsgd1na2vs0mg"},{"bike_id":"76859129-4009-4843-90a4-dc4d2b65271a","system_id":"levelo_inurba_marseille","lat":43.24161,"lon":5.36398,"is_reserved":false,"is_disabled":false,"rental_uris":{"android":"levelo://app?vid=76859129-4009-4843-90a4-dc4d2b65271a","ios":"levelo://app?vid=76859129-4009-4843-90a4-dc4d2b65271a"},"vehicle_type_id":"4","last_reported":1743361606,"current_range_meters":11200,"station_id":"cpo36qri1sfpv3e86is0","pricing_plan_id":"cebpf4jnsgd1na2vs0mg"},{"bike_id":"7ca6f145-aad1-46a9-862f-db9fe95e22ed","system_id":"levelo_inurba_marseille","lat":43.32122,"lon":5.36784,"is_reserved":false,"is_disabled":false,"rental_uris":{"android":"levelo://app?vid=7ca6f145-aad1-46a9-862f-db9fe95e22ed","ios":"levelo://app?vid=7ca6f145-aad1-46a9-862f-db9fe95e22ed"},"vehicle_type_id":"4","last_reported":1743361606,"current_range_meters":11200,"station_id":"ce4bhrh2rcd13ifvqhug","pricing_plan_id":"cebpf4jnsgd1na2vs0mg"},{"bike_id":"b0e8312c-3dc0-4fa7-b04f-6d543d14ffc5","system_id":"levelo_inurba_marseille","lat":43.31531,"lon":5.38057,"is_reserved":false,"is_disabled":false,"rental_uris":{"android":"levelo://app?vid=b0e8312c-3dc0-4fa7-b04f-6d543d14ffc5","ios":"levelo://app?vid=b0e8312c-3dc0-4fa7-b04f-6d543d14ffc5"},"vehicle_type_id":"4","last_reported":1743361606,"current_range_meters":11200,"station_id":"ce4bhsp2rcd13ifvqi50","pricing_plan_id":"cebpf4jnsgd1na2vs0mg"},{"bike_id":"6165c5e1-15f4-4779-ba2f-91df8ba3f8c0","system_id":"levelo_inurba_marseille","lat":43.28923,"lon":5.42998,"is_reserved":false,"is_disabled":false,"rental_uris":{"android":"levelo://app?vid=6165c5e1-15f4-4779-ba2f-91df8ba3f8c0","ios":"levelo://app?vid=6165c5e1-15f4-4779-ba2f-91df8ba3f8c0"},"vehicle_type_id":"4","last_reported":1743361606,"current_range_meters":11200,"station_id":"","pricing_plan_id":"cebpf4jnsgd1na2vs0mg"},{"bike_id":"fc91984a-ca60-482c-8b4c-39732d1fd181","system_id":"levelo_inurba_marseille","lat":43.28421,"lon":5.37517,"is_reserved":false,"is_disabled":false,"rental_uris":{"android":"levelo://app?vid=fc91984a-ca60-482c-8b4c-39732d1fd181","ios":"levelo://app?vid=fc91984a-ca60-482c-8b4c-39732d1fd181"},"vehicle_type_id":"4","last_reported":1743361606,"current_range_meters":11200,"station_id":"ce4bh412rcd13ifvqds0","pricing_plan_id":"cebpf4jnsgd1na2vs0mg"},{"bike_id":"a812e12a-7d75-4408-802e-ca32c28c3efc","system_id":"levelo_inurba_marseille","lat":43.24185,"lon":5.39736,"is_reserved":false,"is_disabled":false,"rental_uris":{"android":"levelo://app?vid=a812e12a-7d75-4408-802e-ca32c28c3efc","ios":"levelo://app?vid=a812e12a-7d75-4408-802e-ca32c28c3efc"},"vehicle_type_id":"4","last_reported":1743361606,"current_range_meters":11200,"station_id":"ce4bhn12rcd13ifvqgpg","pricing_plan_id":"cebpf4jnsgd1na2vs0mg"},{"bike_id":"8c3ce736-3e79-4c07-978f-c2984e9e31fd","system_id":"levelo_inurba_marseille","lat":43.29421,"lon":5.3864,"is_reserved":false,"is_disabled":false,"rental_uris":{"android":"levelo://app?vid=8c3ce736-3e79-4c07-978f-c2984e9e31fd","ios":"levelo://app?vid=8c3ce736-3e79-4c07-978f-c2984e9e31fd"},"vehicle_type_id":"4","last_reported":1743361606,"current_range_meters":11200,"station_id":"ce4bh2h2rcd13ifvqdh0","pricing_plan_id":"cebpf4jnsgd1na2vs0mg"},{"bike_id":"18e016ac-c7c0-47bb-a148-a50de9650aac","system_id":"levelo_inurba_marseille","lat":43.30953,"lon":5.39055,"is_reserved":false,"is_disabled":false,"rental_uris":{"android":"levelo://app?vid=18e016ac-c7c0-47bb-a148-a50de9650aac","ios":"levelo://app?vid=18e016ac-c7c0-47bb-a148-a50de9650aac"},"vehicle_type_id":"4","last_reported":1743361606,"current_range_meters":11200,"station_id":"ce4bgup2rcd13ifvqco0","pricing_plan_id":"cebpf4jnsgd1na2vs0mg"},{"bike_id":"064d8df1-45b0-46b9-844d-e46523b6364e","system_id":"levelo_inurba_marseille","lat":43.3024,"lon":5.40053,"is_reserved":false,"is_disabled":false,"rental_uris":{"android":"levelo://app?vid=064d8df1-45b0-46b9-844d-e46523b6364e","ios":"levelo://app?vid=064d8df1-45b0-46b9-844d-e46523b6364e"},"vehicle_type_id":"4","last_reported":1743361606,"current_range_meters":11200,"station_id":"ce4bgvh2rcd13ifvqcs0","pricing_plan_id":"cebpf4jnsgd1na2vs0mg"},{"bike_id":"49a08e72-49ab-4ca8-b02f-671184d55693","system_id":"levelo_inurba_marseille","lat":43.28724,"lon":5.37942,"is_reserved":false,"is_disabled":false,"rental_uris":{"android":"levelo://app?vid=49a08e72-49ab-4ca8-b02f-671184d55693","ios":"levelo://app?vid=49a08e72-49ab-4ca8-b02f-671184d55693"},"vehicle_type_id":"4","last_reported":1743361606,"current_range_meters":11200,"station_id":"ce4bh9p2rcd13ifvqec0","pricing_plan_id":"cebpf4jnsgd1na2vs0mg"},{"bike_id":"6415e235-d2c9-4317-b565-57df40545166","system_id":"levelo_inurba_marseille","lat":43.317497,"lon":5.387707,"is_reserved":false,"is_disabled":false,"rental_uris":{"android":"levelo://app?vid=6415e235-d2c9-4317-b565-57df40545166","ios":"levelo://app?vid=6415e235-d2c9-4317-b565-57df40545166"},"vehicle_type_id":"4","last_reported":1743361606,"current_range_meters":11200,"station_id":"","pricing_plan_id":"cebpf4jnsgd1na2vs0mg"},{"bike_id":"07ec0419-41dd-4756-91b5-f9e4802c50a1","system_id":"levelo_inurba_marseille","lat":43.29519,"lon":5.3939,"is_reserved":false,"is_disabled":false,"rental_uris":{"android":"levelo://app?vid=07ec0419-41dd-4756-91b5-f9e4802c50a1","ios":"levelo://app?vid=07ec0419-41dd-4756-91b5-f9e4802c50a1"},"vehicle_type_id":"4","last_reported":1743361606,"current_range_meters":11200,"station_id":"ce4bh292rcd13ifvqdf0","pricing_plan_id":"cebpf4jnsgd1na2vs0mg"},{"bike_id":"9714bbb0-c64a-4296-8639-4dd0fd6cf3b3","system_id":"levelo_inurba_marseille","lat":43.32004,"lon":5.38165,"is_reserved":false,"is_disabled":false,"rental_uris":{"android":"levelo://app?vid=9714bbb0-c64a-4296-8639-4dd0fd6cf3b3","ios":"levelo://app?vid=9714bbb0-c64a-4296-8639-4dd0fd6cf3b3"},"vehicle_type_id":"4","last_reported":1743361606,"current_range_meters":11600,"station_id":"ce4bhr12rcd13ifvqhpg","pricing_plan_id":"cebpf4jnsgd1na2vs0mg"},{"bike_id":"85f90ec7-6719-4076-92cb-6795717ef2bc","system_id":"levelo_inurba_marseille","lat":43.29291,"lon":5.3762,"is_reserved":false,"is_disabled":false,"rental_uris":{"android":"levelo://app?vid=85f90ec7-6719-4076-92cb-6795717ef2bc","ios":"levelo://app?vid=85f90ec7-6719-4076-92cb-6795717ef2bc"},"vehicle_type_id":"4","last_reported":1743361606,"current_range_meters":11600,"station_id":"ce4bgi12rcd13ifvqb80","pricing_plan_id":"cebpf4jnsgd1na2vs0mg"},{"bike_id":"45bf7a19-2ce0-404a-9827-a0349cb64b45","system_id":"levelo_inurba_marseille","lat":43.29566,"lon":5.39966,"is_reserved":false,"is_disabled":false,"rental_uris":{"android":"levelo://app?vid=45bf7a19-2ce0-404a-9827-a0349cb64b45","ios":"levelo://app?vid=45bf7a19-2ce0-404a-9827-a0349cb64b45"},"vehicle_type_id":"4","last_reported":1743361606,"current_range_meters":11600,"station_id":"ce4bh312rcd13ifvqdj0","pricing_plan_id":"cebpf4jnsgd1na2vs0mg"},{"bike_id":"1504cb63-c720-4f2e-877d-2d5caf1f36f6","system_id":"levelo_inurba_marseille","lat":43.3153,"lon":5.38031,"is_reserved":false,"is_disabled":false,"rental_uris":{"android":"levelo://app?vid=1504cb63-c720-4f2e-877d-2d5caf1f36f6","ios":"levelo://app?vid=1504cb63-c720-4f2e-877d-2d5caf1f36f6"},"vehicle_type_id":"4","last_reported":1743361606,"current_range_meters":11600,"station_id":"ce4bhsp2rcd13ifvqi50","pricing_plan_id":"cebpf4jnsgd1na2vs0mg"},{"bike_id":"65211e1b-adfc-41ad-a98f-a23175f7ffaa","system_id":"levelo_inurba_marseille","lat":43.31334,"lon":5.39694,"is_reserved":false,"is_disabled":false,"rental_uris":{"android":"levelo://app?vid=65211e1b-adfc-41ad-a98f-a23175f7ffaa","ios":"levelo://app?vid=65211e1b-adfc-41ad-a98f-a23175f7ffaa"},"vehicle_type_id":"4","last_reported":1743361606,"current_range_meters":11200,"station_id":"ce4bgvp2rcd13ifvqcu0","pricing_plan_id":"cebpf4jnsgd1na2vs0mg"},{"bike_id":"0b60b6cc-65bb-4e73-8958-1b351c6fdd96","system_id":"levelo_inurba_marseille","lat":43.32105,"lon":5.36768,"is_reserved":false,"is_disabled":false,"rental_uris":{"android":"levelo://app?vid=0b60b6cc-65bb-4e73-8958-1b351c6fdd96","ios":"levelo://app?vid=0b60b6cc-65bb-4e73-8958-1b351c6fdd96"},"vehicle_type_id":"4","last_reported":1743361606,"current_range_meters":11600,"station_id":"ce4bhrh2rcd13ifvqhug","pricing_plan_id":"cebpf4jnsgd1na2vs0mg"},{"bike_id":"78edf300-7db3-4c93-9631-38797c9b1771","system_id":"levelo_inurba_marseille","lat":43.2906,"lon":5.37164,"is_reserved":false,"is_disabled":true,"rental_uris":{"android":"levelo://app?vid=78edf300-7db3-4c93-9631-38797c9b1771","ios":"levelo://app?vid=78edf300-7db3-4c93-9631-38797c9b1771"},"vehicle_type_id":"4","last_reported":1743361606,"current_range_meters":11600,"station_id":"ce4bh5p2rcd13ifvqe4g","pricing_plan_id":"cebpf4jnsgd1na2vs0mg"},{"bike_id":"204ecd7d-d79a-4494-8305-7c83c69add7d","system_id":"levelo_inurba_marseille","lat":43.25672,"lon":5.41987,"is_reserved":false,"is_disabled":false,"rental_uris":{"android":"levelo://app?vid=204ecd7d-d79a-4494-8305-7c83c69add7d","ios":"levelo://app?vid=204ecd7d-d79a-4494-8305-7c83c69add7d"},"vehicle_type_id":"4","last_reported":1743361606,"current_range_meters":6800,"station_id":"","pricing_plan_id":"cebpf4jnsgd1na2vs0mg"},{"bike_id":"b03ddc25-8561-4144-bc05-fa463b274d27","system_id":"levelo_inurba_marseille","lat":43.28933,"lon":5.36631,"is_reserved":false,"is_disabled":false,"rental_uris":{"android":"levelo://app?vid=b03ddc25-8561-4144-bc05-fa463b274d27","ios":"levelo://app?vid=b03ddc25-8561-4144-bc05-fa463b274d27"},"vehicle_type_id":"4","last_reported":1743361606,"current_range_meters":12000,"station_id":"ce4bhap2rcd13ifvqek0","pricing_plan_id":"cebpf4jnsgd1na2vs0mg"},{"bike_id":"8800990b-0588-4701-9f9b-d00ff201f1bf","system_id":"levelo_inurba_marseille","lat":43.31757,"lon":5.3912,"is_reserved":false,"is_disabled":false,"rental_uris":{"android":"levelo://app?vid=8800990b-0588-4701-9f9b-d00ff201f1bf","ios":"levelo://app?vid=8800990b-0588-4701-9f9b-d00ff201f1bf"},"vehicle_type_id":"4","last_reported":1743361606,"current_range_meters":12000,"station_id":"","pricing_plan_id":"cebpf4jnsgd1na2vs0mg"},{"bike_id":"3e2fdd7e-36df-4e64-a5bc-809e51548176","system_id":"levelo_inurba_marseille","lat":43.29623,"lon":5.37161,"is_reserved":false,"is_disabled":false,"rental_uris":{"android":"levelo://app?vid=3e2fdd7e-36df-4e64-a5bc-809e51548176","ios":"levelo://app?vid=3e2fdd7e-36df-4e64-a5bc-809e51548176"},"vehicle_type_id":"4","last_reported":1743361606,"current_range_meters":12000,"station_id":"ce4bgnh2rcd13ifvqc0g","pricing_plan_id":"cebpf4jnsgd1na2vs0mg"},{"bike_id":"9938de39-9b44-42c0-8aa2-b4011fe2a576","system_id":"levelo_inurba_marseille","lat":43.30089,"lon":5.39067,"is_reserved":false,"is_disabled":false,"rental_uris":{"android":"levelo://app?vid=9938de39-9b44-42c0-8aa2-b4011fe2a576","ios":"levelo://app?vid=9938de39-9b44-42c0-8aa2-b4011fe2a576"},"vehicle_type_id":"4","last_reported":1743361606,"current_range_meters":12000,"station_id":"ce4bh192rcd13ifvqdb0","pricing_plan_id":"cebpf4jnsgd1na2vs0mg"},{"bike_id":"12cd2614-5759-4501-9c23-d3351a7cc7df","system_id":"levelo_inurba_marseille","lat":43.30578,"lon":5.38464,"is_reserved":false,"is_disabled":true,"rental_uris":{"android":"levelo://app?vid=12cd2614-5759-4501-9c23-d3351a7cc7df","ios":"levelo://app?vid=12cd2614-5759-4501-9c23-d3351a7cc7df"},"vehicle_type_id":"4","last_reported":1743361606,"current_range_meters":12000,"station_id":"ce4bgg92rcd13ifvqb30","pricing_plan_id":"cebpf4jnsgd1na2vs0mg"},{"bike_id":"0aa5d244-d05c-4693-b730-cb7287eaecdf","system_id":"levelo_inurba_marseille","lat":43.2863,"lon":5.35122,"is_reserved":false,"is_disabled":true,"rental_uris":{"android":"levelo://app?vid=0aa5d244-d05c-4693-b730-cb7287eaecdf","ios":"levelo://app?vid=0aa5d244-d05c-4693-b730-cb7287eaecdf"},"vehicle_type_id":"4","last_reported":1743361606,"current_range_meters":12000,"station_id":"ce4bhch2rcd13ifvqeug","pricing_plan_id":"cebpf4jnsgd1na2vs0mg"},{"bike_id":"1ca654ae-dc4d-4362-acdb-676b4062b92d","system_id":"levelo_inurba_marseille","lat":43.303185,"lon":5.369019,"is_reserved":false,"is_disabled":false,"rental_uris":{"android":"levelo://app?vid=1ca654ae-dc4d-4362-acdb-676b4062b92d","ios":"levelo://app?vid=1ca654ae-dc4d-4362-acdb-676b4062b92d"},"vehicle_type_id":"4","last_reported":1743361606,"current_range_meters":12000,"station_id":"ce4bgqh2rcd13ifvqc5g","pricing_plan_id":"cebpf4jnsgd1na2vs0mg"},{"bike_id":"fb0e2782-64d8-47c2-8a78-bad86b5dcc20","system_id":"levelo_inurba_marseille","lat":43.3212,"lon":5.36764,"is_reserved":false,"is_disabled":false,"rental_uris":{"android":"levelo://app?vid=fb0e2782-64d8-47c2-8a78-bad86b5dcc20","ios":"levelo://app?vid=fb0e2782-64d8-47c2-8a78-bad86b5dcc20"},"vehicle_type_id":"4","last_reported":1743361606,"current_range_meters":12000,"station_id":"ce4bhrh2rcd13ifvqhug","pricing_plan_id":"cebpf4jnsgd1na2vs0mg"},{"bike_id":"313c42f7-cd5a-4794-be6a-120fc723617e","system_id":"levelo_inurba_marseille","lat":43.29032,"lon":5.38155,"is_reserved":false,"is_disabled":false,"rental_uris":{"android":"levelo://app?vid=313c42f7-cd5a-4794-be6a-120fc723617e","ios":"levelo://app?vid=313c42f7-cd5a-4794-be6a-120fc723617e"},"vehicle_type_id":"4","last_reported":1743361606,"current_range_meters":12000,"station_id":"ce4bh4p2rcd13ifvqe1g","pricing_plan_id":"cebpf4jnsgd1na2vs0mg"},{"bike_id":"c4631107-28b0-44c3-97d0-36fbacd71819","system_id":"levelo_inurba_marseille","lat":43.28731,"lon":5.36088,"is_reserved":false,"is_disabled":false,"rental_uris":{"android":"levelo://app?vid=c4631107-28b0-44c3-97d0-36fbacd71819","ios":"levelo://app?vid=c4631107-28b0-44c3-97d0-36fbacd71819"},"vehicle_type_id":"4","last_reported":1743361606,"current_range_meters":12000,"station_id":"cki0cbj6b192h4jlfktg","pricing_plan_id":"cebpf4jnsgd1na2vs0mg"},{"bike_id":"ba1107aa-9b1f-4710-bb75-05314e757fc6","system_id":"levelo_inurba_marseille","lat":43.31693,"lon":5.37258,"is_reserved":false,"is_disabled":false,"rental_uris":{"android":"levelo://app?vid=ba1107aa-9b1f-4710-bb75-05314e757fc6","ios":"levelo://app?vid=ba1107aa-9b1f-4710-bb75-05314e757fc6"},"vehicle_type_id":"4","last_reported":1743361606,"current_range_meters":12000,"station_id":"","pricing_plan_id":"cebpf4jnsgd1na2vs0mg"},{"bike_id":"b3e97410-c1b2-4369-b878-0aa5bbd817bc","system_id":"levelo_inurba_marseille","lat":43.284661,"lon":5.358942,"is_reserved":false,"is_disabled":true,"rental_uris":{"android":"levelo://app?vid=b3e97410-c1b2-4369-b878-0aa5bbd817bc","ios":"levelo://app?vid=b3e97410-c1b2-4369-b878-0aa5bbd817bc"},