{"last_updated":1734818852,"ttl":60,"version":"2.2","data":{"bikes":[{"bike_id":"8dfbf6ba-baab-4e6f-9062-13839afa469f","system_id":"levelo_inurba_marseille","lat":43.290419,"lon":5.359106,"is_reserved":false,"is_disabled":false,"rental_uris":{"android":"levelo://app?vid=8dfbf6ba-baab-4e6f-9062-13839afa469f","ios":"levelo://app?vid=8dfbf6ba-baab-4e6f-9062-13839afa469f"},"vehicle_type_id":"4","last_reported":1734818852,"current_range_meters":39200,"station_id":"ce4bha92rcd13ifvqeg0","pricing_plan_id":"cebpf4jnsgd1na2vs0mg"},{"bike_id":"a1863d2b-2386-46ce-a724-ccf136a2a31b","system_id":"levelo_inurba_marseille","lat":43.29446,"lon":5.39737,"is_reserved":false,"is_disabled":false,"rental_uris":{"android":"levelo://app?vid=a1863d2b-2386-46ce-a724-ccf136a2a31b","ios":"levelo://app?vid=a1863d2b-2386-46ce-a724-ccf136a2a31b"},"vehicle_type_id":"4","last_reported":1734818852,"current_range_meters":26000,"station_id":"ce4bh3h2rcd13ifvqdo0","pricing_plan_id":"cebpf4jnsgd1na2vs0mg"},{"bike_id":"b5251cd0-66bc-4e10-9cd1-311b5de694fa","system_id":"levelo_inurba_marseille","lat":43.27617,"lon":5.36119,"is_reserved":false,"is_disabled":false,"rental_uris":{"android":"levelo://app?vid=b5251cd0-66bc-4e10-9cd1-311b5de694fa","ios":"levelo://app?vid=b5251cd0-66bc-4e10-9cd1-311b5de694fa"},"vehicle_type_id":"4","last_reported":1734818852,"current_range_meters":24400,"station_id":"ce4bgj92rcd13ifvqbe0","pricing_plan_id":"cebpf4jnsgd1na2vs0mg"},{"bike_id":"56ed354a-f7a3-45be-a584-68f46dbdfda3","system_id":"levelo_inurba_marseille","lat":43.29551,"lon":5.42273,"is_reserved":false,"is_disabled":false,"rental_uris":{"android":"levelo://app?vid=56ed354a-f7a3-45be-a584-68f46dbdfda3","ios":"levelo://app?vid=56ed354a-f7a3-45be-a584-68f46dbdfda3"},"vehicle_type_id":"4","last_reported":1734818852,"current_range_meters":20000,"station_id":"ce4bhph2rcd13ifvqhdg","pricing_plan_id":"cebpf4jnsgd1na2vs0mg"},{"bike_id":"e64f6468-408e-43ac-98fa-e8b6042b898b","system_id":"levelo_inurba_marseille","lat":43.33614,"lon":5.41036,"is_reserved":false,"is_disabled":false,"rental_uris":{"android":"levelo://app?vid=e64f6468-408e-43ac-98fa-e8b6042b898b","ios":"levelo://app?vid=e64f6468-408e-43ac-98fa-e8b6042b898b"},"vehicle_type_id":"4","last_reported":1734818852,"current_range_meters":28800,"station_id":"ce4bhqh2rcd13ifvqhmg","pricing_plan_id":"cebpf4jnsgd1na2vs0mg"},{"bike_id":"772a9839-8073-421a-bf69-06529f77ba3c","system_id":"levelo_inurba_marseille","lat":43.29424,"lon":5.38626,"is_reserved":false,"is_disabled":false,"rental_uris":{"android":"levelo://app?vid=772a9839-8073-421a-bf69-06529f77ba3c","ios":"levelo://app?vid=772a9839-8073-421a-bf69-06529f77ba3c"},"vehicle_type_id":"4","last_reported":1734818852,"current_range_meters":32400,"station_id":"ce4bh2h2rcd13ifvqdh0","pricing_plan_id":"cebpf4jnsgd1na2vs0mg"},{"bike_id":"c4be5cb7-c33d-4772-9180-63dfe76361cd","system_id":"levelo_inurba_marseille","lat":43.32335,"lon":5.40619,"is_reserved":false,"is_disabled":false,"rental_uris":{"android":"levelo://app?vid=c4be5cb7-c33d-4772-9180-63dfe76361cd","ios":"levelo://app?vid=c4be5cb7-c33d-4772-9180-63dfe76361cd"},"vehicle_type_id":"4","last_reported":1734818852,"current_range_meters":38800,"station_id":"ce4bhq92rcd13ifvqhjg","pricing_plan_id":"cebpf4jnsgd1na2vs0mg"},{"bike_id":"5b10e74a-ebae-4d31-82df-a604723be50e","system_id":"levelo_inurba_marseille","lat":43.29529,"lon":5.38548,"is_reserved":false,"is_disabled":false,"rental_uris":{"android":"levelo://app?vid=5b10e74a-ebae-4d31-82df-a604723be50e","ios":"levelo://app?vid=5b10e74a-ebae-4d31-82df-a604723be50e"},"vehicle_type_id":"4","last_reported":1734818852,"current_range_meters":36800,"station_id":"ce4bgih2rcd13ifvqba0","pricing_plan_id":"cebpf4jnsgd1na2vs0mg"},{"bike_id":"2c7e79e8-a77a-4b0b-afd8-d3f3db892b15","system_id":"levelo_inurba_marseille","lat":43.24683,"lon":5.38138,"is_reserved":false,"is_disabled":false,"rental_uris":{"android":"levelo://app?vid=2c7e79e8-a77a-4b0b-afd8-d3f3db892b15","ios":"levelo://app?vid=2c7e79e8-a77a-4b0b-afd8-d3f3db892b15"},"vehicle_type_id":"4","last_reported":1734818852,"current_range_meters":32800,"station_id":"ce4bhih2rcd13ifvqfr0","pricing_plan_id":"cebpf4jnsgd1na2vs0mg"},{"bike_id":"cd938218-942c-40ce-9e57-61f690e38662","system_id":"levelo_inurba_marseille","lat":43.28348,"lon":5.38106,"is_reserved":false,"is_disabled":false,"rental_uris":{"android":"levelo://app?vid=cd938218-942c-40ce-9e57-61f690e38662","ios":"levelo://app?vid=cd938218-942c-40ce-9e57-61f690e38662"},"vehicle_type_id":"4","last_reported":1734818852,"current_range_meters":22400,"station_id":"ce4bh412rcd13ifvqdr0","pricing_plan_id":"cebpf4jnsgd1na2vs0mg"},{"bike_id":"96f67906-c94f-4a78-ae6e-fdff28a17019","system_id":"levelo_inurba_marseille","lat":43.337444,"lon":5.374475,"is_reserved":false,"is_disabled":false,"rental_uris":{"android":"levelo://app?vid=96f67906-c94f-4a78-ae6e-fdff28a17019","ios":"levelo://app?vid=96f67906-c94f-4a78-ae6e-fdff28a17019"},"vehicle_type_id":"4","last_reported":1734818852,"current_range_meters":36800,"station_id":"","pricing_plan_id":"cebpf4jnsgd1na2vs0mg"},{"bike_id":"6d401513-66ba-4f40-af76-25e509695a78","system_id":"levelo_inurba_marseille","lat":43.29225,"lon":5.36064,"is_reserved":false,"is_disabled":false,"rental_uris":{"android":"levelo://app?vid=6d401513-66ba-4f40-af76-25e509695a78","ios":"levelo://app?vid=6d401513-66ba-4f40-af76-25e509695a78"},"vehicle_type_id":"4","last_reported":1734818852,"current_range_meters":22000,"station_id":"ce4bhbh2rcd13ifvqeqg","pricing_plan_id":"cebpf4jnsgd1na2vs0mg"},{"bike_id":"4cb96e9d-c9e6-4a5d-939f-8e9658309e35","system_id":"levelo_inurba_marseille","lat":43.2922,"lon":5.36035,"is_reserved":false,"is_disabled":false,"rental_uris":{"android":"levelo://app?vid=4cb96e9d-c9e6-4a5d-939f-8e9658309e35","ios":"levelo://app?vid=4cb96e9d-c9e6-4a5d-939f-8e9658309e35"},"vehicle_type_id":"4","last_reported":1734818852,"current_range_meters":33200,"station_id":"ce4bhbh2rcd13ifvqeqg","pricing_plan_id":"cebpf4jnsgd1na2vs0mg"},{"bike_id":"7fecf7cd-57c8-4918-98c5-481fc257cd30","system_id":"levelo_inurba_marseille","lat":43.307909,"lon":5.376454,"is_reserved":false,"is_disabled":true,"rental_uris":{"android":"levelo://app?vid=7fecf7cd-57c8-4918-98c5-481fc257cd30","ios":"levelo://app?vid=7fecf7cd-57c8-4918-98c5-481fc257cd30"},"vehicle_type_id":"4","last_reported":1734818852,"current_range_meters":11600,"station_id":"","pricing_plan_id":"cebpf4jnsgd1na2vs0mg"},{"bike_id":"b27cd410-1a10-4c2d-9496-484cc8899826","system_id":"levelo_inurba_marseille","lat":43.24669,"lon":5.38162,"is_reserved":false,"is_disabled":false,"rental_uris":{"android":"levelo://app?vid=b27cd410-1a10-4c2d-9496-484cc8899826","ios":"levelo://app?vid=b27cd410-1a10-4c2d-9496-484cc8899826"},"vehicle_type_id":"4","last_reported":1734818852,"current_range_meters":6800,"station_id":"ce4bhih2rcd13ifvqfr0","pricing_plan_id":"cebpf4jnsgd1na2vs0mg"},{"bike_id":"5481ebd9-b3a3-4db6-ba37-c92c821046b1","system_id":"levelo_inurba_marseille","lat":43.27615,"lon":5.36109,"is_reserved":false,"is_disabled":false,"rental_uris":{"android":"levelo://app?vid=5481ebd9-b3a3-4db6-ba37-c92c821046b1","ios":"levelo://app?vid=5481ebd9-b3a3-4db6-ba37-c92c821046b1"},"vehicle_type_id":"4","last_reported":1734818852,"current_range_meters":39200,"station_id":"ce4bgj92rcd13ifvqbe0","pricing_plan_id":"cebpf4jnsgd1na2vs0mg"},{"bike_id":"ac9ae62b-7f39-42e7-b9ec-75e7356640a3","system_id":"levelo_inurba_marseille","lat":43.32107,"lon":5.36775,"is_reserved":false,"is_disabled":false,"rental_uris":{"android":"levelo://app?vid=ac9ae62b-7f39-42e7-b9ec-75e7356640a3","ios":"levelo://app?vid=ac9ae62b-7f39-42e7-b9ec-75e7356640a3"},"vehicle_type_id":"4","last_reported":1734818852,"current_range_meters":26800,"station_id":"ce4bhrh2rcd13ifvqhug","pricing_plan_id":"cebpf4jnsgd1na2vs0mg"},{"bike_id":"ed6b9481-9ab5-4afc-9b3a-e99afbac48fb","system_id":"levelo_inurba_marseille","lat":43.27069,"lon":5.42278,"is_reserved":false,"is_disabled":false,"rental_uris":{"android":"levelo://app?vid=ed6b9481-9ab5-4afc-9b3a-e99afbac48fb","ios":"levelo://app?vid=ed6b9481-9ab5-4afc-9b3a-e99afbac48fb"},"vehicle_type_id":"4","last_reported":1734818852,"current_range_meters":28400,"station_id":"ce4bhk92rcd13ifvqgb0","pricing_plan_id":"cebpf4jnsgd1na2vs0mg"},{"bike_id":"27a80574-41ac-483b-9b44-565b2f15f72c","system_id":"levelo_inurba_marseille","lat":43.29985,"lon":5.38478,"is_reserved":false,"is_disabled":false,"rental_uris":{"android":"levelo://app?vid=27a80574-41ac-483b-9b44-565b2f15f72c","ios":"levelo://app?vid=27a80574-41ac-483b-9b44-565b2f15f72c"},"vehicle_type_id":"4","last_reported":1734818852,"current_range_meters":38800,"station_id":"ce4bgj92rcd13ifvqbd0","pricing_plan_id":"cebpf4jnsgd1na2vs0mg"},{"bike_id":"a46bd0cf-4e0d-416a-8893-53123be14ef8","system_id":"levelo_inurba_marseille","lat":43.29192,"lon":5.39311,"is_reserved":false,"is_disabled":false,"rental_uris":{"android":"levelo://app?vid=a46bd0cf-4e0d-416a-8893-53123be14ef8","ios":"levelo://app?vid=a46bd0cf-4e0d-416a-8893-53123be14ef8"},"vehicle_type_id":"4","last_reported":1734818852,"current_range_meters":20800,"station_id":"ce4bh192rcd13ifvqdd0","pricing_plan_id":"cebpf4jnsgd1na2vs0mg"},{"bike_id":"843c6878-0e3f-4b01-b1b7-bbb9a0523c31","system_id":"levelo_inurba_marseille","lat":43.3266,"lon":5.40984,"is_reserved":false,"is_disabled":false,"rental_uris":{"android":"levelo://app?vid=843c6878-0e3f-4b01-b1b7-bbb9a0523c31","ios":"levelo://app?vid=843c6878-0e3f-4b01-b1b7-bbb9a0523c31"},"vehicle_type_id":"4","last_reported":1734818852,"current_range_meters":34800,"station_id":"ce4bhpp2rcd13ifvqhgg","pricing_plan_id":"cebpf4jnsgd1na2vs0mg"},{"bike_id":"122e5731-49d1-47ac-8569-8da0f2b96421","system_id":"levelo_inurba_marseille","lat":43.25728,"lon":5.41107,"is_reserved":false,"is_disabled":false,"rental_uris":{"android":"levelo://app?vid=122e5731-49d1-47ac-8569-8da0f2b96421","ios":"levelo://app?vid=122e5731-49d1-47ac-8569-8da0f2b96421"},"vehicle_type_id":"4","last_reported":1734818852,"current_range_meters":36800,"station_id":"ce4bhkp2rcd13ifvqgd0","pricing_plan_id":"cebpf4jnsgd1na2vs0mg"},{"bike_id":"db6d4cd6-324d-40d9-b2a7-d53d9856d610","system_id":"levelo_inurba_marseille","lat":43.29347,"lon":5.4284,"is_reserved":false,"is_disabled":false,"rental_uris":{"android":"levelo://app?vid=db6d4cd6-324d-40d9-b2a7-d53d9856d610","ios":"levelo://app?vid=db6d4cd6-324d-40d9-b2a7-d53d9856d610"},"vehicle_type_id":"4","last_reported":1734818852,"current_range_meters":3200,"station_id":"","pricing_plan_id":"cebpf4jnsgd1na2vs0mg"},{"bike_id":"e3a981cb-5e6b-4f46-ac4e-d9c5ad765285","system_id":"levelo_inurba_marseille","lat":43.29528,"lon":5.39399,"is_reserved":false,"is_disabled":false,"rental_uris":{"android":"levelo://app?vid=e3a981cb-5e6b-4f46-ac4e-d9c5ad765285","ios":"levelo://app?vid=e3a981cb-5e6b-4f46-ac4e-d9c5ad765285"},"vehicle_type_id":"4","last_reported":1734818852,"current_range_meters":20400,"station_id":"ce4bh292rcd13ifvqdf0","pricing_plan_id":"cebpf4jnsgd1na2vs0mg"},{"bike_id":"4e2e6240-5440-4ed7-ace9-4c9e6bd778e5","system_id":"levelo_inurba_marseille","lat":43.24078,"lon":5.37768,"is_reserved":false,"is_disabled":false,"rental_uris":{"android":"levelo://app?vid=4e2e6240-5440-4ed7-ace9-4c9e6bd778e5","ios":"levelo://app?vid=4e2e6240-5440-4ed7-ace9-4c9e6bd778e5"},"vehicle_type_id":"4","last_reported":1734818852,"current_range_meters":35600,"station_id":"ce4bhnp2rcd13ifvqgvg","pricing_plan_id":"cebpf4jnsgd1na2vs0mg"},{"bike_id":"df357b14-4c6a-4905-8927-9863400f5dca","system_id":"levelo_inurba_marseille","lat":43.25858,"lon":5.399,"is_reserved":false,"is_disabled":false,"rental_uris":{"android":"levelo://app?vid=df357b14-4c6a-4905-8927-9863400f5dca","ios":"levelo://app?vid=df357b14-4c6a-4905-8927-9863400f5dca"},"vehicle_type_id":"4","last_reported":1734818852,"current_range_meters":36400,"station_id":"ce4bhl92rcd13ifvqghg","pricing_plan_id":"cebpf4jnsgd1na2vs0mg"},{"bike_id":"710cbb4b-92a3-4fcb-a674-51cdb538a062","system_id":"levelo_inurba_marseille","lat":43.26062,"lon":5.39397,"is_reserved":false,"is_disabled":true,"rental_uris":{"android":"levelo://app?vid=710cbb4b-92a3-4fcb-a674-51cdb538a062","ios":"levelo://app?vid=710cbb4b-92a3-4fcb-a674-51cdb538a062"},"vehicle_type_id":"4","last_reported":1734818852,"current_range_meters":36800,"station_id":"ce4bhh92rcd13ifvqfj0","pricing_plan_id":"cebpf4jnsgd1na2vs0mg"},{"bike_id":"3df29660-546c-42a3-ba02-2f5ced7e58e3","system_id":"levelo_inurba_marseille","lat":43.27971,"lon":5.3876,"is_reserved":false,"is_disabled":false,"rental_uris":{"android":"levelo://app?vid=3df29660-546c-42a3-ba02-2f5ced7e58e3","ios":"levelo://app?vid=3df29660-546c-42a3-ba02-2f5ced7e58e3"},"vehicle_type_id":"4","last_reported":1734818852,"current_range_meters":28400,"station_id":"ce4bhg12rcd13ifvqf80","pricing_plan_id":"cebpf4jnsgd1na2vs0mg"},{"bike_id":"38cc51c3-e8f7-4fea-a099-15f6f5502672","system_id":"levelo_inurba_marseille","lat":43.32367,"lon":5.38881,"is_reserved":false,"is_disabled":false,"rental_uris":{"android":"levelo://app?vid=38cc51c3-e8f7-4fea-a099-15f6f5502672","ios":"levelo://app?vid=38cc51c3-e8f7-4fea-a099-15f6f5502672"},"vehicle_type_id":"4","last_reported":1734818852,"current_range_meters":38800,"station_id":"ce4bhqp2rcd13ifvqhog","pricing_plan_id":"cebpf4jnsgd1na2vs0mg"},{"bike_id":"dd52cea9-6fe3-460c-a4fc-255f18d6f38c","system_id":"levelo_inurba_marseille","lat":43.25049,"lon":5.38849,"is_reserved":false,"is_disabled":false,"rental_uris":{"android":"levelo://app?vid=dd52cea9-6fe3-460c-a4fc-255f18d6f38c","ios":"levelo://app?vid=dd52cea9-6fe3-460c-a4fc-255f18d6f38c"},"vehicle_type_id":"4","last_reported":1734818852,"current_range_meters":24800,"station_id":"","pricing_plan_id":"cebpf4jnsgd1na2vs0mg"},{"bike_id":"0fb80f13-9bd5-477b-8abb-f49413a28538","system_id":"levelo_inurba_marseille","lat":43.30436,"lon":5.3889,"is_reserved":false,"is_disabled":false,"rental_uris":{"android":"levelo://app?vid=0fb80f13-9bd5-477b-8abb-f49413a28538","ios":"levelo://app?vid=0fb80f13-9bd5-477b-8abb-f49413a28538"},"vehicle_type_id":"4","last_reported":1734818852,"current_range_meters":32400,"station_id":"ce4bgk12rcd13ifvqbi0","pricing_plan_id":"cebpf4jnsgd1na2vs0mg"},{"bike_id":"e2093eaf-d010-461b-aa40-a85f704a9b1e","system_id":"levelo_inurba_marseille","lat":43.27374,"lon":5.36247,"is_reserved":false,"is_disabled":false,"rental_uris":{"android":"levelo://app?vid=e2093eaf-d010-461b-aa40-a85f704a9b1e","ios":"levelo://app?vid=e2093eaf-d010-461b-aa40-a85f704a9b1e"},"vehicle_type_id":"4","last_reported":1734818852,"current_range_meters":38800,"station_id":"ce4bhbh2rcd13ifvqeo0","pricing_plan_id":"cebpf4jnsgd1na2vs0mg"},{"bike_id":"e14ed6e7-9a57-4e47-923b-149355f7b556","system_id":"levelo_inurba_marseille","lat":43.29005,"lon":5.35604,"is_reserved":false,"is_disabled":false,"rental_uris":{"android":"levelo://app?vid=e14ed6e7-9a57-4e47-923b-149355f7b556","ios":"levelo://app?vid=e14ed6e7-9a57-4e47-923b-149355f7b556"},"vehicle_type_id":"4","last_reported":1734818852,"current_range_meters":22800,"station_id":"ce4bhb92rcd13ifvqen0","pricing_plan_id":"cebpf4jnsgd1na2vs0mg"},{"bike_id":"a7cfd2b8-b9ad-4ad6-a840-d70d03c4d9f6","system_id":"levelo_inurba_marseille","lat":43.27979,"lon":5.41654,"is_reserved":false,"is_disabled":false,"rental_uris":{"android":"levelo://app?vid=a7cfd2b8-b9ad-4ad6-a840-d70d03c4d9f6","ios":"levelo://app?vid=a7cfd2b8-b9ad-4ad6-a840-d70d03c4d9f6"},"vehicle_type_id":"4","last_reported":1734818852,"current_range_meters":38000,"station_id":"ce4bho12rcd13ifvqh1g","pricing_plan_id":"cebpf4jnsgd1na2vs0mg"},{"bike_id":"36e164c0-80cb-4248-b925-25a4125d219e","system_id":"levelo_inurba_marseille","lat":43.31311,"lon":5.39715,"is_reserved":false,"is_disabled":false,"rental_uris":{"android":"levelo://app?vid=36e164c0-80cb-4248-b925-25a4125d219e","ios":"levelo://app?vid=36e164c0-80cb-4248-b925-25a4125d219e"},"vehicle_type_id":"4","last_reported":1734818852,"current_range_meters":39200,"station_id":"ce4bgvp2rcd13ifvqcu0","pricing_plan_id":"cebpf4jnsgd1na2vs0mg"},{"bike_id":"d36487ee-3336-4c27-a03a-67d7e71f0396","system_id":"levelo_inurba_marseille","lat":43.289464,"lon":5.366343,"is_reserved":false,"is_disabled":false,"rental_uris":{"android":"levelo://app?vid=d36487ee-3336-4c27-a03a-67d7e71f0396","ios":"levelo://app?vid=d36487ee-3336-4c27-a03a-67d7e71f0396"},"vehicle_type_id":"4","last_reported":1734818852,"current_range_meters":30800,"station_id":"ce4bhap2rcd13ifvqek0","pricing_plan_id":"cebpf4jnsgd1na2vs0mg"},{"bike_id":"3b25d84b-0030-4bea-8ce7-7a21c21d5d01","system_id":"levelo_inurba_marseille","lat":43.24801,"lon":5.37443,"is_reserved":false,"is_disabled":false,"rental_uris":{"android":"levelo://app?vid=3b25d84b-0030-4bea-8ce7-7a21c21d5d01","ios":"levelo://app?vid=3b25d84b-0030-4bea-8ce7-7a21c21d5d01"},"vehicle_type_id":"4","last_reported":1734818852,"current_range_meters":17600,"station_id":"ce4bhgh2rcd13ifvqfb0","pricing_plan_id":"cebpf4jnsgd1na2vs0mg"},{"bike_id":"f634001f-8036-463b-9cfd-6875e48f1f8d","system_id":"levelo_inurba_marseille","lat":43.29745,"lon":5.37667,"is_reserved":false,"is_disabled":false,"rental_uris":{"android":"levelo://app?vid=f634001f-8036-463b-9cfd-6875e48f1f8d","ios":"levelo://app?vid=f634001f-8036-463b-9cfd-6875e48f1f8d"},"vehicle_type_id":"4","last_reported":1734818852,"current_range_meters":16400,"station_id":"ce4bgkh2rcd13ifvqbl0","pricing_plan_id":"cebpf4jnsgd1na2vs0mg"},{"bike_id":"41d0d9f5-bb31-41f6-8358-898df39bf21c","system_id":"levelo_inurba_marseille","lat":43.25887,"lon":5.39896,"is_reserved":false,"is_disabled":false,"rental_uris":{"android":"levelo://app?vid=41d0d9f5-bb31-41f6-8358-898df39bf21c","ios":"levelo://app?vid=41d0d9f5-bb31-41f6-8358-898df39bf21c"},"vehicle_type_id":"4","last_reported":1734818852,"current_range_meters":38800,"station_id":"ce4bhl92rcd13ifvqghg","pricing_plan_id":"cebpf4jnsgd1na2vs0mg"},{"bike_id":"354d1337-1650-4fb2-8f9b-d871c40ab302","system_id":"levelo_inurba_marseille","lat":43.29929,"lon":5.41325,"is_reserved":false,"is_disabled":false,"rental_uris":{"android":"levelo://app?vid=354d1337-1650-4fb2-8f9b-d871c40ab302","ios":"levelo://app?vid=354d1337-1650-4fb2-8f9b-d871c40ab302"},"vehicle_type_id":"4","last_reported":1734818852,"current_range_meters":38400,"station_id":"ce4bhp12rcd13ifvqh9g","pricing_plan_id":"cebpf4jnsgd1na2vs0mg"},{"bike_id":"b6c864b4-2d74-4843-a929-10118d9d48af","system_id":"levelo_inurba_marseille","lat":43.25497,"lon":5.37648,"is_reserved":false,"is_disabled":false,"rental_uris":{"android":"levelo://app?vid=b6c864b4-2d74-4843-a929-10118d9d48af","ios":"levelo://app?vid=b6c864b4-2d74-4843-a929-10118d9d48af"},"vehicle_type_id":"4","last_reported":1734818852,"current_range_meters":38800,"station_id":"ce4bhh12rcd13ifvqff0","pricing_plan_id":"cebpf4jnsgd1na2vs0mg"},{"bike_id":"e724f4e5-0922-4e36-91f4-8a4c9d514ff5","system_id":"levelo_inurba_marseille","lat":43.29846,"lon":5.36238,"is_reserved":false,"is_disabled":false,"rental_uris":{"android":"levelo://app?vid=e724f4e5-0922-4e36-91f4-8a4c9d514ff5","ios":"levelo://app?vid=e724f4e5-0922-4e36-91f4-8a4c9d514ff5"},"vehicle_type_id":"4","last_reported":1734818852,"current_range_meters":39200,"station_id":"ce4bgpp2rcd13ifvqc3g","pricing_plan_id":"cebpf4jnsgd1na2vs0mg"},{"bike_id":"5a418441-3b6e-4ddf-98ce-0061b442196a","system_id":"levelo_inurba_marseille","lat":43.31173,"lon":5.38723,"is_reserved":false,"is_disabled":false,"rental_uris":{"android":"levelo://app?vid=5a418441-3b6e-4ddf-98ce-0061b442196a","ios":"levelo://app?vid=5a418441-3b6e-4ddf-98ce-0061b442196a"},"vehicle_type_id":"4","last_reported":1734818852,"current_range_meters":23200,"station_id":"ce4bgv12rcd13ifvqcp0","pricing_plan_id":"cebpf4jnsgd1na2vs0mg"},{"bike_id":"fa9c279c-e7c7-4764-8a54-d6be3fbb0a78","system_id":"levelo_inurba_marseille","lat":43.30932,"lon":5.40143,"is_reserved":false,"is_disabled":false,"rental_uris":{"android":"levelo://app?vid=fa9c279c-e7c7-4764-8a54-d6be3fbb0a78","ios":"levelo://app?vid=fa9c279c-e7c7-4764-8a54-d6be3fbb0a78"},"vehicle_type_id":"4","last_reported":1734818852,"current_range_meters":20400,"station_id":"ce4bgvp2rcd13ifvqct0","pricing_plan_id":"cebpf4jnsgd1na2vs0mg"},{"bike_id":"d98f0b8a-1ef4-43b4-85a1-12b00b5f4de1","system_id":"levelo_inurba_marseille","lat":43.28429,"lon":5.3498,"is_reserved":false,"is_disabled":false,"rental_uris":{"android":"levelo://app?vid=d98f0b8a-1ef4-43b4-85a1-12b00b5f4de1","ios":"levelo://app?vid=d98f0b8a-1ef4-43b4-85a1-12b00b5f4de1"},"vehicle_type_id":"4","last_reported":1734818852,"current_range_meters":38000,"station_id":"ce4bhbh2rcd13ifvqepg","pricing_plan_id":"cebpf4jnsgd1na2vs0mg"},{"bike_id":"dfb361fe-f637-4041-b1c6-d571444472cc","system_id":"levelo_inurba_marseille","lat":43.33025,"lon":5.3904,"is_reserved":false,"is_disabled":false,"rental_uris":{"android":"levelo://app?vid=dfb361fe-f637-4041-b1c6-d571444472cc","ios":"levelo://app?vid=dfb361fe-f637-4041-b1c6-d571444472cc"},"vehicle_type_id":"4","last_reported":1734818852,"current_range_meters":35200,"station_id":"ce4bhr92rcd13ifvqhrg","pricing_plan_id":"cebpf4jnsgd1na2vs0mg"},{"bike_id":"71bbaaf0-30fa-412b-9088-f880a672af88","system_id":"levelo_inurba_marseille","lat":43.26026,"lon":5.37549,"is_reserved":false,"is_disabled":false,"rental_uris":{"android":"levelo://app?vid=71bbaaf0-30fa-412b-9088-f880a672af88","ios":"levelo://app?vid=71bbaaf0-30fa-412b-9088-f880a672af88"},"vehicle_type_id":"4","last_reported":1734818852,"current_range_meters":38400,"station_id":"ce4bhgh2rcd13ifvqfa0","pricing_plan_id":"cebpf4jnsgd1na2vs0mg"},{"bike_id":"56a92da3-50f2-47a2-b378-0ec885fcc375","system_id":"levelo_inurba_marseille","lat":43.31532,"lon":5.38034,"is_reserved":false,"is_disabled":false,"rental_uris":{"android":"levelo://app?vid=56a92da3-50f2-47a2-b378-0ec885fcc375","ios":"levelo://app?vid=56a92da3-50f2-47a2-b378-0ec885fcc375"},"vehicle_type_id":"4","last_reported":1734818852,"current_range_meters":38800,"station_id":"ce4bhsp2rcd13ifvqi50","pricing_plan_id":"cebpf4jnsgd1na2vs0mg"},{"bike_id":"1c920c75-5c19-42c6-8349-156a408cd42d","system_id":"levelo_inurba_marseille","lat":43.30211,"lon":5.39471,"is_reserved":false,"is_disabled":false,"rental_uris":{"android":"levelo://app?vid=1c920c75-5c19-42c6-8349-156a408cd42d","ios":"levelo://app?vid=1c920c75-5c19-42c6-8349-156a408cd42d"},"vehicle_type_id":"4","last_reported":1734818852,"current_range_meters":22800,"station_id":"ce4bh0p2rcd13ifvqd70","pricing_plan_id":"cebpf4jnsgd1na2vs0mg"},{"bike_id":"425b2998-3e7f-483e-a0af-a63391fee683","system_id":"levelo_inurba_marseille","lat":43.30151,"lon":5.38788,"is_reserved":false,"is_disabled":false,"rental_uris":{"android":"levelo://app?vid=425b2998-3e7f-483e-a0af-a63391fee683","ios":"levelo://app?vid=425b2998-3e7f-483e-a0af-a63391fee683"},"vehicle_type_id":"4","last_reported":1734818852,"current_range_meters":27200,"station_id":"ce4bghh2rcd13ifvqb60","pricing_plan_id":"cebpf4jnsgd1na2vs0mg"},{"bike_id":"8efa1ff8-5022-45b3-9b20-d604901111ec","system_id":"levelo_inurba_marseille","lat":43.30312,"lon":5.36896,"is_reserved":false,"is_disabled":false,"rental_uris":{"android":"levelo://app?vid=8efa1ff8-5022-45b3-9b20-d604901111ec","ios":"levelo://app?vid=8efa1ff8-5022-45b3-9b20-d604901111ec"},"vehicle_type_id":"4","last_reported":1734818852,"current_range_meters":37600,"station_id":"ce4bgqh2rcd13ifvqc5g","pricing_plan_id":"cebpf4jnsgd1na2vs0mg"},{"bike_id":"0b6be252-fb27-4c60-a5e9-5f1fe87fb31b","system_id":"levelo_inurba_marseille","lat":43.2942,"lon":5.38606,"is_reserved":false,"is_disabled":false,"rental_uris":{"android":"levelo://app?vid=0b6be252-fb27-4c60-a5e9-5f1fe87fb31b","ios":"levelo://app?vid=0b6be252-fb27-4c60-a5e9-5f1fe87fb31b"},"vehicle_type_id":"4","last_reported":1734818852,"current_range_meters":34000,"station_id":"ce4bh2h2rcd13ifvqdh0","pricing_plan_id":"cebpf4jnsgd1na2vs0mg"},{"bike_id":"574569a8-47af-4b5a-abbf-9be9948fc833","system_id":"levelo_inurba_marseille","lat":43.28933,"lon":5.39624,"is_reserved":false,"is_disabled":false,"rental_uris":{"android":"levelo://app?vid=574569a8-47af-4b5a-abbf-9be9948fc833","ios":"levelo://app?vid=574569a8-47af-4b5a-abbf-9be9948fc833"},"vehicle_type_id":"4","last_reported":1734818852,"current_range_meters":38800,"station_id":"ce4bh3h2rcd13ifvqdn0","pricing_plan_id":"cebpf4jnsgd1na2vs0mg"},{"bike_id":"9f4dd4a1-cd02-4345-9c14-0ee7da88726b","system_id":"levelo_inurba_marseille","lat":43.29421,"lon":5.38628,"is_reserved":false,"is_disabled":false,"rental_uris":{"android":"levelo://app?vid=9f4dd4a1-cd02-4345-9c14-0ee7da88726b","ios":"levelo://app?vid=9f4dd4a1-cd02-4345-9c14-0ee7da88726b"},"vehicle_type_id":"4","last_reported":1734818852,"current_range_meters":32800,"station_id":"ce4bh2h2rcd13ifvqdh0","pricing_plan_id":"cebpf4jnsgd1na2vs0mg"},{"bike_id":"65ea5c1f-613a-43b8-9672-6e981544fe36","system_id":"levelo_inurba_marseille","lat":43.29689,"lon":5.37296,"is_reserved":false,"is_disabled":false,"rental_uris":{"android":"levelo://app?vid=65ea5c1f-613a-43b8-9672-6e981544fe36","ios":"levelo://app?vid=65ea5c1f-613a-43b8-9672-6e981544fe36"},"vehicle_type_id":"4","last_reported":1734818852,"current_range_meters":18000,"station_id":"ce4bgk12rcd13ifvqbj0","pricing_plan_id":"cebpf4jnsgd1na2vs0mg"},{"bike_id":"5de55ec3-b446-45b5-9e6a-b67b9996a2b3","system_id":"levelo_inurba_marseille","lat":43.273204,"lon":5.391037,"is_reserved":false,"is_disabled":true,"rental_uris":{"android":"levelo://app?vid=5de55ec3-b446-45b5-9e6a-b67b9996a2b3","ios":"levelo://app?vid=5de55ec3-b446-45b5-9e6a-b67b9996a2b3"},"vehicle_type_id":"4","last_reported":1734818852,"current_range_meters":35600,"station_id":"ce4bhgp2rcd13ifvqfe0","pricing_plan_id":"cebpf4jnsgd1na2vs0mg"},{"bike_id":"0e9a1840-dc0c-4e4e-958e-db0b5eeb7894","system_id":"levelo_inurba_marseille","lat":43.301,"lon":5.39073,"is_reserved":false,"is_disabled":false,"rental_uris":{"android":"levelo://app?vid=0e9a1840-dc0c-4e4e-958e-db0b5eeb7894","ios":"levelo://app?vid=0e9a1840-dc0c-4e4e-958e-db0b5eeb7894"},"vehicle_type_id":"4","last_reported":1734818852,"current_range_meters":30000,"station_id":"ce4bh192rcd13ifvqdb0","pricing_plan_id":"cebpf4jnsgd1na2vs0mg"},{"bike_id":"9daa44e7-dbcd-4dc1-8b8c-d5b1cf6bc951","system_id":"levelo_inurba_marseille","lat":43.28932,"lon":5.36635,"is_reserved":false,"is_disabled":false,"rental_uris":{"android":"levelo://app?vid=9daa44e7-dbcd-4dc1-8b8c-d5b1cf6bc951","ios":"levelo://app?vid=9daa44e7-dbcd-4dc1-8b8c-d5b1cf6bc951"},"vehicle_type_id":"4","last_reported":1734818852,"current_range_meters":37600,"station_id":"ce4bhap2rcd13ifvqek0","pricing_plan_id":"cebpf4jnsgd1na2vs0mg"},{"bike_id":"83d75582-caa3-4b45-83cd-9ad3bc6b84cf","system_id":"levelo_inurba_marseille","lat":43.28461,"lon":5.35887,"is_reserved":false,"is_disabled":false,"rental_uris":{"android":"levelo://app?vid=83d75582-caa3-4b45-83cd-9ad3bc6b84cf","ios":"levelo://app?vid=83d75582-caa3-4b45-83cd-9ad3bc6b84cf"},"vehicle_type_id":"4","last_reported":1734818852,"current_range_meters":22400,"station_id":"ce4bhah2rcd13ifvqei0","pricing_plan_id":"cebpf4jnsgd1na2vs0mg"},{"bike_id":"85225762-d7ec-4912-87cf-30f56fc88559","system_id":"levelo_inurba_marseille","lat":43.2923,"lon":5.36067,"is_reserved":false,"is_disabled":false,"rental_uris":{"android":"levelo://app?vid=85225762-d7ec-4912-87cf-30f56fc88559","ios":"levelo://app?vid=85225762-d7ec-4912-87cf-30f56fc88559"},"vehicle_type_id":"4","last_reported":1734818852,"current_range_meters":15200,"station_id":"ce4bhbh2rcd13ifvqeqg","pricing_plan_id":"cebpf4jnsgd1na2vs0mg"},{"bike_id":"5bc40c22-a9ce-44f6-b16d-3abdeb72196c","system_id":"levelo_inurba_marseille","lat":43.26194,"lon":5.37952,"is_reserved":false,"is_disabled":false,"rental_uris":{"android":"levelo://app?vid=5bc40c22-a9ce-44f6-b16d-3abdeb72196c","ios":"levelo://app?vid=5bc40c22-a9ce-44f6-b16d-3abdeb72196c"},"vehicle_type_id":"4","last_reported":1734818852,"current_range_meters":36000,"station_id":"ce4bhjp2rcd13ifvqg90","pricing_plan_id":"cebpf4jnsgd1na2vs0mg"},{"bike_id":"954f040c-9c68-484b-977a-d101cc152ccc","system_id":"levelo_inurba_marseille","lat":43.26683,"lon":5.38274,"is_reserved":false,"is_disabled":false,"rental_uris":{"android":"levelo://app?vid=954f040c-9c68-484b-977a-d101cc152ccc","ios":"levelo://app?vid=954f040c-9c68-484b-977a-d101cc152ccc"},"vehicle_type_id":"4","last_reported":1734818852,"current_range_meters":35200,"station_id":"ce4bhg92rcd13ifvqf90","pricing_plan_id":"cebpf4jnsgd1na2vs0mg"},{"bike_id":"85eabca9-3425-4c63-a948-ee09d7ddc79b","system_id":"levelo_inurba_marseille","lat":43.29086,"lon":5.38152,"is_reserved":false,"is_disabled":false,"rental_uris":{"android":"levelo://app?vid=85eabca9-3425-4c63-a948-ee09d7ddc79b","ios":"levelo://app?vid=85eabca9-3425-4c63-a948-ee09d7ddc79b"},"vehicle_type_id":"4","last_reported":1734818852,"current_range_meters":39200,"station_id":"ce4bh512rcd13ifvqe2g","pricing_plan_id":"cebpf4jnsgd1na2vs0mg"},{"bike_id":"b32b3c01-ed9f-46be-b992-f6be78029315","system_id":"levelo_inurba_marseille","lat":43.29947,"lon":5.36541,"is_reserved":false,"is_disabled":false,"rental_uris":{"android":"levelo://app?vid=b32b3c01-ed9f-46be-b992-f6be78029315","ios":"levelo://app?vid=b32b3c01-ed9f-46be-b992-f6be78029315"},"vehicle_type_id":"4","last_reported":1734818852,"current_range_meters":16400,"station_id":"ce4bgm92rcd13ifvqbr0","pricing_plan_id":"cebpf4jnsgd1na2vs0mg"},{"bike_id":"fa6cfc24-9be4-489a-89c6-d12b5dd13a04","system_id":"levelo_inurba_marseille","lat":43.29944,"lon":5.36548,"is_reserved":false,"is_disabled":false,"rental_uris":{"android":"levelo://app?vid=fa6cfc24-9be4-489a-89c6-d12b5dd13a04","ios":"levelo://app?vid=fa6cfc24-9be4-489a-89c6-d12b5dd13a04"},"vehicle_type_id":"4","last_reported":1734818852,"current_range_meters":38800,"station_id":"ce4bgm92rcd13ifvqbr0","pricing_plan_id":"cebpf4jnsgd1na2vs0mg"},{"bike_id":"9b5e45b0-c53a-4671-ae66-2400f7d4fc5d","system_id":"levelo_inurba_marseille","lat":43.28938,"lon":5.3963,"is_reserved":false,"is_disabled":false,"rental_uris":{"android":"levelo://app?vid=9b5e45b0-c53a-4671-ae66-2400f7d4fc5d","ios":"levelo://app?vid=9b5e45b0-c53a-4671-ae66-2400f7d4fc5d"},"vehicle_type_id":"4","last_reported":1734818852,"current_range_meters":25600,"station_id":"ce4bh3h2rcd13ifvqdn0","pricing_plan_id":"cebpf4jnsgd1na2vs0mg"},{"bike_id":"d8e8082b-d76a-4b6a-b93c-5ea180b1ca88","system_id":"levelo_inurba_marseille","lat":43.25858,"lon":5.39901,"is_reserved":false,"is_disabled":false,"rental_uris":{"android":"levelo://app?vid=d8e8082b-d76a-4b6a-b93c-5ea180b1ca88","ios":"levelo://app?vid=d8e8082b-d76a-4b6a-b93c-5ea180b1ca88"},"vehicle_type_id":"4","last_reported":1734818852,"current_range_meters":38800,"station_id":"ce4bhl92rcd13ifvqghg","pricing_plan_id":"cebpf4jnsgd1na2vs0mg"},{"bike_id":"75fccef8-d791-4548-963c-6b98a0a6b4cb","system_id":"levelo_inurba_marseille","lat":43.29581,"lon":5.37498,"is_reserved":false,"is_disabled":false,"rental_uris":{"android":"levelo://app?vid=75fccef8-d791-4548-963c-6b98a0a6b4cb","ios":"levelo://app?vid=75fccef8-d791-4548-963c-6b98a0a6b4cb"},"vehicle_type_id":"4","last_reported":1734818852,"current_range_meters":30000,"station_id":"ce4bgh92rcd13ifvqb50","pricing_plan_id":"cebpf4jnsgd1na2vs0mg"},{"bike_id":"c889bce7-ce58-4551-b1fe-fe2f91c10fbf","system_id":"levelo_inurba_marseille","lat":43.28938,"lon":5.39625,"is_reserved":false,"is_disabled":false,"rental_uris":{"android":"levelo://app?vid=c889bce7-ce58-4551-b1fe-fe2f91c10fbf","ios":"levelo://app?vid=c889bce7-ce58-4551-b1fe-fe2f91c10fbf"},"vehicle_type_id":"4","last_reported":1734818852,"current_range_meters":38800,"station_id":"ce4bh3h2rcd13ifvqdn0","pricing_plan_id":"cebpf4jnsgd1na2vs0mg"},{"bike_id":"2ecd7a5c-6b03-4906-a193-c1bc16b7668c","system_id":"levelo_inurba_marseille","lat":43.30225,"lon":5.40031,"is_reserved":false,"is_disabled":true,"rental_uris":{"android":"levelo://app?vid=2ecd7a5c-6b03-4906-a193-c1bc16b7668c","ios":"levelo://app?vid=2ecd7a5c-6b03-4906-a193-c1bc16b7668c"},"vehicle_type_id":"4","last_reported":1734818852,"current_range_meters":38800,"station_id":"","pricing_plan_id":"cebpf4jnsgd1na2vs0mg"},{"bike_id":"4bcb37c0-9249-499d-890c-0bbf93d29f8b","system_id":"levelo_inurba_marseille","lat":43.23188,"lon":5.35556,"is_reserved":false,"is_disabled":true,"rental_uris":{"android":"levelo://app?vid=4bcb37c0-9249-499d-890c-0bbf93d29f8b","ios":"levelo://app?vid=4bcb37c0-9249-499d-890c-0bbf93d29f8b"},"vehicle_type_id":"4","last_reported":1734818852,"current_range_meters":29600,"station_id":"ce4bhu92rcd13ifvqi70","pricing_plan_id":"cebpf4jnsgd1na2vs0mg"},{"bike_id":"57263b19-bd39-4f7b-b29d-fb59d05995ff","system_id":"levelo_inurba_marseille","lat":43.24649,"lon":5.37705,"is_reserved":false,"is_disabled":false,"rental_uris":{"android":"levelo://app?vid=57263b19-bd39-4f7b-b29d-fb59d05995ff","ios":"levelo://app?vid=57263b19-bd39-4f7b-b29d-fb59d05995ff"},"vehicle_type_id":"4","last_reported":1734818852,"current_range_meters":18800,"station_id":"","pricing_plan_id":"cebpf4jnsgd1na2vs0mg"},{"bike_id":"36ef5e5d-6a24-477a-83b3-1361b43b1f07","system_id":"levelo_inurba_marseille","lat":43.29256,"lon":5.38437,"is_reserved":false,"is_disabled":false,"rental_uris":{"android":"levelo://app?vid=36ef5e5d-6a24-477a-83b3-1361b43b1f07","ios":"levelo://app?vid=36ef5e5d-6a24-477a-83b3-1361b43b1f07"},"vehicle_type_id":"4","last_reported":1734818852,"current_range_meters":24000,"station_id":"ce4bh692rcd13ifvqea0","pricing_plan_id":"cebpf4jnsgd1na2vs0mg"},{"bike_id":"f2fddecf-aacc-43b9-984c-e21269354d44","system_id":"levelo_inurba_marseille","lat":43.25498,"lon":5.37649,"is_reserved":false,"is_disabled":false,"rental_uris":{"android":"levelo://app?vid=f2fddecf-aacc-43b9-984c-e21269354d44","ios":"levelo://app?vid=f2fddecf-aacc-43b9-984c-e21269354d44"},"vehicle_type_id":"4","last_reported":1734818852,"current_range_meters":38800,"station_id":"ce4bhh12rcd13ifvqff0","pricing_plan_id":"cebpf4jnsgd1na2vs0mg"},{"bike_id":"7cf2f138-0c5b-4760-b998-e61626fa9d49","system_id":"levelo_inurba_marseille","lat":43.32342,"lon":5.40615,"is_reserved":false,"is_disabled":false,"rental_uris":{"android":"levelo://app?vid=7cf2f138-0c5b-4760-b998-e61626fa9d49","ios":"levelo://app?vid=7cf2f138-0c5b-4760-b998-e61626fa9d49"},"vehicle_type_id":"4","last_reported":1734818852,"current_range_meters":37600,"station_id":"ce4bhq92rcd13ifvqhjg","pricing_plan_id":"cebpf4jnsgd1na2vs0mg"},{"bike_id":"40b59dc6-51a7-4e6a-8787-24071cb5b9f2","system_id":"levelo_inurba_marseille","lat":43.27387,"lon":5.39435,"is_reserved":false,"is_disabled":false,"rental_uris":{"android":"levelo://app?vid=40b59dc6-51a7-4e6a-8787-24071cb5b9f2","ios":"levelo://app?vid=40b59dc6-51a7-4e6a-8787-24071cb5b9f2"},"vehicle_type_id":"4","last_reported":1734818852,"current_range_meters":35600,"station_id":"ce4bhdp2rcd13ifvqf20","pricing_plan_id":"cebpf4jnsgd1na2vs0mg"},{"bike_id":"5ee26669-bb4c-43d4-aa0e-f6b8b6a84038","system_id":"levelo_inurba_marseille","lat":43.29226,"lon":5.36046,"is_reserved":false,"is_disabled":false,"rental_uris":{"android":"levelo://app?vid=5ee26669-bb4c-43d4-aa0e-f6b8b6a84038","ios":"levelo://app?vid=5ee26669-bb4c-43d4-aa0e-f6b8b6a84038"},"vehicle_type_id":"4","last_reported":1734818852,"current_range_meters":37600,"station_id":"ce4bhbh2rcd13ifvqeqg","pricing_plan_id":"cebpf4jnsgd1na2vs0mg"},{"bike_id":"8b04212e-9d66-4441-b1eb-1f2f841ce825","system_id":"levelo_inurba_marseille","lat":43.29526,"lon":5.38542,"is_reserved":false,"is_disabled":false,"rental_uris":{"android":"levelo://app?vid=8b04212e-9d66-4441-b1eb-1f2f841ce825","ios":"levelo://app?vid=8b04212e-9d66-4441-b1eb-1f2f841ce825"},"vehicle_type_id":"4","last_reported":1734818852,"current_range_meters":17200,"station_id":"ce4bgih2rcd13ifvqba0","pricing_plan_id":"cebpf4jnsgd1na2vs0mg"},{"bike_id":"3216941d-b90f-4166-9789-4659f8e52f65","system_id":"levelo_inurba_marseille","lat":43.2656,"lon":5.37283,"is_reserved":false,"is_disabled":false,"rental_uris":{"android":"levelo://app?vid=3216941d-b90f-4166-9789-4659f8e52f65","ios":"levelo://app?vid=3216941d-b90f-4166-9789-4659f8e52f65"},"vehicle_type_id":"4","last_reported":1734818852,"current_range_meters":18000,"station_id":"ce4bhg12rcd13ifvqf70","pricing_plan_id":"cebpf4jnsgd1na2vs0mg"},{"bike_id":"dad6db58-f5bc-4da2-b0b4-3d5d1002166b","system_id":"levelo_inurba_marseille","lat":43.32108,"lon":5.36772,"is_reserved":false,"is_disabled":false,"rental_uris":{"android":"levelo://app?vid=dad6db58-f5bc-4da2-b0b4-3d5d1002166b","ios":"levelo://app?vid=dad6db58-f5bc-4da2-b0b4-3d5d1002166b"},"vehicle_type_id":"4","last_reported":1734818852,"current_range_meters":12800,"station_id":"ce4bhrh2rcd13ifvqhug","pricing_plan_id":"cebpf4jnsgd1na2vs0mg"},{"bike_id":"e1e55b34-0cc8-42c6-b9d9-a442d6ab0cd4","system_id":"levelo_inurba_marseille","lat":43.23187,"lon":5.39988,"is_reserved":false,"is_disabled":false,"rental_uris":{"android":"levelo://app?vid=e1e55b34-0cc8-42c6-b9d9-a442d6ab0cd4","ios":"levelo://app?vid=e1e55b34-0cc8-42c6-b9d9-a442d6ab0cd4"},"vehicle_type_id":"4","last_reported":1734818852,"current_range_meters":24400,"station_id":"ce4bhn12rcd13ifvqgqg","pricing_plan_id":"cebpf4jnsgd1na2vs0mg"},{"bike_id":"f6b5cdb6-736e-45b3-8b41-4918a9038182","system_id":"levelo_inurba_marseille","lat":43.23965,"lon":5.36634,"is_reserved":false,"is_disabled":false,"rental_uris":{"android":"levelo://app?vid=f6b5cdb6-736e-45b3-8b41-4918a9038182","ios":"levelo://app?vid=f6b5cdb6-736e-45b3-8b41-4918a9038182"},"vehicle_type_id":"4","last_reported":1734818852,"current_range_meters":35600,"station_id":"ce4bhi12rcd13ifvqfp0","pricing_plan_id":"cebpf4jnsgd1na2vs0mg"},{"bike_id":"d3686b5b-a829-479e-a14a-439694ed183e","system_id":"levelo_inurba_marseille","lat":43.27072,"lon":5.42276,"is_reserved":false,"is_disabled":false,"rental_uris":{"android":"levelo://app?vid=d3686b5b-a829-479e-a14a-439694ed183e","ios":"levelo://app?vid=d3686b5b-a829-479e-a14a-439694ed183e"},"vehicle_type_id":"4","last_reported":1734818852,"current_range_meters":25600,"station_id":"ce4bhk92rcd13ifvqgb0","pricing_plan_id":"cebpf4jnsgd1na2vs0mg"},{"bike_id":"6507bce1-e9b4-4aad-bbab-13ef4b5297a4","system_id":"levelo_inurba_marseille","lat":43.31725,"lon":5.42393,"is_reserved":false,"is_disabled":false,"rental_uris":{"android":"levelo://app?vid=6507bce1-e9b4-4aad-bbab-13ef4b5297a4","ios":"levelo://app?vid=6507bce1-e9b4-4aad-bbab-13ef4b5297a4"},"vehicle_type_id":"4","last_reported":1734818852,"current_range_meters":38800,"station_id":"ce4bhp92rcd13ifvqhbg","pricing_plan_id":"cebpf4jnsgd1na2vs0mg"},{"bike_id":"44127e4e-8e84-4a38-89f7-8f4efb63f7a5","system_id":"levelo_inurba_marseille","lat":43.31191,"lon":5.3675,"is_reserved":false,"is_disabled":true,"rental_uris":{"android":"levelo://app?vid=44127e4e-8e84-4a38-89f7-8f4efb63f7a5","ios":"levelo://app?vid=44127e4e-8e84-4a38-89f7-8f4efb63f7a5"},"vehicle_type_id":"4","last_reported":1734818852,"current_range_meters":0,"station_id":"","pricing_plan_id":"cebpf4jnsgd1na2vs0mg"},{"bike_id":"63ec5ad9-84d5-45e4-a4c5-2b22423a266f","system_id":"levelo_inurba_marseille","lat":43.2894,"lon":5.39626,"is_reserved":false,"is_disabled":false,"rental_uris":{"android":"levelo://app?vid=63ec5ad9-84d5-45e4-a4c5-2b22423a266f","ios":"levelo://app?vid=63ec5ad9-84d5-45e4-a4c5-2b22423a266f"},"vehicle_type_id":"4","last_reported":1734818852,"current_range_meters":28000,"station_id":"ce4bh3h2rcd13ifvqdn0","pricing_plan_id":"cebpf4jnsgd1na2vs0mg"},{"bike_id":"1eef5757-2a74-4727-868d-9821df78eaa2","system_id":"levelo_inurba_marseille","lat":43.25873,"lon":5.39907,"is_reserved":false,"is_disabled":false,"rental_uris":{"android":"levelo://app?vid=1eef5757-2a74-4727-868d-9821df78eaa2","ios":"levelo://app?vid=1eef5757-2a74-4727-868d-9821df78eaa2"},"vehicle_type_id":"4","last_reported":1734818852,"current_range_meters":38800,"station_id":"ce4bhl92rcd13ifvqghg","pricing_plan_id":"cebpf4jnsgd1na2vs0mg"},{"bike_id":"c80e174f-d21d-4b7d-bbc1-3f10de7e54ef","system_id":"levelo_inurba_marseille","lat":43.30351,"lon":5.41874,"is_reserved":false,"is_disabled":false,"rental_uris":{"android":"levelo://app?vid=c80e174f-d21d-4b7d-bbc1-3f10de7e54ef","ios":"levelo://app?vid=c80e174f-d21d-4b7d-bbc1-3f10de7e54ef"},"vehicle_type_id":"4","last_reported":1734818852,"current_range_meters":37600,"station_id":"ce4bhop2rcd13ifvqh7g","pricing_plan_id":"cebpf4jnsgd1na2vs0mg"},{"bike_id":"ee9930d1-4a33-4c2c-82c2-184216ec6de6","system_id":"levelo_inurba_marseille","lat":43.31536,"lon":5.38031,"is_reserved":false,"is_disabled":false,"rental_uris":{"android":"levelo://app?vid=ee9930d1-4a33-4c2c-82c2-184216ec6de6","ios":"levelo://app?vid=ee9930d1-4a33-4c2c-82c2-184216ec6de6"},"vehicle_type_id":"4","last_reported":1734818852,"current_range_meters":32800,"station_id":"ce4bhsp2rcd13ifvqi50","pricing_plan_id":"cebpf4jnsgd1na2vs0mg"},{"bike_id":"6014ebd4-e8ca-4bce-8e30-b2491ea8684f","system_id":"levelo_inurba_marseille","lat":43.24167,"lon":5.39708,"is_reserved":false,"is_disabled":true,"rental_uris":{"android":"levelo://app?vid=6014ebd4-e8ca-4bce-8e30-b2491ea8684f","ios":"levelo://app?vid=6014ebd4-e8ca-4bce-8e30-b2491ea8684f"},"vehicle_type_id":"4","last_reported":1734818852,"current_range_meters":20400,"station_id":"ce4bhn12rcd13ifvqgpg","pricing_plan_id":"cebpf4jnsgd1na2vs0mg"},{"bike_id":"d69ead64-f352-48c3-b781-daf2cb8997a9","system_id":"levelo_inurba_marseille","lat":43.28108,"lon":5.37842,"is_reserved":false,"is_disabled":false,"rental_uris":{"android":"levelo://app?vid=d69ead64-f352-48c3-b781-daf2cb8997a9","ios":"levelo://app?vid=d69ead64-f352-48c3-b781-daf2cb8997a9"},"vehicle_type_id":"4","last_reported":1734818852,"current_range_meters":36800,"station_id":"ce4bha12rcd13ifvqee0","pricing_plan_id":"cebpf4jnsgd1na2vs0mg"},{"bike_id":"a198e248-41c4-4a27-af7b-34f7a7595000","system_id":"levelo_inurba_marseille","lat":43.29908,"lon":5.37472,"is_reserved":false,"is_disabled":false,"rental_uris":{"android":"levelo://app?vid=a198e248-41c4-4a27-af7b-34f7a7595000","ios":"levelo://app?vid=a198e248-41c4-4a27-af7b-34f7a7595000"},"vehicle_type_id":"4","last_reported":1734818852,"current_range_meters":39200,"station_id":"ce4bgjh2rcd13ifvqbg0","pricing_plan_id":"cebpf4jnsgd1na2vs0mg"},{"bike_id":"5fb4272e-94a1-46e9-95a2-461fdab448f5","system_id":"levelo_inurba_marseille","lat":43.30889,"lon":5.3965,"is_reserved":false,"is_disabled":false,"rental_uris":{"android":"levelo://app?vid=5fb4272e-94a1-46e9-95a2-461fdab448f5","ios":"levelo://app?vid=5fb4272e-94a1-46e9-95a2-461fdab448f5"},"vehicle_type_id":"4","last_reported":1734818852,"current_range_meters":35200,"station_id":"ce4bh012rcd13ifvqcv0","pricing_plan_id":"cebpf4jnsgd1na2vs0mg"},{"bike_id":"80a38987-5479-472d-9b3b-784d87214765","system_id":"levelo_inurba_marseille","lat":43.29419,"lon":5.38619,"is_reserved":false,"is_disabled":false,"rental_uris":{"android":"levelo://app?vid=80a38987-5479-472d-9b3b-784d87214765","ios":"levelo://app?vid=80a38987-5479-472d-9b3b-784d87214765"},"vehicle_type_id":"4","last_reported":1734818852,"current_range_meters":30800,"station_id":"ce4bh2h2rcd13ifvqdh0","pricing_plan_id":"cebpf4jnsgd1na2vs0mg"},{"bike_id":"a6b38798-1705-4db8-a37c-882b2a95f287","system_id":"levelo_inurba_marseille","lat":43.293026,"lon":5.374533,"is_reserved":false,"is_disabled":false,"rental_uris":{"android":"levelo://app?vid=a6b38798-1705-4db8-a37c-882b2a95f287","ios":"levelo://app?vid=a6b38798-1705-4db8-a37c-882b2a95f287"},"vehicle_type_id":"4","last_reported":1734818852,"current_range_meters":37600,"station_id":"ce4bgi12rcd13ifvqb70","pricing_plan_id":"cebpf4jnsgd1na2vs0mg"},{"bike_id":"12488580-a307-46af-80b6-4ca4096e1dfa","system_id":"levelo_inurba_marseille","lat":43.29038,"lon":5.38646,"is_reserved":false,"is_disabled":false,"rental_uris":{"android":"levelo://app?vid=12488580-a307-46af-80b6-4ca4096e1dfa","ios":"levelo://app?vid=12488580-a307-46af-80b6-4ca4096e1dfa"},"vehicle_type_id":"4","last_reported":1734818852,"current_range_meters":39200,"station_id":"ce4bh4p2rcd13ifvqe0g","pricing_plan_id":"cebpf4jnsgd1na2vs0mg"},{"bike_id":"55fcc674-2d1a-44b1-9d4f-500746fe756e","system_id":"levelo_inurba_marseille","lat":43.29421,"lon":5.38644,"is_reserved":false,"is_disabled":false,"rental_uris":{"android":"levelo://app?vid=55fcc674-2d1a-44b1-9d4f-500746fe756e","ios":"levelo://app?vid=55fcc674-2d1a-44b1-9d4f-500746fe756e"},"vehicle_type_id":"4","last_reported":1734818852,"current_range_meters":36400,"station_id":"ce4bh2h2rcd13ifvqdh0","pricing_plan_id":"cebpf4jnsgd1na2vs0mg"},{"bike_id":"fa6a0a1a-8ca7-4ea4-9aa5-359f93885840","system_id":"levelo_inurba_marseille","lat":43.27543,"lon":5.38427,"is_reserved":false,"is_disabled":false,"rental_uris":{"android":"levelo://app?vid=fa6a0a1a-8ca7-4ea4-9aa5-359f93885840","ios":"levelo://app?vid=fa6a0a1a-8ca7-4ea4-9aa5-359f93885840"},"vehicle_type_id":"4","last_reported":1734818852,"current_range_meters":31200,"station_id":"ce4bhh92rcd13ifvqfi0","pricing_plan_id":"cebpf4jnsgd1na2vs0mg"},{"bike_id":"edee66a7-cede-46dd-9c52-3bd12840ce22","system_id":"levelo_inurba_marseille","lat":43.3133,"lon":5.39691,"is_reserved":false,"is_disabled":false,"rental_uris":{"android":"levelo://app?vid=edee66a7-cede-46dd-9c52-3bd12840ce22","ios":"levelo://app?vid=edee66a7-cede-46dd-9c52-3bd12840ce22"},"vehicle_type_id":"4","last_reported":1734818852,"current_range_meters":19200,"station_id":"ce4bgvp2rcd13ifvqcu0","pricing_plan_id":"cebpf4jnsgd1na2vs0mg"},{"bike_id":"a0d7ff91-b8d7-4bec-a99d-35a35b0ba677","system_id":"levelo_inurba_marseille","lat":43.29543,"lon":5.38547,"is_reserved":false,"is_disabled":false,"rental_uris":{"android":"levelo://app?vid=a0d7ff91-b8d7-4bec-a99d-35a35b0ba677","ios":"levelo://app?vid=a0d7ff91-b8d7-4bec-a99d-35a35b0ba677"},"vehicle_type_id":"4","last_reported":1734818852,"current_range_meters":30000,"station_id":"ce4bgih2rcd13ifvqba0","pricing_plan_id":"cebpf4jnsgd1na2vs0mg"},{"bike_id":"2a2c0cfa-f9a8-4c73-a96c-db7e83d7bc8f","system_id":"levelo_inurba_marseille","lat":43.3054,"lon":5.38431,"is_reserved":false,"is_disabled":false,"rental_uris":{"android":"levelo://app?vid=2a2c0cfa-f9a8-4c73-a96c-db7e83d7bc8f","ios":"levelo://app?vid=2a2c0cfa-f9a8-4c73-a96c-db7e83d7bc8f"},"vehicle_type_id":"4","last_reported":1734818852,"current_range_meters":37600,"station_id":"ce4bgg92rcd13ifvqb30","pricing_plan_id":"cebpf4jnsgd1na2vs0mg"},{"bike_id":"301846a0-3ee5-4f3b-aa6e-371b2abbcd5f","system_id":"levelo_inurba_marseille","lat":43.29521,"lon":5.39029,"is_reserved":false,"is_disabled":false,"rental_uris":{"android":"levelo://app?vid=301846a0-3ee5-4f3b-aa6e-371b2abbcd5f","ios":"levelo://app?vid=301846a0-3ee5-4f3b-aa6e-371b2abbcd5f"},"vehicle_type_id":"4","last_reported":1734818852,"current_range_meters":36400,"station_id":"ce4bh3p2rcd13ifvqdp0","pricing_plan_id":"cebpf4jnsgd1na2vs0mg"},{"bike_id":"487b8db3-e21f-4690-94db-3b3cf5955e45","system_id":"levelo_inurba_marseille","lat":43.26064,"lon":5.39396,"is_reserved":false,"is_disabled":false,"rental_uris":{"android":"levelo://app?vid=487b8db3-e21f-4690-94db-3b3cf5955e45","ios":"levelo://app?vid=487b8db3-e21f-4690-94db-3b3cf5955e45"},"vehicle_type_id":"4","last_reported":1734818852,"current_range_meters":30400,"station_id":"ce4bhh92rcd13ifvqfj0","pricing_plan_id":"cebpf4jnsgd1na2vs0mg"},{"bike_id":"641d39d1-88cc-4f20-9fcf-9a79e49a860c","system_id":"levelo_inurba_marseille","lat":43.28926,"lon":5.36632,"is_reserved":false,"is_disabled":false,"rental_uris":{"android":"levelo://app?vid=641d39d1-88cc-4f20-9fcf-9a79e49a860c","ios":"levelo://app?vid=641d39d1-88cc-4f20-9fcf-9a79e49a860c"},"vehicle_type_id":"4","last_reported":1734818852,"current_range_meters":39200,"station_id":"ce4bhap2rcd13ifvqek0","pricing_plan_id":"cebpf4jnsgd1na2vs0mg"},{"bike_id":"60c183d2-0793-4a4c-a52c-156483136c6f","system_id":"levelo_inurba_marseille","lat":43.29523,"lon":5.39405,"is_reserved":false,"is_disabled":false,"rental_uris":{"android":"levelo://app?vid=60c183d2-0793-4a4c-a52c-156483136c6f","ios":"levelo://app?vid=60c183d2-0793-4a4c-a52c-156483136c6f"},"vehicle_type_id":"4","last_reported":1734818852,"current_range_meters":36400,"station_id":"ce4bh292rcd13ifvqdf0","pricing_plan_id":"cebpf4jnsgd1na2vs0mg"},{"bike_id":"6b443998-f048-4e6c-9ca7-53a2d6b81395","system_id":"levelo_inurba_marseille","lat":43.29527,"lon":5.38538,"is_reserved":false,"is_disabled":false,"rental_uris":{"android":"levelo://app?vid=6b443998-f048-4e6c-9ca7-53a2d6b81395","ios":"levelo://app?vid=6b443998-f048-4e6c-9ca7-53a2d6b81395"},"vehicle_type_id":"4","last_reported":1734818852,"current_range_meters":30000,"station_id":"ce4bgih2rcd13ifvqba0","pricing_plan_id":"cebpf4jnsgd1na2vs0mg"},{"bike_id":"7e9ad310-d592-4d0c-98bc-d8af9cfcc465","system_id":"levelo_inurba_marseille","lat":43.31272,"lon":5.40163,"is_reserved":false,"is_disabled":false,"rental_uris":{"android":"levelo://app?vid=7e9ad310-d592-4d0c-98bc-d8af9cfcc465","ios":"levelo://app?vid=7e9ad310-d592-4d0c-98bc-d8af9cfcc465"},"vehicle_type_id":"4","last_reported":1734818852,"current_range_meters":38400,"station_id":"ce4bh092rcd13ifvqd30","pricing_plan_id":"cebpf4jnsgd1na2vs0mg"},{"bike_id":"224632da-6d16-4f4a-abaf-45826e5c3c6c","system_id":"levelo_inurba_marseille","lat":43.27177,"lon":5.40998,"is_reserved":false,"is_disabled":false,"rental_uris":{"android":"levelo://app?vid=224632da-6d16-4f4a-abaf-45826e5c3c6c","ios":"levelo://app?vid=224632da-6d16-4f4a-abaf-45826e5c3c6c"},"vehicle_type_id":"4","last_reported":1734818852,"current_range_meters":31200,"station_id":"ce4bhl12rcd13ifvqgf0","pricing_plan_id":"cebpf4jnsgd1na2vs0mg"},{"bike_id":"2c9f1b35-5914-4a8e-954b-6e48afaf36af","system_id":"levelo_inurba_marseille","lat":43.23957,"lon":5.36644,"is_reserved":false,"is_disabled":false,"rental_uris":{"android":"levelo://app?vid=2c9f1b35-5914-4a8e-954b-6e48afaf36af","ios":"levelo://app?vid=2c9f1b35-5914-4a8e-954b-6e48afaf36af"},"vehicle_type_id":"4","last_reported":1734818852,"current_range_meters":38800,"station_id":"ce4bhi12rcd13ifvqfp0","pricing_plan_id":"cebpf4jnsgd1na2vs0mg"},{"bike_id":"78ce24b5-adcf-4ee6-bd83-8785d09d7548","system_id":"levelo_inurba_marseille","lat":43.306419,"lon":5.400807,"is_reserved":false,"is_disabled":false,"rental_uris":{"android":"levelo://app?vid=78ce24b5-adcf-4ee6-bd83-8785d09d7548","ios":"levelo://app?vid=78ce24b5-adcf-4ee6-bd83-8785d09d7548"},"vehicle_type_id":"4","last_reported":1734818852,"current_range_meters":38800,"station_id":"ce4bh112rcd13ifvqda0","pricing_plan_id":"cebpf4jnsgd1na2vs0mg"},{"bike_id":"d3f3fdae-ab70-46b2-a854-6926b1941b0c","system_id":"levelo_inurba_marseille","lat":43.23964,"lon":5.36627,"is_reserved":false,"is_disabled":false,"rental_uris":{"android":"levelo://app?vid=d3f3fdae-ab70-46b2-a854-6926b1941b0c","ios":"levelo://app?vid=d3f3fdae-ab70-46b2-a854-6926b1941b0c"},"vehicle_type_id":"4","last_reported":1734818852,"current_range_meters":33600,"station_id":"ce4bhi12rcd13ifvqfp0","pricing_plan_id":"cebpf4jnsgd1na2vs0mg"},{"bike_id":"bc84a4eb-cfed-45d4-bc63-fca5d5842c0b","system_id":"levelo_inurba_marseille","lat":43.29067,"lon":5.37171,"is_reserved":false,"is_disabled":false,"rental_uris":{"android":"levelo://app?vid=bc84a4eb-cfed-45d4-bc63-fca5d5842c0b","ios":"levelo://app?vid=bc84a4eb-cfed-45d4-bc63-fca5d5842c0b"},"vehicle_type_id":"4","last_reported":1734818852,"current_range_meters":35200,"station_id":"ce4bh5p2rcd13ifvqe4g","pricing_plan_id":"cebpf4jnsgd1na2vs0mg"},{"bike_id":"8798cddb-a8db-4fd7-a6a6-c34f1cbca7eb","system_id":"levelo_inurba_marseille","lat":43.29188,"lon":5.35798,"is_reserved":false,"is_disabled":false,"rental_uris":{"android":"levelo://app?vid=8798cddb-a8db-4fd7-a6a6-c34f1cbca7eb","ios":"levelo://app?vid=8798cddb-a8db-4fd7-a6a6-c34f1cbca7eb"},"vehicle_type_id":"4","last_reported":1734818852,"current_range_meters":34800,"station_id":"ce4bhb12rcd13ifvqel0","pricing_plan_id":"cebpf4jnsgd1na2vs0mg"},{"bike_id":"dff6c12a-b31e-40ae-9076-3c5f8e216090","system_id":"levelo_inurba_marseille","lat":43.28275,"lon":5.3508,"is_reserved":false,"is_disabled":false,"rental_uris":{"android":"levelo://app?vid=dff6c12a-b31e-40ae-9076-3c5f8e216090","ios":"levelo://app?vid=dff6c12a-b31e-40ae-9076-3c5f8e216090"},"vehicle_type_id":"4","last_reported":1734818852,"current_range_meters":38800,"station_id":"ce4bhbp2rcd13ifvqerg","pricing_plan_id":"cebpf4jnsgd1na2vs0mg"},{"bike_id":"8f66c8f9-688c-474d-aea9-a77825392fc4","system_id":"levelo_inurba_marseille","lat":43.2834,"lon":5.38108,"is_reserved":false,"is_disabled":false,"rental_uris":{"android":"levelo://app?vid=8f66c8f9-688c-474d-aea9-a77825392fc4","ios":"levelo://app?vid=8f66c8f9-688c-474d-aea9-a77825392fc4"},"vehicle_type_id":"4","last_reported":1734818852,"current_range_meters":31200,"station_id":"ce4bh412rcd13ifvqdr0","pricing_plan_id":"cebpf4jnsgd1na2vs0mg"},{"bike_id":"bf9a15af-c387-4e0e-83c2-5db944adc348","system_id":"levelo_inurba_marseille","lat":43.28001,"lon":5.40019,"is_reserved":false,"is_disabled":false,"rental_uris":{"android":"levelo://app?vid=bf9a15af-c387-4e0e-83c2-5db944adc348","ios":"levelo://app?vid=bf9a15af-c387-4e0e-83c2-5db944adc348"},"vehicle_type_id":"4","last_reported":1734818852,"current_range_meters":28800,"station_id":"ce4bho92rcd13ifvqh4g","pricing_plan_id":"cebpf4jnsgd1na2vs0mg"},{"bike_id":"591e56d3-570f-4000-8104-235340497ab2","system_id":"levelo_inurba_marseille","lat":43.28031,"lon":5.36944,"is_reserved":false,"is_disabled":false,"rental_uris":{"android":"levelo://app?vid=591e56d3-570f-4000-8104-235340497ab2","ios":"levelo://app?vid=591e56d3-570f-4000-8104-235340497ab2"},"vehicle_type_id":"4","last_reported":1734818852,"current_range_meters":39200,"station_id":"ce4bha12rcd13ifvqef0","pricing_plan_id":"cebpf4jnsgd1na2vs0mg"},{"bike_id":"90fbf7b3-3e59-4761-9ba2-48103aa75f60","system_id":"levelo_inurba_marseille","lat":43.2989,"lon":5.43671,"is_reserved":false,"is_disabled":false,"rental_uris":{"android":"levelo://app?vid=90fbf7b3-3e59-4761-9ba2-48103aa75f60","ios":"levelo://app?vid=90fbf7b3-3e59-4761-9ba2-48103aa75f60"},"vehicle_type_id":"4","last_reported":1734818852,"current_range_meters":25600,"station_id":"ce4bhpp2rcd13ifvqhfg","pricing_plan_id":"cebpf4jnsgd1na2vs0mg"},{"bike_id":"d3206bb9-1faa-41a1-80e9-99899c296fa9","system_id":"levelo_inurba_marseille","lat":43.27579,"lon":5.38414,"is_reserved":false,"is_disabled":false,"rental_uris":{"android":"levelo://app?vid=d3206bb9-1faa-41a1-80e9-99899c296fa9","ios":"levelo://app?vid=d3206bb9-1faa-41a1-80e9-99899c296fa9"},"vehicle_type_id":"4","last_reported":1734818852,"current_range_meters":29600,"station_id":"ce4bhh92rcd13ifvqfi0","pricing_plan_id":"cebpf4jnsgd1na2vs0mg"},{"bike_id":"6bda5f81-4461-449d-a260-822e9ee73f46","system_id":"levelo_inurba_marseille","lat":43.26202,"lon":5.37924,"is_reserved":false,"is_disabled":false,"rental_uris":{"android":"levelo://app?vid=6bda5f81-4461-449d-a260-822e9ee73f46","ios":"levelo://app?vid=6bda5f81-4461-449d-a260-822e9ee73f46"},"vehicle_type_id":"4","last_reported":1734818852,"current_range_meters":36800,"station_id":"ce4bhjp2rcd13ifvqg90","pricing_plan_id":"cebpf4jnsgd1na2vs0mg"},{"bike_id":"227b8709-a253-45c2-b4c3-fa7ef48a7c09","system_id":"levelo_inurba_marseille","lat":43.26943,"lon":5.38636,"is_reserved":false,"is_disabled":false,"rental_uris":{"android":"levelo://app?vid=227b8709-a253-45c2-b4c3-fa7ef48a7c09","ios":"levelo://app?vid=227b8709-a253-45c2-b4c3-fa7ef48a7c09"},"vehicle_type_id":"4","last_reported":1734818852,"current_range_meters":30800,"station_id":"ce4bhh92rcd13ifvqfh0","pricing_plan_id":"cebpf4jnsgd1na2vs0mg"},{"bike_id":"7646be54-ccce-4459-bfcd-5f70b1a12064","system_id":"levelo_inurba_marseille","lat":43.32287,"lon":5.38279,"is_reserved":false,"is_disabled":false,"rental_uris":{"android":"levelo://app?vid=7646be54-ccce-4459-bfcd-5f70b1a12064","ios":"levelo://app?vid=7646be54-ccce-4459-bfcd-5f70b1a12064"},"vehicle_type_id":"4","last_reported":1734818852,"current_range_meters":38800,"station_id":"ce4bhr12rcd13ifvqhqg","pricing_plan_id":"cebpf4jnsgd1na2vs0mg"},{"bike_id":"a7193329-5dfd-4455-82c1-bc4b85615028","system_id":"levelo_inurba_marseille","lat":43.32365,"lon":5.38878,"is_reserved":false,"is_disabled":false,"rental_uris":{"android":"levelo://app?vid=a7193329-5dfd-4455-82c1-bc4b85615028","ios":"levelo://app?vid=a7193329-5dfd-4455-82c1-bc4b85615028"},"vehicle_type_id":"4","last_reported":1734818852,"current_range_meters":26000,"station_id":"ce4bhqp2rcd13ifvqhog","pricing_plan_id":"cebpf4jnsgd1na2vs0mg"},{"bike_id":"ad078c43-1679-489e-8ed8-165288617005","system_id":"levelo_inurba_marseille","lat":43.29328,"lon":5.37153,"is_reserved":false,"is_disabled":false,"rental_uris":{"android":"levelo://app?vid=ad078c43-1679-489e-8ed8-165288617005","ios":"levelo://app?vid=ad078c43-1679-489e-8ed8-165288617005"},"vehicle_type_id":"4","last_reported":1734818852,"current_range_meters":32000,"station_id":"ce4bgh92rcd13ifvqb40","pricing_plan_id":"cebpf4jnsgd1na2vs0mg"},{"bike_id":"b9a2a5db-4e4f-4472-9221-981416be1b6c","system_id":"levelo_inurba_marseille","lat":43.3013,"lon":5.39886,"is_reserved":false,"is_disabled":true,"rental_uris":{"android":"levelo://app?vid=b9a2a5db-4e4f-4472-9221-981416be1b6c","ios":"levelo://app?vid=b9a2a5db-4e4f-4472-9221-981416be1b6c"},"vehicle_type_id":"4","last_reported":1734818852,"current_range_meters":38000,"station_id":"ce4bh0h2rcd13ifvqd40","pricing_plan_id":"cebpf4jnsgd1na2vs0mg"},{"bike_id":"7d36f5d4-41e9-448e-b8bd-130bdd9f3f18","system_id":"levelo_inurba_marseille","lat":43.25498,"lon":5.37637,"is_reserved":false,"is_disabled":false,"rental_uris":{"android":"levelo://app?vid=7d36f5d4-41e9-448e-b8bd-130bdd9f3f18","ios":"levelo://app?vid=7d36f5d4-41e9-448e-b8bd-130bdd9f3f18"},"vehicle_type_id":"4","last_reported":1734818852,"current_range_meters":39200,"station_id":"ce4bhh12rcd13ifvqff0","pricing_plan_id":"cebpf4jnsgd1na2vs0mg"},{"bike_id":"60dbf17a-9f43-4a54-950f-8e0a0de5ee58","system_id":"levelo_inurba_marseille","lat":43.29181,"lon":5.37169,"is_reserved":false,"is_disabled":false,"rental_uris":{"android":"levelo://app?vid=60dbf17a-9f43-4a54-950f-8e0a0de5ee58","ios":"levelo://app?vid=60dbf17a-9f43-4a54-950f-8e0a0de5ee58"},"vehicle_type_id":"4","last_reported":1734818852,"current_range_meters":38800,"station_id":"ce4bha92rcd13ifvqeh0","pricing_plan_id":"cebpf4jnsgd1na2vs0mg"},{"bike_id":"dabdb816-8280-4165-8f88-ae205fe0accb","system_id":"levelo_inurba_marseille","lat":43.23963,"lon":5.36649,"is_reserved":false,"is_disabled":false,"rental_uris":{"android":"levelo://app?vid=dabdb816-8280-4165-8f88-ae205fe0accb","ios":"levelo://app?vid=dabdb816-8280-4165-8f88-ae205fe0accb"},"vehicle_type_id":"4","last_reported":1734818852,"current_range_meters":35200,"station_id":"ce4bhi12rcd13ifvqfp0","pricing_plan_id":"cebpf4jnsgd1na2vs0mg"},{"bike_id":"4ea75c8e-e6e3-49c4-ad75-96238d3e50ab","system_id":"levelo_inurba_marseille","lat":43.27924,"lon":5.39578,"is_reserved":false,"is_disabled":false,"rental_uris":{"android":"levelo://app?vid=4ea75c8e-e6e3-49c4-ad75-96238d3e50ab","ios":"levelo://app?vid=4ea75c8e-e6e3-49c4-ad75-96238d3e50ab"},"vehicle_type_id":"4","last_reported":1734818852,"current_range_meters":28800,"station_id":"ce4bhf92rcd13ifvqf40","pricing_plan_id":"cebpf4jnsgd1na2vs0mg"},{"bike_id":"18bc712f-05f8-4bfe-a81a-9b0f3911a5b1","system_id":"levelo_inurba_marseille","lat":43.27572,"lon":5.38425,"is_reserved":false,"is_disabled":false,"rental_uris":{"android":"levelo://app?vid=18bc712f-05f8-4bfe-a81a-9b0f3911a5b1","ios":"levelo://app?vid=18bc712f-05f8-4bfe-a81a-9b0f3911a5b1"},"vehicle_type_id":"4","last_reported":1734818852,"current_range_meters":39200,"station_id":"ce4bhh92rcd13ifvqfi0","pricing_plan_id":"cebpf4jnsgd1na2vs0mg"},{"bike_id":"30e72b1a-1910-4987-ad2d-02ceefad201f","system_id":"levelo_inurba_marseille","lat":43.27991,"lon":5.3874,"is_reserved":false,"is_disabled":false,"rental_uris":{"android":"levelo://app?vid=30e72b1a-1910-4987-ad2d-02ceefad201f","ios":"levelo://app?vid=30e72b1a-1910-4987-ad2d-02ceefad201f"},"vehicle_type_id":"4","last_reported":1734818852,"current_range_meters":37600,"station_id":"ce4bhg12rcd13ifvqf80","pricing_plan_id":"cebpf4jnsgd1na2vs0mg"},{"bike_id":"4a85d723-500f-4fee-8146-cd30b45c3aa8","system_id":"levelo_inurba_marseille","lat":43.23404,"lon":5.35877,"is_reserved":false,"is_disabled":false,"rental_uris":{"android":"levelo://app?vid=4a85d723-500f-4fee-8146-cd30b45c3aa8","ios":"levelo://app?vid=4a85d723-500f-4fee-8146-cd30b45c3aa8"},"vehicle_type_id":"4","last_reported":1734818852,"current_range_meters":18000,"station_id":"","pricing_plan_id":"cebpf4jnsgd1na2vs0mg"},{"bike_id":"56d45b46-9510-4eba-8754-d727d22aa4e0","system_id":"levelo_inurba_marseille","lat":43.28097,"lon":5.3784,"is_reserved":false,"is_disabled":false,"rental_uris":{"android":"levelo://app?vid=56d45b46-9510-4eba-8754-d727d22aa4e0","ios":"levelo://app?vid=56d45b46-9510-4eba-8754-d727d22aa4e0"},"vehicle_type_id":"4","last_reported":1734818852,"current_range_meters":23200,"station_id":"ce4bha12rcd13ifvqee0","pricing_plan_id":"cebpf4jnsgd1na2vs0mg"},{"bike_id":"dfcdb34a-6d91-4bd5-83b3-df14955564a1","system_id":"levelo_inurba_marseille","lat":43.27843,"lon":5.39164,"is_reserved":false,"is_disabled":false,"rental_uris":{"android":"levelo://app?vid=dfcdb34a-6d91-4bd5-83b3-df14955564a1","ios":"levelo://app?vid=dfcdb34a-6d91-4bd5-83b3-df14955564a1"},"vehicle_type_id":"4","last_reported":1734818852,"current_range_meters":6000,"station_id":"ce4bhjp2rcd13ifvqga0","pricing_plan_id":"cebpf4jnsgd1na2vs0mg"},{"bike_id":"cbf1ec11-8d33-4f4b-86f9-f0323ee50e1a","system_id":"levelo_inurba_marseille","lat":43.2397,"lon":5.36622,"is_reserved":false,"is_disabled":false,"rental_uris":{"android":"levelo://app?vid=cbf1ec11-8d33-4f4b-86f9-f0323ee50e1a","ios":"levelo://app?vid=cbf1ec11-8d33-4f4b-86f9-f0323ee50e1a"},"vehicle_type_id":"4","last_reported":1734818852,"current_range_meters":38800,"station_id":"ce4bhi12rcd13ifvqfp0","pricing_plan_id":"cebpf4jnsgd1na2vs0mg"},{"bike_id":"712cf05f-d720-43d4-8abe-83162cfb640a","system_id":"levelo_inurba_marseille","lat":43.28489,"lon":5.38413,"is_reserved":false,"is_disabled":false,"rental_uris":{"android":"levelo://app?vid=712cf05f-d720-43d4-8abe-83162cfb640a","ios":"levelo://app?vid=712cf05f-d720-43d4-8abe-83162cfb640a"},"vehicle_type_id":"4","last_reported":1734818852,"current_range_meters":32800,"station_id":"ce4bh512rcd13ifvqe3g","pricing_plan_id":"cebpf4jnsgd1na2vs0mg"},{"bike_id":"def99a7d-7a23-40f0-a391-05dfff8e59b7","system_id":"levelo_inurba_marseille","lat":43.298,"lon":5.40396,"is_reserved":false,"is_disabled":false,"rental_uris":{"android":"levelo://app?vid=def99a7d-7a23-40f0-a391-05dfff8e59b7","ios":"levelo://app?vid=def99a7d-7a23-40f0-a391-05dfff8e59b7"},"vehicle_type_id":"4","last_reported":1734818852,"current_range_meters":4400,"station_id":"ce4bh112rcd13ifvqd90","pricing_plan_id":"cebpf4jnsgd1na2vs0mg"},{"bike_id":"e0a32ec0-1524-44f6-b48a-381c8e58ba62","system_id":"levelo_inurba_marseille","lat":43.32652,"lon":5.40996,"is_reserved":false,"is_disabled":false,"rental_uris":{"android":"levelo://app?vid=e0a32ec0-1524-44f6-b48a-381c8e58ba62","ios":"levelo://app?vid=e0a32ec0-1524-44f6-b48a-381c8e58ba62"},"vehicle_type_id":"4","last_reported":1734818852,"current_range_meters":12400,"station_id":"ce4bhpp2rcd13ifvqhgg","pricing_plan_id":"cebpf4jnsgd1na2vs0mg"},{"bike_id":"b8b069ef-7989-427f-88a5-fe19edd7edcd","system_id":"levelo_inurba_marseille","lat":43.28974,"lon":5.37836,"is_reserved":false,"is_disabled":false,"rental_uris":{"android":"levelo://app?vid=b8b069ef-7989-427f-88a5-fe19edd7edcd","ios":"levelo://app?vid=b8b069ef-7989-427f-88a5-fe19edd7edcd"},"vehicle_type_id":"4","last_reported":1734818852,"current_range_meters":38000,"station_id":"ce4bh9p2rcd13ifvqed0","pricing_plan_id":"cebpf4jnsgd1na2vs0mg"},{"bike_id":"fe10191d-4949-44aa-952e-24e7dd773415","system_id":"levelo_inurba_marseille","lat":43.30891,"lon":5.37207,"is_reserved":false,"is_disabled":false,"rental_uris":{"android":"levelo://app?vid=fe10191d-4949-44aa-952e-24e7dd773415","ios":"levelo://app?vid=fe10191d-4949-44aa-952e-24e7dd773415"},"vehicle_type_id":"4","last_reported":1734818852,"current_range_meters":24800,"station_id":"ce4bguh2rcd13ifvqckg","pricing_plan_id":"cebpf4jnsgd1na2vs0mg"},{"bike_id":"1b0e9d34-71b5-4d2a-8c59-b2701c6566e6","system_id":"levelo_inurba_marseille","lat":43.25506,"lon":5.37647,"is_reserved":false,"is_disabled":false,"rental_uris":{"android":"levelo://app?vid=1b0e9d34-71b5-4d2a-8c59-b2701c6566e6","ios":"levelo://app?vid=1b0e9d34-71b5-4d2a-8c59-b2701c6566e6"},"vehicle_type_id":"4","last_reported":1734818852,"current_range_meters":38800,"station_id":"ce4bhh12rcd13ifvqff0","pricing_plan_id":"cebpf4jnsgd1na2vs0mg"},{"bike_id":"877fe626-a76a-4adb-b522-e8da1970693a","system_id":"levelo_inurba_marseille","lat":43.296,"lon":5.38107,"is_reserved":false,"is_disabled":false,"rental_uris":{"android":"levelo://app?vid=877fe626-a76a-4adb-b522-e8da1970693a","ios":"levelo://app?vid=877fe626-a76a-4adb-b522-e8da1970693a"},"vehicle_type_id":"4","last_reported":1734818852,"current_range_meters":22800,"station_id":"ce4bgl12rcd13ifvqbo0","pricing_plan_id":"cebpf4jnsgd1na2vs0mg"},{"bike_id":"a8241d4a-6511-4c13-8389-e037a362bfcf","system_id":"levelo_inurba_marseille","lat":43.28468,"lon":5.35893,"is_reserved":false,"is_disabled":false,"rental_uris":{"android":"levelo://app?vid=a8241d4a-6511-4c13-8389-e037a362bfcf","ios":"levelo://app?vid=a8241d4a-6511-4c13-8389-e037a362bfcf"},"vehicle_type_id":"4","last_reported":1734818852,"current_range_meters":38800,"station_id":"ce4bhah2rcd13ifvqei0","pricing_plan_id":"cebpf4jnsgd1na2vs0mg"},{"bike_id":"c89b25ce-1cca-4b0e-bd43-674179c12c3b","system_id":"levelo_inurba_marseille","lat":43.2942,"lon":5.38627,"is_reserved":false,"is_disabled":false,"rental_uris":{"android":"levelo://app?vid=c89b25ce-1cca-4b0e-bd43-674179c12c3b","ios":"levelo://app?vid=c89b25ce-1cca-4b0e-bd43-674179c12c3b"},"vehicle_type_id":"4","last_reported":1734818852,"current_range_meters":29600,"station_id":"ce4bh2h2rcd13ifvqdh0","pricing_plan_id":"cebpf4jnsgd1na2vs0mg"},{"bike_id":"493de140-fd8c-4b3d-9f7f-78b6c5c274eb","system_id":"levelo_inurba_marseille","lat":43.29726,"lon":5.37682,"is_reserved":false,"is_disabled":false,"rental_uris":{"android":"levelo://app?vid=493de140-fd8c-4b3d-9f7f-78b6c5c274eb","ios":"levelo://app?vid=493de140-fd8c-4b3d-9f7f-78b6c5c274eb"},"vehicle_type_id":"4","last_reported":1734818852,"current_range_meters":22000,"station_id":"ce4bgkh2rcd13ifvqbl0","pricing_plan_id":"cebpf4jnsgd1na2vs0mg"},{"bike_id":"f19e7308-f4a4-40ff-927f-9dd947ac10d0","system_id":"levelo_inurba_marseille","lat":43.29183,"lon":5.35802,"is_reserved":false,"is_disabled":false,"rental_uris":{"android":"levelo://app?vid=f19e7308-f4a4-40ff-927f-9dd947ac10d0","ios":"levelo://app?vid=f19e7308-f4a4-40ff-927f-9dd947ac10d0"},"vehicle_type_id":"4","last_reported":1734818852,"current_range_meters":37600,"station_id":"ce4bhb12rcd13ifvqel0","pricing_plan_id":"cebpf4jnsgd1na2vs0mg"},{"bike_id":"5af896b0-8716-40bc-88dc-2f546a449d6e","system_id":"levelo_inurba_marseille","lat":43.2846,"lon":5.35889,"is_reserved":false,"is_disabled":false,"rental_uris":{"android":"levelo://app?vid=5af896b0-8716-40bc-88dc-2f546a449d6e","ios":"levelo://app?vid=5af896b0-8716-40bc-88dc-2f546a449d6e"},"vehicle_type_id":"4","last_reported":1734818852,"current_range_meters":28000,"station_id":"ce4bhah2rcd13ifvqei0","pricing_plan_id":"cebpf4jnsgd1na2vs0mg"},{"bike_id":"de6ebabc-a12a-455f-8ac6-5811b92b2163","system_id":"levelo_inurba_marseille","lat":43.29304,"lon":5.37447,"is_reserved":false,"is_disabled":true,"rental_uris":{"android":"levelo://app?vid=de6ebabc-a12a-455f-8ac6-5811b92b2163","ios":"levelo://app?vid=de6ebabc-a12a-455f-8ac6-5811b92b2163"},"vehicle_type_id":"4","last_reported":1734818852,"current_range_meters":20400,"station_id":"ce4bgi12rcd13ifvqb70","pricing_plan_id":"cebpf4jnsgd1na2vs0mg"},{"bike_id":"b07e0204-2c57-49d1-a1f7-320de8610e25","system_id":"levelo_inurba_marseille","lat":43.29427,"lon":5.37418,"is_reserved":false,"is_disabled":false,"rental_uris":{"android":"levelo://app?vid=b07e0204-2c57-49d1-a1f7-320de8610e25","ios":"levelo://app?vid=b07e0204-2c57-49d1-a1f7-320de8610e25"},"vehicle_type_id":"4","last_reported":1734818852,"current_range_meters":31200,"station_id":"","pricing_plan_id":"cebpf4jnsgd1na2vs0mg"},{"bike_id":"070e483f-8929-43ba-9809-3a2f5443ce43","system_id":"levelo_inurba_marseille","lat":43.2808,"lon":5.39647,"is_reserved":false,"is_disabled":false,"rental_uris":{"android":"levelo://app?vid=070e483f-8929-43ba-9809-3a2f5443ce43","ios":"levelo://app?vid=070e483f-8929-43ba-9809-3a2f5443ce43"},"vehicle_type_id":"4","last_reported":1734818852,"current_range_meters":38800,"station_id":"ce4bho12rcd13ifvqh2g","pricing_plan_id":"cebpf4jnsgd1na2vs0mg"},{"bike_id":"8a4065ea-eb0c-46d4-8ef1-eef51dda96b5","system_id":"levelo_inurba_marseille","lat":43.29534,"lon":5.38533,"is_reserved":false,"is_disabled":false,"rental_uris":{"android":"levelo://app?vid=8a4065ea-eb0c-46d4-8ef1-eef51dda96b5","ios":"levelo://app?vid=8a4065ea-eb0c-46d4-8ef1-eef51dda96b5"},"vehicle_type_id":"4","last_reported":1734818852,"current_range_meters":11600,"station_id":"ce4bgih2rcd13ifvqba0","pricing_plan_id":"cebpf4jnsgd1na2vs0mg"},{"bike_id":"02cf79c6-68fd-4030-9099-145da0f8d7ea","system_id":"levelo_inurba_marseille","lat":43.2873,"lon":5.36075,"is_reserved":false,"is_disabled":false,"rental_uris":{"android":"levelo://app?vid=02cf79c6-68fd-4030-9099-145da0f8d7ea","ios":"levelo://app?vid=02cf79c6-68fd-4030-9099-145da0f8d7ea"},"vehicle_type_id":"4","last_reported":1734818852,"current_range_meters":38800,"station_id":"cki0cbj6b192h4jlfktg","pricing_plan_id":"cebpf4jnsgd1na2vs0mg"},{"bike_id":"f40e7c61-8a43-4da7-a842-fa391ba2fc6e","system_id":"levelo_inurba_marseille","lat":43.26024,"lon":5.37555,"is_reserved":false,"is_disabled":false,"rental_uris":{"android":"levelo://app?vid=f40e7c61-8a43-4da7-a842-fa391ba2fc6e","ios":"levelo://app?vid=f40e7c61-8a43-4da7-a842-fa391ba2fc6e"},"vehicle_type_id":"4","last_reported":1734818852,"current_range_meters":37600,"station_id":"ce4bhgh2rcd13ifvqfa0","pricing_plan_id":"cebpf4jnsgd1na2vs0mg"},{"bike_id":"e65ef5d9-1854-443c-b6bc-23a7997e9adf","system_id":"levelo_inurba_marseille","lat":43.26558,"lon":5.38999,"is_reserved":false,"is_disabled":false,"rental_uris":{"android":"levelo://app?vid=e65ef5d9-1854-443c-b6bc-23a7997e9adf","ios":"levelo://app?vid=e65ef5d9-1854-443c-b6bc-23a7997e9adf"},"vehicle_type_id":"4","last_reported":1734818852,"current_range_meters":30000,"station_id":"ce4bhe12rcd13ifvqf30","pricing_plan_id":"cebpf4jnsgd1na2vs0mg"},{"bike_id":"f0bcbb45-555d-4c5b-8534-084b0fafc4e9","system_id":"levelo_inurba_marseille","lat":43.29166,"lon":5.3715,"is_reserved":false,"is_disabled":true,"rental_uris":{"android":"levelo://app?vid=f0bcbb45-555d-4c5b-8534-084b0fafc4e9","ios":"levelo://app?vid=f0bcbb45-555d-4c5b-8534-084b0fafc4e9"},"vehicle_type_id":"4","last_reported":1734818852,"current_range_meters":38000,"station_id":"ce4bha92rcd13ifvqeh0","pricing_plan_id":"cebpf4jnsgd1na2vs0mg"},{"bike_id":"76b76425-6067-4ebf-b7fd-d9791c7cf83d","system_id":"levelo_inurba_marseille","lat":43.28941,"lon":5.36632,"is_reserved":false,"is_disabled":false,"rental_uris":{"android":"levelo://app?vid=76b76425-6067-4ebf-b7fd-d9791c7cf83d","ios":"levelo://app?vid=76b76425-6067-4ebf-b7fd-d9791c7cf83d"},"vehicle_type_id":"4","last_reported":1734818852,"current_range_meters":38000,"station_id":"ce4bhap2rcd13ifvqek0","pricing_plan_id":"cebpf4jnsgd1na2vs0mg"},{"bike_id":"53be3d88-2f89-4784-b9cc-4a3607593615","system_id":"levelo_inurba_marseille","lat":43.24077,"lon":5.37751,"is_reserved":false,"is_disabled":false,"rental_uris":{"android":"levelo://app?vid=53be3d88-2f89-4784-b9cc-4a3607593615","ios":"levelo://app?vid=53be3d88-2f89-4784-b9cc-4a3607593615"},"vehicle_type_id":"4","last_reported":1734818852,"current_range_meters":28000,"station_id":"ce4bhnp2rcd13ifvqgvg","pricing_plan_id":"cebpf4jnsgd1na2vs0mg"},{"bike_id":"b002d028-e42c-46e2-93ce-a18a7a90546e","system_id":"levelo_inurba_marseille","lat":43.322881,"lon":5.382762,"is_reserved":false,"is_disabled":false,"rental_uris":{"android":"levelo://app?vid=b002d028-e42c-46e2-93ce-a18a7a90546e","ios":"levelo://app?vid=b002d028-e42c-46e2-93ce-a18a7a90546e"},"vehicle_type_id":"4","last_reported":1734818852,"current_range_meters":22000,"station_id":"ce4bhr12rcd13ifvqhqg","pricing_plan_id":"cebpf4jnsgd1na2vs0mg"},{"bike_id":"67c8c173-0c6c-46f3-96ff-08a69629473b","system_id":"levelo_inurba_marseille","lat":43.2963,"lon":5.40595,"is_reserved":false,"is_disabled":false,"rental_uris":{"android":"levelo://app?vid=67c8c173-0c6c-46f3-96ff-08a69629473b","ios":"levelo://app?vid=67c8c173-0c6c-46f3-96ff-08a69629473b"},"vehicle_type_id":"4","last_reported":1734818852,"current_range_meters":24400,"station_id":"ce4bh0h2rcd13ifvqd60","pricing_plan_id":"cebpf4jnsgd1na2vs0mg"},{"bike_id":"725f2ba4-42ee-480b-a31f-097189b1c2cf","system_id":"levelo_inurba_marseille","lat":43.291933,"lon":5.35793,"is_reserved":false,"is_disabled":true,"rental_uris":{"android":"levelo://app?vid=725f2ba4-42ee-480b-a31f-097189b1c2cf","ios":"levelo://app?vid=725f2ba4-42ee-480b-a31f-097189b1c2cf"},"vehicle_type_id":"4","last_reported":1734818852,"current_range_meters":38800,"station_id":"ce4bhb12rcd13ifvqel0","pricing_plan_id":"cebpf4jnsgd1na2vs0mg"},{"bike_id":"9402f944-2ab0-40ec-9775-0b04396b6114","system_id":"levelo_inurba_marseille","lat":43.23166,"lon":5.39982,"is_reserved":false,"is_disabled":false,"rental_uris":{"android":"levelo://app?vid=9402f944-2ab0-40ec-9775-0b04396b6114","ios":"levelo://app?vid=9402f944-2ab0-40ec-9775-0b04396b6114"},"vehicle_type_id":"4","last_reported":1734818852,"current_range_meters":38000,"station_id":"ce4bhn12rcd13ifvqgqg","pricing_plan_id":"cebpf4jnsgd1na2vs0mg"},{"bike_id":"6311cdc2-3b3e-46f4-965c-810d2cd8c6bf","system_id":"levelo_inurba_marseille","lat":43.29255,"lon":5.40903,"is_reserved":false,"is_disabled":false,"rental_uris":{"android":"levelo://app?vid=6311cdc2-3b3e-46f4-965c-810d2cd8c6bf","ios":"levelo://app?vid=6311cdc2-3b3e-46f4-965c-810d2cd8c6bf"},"vehicle_type_id":"4","last_reported":1734818852,"current_range_meters":26000,"station_id":"ce4bh192rcd13ifvqdc0","pricing_plan_id":"cebpf4jnsgd1na2vs0mg"},{"bike_id":"28f15137-bb35-42e8-b98a-52b9c93706ac","system_id":"levelo_inurba_marseille","lat":43.29275,"lon":5.40135,"is_reserved":false,"is_disabled":true,"rental_uris":{"android":"levelo://app?vid=28f15137-bb35-42e8-b98a-52b9c93706ac","ios":"levelo://app?vid=28f15137-bb35-42e8-b98a-52b9c93706ac"},"vehicle_type_id":"4","last_reported":1734818852,"current_range_meters":0,"station_id":"ce4bh312rcd13ifvqdk0","pricing_plan_id":"cebpf4jnsgd1na2vs0mg"},{"bike_id":"4094ac40-fe97-4483-91f4-bc4b6a97b4f3","system_id":"levelo_inurba_marseille","lat":43.25824,"lon":5.39422,"is_reserved":false,"is_disabled":true,"rental_uris":{"android":"levelo://app?vid=4094ac40-fe97-4483-91f4-bc4b6a97b4f3","ios":"levelo://app?vid=4094ac40-fe97-4483-91f4-bc4b6a97b4f3"},"vehicle_type_id":"4","last_reported":1734818852,"current_range_meters":3600,"station_id":"ce4bhip2rcd13ifvqft0","pricing_plan_id":"cebpf4jnsgd1na2vs0mg"},{"bike_id":"ed495aba-f9b6-4311-b39c-649f2202b23f","system_id":"levelo_inurba_marseille","lat":43.27561,"lon":5.38424,"is_reserved":false,"is_disabled":false,"rental_uris":{"android":"levelo://app?vid=ed495aba-f9b6-4311-b39c-649f2202b23f","ios":"levelo://app?vid=ed495aba-f9b6-4311-b39c-649f2202b23f"},"vehicle_type_id":"4","last_reported":1734818852,"current_range_meters":39200,"station_id":"ce4bhh92rcd13ifvqfi0","pricing_plan_id":"cebpf4jnsgd1na2vs0mg"},{"bike_id":"f953c87c-4ea7-4e78-9490-68e955a0946d","system_id":"levelo_inurba_marseille","lat":43.2549,"lon":5.37647,"is_reserved":false,"is_disabled":true,"rental_uris":{"android":"levelo://app?vid=f953c87c-4ea7-4e78-9490-68e955a0946d","ios":"levelo://app?vid=f953c87c-4ea7-4e78-9490-68e955a0946d"},"vehicle_type_id":"4","last_reported":1734818852,"current_range_meters":17600,"station_id":"ce4bhh12rcd13ifvqff0","pricing_plan_id":"cebpf4jnsgd1na2vs0mg"},{"bike_id":"eddf6680-846f-4329-a45c-ae95db2c1ac9","system_id":"levelo_inurba_marseille","lat":43.26209,"lon":5.3744,"is_reserved":false,"is_disabled":false,"rental_uris":{"android":"levelo://app?vid=eddf6680-846f-4329-a45c-ae95db2c1ac9","ios":"levelo://app?vid=eddf6680-846f-4329-a45c-ae95db2c1ac9"},"vehicle_type_id":"4","last_reported":1734818852,"current_range_meters":9200,"station_id":"ce4bhgp2rcd13ifvqfc0","pricing_plan_id":"cebpf4jnsgd1na2vs0mg"},{"bike_id":"bffa53fc-fd24-43bb-914d-8fb43c7a35d6","system_id":"levelo_inurba_marseille","lat":43.26684,"lon":5.38274,"is_reserved":false,"is_disabled":false,"rental_uris":{"android":"levelo://app?vid=bffa53fc-fd24-43bb-914d-8fb43c7a35d6","ios":"levelo://app?vid=bffa53fc-fd24-43bb-914d-8fb43c7a35d6"},"vehicle_type_id":"4","last_reported":1734818852,"current_range_meters":29600,"station_id":"ce4bhg92rcd13ifvqf90","pricing_plan_id":"cebpf4jnsgd1na2vs0mg"},{"bike_id":"c91da701-8020-4c63-924e-c2588244a161","system_id":"levelo_inurba_marseille","lat":43.311727,"lon":5.387163,"is_reserved":false,"is_disabled":true,"rental_uris":{"android":"levelo://app?vid=c91da701-8020-4c63-924e-c2588244a161","ios":"levelo://app?vid=c91da701-8020-4c63-924e-c2588244a161"},"vehicle_type_id":"4","last_reported":1734818852,"current_range_meters":4800,"station_id":"ce4bgv12rcd13ifvqcp0","pricing_plan_id":"cebpf4jnsgd1na2vs0mg"},{"bike_id":"b73b3cc8-26fa-4032-8e99-f74b6ff40c2a","system_id":"levelo_inurba_marseille","lat":43.27016,"lon":5.40211,"is_reserved":false,"is_disabled":false,"rental_uris":{"android":"levelo://app?vid=b73b3cc8-26fa-4032-8e99-f74b6ff40c2a","ios":"levelo://app?vid=b73b3cc8-26fa-4032-8e99-f74b6ff40c2a"},"vehicle_type_id":"4","last_reported":1734818852,"current_range_meters":17600,"station_id":"","pricing_plan_id":"cebpf4jnsgd1na2vs0mg"},{"bike_id":"0fa4fd6a-c920-470e-9628-342bc95af557","system_id":"levelo_inurba_marseille","lat":43.246581,"lon":5.381531,"is_reserved":false,"is_disabled":false,"rental_uris":{"android":"levelo://app?vid=0fa4fd6a-c920-470e-9628-342bc95af557","ios":"levelo://app?vid=0fa4fd6a-c920-470e-9628-342bc95af557"},"vehicle_type_id":"4","last_reported":1734818852,"current_range_meters":36400,"station_id":"ce4bhih2rcd13ifvqfr0","pricing_plan_id":"cebpf4jnsgd1na2vs0mg"},{"bike_id":"32ebf098-e002-4aa6-88f7-5b365ee05e11","system_id":"levelo_inurba_marseille","lat":43.24084,"lon":5.37746,"is_reserved":false,"is_disabled":true,"rental_uris":{"android":"levelo://app?vid=32ebf098-e002-4aa6-88f7-5b365ee05e11","ios":"levelo://app?vid=32ebf098-e002-4aa6-88f7-5b365ee05e11"},"vehicle_type_id":"4","last_reported":1734818852,"current_range_meters":0,"station_id":"ce4bhnp2rcd13ifvqgvg","pricing_plan_id":"cebpf4jnsgd1na2vs0mg"},{"bike_id":"c76930fa-a944-41b3-a457-e7963f69e35f","system_id":"levelo_inurba_marseille","lat":43.26057,"lon":5.3939,"is_reserved":false,"is_disabled":false,"rental_uris":{"android":"levelo://app?vid=c76930fa-a944-41b3-a457-e7963f69e35f","ios":"levelo://app?vid=c76930fa-a944-41b3-a457-e7963f69e35f"},"vehicle_type_id":"4","last_reported":1734818852,"current_range_meters":10800,"station_id":"ce4bhh92rcd13ifvqfj0","pricing_plan_id":"cebpf4jnsgd1na2vs0mg"},{"bike_id":"de80bfb0-e23d-4fad-9742-3af3f4a72245","system_id":"levelo_inurba_marseille","lat":43.29907,"lon":5.38127,"is_reserved":false,"is_disabled":false,"rental_uris":{"android":"levelo://app?vid=de80bfb0-e23d-4fad-9742-3af3f4a72245","ios":"levelo://app?vid=de80bfb0-e23d-4fad-9742-3af3f4a72245"},"vehicle_type_id":"4","last_reported":1734818852,"current_range_meters":39200,"station_id":"ce4bgj12rcd13ifvqbc0","pricing_plan_id":"cebpf4jnsgd1na2vs0mg"},{"bike_id":"ae26c6f5-f7ff-47c2-94e3-1e3154b24029","system_id":"levelo_inurba_marseille","lat":43.29793,"lon":5.37098,"is_reserved":false,"is_disabled":false,"rental_uris":{"android":"levelo://app?vid=ae26c6f5-f7ff-47c2-94e3-1e3154b24029","ios":"levelo://app?vid=ae26c6f5-f7ff-47c2-94e3-1e3154b24029"},"vehicle_type_id":"4","last_reported":1734818852,"current_range_meters":35200,"station_id":"ce4bgop2rcd13ifvqc1g","pricing_plan_id":"cebpf4jnsgd1na2vs0mg"},{"bike_id":"65aa7d33-db19-4b48-b2a2-a177bc62ee14","system_id":"levelo_inurba_marseille","lat":43.29843,"lon":5.36266,"is_reserved":false,"is_disabled":false,"rental_uris":{"android":"levelo://app?vid=65aa7d33-db19-4b48-b2a2-a177bc62ee14","ios":"levelo://app?vid=65aa7d33-db19-4b48-b2a2-a177bc62ee14"},"vehicle_type_id":"4","last_reported":1734818852,"current_range_meters":24000,"station_id":"ce4bgpp2rcd13ifvqc3g","pricing_plan_id":"cebpf4jnsgd1na2vs0mg"},{"bike_id":"9b672fca-fdc1-423c-9a1d-80d02b986e83","system_id":"levelo_inurba_marseille","lat":43.28701,"lon":5.39988,"is_reserved":false,"is_disabled":false,"rental_uris":{"android":"levelo://app?vid=9b672fca-fdc1-423c-9a1d-80d02b986e83","ios":"levelo://app?vid=9b672fca-fdc1-423c-9a1d-80d02b986e83"},"vehicle_type_id":"4","last_reported":1734818852,"current_range_meters":9200,"station_id":"ce4bho92rcd13ifvqh3g","pricing_plan_id":"cebpf4jnsgd1na2vs0mg"},{"bike_id":"d601ef16-b5d6-4190-809b-b10e18d9080a","system_id":"levelo_inurba_marseille","lat":43.30796,"lon":5.38163,"is_reserved":false,"is_disabled":false,"rental_uris":{"android":"levelo://app?vid=d601ef16-b5d6-4190-809b-b10e18d9080a","ios":"levelo://app?vid=d601ef16-b5d6-4190-809b-b10e18d9080a"},"vehicle_type_id":"4","last_reported":1734818852,"current_range_meters":38800,"station_id":"ce4bgt12rcd13ifvqce0","pricing_plan_id":"cebpf4jnsgd1na2vs0mg"},{"bike_id":"ba623d7f-de4d-43e6-9a39-be19938e75fb","system_id":"levelo_inurba_marseille","lat":43.29369,"lon":5.37856,"is_reserved":false,"is_disabled":true,"rental_uris":{"android":"levelo://app?vid=ba623d7f-de4d-43e6-9a39-be19938e75fb","ios":"levelo://app?vid=ba623d7f-de4d-43e6-9a39-be19938e75fb"},"vehicle_type_id":"4","last_reported":1734818852,"current_range_meters":38000,"station_id":"","pricing_plan_id":"cebpf4jnsgd1na2vs0mg"},{"bike_id":"7ee6dfa4-a41c-4ffe-9185-2adabb50d1fd","system_id":"levelo_inurba_marseille","lat":43.3058,"lon":5.39328,"is_reserved":false,"is_disabled":false,"rental_uris":{"android":"levelo://app?vid=7ee6dfa4-a41c-4ffe-9185-2adabb50d1fd","ios":"levelo://app?vid=7ee6dfa4-a41c-4ffe-9185-2adabb50d1fd"},"vehicle_type_id":"4","last_reported":1734818852,"current_range_meters":38800,"station_id":"ce4bh0p2rcd13ifvqd80","pricing_plan_id":"cebpf4jnsgd1na2vs0mg"},{"bike_id":"06ffffce-9bda-48fc-aa21-77e7492f87fe","system_id":"levelo_inurba_marseille","lat":43.28462,"lon":5.35896,"is_reserved":false,"is_disabled":false,"rental_uris":{"android":"levelo://app?vid=06ffffce-9bda-48fc-aa21-77e7492f87fe","ios":"levelo://app?vid=06ffffce-9bda-48fc-aa21-77e7492f87fe"},"vehicle_type_id":"4","last_reported":1734818852,"current_range_meters":28800,"station_id":"ce4bhah2rcd13ifvqei0","pricing_plan_id":"cebpf4jnsgd1na2vs0mg"},{"bike_id":"b847c8c6-c749-49a9-a698-895d0864b15f","system_id":"levelo_inurba_marseille","lat":43.29534,"lon":5.38538,"is_reserved":false,"is_disabled":false,"rental_uris":{"android":"levelo://app?vid=b847c8c6-c749-49a9-a698-895d0864b15f","ios":"levelo://app?vid=b847c8c6-c749-49a9-a698-895d0864b15f"},"vehicle_type_id":"4","last_reported":1734818852,"current_range_meters":11600,"station_id":"ce4bgih2rcd13ifvqba0","pricing_plan_id":"cebpf4jnsgd1na2vs0mg"},{"bike_id":"a3bc8615-685e-4a88-ba31-e2574d0066d0","system_id":"levelo_inurba_marseille","lat":43.2973,"lon":5.37688,"is_reserved":false,"is_disabled":false,"rental_uris":{"android":"levelo://app?vid=a3bc8615-685e-4a88-ba31-e2574d0066d0","ios":"levelo://app?vid=a3bc8615-685e-4a88-ba31-e2574d0066d0"},"vehicle_type_id":"4","last_reported":1734818852,"current_range_meters":39200,"station_id":"ce4bgkh2rcd13ifvqbl0","pricing_plan_id":"cebpf4jnsgd1na2vs0mg"},{"bike_id":"10d16ca8-28c0-405d-8543-1a0f299451c6","system_id":"levelo_inurba_marseille","lat":43.27809,"lon":5.40721,"is_reserved":false,"is_disabled":false,"rental_uris":{"android":"levelo://app?vid=10d16ca8-28c0-405d-8543-1a0f299451c6","ios":"levelo://app?vid=10d16ca8-28c0-405d-8543-1a0f299451c6"},"vehicle_type_id":"4","last_reported":1734818852,"current_range_meters":14800,"station_id":"ce4bhnh2rcd13ifvqgtg","pricing_plan_id":"cebpf4jnsgd1na2vs0mg"},{"bike_id":"d7a9a039-2919-4498-94bc-85df69bbf9b4","system_id":"levelo_inurba_marseille","lat":43.250943,"lon":5.395102,"is_reserved":false,"is_disabled":true,"rental_uris":{"android":"levelo://app?vid=d7a9a039-2919-4498-94bc-85df69bbf9b4","ios":"levelo://app?vid=d7a9a039-2919-4498-94bc-85df69bbf9b4"},"vehicle_type_id":"4","last_reported":1734818852,"current_range_meters":0,"station_id":"ce4bhm12rcd13ifvqgkg","pricing_plan_id":"cebpf4jnsgd1na2vs0mg"},{"bike_id":"f6e00a83-cc1f-4aaf-83bb-77e9d3b9e809","system_id":"levelo_inurba_marseille","lat":43.337444,"lon":5.374475,"is_reserved":false,"is_disabled":false,"rental_uris":{"android":"levelo://app?vid=f6e00a83-cc1f-4aaf-83bb-77e9d3b9e809","ios":"levelo://app?vid=f6e00a83-cc1f-4aaf-83bb-77e9d3b9e809"},"vehicle_type_id":"4","last_reported":1734818852,"current_range_meters":27200,"station_id":"","pricing_plan_id":"cebpf4jnsgd1na2vs0mg"},{"bike_id":"4557c5fc-60ed-4c34-9596-70c70138f451","system_id":"levelo_inurba_marseille","lat":43.29621,"lon":5.37152,"is_reserved":false,"is_disabled":true,"rental_uris":{"android":"levelo://app?vid=4557c5fc-60ed-4c34-9596-70c70138f451","ios":"levelo://app?vid=4557c5fc-60ed-4c34-9596-70c70138f451"},"vehicle_type_id":"4","last_reported":1734818852,"current_range_meters":0,"station_id":"","pricing_plan_id":"cebpf4jnsgd1na2vs0mg"},{"bike_id":"23e07abd-81cd-494b-853f-01de9d6cd1c5","system_id":"levelo_inurba_marseille","lat":43.26926,"lon":5.40266,"is_reserved":false,"is_disabled":false,"rental_uris":{"android":"levelo://app?vid=23e07abd-81cd-494b-853f-01de9d6cd1c5","ios":"levelo://app?vid=23e07abd-81cd-494b-853f-01de9d6cd1c5"},"vehicle_type_id":"4","last_reported":1734818852,"current_range_meters":38000,"station_id":"cjm6bp8fraef2m0cb0m0","pricing_plan_id":"cebpf4jnsgd1na2vs0mg"},{"bike_id":"2daf6017-db0c-42c7-86d8-f89177a5712a","system_id":"levelo_inurba_marseille","lat":43.24078,"lon":5.37768,"is_reserved":false,"is_disabled":false,"rental_uris":{"android":"levelo://app?vid=2daf6017-db0c-42c7-86d8-f89177a5712a","ios":"levelo://app?vid=2daf6017-db0c-42c7-86d8-f89177a5712a"},"vehicle_type_id":"4","last_reported":1734818852,"current_range_meters":24800,"station_id":"ce4bhnp2rcd13ifvqgvg","pricing_plan_id":"cebpf4jnsgd1na2vs0mg"},{"bike_id":"5d3dccbb-bf20-44a3-8771-80caee06bf13","system_id":"levelo_inurba_marseille","lat":43.31976,"lon":5.38133,"is_reserved":false,"is_disabled":false,"rental_uris":{"android":"levelo://app?vid=5d3dccbb-bf20-44a3-8771-80caee06bf13","ios":"levelo://app?vid=5d3dccbb-bf20-44a3-8771-80caee06bf13"},"vehicle_type_id":"4","last_reported":1734818852,"current_range_meters":37600,"station_id":"ce4bhr12rcd13ifvqhpg","pricing_plan_id":"cebpf4jnsgd1na2vs0mg"},{"bike_id":"5a02cac6-8726-4733-81bd-85fdd2c33e8c","system_id":"levelo_inurba_marseille","lat":43.29517,"lon":5.39394,"is_reserved":false,"is_disabled":false,"rental_uris":{"android":"levelo://app?vid=5a02cac6-8726-4733-81bd-85fdd2c33e8c","ios":"levelo://app?vid=5a02cac6-8726-4733-81bd-85fdd2c33e8c"},"vehicle_type_id":"4","last_reported":1734818852,"current_range_meters":38800,"station_id":"ce4bh292rcd13ifvqdf0","pricing_plan_id":"cebpf4jnsgd1na2vs0mg"},{"bike_id":"a98c7fb1-32b6-47d3-863d-fcb2a8f86141","system_id":"levelo_inurba_marseille","lat":43.27891,"lon":5.38018,"is_reserved":false,"is_disabled":false,"rental_uris":{"android":"levelo://app?vid=a98c7fb1-32b6-47d3-863d-fcb2a8f86141","ios":"levelo://app?vid=a98c7fb1-32b6-47d3-863d-fcb2a8f86141"},"vehicle_type_id":"4","last_reported":1734818852,"current_range_meters":38000,"station_id":"ce4bhf92rcd13ifvqf50","pricing_plan_id":"cebpf4jnsgd1na2vs0mg"},{"bike_id":"ba66dcd7-1375-48c7-9d1c-af860c98462a","system_id":"levelo_inurba_marseille","lat":43.27991,"lon":5.41658,"is_reserved":false,"is_disabled":false,"rental_uris":{"android":"levelo://app?vid=ba66dcd7-1375-48c7-9d1c-af860c98462a","ios":"levelo://app?vid=ba66dcd7-1375-48c7-9d1c-af860c98462a"},"vehicle_type_id":"4","last_reported":1734818852,"current_range_meters":38800,"station_id":"ce4bho12rcd13ifvqh1g","pricing_plan_id":"cebpf4jnsgd1na2vs0mg"},{"bike_id":"18e608c2-78ba-4d99-820e-49df6fc4e8b5","system_id":"levelo_inurba_marseille","lat":43.31759,"lon":5.39013,"is_reserved":false,"is_disabled":false,"rental_uris":{"android":"levelo://app?vid=18e608c2-78ba-4d99-820e-49df6fc4e8b5","ios":"levelo://app?vid=18e608c2-78ba-4d99-820e-49df6fc4e8b5"},"vehicle_type_id":"4","last_reported":1734818852,"current_range_meters":14000,"station_id":"ce4bhqp2rcd13ifvqhng","pricing_plan_id":"cebpf4jnsgd1na2vs0mg"},{"bike_id":"1a5a7a4c-a335-4234-986c-555102352345","system_id":"levelo_inurba_marseille","lat":43.3009,"lon":5.39089,"is_reserved":false,"is_disabled":false,"rental_uris":{"android":"levelo://app?vid=1a5a7a4c-a335-4234-986c-555102352345","ios":"levelo://app?vid=1a5a7a4c-a335-4234-986c-555102352345"},"vehicle_type_id":"4","last_reported":1734818852,"current_range_meters":25200,"station_id":"ce4bh192rcd13ifvqdb0","pricing_plan_id":"cebpf4jnsgd1na2vs0mg"},{"bike_id":"8d23ef1c-4d80-41f5-8856-02b6ab55c880","system_id":"levelo_inurba_marseille","lat":43.33727,"lon":5.39182,"is_reserved":false,"is_disabled":false,"rental_uris":{"android":"levelo://app?vid=8d23ef1c-4d80-41f5-8856-02b6ab55c880","ios":"levelo://app?vid=8d23ef1c-4d80-41f5-8856-02b6ab55c880"},"vehicle_type_id":"4","last_reported":1734818852,"current_range_meters":33600,"station_id":"ce4bhr92rcd13ifvqhsg","pricing_plan_id":"cebpf4jnsgd1na2vs0mg"},{"bike_id":"7eef964e-8b71-4771-a5f9-558dc0f6b5fa","system_id":"levelo_inurba_marseille","lat":43.31492,"lon":5.37317,"is_reserved":false,"is_disabled":false,"rental_uris":{"android":"levelo://app?vid=7eef964e-8b71-4771-a5f9-558dc0f6b5fa","ios":"levelo://app?vid=7eef964e-8b71-4771-a5f9-558dc0f6b5fa"},"vehicle_type_id":"4","last_reported":1734818852,"current_range_meters":38800,"station_id":"ce4bgt12rcd13ifvqcd0","pricing_plan_id":"cebpf4jnsgd1na2vs0mg"},{"bike_id":"ab5284a7-4a18-4006-b063-55e885d74a97","system_id":"levelo_inurba_marseille","lat":43.309498,"lon":5.390471,"is_reserved":false,"is_disabled":false,"rental_uris":{"android":"levelo://app?vid=ab5284a7-4a18-4006-b063-55e885d74a97","ios":"levelo://app?vid=ab5284a7-4a18-4006-b063-55e885d74a97"},"vehicle_type_id":"4","last_reported":1734818852,"current_range_meters":38800,"station_id":"ce4bgup2rcd13ifvqco0","pricing_plan_id":"cebpf4jnsgd1na2vs0mg"},{"bike_id":"60d37bab-e0a6-4b11-81f8-85326da8d120","system_id":"levelo_inurba_marseille","lat":43.28946,"lon":5.36628,"is_reserved":false,"is_disabled":true,"rental_uris":{"android":"levelo://app?vid=60d37bab-e0a6-4b11-81f8-85326da8d120","ios":"levelo://app?vid=60d37bab-e0a6-4b11-81f8-85326da8d120"},"vehicle_type_id":"4","last_reported":1734818852,"current_range_meters":9600,"station_id":"ce4bhap2rcd13ifvqek0","pricing_plan_id":"cebpf4jnsgd1na2vs0mg"},{"bike_id":"471edb8a-87bd-44d6-bec1-010437b608e6","system_id":"levelo_inurba_marseille","lat":43.3361,"lon":5.41033,"is_reserved":false,"is_disabled":false,"rental_uris":{"android":"levelo://app?vid=471edb8a-87bd-44d6-bec1-010437b608e6","ios":"levelo://app?vid=471edb8a-87bd-44d6-bec1-010437b608e6"},"vehicle_type_id":"4","last_reported":1734818852,"current_range_meters":21600,"station_id":"ce4bhqh2rcd13ifvqhmg","pricing_plan_id":"cebpf4jnsgd1na2vs0mg"},{"bike_id":"dac94ecf-3203-4c89-acc0-21c14e979588","system_id":"levelo_inurba_marseille","lat":43.266855,"lon":5.382734,"is_reserved":false,"is_disabled":false,"rental_uris":{"android":"levelo://app?vid=dac94ecf-3203-4c89-acc0-21c14e979588","ios":"levelo://app?vid=dac94ecf-3203-4c89-acc0-21c14e979588"},"vehicle_type_id":"4","last_reported":1734818852,"current_range_meters":29600,"station_id":"ce4bhg92rcd13ifvqf90","pricing_plan_id":"cebpf4jnsgd1na2vs0mg"},{"bike_id":"c4b82bf8-a524-4f71-86c7-119cea50a7e1","system_id":"levelo_inurba_marseille","lat":43.30613,"lon":5.39342,"is_reserved":false,"is_disabled":false,"rental_uris":{"android":"levelo://app?vid=c4b82bf8-a524-4f71-86c7-119cea50a7e1","ios":"levelo://app?vid=c4b82bf8-a524-4f71-86c7-119cea50a7e1"},"vehicle_type_id":"4","last_reported":1734818852,"current_range_meters":38000,"station_id":"ce4bh0p2rcd13ifvqd80","pricing_plan_id":"cebpf4jnsgd1na2vs0mg"},{"bike_id":"ebefe249-7ec5-42c3-8bfa-8b1fd50d0f6c","system_id":"levelo_inurba_marseille","lat":43.31156,"lon":5.37762,"is_reserved":false,"is_disabled":false,"rental_uris":{"android":"levelo://app?vid=ebefe249-7ec5-42c3-8bfa-8b1fd50d0f6c","ios":"levelo://app?vid=ebefe249-7ec5-42c3-8bfa-8b1fd50d0f6c"},"vehicle_type_id":"4","last_reported":1734818852,"current_range_meters":16400,"station_id":"ce4bgt92rcd13ifvqcg0","pricing_plan_id":"cebpf4jnsgd1na2vs0mg"},{"bike_id":"683510de-4138-4547-bc29-5ce06228c9bf","system_id":"levelo_inurba_marseille","lat":43.28994,"lon":5.35602,"is_reserved":false,"is_disabled":false,"rental_uris":{"android":"levelo://app?vid=683510de-4138-4547-bc29-5ce06228c9bf","ios":"levelo://app?vid=683510de-4138-4547-bc29-5ce06228c9bf"},"vehicle_type_id":"4","last_reported":1734818852,"current_range_meters":36000,"station_id":"ce4bhb92rcd13ifvqen0","pricing_plan_id":"cebpf4jnsgd1na2vs0mg"},{"bike_id":"8782eadc-dace-4bd1-983c-8258bfcfc446","system_id":"levelo_inurba_marseille","lat":43.30795,"lon":5.38153,"is_reserved":false,"is_disabled":false,"rental_uris":{"android":"levelo://app?vid=8782eadc-dace-4bd1-983c-8258bfcfc446","ios":"levelo://app?vid=8782eadc-dace-4bd1-983c-8258bfcfc446"},"vehicle_type_id":"4","last_reported":1734818852,"current_range_meters":39200,"station_id":"ce4bgt12rcd13ifvqce0","pricing_plan_id":"cebpf4jnsgd1na2vs0mg"},{"bike_id":"37b8164d-a6f7-4e6e-94f7-caef4fce1be4","system_id":"levelo_inurba_marseille","lat":43.28703,"lon":5.39984,"is_reserved":false,"is_disabled":false,"rental_uris":{"android":"levelo://app?vid=37b8164d-a6f7-4e6e-94f7-caef4fce1be4","ios":"levelo://app?vid=37b8164d-a6f7-4e6e-94f7-caef4fce1be4"},"vehicle_type_id":"4","last_reported":1734818852,"current_range_meters":24000,"station_id":"ce4bho92rcd13ifvqh3g","pricing_plan_id":"cebpf4jnsgd1na2vs0mg"},{"bike_id":"4d18accf-7dca-411e-9c55-1c97d92140a1","system_id":"levelo_inurba_marseille","lat":43.29895,"lon":5.38124,"is_reserved":false,"is_disabled":false,"rental_uris":{"android":"levelo://app?vid=4d18accf-7dca-411e-9c55-1c97d92140a1","ios":"levelo://app?vid=4d18accf-7dca-411e-9c55-1c97d92140a1"},"vehicle_type_id":"4","last_reported":1734818852,"current_range_meters":14400,"station_id":"ce4bgj12rcd13ifvqbc0","pricing_plan_id":"cebpf4jnsgd1na2vs0mg"},{"bike_id":"630f2919-81d1-49d9-bff3-a03696f3982d","system_id":"levelo_inurba_marseille","lat":43.31348,"lon":5.36722,"is_reserved":false,"is_disabled":false,"rental_uris":{"android":"levelo://app?vid=630f2919-81d1-49d9-bff3-a03696f3982d","ios":"levelo://app?vid=630f2919-81d1-49d9-bff3-a03696f3982d"},"vehicle_type_id":"4","last_reported":1734818852,"current_range_meters":38800,"station_id":"ce4bgr92rcd13ifvqc6g","pricing_plan_id":"cebpf4jnsgd1na2vs0mg"},{"bike_id":"bd43934f-1517-4f9e-91d5-6ab67c060c19","system_id":"levelo_inurba_marseille","lat":43.29538,"lon":5.38538,"is_reserved":false,"is_disabled":false,"rental_uris":{"android":"levelo://app?vid=bd43934f-1517-4f9e-91d5-6ab67c060c19","ios":"levelo://app?vid=bd43934f-1517-4f9e-91d5-6ab67c060c19"},"vehicle_type_id":"4","last_reported":1734818852,"current_range_meters":38800,"station_id":"ce4bgih2rcd13ifvqba0","pricing_plan_id":"cebpf4jnsgd1na2vs0mg"},{"bike_id":"23b53f87-fb76-4440-9b81-5d88ad47b7b8","system_id":"levelo_inurba_marseille","lat":43.29528,"lon":5.38537,"is_reserved":false,"is_disabled":false,"rental_uris":{"android":"levelo://app?vid=23b53f87-fb76-4440-9b81-5d88ad47b7b8","ios":"levelo://app?vid=23b53f87-fb76-4440-9b81-5d88ad47b7b8"},"vehicle_type_id":"4","last_reported":1734818852,"current_range_meters":28000,"station_id":"ce4bgih2rcd13ifvqba0","pricing_plan_id":"cebpf4jnsgd1na2vs0mg"},{"bike_id":"4c1de0aa-c1dc-4cc6-8b08-c589e25119a8","system_id":"levelo_inurba_marseille","lat":43.27618,"lon":5.36106,"is_reserved":false,"is_disabled":false,"rental_uris":{"android":"levelo://app?vid=4c1de0aa-c1dc-4cc6-8b08-c589e25119a8","ios":"levelo://app?vid=4c1de0aa-c1dc-4cc6-8b08-c589e25119a8"},"vehicle_type_id":"4","last_reported":1734818852,"current_range_meters":36400,"station_id":"ce4bgj92rcd13ifvqbe0","pricing_plan_id":"cebpf4jnsgd1na2vs0mg"},{"bike_id":"7bcddb9e-1863-435f-9302-5a594872eb76","system_id":"levelo_inurba_marseille","lat":43.28456,"lon":5.35885,"is_reserved":false,"is_disabled":false,"rental_uris":{"android":"levelo://app?vid=7bcddb9e-1863-435f-9302-5a594872eb76","ios":"levelo://app?vid=7bcddb9e-1863-435f-9302-5a594872eb76"},"vehicle_type_id":"4","last_reported":1734818852,"current_range_meters":31200,"station_id":"ce4bhah2rcd13ifvqei0","pricing_plan_id":"cebpf4jnsgd1na2vs0mg"},{"bike_id":"a5131ac6-050c-4d7a-8118-815ba353ed04","system_id":"levelo_inurba_marseille","lat":43.2802,"lon":5.36942,"is_reserved":false,"is_disabled":false,"rental_uris":{"android":"levelo://app?vid=a5131ac6-050c-4d7a-8118-815ba353ed04","ios":"levelo://app?vid=a5131ac6-050c-4d7a-8118-815ba353ed04"},"vehicle_type_id":"4","last_reported":1734818852,"current_range_meters":22000,"station_id":"ce4bha12rcd13ifvqef0","pricing_plan_id":"cebpf4jnsgd1na2vs0mg"},{"bike_id":"e353d62c-c5ff-4f13-94a9-2d54b9fdbe08","system_id":"levelo_inurba_marseille","lat":43.288463,"lon":5.358413,"is_reserved":false,"is_disabled":true,"rental_uris":{"android":"levelo://app?vid=e353d62c-c5ff-4f13-94a9-2d54b9fdbe08","ios":"levelo://app?vid=e353d62c-c5ff-4f13-94a9-2d54b9fdbe08"},"vehicle_type_id":"4","last_reported":1734818852,"current_range_meters":0,"station_id":"ce4bhb12rcd13ifvqem0","pricing_plan_id":"cebpf4jnsgd1na2vs0mg"},{"bike_id":"88cfebe8-3088-46c4-b250-d1b75923a432","system_id":"levelo_inurba_marseille","lat":43.24666,"lon":5.38155,"is_reserved":false,"is_disabled":false,"rental_uris":{"android":"levelo://app?vid=88cfebe8-3088-46c4-b250-d1b75923a432","ios":"levelo://app?vid=88cfebe8-3088-46c4-b250-d1b75923a432"},"vehicle_type_id":"4","last_reported":1734818852,"current_range_meters":12400,"station_id":"ce4bhih2rcd13ifvqfr0","pricing_plan_id":"cebpf4jnsgd1na2vs0mg"},{"bike_id":"085f67b0-44f2-4732-999e-5d735b9a7008","system_id":"levelo_inurba_marseille","lat":43.27373,"lon":5.36255,"is_reserved":false,"is_disabled":false,"rental_uris":{"android":"levelo://app?vid=085f67b0-44f2-4732-999e-5d735b9a7008","ios":"levelo://app?vid=085f67b0-44f2-4732-999e-5d735b9a7008"},"vehicle_type_id":"4","last_reported":1734818852,"current_range_meters":38800,"station_id":"ce4bhbh2rcd13ifvqeo0","pricing_plan_id":"cebpf4jnsgd1na2vs0mg"},{"bike_id":"826f30f8-361a-44e5-9754-a7633a3dca76","system_id":"levelo_inurba_marseille","lat":43.26213,"lon":5.40262,"is_reserved":false,"is_disabled":false,"rental_uris":{"android":"levelo://app?vid=826f30f8-361a-44e5-9754-a7633a3dca76","ios":"levelo://app?vid=826f30f8-361a-44e5-9754-a7633a3dca76"},"vehicle_type_id":"4","last_reported":1734818852,"current_range_meters":37600,"station_id":"","pricing_plan_id":"cebpf4jnsgd1na2vs0mg"},{"bike_id":"3f1dece2-1c86-4b5c-a62f-e8679c1a811f","system_id":"levelo_inurba_marseille","lat":43.29935,"lon":5.36507,"is_reserved":false,"is_disabled":false,"rental_uris":{"android":"levelo://app?vid=3f1dece2-1c86-4b5c-a62f-e8679c1a811f","ios":"levelo://app?vid=3f1dece2-1c86-4b5c-a62f-e8679c1a811f"},"vehicle_type_id":"4","last_reported":1734818852,"current_range_meters":16800,"station_id":"ce4bgm92rcd13ifvqbr0","pricing_plan_id":"cebpf4jnsgd1na2vs0mg"},{"bike_id":"d1f9f9a7-b21e-43c8-ba51-2fb0ec355289","system_id":"levelo_inurba_marseille","lat":43.29974,"lon":5.37166,"is_reserved":false,"is_disabled":false,"rental_uris":{"android":"levelo://app?vid=d1f9f9a7-b21e-43c8-ba51-2fb0ec355289","ios":"levelo://app?vid=d1f9f9a7-b21e-43c8-ba51-2fb0ec355289"},"vehicle_type_id":"4","last_reported":1734818852,"current_range_meters":30400,"station_id":"ce4bgr92rcd13ifvqc7g","pricing_plan_id":"cebpf4jnsgd1na2vs0mg"},